{"data": {"bikes": [{"fusion_lat": 0.0, "is_disabled": 0, "lat": 38.923571, "lon": -77.050707, "fusion_lon": 0.0, "bike_id": "bdd53f5d82db8620757143e777759739", "type": "electric_scooter", "name": "bdd53f5d82db8620757143e777759739", "is_reserved": 0, "rental_uris": {"ios": "https://dc.lft.to/lastmile_qr_scan", "android": "https://dc.lft.to/lastmile_qr_scan"}}, {"fusion_lat": 0.0, "is_disabled": 0, "lat": 38.94440916666667, "lon": -77.063599, "fusion_lon": 0.0, "bike_id": "3491f50ea38ad6c2243744ccb37e3f4f", "type": "electric_scooter", "name": "3491f50ea38ad6c2243744ccb37e3f4f", "is_reserved": 0, "rental_uris": {"ios": "https://dc.lft.to/lastmile_qr_scan", "android": "https://dc.lft.to/lastmile_qr_scan"}}, {"fusion_lat": 0.0, "is_disabled": 0, "lat": 38.90375433333333, "lon": -77.03842716666666, "fusion_lon": 0.0, "bike_id": "006f98dcb1871480079cc04fdc0368d1", "type": "electric_scooter", "name": "006f98dcb1871480079cc04fdc0368d1", "is_reserved": 0, "rental_uris": {"ios": "https://dc.lft.to/lastmile_qr_scan", "android": "https://dc.lft.to/lastmile_qr_scan"}}, {"fusion_lat": 0.0, "is_disabled": 0, "lat": 38.92778833333333, "lon": -77.023159, "fusion_lon": 0.0, "bike_id": "78d9ca5a910b5e005330bb6c94dff488", "type": "electric_scooter", "name": "78d9ca5a910b5e005330bb6c94dff488", "is_reserved": 0, "rental_uris": {"ios": "https://dc.lft.to/lastmile_qr_scan", "android": "https://dc.lft.to/lastmile_qr_scan"}}, {"fusion_lat": 0.0, "is_disabled": 0, "lat": 38.90061383333333, "lon": -77.00736533333334, "fusion_lon": 0.0, "bike_id": "bdb2552f889fdc962bae8c5d9afa48ec", "type": "electric_scooter", "name": "bdb2552f889fdc962bae8c5d9afa48ec", "is_reserved": 0, "rental_uris": {"ios": "https://dc.lft.to/lastmile_qr_scan", "android": "https://dc.lft.to/lastmile_qr_scan"}}, {"fusion_lat": 0.0, "is_disabled": 0, "lat": 38.90239833333333, "lon": -77.03916100000001, "fusion_lon": 0.0, "bike_id": "24d840e7a6a921f000940d0b012b22a8", "type": "electric_scooter", "name": "24d840e7a6a921f000940d0b012b22a8", "is_reserved": 0, "rental_uris": {"ios": "https://dc.lft.to/lastmile_qr_scan", "android": "https://dc.lft.to/lastmile_qr_scan"}}, {"fusion_lat": 0.0, "is_disabled": 0, "lat": 38.89816533333333, "lon": -77.0481555, "fusion_lon": 0.0, "bike_id": "1710ebc3e2a453cda769d16b0d2a8c50", "type": "electric_scooter", "name": "1710ebc3e2a453cda769d16b0d2a8c50", "is_reserved": 0, "rental_uris": {"ios": "https://dc.lft.to/lastmile_qr_scan", "android": "https://dc.lft.to/lastmile_qr_scan"}}, {"fusion_lat": 0.0, "is_disabled": 0, "lat": 38.9019905, "lon": -77.05896, "fusion_lon": 0.0, "bike_id": "dcd3583bbde382a380b6a973e02561b4", "type": "electric_scooter", "name": "dcd3583bbde382a380b6a973e02561b4", "is_reserved": 0, "rental_uris": {"ios": "https://dc.lft.to/lastmile_qr_scan", "android": "https://dc.lft.to/lastmile_qr_scan"}}, {"fusion_lat": 0.0, "is_disabled": 0, "lat": 38.89103983333333, "lon": -77.18423083333333, "fusion_lon": 0.0, "bike_id": "068364a9d919819c486aa2450cb68416", "type": "electric_bike", "name": "068364a9d919819c486aa2450cb68416", "is_reserved": 0, "rental_uris": {"ios": "https://dc.lft.to/lastmile_qr_scan", "android": "https://dc.lft.to/lastmile_qr_scan"}}, {"fusion_lat": 0.0, "is_disabled": 0, "lat": 38.9393355, "lon": -77.03671733333333, "fusion_lon": 0.0, "bike_id": "86f9fbf98552fa5c1a1d0b28106e9fab", "type": "electric_scooter", "name": "86f9fbf98552fa5c1a1d0b28106e9fab", "is_reserved": 0, "rental_uris": {"ios": "https://dc.lft.to/lastmile_qr_scan", "android": "https://dc.lft.to/lastmile_qr_scan"}}, {"fusion_lat": 0.0, "is_disabled": 0, "lat": 38.90554933333333, "lon": -77.00583966666666, "fusion_lon": 0.0, "bike_id": "76558d6e87bd071a0d96e8944cfa4692", "type": "electric_scooter", "name": "76558d6e87bd071a0d96e8944cfa4692", "is_reserved": 0, "rental_uris": {"ios": "https://dc.lft.to/lastmile_qr_scan", "android": "https://dc.lft.to/lastmile_qr_scan"}}, {"fusion_lat": 0.0, "is_disabled": 0, "lat": 38.905691166666664, "lon": -77.00942616666667, "fusion_lon": 0.0, "bike_id": "edea2d8cf23be3fc9223fa770a746045", "type": "electric_scooter", "name": "edea2d8cf23be3fc9223fa770a746045", "is_reserved": 0, "rental_uris": {"ios": "https://dc.lft.to/lastmile_qr_scan", "android": "https://dc.lft.to/lastmile_qr_scan"}}, {"fusion_lat": 0.0, "is_disabled": 0, "lat": 39.08493566666667, "lon": -76.9505015, "fusion_lon": 0.0, "bike_id": "0484b797ae5740e1d841782e0baf7f40", "type": "electric_bike", "name": "0484b797ae5740e1d841782e0baf7f40", "is_reserved": 0, "rental_uris": {"ios": "https://dc.lft.to/lastmile_qr_scan", "android": "https://dc.lft.to/lastmile_qr_scan"}}, {"fusion_lat": 0.0, "is_disabled": 0, "lat": 38.919884, "lon": -77.03245516666667, "fusion_lon": 0.0, "bike_id": "94575fff8fd19804ecc81233a5992bc6", "type": "electric_scooter", "name": "94575fff8fd19804ecc81233a5992bc6", "is_reserved": 0, "rental_uris": {"ios": "https://dc.lft.to/lastmile_qr_scan", "android": "https://dc.lft.to/lastmile_qr_scan"}}, {"fusion_lat": 0.0, "is_disabled": 0, "lat": 38.9025985, "lon": -77.02638916666666, "fusion_lon": 0.0, "bike_id": "45f0b074c4c8021882c4cce23bf5affb", "type": "electric_scooter", "name": "45f0b074c4c8021882c4cce23bf5affb", "is_reserved": 0, "rental_uris": {"ios": "https://dc.lft.to/lastmile_qr_scan", "android": "https://dc.lft.to/lastmile_qr_scan"}}, {"fusion_lat": 0.0, "is_disabled": 0, "lat": 38.91484883333333, "lon": -77.0199755, "fusion_lon": 0.0, "bike_id": "e1c95e8372a5579af1294a3c4e7c2c16", "type": "electric_scooter", "name": "e1c95e8372a5579af1294a3c4e7c2c16", "is_reserved": 0, "rental_uris": {"ios": "https://dc.lft.to/lastmile_qr_scan", "android": "https://dc.lft.to/lastmile_qr_scan"}}, {"fusion_lat": 0.0, "is_disabled": 0, "lat": 38.856531, "lon": -76.996748, "fusion_lon": 0.0, "bike_id": "77ff64df27f71c3be025ef3ddad32155", "type": "electric_scooter", "name": "77ff64df27f71c3be025ef3ddad32155", "is_reserved": 0, "rental_uris": {"ios": "https://dc.lft.to/lastmile_qr_scan", "android": "https://dc.lft.to/lastmile_qr_scan"}}, {"fusion_lat": 0.0, "is_disabled": 0, "lat": 38.8845095, "lon": -77.000586, "fusion_lon": 0.0, "bike_id": "2eb004591e488aaf6dd442dfe0aa3252", "type": "electric_scooter", "name": "2eb004591e488aaf6dd442dfe0aa3252", "is_reserved": 0, "rental_uris": {"ios": "https://dc.lft.to/lastmile_qr_scan", "android": "https://dc.lft.to/lastmile_qr_scan"}}, {"fusion_lat": 0.0, "is_disabled": 0, "lat": 38.923990333333336, "lon": -77.02718933333334, "fusion_lon": 0.0, "bike_id": "add9df38e7216b843eef909f6463ffd1", "type": "electric_scooter", "name": "add9df38e7216b843eef909f6463ffd1", "is_reserved": 0, "rental_uris": {"ios": "https://dc.lft.to/lastmile_qr_scan", "android": "https://dc.lft.to/lastmile_qr_scan"}}, {"fusion_lat": 0.0, "is_disabled": 0, "lat": 38.92243066666666, "lon": -77.0195415, "fusion_lon": 0.0, "bike_id": "84394863fbd492afea5a47334368488c", "type": "electric_scooter", "name": "84394863fbd492afea5a47334368488c", "is_reserved": 0, "rental_uris": {"ios": "https://dc.lft.to/lastmile_qr_scan", "android": "https://dc.lft.to/lastmile_qr_scan"}}, {"fusion_lat": 0.0, "is_disabled": 0, "lat": 38.917108999999996, "lon": -77.03442533333333, "fusion_lon": 0.0, "bike_id": "4cb4d0e4415e34a921e4508e8e432169", "type": "electric_scooter", "name": "4cb4d0e4415e34a921e4508e8e432169", "is_reserved": 0, "rental_uris": {"ios": "https://dc.lft.to/lastmile_qr_scan", "android": "https://dc.lft.to/lastmile_qr_scan"}}, {"fusion_lat": 0.0, "is_disabled": 0, "lat": 38.910579166666665, "lon": -77.0410065, "fusion_lon": 0.0, "bike_id": "c97847ba6bb043c13881d8b7ce8539e6", "type": "electric_scooter", "name": "c97847ba6bb043c13881d8b7ce8539e6", "is_reserved": 0, "rental_uris": {"ios": "https://dc.lft.to/lastmile_qr_scan", "android": "https://dc.lft.to/lastmile_qr_scan"}}, {"fusion_lat": 0.0, "is_disabled": 0, "lat": 38.9073365, "lon": -77.04576283333333, "fusion_lon": 0.0, "bike_id": "12f6c392d1222f2a8b488c3d102fb82f", "type": "electric_scooter", "name": "12f6c392d1222f2a8b488c3d102fb82f", "is_reserved": 0, "rental_uris": {"ios": "https://dc.lft.to/lastmile_qr_scan", "android": "https://dc.lft.to/lastmile_qr_scan"}}, {"fusion_lat": 0.0, "is_disabled": 0, "lat": 38.872215833333335, "lon": -77.016152, "fusion_lon": 0.0, "bike_id": "01c1048978ee569e7698318992c2c598", "type": "electric_scooter", "name": "01c1048978ee569e7698318992c2c598", "is_reserved": 0, "rental_uris": {"ios": "https://dc.lft.to/lastmile_qr_scan", "android": "https://dc.lft.to/lastmile_qr_scan"}}, {"fusion_lat": 0.0, "is_disabled": 0, "lat": 38.910981666666665, "lon": -77.0734745, "fusion_lon": 0.0, "bike_id": "54db92c5779d88cd22070aca8650e14e", "type": "electric_scooter", "name": "54db92c5779d88cd22070aca8650e14e", "is_reserved": 0, "rental_uris": {"ios": "https://dc.lft.to/lastmile_qr_scan", "android": "https://dc.lft.to/lastmile_qr_scan"}}, {"fusion_lat": 0.0, "is_disabled": 0, "lat": 38.90059733333333, "lon": -76.98706333333334, "fusion_lon": 0.0, "bike_id": "335d932705702bb1de85eacef203892e", "type": "electric_scooter", "name": "335d932705702bb1de85eacef203892e", "is_reserved": 0, "rental_uris": {"ios": "https://dc.lft.to/lastmile_qr_scan", "android": "https://dc.lft.to/lastmile_qr_scan"}}, {"fusion_lat": 0.0, "is_disabled": 0, "lat": 38.90042483333333, "lon": -77.031845, "fusion_lon": 0.0, "bike_id": "ab089b24e2ed53e2d52e9522271e793e", "type": "electric_scooter", "name": "ab089b24e2ed53e2d52e9522271e793e", "is_reserved": 0, "rental_uris": {"ios": "https://dc.lft.to/lastmile_qr_scan", "android": "https://dc.lft.to/lastmile_qr_scan"}}, {"fusion_lat": 0.0, "is_disabled": 0, "lat": 38.91545416666666, "lon": -77.03187016666666, "fusion_lon": 0.0, "bike_id": "656c8cd48189e04107b27ab48554968e", "type": "electric_scooter", "name": "656c8cd48189e04107b27ab48554968e", "is_reserved": 0, "rental_uris": {"ios": "https://dc.lft.to/lastmile_qr_scan", "android": "https://dc.lft.to/lastmile_qr_scan"}}, {"fusion_lat": 0.0, "is_disabled": 0, "lat": 38.92190316666667, "lon": -77.042436, "fusion_lon": 0.0, "bike_id": "1b6a4041a05307672e5ec607ae6dceb0", "type": "electric_scooter", "name": "1b6a4041a05307672e5ec607ae6dceb0", "is_reserved": 0, "rental_uris": {"ios": "https://dc.lft.to/lastmile_qr_scan", "android": "https://dc.lft.to/lastmile_qr_scan"}}, {"fusion_lat": 0.0, "is_disabled": 0, "lat": 38.80405116666667, "lon": -77.11333916666666, "fusion_lon": 0.0, "bike_id": "447359105efecc41ab8329d0398539ac", "type": "electric_bike", "name": "447359105efecc41ab8329d0398539ac", "is_reserved": 0, "rental_uris": {"ios": "https://dc.lft.to/lastmile_qr_scan", "android": "https://dc.lft.to/lastmile_qr_scan"}}, {"fusion_lat": 0.0, "is_disabled": 0, "lat": 38.90566533333333, "lon": -77.0435625, "fusion_lon": 0.0, "bike_id": "636db0f98b8310bd91f9919b38bb5eb0", "type": "electric_scooter", "name": "636db0f98b8310bd91f9919b38bb5eb0", "is_reserved": 0, "rental_uris": {"ios": "https://dc.lft.to/lastmile_qr_scan", "android": "https://dc.lft.to/lastmile_qr_scan"}}, {"fusion_lat": 0.0, "is_disabled": 0, "lat": 38.90750716666667, "lon": -77.04534616666666, "fusion_lon": 0.0, "bike_id": "ac6d3a10dd12eb1b29d8f74eff7c8846", "type": "electric_scooter", "name": "ac6d3a10dd12eb1b29d8f74eff7c8846", "is_reserved": 0, "rental_uris": {"ios": "https://dc.lft.to/lastmile_qr_scan", "android": "https://dc.lft.to/lastmile_qr_scan"}}, {"fusion_lat": 0.0, "is_disabled": 0, "lat": 38.94715866666667, "lon": -77.02565466666667, "fusion_lon": 0.0, "bike_id": "f1c4466ff2069defe207488d7ac5a19e", "type": "electric_scooter", "name": "f1c4466ff2069defe207488d7ac5a19e", "is_reserved": 0, "rental_uris": {"ios": "https://dc.lft.to/lastmile_qr_scan", "android": "https://dc.lft.to/lastmile_qr_scan"}}, {"fusion_lat": 0.0, "is_disabled": 0, "lat": 38.8848455, "lon": -77.00703333333334, "fusion_lon": 0.0, "bike_id": "ff4685b29f89e5e2a028108ca11053c5", "type": "electric_scooter", "name": "ff4685b29f89e5e2a028108ca11053c5", "is_reserved": 0, "rental_uris": {"ios": "https://dc.lft.to/lastmile_qr_scan", "android": "https://dc.lft.to/lastmile_qr_scan"}}, {"fusion_lat": 0.0, "is_disabled": 0, "lat": 38.9095825, "lon": -77.03683266666667, "fusion_lon": 0.0, "bike_id": "280b64767f40896261582748784cee13", "type": "electric_scooter", "name": "280b64767f40896261582748784cee13", "is_reserved": 0, "rental_uris": {"ios": "https://dc.lft.to/lastmile_qr_scan", "android": "https://dc.lft.to/lastmile_qr_scan"}}, {"fusion_lat": 0.0, "is_disabled": 0, "lat": 38.93224983333333, "lon": -76.99696916666667, "fusion_lon": 0.0, "bike_id": "e92335db7e47dee8527a30109a8f4560", "type": "electric_scooter", "name": "e92335db7e47dee8527a30109a8f4560", "is_reserved": 0, "rental_uris": {"ios": "https://dc.lft.to/lastmile_qr_scan", "android": "https://dc.lft.to/lastmile_qr_scan"}}, {"fusion_lat": 0.0, "is_disabled": 0, "lat": 38.91568183333333, "lon": -77.03205033333333, "fusion_lon": 0.0, "bike_id": "358c82266e6182a0c0bc2fa027669c64", "type": "electric_scooter", "name": "358c82266e6182a0c0bc2fa027669c64", "is_reserved": 0, "rental_uris": {"ios": "https://dc.lft.to/lastmile_qr_scan", "android": "https://dc.lft.to/lastmile_qr_scan"}}, {"fusion_lat": 0.0, "is_disabled": 0, "lat": 38.89192366666666, "lon": -77.003012, "fusion_lon": 0.0, "bike_id": "5779353644289cb07b1d243c19631c20", "type": "electric_scooter", "name": "5779353644289cb07b1d243c19631c20", "is_reserved": 0, "rental_uris": {"ios": "https://dc.lft.to/lastmile_qr_scan", "android": "https://dc.lft.to/lastmile_qr_scan"}}, {"fusion_lat": 0.0, "is_disabled": 0, "lat": 38.89008033333333, "lon": -76.937535, "fusion_lon": 0.0, "bike_id": "2c362f6392f00f09ce03b0b7a969b689", "type": "electric_scooter", "name": "2c362f6392f00f09ce03b0b7a969b689", "is_reserved": 0, "rental_uris": {"ios": "https://dc.lft.to/lastmile_qr_scan", "android": "https://dc.lft.to/lastmile_qr_scan"}}, {"fusion_lat": 0.0, "is_disabled": 0, "lat": 38.915639166666665, "lon": -77.03195816666667, "fusion_lon": 0.0, "bike_id": "3364610874f3503578934aa0ae55b568", "type": "electric_scooter", "name": "3364610874f3503578934aa0ae55b568", "is_reserved": 0, "rental_uris": {"ios": "https://dc.lft.to/lastmile_qr_scan", "android": "https://dc.lft.to/lastmile_qr_scan"}}, {"fusion_lat": 0.0, "is_disabled": 0, "lat": 38.90043333333333, "lon": -76.99153466666667, "fusion_lon": 0.0, "bike_id": "aa2e39c9ebeee6ac31cc2fafada8ba18", "type": "electric_scooter", "name": "aa2e39c9ebeee6ac31cc2fafada8ba18", "is_reserved": 0, "rental_uris": {"ios": "https://dc.lft.to/lastmile_qr_scan", "android": "https://dc.lft.to/lastmile_qr_scan"}}, {"fusion_lat": 0.0, "is_disabled": 0, "lat": 38.924125833333335, "lon": -77.05068, "fusion_lon": 0.0, "bike_id": "2286c04f5f736a7bea8c2f5cd88d4287", "type": "electric_scooter", "name": "2286c04f5f736a7bea8c2f5cd88d4287", "is_reserved": 0, "rental_uris": {"ios": "https://dc.lft.to/lastmile_qr_scan", "android": "https://dc.lft.to/lastmile_qr_scan"}}, {"fusion_lat": 0.0, "is_disabled": 0, "lat": 38.898307, "lon": -76.94635283333334, "fusion_lon": 0.0, "bike_id": "ac7459c9af1e4e8f58c251d94f374ef9", "type": "electric_scooter", "name": "ac7459c9af1e4e8f58c251d94f374ef9", "is_reserved": 0, "rental_uris": {"ios": "https://dc.lft.to/lastmile_qr_scan", "android": "https://dc.lft.to/lastmile_qr_scan"}}, {"fusion_lat": 0.0, "is_disabled": 0, "lat": 38.917088666666665, "lon": -77.02308516666666, "fusion_lon": 0.0, "bike_id": "43e15c1fe030cd331600fb559a58fde1", "type": "electric_scooter", "name": "43e15c1fe030cd331600fb559a58fde1", "is_reserved": 0, "rental_uris": {"ios": "https://dc.lft.to/lastmile_qr_scan", "android": "https://dc.lft.to/lastmile_qr_scan"}}, {"fusion_lat": 0.0, "is_disabled": 0, "lat": 38.894889166666665, "lon": -76.9950175, "fusion_lon": 0.0, "bike_id": "2b422be55ec9b5529e28b97fb4449f5a", "type": "electric_scooter", "name": "2b422be55ec9b5529e28b97fb4449f5a", "is_reserved": 0, "rental_uris": {"ios": "https://dc.lft.to/lastmile_qr_scan", "android": "https://dc.lft.to/lastmile_qr_scan"}}, {"fusion_lat": 0.0, "is_disabled": 0, "lat": 38.905598499999996, "lon": -77.04071083333334, "fusion_lon": 0.0, "bike_id": "eb4e3e6bcfe600ee5d1d11c1a8ee2af1", "type": "electric_scooter", "name": "eb4e3e6bcfe600ee5d1d11c1a8ee2af1", "is_reserved": 0, "rental_uris": {"ios": "https://dc.lft.to/lastmile_qr_scan", "android": "https://dc.lft.to/lastmile_qr_scan"}}, {"fusion_lat": 0.0, "is_disabled": 0, "lat": 38.898886, "lon": -77.047709, "fusion_lon": 0.0, "bike_id": "300895d4a167ce83adb9d73884a1b719", "type": "electric_scooter", "name": "300895d4a167ce83adb9d73884a1b719", "is_reserved": 0, "rental_uris": {"ios": "https://dc.lft.to/lastmile_qr_scan", "android": "https://dc.lft.to/lastmile_qr_scan"}}, {"fusion_lat": 0.0, "is_disabled": 0, "lat": 38.9038395, "lon": -77.02622466666666, "fusion_lon": 0.0, "bike_id": "c50c2eba2331f421bf9d352f2010b8ab", "type": "electric_scooter", "name": "c50c2eba2331f421bf9d352f2010b8ab", "is_reserved": 0, "rental_uris": {"ios": "https://dc.lft.to/lastmile_qr_scan", "android": "https://dc.lft.to/lastmile_qr_scan"}}, {"fusion_lat": 0.0, "is_disabled": 0, "lat": 38.90024916666667, "lon": -76.99849733333333, "fusion_lon": 0.0, "bike_id": "572cf4fa46465dc9f0f39e9f66e6e295", "type": "electric_scooter", "name": "572cf4fa46465dc9f0f39e9f66e6e295", "is_reserved": 0, "rental_uris": {"ios": "https://dc.lft.to/lastmile_qr_scan", "android": "https://dc.lft.to/lastmile_qr_scan"}}, {"fusion_lat": 0.0, "is_disabled": 0, "lat": 38.915533333333336, "lon": -77.02050466666667, "fusion_lon": 0.0, "bike_id": "59759914e382ad785264f7dabd4b36f5", "type": "electric_scooter", "name": "59759914e382ad785264f7dabd4b36f5", "is_reserved": 0, "rental_uris": {"ios": "https://dc.lft.to/lastmile_qr_scan", "android": "https://dc.lft.to/lastmile_qr_scan"}}, {"fusion_lat": 0.0, "is_disabled": 0, "lat": 38.86740366666667, "lon": -77.01379366666667, "fusion_lon": 0.0, "bike_id": "256d88a687d9637ede7c76da325b5064", "type": "electric_scooter", "name": "256d88a687d9637ede7c76da325b5064", "is_reserved": 0, "rental_uris": {"ios": "https://dc.lft.to/lastmile_qr_scan", "android": "https://dc.lft.to/lastmile_qr_scan"}}, {"fusion_lat": 0.0, "is_disabled": 0, "lat": 38.917077, "lon": -77.0114155, "fusion_lon": 0.0, "bike_id": "4253e9f010d89a7e7b2781b2ac19d910", "type": "electric_scooter", "name": "4253e9f010d89a7e7b2781b2ac19d910", "is_reserved": 0, "rental_uris": {"ios": "https://dc.lft.to/lastmile_qr_scan", "android": "https://dc.lft.to/lastmile_qr_scan"}}, {"fusion_lat": 0.0, "is_disabled": 0, "lat": 38.89257166666667, "lon": -77.00371816666667, "fusion_lon": 0.0, "bike_id": "15e2cb092ff8bfb347b76e27a2dee7e4", "type": "electric_scooter", "name": "15e2cb092ff8bfb347b76e27a2dee7e4", "is_reserved": 0, "rental_uris": {"ios": "https://dc.lft.to/lastmile_qr_scan", "android": "https://dc.lft.to/lastmile_qr_scan"}}, {"fusion_lat": 0.0, "is_disabled": 0, "lat": 38.91510183333333, "lon": -77.02189516666667, "fusion_lon": 0.0, "bike_id": "00eee743a0076198041499c164d048fa", "type": "electric_scooter", "name": "00eee743a0076198041499c164d048fa", "is_reserved": 0, "rental_uris": {"ios": "https://dc.lft.to/lastmile_qr_scan", "android": "https://dc.lft.to/lastmile_qr_scan"}}, {"fusion_lat": 0.0, "is_disabled": 0, "lat": 38.89209533333333, "lon": -76.9795955, "fusion_lon": 0.0, "bike_id": "b31b27aca9207d066b2bf258b24151af", "type": "electric_scooter", "name": "b31b27aca9207d066b2bf258b24151af", "is_reserved": 0, "rental_uris": {"ios": "https://dc.lft.to/lastmile_qr_scan", "android": "https://dc.lft.to/lastmile_qr_scan"}}, {"fusion_lat": 0.0, "is_disabled": 0, "lat": 38.916719, "lon": -77.0227315, "fusion_lon": 0.0, "bike_id": "a4c3f77fb887034b917a33ec49634d7d", "type": "electric_scooter", "name": "a4c3f77fb887034b917a33ec49634d7d", "is_reserved": 0, "rental_uris": {"ios": "https://dc.lft.to/lastmile_qr_scan", "android": "https://dc.lft.to/lastmile_qr_scan"}}, {"fusion_lat": 0.0, "is_disabled": 0, "lat": 38.91863416666666, "lon": -77.044843, "fusion_lon": 0.0, "bike_id": "838cfa08e9c92737920fa060b8608d6d", "type": "electric_scooter", "name": "838cfa08e9c92737920fa060b8608d6d", "is_reserved": 0, "rental_uris": {"ios": "https://dc.lft.to/lastmile_qr_scan", "android": "https://dc.lft.to/lastmile_qr_scan"}}, {"fusion_lat": 0.0, "is_disabled": 0, "lat": 38.98016833333333, "lon": -76.942533, "fusion_lon": 0.0, "bike_id": "ec93391d4b022d66755c6ff5f24d3fe2", "type": "electric_bike", "name": "ec93391d4b022d66755c6ff5f24d3fe2", "is_reserved": 0, "rental_uris": {"ios": "https://dc.lft.to/lastmile_qr_scan", "android": "https://dc.lft.to/lastmile_qr_scan"}}, {"fusion_lat": 0.0, "is_disabled": 0, "lat": 38.9246475, "lon": -77.0524165, "fusion_lon": 0.0, "bike_id": "1857654ac54ae7e191cd89a1e9d2fe35", "type": "electric_scooter", "name": "1857654ac54ae7e191cd89a1e9d2fe35", "is_reserved": 0, "rental_uris": {"ios": "https://dc.lft.to/lastmile_qr_scan", "android": "https://dc.lft.to/lastmile_qr_scan"}}, {"fusion_lat": 0.0, "is_disabled": 0, "lat": 38.904995166666666, "lon": -77.03447316666667, "fusion_lon": 0.0, "bike_id": "373d955c8724d16373c577501f330365", "type": "electric_scooter", "name": "373d955c8724d16373c577501f330365", "is_reserved": 0, "rental_uris": {"ios": "https://dc.lft.to/lastmile_qr_scan", "android": "https://dc.lft.to/lastmile_qr_scan"}}, {"fusion_lat": 0.0, "is_disabled": 0, "lat": 38.886225833333334, "lon": -77.02204683333333, "fusion_lon": 0.0, "bike_id": "4f8921ab2a1c5e05861676e7b87b79c8", "type": "electric_scooter", "name": "4f8921ab2a1c5e05861676e7b87b79c8", "is_reserved": 0, "rental_uris": {"ios": "https://dc.lft.to/lastmile_qr_scan", "android": "https://dc.lft.to/lastmile_qr_scan"}}, {"fusion_lat": 0.0, "is_disabled": 0, "lat": 38.87170966666667, "lon": -77.23393316666667, "fusion_lon": 0.0, "bike_id": "60a72a4fa94a335c25f438a0d4908eef", "type": "electric_bike", "name": "60a72a4fa94a335c25f438a0d4908eef", "is_reserved": 0, "rental_uris": {"ios": "https://dc.lft.to/lastmile_qr_scan", "android": "https://dc.lft.to/lastmile_qr_scan"}}, {"fusion_lat": 0.0, "is_disabled": 0, "lat": 38.9236885, "lon": -77.05151366666666, "fusion_lon": 0.0, "bike_id": "f818342fc5ff74981b06f63e7e6919c3", "type": "electric_scooter", "name": "f818342fc5ff74981b06f63e7e6919c3", "is_reserved": 0, "rental_uris": {"ios": "https://dc.lft.to/lastmile_qr_scan", "android": "https://dc.lft.to/lastmile_qr_scan"}}, {"fusion_lat": 0.0, "is_disabled": 0, "lat": 38.924991166666665, "lon": -77.02160383333333, "fusion_lon": 0.0, "bike_id": "1f9642a0af8afe8dc84dcc1d1f6cb12c", "type": "electric_scooter", "name": "1f9642a0af8afe8dc84dcc1d1f6cb12c", "is_reserved": 0, "rental_uris": {"ios": "https://dc.lft.to/lastmile_qr_scan", "android": "https://dc.lft.to/lastmile_qr_scan"}}, {"fusion_lat": 0.0, "is_disabled": 0, "lat": 38.92671983333334, "lon": -77.05437183333333, "fusion_lon": 0.0, "bike_id": "77c59b6bb4698126aa920763cb81536a", "type": "electric_scooter", "name": "77c59b6bb4698126aa920763cb81536a", "is_reserved": 0, "rental_uris": {"ios": "https://dc.lft.to/lastmile_qr_scan", "android": "https://dc.lft.to/lastmile_qr_scan"}}, {"fusion_lat": 0.0, "is_disabled": 0, "lat": 38.898455, "lon": -77.0410635, "fusion_lon": 0.0, "bike_id": "bbb2946a451d2a1efb87c1dce46b1f99", "type": "electric_scooter", "name": "bbb2946a451d2a1efb87c1dce46b1f99", "is_reserved": 0, "rental_uris": {"ios": "https://dc.lft.to/lastmile_qr_scan", "android": "https://dc.lft.to/lastmile_qr_scan"}}, {"fusion_lat": 0.0, "is_disabled": 0, "lat": 38.924558166666664, "lon": -76.97231483333333, "fusion_lon": 0.0, "bike_id": "7475625bdc7b3983c792a48b86d4aa87", "type": "electric_scooter", "name": "7475625bdc7b3983c792a48b86d4aa87", "is_reserved": 0, "rental_uris": {"ios": "https://dc.lft.to/lastmile_qr_scan", "android": "https://dc.lft.to/lastmile_qr_scan"}}, {"fusion_lat": 0.0, "is_disabled": 0, "lat": 38.864821166666665, "lon": -76.9774195, "fusion_lon": 0.0, "bike_id": "6d90105ab6d65094f77fb2a51d5b063f", "type": "electric_bike", "name": "6d90105ab6d65094f77fb2a51d5b063f", "is_reserved": 0, "rental_uris": {"ios": "https://dc.lft.to/lastmile_qr_scan", "android": "https://dc.lft.to/lastmile_qr_scan"}}, {"fusion_lat": 0.0, "is_disabled": 0, "lat": 38.888434833333335, "lon": -76.977185, "fusion_lon": 0.0, "bike_id": "5a8132e5e5df052ee52b5e6014dc8fe1", "type": "electric_scooter", "name": "5a8132e5e5df052ee52b5e6014dc8fe1", "is_reserved": 0, "rental_uris": {"ios": "https://dc.lft.to/lastmile_qr_scan", "android": "https://dc.lft.to/lastmile_qr_scan"}}, {"fusion_lat": 0.0, "is_disabled": 0, "lat": 38.90251383333333, "lon": -77.03906566666667, "fusion_lon": 0.0, "bike_id": "ecd239d74e5310a424eda33e266b811f", "type": "electric_scooter", "name": "ecd239d74e5310a424eda33e266b811f", "is_reserved": 0, "rental_uris": {"ios": "https://dc.lft.to/lastmile_qr_scan", "android": "https://dc.lft.to/lastmile_qr_scan"}}, {"fusion_lat": 0.0, "is_disabled": 0, "lat": 38.89221583333333, "lon": -77.04801916666666, "fusion_lon": 0.0, "bike_id": "a4ddbb12d9a5ab0886b1d7dc9d9f73c1", "type": "electric_scooter", "name": "a4ddbb12d9a5ab0886b1d7dc9d9f73c1", "is_reserved": 0, "rental_uris": {"ios": "https://dc.lft.to/lastmile_qr_scan", "android": "https://dc.lft.to/lastmile_qr_scan"}}, {"fusion_lat": 0.0, "is_disabled": 0, "lat": 38.924403, "lon": -77.0215035, "fusion_lon": 0.0, "bike_id": "adda4da637f9974c8e71e674069e4255", "type": "electric_scooter", "name": "adda4da637f9974c8e71e674069e4255", "is_reserved": 0, "rental_uris": {"ios": "https://dc.lft.to/lastmile_qr_scan", "android": "https://dc.lft.to/lastmile_qr_scan"}}, {"fusion_lat": 0.0, "is_disabled": 0, "lat": 38.93249333333333, "lon": -76.997179, "fusion_lon": 0.0, "bike_id": "5048ed6630de26aee2aca20127a62e34", "type": "electric_bike", "name": "5048ed6630de26aee2aca20127a62e34", "is_reserved": 0, "rental_uris": {"ios": "https://dc.lft.to/lastmile_qr_scan", "android": "https://dc.lft.to/lastmile_qr_scan"}}, {"fusion_lat": 0.0, "is_disabled": 0, "lat": 38.91686133333333, "lon": -77.03323, "fusion_lon": 0.0, "bike_id": "63fd51005ad0cdb9bc2f49066009be69", "type": "electric_scooter", "name": "63fd51005ad0cdb9bc2f49066009be69", "is_reserved": 0, "rental_uris": {"ios": "https://dc.lft.to/lastmile_qr_scan", "android": "https://dc.lft.to/lastmile_qr_scan"}}, {"fusion_lat": 0.0, "is_disabled": 0, "lat": 38.90545733333333, "lon": -77.05713166666666, "fusion_lon": 0.0, "bike_id": "96a3c65c5e309254a40380740bdbded7", "type": "electric_scooter", "name": "96a3c65c5e309254a40380740bdbded7", "is_reserved": 0, "rental_uris": {"ios": "https://dc.lft.to/lastmile_qr_scan", "android": "https://dc.lft.to/lastmile_qr_scan"}}, {"fusion_lat": 0.0, "is_disabled": 0, "lat": 38.9177685, "lon": -77.0320855, "fusion_lon": 0.0, "bike_id": "9c618a89da8f366d81304e23d80591dd", "type": "electric_scooter", "name": "9c618a89da8f366d81304e23d80591dd", "is_reserved": 0, "rental_uris": {"ios": "https://dc.lft.to/lastmile_qr_scan", "android": "https://dc.lft.to/lastmile_qr_scan"}}, {"fusion_lat": 0.0, "is_disabled": 0, "lat": 38.915680333333334, "lon": -77.05045533333333, "fusion_lon": 0.0, "bike_id": "346abadf63c0bd6cc59723238ed7c918", "type": "electric_scooter", "name": "346abadf63c0bd6cc59723238ed7c918", "is_reserved": 0, "rental_uris": {"ios": "https://dc.lft.to/lastmile_qr_scan", "android": "https://dc.lft.to/lastmile_qr_scan"}}, {"fusion_lat": 0.0, "is_disabled": 0, "lat": 38.903677333333334, "lon": -77.00982283333333, "fusion_lon": 0.0, "bike_id": "9a68dcefb1b2eb9bdb4c5e2b6360fac4", "type": "electric_scooter", "name": "9a68dcefb1b2eb9bdb4c5e2b6360fac4", "is_reserved": 0, "rental_uris": {"ios": "https://dc.lft.to/lastmile_qr_scan", "android": "https://dc.lft.to/lastmile_qr_scan"}}, {"fusion_lat": 0.0, "is_disabled": 0, "lat": 38.92121483333333, "lon": -77.03660866666667, "fusion_lon": 0.0, "bike_id": "504f2c70203c117956794363ecb4ca4f", "type": "electric_scooter", "name": "504f2c70203c117956794363ecb4ca4f", "is_reserved": 0, "rental_uris": {"ios": "https://dc.lft.to/lastmile_qr_scan", "android": "https://dc.lft.to/lastmile_qr_scan"}}, {"fusion_lat": 0.0, "is_disabled": 0, "lat": 38.9039385, "lon": -77.006724, "fusion_lon": 0.0, "bike_id": "72e6a5981c140d8fe5f91492879bb9c5", "type": "electric_scooter", "name": "72e6a5981c140d8fe5f91492879bb9c5", "is_reserved": 0, "rental_uris": {"ios": "https://dc.lft.to/lastmile_qr_scan", "android": "https://dc.lft.to/lastmile_qr_scan"}}, {"fusion_lat": 0.0, "is_disabled": 0, "lat": 38.90561683333333, "lon": -77.043805, "fusion_lon": 0.0, "bike_id": "acc206c96cf226474799ca5c9fb99056", "type": "electric_scooter", "name": "acc206c96cf226474799ca5c9fb99056", "is_reserved": 0, "rental_uris": {"ios": "https://dc.lft.to/lastmile_qr_scan", "android": "https://dc.lft.to/lastmile_qr_scan"}}, {"fusion_lat": 0.0, "is_disabled": 0, "lat": 38.905234, "lon": -77.06447616666667, "fusion_lon": 0.0, "bike_id": "10fde1f820f727bd84f3c07151120cbf", "type": "electric_scooter", "name": "10fde1f820f727bd84f3c07151120cbf", "is_reserved": 0, "rental_uris": {"ios": "https://dc.lft.to/lastmile_qr_scan", "android": "https://dc.lft.to/lastmile_qr_scan"}}, {"fusion_lat": 0.0, "is_disabled": 0, "lat": 38.905594666666666, "lon": -77.0339715, "fusion_lon": 0.0, "bike_id": "b46c5757846cbb42c42ebc01fa4d3b94", "type": "electric_scooter", "name": "b46c5757846cbb42c42ebc01fa4d3b94", "is_reserved": 0, "rental_uris": {"ios": "https://dc.lft.to/lastmile_qr_scan", "android": "https://dc.lft.to/lastmile_qr_scan"}}, {"fusion_lat": 0.0, "is_disabled": 0, "lat": 38.92239883333333, "lon": -77.03665416666666, "fusion_lon": 0.0, "bike_id": "74592587a9be03899d1ad31ee8d564be", "type": "electric_scooter", "name": "74592587a9be03899d1ad31ee8d564be", "is_reserved": 0, "rental_uris": {"ios": "https://dc.lft.to/lastmile_qr_scan", "android": "https://dc.lft.to/lastmile_qr_scan"}}, {"fusion_lat": 0.0, "is_disabled": 0, "lat": 38.89870066666667, "lon": -77.04886433333333, "fusion_lon": 0.0, "bike_id": "c8095e99e145bc6a1eafe9fb784f874f", "type": "electric_scooter", "name": "c8095e99e145bc6a1eafe9fb784f874f", "is_reserved": 0, "rental_uris": {"ios": "https://dc.lft.to/lastmile_qr_scan", "android": "https://dc.lft.to/lastmile_qr_scan"}}, {"fusion_lat": 0.0, "is_disabled": 0, "lat": 38.9039165, "lon": -77.0210585, "fusion_lon": 0.0, "bike_id": "bcccbc9480c78ef2d03ddcbaff1b8897", "type": "electric_scooter", "name": "bcccbc9480c78ef2d03ddcbaff1b8897", "is_reserved": 0, "rental_uris": {"ios": "https://dc.lft.to/lastmile_qr_scan", "android": "https://dc.lft.to/lastmile_qr_scan"}}, {"fusion_lat": 0.0, "is_disabled": 0, "lat": 38.94182633333333, "lon": -77.024911, "fusion_lon": 0.0, "bike_id": "8aa82dd788aab717ea63687bde0c64e1", "type": "electric_scooter", "name": "8aa82dd788aab717ea63687bde0c64e1", "is_reserved": 0, "rental_uris": {"ios": "https://dc.lft.to/lastmile_qr_scan", "android": "https://dc.lft.to/lastmile_qr_scan"}}, {"fusion_lat": 0.0, "is_disabled": 0, "lat": 38.907639333333336, "lon": -77.04341633333334, "fusion_lon": 0.0, "bike_id": "da6e634ff9b23ca6751c6497687bff27", "type": "electric_scooter", "name": "da6e634ff9b23ca6751c6497687bff27", "is_reserved": 0, "rental_uris": {"ios": "https://dc.lft.to/lastmile_qr_scan", "android": "https://dc.lft.to/lastmile_qr_scan"}}, {"fusion_lat": 0.0, "is_disabled": 0, "lat": 38.9126885, "lon": -77.040431, "fusion_lon": 0.0, "bike_id": "54df03225ec038f4c6e2e6997557b52f", "type": "electric_scooter", "name": "54df03225ec038f4c6e2e6997557b52f", "is_reserved": 0, "rental_uris": {"ios": "https://dc.lft.to/lastmile_qr_scan", "android": "https://dc.lft.to/lastmile_qr_scan"}}, {"fusion_lat": 0.0, "is_disabled": 0, "lat": 38.923279, "lon": -77.03675433333333, "fusion_lon": 0.0, "bike_id": "b896d02611a7a88fec0d7d2dcc6e57c4", "type": "electric_scooter", "name": "b896d02611a7a88fec0d7d2dcc6e57c4", "is_reserved": 0, "rental_uris": {"ios": "https://dc.lft.to/lastmile_qr_scan", "android": "https://dc.lft.to/lastmile_qr_scan"}}, {"fusion_lat": 0.0, "is_disabled": 0, "lat": 38.913725666666664, "lon": -77.046647, "fusion_lon": 0.0, "bike_id": "ffb60e25afb41a9565e45c87fbf5ec19", "type": "electric_scooter", "name": "ffb60e25afb41a9565e45c87fbf5ec19", "is_reserved": 0, "rental_uris": {"ios": "https://dc.lft.to/lastmile_qr_scan", "android": "https://dc.lft.to/lastmile_qr_scan"}}, {"fusion_lat": 0.0, "is_disabled": 0, "lat": 38.9299615, "lon": -77.0234965, "fusion_lon": 0.0, "bike_id": "cff48bfbba49d51f9b75a110438ddddb", "type": "electric_scooter", "name": "cff48bfbba49d51f9b75a110438ddddb", "is_reserved": 0, "rental_uris": {"ios": "https://dc.lft.to/lastmile_qr_scan", "android": "https://dc.lft.to/lastmile_qr_scan"}}, {"fusion_lat": 0.0, "is_disabled": 0, "lat": 38.883251333333334, "lon": -77.01377166666667, "fusion_lon": 0.0, "bike_id": "2ed008e1786481ea62ee0c54ede37e38", "type": "electric_scooter", "name": "2ed008e1786481ea62ee0c54ede37e38", "is_reserved": 0, "rental_uris": {"ios": "https://dc.lft.to/lastmile_qr_scan", "android": "https://dc.lft.to/lastmile_qr_scan"}}, {"fusion_lat": 0.0, "is_disabled": 0, "lat": 38.90839616666667, "lon": -77.00228766666666, "fusion_lon": 0.0, "bike_id": "7faf24fe5e86011ac66f413dd39445ca", "type": "electric_scooter", "name": "7faf24fe5e86011ac66f413dd39445ca", "is_reserved": 0, "rental_uris": {"ios": "https://dc.lft.to/lastmile_qr_scan", "android": "https://dc.lft.to/lastmile_qr_scan"}}, {"fusion_lat": 0.0, "is_disabled": 0, "lat": 38.92327816666667, "lon": -77.02062116666667, "fusion_lon": 0.0, "bike_id": "aa6f313274212ffa31fd0d62d8dcb728", "type": "electric_scooter", "name": "aa6f313274212ffa31fd0d62d8dcb728", "is_reserved": 0, "rental_uris": {"ios": "https://dc.lft.to/lastmile_qr_scan", "android": "https://dc.lft.to/lastmile_qr_scan"}}, {"fusion_lat": 0.0, "is_disabled": 0, "lat": 38.905716166666664, "lon": -77.03458883333333, "fusion_lon": 0.0, "bike_id": "be4bda838e9cd5d3c135d83cba6e2668", "type": "electric_scooter", "name": "be4bda838e9cd5d3c135d83cba6e2668", "is_reserved": 0, "rental_uris": {"ios": "https://dc.lft.to/lastmile_qr_scan", "android": "https://dc.lft.to/lastmile_qr_scan"}}, {"fusion_lat": 0.0, "is_disabled": 0, "lat": 38.914039, "lon": -77.03263383333334, "fusion_lon": 0.0, "bike_id": "c64a30d48dd79de4c40a5c0413ef6c86", "type": "electric_scooter", "name": "c64a30d48dd79de4c40a5c0413ef6c86", "is_reserved": 0, "rental_uris": {"ios": "https://dc.lft.to/lastmile_qr_scan", "android": "https://dc.lft.to/lastmile_qr_scan"}}, {"fusion_lat": 0.0, "is_disabled": 0, "lat": 38.896323, "lon": -77.02692833333333, "fusion_lon": 0.0, "bike_id": "4f99ae73be934955eb955f6af229b409", "type": "electric_scooter", "name": "4f99ae73be934955eb955f6af229b409", "is_reserved": 0, "rental_uris": {"ios": "https://dc.lft.to/lastmile_qr_scan", "android": "https://dc.lft.to/lastmile_qr_scan"}}, {"fusion_lat": 0.0, "is_disabled": 0, "lat": 38.951051166666666, "lon": -77.01576533333333, "fusion_lon": 0.0, "bike_id": "46efbab36e6c3b09bd0aed6ab8212107", "type": "electric_scooter", "name": "46efbab36e6c3b09bd0aed6ab8212107", "is_reserved": 0, "rental_uris": {"ios": "https://dc.lft.to/lastmile_qr_scan", "android": "https://dc.lft.to/lastmile_qr_scan"}}, {"fusion_lat": 0.0, "is_disabled": 0, "lat": 38.875894333333335, "lon": -77.00085, "fusion_lon": 0.0, "bike_id": "d799e8f9d7d87bdae02d2782da15b014", "type": "electric_scooter", "name": "d799e8f9d7d87bdae02d2782da15b014", "is_reserved": 0, "rental_uris": {"ios": "https://dc.lft.to/lastmile_qr_scan", "android": "https://dc.lft.to/lastmile_qr_scan"}}, {"fusion_lat": 0.0, "is_disabled": 0, "lat": 38.92436383333333, "lon": -77.03407233333333, "fusion_lon": 0.0, "bike_id": "a25b0be482b64d2740faebdedc9822dc", "type": "electric_scooter", "name": "a25b0be482b64d2740faebdedc9822dc", "is_reserved": 0, "rental_uris": {"ios": "https://dc.lft.to/lastmile_qr_scan", "android": "https://dc.lft.to/lastmile_qr_scan"}}, {"fusion_lat": 0.0, "is_disabled": 0, "lat": 38.88546483333333, "lon": -76.99758516666667, "fusion_lon": 0.0, "bike_id": "d0eba927d6035e97061cc38fc13e7d0e", "type": "electric_scooter", "name": "d0eba927d6035e97061cc38fc13e7d0e", "is_reserved": 0, "rental_uris": {"ios": "https://dc.lft.to/lastmile_qr_scan", "android": "https://dc.lft.to/lastmile_qr_scan"}}, {"fusion_lat": 0.0, "is_disabled": 0, "lat": 38.90689366666667, "lon": -77.0630825, "fusion_lon": 0.0, "bike_id": "795de750242b7ea21b19a5f9f9afb6fd", "type": "electric_scooter", "name": "795de750242b7ea21b19a5f9f9afb6fd", "is_reserved": 0, "rental_uris": {"ios": "https://dc.lft.to/lastmile_qr_scan", "android": "https://dc.lft.to/lastmile_qr_scan"}}, {"fusion_lat": 0.0, "is_disabled": 0, "lat": 38.91620316666667, "lon": -77.04843966666667, "fusion_lon": 0.0, "bike_id": "c69e5b71507eeb4b975c28a870bf37b1", "type": "electric_scooter", "name": "c69e5b71507eeb4b975c28a870bf37b1", "is_reserved": 0, "rental_uris": {"ios": "https://dc.lft.to/lastmile_qr_scan", "android": "https://dc.lft.to/lastmile_qr_scan"}}, {"fusion_lat": 0.0, "is_disabled": 0, "lat": 38.926731833333335, "lon": -77.01510983333333, "fusion_lon": 0.0, "bike_id": "bd6290de3933fbcf03d02bb9f8d398de", "type": "electric_scooter", "name": "bd6290de3933fbcf03d02bb9f8d398de", "is_reserved": 0, "rental_uris": {"ios": "https://dc.lft.to/lastmile_qr_scan", "android": "https://dc.lft.to/lastmile_qr_scan"}}, {"fusion_lat": 0.0, "is_disabled": 0, "lat": 38.90342966666667, "lon": -76.98281716666666, "fusion_lon": 0.0, "bike_id": "e7a6b9e016e71b875359b7e2411a1bb3", "type": "electric_scooter", "name": "e7a6b9e016e71b875359b7e2411a1bb3", "is_reserved": 0, "rental_uris": {"ios": "https://dc.lft.to/lastmile_qr_scan", "android": "https://dc.lft.to/lastmile_qr_scan"}}, {"fusion_lat": 0.0, "is_disabled": 0, "lat": 38.905268666666665, "lon": -77.0533045, "fusion_lon": 0.0, "bike_id": "31edfe8904209fe99f21a9e3466c0d49", "type": "electric_scooter", "name": "31edfe8904209fe99f21a9e3466c0d49", "is_reserved": 0, "rental_uris": {"ios": "https://dc.lft.to/lastmile_qr_scan", "android": "https://dc.lft.to/lastmile_qr_scan"}}, {"fusion_lat": 0.0, "is_disabled": 0, "lat": 38.909830666666664, "lon": -77.04438083333334, "fusion_lon": 0.0, "bike_id": "20beed80d50fb239d357b2e129d43c71", "type": "electric_scooter", "name": "20beed80d50fb239d357b2e129d43c71", "is_reserved": 0, "rental_uris": {"ios": "https://dc.lft.to/lastmile_qr_scan", "android": "https://dc.lft.to/lastmile_qr_scan"}}, {"fusion_lat": 0.0, "is_disabled": 0, "lat": 38.892216833333336, "lon": -77.043634, "fusion_lon": 0.0, "bike_id": "9ef88b526f07e68c705d9006c95aaf6b", "type": "electric_scooter", "name": "9ef88b526f07e68c705d9006c95aaf6b", "is_reserved": 0, "rental_uris": {"ios": "https://dc.lft.to/lastmile_qr_scan", "android": "https://dc.lft.to/lastmile_qr_scan"}}, {"fusion_lat": 0.0, "is_disabled": 0, "lat": 38.92381016666667, "lon": -77.0293585, "fusion_lon": 0.0, "bike_id": "387b8eb34fcb40088f9427f0bce516d6", "type": "electric_scooter", "name": "387b8eb34fcb40088f9427f0bce516d6", "is_reserved": 0, "rental_uris": {"ios": "https://dc.lft.to/lastmile_qr_scan", "android": "https://dc.lft.to/lastmile_qr_scan"}}, {"fusion_lat": 0.0, "is_disabled": 0, "lat": 38.92756516666667, "lon": -77.03211266666666, "fusion_lon": 0.0, "bike_id": "d70637a2c4df093c994f5ee35d2f8cd0", "type": "electric_scooter", "name": "d70637a2c4df093c994f5ee35d2f8cd0", "is_reserved": 0, "rental_uris": {"ios": "https://dc.lft.to/lastmile_qr_scan", "android": "https://dc.lft.to/lastmile_qr_scan"}}, {"fusion_lat": 0.0, "is_disabled": 0, "lat": 38.9063005, "lon": -77.06286683333333, "fusion_lon": 0.0, "bike_id": "ce89fa8f4faac7b5cb42f8f6558eb1a0", "type": "electric_scooter", "name": "ce89fa8f4faac7b5cb42f8f6558eb1a0", "is_reserved": 0, "rental_uris": {"ios": "https://dc.lft.to/lastmile_qr_scan", "android": "https://dc.lft.to/lastmile_qr_scan"}}, {"fusion_lat": 0.0, "is_disabled": 0, "lat": 38.90521433333333, "lon": -77.06450883333333, "fusion_lon": 0.0, "bike_id": "bcae2c27f21dc8d72b1bfa17dc265b1e", "type": "electric_scooter", "name": "bcae2c27f21dc8d72b1bfa17dc265b1e", "is_reserved": 0, "rental_uris": {"ios": "https://dc.lft.to/lastmile_qr_scan", "android": "https://dc.lft.to/lastmile_qr_scan"}}, {"fusion_lat": 0.0, "is_disabled": 0, "lat": 38.90216816666667, "lon": -77.02374766666667, "fusion_lon": 0.0, "bike_id": "d6529ae8e68767a805308dab5be44d7d", "type": "electric_scooter", "name": "d6529ae8e68767a805308dab5be44d7d", "is_reserved": 0, "rental_uris": {"ios": "https://dc.lft.to/lastmile_qr_scan", "android": "https://dc.lft.to/lastmile_qr_scan"}}, {"fusion_lat": 0.0, "is_disabled": 0, "lat": 38.9053115, "lon": -77.060404, "fusion_lon": 0.0, "bike_id": "2e1ba645ad0a21b0f1d70618d1ece4c1", "type": "electric_scooter", "name": "2e1ba645ad0a21b0f1d70618d1ece4c1", "is_reserved": 0, "rental_uris": {"ios": "https://dc.lft.to/lastmile_qr_scan", "android": "https://dc.lft.to/lastmile_qr_scan"}}, {"fusion_lat": 0.0, "is_disabled": 0, "lat": 38.89822733333333, "lon": -77.03348666666666, "fusion_lon": 0.0, "bike_id": "6ccb63ae642630d71d543495d84f0712", "type": "electric_scooter", "name": "6ccb63ae642630d71d543495d84f0712", "is_reserved": 0, "rental_uris": {"ios": "https://dc.lft.to/lastmile_qr_scan", "android": "https://dc.lft.to/lastmile_qr_scan"}}, {"fusion_lat": 0.0, "is_disabled": 0, "lat": 38.88063916666667, "lon": -77.02554316666667, "fusion_lon": 0.0, "bike_id": "d714ca125a128c1881d4f95a3a7bf857", "type": "electric_bike", "name": "d714ca125a128c1881d4f95a3a7bf857", "is_reserved": 0, "rental_uris": {"ios": "https://dc.lft.to/lastmile_qr_scan", "android": "https://dc.lft.to/lastmile_qr_scan"}}, {"fusion_lat": 0.0, "is_disabled": 0, "lat": 38.899094166666664, "lon": -76.93386, "fusion_lon": 0.0, "bike_id": "a55a6e3efe4ce07db1c446ebf6d2bccc", "type": "electric_scooter", "name": "a55a6e3efe4ce07db1c446ebf6d2bccc", "is_reserved": 0, "rental_uris": {"ios": "https://dc.lft.to/lastmile_qr_scan", "android": "https://dc.lft.to/lastmile_qr_scan"}}, {"fusion_lat": 0.0, "is_disabled": 0, "lat": 38.89528216666667, "lon": -77.03211616666667, "fusion_lon": 0.0, "bike_id": "c9a222072e8c9fcebb0a55f382da05ef", "type": "electric_scooter", "name": "c9a222072e8c9fcebb0a55f382da05ef", "is_reserved": 0, "rental_uris": {"ios": "https://dc.lft.to/lastmile_qr_scan", "android": "https://dc.lft.to/lastmile_qr_scan"}}, {"fusion_lat": 0.0, "is_disabled": 0, "lat": 38.892165, "lon": -77.02743883333333, "fusion_lon": 0.0, "bike_id": "1656201faaf8b347082e196b6719b3a8", "type": "electric_scooter", "name": "1656201faaf8b347082e196b6719b3a8", "is_reserved": 0, "rental_uris": {"ios": "https://dc.lft.to/lastmile_qr_scan", "android": "https://dc.lft.to/lastmile_qr_scan"}}, {"fusion_lat": 0.0, "is_disabled": 0, "lat": 38.8770455, "lon": -77.01765466666667, "fusion_lon": 0.0, "bike_id": "04fe20e6d30aa6e6488b4f5eb32308ab", "type": "electric_scooter", "name": "04fe20e6d30aa6e6488b4f5eb32308ab", "is_reserved": 0, "rental_uris": {"ios": "https://dc.lft.to/lastmile_qr_scan", "android": "https://dc.lft.to/lastmile_qr_scan"}}, {"fusion_lat": 0.0, "is_disabled": 0, "lat": 38.890112333333335, "lon": -76.9374385, "fusion_lon": 0.0, "bike_id": "e6f487a3e510322f85f2ff384da5183e", "type": "electric_scooter", "name": "e6f487a3e510322f85f2ff384da5183e", "is_reserved": 0, "rental_uris": {"ios": "https://dc.lft.to/lastmile_qr_scan", "android": "https://dc.lft.to/lastmile_qr_scan"}}, {"fusion_lat": 0.0, "is_disabled": 0, "lat": 38.942010333333336, "lon": -77.01836366666667, "fusion_lon": 0.0, "bike_id": "f10738e7404bebba2cb81c431ee148b5", "type": "electric_scooter", "name": "f10738e7404bebba2cb81c431ee148b5", "is_reserved": 0, "rental_uris": {"ios": "https://dc.lft.to/lastmile_qr_scan", "android": "https://dc.lft.to/lastmile_qr_scan"}}, {"fusion_lat": 0.0, "is_disabled": 0, "lat": 38.9236475, "lon": -77.01954333333333, "fusion_lon": 0.0, "bike_id": "6d2917952082c7c5e8f80a6994d72a72", "type": "electric_scooter", "name": "6d2917952082c7c5e8f80a6994d72a72", "is_reserved": 0, "rental_uris": {"ios": "https://dc.lft.to/lastmile_qr_scan", "android": "https://dc.lft.to/lastmile_qr_scan"}}, {"fusion_lat": 0.0, "is_disabled": 0, "lat": 38.90634566666667, "lon": -77.00916216666667, "fusion_lon": 0.0, "bike_id": "c55f21cdf74d3a67f0e9eb4b14c268dd", "type": "electric_scooter", "name": "c55f21cdf74d3a67f0e9eb4b14c268dd", "is_reserved": 0, "rental_uris": {"ios": "https://dc.lft.to/lastmile_qr_scan", "android": "https://dc.lft.to/lastmile_qr_scan"}}, {"fusion_lat": 0.0, "is_disabled": 0, "lat": 38.89222633333333, "lon": -77.02412016666666, "fusion_lon": 0.0, "bike_id": "1e4ca9fe7eb9b9f049ec630dcf2e6b41", "type": "electric_scooter", "name": "1e4ca9fe7eb9b9f049ec630dcf2e6b41", "is_reserved": 0, "rental_uris": {"ios": "https://dc.lft.to/lastmile_qr_scan", "android": "https://dc.lft.to/lastmile_qr_scan"}}, {"fusion_lat": 0.0, "is_disabled": 0, "lat": 38.898494166666666, "lon": -76.931901, "fusion_lon": 0.0, "bike_id": "0f6c6e43a394e77caac66ae6ea27e196", "type": "electric_bike", "name": "0f6c6e43a394e77caac66ae6ea27e196", "is_reserved": 0, "rental_uris": {"ios": "https://dc.lft.to/lastmile_qr_scan", "android": "https://dc.lft.to/lastmile_qr_scan"}}, {"fusion_lat": 0.0, "is_disabled": 0, "lat": 38.88785983333333, "lon": -77.0160415, "fusion_lon": 0.0, "bike_id": "dda76147c5b16a46f6b55fa3316c6087", "type": "electric_scooter", "name": "dda76147c5b16a46f6b55fa3316c6087", "is_reserved": 0, "rental_uris": {"ios": "https://dc.lft.to/lastmile_qr_scan", "android": "https://dc.lft.to/lastmile_qr_scan"}}, {"fusion_lat": 0.0, "is_disabled": 0, "lat": 38.922130333333335, "lon": -77.04250783333333, "fusion_lon": 0.0, "bike_id": "2451eb6a1cac5ef1e4b3e1b3996023bd", "type": "electric_scooter", "name": "2451eb6a1cac5ef1e4b3e1b3996023bd", "is_reserved": 0, "rental_uris": {"ios": "https://dc.lft.to/lastmile_qr_scan", "android": "https://dc.lft.to/lastmile_qr_scan"}}, {"fusion_lat": 0.0, "is_disabled": 0, "lat": 38.8935015, "lon": -77.00335266666667, "fusion_lon": 0.0, "bike_id": "32c36cb857c2dada8f0db894a6d67160", "type": "electric_scooter", "name": "32c36cb857c2dada8f0db894a6d67160", "is_reserved": 0, "rental_uris": {"ios": "https://dc.lft.to/lastmile_qr_scan", "android": "https://dc.lft.to/lastmile_qr_scan"}}, {"fusion_lat": 0.0, "is_disabled": 0, "lat": 38.92430383333333, "lon": -77.0336375, "fusion_lon": 0.0, "bike_id": "36bdbdb238f7bb97a7d62b32734e9a24", "type": "electric_scooter", "name": "36bdbdb238f7bb97a7d62b32734e9a24", "is_reserved": 0, "rental_uris": {"ios": "https://dc.lft.to/lastmile_qr_scan", "android": "https://dc.lft.to/lastmile_qr_scan"}}, {"fusion_lat": 0.0, "is_disabled": 0, "lat": 38.881297, "lon": -77.02268366666667, "fusion_lon": 0.0, "bike_id": "4cbada0a4a8f99dca1f632a28406543a", "type": "electric_scooter", "name": "4cbada0a4a8f99dca1f632a28406543a", "is_reserved": 0, "rental_uris": {"ios": "https://dc.lft.to/lastmile_qr_scan", "android": "https://dc.lft.to/lastmile_qr_scan"}}, {"fusion_lat": 0.0, "is_disabled": 0, "lat": 38.9330545, "lon": -77.03077283333333, "fusion_lon": 0.0, "bike_id": "1782c1008623924edf625b5788f42249", "type": "electric_scooter", "name": "1782c1008623924edf625b5788f42249", "is_reserved": 0, "rental_uris": {"ios": "https://dc.lft.to/lastmile_qr_scan", "android": "https://dc.lft.to/lastmile_qr_scan"}}, {"fusion_lat": 0.0, "is_disabled": 0, "lat": 38.95609966666667, "lon": -76.96275183333333, "fusion_lon": 0.0, "bike_id": "610ea9ea9aa636df2fcc2e971919f165", "type": "electric_bike", "name": "610ea9ea9aa636df2fcc2e971919f165", "is_reserved": 0, "rental_uris": {"ios": "https://dc.lft.to/lastmile_qr_scan", "android": "https://dc.lft.to/lastmile_qr_scan"}}, {"fusion_lat": 0.0, "is_disabled": 0, "lat": 38.9009855, "lon": -77.03394266666666, "fusion_lon": 0.0, "bike_id": "fd9945f40a221b2d727d7955e5827c0e", "type": "electric_scooter", "name": "fd9945f40a221b2d727d7955e5827c0e", "is_reserved": 0, "rental_uris": {"ios": "https://dc.lft.to/lastmile_qr_scan", "android": "https://dc.lft.to/lastmile_qr_scan"}}, {"fusion_lat": 0.0, "is_disabled": 0, "lat": 38.896104, "lon": -76.9485265, "fusion_lon": 0.0, "bike_id": "bb51cb0f23bd00ca24d749ca4e9becc8", "type": "electric_scooter", "name": "bb51cb0f23bd00ca24d749ca4e9becc8", "is_reserved": 0, "rental_uris": {"ios": "https://dc.lft.to/lastmile_qr_scan", "android": "https://dc.lft.to/lastmile_qr_scan"}}, {"fusion_lat": 0.0, "is_disabled": 0, "lat": 38.89222316666667, "lon": -77.04500983333334, "fusion_lon": 0.0, "bike_id": "c4b40c9897a11dd5c0433346e26056c8", "type": "electric_scooter", "name": "c4b40c9897a11dd5c0433346e26056c8", "is_reserved": 0, "rental_uris": {"ios": "https://dc.lft.to/lastmile_qr_scan", "android": "https://dc.lft.to/lastmile_qr_scan"}}, {"fusion_lat": 0.0, "is_disabled": 0, "lat": 38.92306166666667, "lon": -77.03106633333333, "fusion_lon": 0.0, "bike_id": "5a75a5bd84dc62ebac6544ccc3a3f6f8", "type": "electric_scooter", "name": "5a75a5bd84dc62ebac6544ccc3a3f6f8", "is_reserved": 0, "rental_uris": {"ios": "https://dc.lft.to/lastmile_qr_scan", "android": "https://dc.lft.to/lastmile_qr_scan"}}, {"fusion_lat": 0.0, "is_disabled": 0, "lat": 38.915425166666665, "lon": -77.04448383333333, "fusion_lon": 0.0, "bike_id": "f8ed787aee49cce9353809275d8f6fbd", "type": "electric_scooter", "name": "f8ed787aee49cce9353809275d8f6fbd", "is_reserved": 0, "rental_uris": {"ios": "https://dc.lft.to/lastmile_qr_scan", "android": "https://dc.lft.to/lastmile_qr_scan"}}, {"fusion_lat": 0.0, "is_disabled": 0, "lat": 38.89616733333333, "lon": -77.01907416666667, "fusion_lon": 0.0, "bike_id": "f27cf27fd6b3f6a2e4b994b75964001d", "type": "electric_scooter", "name": "f27cf27fd6b3f6a2e4b994b75964001d", "is_reserved": 0, "rental_uris": {"ios": "https://dc.lft.to/lastmile_qr_scan", "android": "https://dc.lft.to/lastmile_qr_scan"}}, {"fusion_lat": 0.0, "is_disabled": 0, "lat": 38.901328166666666, "lon": -77.03392716666667, "fusion_lon": 0.0, "bike_id": "30c1a67dabdb2ea7c2495c6f2bb9b9ab", "type": "electric_scooter", "name": "30c1a67dabdb2ea7c2495c6f2bb9b9ab", "is_reserved": 0, "rental_uris": {"ios": "https://dc.lft.to/lastmile_qr_scan", "android": "https://dc.lft.to/lastmile_qr_scan"}}, {"fusion_lat": 0.0, "is_disabled": 0, "lat": 38.91604483333333, "lon": -77.023063, "fusion_lon": 0.0, "bike_id": "1698b870e436c2c2587375b2b9e83d77", "type": "electric_scooter", "name": "1698b870e436c2c2587375b2b9e83d77", "is_reserved": 0, "rental_uris": {"ios": "https://dc.lft.to/lastmile_qr_scan", "android": "https://dc.lft.to/lastmile_qr_scan"}}, {"fusion_lat": 0.0, "is_disabled": 0, "lat": 38.892186, "lon": -77.023704, "fusion_lon": 0.0, "bike_id": "0661e742eff522121a620b7156e86556", "type": "electric_scooter", "name": "0661e742eff522121a620b7156e86556", "is_reserved": 0, "rental_uris": {"ios": "https://dc.lft.to/lastmile_qr_scan", "android": "https://dc.lft.to/lastmile_qr_scan"}}, {"fusion_lat": 0.0, "is_disabled": 0, "lat": 38.925077, "lon": -77.02285216666667, "fusion_lon": 0.0, "bike_id": "3eda44116aa38fe319ba05373212c84f", "type": "electric_scooter", "name": "3eda44116aa38fe319ba05373212c84f", "is_reserved": 0, "rental_uris": {"ios": "https://dc.lft.to/lastmile_qr_scan", "android": "https://dc.lft.to/lastmile_qr_scan"}}, {"fusion_lat": 0.0, "is_disabled": 0, "lat": 38.91476683333333, "lon": -77.00218866666667, "fusion_lon": 0.0, "bike_id": "f45ba3b329124609107dd1dc2e8254de", "type": "electric_scooter", "name": "f45ba3b329124609107dd1dc2e8254de", "is_reserved": 0, "rental_uris": {"ios": "https://dc.lft.to/lastmile_qr_scan", "android": "https://dc.lft.to/lastmile_qr_scan"}}, {"fusion_lat": 0.0, "is_disabled": 0, "lat": 38.920378666666664, "lon": -77.01730916666666, "fusion_lon": 0.0, "bike_id": "64a7e5f83d4f7172bc825de0ee4986a6", "type": "electric_scooter", "name": "64a7e5f83d4f7172bc825de0ee4986a6", "is_reserved": 0, "rental_uris": {"ios": "https://dc.lft.to/lastmile_qr_scan", "android": "https://dc.lft.to/lastmile_qr_scan"}}, {"fusion_lat": 0.0, "is_disabled": 0, "lat": 38.91914083333333, "lon": -77.02438866666667, "fusion_lon": 0.0, "bike_id": "099223eacef2e9f1cc32be1cfe907133", "type": "electric_scooter", "name": "099223eacef2e9f1cc32be1cfe907133", "is_reserved": 0, "rental_uris": {"ios": "https://dc.lft.to/lastmile_qr_scan", "android": "https://dc.lft.to/lastmile_qr_scan"}}, {"fusion_lat": 0.0, "is_disabled": 0, "lat": 38.89834883333333, "lon": -77.0121385, "fusion_lon": 0.0, "bike_id": "b299761be0100ebb03374a0be3f84365", "type": "electric_scooter", "name": "b299761be0100ebb03374a0be3f84365", "is_reserved": 0, "rental_uris": {"ios": "https://dc.lft.to/lastmile_qr_scan", "android": "https://dc.lft.to/lastmile_qr_scan"}}, {"fusion_lat": 0.0, "is_disabled": 0, "lat": 38.89031716666667, "lon": -76.93758433333333, "fusion_lon": 0.0, "bike_id": "49e9b6a26b9d1fc7b738d338c6ee6683", "type": "electric_scooter", "name": "49e9b6a26b9d1fc7b738d338c6ee6683", "is_reserved": 0, "rental_uris": {"ios": "https://dc.lft.to/lastmile_qr_scan", "android": "https://dc.lft.to/lastmile_qr_scan"}}, {"fusion_lat": 0.0, "is_disabled": 0, "lat": 38.926717833333335, "lon": -77.01496916666666, "fusion_lon": 0.0, "bike_id": "87a37ff59539b576b7667c67a9250ff4", "type": "electric_scooter", "name": "87a37ff59539b576b7667c67a9250ff4", "is_reserved": 0, "rental_uris": {"ios": "https://dc.lft.to/lastmile_qr_scan", "android": "https://dc.lft.to/lastmile_qr_scan"}}, {"fusion_lat": 0.0, "is_disabled": 0, "lat": 38.890210333333336, "lon": -76.93730533333333, "fusion_lon": 0.0, "bike_id": "6e11c7930931d9b06f31e95b1a1d0ab2", "type": "electric_scooter", "name": "6e11c7930931d9b06f31e95b1a1d0ab2", "is_reserved": 0, "rental_uris": {"ios": "https://dc.lft.to/lastmile_qr_scan", "android": "https://dc.lft.to/lastmile_qr_scan"}}, {"fusion_lat": 0.0, "is_disabled": 0, "lat": 38.8543655, "lon": -76.97160966666667, "fusion_lon": 0.0, "bike_id": "5bec1756ad8e83051164caf1052dff76", "type": "electric_scooter", "name": "5bec1756ad8e83051164caf1052dff76", "is_reserved": 0, "rental_uris": {"ios": "https://dc.lft.to/lastmile_qr_scan", "android": "https://dc.lft.to/lastmile_qr_scan"}}, {"fusion_lat": 0.0, "is_disabled": 0, "lat": 38.8772245, "lon": -77.00682216666667, "fusion_lon": 0.0, "bike_id": "502f2686dc41ed9c1c64ad21c2ab82cb", "type": "electric_scooter", "name": "502f2686dc41ed9c1c64ad21c2ab82cb", "is_reserved": 0, "rental_uris": {"ios": "https://dc.lft.to/lastmile_qr_scan", "android": "https://dc.lft.to/lastmile_qr_scan"}}, {"fusion_lat": 0.0, "is_disabled": 0, "lat": 38.8969105, "lon": -77.04659716666667, "fusion_lon": 0.0, "bike_id": "47ae41f0c0ed4da6dd96a376bed782fe", "type": "electric_scooter", "name": "47ae41f0c0ed4da6dd96a376bed782fe", "is_reserved": 0, "rental_uris": {"ios": "https://dc.lft.to/lastmile_qr_scan", "android": "https://dc.lft.to/lastmile_qr_scan"}}, {"fusion_lat": 0.0, "is_disabled": 0, "lat": 38.9126915, "lon": -77.02228883333333, "fusion_lon": 0.0, "bike_id": "d8ec98ee7a0f2541fd55d903695974c8", "type": "electric_scooter", "name": "d8ec98ee7a0f2541fd55d903695974c8", "is_reserved": 0, "rental_uris": {"ios": "https://dc.lft.to/lastmile_qr_scan", "android": "https://dc.lft.to/lastmile_qr_scan"}}, {"fusion_lat": 0.0, "is_disabled": 0, "lat": 38.9604425, "lon": -77.0050965, "fusion_lon": 0.0, "bike_id": "75f0ba5e9f61bea651df3350c9870260", "type": "electric_scooter", "name": "75f0ba5e9f61bea651df3350c9870260", "is_reserved": 0, "rental_uris": {"ios": "https://dc.lft.to/lastmile_qr_scan", "android": "https://dc.lft.to/lastmile_qr_scan"}}, {"fusion_lat": 0.0, "is_disabled": 0, "lat": 38.89836566666666, "lon": -77.04365133333333, "fusion_lon": 0.0, "bike_id": "4a30c36e876b0dcc921a56b964315fdd", "type": "electric_bike", "name": "4a30c36e876b0dcc921a56b964315fdd", "is_reserved": 0, "rental_uris": {"ios": "https://dc.lft.to/lastmile_qr_scan", "android": "https://dc.lft.to/lastmile_qr_scan"}}, {"fusion_lat": 0.0, "is_disabled": 0, "lat": 38.89608416666667, "lon": -77.04797366666666, "fusion_lon": 0.0, "bike_id": "f1cb80f6975429c1e18846e33c09e1e3", "type": "electric_scooter", "name": "f1cb80f6975429c1e18846e33c09e1e3", "is_reserved": 0, "rental_uris": {"ios": "https://dc.lft.to/lastmile_qr_scan", "android": "https://dc.lft.to/lastmile_qr_scan"}}, {"fusion_lat": 0.0, "is_disabled": 0, "lat": 38.91998516666666, "lon": -76.98396266666667, "fusion_lon": 0.0, "bike_id": "9a5b6c117d1441d55d73e516b9008292", "type": "electric_scooter", "name": "9a5b6c117d1441d55d73e516b9008292", "is_reserved": 0, "rental_uris": {"ios": "https://dc.lft.to/lastmile_qr_scan", "android": "https://dc.lft.to/lastmile_qr_scan"}}, {"fusion_lat": 0.0, "is_disabled": 0, "lat": 38.89222016666667, "lon": -77.043653, "fusion_lon": 0.0, "bike_id": "26d8a2d8ae102b46857cfe22f3e145c4", "type": "electric_scooter", "name": "26d8a2d8ae102b46857cfe22f3e145c4", "is_reserved": 0, "rental_uris": {"ios": "https://dc.lft.to/lastmile_qr_scan", "android": "https://dc.lft.to/lastmile_qr_scan"}}, {"fusion_lat": 0.0, "is_disabled": 0, "lat": 38.9360305, "lon": -77.03636116666667, "fusion_lon": 0.0, "bike_id": "3620d27a8f7550c960707369ac4c762e", "type": "electric_bike", "name": "3620d27a8f7550c960707369ac4c762e", "is_reserved": 0, "rental_uris": {"ios": "https://dc.lft.to/lastmile_qr_scan", "android": "https://dc.lft.to/lastmile_qr_scan"}}, {"fusion_lat": 0.0, "is_disabled": 0, "lat": 38.90243733333333, "lon": -77.02816933333334, "fusion_lon": 0.0, "bike_id": "932a8f0344dc1b4341405d86fe4e046a", "type": "electric_scooter", "name": "932a8f0344dc1b4341405d86fe4e046a", "is_reserved": 0, "rental_uris": {"ios": "https://dc.lft.to/lastmile_qr_scan", "android": "https://dc.lft.to/lastmile_qr_scan"}}, {"fusion_lat": 0.0, "is_disabled": 0, "lat": 38.85794033333333, "lon": -77.09960866666667, "fusion_lon": 0.0, "bike_id": "69fcadc07b8e603e763a2402311b8a1c", "type": "electric_bike", "name": "69fcadc07b8e603e763a2402311b8a1c", "is_reserved": 0, "rental_uris": {"ios": "https://dc.lft.to/lastmile_qr_scan", "android": "https://dc.lft.to/lastmile_qr_scan"}}, {"fusion_lat": 0.0, "is_disabled": 0, "lat": 38.944037333333334, "lon": -77.0274915, "fusion_lon": 0.0, "bike_id": "980952829acd27f302898e0023e62217", "type": "electric_scooter", "name": "980952829acd27f302898e0023e62217", "is_reserved": 0, "rental_uris": {"ios": "https://dc.lft.to/lastmile_qr_scan", "android": "https://dc.lft.to/lastmile_qr_scan"}}, {"fusion_lat": 0.0, "is_disabled": 0, "lat": 38.95588716666666, "lon": -77.0280315, "fusion_lon": 0.0, "bike_id": "02a92dbab7f1bdd4fcd057d8cdf43ab7", "type": "electric_scooter", "name": "02a92dbab7f1bdd4fcd057d8cdf43ab7", "is_reserved": 0, "rental_uris": {"ios": "https://dc.lft.to/lastmile_qr_scan", "android": "https://dc.lft.to/lastmile_qr_scan"}}, {"fusion_lat": 0.0, "is_disabled": 0, "lat": 38.915931, "lon": -77.04028583333333, "fusion_lon": 0.0, "bike_id": "21d75df90388e276af3802de0af50582", "type": "electric_scooter", "name": "21d75df90388e276af3802de0af50582", "is_reserved": 0, "rental_uris": {"ios": "https://dc.lft.to/lastmile_qr_scan", "android": "https://dc.lft.to/lastmile_qr_scan"}}, {"fusion_lat": 0.0, "is_disabled": 0, "lat": 38.92475566666667, "lon": -77.0378315, "fusion_lon": 0.0, "bike_id": "48a559f917ff0b18dc9fedf6fa0f90a4", "type": "electric_scooter", "name": "48a559f917ff0b18dc9fedf6fa0f90a4", "is_reserved": 0, "rental_uris": {"ios": "https://dc.lft.to/lastmile_qr_scan", "android": "https://dc.lft.to/lastmile_qr_scan"}}, {"fusion_lat": 0.0, "is_disabled": 0, "lat": 38.9242835, "lon": -77.02130883333334, "fusion_lon": 0.0, "bike_id": "1e56b526c42224d6f31fa6825630d896", "type": "electric_scooter", "name": "1e56b526c42224d6f31fa6825630d896", "is_reserved": 0, "rental_uris": {"ios": "https://dc.lft.to/lastmile_qr_scan", "android": "https://dc.lft.to/lastmile_qr_scan"}}, {"fusion_lat": 0.0, "is_disabled": 0, "lat": 38.9054275, "lon": -77.00396033333334, "fusion_lon": 0.0, "bike_id": "98a4ce4a4e7aa6510b2d2a177ef6d088", "type": "electric_scooter", "name": "98a4ce4a4e7aa6510b2d2a177ef6d088", "is_reserved": 0, "rental_uris": {"ios": "https://dc.lft.to/lastmile_qr_scan", "android": "https://dc.lft.to/lastmile_qr_scan"}}, {"fusion_lat": 0.0, "is_disabled": 0, "lat": 38.86482183333333, "lon": -76.97752483333333, "fusion_lon": 0.0, "bike_id": "8704ac6fb1e5e4718a810e74afc0c0fa", "type": "electric_bike", "name": "8704ac6fb1e5e4718a810e74afc0c0fa", "is_reserved": 0, "rental_uris": {"ios": "https://dc.lft.to/lastmile_qr_scan", "android": "https://dc.lft.to/lastmile_qr_scan"}}, {"fusion_lat": 0.0, "is_disabled": 0, "lat": 38.901691, "lon": -77.04872466666667, "fusion_lon": 0.0, "bike_id": "b1f14b005785ad05bdbdecd853b29fad", "type": "electric_scooter", "name": "b1f14b005785ad05bdbdecd853b29fad", "is_reserved": 0, "rental_uris": {"ios": "https://dc.lft.to/lastmile_qr_scan", "android": "https://dc.lft.to/lastmile_qr_scan"}}, {"fusion_lat": 0.0, "is_disabled": 0, "lat": 38.9284235, "lon": -77.036373, "fusion_lon": 0.0, "bike_id": "80c763755194141ea3e765fd5e6193ea", "type": "electric_scooter", "name": "80c763755194141ea3e765fd5e6193ea", "is_reserved": 0, "rental_uris": {"ios": "https://dc.lft.to/lastmile_qr_scan", "android": "https://dc.lft.to/lastmile_qr_scan"}}, {"fusion_lat": 0.0, "is_disabled": 0, "lat": 38.9404315, "lon": -77.02897466666667, "fusion_lon": 0.0, "bike_id": "291d30b2aa7a43399c1d4b097c3b9694", "type": "electric_scooter", "name": "291d30b2aa7a43399c1d4b097c3b9694", "is_reserved": 0, "rental_uris": {"ios": "https://dc.lft.to/lastmile_qr_scan", "android": "https://dc.lft.to/lastmile_qr_scan"}}, {"fusion_lat": 0.0, "is_disabled": 0, "lat": 38.92464783333333, "lon": -77.039359, "fusion_lon": 0.0, "bike_id": "d66c9843021b886525f13f1d34ebd265", "type": "electric_scooter", "name": "d66c9843021b886525f13f1d34ebd265", "is_reserved": 0, "rental_uris": {"ios": "https://dc.lft.to/lastmile_qr_scan", "android": "https://dc.lft.to/lastmile_qr_scan"}}, {"fusion_lat": 0.0, "is_disabled": 0, "lat": 38.902055, "lon": -77.04817483333333, "fusion_lon": 0.0, "bike_id": "bb8d80fad89c0ba6fca064d2b4c5a1b6", "type": "electric_scooter", "name": "bb8d80fad89c0ba6fca064d2b4c5a1b6", "is_reserved": 0, "rental_uris": {"ios": "https://dc.lft.to/lastmile_qr_scan", "android": "https://dc.lft.to/lastmile_qr_scan"}}, {"fusion_lat": 0.0, "is_disabled": 0, "lat": 38.94134666666667, "lon": -77.02331966666667, "fusion_lon": 0.0, "bike_id": "186c8835b8aeaddb3081c95bb3daab9c", "type": "electric_scooter", "name": "186c8835b8aeaddb3081c95bb3daab9c", "is_reserved": 0, "rental_uris": {"ios": "https://dc.lft.to/lastmile_qr_scan", "android": "https://dc.lft.to/lastmile_qr_scan"}}, {"fusion_lat": 0.0, "is_disabled": 0, "lat": 38.911119666666664, "lon": -77.036184, "fusion_lon": 0.0, "bike_id": "5a2234a0282cd601d38baf0f96b1855e", "type": "electric_scooter", "name": "5a2234a0282cd601d38baf0f96b1855e", "is_reserved": 0, "rental_uris": {"ios": "https://dc.lft.to/lastmile_qr_scan", "android": "https://dc.lft.to/lastmile_qr_scan"}}, {"fusion_lat": 0.0, "is_disabled": 0, "lat": 38.89983433333333, "lon": -77.03104416666666, "fusion_lon": 0.0, "bike_id": "a88e16eba6713148c312a0ca5b31c00b", "type": "electric_scooter", "name": "a88e16eba6713148c312a0ca5b31c00b", "is_reserved": 0, "rental_uris": {"ios": "https://dc.lft.to/lastmile_qr_scan", "android": "https://dc.lft.to/lastmile_qr_scan"}}, {"fusion_lat": 0.0, "is_disabled": 0, "lat": 38.906283333333334, "lon": -77.0513525, "fusion_lon": 0.0, "bike_id": "99bcf60112a4907b5cd24c959c2d20e7", "type": "electric_scooter", "name": "99bcf60112a4907b5cd24c959c2d20e7", "is_reserved": 0, "rental_uris": {"ios": "https://dc.lft.to/lastmile_qr_scan", "android": "https://dc.lft.to/lastmile_qr_scan"}}, {"fusion_lat": 0.0, "is_disabled": 0, "lat": 38.921665, "lon": -77.018804, "fusion_lon": 0.0, "bike_id": "83ad1af9f5991121d8b7c912729681bd", "type": "electric_scooter", "name": "83ad1af9f5991121d8b7c912729681bd", "is_reserved": 0, "rental_uris": {"ios": "https://dc.lft.to/lastmile_qr_scan", "android": "https://dc.lft.to/lastmile_qr_scan"}}, {"fusion_lat": 0.0, "is_disabled": 0, "lat": 38.933488, "lon": -77.08585333333333, "fusion_lon": 0.0, "bike_id": "117dbfa23e882553bfe57d58171a142f", "type": "electric_scooter", "name": "117dbfa23e882553bfe57d58171a142f", "is_reserved": 0, "rental_uris": {"ios": "https://dc.lft.to/lastmile_qr_scan", "android": "https://dc.lft.to/lastmile_qr_scan"}}, {"fusion_lat": 0.0, "is_disabled": 0, "lat": 38.920558166666666, "lon": -77.03464116666666, "fusion_lon": 0.0, "bike_id": "4b5c8c6e17896bdb9bda52e46c04f63d", "type": "electric_scooter", "name": "4b5c8c6e17896bdb9bda52e46c04f63d", "is_reserved": 0, "rental_uris": {"ios": "https://dc.lft.to/lastmile_qr_scan", "android": "https://dc.lft.to/lastmile_qr_scan"}}, {"fusion_lat": 0.0, "is_disabled": 0, "lat": 38.903955, "lon": -77.0532665, "fusion_lon": 0.0, "bike_id": "442f4823132564e7e13d0a528dfbb568", "type": "electric_scooter", "name": "442f4823132564e7e13d0a528dfbb568", "is_reserved": 0, "rental_uris": {"ios": "https://dc.lft.to/lastmile_qr_scan", "android": "https://dc.lft.to/lastmile_qr_scan"}}, {"fusion_lat": 0.0, "is_disabled": 0, "lat": 38.8469225, "lon": -76.99612433333333, "fusion_lon": 0.0, "bike_id": "d24ee00a8d9a459c79107e2654a1c996", "type": "electric_bike", "name": "d24ee00a8d9a459c79107e2654a1c996", "is_reserved": 0, "rental_uris": {"ios": "https://dc.lft.to/lastmile_qr_scan", "android": "https://dc.lft.to/lastmile_qr_scan"}}, {"fusion_lat": 0.0, "is_disabled": 0, "lat": 38.902398, "lon": -77.00199266666667, "fusion_lon": 0.0, "bike_id": "38a060b4eef10ddf9491ae6d33f1a04d", "type": "electric_scooter", "name": "38a060b4eef10ddf9491ae6d33f1a04d", "is_reserved": 0, "rental_uris": {"ios": "https://dc.lft.to/lastmile_qr_scan", "android": "https://dc.lft.to/lastmile_qr_scan"}}, {"fusion_lat": 0.0, "is_disabled": 0, "lat": 38.936884, "lon": -76.990608, "fusion_lon": 0.0, "bike_id": "285f5068ed6990abe5c907fa88703960", "type": "electric_bike", "name": "285f5068ed6990abe5c907fa88703960", "is_reserved": 0, "rental_uris": {"ios": "https://dc.lft.to/lastmile_qr_scan", "android": "https://dc.lft.to/lastmile_qr_scan"}}, {"fusion_lat": 0.0, "is_disabled": 0, "lat": 38.8974795, "lon": -77.03324383333333, "fusion_lon": 0.0, "bike_id": "9bd4cb408704d26924d813bf03384b04", "type": "electric_scooter", "name": "9bd4cb408704d26924d813bf03384b04", "is_reserved": 0, "rental_uris": {"ios": "https://dc.lft.to/lastmile_qr_scan", "android": "https://dc.lft.to/lastmile_qr_scan"}}, {"fusion_lat": 0.0, "is_disabled": 0, "lat": 38.93860733333333, "lon": -77.030451, "fusion_lon": 0.0, "bike_id": "09a1e942e2d28c7ab771790ff7f761f8", "type": "electric_scooter", "name": "09a1e942e2d28c7ab771790ff7f761f8", "is_reserved": 0, "rental_uris": {"ios": "https://dc.lft.to/lastmile_qr_scan", "android": "https://dc.lft.to/lastmile_qr_scan"}}, {"fusion_lat": 0.0, "is_disabled": 0, "lat": 38.92044583333333, "lon": -77.016762, "fusion_lon": 0.0, "bike_id": "91a5badee406b5b117716e96c956987e", "type": "electric_scooter", "name": "91a5badee406b5b117716e96c956987e", "is_reserved": 0, "rental_uris": {"ios": "https://dc.lft.to/lastmile_qr_scan", "android": "https://dc.lft.to/lastmile_qr_scan"}}, {"fusion_lat": 0.0, "is_disabled": 0, "lat": 38.92455616666667, "lon": -77.03286533333333, "fusion_lon": 0.0, "bike_id": "d0bd6a5389733a4c402818ae83c08322", "type": "electric_scooter", "name": "d0bd6a5389733a4c402818ae83c08322", "is_reserved": 0, "rental_uris": {"ios": "https://dc.lft.to/lastmile_qr_scan", "android": "https://dc.lft.to/lastmile_qr_scan"}}, {"fusion_lat": 0.0, "is_disabled": 0, "lat": 38.90903216666667, "lon": -77.07267666666667, "fusion_lon": 0.0, "bike_id": "bba5cdc6374aac01f1200ccd64e06af1", "type": "electric_scooter", "name": "bba5cdc6374aac01f1200ccd64e06af1", "is_reserved": 0, "rental_uris": {"ios": "https://dc.lft.to/lastmile_qr_scan", "android": "https://dc.lft.to/lastmile_qr_scan"}}, {"fusion_lat": 0.0, "is_disabled": 0, "lat": 38.92946383333334, "lon": -77.05506, "fusion_lon": 0.0, "bike_id": "0eaa6522265adb26dfc84fd6d919c02d", "type": "electric_scooter", "name": "0eaa6522265adb26dfc84fd6d919c02d", "is_reserved": 0, "rental_uris": {"ios": "https://dc.lft.to/lastmile_qr_scan", "android": "https://dc.lft.to/lastmile_qr_scan"}}, {"fusion_lat": 0.0, "is_disabled": 0, "lat": 38.91866666666667, "lon": -76.9644135, "fusion_lon": 0.0, "bike_id": "f3a279dffff74aab9e937b0113552d0e", "type": "electric_bike", "name": "f3a279dffff74aab9e937b0113552d0e", "is_reserved": 0, "rental_uris": {"ios": "https://dc.lft.to/lastmile_qr_scan", "android": "https://dc.lft.to/lastmile_qr_scan"}}, {"fusion_lat": 0.0, "is_disabled": 0, "lat": 38.8827685, "lon": -76.93239483333333, "fusion_lon": 0.0, "bike_id": "58ed58d4260c192bef2d750ef9868848", "type": "electric_bike", "name": "58ed58d4260c192bef2d750ef9868848", "is_reserved": 0, "rental_uris": {"ios": "https://dc.lft.to/lastmile_qr_scan", "android": "https://dc.lft.to/lastmile_qr_scan"}}, {"fusion_lat": 0.0, "is_disabled": 0, "lat": 38.93655716666667, "lon": -77.06615083333334, "fusion_lon": 0.0, "bike_id": "d94f0c89c0edac552aefadcca48cc420", "type": "electric_scooter", "name": "d94f0c89c0edac552aefadcca48cc420", "is_reserved": 0, "rental_uris": {"ios": "https://dc.lft.to/lastmile_qr_scan", "android": "https://dc.lft.to/lastmile_qr_scan"}}, {"fusion_lat": 0.0, "is_disabled": 0, "lat": 38.901523, "lon": -77.029234, "fusion_lon": 0.0, "bike_id": "9be2e7f9c5de2adb05a6b4d9994e9a75", "type": "electric_scooter", "name": "9be2e7f9c5de2adb05a6b4d9994e9a75", "is_reserved": 0, "rental_uris": {"ios": "https://dc.lft.to/lastmile_qr_scan", "android": "https://dc.lft.to/lastmile_qr_scan"}}, {"fusion_lat": 0.0, "is_disabled": 0, "lat": 38.91612333333333, "lon": -77.02281483333333, "fusion_lon": 0.0, "bike_id": "b4fecb4ad7f2a17c20dce3b456364c42", "type": "electric_scooter", "name": "b4fecb4ad7f2a17c20dce3b456364c42", "is_reserved": 0, "rental_uris": {"ios": "https://dc.lft.to/lastmile_qr_scan", "android": "https://dc.lft.to/lastmile_qr_scan"}}, {"fusion_lat": 0.0, "is_disabled": 0, "lat": 38.92509283333333, "lon": -77.00228266666667, "fusion_lon": 0.0, "bike_id": "3109f4f6c81cee91f03ed2942abed5ba", "type": "electric_scooter", "name": "3109f4f6c81cee91f03ed2942abed5ba", "is_reserved": 0, "rental_uris": {"ios": "https://dc.lft.to/lastmile_qr_scan", "android": "https://dc.lft.to/lastmile_qr_scan"}}, {"fusion_lat": 0.0, "is_disabled": 0, "lat": 38.88711166666667, "lon": -77.02822433333333, "fusion_lon": 0.0, "bike_id": "b577fc764ac86dc42921121861d451dd", "type": "electric_scooter", "name": "b577fc764ac86dc42921121861d451dd", "is_reserved": 0, "rental_uris": {"ios": "https://dc.lft.to/lastmile_qr_scan", "android": "https://dc.lft.to/lastmile_qr_scan"}}, {"fusion_lat": 0.0, "is_disabled": 0, "lat": 38.87370833333333, "lon": -77.000972, "fusion_lon": 0.0, "bike_id": "5bb2ee62800407fb122a481a43c833c0", "type": "electric_scooter", "name": "5bb2ee62800407fb122a481a43c833c0", "is_reserved": 0, "rental_uris": {"ios": "https://dc.lft.to/lastmile_qr_scan", "android": "https://dc.lft.to/lastmile_qr_scan"}}, {"fusion_lat": 0.0, "is_disabled": 0, "lat": 38.9006525, "lon": -77.04807566666666, "fusion_lon": 0.0, "bike_id": "87ca484d0dc2aa449df02bab6f08a3e1", "type": "electric_scooter", "name": "87ca484d0dc2aa449df02bab6f08a3e1", "is_reserved": 0, "rental_uris": {"ios": "https://dc.lft.to/lastmile_qr_scan", "android": "https://dc.lft.to/lastmile_qr_scan"}}, {"fusion_lat": 0.0, "is_disabled": 0, "lat": 38.921491, "lon": -77.0351305, "fusion_lon": 0.0, "bike_id": "73a5f0c88c8f88841918695627fa9506", "type": "electric_scooter", "name": "73a5f0c88c8f88841918695627fa9506", "is_reserved": 0, "rental_uris": {"ios": "https://dc.lft.to/lastmile_qr_scan", "android": "https://dc.lft.to/lastmile_qr_scan"}}, {"fusion_lat": 0.0, "is_disabled": 0, "lat": 38.92248466666667, "lon": -77.01944483333334, "fusion_lon": 0.0, "bike_id": "02175c7bb36088820f8260e9e12b6989", "type": "electric_scooter", "name": "02175c7bb36088820f8260e9e12b6989", "is_reserved": 0, "rental_uris": {"ios": "https://dc.lft.to/lastmile_qr_scan", "android": "https://dc.lft.to/lastmile_qr_scan"}}, {"fusion_lat": 0.0, "is_disabled": 0, "lat": 38.909032833333335, "lon": -77.04309116666667, "fusion_lon": 0.0, "bike_id": "c86d89421bc7eecc0c1cc82229e6ba92", "type": "electric_scooter", "name": "c86d89421bc7eecc0c1cc82229e6ba92", "is_reserved": 0, "rental_uris": {"ios": "https://dc.lft.to/lastmile_qr_scan", "android": "https://dc.lft.to/lastmile_qr_scan"}}, {"fusion_lat": 0.0, "is_disabled": 0, "lat": 38.88640733333333, "lon": -77.0021185, "fusion_lon": 0.0, "bike_id": "f6b1628ea2a8257ef9552ea29f80422d", "type": "electric_scooter", "name": "f6b1628ea2a8257ef9552ea29f80422d", "is_reserved": 0, "rental_uris": {"ios": "https://dc.lft.to/lastmile_qr_scan", "android": "https://dc.lft.to/lastmile_qr_scan"}}, {"fusion_lat": 0.0, "is_disabled": 0, "lat": 38.902288, "lon": -77.0347445, "fusion_lon": 0.0, "bike_id": "fb79bdf37d2c00acbe4b9f5bb4922be3", "type": "electric_scooter", "name": "fb79bdf37d2c00acbe4b9f5bb4922be3", "is_reserved": 0, "rental_uris": {"ios": "https://dc.lft.to/lastmile_qr_scan", "android": "https://dc.lft.to/lastmile_qr_scan"}}, {"fusion_lat": 0.0, "is_disabled": 0, "lat": 38.90392716666667, "lon": -77.05330033333334, "fusion_lon": 0.0, "bike_id": "d2ad9459882286eea9b540ea9546b29e", "type": "electric_scooter", "name": "d2ad9459882286eea9b540ea9546b29e", "is_reserved": 0, "rental_uris": {"ios": "https://dc.lft.to/lastmile_qr_scan", "android": "https://dc.lft.to/lastmile_qr_scan"}}, {"fusion_lat": 0.0, "is_disabled": 0, "lat": 38.90869333333333, "lon": -77.03761083333333, "fusion_lon": 0.0, "bike_id": "d3b17c20cb5ed489cc2c6632460b7ca6", "type": "electric_scooter", "name": "d3b17c20cb5ed489cc2c6632460b7ca6", "is_reserved": 0, "rental_uris": {"ios": "https://dc.lft.to/lastmile_qr_scan", "android": "https://dc.lft.to/lastmile_qr_scan"}}, {"fusion_lat": 0.0, "is_disabled": 0, "lat": 38.92559633333333, "lon": -77.0228335, "fusion_lon": 0.0, "bike_id": "89a37a24d5f2d419752533842f52bce9", "type": "electric_scooter", "name": "89a37a24d5f2d419752533842f52bce9", "is_reserved": 0, "rental_uris": {"ios": "https://dc.lft.to/lastmile_qr_scan", "android": "https://dc.lft.to/lastmile_qr_scan"}}, {"fusion_lat": 0.0, "is_disabled": 0, "lat": 38.901439833333335, "lon": -77.01221083333333, "fusion_lon": 0.0, "bike_id": "e9ac9a5f998bf4f5dffb188b3bf0dbac", "type": "electric_scooter", "name": "e9ac9a5f998bf4f5dffb188b3bf0dbac", "is_reserved": 0, "rental_uris": {"ios": "https://dc.lft.to/lastmile_qr_scan", "android": "https://dc.lft.to/lastmile_qr_scan"}}, {"fusion_lat": 0.0, "is_disabled": 0, "lat": 38.84214166666667, "lon": -76.948993, "fusion_lon": 0.0, "bike_id": "8d29646bde6d63552bfd64f4ab5d91d6", "type": "electric_bike", "name": "8d29646bde6d63552bfd64f4ab5d91d6", "is_reserved": 0, "rental_uris": {"ios": "https://dc.lft.to/lastmile_qr_scan", "android": "https://dc.lft.to/lastmile_qr_scan"}}, {"fusion_lat": 0.0, "is_disabled": 0, "lat": 38.89824566666667, "lon": -77.04613333333333, "fusion_lon": 0.0, "bike_id": "9c02aeee47971e4cbb0f740ba219f343", "type": "electric_scooter", "name": "9c02aeee47971e4cbb0f740ba219f343", "is_reserved": 0, "rental_uris": {"ios": "https://dc.lft.to/lastmile_qr_scan", "android": "https://dc.lft.to/lastmile_qr_scan"}}, {"fusion_lat": 0.0, "is_disabled": 0, "lat": 38.92591433333333, "lon": -77.02572216666667, "fusion_lon": 0.0, "bike_id": "94f2b0bc97b494b9d7e760ac26d4302a", "type": "electric_scooter", "name": "94f2b0bc97b494b9d7e760ac26d4302a", "is_reserved": 0, "rental_uris": {"ios": "https://dc.lft.to/lastmile_qr_scan", "android": "https://dc.lft.to/lastmile_qr_scan"}}, {"fusion_lat": 0.0, "is_disabled": 0, "lat": 38.90612983333333, "lon": -77.043422, "fusion_lon": 0.0, "bike_id": "f033f9f3e91cf2760c4b9ca08aa09d31", "type": "electric_scooter", "name": "f033f9f3e91cf2760c4b9ca08aa09d31", "is_reserved": 0, "rental_uris": {"ios": "https://dc.lft.to/lastmile_qr_scan", "android": "https://dc.lft.to/lastmile_qr_scan"}}, {"fusion_lat": 0.0, "is_disabled": 0, "lat": 38.894554, "lon": -77.04202883333333, "fusion_lon": 0.0, "bike_id": "b87b78d7b494f249d10f698d7ee59695", "type": "electric_scooter", "name": "b87b78d7b494f249d10f698d7ee59695", "is_reserved": 0, "rental_uris": {"ios": "https://dc.lft.to/lastmile_qr_scan", "android": "https://dc.lft.to/lastmile_qr_scan"}}, {"fusion_lat": 0.0, "is_disabled": 0, "lat": 38.852177833333336, "lon": -76.993796, "fusion_lon": 0.0, "bike_id": "1c345448cf4f62c2dd26ce41dea67a8e", "type": "electric_scooter", "name": "1c345448cf4f62c2dd26ce41dea67a8e", "is_reserved": 0, "rental_uris": {"ios": "https://dc.lft.to/lastmile_qr_scan", "android": "https://dc.lft.to/lastmile_qr_scan"}}, {"fusion_lat": 0.0, "is_disabled": 0, "lat": 38.923238833333336, "lon": -77.05688616666667, "fusion_lon": 0.0, "bike_id": "999d96064cb26363d944c589273076ee", "type": "electric_scooter", "name": "999d96064cb26363d944c589273076ee", "is_reserved": 0, "rental_uris": {"ios": "https://dc.lft.to/lastmile_qr_scan", "android": "https://dc.lft.to/lastmile_qr_scan"}}, {"fusion_lat": 0.0, "is_disabled": 0, "lat": 38.90520866666667, "lon": -77.03469883333334, "fusion_lon": 0.0, "bike_id": "9440007e34ef8d675a9e61bf4a290920", "type": "electric_scooter", "name": "9440007e34ef8d675a9e61bf4a290920", "is_reserved": 0, "rental_uris": {"ios": "https://dc.lft.to/lastmile_qr_scan", "android": "https://dc.lft.to/lastmile_qr_scan"}}, {"fusion_lat": 0.0, "is_disabled": 0, "lat": 38.895080666666665, "lon": -76.94885866666667, "fusion_lon": 0.0, "bike_id": "50790812d8c18aba08693548f07a6458", "type": "electric_scooter", "name": "50790812d8c18aba08693548f07a6458", "is_reserved": 0, "rental_uris": {"ios": "https://dc.lft.to/lastmile_qr_scan", "android": "https://dc.lft.to/lastmile_qr_scan"}}, {"fusion_lat": 0.0, "is_disabled": 0, "lat": 38.942572, "lon": -77.04134783333333, "fusion_lon": 0.0, "bike_id": "a775a7bbe5296cb31e6e0f23c9fe7309", "type": "electric_scooter", "name": "a775a7bbe5296cb31e6e0f23c9fe7309", "is_reserved": 0, "rental_uris": {"ios": "https://dc.lft.to/lastmile_qr_scan", "android": "https://dc.lft.to/lastmile_qr_scan"}}, {"fusion_lat": 0.0, "is_disabled": 0, "lat": 38.875796666666666, "lon": -77.23412266666666, "fusion_lon": 0.0, "bike_id": "7992b6e1b2b060b117530111b028db2d", "type": "electric_bike", "name": "7992b6e1b2b060b117530111b028db2d", "is_reserved": 0, "rental_uris": {"ios": "https://dc.lft.to/lastmile_qr_scan", "android": "https://dc.lft.to/lastmile_qr_scan"}}, {"fusion_lat": 0.0, "is_disabled": 0, "lat": 38.92479483333334, "lon": -77.05221666666667, "fusion_lon": 0.0, "bike_id": "0d6f64985200dbb63a7f9518cfd2f599", "type": "electric_scooter", "name": "0d6f64985200dbb63a7f9518cfd2f599", "is_reserved": 0, "rental_uris": {"ios": "https://dc.lft.to/lastmile_qr_scan", "android": "https://dc.lft.to/lastmile_qr_scan"}}, {"fusion_lat": 0.0, "is_disabled": 0, "lat": 38.880363333333335, "lon": -76.92725583333333, "fusion_lon": 0.0, "bike_id": "102f6ee44fbf7ffcf0e4f50f95f4ab07", "type": "electric_scooter", "name": "102f6ee44fbf7ffcf0e4f50f95f4ab07", "is_reserved": 0, "rental_uris": {"ios": "https://dc.lft.to/lastmile_qr_scan", "android": "https://dc.lft.to/lastmile_qr_scan"}}, {"fusion_lat": 0.0, "is_disabled": 0, "lat": 38.895471, "lon": -77.01100883333334, "fusion_lon": 0.0, "bike_id": "38151024cf7e952cf04845383c35ab57", "type": "electric_scooter", "name": "38151024cf7e952cf04845383c35ab57", "is_reserved": 0, "rental_uris": {"ios": "https://dc.lft.to/lastmile_qr_scan", "android": "https://dc.lft.to/lastmile_qr_scan"}}, {"fusion_lat": 0.0, "is_disabled": 0, "lat": 38.89823666666667, "lon": -77.02970116666667, "fusion_lon": 0.0, "bike_id": "c3752256a8babc6c07a84c0334787e3b", "type": "electric_scooter", "name": "c3752256a8babc6c07a84c0334787e3b", "is_reserved": 0, "rental_uris": {"ios": "https://dc.lft.to/lastmile_qr_scan", "android": "https://dc.lft.to/lastmile_qr_scan"}}, {"fusion_lat": 0.0, "is_disabled": 0, "lat": 38.903924333333336, "lon": -77.043704, "fusion_lon": 0.0, "bike_id": "7934e682fde94b07e8150037ea1df456", "type": "electric_scooter", "name": "7934e682fde94b07e8150037ea1df456", "is_reserved": 0, "rental_uris": {"ios": "https://dc.lft.to/lastmile_qr_scan", "android": "https://dc.lft.to/lastmile_qr_scan"}}, {"fusion_lat": 0.0, "is_disabled": 0, "lat": 38.89218016666667, "lon": -77.0321615, "fusion_lon": 0.0, "bike_id": "441c55fc013ee3e3eae81cb3ab69c240", "type": "electric_scooter", "name": "441c55fc013ee3e3eae81cb3ab69c240", "is_reserved": 0, "rental_uris": {"ios": "https://dc.lft.to/lastmile_qr_scan", "android": "https://dc.lft.to/lastmile_qr_scan"}}, {"fusion_lat": 0.0, "is_disabled": 0, "lat": 38.92232666666666, "lon": -77.04248966666667, "fusion_lon": 0.0, "bike_id": "97ae870d7195b8d014eb843026157844", "type": "electric_scooter", "name": "97ae870d7195b8d014eb843026157844", "is_reserved": 0, "rental_uris": {"ios": "https://dc.lft.to/lastmile_qr_scan", "android": "https://dc.lft.to/lastmile_qr_scan"}}, {"fusion_lat": 0.0, "is_disabled": 0, "lat": 38.90397466666667, "lon": -77.01273566666667, "fusion_lon": 0.0, "bike_id": "767a5109c44c755ee67a43eda9f6f098", "type": "electric_scooter", "name": "767a5109c44c755ee67a43eda9f6f098", "is_reserved": 0, "rental_uris": {"ios": "https://dc.lft.to/lastmile_qr_scan", "android": "https://dc.lft.to/lastmile_qr_scan"}}, {"fusion_lat": 0.0, "is_disabled": 0, "lat": 38.89591083333333, "lon": -77.0200725, "fusion_lon": 0.0, "bike_id": "d322e9df87a1c669b9e4f633329115ce", "type": "electric_scooter", "name": "d322e9df87a1c669b9e4f633329115ce", "is_reserved": 0, "rental_uris": {"ios": "https://dc.lft.to/lastmile_qr_scan", "android": "https://dc.lft.to/lastmile_qr_scan"}}, {"fusion_lat": 0.0, "is_disabled": 0, "lat": 38.917437166666666, "lon": -77.02477833333333, "fusion_lon": 0.0, "bike_id": "6bbd780bee1eee17d32fde7abce0735b", "type": "electric_scooter", "name": "6bbd780bee1eee17d32fde7abce0735b", "is_reserved": 0, "rental_uris": {"ios": "https://dc.lft.to/lastmile_qr_scan", "android": "https://dc.lft.to/lastmile_qr_scan"}}, {"fusion_lat": 0.0, "is_disabled": 0, "lat": 38.894957166666664, "lon": -77.02007983333333, "fusion_lon": 0.0, "bike_id": "2a3da9298060e3a6063284bfcfe650d2", "type": "electric_scooter", "name": "2a3da9298060e3a6063284bfcfe650d2", "is_reserved": 0, "rental_uris": {"ios": "https://dc.lft.to/lastmile_qr_scan", "android": "https://dc.lft.to/lastmile_qr_scan"}}, {"fusion_lat": 0.0, "is_disabled": 0, "lat": 38.89486, "lon": -77.02317933333333, "fusion_lon": 0.0, "bike_id": "b3150041e0d4dbf72160f03ab0fe0a9f", "type": "electric_scooter", "name": "b3150041e0d4dbf72160f03ab0fe0a9f", "is_reserved": 0, "rental_uris": {"ios": "https://dc.lft.to/lastmile_qr_scan", "android": "https://dc.lft.to/lastmile_qr_scan"}}, {"fusion_lat": 0.0, "is_disabled": 0, "lat": 38.91304483333333, "lon": -77.0332215, "fusion_lon": 0.0, "bike_id": "b71f575a7f020d1dcf41cc8b5650e653", "type": "electric_scooter", "name": "b71f575a7f020d1dcf41cc8b5650e653", "is_reserved": 0, "rental_uris": {"ios": "https://dc.lft.to/lastmile_qr_scan", "android": "https://dc.lft.to/lastmile_qr_scan"}}, {"fusion_lat": 0.0, "is_disabled": 0, "lat": 38.9223515, "lon": -77.022659, "fusion_lon": 0.0, "bike_id": "47440b64ea86a29b21aeb1bf4551a041", "type": "electric_scooter", "name": "47440b64ea86a29b21aeb1bf4551a041", "is_reserved": 0, "rental_uris": {"ios": "https://dc.lft.to/lastmile_qr_scan", "android": "https://dc.lft.to/lastmile_qr_scan"}}, {"fusion_lat": 0.0, "is_disabled": 0, "lat": 38.904200833333334, "lon": -77.02639066666667, "fusion_lon": 0.0, "bike_id": "1062609d3a031280f29330b26279cfff", "type": "electric_scooter", "name": "1062609d3a031280f29330b26279cfff", "is_reserved": 0, "rental_uris": {"ios": "https://dc.lft.to/lastmile_qr_scan", "android": "https://dc.lft.to/lastmile_qr_scan"}}, {"fusion_lat": 0.0, "is_disabled": 0, "lat": 38.89222816666667, "lon": -77.04639333333333, "fusion_lon": 0.0, "bike_id": "26619bed167dce5621b28e94903d26dd", "type": "electric_scooter", "name": "26619bed167dce5621b28e94903d26dd", "is_reserved": 0, "rental_uris": {"ios": "https://dc.lft.to/lastmile_qr_scan", "android": "https://dc.lft.to/lastmile_qr_scan"}}, {"fusion_lat": 0.0, "is_disabled": 0, "lat": 38.94886266666666, "lon": -77.01855683333334, "fusion_lon": 0.0, "bike_id": "908d5e228ca2c61f93ab704699225d32", "type": "electric_scooter", "name": "908d5e228ca2c61f93ab704699225d32", "is_reserved": 0, "rental_uris": {"ios": "https://dc.lft.to/lastmile_qr_scan", "android": "https://dc.lft.to/lastmile_qr_scan"}}, {"fusion_lat": 0.0, "is_disabled": 0, "lat": 38.901828, "lon": -77.059056, "fusion_lon": 0.0, "bike_id": "a9f504f1c1bf86c4bef7094152558201", "type": "electric_scooter", "name": "a9f504f1c1bf86c4bef7094152558201", "is_reserved": 0, "rental_uris": {"ios": "https://dc.lft.to/lastmile_qr_scan", "android": "https://dc.lft.to/lastmile_qr_scan"}}, {"fusion_lat": 0.0, "is_disabled": 0, "lat": 38.900595, "lon": -76.99629466666667, "fusion_lon": 0.0, "bike_id": "ceea42d5e790da4f47e4cb92a4e58aa8", "type": "electric_scooter", "name": "ceea42d5e790da4f47e4cb92a4e58aa8", "is_reserved": 0, "rental_uris": {"ios": "https://dc.lft.to/lastmile_qr_scan", "android": "https://dc.lft.to/lastmile_qr_scan"}}, {"fusion_lat": 0.0, "is_disabled": 0, "lat": 38.91894633333333, "lon": -77.10176616666666, "fusion_lon": 0.0, "bike_id": "fd3a6bf25e5cab6884409f974dd12603", "type": "electric_bike", "name": "fd3a6bf25e5cab6884409f974dd12603", "is_reserved": 0, "rental_uris": {"ios": "https://dc.lft.to/lastmile_qr_scan", "android": "https://dc.lft.to/lastmile_qr_scan"}}, {"fusion_lat": 0.0, "is_disabled": 0, "lat": 38.905133166666666, "lon": -77.07014583333333, "fusion_lon": 0.0, "bike_id": "298f5181b73a20e969ffe38d04a51a40", "type": "electric_scooter", "name": "298f5181b73a20e969ffe38d04a51a40", "is_reserved": 0, "rental_uris": {"ios": "https://dc.lft.to/lastmile_qr_scan", "android": "https://dc.lft.to/lastmile_qr_scan"}}, {"fusion_lat": 0.0, "is_disabled": 0, "lat": 38.933562, "lon": -77.02386566666667, "fusion_lon": 0.0, "bike_id": "9b86763fc75bc1b07769989bd98d1c8f", "type": "electric_scooter", "name": "9b86763fc75bc1b07769989bd98d1c8f", "is_reserved": 0, "rental_uris": {"ios": "https://dc.lft.to/lastmile_qr_scan", "android": "https://dc.lft.to/lastmile_qr_scan"}}, {"fusion_lat": 0.0, "is_disabled": 0, "lat": 38.924677833333334, "lon": -77.02232066666667, "fusion_lon": 0.0, "bike_id": "12be05fc6fabef8ab66ec460eb28b039", "type": "electric_scooter", "name": "12be05fc6fabef8ab66ec460eb28b039", "is_reserved": 0, "rental_uris": {"ios": "https://dc.lft.to/lastmile_qr_scan", "android": "https://dc.lft.to/lastmile_qr_scan"}}, {"fusion_lat": 0.0, "is_disabled": 0, "lat": 38.90014516666667, "lon": -76.99585216666667, "fusion_lon": 0.0, "bike_id": "8cb69692b55914e9cb203e617c11ad77", "type": "electric_scooter", "name": "8cb69692b55914e9cb203e617c11ad77", "is_reserved": 0, "rental_uris": {"ios": "https://dc.lft.to/lastmile_qr_scan", "android": "https://dc.lft.to/lastmile_qr_scan"}}, {"fusion_lat": 0.0, "is_disabled": 0, "lat": 38.90025633333333, "lon": -76.9985425, "fusion_lon": 0.0, "bike_id": "1d9ea714017b8b2bebad5c298590a31d", "type": "electric_scooter", "name": "1d9ea714017b8b2bebad5c298590a31d", "is_reserved": 0, "rental_uris": {"ios": "https://dc.lft.to/lastmile_qr_scan", "android": "https://dc.lft.to/lastmile_qr_scan"}}, {"fusion_lat": 0.0, "is_disabled": 0, "lat": 38.92733883333333, "lon": -77.03426433333334, "fusion_lon": 0.0, "bike_id": "30fb29dd6638f4500100eaf3e9a77fa5", "type": "electric_scooter", "name": "30fb29dd6638f4500100eaf3e9a77fa5", "is_reserved": 0, "rental_uris": {"ios": "https://dc.lft.to/lastmile_qr_scan", "android": "https://dc.lft.to/lastmile_qr_scan"}}, {"fusion_lat": 0.0, "is_disabled": 0, "lat": 38.916366833333335, "lon": -77.02699933333334, "fusion_lon": 0.0, "bike_id": "c33ee6d15c81d4082184591e6ceea1b1", "type": "electric_scooter", "name": "c33ee6d15c81d4082184591e6ceea1b1", "is_reserved": 0, "rental_uris": {"ios": "https://dc.lft.to/lastmile_qr_scan", "android": "https://dc.lft.to/lastmile_qr_scan"}}, {"fusion_lat": 0.0, "is_disabled": 0, "lat": 38.923086166666664, "lon": -77.04213016666667, "fusion_lon": 0.0, "bike_id": "4aa1f71dae8c795159c3869ff14fe73c", "type": "electric_scooter", "name": "4aa1f71dae8c795159c3869ff14fe73c", "is_reserved": 0, "rental_uris": {"ios": "https://dc.lft.to/lastmile_qr_scan", "android": "https://dc.lft.to/lastmile_qr_scan"}}, {"fusion_lat": 0.0, "is_disabled": 0, "lat": 38.89357833333333, "lon": -77.00339566666666, "fusion_lon": 0.0, "bike_id": "5aae6552d5408a6cae83effb15f12477", "type": "electric_scooter", "name": "5aae6552d5408a6cae83effb15f12477", "is_reserved": 0, "rental_uris": {"ios": "https://dc.lft.to/lastmile_qr_scan", "android": "https://dc.lft.to/lastmile_qr_scan"}}, {"fusion_lat": 0.0, "is_disabled": 0, "lat": 38.914774333333334, "lon": -77.021937, "fusion_lon": 0.0, "bike_id": "63af2d2573e170d20b8c4ede472859a8", "type": "electric_scooter", "name": "63af2d2573e170d20b8c4ede472859a8", "is_reserved": 0, "rental_uris": {"ios": "https://dc.lft.to/lastmile_qr_scan", "android": "https://dc.lft.to/lastmile_qr_scan"}}, {"fusion_lat": 0.0, "is_disabled": 0, "lat": 38.8358465, "lon": -76.990309, "fusion_lon": 0.0, "bike_id": "6ded9262100f3a5e332c4683e4090b78", "type": "electric_bike", "name": "6ded9262100f3a5e332c4683e4090b78", "is_reserved": 0, "rental_uris": {"ios": "https://dc.lft.to/lastmile_qr_scan", "android": "https://dc.lft.to/lastmile_qr_scan"}}, {"fusion_lat": 0.0, "is_disabled": 0, "lat": 38.903307, "lon": -76.975952, "fusion_lon": 0.0, "bike_id": "7d34f30a455a4160b6036c6dd847997d", "type": "electric_scooter", "name": "7d34f30a455a4160b6036c6dd847997d", "is_reserved": 0, "rental_uris": {"ios": "https://dc.lft.to/lastmile_qr_scan", "android": "https://dc.lft.to/lastmile_qr_scan"}}, {"fusion_lat": 0.0, "is_disabled": 0, "lat": 38.90577183333333, "lon": -77.04102666666667, "fusion_lon": 0.0, "bike_id": "e481ed724ff700afb8c982e65e351c2b", "type": "electric_scooter", "name": "e481ed724ff700afb8c982e65e351c2b", "is_reserved": 0, "rental_uris": {"ios": "https://dc.lft.to/lastmile_qr_scan", "android": "https://dc.lft.to/lastmile_qr_scan"}}, {"fusion_lat": 0.0, "is_disabled": 0, "lat": 38.96392183333333, "lon": -77.0259395, "fusion_lon": 0.0, "bike_id": "92a426ba3d36e29a44574c4c8bda3118", "type": "electric_scooter", "name": "92a426ba3d36e29a44574c4c8bda3118", "is_reserved": 0, "rental_uris": {"ios": "https://dc.lft.to/lastmile_qr_scan", "android": "https://dc.lft.to/lastmile_qr_scan"}}, {"fusion_lat": 0.0, "is_disabled": 0, "lat": 38.8901565, "lon": -76.93741116666666, "fusion_lon": 0.0, "bike_id": "0fd909b458a4c7310776c4c9990088c5", "type": "electric_scooter", "name": "0fd909b458a4c7310776c4c9990088c5", "is_reserved": 0, "rental_uris": {"ios": "https://dc.lft.to/lastmile_qr_scan", "android": "https://dc.lft.to/lastmile_qr_scan"}}, {"fusion_lat": 0.0, "is_disabled": 0, "lat": 38.92520233333333, "lon": -77.038543, "fusion_lon": 0.0, "bike_id": "98e5c9457b7daa5c4f747911d567373b", "type": "electric_scooter", "name": "98e5c9457b7daa5c4f747911d567373b", "is_reserved": 0, "rental_uris": {"ios": "https://dc.lft.to/lastmile_qr_scan", "android": "https://dc.lft.to/lastmile_qr_scan"}}, {"fusion_lat": 0.0, "is_disabled": 0, "lat": 38.92356383333333, "lon": -77.05071666666667, "fusion_lon": 0.0, "bike_id": "81de0eb2ccbe277d67eb04d6e4090fae", "type": "electric_scooter", "name": "81de0eb2ccbe277d67eb04d6e4090fae", "is_reserved": 0, "rental_uris": {"ios": "https://dc.lft.to/lastmile_qr_scan", "android": "https://dc.lft.to/lastmile_qr_scan"}}, {"fusion_lat": 0.0, "is_disabled": 0, "lat": 38.927547833333335, "lon": -77.03216066666667, "fusion_lon": 0.0, "bike_id": "6e0a1615cb41f979d27b5c620efa3de3", "type": "electric_scooter", "name": "6e0a1615cb41f979d27b5c620efa3de3", "is_reserved": 0, "rental_uris": {"ios": "https://dc.lft.to/lastmile_qr_scan", "android": "https://dc.lft.to/lastmile_qr_scan"}}, {"fusion_lat": 0.0, "is_disabled": 0, "lat": 38.90597283333334, "lon": -77.07004233333333, "fusion_lon": 0.0, "bike_id": "aae365f575b5660680f779c195e775a6", "type": "electric_scooter", "name": "aae365f575b5660680f779c195e775a6", "is_reserved": 0, "rental_uris": {"ios": "https://dc.lft.to/lastmile_qr_scan", "android": "https://dc.lft.to/lastmile_qr_scan"}}, {"fusion_lat": 0.0, "is_disabled": 0, "lat": 38.91904683333333, "lon": -77.0313015, "fusion_lon": 0.0, "bike_id": "cd1d1cfda1c3cac1c2c00d1387e152f7", "type": "electric_bike", "name": "cd1d1cfda1c3cac1c2c00d1387e152f7", "is_reserved": 0, "rental_uris": {"ios": "https://dc.lft.to/lastmile_qr_scan", "android": "https://dc.lft.to/lastmile_qr_scan"}}, {"fusion_lat": 0.0, "is_disabled": 0, "lat": 38.906661, "lon": -77.04484566666666, "fusion_lon": 0.0, "bike_id": "34f2f62e21f02d674bf7bbc2b1f8f6b8", "type": "electric_bike", "name": "34f2f62e21f02d674bf7bbc2b1f8f6b8", "is_reserved": 0, "rental_uris": {"ios": "https://dc.lft.to/lastmile_qr_scan", "android": "https://dc.lft.to/lastmile_qr_scan"}}, {"fusion_lat": 0.0, "is_disabled": 0, "lat": 38.89673966666667, "lon": -77.01196083333333, "fusion_lon": 0.0, "bike_id": "6e4f08efd30db8a089e61f3e19733fb9", "type": "electric_scooter", "name": "6e4f08efd30db8a089e61f3e19733fb9", "is_reserved": 0, "rental_uris": {"ios": "https://dc.lft.to/lastmile_qr_scan", "android": "https://dc.lft.to/lastmile_qr_scan"}}, {"fusion_lat": 0.0, "is_disabled": 0, "lat": 38.92473, "lon": -77.0221955, "fusion_lon": 0.0, "bike_id": "a92f9bacde5d3999dd3b9509cefb5ef6", "type": "electric_scooter", "name": "a92f9bacde5d3999dd3b9509cefb5ef6", "is_reserved": 0, "rental_uris": {"ios": "https://dc.lft.to/lastmile_qr_scan", "android": "https://dc.lft.to/lastmile_qr_scan"}}, {"fusion_lat": 0.0, "is_disabled": 0, "lat": 38.93697516666667, "lon": -77.055984, "fusion_lon": 0.0, "bike_id": "a26d620b0369b4fae7c6bdafe751f1d8", "type": "electric_scooter", "name": "a26d620b0369b4fae7c6bdafe751f1d8", "is_reserved": 0, "rental_uris": {"ios": "https://dc.lft.to/lastmile_qr_scan", "android": "https://dc.lft.to/lastmile_qr_scan"}}, {"fusion_lat": 0.0, "is_disabled": 0, "lat": 38.872515166666666, "lon": -77.01072083333334, "fusion_lon": 0.0, "bike_id": "34e3b8ea2e1e70f4847fcccdab3a057a", "type": "electric_scooter", "name": "34e3b8ea2e1e70f4847fcccdab3a057a", "is_reserved": 0, "rental_uris": {"ios": "https://dc.lft.to/lastmile_qr_scan", "android": "https://dc.lft.to/lastmile_qr_scan"}}, {"fusion_lat": 0.0, "is_disabled": 0, "lat": 38.856376833333336, "lon": -77.06836683333333, "fusion_lon": 0.0, "bike_id": "c106ca04510c5791461a4026a2b4cf5d", "type": "electric_bike", "name": "c106ca04510c5791461a4026a2b4cf5d", "is_reserved": 0, "rental_uris": {"ios": "https://dc.lft.to/lastmile_qr_scan", "android": "https://dc.lft.to/lastmile_qr_scan"}}, {"fusion_lat": 0.0, "is_disabled": 0, "lat": 38.877513, "lon": -77.0039625, "fusion_lon": 0.0, "bike_id": "db0b654fb5895c4752d0c051553a828d", "type": "electric_scooter", "name": "db0b654fb5895c4752d0c051553a828d", "is_reserved": 0, "rental_uris": {"ios": "https://dc.lft.to/lastmile_qr_scan", "android": "https://dc.lft.to/lastmile_qr_scan"}}, {"fusion_lat": 0.0, "is_disabled": 0, "lat": 38.89892666666667, "lon": -77.039304, "fusion_lon": 0.0, "bike_id": "f2de0a1922d2d434d410702ef613ba51", "type": "electric_scooter", "name": "f2de0a1922d2d434d410702ef613ba51", "is_reserved": 0, "rental_uris": {"ios": "https://dc.lft.to/lastmile_qr_scan", "android": "https://dc.lft.to/lastmile_qr_scan"}}, {"fusion_lat": 0.0, "is_disabled": 0, "lat": 38.8960635, "lon": -77.02987566666667, "fusion_lon": 0.0, "bike_id": "4f99abcdaa7ba4c3ba5bdd51972c2511", "type": "electric_scooter", "name": "4f99abcdaa7ba4c3ba5bdd51972c2511", "is_reserved": 0, "rental_uris": {"ios": "https://dc.lft.to/lastmile_qr_scan", "android": "https://dc.lft.to/lastmile_qr_scan"}}, {"fusion_lat": 0.0, "is_disabled": 0, "lat": 38.93400616666667, "lon": -77.04140133333334, "fusion_lon": 0.0, "bike_id": "ae6beda0950e71d3f48563f8176efc7e", "type": "electric_scooter", "name": "ae6beda0950e71d3f48563f8176efc7e", "is_reserved": 0, "rental_uris": {"ios": "https://dc.lft.to/lastmile_qr_scan", "android": "https://dc.lft.to/lastmile_qr_scan"}}, {"fusion_lat": 0.0, "is_disabled": 0, "lat": 38.91709516666667, "lon": -77.03888016666667, "fusion_lon": 0.0, "bike_id": "733ff1b4f6dae69cb85d8c8ba3c7378f", "type": "electric_scooter", "name": "733ff1b4f6dae69cb85d8c8ba3c7378f", "is_reserved": 0, "rental_uris": {"ios": "https://dc.lft.to/lastmile_qr_scan", "android": "https://dc.lft.to/lastmile_qr_scan"}}, {"fusion_lat": 0.0, "is_disabled": 0, "lat": 38.902325, "lon": -77.02773516666667, "fusion_lon": 0.0, "bike_id": "1127749d72bea2675d74ae2797745dba", "type": "electric_scooter", "name": "1127749d72bea2675d74ae2797745dba", "is_reserved": 0, "rental_uris": {"ios": "https://dc.lft.to/lastmile_qr_scan", "android": "https://dc.lft.to/lastmile_qr_scan"}}, {"fusion_lat": 0.0, "is_disabled": 0, "lat": 38.88220416666667, "lon": -76.99741516666667, "fusion_lon": 0.0, "bike_id": "d97cb12f7c0b4759a67bb32129844775", "type": "electric_scooter", "name": "d97cb12f7c0b4759a67bb32129844775", "is_reserved": 0, "rental_uris": {"ios": "https://dc.lft.to/lastmile_qr_scan", "android": "https://dc.lft.to/lastmile_qr_scan"}}, {"fusion_lat": 0.0, "is_disabled": 0, "lat": 38.8242785, "lon": -77.1203915, "fusion_lon": 0.0, "bike_id": "c9547f163ff0c1827d8b275270edd91b", "type": "electric_bike", "name": "c9547f163ff0c1827d8b275270edd91b", "is_reserved": 0, "rental_uris": {"ios": "https://dc.lft.to/lastmile_qr_scan", "android": "https://dc.lft.to/lastmile_qr_scan"}}, {"fusion_lat": 0.0, "is_disabled": 0, "lat": 38.865537, "lon": -76.97478016666666, "fusion_lon": 0.0, "bike_id": "6372cb7a394cd72f873b1da33eb093e4", "type": "electric_bike", "name": "6372cb7a394cd72f873b1da33eb093e4", "is_reserved": 0, "rental_uris": {"ios": "https://dc.lft.to/lastmile_qr_scan", "android": "https://dc.lft.to/lastmile_qr_scan"}}, {"fusion_lat": 0.0, "is_disabled": 0, "lat": 38.9088075, "lon": -77.074311, "fusion_lon": 0.0, "bike_id": "078cf2bc44c4c8f4c8036c893df62aa3", "type": "electric_scooter", "name": "078cf2bc44c4c8f4c8036c893df62aa3", "is_reserved": 0, "rental_uris": {"ios": "https://dc.lft.to/lastmile_qr_scan", "android": "https://dc.lft.to/lastmile_qr_scan"}}, {"fusion_lat": 0.0, "is_disabled": 0, "lat": 38.90564066666666, "lon": -77.05701366666666, "fusion_lon": 0.0, "bike_id": "4225b64c04acc00aa92ad35145085aac", "type": "electric_scooter", "name": "4225b64c04acc00aa92ad35145085aac", "is_reserved": 0, "rental_uris": {"ios": "https://dc.lft.to/lastmile_qr_scan", "android": "https://dc.lft.to/lastmile_qr_scan"}}, {"fusion_lat": 0.0, "is_disabled": 0, "lat": 38.8995735, "lon": -77.04751133333333, "fusion_lon": 0.0, "bike_id": "f585aa77e053316d17ad0453f434f9f2", "type": "electric_scooter", "name": "f585aa77e053316d17ad0453f434f9f2", "is_reserved": 0, "rental_uris": {"ios": "https://dc.lft.to/lastmile_qr_scan", "android": "https://dc.lft.to/lastmile_qr_scan"}}, {"fusion_lat": 0.0, "is_disabled": 0, "lat": 38.846729, "lon": -77.13935716666667, "fusion_lon": 0.0, "bike_id": "8221f6aa4402260606d3e3c9da08d114", "type": "electric_bike", "name": "8221f6aa4402260606d3e3c9da08d114", "is_reserved": 0, "rental_uris": {"ios": "https://dc.lft.to/lastmile_qr_scan", "android": "https://dc.lft.to/lastmile_qr_scan"}}, {"fusion_lat": 0.0, "is_disabled": 0, "lat": 38.923064833333335, "lon": -77.02968966666667, "fusion_lon": 0.0, "bike_id": "71062476054633190bd3ba8192e747f6", "type": "electric_scooter", "name": "71062476054633190bd3ba8192e747f6", "is_reserved": 0, "rental_uris": {"ios": "https://dc.lft.to/lastmile_qr_scan", "android": "https://dc.lft.to/lastmile_qr_scan"}}, {"fusion_lat": 0.0, "is_disabled": 0, "lat": 38.889622833333334, "lon": -76.980355, "fusion_lon": 0.0, "bike_id": "4f1f10683200c0c0fa0dcdf92fd9b69e", "type": "electric_scooter", "name": "4f1f10683200c0c0fa0dcdf92fd9b69e", "is_reserved": 0, "rental_uris": {"ios": "https://dc.lft.to/lastmile_qr_scan", "android": "https://dc.lft.to/lastmile_qr_scan"}},