{"data": {"bikes": [{"fusion_lat": 0.0, "name": "2bb0ee47f7b83bbf61028439544d356f", "is_disabled": 0, "rental_uris": {"android": "https://dc.lft.to/lastmile_qr_scan", "ios": "https://dc.lft.to/lastmile_qr_scan"}, "fusion_lon": 0.0, "lat": 38.91778883333333, "bike_id": "2bb0ee47f7b83bbf61028439544d356f", "type": "electric_scooter", "is_reserved": 0, "lon": -77.03190966666666}, {"fusion_lat": 0.0, "name": "44f2225edaec94e3dbbd8e69bc327b91", "is_disabled": 0, "rental_uris": {"android": "https://dc.lft.to/lastmile_qr_scan", "ios": "https://dc.lft.to/lastmile_qr_scan"}, "fusion_lon": 0.0, "lat": 38.904084833333336, "bike_id": "44f2225edaec94e3dbbd8e69bc327b91", "type": "electric_scooter", "is_reserved": 0, "lon": -77.025827}, {"fusion_lat": 0.0, "name": "dfe36ca12ff1718eb2dd119318474475", "is_disabled": 0, "rental_uris": {"android": "https://dc.lft.to/lastmile_qr_scan", "ios": "https://dc.lft.to/lastmile_qr_scan"}, "fusion_lon": 0.0, "lat": 38.871659333333334, "bike_id": "dfe36ca12ff1718eb2dd119318474475", "type": "electric_scooter", "is_reserved": 0, "lon": -77.00567883333333}, {"fusion_lat": 0.0, "name": "bb4bf597be8560dc98a3c964c8c056d1", "is_disabled": 0, "rental_uris": {"android": "https://dc.lft.to/lastmile_qr_scan", "ios": "https://dc.lft.to/lastmile_qr_scan"}, "fusion_lon": 0.0, "lat": 38.892823666666665, "bike_id": "bb4bf597be8560dc98a3c964c8c056d1", "type": "electric_scooter", "is_reserved": 0, "lon": -77.03172616666667}, {"fusion_lat": 0.0, "name": "881ac43bd2ff80272b3d3681716012d4", "is_disabled": 0, "rental_uris": {"android": "https://dc.lft.to/lastmile_qr_scan", "ios": "https://dc.lft.to/lastmile_qr_scan"}, "fusion_lon": 0.0, "lat": 38.9284925, "bike_id": "881ac43bd2ff80272b3d3681716012d4", "type": "electric_scooter", "is_reserved": 0, "lon": -77.029617}, {"fusion_lat": 0.0, "name": "58a29de5a7745683ec79576c839bcd73", "is_disabled": 0, "rental_uris": {"android": "https://dc.lft.to/lastmile_qr_scan", "ios": "https://dc.lft.to/lastmile_qr_scan"}, "fusion_lon": 0.0, "lat": 38.86662833333333, "bike_id": "58a29de5a7745683ec79576c839bcd73", "type": "electric_scooter", "is_reserved": 0, "lon": -76.98899933333334}, {"fusion_lat": 0.0, "name": "ebb9d241678362ecf507a56dbf881070", "is_disabled": 0, "rental_uris": {"android": "https://dc.lft.to/lastmile_qr_scan", "ios": "https://dc.lft.to/lastmile_qr_scan"}, "fusion_lon": 0.0, "lat": 38.9298515, "bike_id": "ebb9d241678362ecf507a56dbf881070", "type": "electric_scooter", "is_reserved": 0, "lon": -77.03229916666666}, {"fusion_lat": 0.0, "name": "4b6e12b6940573d9ea5867a40ad71289", "is_disabled": 0, "rental_uris": {"android": "https://dc.lft.to/lastmile_qr_scan", "ios": "https://dc.lft.to/lastmile_qr_scan"}, "fusion_lon": 0.0, "lat": 38.861996166666664, "bike_id": "4b6e12b6940573d9ea5867a40ad71289", "type": "electric_bike", "is_reserved": 0, "lon": -77.059822}, {"fusion_lat": 0.0, "name": "475d0c197b937c54ff082fd9428bef43", "is_disabled": 0, "rental_uris": {"android": "https://dc.lft.to/lastmile_qr_scan", "ios": "https://dc.lft.to/lastmile_qr_scan"}, "fusion_lon": 0.0, "lat": 38.902953833333335, "bike_id": "475d0c197b937c54ff082fd9428bef43", "type": "electric_scooter", "is_reserved": 0, "lon": -77.0495065}, {"fusion_lat": 0.0, "name": "c8e071f41b9aa5a4bbb8127dc976b75f", "is_disabled": 0, "rental_uris": {"android": "https://dc.lft.to/lastmile_qr_scan", "ios": "https://dc.lft.to/lastmile_qr_scan"}, "fusion_lon": 0.0, "lat": 38.89796166666667, "bike_id": "c8e071f41b9aa5a4bbb8127dc976b75f", "type": "electric_scooter", "is_reserved": 0, "lon": -76.98459333333334}, {"fusion_lat": 0.0, "name": "c03a9333465cb46b5101edce025c4856", "is_disabled": 0, "rental_uris": {"android": "https://dc.lft.to/lastmile_qr_scan", "ios": "https://dc.lft.to/lastmile_qr_scan"}, "fusion_lon": 0.0, "lat": 38.9168435, "bike_id": "c03a9333465cb46b5101edce025c4856", "type": "electric_scooter", "is_reserved": 0, "lon": -77.03853266666667}, {"fusion_lat": 0.0, "name": "15f6c47ccb86db5e459787339a0fb8f2", "is_disabled": 0, "rental_uris": {"android": "https://dc.lft.to/lastmile_qr_scan", "ios": "https://dc.lft.to/lastmile_qr_scan"}, "fusion_lon": 0.0, "lat": 38.8588295, "bike_id": "15f6c47ccb86db5e459787339a0fb8f2", "type": "electric_bike", "is_reserved": 0, "lon": -77.09563683333333}, {"fusion_lat": 0.0, "name": "9a78f22c7b6d17e237799b62c7ff12cc", "is_disabled": 0, "rental_uris": {"android": "https://dc.lft.to/lastmile_qr_scan", "ios": "https://dc.lft.to/lastmile_qr_scan"}, "fusion_lon": 0.0, "lat": 38.90022483333333, "bike_id": "9a78f22c7b6d17e237799b62c7ff12cc", "type": "electric_scooter", "is_reserved": 0, "lon": -76.9881705}, {"fusion_lat": 0.0, "name": "74046b4ebc094ca3d3cdb112c5b6b774", "is_disabled": 0, "rental_uris": {"android": "https://dc.lft.to/lastmile_qr_scan", "ios": "https://dc.lft.to/lastmile_qr_scan"}, "fusion_lon": 0.0, "lat": 38.917974666666666, "bike_id": "74046b4ebc094ca3d3cdb112c5b6b774", "type": "electric_scooter", "is_reserved": 0, "lon": -77.03448716666666}, {"fusion_lat": 0.0, "name": "7c5c887ffbe19b04050d2d396c3fce53", "is_disabled": 0, "rental_uris": {"android": "https://dc.lft.to/lastmile_qr_scan", "ios": "https://dc.lft.to/lastmile_qr_scan"}, "fusion_lon": 0.0, "lat": 38.898434, "bike_id": "7c5c887ffbe19b04050d2d396c3fce53", "type": "electric_scooter", "is_reserved": 0, "lon": -77.03031966666667}, {"fusion_lat": 0.0, "name": "2de9a292ecc45e14b8b9834f8b28fa39", "is_disabled": 0, "rental_uris": {"android": "https://dc.lft.to/lastmile_qr_scan", "ios": "https://dc.lft.to/lastmile_qr_scan"}, "fusion_lon": 0.0, "lat": 38.90226583333333, "bike_id": "2de9a292ecc45e14b8b9834f8b28fa39", "type": "electric_scooter", "is_reserved": 0, "lon": -77.05319966666667}, {"fusion_lat": 0.0, "name": "80e9a401ee61743bea724bae9991f52b", "is_disabled": 0, "rental_uris": {"android": "https://dc.lft.to/lastmile_qr_scan", "ios": "https://dc.lft.to/lastmile_qr_scan"}, "fusion_lon": 0.0, "lat": 38.89289616666667, "bike_id": "80e9a401ee61743bea724bae9991f52b", "type": "electric_scooter", "is_reserved": 0, "lon": -77.0123615}, {"fusion_lat": 0.0, "name": "ed360fb89dbdb0404ca50978182e96da", "is_disabled": 0, "rental_uris": {"android": "https://dc.lft.to/lastmile_qr_scan", "ios": "https://dc.lft.to/lastmile_qr_scan"}, "fusion_lon": 0.0, "lat": 38.902447333333335, "bike_id": "ed360fb89dbdb0404ca50978182e96da", "type": "electric_scooter", "is_reserved": 0, "lon": -77.018132}, {"fusion_lat": 0.0, "name": "8ec7261235a47e7bd22587f256897485", "is_disabled": 0, "rental_uris": {"android": "https://dc.lft.to/lastmile_qr_scan", "ios": "https://dc.lft.to/lastmile_qr_scan"}, "fusion_lon": 0.0, "lat": 38.9006365, "bike_id": "8ec7261235a47e7bd22587f256897485", "type": "electric_scooter", "is_reserved": 0, "lon": -77.0476275}, {"fusion_lat": 0.0, "name": "d13e5d93cb21a9e2e1b0314ca49b171a", "is_disabled": 0, "rental_uris": {"android": "https://dc.lft.to/lastmile_qr_scan", "ios": "https://dc.lft.to/lastmile_qr_scan"}, "fusion_lon": 0.0, "lat": 38.92565616666667, "bike_id": "d13e5d93cb21a9e2e1b0314ca49b171a", "type": "electric_scooter", "is_reserved": 0, "lon": -77.05280516666667}, {"fusion_lat": 0.0, "name": "998ac9d2261e003c6d57629ce381db83", "is_disabled": 0, "rental_uris": {"android": "https://dc.lft.to/lastmile_qr_scan", "ios": "https://dc.lft.to/lastmile_qr_scan"}, "fusion_lon": 0.0, "lat": 38.919614833333334, "bike_id": "998ac9d2261e003c6d57629ce381db83", "type": "electric_scooter", "is_reserved": 0, "lon": -77.0178625}, {"fusion_lat": 0.0, "name": "88870ae6128bdf03b1f2700cfa9c2cf2", "is_disabled": 0, "rental_uris": {"android": "https://dc.lft.to/lastmile_qr_scan", "ios": "https://dc.lft.to/lastmile_qr_scan"}, "fusion_lon": 0.0, "lat": 38.91915516666667, "bike_id": "88870ae6128bdf03b1f2700cfa9c2cf2", "type": "electric_scooter", "is_reserved": 0, "lon": -77.03065316666667}, {"fusion_lat": 0.0, "name": "4b6a23e841a007c774c74ac4ab195358", "is_disabled": 0, "rental_uris": {"android": "https://dc.lft.to/lastmile_qr_scan", "ios": "https://dc.lft.to/lastmile_qr_scan"}, "fusion_lon": 0.0, "lat": 38.90950866666667, "bike_id": "4b6a23e841a007c774c74ac4ab195358", "type": "electric_scooter", "is_reserved": 0, "lon": -76.98536933333334}, {"fusion_lat": 0.0, "name": "a65577125a143f1b46befef434ee4f17", "is_disabled": 0, "rental_uris": {"android": "https://dc.lft.to/lastmile_qr_scan", "ios": "https://dc.lft.to/lastmile_qr_scan"}, "fusion_lon": 0.0, "lat": 38.920333166666666, "bike_id": "a65577125a143f1b46befef434ee4f17", "type": "electric_scooter", "is_reserved": 0, "lon": -77.0715225}, {"fusion_lat": 0.0, "name": "5f38284d1fd0ae6ec7695c0eca610ddb", "is_disabled": 0, "rental_uris": {"android": "https://dc.lft.to/lastmile_qr_scan", "ios": "https://dc.lft.to/lastmile_qr_scan"}, "fusion_lon": 0.0, "lat": 38.908525833333336, "bike_id": "5f38284d1fd0ae6ec7695c0eca610ddb", "type": "electric_scooter", "is_reserved": 0, "lon": -77.02720933333333}, {"fusion_lat": 0.0, "name": "a7f5e650a27832ec6a117a2c3c7aa327", "is_disabled": 0, "rental_uris": {"android": "https://dc.lft.to/lastmile_qr_scan", "ios": "https://dc.lft.to/lastmile_qr_scan"}, "fusion_lon": 0.0, "lat": 38.99779016666667, "bike_id": "a7f5e650a27832ec6a117a2c3c7aa327", "type": "electric_bike", "is_reserved": 0, "lon": -77.04722483333333}, {"fusion_lat": 0.0, "name": "33ef62dee33464559ba9e17915bf4321", "is_disabled": 0, "rental_uris": {"android": "https://dc.lft.to/lastmile_qr_scan", "ios": "https://dc.lft.to/lastmile_qr_scan"}, "fusion_lon": 0.0, "lat": 38.90386683333333, "bike_id": "33ef62dee33464559ba9e17915bf4321", "type": "electric_scooter", "is_reserved": 0, "lon": -77.04817233333333}, {"fusion_lat": 0.0, "name": "82786445b44ebc847220a4ca30b69c37", "is_disabled": 0, "rental_uris": {"android": "https://dc.lft.to/lastmile_qr_scan", "ios": "https://dc.lft.to/lastmile_qr_scan"}, "fusion_lon": 0.0, "lat": 38.932425, "bike_id": "82786445b44ebc847220a4ca30b69c37", "type": "electric_scooter", "is_reserved": 0, "lon": -77.0326615}, {"fusion_lat": 0.0, "name": "7aa17c8725143921aa71a16919d9bb5d", "is_disabled": 0, "rental_uris": {"android": "https://dc.lft.to/lastmile_qr_scan", "ios": "https://dc.lft.to/lastmile_qr_scan"}, "fusion_lon": 0.0, "lat": 38.9000925, "bike_id": "7aa17c8725143921aa71a16919d9bb5d", "type": "electric_scooter", "is_reserved": 0, "lon": -76.98812466666666}, {"fusion_lat": 0.0, "name": "7dcc3b8996f9995517b7274afd7f32fa", "is_disabled": 0, "rental_uris": {"android": "https://dc.lft.to/lastmile_qr_scan", "ios": "https://dc.lft.to/lastmile_qr_scan"}, "fusion_lon": 0.0, "lat": 38.93685716666667, "bike_id": "7dcc3b8996f9995517b7274afd7f32fa", "type": "electric_scooter", "is_reserved": 0, "lon": -77.03633316666667}, {"fusion_lat": 0.0, "name": "855aff224738e773c9c024b4a1b41863", "is_disabled": 0, "rental_uris": {"android": "https://dc.lft.to/lastmile_qr_scan", "ios": "https://dc.lft.to/lastmile_qr_scan"}, "fusion_lon": 0.0, "lat": 38.900325, "bike_id": "855aff224738e773c9c024b4a1b41863", "type": "electric_scooter", "is_reserved": 0, "lon": -76.99627816666667}, {"fusion_lat": 0.0, "name": "ca97b4662bcec970ab03f8245f8b0797", "is_disabled": 0, "rental_uris": {"android": "https://dc.lft.to/lastmile_qr_scan", "ios": "https://dc.lft.to/lastmile_qr_scan"}, "fusion_lon": 0.0, "lat": 38.90715633333333, "bike_id": "ca97b4662bcec970ab03f8245f8b0797", "type": "electric_scooter", "is_reserved": 0, "lon": -77.035912}, {"fusion_lat": 0.0, "name": "030088bf3104f8b5badbbd0c124f09ef", "is_disabled": 0, "rental_uris": {"android": "https://dc.lft.to/lastmile_qr_scan", "ios": "https://dc.lft.to/lastmile_qr_scan"}, "fusion_lon": 0.0, "lat": 38.892231833333334, "bike_id": "030088bf3104f8b5badbbd0c124f09ef", "type": "electric_scooter", "is_reserved": 0, "lon": -77.046439}, {"fusion_lat": 0.0, "name": "6a75accf6588077d8ae4cd1b0d2979fb", "is_disabled": 0, "rental_uris": {"android": "https://dc.lft.to/lastmile_qr_scan", "ios": "https://dc.lft.to/lastmile_qr_scan"}, "fusion_lon": 0.0, "lat": 38.91266683333333, "bike_id": "6a75accf6588077d8ae4cd1b0d2979fb", "type": "electric_scooter", "is_reserved": 0, "lon": -77.01771266666667}, {"fusion_lat": 0.0, "name": "ca7de4b8873be02e923d116d5c9d5432", "is_disabled": 0, "rental_uris": {"android": "https://dc.lft.to/lastmile_qr_scan", "ios": "https://dc.lft.to/lastmile_qr_scan"}, "fusion_lon": 0.0, "lat": 38.8988735, "bike_id": "ca7de4b8873be02e923d116d5c9d5432", "type": "electric_scooter", "is_reserved": 0, "lon": -76.99358983333333}, {"fusion_lat": 0.0, "name": "b0fef4de87d7a2cb9c018a8ddc853236", "is_disabled": 0, "rental_uris": {"android": "https://dc.lft.to/lastmile_qr_scan", "ios": "https://dc.lft.to/lastmile_qr_scan"}, "fusion_lon": 0.0, "lat": 38.9132195, "bike_id": "b0fef4de87d7a2cb9c018a8ddc853236", "type": "electric_scooter", "is_reserved": 0, "lon": -77.0364105}, {"fusion_lat": 0.0, "name": "f9dc4e536ee68fde6b10ef4c457c54a9", "is_disabled": 0, "rental_uris": {"android": "https://dc.lft.to/lastmile_qr_scan", "ios": "https://dc.lft.to/lastmile_qr_scan"}, "fusion_lon": 0.0, "lat": 38.917061, "bike_id": "f9dc4e536ee68fde6b10ef4c457c54a9", "type": "electric_scooter", "is_reserved": 0, "lon": -77.031182}, {"fusion_lat": 0.0, "name": "ea622fba2966b5e12c44b73e5ed66cb6", "is_disabled": 0, "rental_uris": {"android": "https://dc.lft.to/lastmile_qr_scan", "ios": "https://dc.lft.to/lastmile_qr_scan"}, "fusion_lon": 0.0, "lat": 38.95283116666667, "bike_id": "ea622fba2966b5e12c44b73e5ed66cb6", "type": "electric_scooter", "is_reserved": 0, "lon": -77.06881266666667}, {"fusion_lat": 0.0, "name": "8549d014a1e8a0bf871881546ff1b79c", "is_disabled": 0, "rental_uris": {"android": "https://dc.lft.to/lastmile_qr_scan", "ios": "https://dc.lft.to/lastmile_qr_scan"}, "fusion_lon": 0.0, "lat": 38.91153333333333, "bike_id": "8549d014a1e8a0bf871881546ff1b79c", "type": "electric_scooter", "is_reserved": 0, "lon": -77.087566}, {"fusion_lat": 0.0, "name": "735336a8c0115e1db0035da8d19ab1a3", "is_disabled": 0, "rental_uris": {"android": "https://dc.lft.to/lastmile_qr_scan", "ios": "https://dc.lft.to/lastmile_qr_scan"}, "fusion_lon": 0.0, "lat": 38.88494766666667, "bike_id": "735336a8c0115e1db0035da8d19ab1a3", "type": "electric_scooter", "is_reserved": 0, "lon": -77.01480866666667}, {"fusion_lat": 0.0, "name": "a418c1ce000e68eed56b089735dd36a8", "is_disabled": 0, "rental_uris": {"android": "https://dc.lft.to/lastmile_qr_scan", "ios": "https://dc.lft.to/lastmile_qr_scan"}, "fusion_lon": 0.0, "lat": 38.908812833333336, "bike_id": "a418c1ce000e68eed56b089735dd36a8", "type": "electric_scooter", "is_reserved": 0, "lon": -76.99810266666667}, {"fusion_lat": 0.0, "name": "d927eb9f3e55fcd91994f7334dbb46ee", "is_disabled": 0, "rental_uris": {"android": "https://dc.lft.to/lastmile_qr_scan", "ios": "https://dc.lft.to/lastmile_qr_scan"}, "fusion_lon": 0.0, "lat": 38.94509866666667, "bike_id": "d927eb9f3e55fcd91994f7334dbb46ee", "type": "electric_bike", "is_reserved": 0, "lon": -77.00675183333334}, {"fusion_lat": 0.0, "name": "63ae4b361bb96762dc251c32370ff730", "is_disabled": 0, "rental_uris": {"android": "https://dc.lft.to/lastmile_qr_scan", "ios": "https://dc.lft.to/lastmile_qr_scan"}, "fusion_lon": 0.0, "lat": 38.915397166666665, "bike_id": "63ae4b361bb96762dc251c32370ff730", "type": "electric_scooter", "is_reserved": 0, "lon": -77.03212833333333}, {"fusion_lat": 0.0, "name": "8e1263a79657046f5251cda3bfd0d83e", "is_disabled": 0, "rental_uris": {"android": "https://dc.lft.to/lastmile_qr_scan", "ios": "https://dc.lft.to/lastmile_qr_scan"}, "fusion_lon": 0.0, "lat": 38.895447, "bike_id": "8e1263a79657046f5251cda3bfd0d83e", "type": "electric_scooter", "is_reserved": 0, "lon": -76.98339683333333}, {"fusion_lat": 0.0, "name": "1455287875b09a86f2d3f47c82578024", "is_disabled": 0, "rental_uris": {"android": "https://dc.lft.to/lastmile_qr_scan", "ios": "https://dc.lft.to/lastmile_qr_scan"}, "fusion_lon": 0.0, "lat": 38.94094333333334, "bike_id": "1455287875b09a86f2d3f47c82578024", "type": "electric_bike", "is_reserved": 0, "lon": -77.03279716666667}, {"fusion_lat": 0.0, "name": "c73cfe55911065d87f662d0313e3e29b", "is_disabled": 0, "rental_uris": {"android": "https://dc.lft.to/lastmile_qr_scan", "ios": "https://dc.lft.to/lastmile_qr_scan"}, "fusion_lon": 0.0, "lat": 38.9181665, "bike_id": "c73cfe55911065d87f662d0313e3e29b", "type": "electric_scooter", "is_reserved": 0, "lon": -77.04521316666667}, {"fusion_lat": 0.0, "name": "0c552f39c1141ed34716c18f8b35fbd2", "is_disabled": 0, "rental_uris": {"android": "https://dc.lft.to/lastmile_qr_scan", "ios": "https://dc.lft.to/lastmile_qr_scan"}, "fusion_lon": 0.0, "lat": 38.88822483333333, "bike_id": "0c552f39c1141ed34716c18f8b35fbd2", "type": "electric_scooter", "is_reserved": 0, "lon": -76.9772125}, {"fusion_lat": 0.0, "name": "cf3c63d0e306426af3d1055972035d61", "is_disabled": 0, "rental_uris": {"android": "https://dc.lft.to/lastmile_qr_scan", "ios": "https://dc.lft.to/lastmile_qr_scan"}, "fusion_lon": 0.0, "lat": 38.925467833333336, "bike_id": "cf3c63d0e306426af3d1055972035d61", "type": "electric_scooter", "is_reserved": 0, "lon": -77.076991}, {"fusion_lat": 0.0, "name": "b8e2f707a7dea7d9fe827438fbb04be6", "is_disabled": 0, "rental_uris": {"android": "https://dc.lft.to/lastmile_qr_scan", "ios": "https://dc.lft.to/lastmile_qr_scan"}, "fusion_lon": 0.0, "lat": 38.900806, "bike_id": "b8e2f707a7dea7d9fe827438fbb04be6", "type": "electric_scooter", "is_reserved": 0, "lon": -77.013896}, {"fusion_lat": 0.0, "name": "cc2812f984cb6a10965fa223da65d7b4", "is_disabled": 0, "rental_uris": {"android": "https://dc.lft.to/lastmile_qr_scan", "ios": "https://dc.lft.to/lastmile_qr_scan"}, "fusion_lon": 0.0, "lat": 38.9126405, "bike_id": "cc2812f984cb6a10965fa223da65d7b4", "type": "electric_scooter", "is_reserved": 0, "lon": -77.0316835}, {"fusion_lat": 0.0, "name": "abda46dfd07897f68d598a64f264fd58", "is_disabled": 0, "rental_uris": {"android": "https://dc.lft.to/lastmile_qr_scan", "ios": "https://dc.lft.to/lastmile_qr_scan"}, "fusion_lon": 0.0, "lat": 38.88820783333333, "bike_id": "abda46dfd07897f68d598a64f264fd58", "type": "electric_scooter", "is_reserved": 0, "lon": -76.97720016666666}, {"fusion_lat": 0.0, "name": "220498229ab7bdafe35bbf7cece00272", "is_disabled": 0, "rental_uris": {"android": "https://dc.lft.to/lastmile_qr_scan", "ios": "https://dc.lft.to/lastmile_qr_scan"}, "fusion_lon": 0.0, "lat": 38.90962433333333, "bike_id": "220498229ab7bdafe35bbf7cece00272", "type": "electric_scooter", "is_reserved": 0, "lon": -77.034409}, {"fusion_lat": 0.0, "name": "3deadacb164e8279586615ef66cfc7aa", "is_disabled": 0, "rental_uris": {"android": "https://dc.lft.to/lastmile_qr_scan", "ios": "https://dc.lft.to/lastmile_qr_scan"}, "fusion_lon": 0.0, "lat": 38.906397, "bike_id": "3deadacb164e8279586615ef66cfc7aa", "type": "electric_scooter", "is_reserved": 0, "lon": -77.03443183333333}, {"fusion_lat": 0.0, "name": "4f7870fe399e2ce29b18a5d2c2fc8379", "is_disabled": 0, "rental_uris": {"android": "https://dc.lft.to/lastmile_qr_scan", "ios": "https://dc.lft.to/lastmile_qr_scan"}, "fusion_lon": 0.0, "lat": 38.9181205, "bike_id": "4f7870fe399e2ce29b18a5d2c2fc8379", "type": "electric_scooter", "is_reserved": 0, "lon": -77.02472033333333}, {"fusion_lat": 0.0, "name": "999b4d02797866c6b6d8b06c1f33c6ec", "is_disabled": 0, "rental_uris": {"android": "https://dc.lft.to/lastmile_qr_scan", "ios": "https://dc.lft.to/lastmile_qr_scan"}, "fusion_lon": 0.0, "lat": 38.898263, "bike_id": "999b4d02797866c6b6d8b06c1f33c6ec", "type": "electric_bike", "is_reserved": 0, "lon": -77.005987}, {"fusion_lat": 0.0, "name": "6016a9c781cb4e871805971d1960fc01", "is_disabled": 0, "rental_uris": {"android": "https://dc.lft.to/lastmile_qr_scan", "ios": "https://dc.lft.to/lastmile_qr_scan"}, "fusion_lon": 0.0, "lat": 38.920406666666665, "bike_id": "6016a9c781cb4e871805971d1960fc01", "type": "electric_scooter", "is_reserved": 0, "lon": -77.02590733333334}, {"fusion_lat": 0.0, "name": "45841addf277e470f902b3b7ff879a1d", "is_disabled": 0, "rental_uris": {"android": "https://dc.lft.to/lastmile_qr_scan", "ios": "https://dc.lft.to/lastmile_qr_scan"}, "fusion_lon": 0.0, "lat": 38.917765, "bike_id": "45841addf277e470f902b3b7ff879a1d", "type": "electric_scooter", "is_reserved": 0, "lon": -77.01464366666667}, {"fusion_lat": 0.0, "name": "7e345a34f067e9636be19c4f32abd92f", "is_disabled": 0, "rental_uris": {"android": "https://dc.lft.to/lastmile_qr_scan", "ios": "https://dc.lft.to/lastmile_qr_scan"}, "fusion_lon": 0.0, "lat": 38.90964833333334, "bike_id": "7e345a34f067e9636be19c4f32abd92f", "type": "electric_scooter", "is_reserved": 0, "lon": -77.03436933333333}, {"fusion_lat": 0.0, "name": "0b1a9aecbaaea374f87b3bd6c56ca78b", "is_disabled": 0, "rental_uris": {"android": "https://dc.lft.to/lastmile_qr_scan", "ios": "https://dc.lft.to/lastmile_qr_scan"}, "fusion_lon": 0.0, "lat": 38.90701266666667, "bike_id": "0b1a9aecbaaea374f87b3bd6c56ca78b", "type": "electric_scooter", "is_reserved": 0, "lon": -77.03176183333333}, {"fusion_lat": 0.0, "name": "8911ea935b6b35ee92d4e9d118470dc7", "is_disabled": 0, "rental_uris": {"android": "https://dc.lft.to/lastmile_qr_scan", "ios": "https://dc.lft.to/lastmile_qr_scan"}, "fusion_lon": 0.0, "lat": 38.9140475, "bike_id": "8911ea935b6b35ee92d4e9d118470dc7", "type": "electric_scooter", "is_reserved": 0, "lon": -77.022102}, {"fusion_lat": 0.0, "name": "1200dc0f975677d7b938ac0d65846fb8", "is_disabled": 0, "rental_uris": {"android": "https://dc.lft.to/lastmile_qr_scan", "ios": "https://dc.lft.to/lastmile_qr_scan"}, "fusion_lon": 0.0, "lat": 38.900201833333334, "bike_id": "1200dc0f975677d7b938ac0d65846fb8", "type": "electric_scooter", "is_reserved": 0, "lon": -76.9986585}, {"fusion_lat": 0.0, "name": "4e273fe5ff3e88ab5a1b7d2cc1d6904c", "is_disabled": 0, "rental_uris": {"android": "https://dc.lft.to/lastmile_qr_scan", "ios": "https://dc.lft.to/lastmile_qr_scan"}, "fusion_lon": 0.0, "lat": 38.919858, "bike_id": "4e273fe5ff3e88ab5a1b7d2cc1d6904c", "type": "electric_scooter", "is_reserved": 0, "lon": -77.03224133333333}, {"fusion_lat": 0.0, "name": "a0938322c2958b2c8db629149bacf912", "is_disabled": 0, "rental_uris": {"android": "https://dc.lft.to/lastmile_qr_scan", "ios": "https://dc.lft.to/lastmile_qr_scan"}, "fusion_lon": 0.0, "lat": 38.9234495, "bike_id": "a0938322c2958b2c8db629149bacf912", "type": "electric_scooter", "is_reserved": 0, "lon": -77.051787}, {"fusion_lat": 0.0, "name": "f4d3d02b27ac0781e123a397e6d62dd2", "is_disabled": 0, "rental_uris": {"android": "https://dc.lft.to/lastmile_qr_scan", "ios": "https://dc.lft.to/lastmile_qr_scan"}, "fusion_lon": 0.0, "lat": 38.90565083333333, "bike_id": "f4d3d02b27ac0781e123a397e6d62dd2", "type": "electric_scooter", "is_reserved": 0, "lon": -77.01700233333334}, {"fusion_lat": 0.0, "name": "d24e8fcda849750fa17f45099f3353c9", "is_disabled": 0, "rental_uris": {"android": "https://dc.lft.to/lastmile_qr_scan", "ios": "https://dc.lft.to/lastmile_qr_scan"}, "fusion_lon": 0.0, "lat": 38.905266, "bike_id": "d24e8fcda849750fa17f45099f3353c9", "type": "electric_scooter", "is_reserved": 0, "lon": -77.02699566666666}, {"fusion_lat": 0.0, "name": "b05b1975aecd2582fd793c2d8ee615d9", "is_disabled": 0, "rental_uris": {"android": "https://dc.lft.to/lastmile_qr_scan", "ios": "https://dc.lft.to/lastmile_qr_scan"}, "fusion_lon": 0.0, "lat": 38.90770766666667, "bike_id": "b05b1975aecd2582fd793c2d8ee615d9", "type": "electric_scooter", "is_reserved": 0, "lon": -77.038551}, {"fusion_lat": 0.0, "name": "d115ba4f9cbb0a1856d7cc1f2922b9c4", "is_disabled": 0, "rental_uris": {"android": "https://dc.lft.to/lastmile_qr_scan", "ios": "https://dc.lft.to/lastmile_qr_scan"}, "fusion_lon": 0.0, "lat": 38.8881665, "bike_id": "d115ba4f9cbb0a1856d7cc1f2922b9c4", "type": "electric_scooter", "is_reserved": 0, "lon": -77.01495766666666}, {"fusion_lat": 0.0, "name": "d86836032c7d32273e436c817bec47e1", "is_disabled": 0, "rental_uris": {"android": "https://dc.lft.to/lastmile_qr_scan", "ios": "https://dc.lft.to/lastmile_qr_scan"}, "fusion_lon": 0.0, "lat": 38.8651525, "bike_id": "d86836032c7d32273e436c817bec47e1", "type": "electric_bike", "is_reserved": 0, "lon": -77.12936883333333}, {"fusion_lat": 0.0, "name": "e475fbc25702505ac1b164b609015d29", "is_disabled": 0, "rental_uris": {"android": "https://dc.lft.to/lastmile_qr_scan", "ios": "https://dc.lft.to/lastmile_qr_scan"}, "fusion_lon": 0.0, "lat": 38.90141333333333, "bike_id": "e475fbc25702505ac1b164b609015d29", "type": "electric_scooter", "is_reserved": 0, "lon": -77.04434283333333}, {"fusion_lat": 0.0, "name": "2a9247f498232b88279cb5afb057cf12", "is_disabled": 0, "rental_uris": {"android": "https://dc.lft.to/lastmile_qr_scan", "ios": "https://dc.lft.to/lastmile_qr_scan"}, "fusion_lon": 0.0, "lat": 38.914895, "bike_id": "2a9247f498232b88279cb5afb057cf12", "type": "electric_scooter", "is_reserved": 0, "lon": -77.025872}, {"fusion_lat": 0.0, "name": "64438c3989ce2e5815a54bab01291258", "is_disabled": 0, "rental_uris": {"android": "https://dc.lft.to/lastmile_qr_scan", "ios": "https://dc.lft.to/lastmile_qr_scan"}, "fusion_lon": 0.0, "lat": 38.9313575, "bike_id": "64438c3989ce2e5815a54bab01291258", "type": "electric_bike", "is_reserved": 0, "lon": -77.019716}, {"fusion_lat": 0.0, "name": "a77cc54b044058eab92fb437e95088de", "is_disabled": 0, "rental_uris": {"android": "https://dc.lft.to/lastmile_qr_scan", "ios": "https://dc.lft.to/lastmile_qr_scan"}, "fusion_lon": 0.0, "lat": 38.879648833333334, "bike_id": "a77cc54b044058eab92fb437e95088de", "type": "electric_scooter", "is_reserved": 0, "lon": -77.0059495}, {"fusion_lat": 0.0, "name": "99edc6f8072a7913936d6634da8e5ef2", "is_disabled": 0, "rental_uris": {"android": "https://dc.lft.to/lastmile_qr_scan", "ios": "https://dc.lft.to/lastmile_qr_scan"}, "fusion_lon": 0.0, "lat": 38.90506416666667, "bike_id": "99edc6f8072a7913936d6634da8e5ef2", "type": "electric_bike", "is_reserved": 0, "lon": -76.97451516666666}, {"fusion_lat": 0.0, "name": "29ec18d2c372ea3d101c4f09b5c04872", "is_disabled": 0, "rental_uris": {"android": "https://dc.lft.to/lastmile_qr_scan", "ios": "https://dc.lft.to/lastmile_qr_scan"}, "fusion_lon": 0.0, "lat": 38.917848, "bike_id": "29ec18d2c372ea3d101c4f09b5c04872", "type": "electric_bike", "is_reserved": 0, "lon": -77.042605}, {"fusion_lat": 0.0, "name": "6f124777afe077cb3a4d136bb5c9ecf2", "is_disabled": 0, "rental_uris": {"android": "https://dc.lft.to/lastmile_qr_scan", "ios": "https://dc.lft.to/lastmile_qr_scan"}, "fusion_lon": 0.0, "lat": 38.843531166666665, "bike_id": "6f124777afe077cb3a4d136bb5c9ecf2", "type": "electric_bike", "is_reserved": 0, "lon": -76.97822183333334}, {"fusion_lat": 0.0, "name": "9139079b6e2ac0cf3e0f874598a128dc", "is_disabled": 0, "rental_uris": {"android": "https://dc.lft.to/lastmile_qr_scan", "ios": "https://dc.lft.to/lastmile_qr_scan"}, "fusion_lon": 0.0, "lat": 38.8966415, "bike_id": "9139079b6e2ac0cf3e0f874598a128dc", "type": "electric_scooter", "is_reserved": 0, "lon": -77.02489533333333}, {"fusion_lat": 0.0, "name": "675527d015e9a0a32fa73394da2321fc", "is_disabled": 0, "rental_uris": {"android": "https://dc.lft.to/lastmile_qr_scan", "ios": "https://dc.lft.to/lastmile_qr_scan"}, "fusion_lon": 0.0, "lat": 38.898459833333334, "bike_id": "675527d015e9a0a32fa73394da2321fc", "type": "electric_scooter", "is_reserved": 0, "lon": -77.033559}, {"fusion_lat": 0.0, "name": "be4199eadf3beec10958cfafdd96654e", "is_disabled": 0, "rental_uris": {"android": "https://dc.lft.to/lastmile_qr_scan", "ios": "https://dc.lft.to/lastmile_qr_scan"}, "fusion_lon": 0.0, "lat": 38.88016183333333, "bike_id": "be4199eadf3beec10958cfafdd96654e", "type": "electric_scooter", "is_reserved": 0, "lon": -77.02490683333333}, {"fusion_lat": 0.0, "name": "6d1c377eda25f82697a8f74249c5efd3", "is_disabled": 0, "rental_uris": {"android": "https://dc.lft.to/lastmile_qr_scan", "ios": "https://dc.lft.to/lastmile_qr_scan"}, "fusion_lon": 0.0, "lat": 38.915861166666666, "bike_id": "6d1c377eda25f82697a8f74249c5efd3", "type": "electric_scooter", "is_reserved": 0, "lon": -76.98372633333334}, {"fusion_lat": 0.0, "name": "b5078a36aafb8106ca33b78a2b5108e2", "is_disabled": 0, "rental_uris": {"android": "https://dc.lft.to/lastmile_qr_scan", "ios": "https://dc.lft.to/lastmile_qr_scan"}, "fusion_lon": 0.0, "lat": 38.95628683333333, "bike_id": "b5078a36aafb8106ca33b78a2b5108e2", "type": "electric_scooter", "is_reserved": 0, "lon": -77.02836283333333}, {"fusion_lat": 0.0, "name": "ff768241589add27fb14602dd98d592d", "is_disabled": 0, "rental_uris": {"android": "https://dc.lft.to/lastmile_qr_scan", "ios": "https://dc.lft.to/lastmile_qr_scan"}, "fusion_lon": 0.0, "lat": 38.92344, "bike_id": "ff768241589add27fb14602dd98d592d", "type": "electric_scooter", "is_reserved": 0, "lon": -77.05228483333333}, {"fusion_lat": 0.0, "name": "2b58ff243b47aa0d0d55bcae92d7d2e9", "is_disabled": 0, "rental_uris": {"android": "https://dc.lft.to/lastmile_qr_scan", "ios": "https://dc.lft.to/lastmile_qr_scan"}, "fusion_lon": 0.0, "lat": 38.907378666666666, "bike_id": "2b58ff243b47aa0d0d55bcae92d7d2e9", "type": "electric_scooter", "is_reserved": 0, "lon": -77.02946816666666}, {"fusion_lat": 0.0, "name": "6f2888b070807fc0d98fb094e4b53551", "is_disabled": 0, "rental_uris": {"android": "https://dc.lft.to/lastmile_qr_scan", "ios": "https://dc.lft.to/lastmile_qr_scan"}, "fusion_lon": 0.0, "lat": 38.91724283333333, "bike_id": "6f2888b070807fc0d98fb094e4b53551", "type": "electric_scooter", "is_reserved": 0, "lon": -77.03245383333334}, {"fusion_lat": 0.0, "name": "d1904a818eed205ee854fff988e41348", "is_disabled": 0, "rental_uris": {"android": "https://dc.lft.to/lastmile_qr_scan", "ios": "https://dc.lft.to/lastmile_qr_scan"}, "fusion_lon": 0.0, "lat": 38.90170416666667, "bike_id": "d1904a818eed205ee854fff988e41348", "type": "electric_scooter", "is_reserved": 0, "lon": -77.05910916666667}, {"fusion_lat": 0.0, "name": "0ca4aa47ae587b4527e8234dd93844fb", "is_disabled": 0, "rental_uris": {"android": "https://dc.lft.to/lastmile_qr_scan", "ios": "https://dc.lft.to/lastmile_qr_scan"}, "fusion_lon": 0.0, "lat": 38.918256666666665, "bike_id": "0ca4aa47ae587b4527e8234dd93844fb", "type": "electric_scooter", "is_reserved": 0, "lon": -77.03194516666667}, {"fusion_lat": 0.0, "name": "e02ec9d806bf93d43272ee83346c4e5c", "is_disabled": 0, "rental_uris": {"android": "https://dc.lft.to/lastmile_qr_scan", "ios": "https://dc.lft.to/lastmile_qr_scan"}, "fusion_lon": 0.0, "lat": 38.90895366666667, "bike_id": "e02ec9d806bf93d43272ee83346c4e5c", "type": "electric_scooter", "is_reserved": 0, "lon": -77.043944}, {"fusion_lat": 0.0, "name": "42bd963efc68cab4347a26583c9334c2", "is_disabled": 0, "rental_uris": {"android": "https://dc.lft.to/lastmile_qr_scan", "ios": "https://dc.lft.to/lastmile_qr_scan"}, "fusion_lon": 0.0, "lat": 38.946758, "bike_id": "42bd963efc68cab4347a26583c9334c2", "type": "electric_bike", "is_reserved": 0, "lon": -76.95672633333334}, {"fusion_lat": 0.0, "name": "050e609d22fda942930042b700edea5c", "is_disabled": 0, "rental_uris": {"android": "https://dc.lft.to/lastmile_qr_scan", "ios": "https://dc.lft.to/lastmile_qr_scan"}, "fusion_lon": 0.0, "lat": 38.927146, "bike_id": "050e609d22fda942930042b700edea5c", "type": "electric_scooter", "is_reserved": 0, "lon": -77.05376666666666}, {"fusion_lat": 0.0, "name": "a8125facdcd85eae6f6566aa5309bed2", "is_disabled": 0, "rental_uris": {"android": "https://dc.lft.to/lastmile_qr_scan", "ios": "https://dc.lft.to/lastmile_qr_scan"}, "fusion_lon": 0.0, "lat": 38.905513666666664, "bike_id": "a8125facdcd85eae6f6566aa5309bed2", "type": "electric_scooter", "is_reserved": 0, "lon": -77.00583383333333}, {"fusion_lat": 0.0, "name": "d576fd14230956960095d2bdbf2d0b75", "is_disabled": 0, "rental_uris": {"android": "https://dc.lft.to/lastmile_qr_scan", "ios": "https://dc.lft.to/lastmile_qr_scan"}, "fusion_lon": 0.0, "lat": 38.907111666666665, "bike_id": "d576fd14230956960095d2bdbf2d0b75", "type": "electric_scooter", "is_reserved": 0, "lon": -77.02714366666666}, {"fusion_lat": 0.0, "name": "6d844bc1528a0400b4ab728cd83ae0e5", "is_disabled": 0, "rental_uris": {"android": "https://dc.lft.to/lastmile_qr_scan", "ios": "https://dc.lft.to/lastmile_qr_scan"}, "fusion_lon": 0.0, "lat": 38.962337833333336, "bike_id": "6d844bc1528a0400b4ab728cd83ae0e5", "type": "electric_bike", "is_reserved": 0, "lon": -76.92802633333334}, {"fusion_lat": 0.0, "name": "41ef65f5317a81e02819d786cd65c36a", "is_disabled": 0, "rental_uris": {"android": "https://dc.lft.to/lastmile_qr_scan", "ios": "https://dc.lft.to/lastmile_qr_scan"}, "fusion_lon": 0.0, "lat": 38.892198666666665, "bike_id": "41ef65f5317a81e02819d786cd65c36a", "type": "electric_scooter", "is_reserved": 0, "lon": -77.04505533333334}, {"fusion_lat": 0.0, "name": "c83ac0eb9a56a9f199e1ab62aa562fe6", "is_disabled": 0, "rental_uris": {"android": "https://dc.lft.to/lastmile_qr_scan", "ios": "https://dc.lft.to/lastmile_qr_scan"}, "fusion_lon": 0.0, "lat": 38.947298333333336, "bike_id": "c83ac0eb9a56a9f199e1ab62aa562fe6", "type": "electric_scooter", "is_reserved": 0, "lon": -77.0276845}, {"fusion_lat": 0.0, "name": "365f1dc134b80e446799685d55d4d3b5", "is_disabled": 0, "rental_uris": {"android": "https://dc.lft.to/lastmile_qr_scan", "ios": "https://dc.lft.to/lastmile_qr_scan"}, "fusion_lon": 0.0, "lat": 38.9098415, "bike_id": "365f1dc134b80e446799685d55d4d3b5", "type": "electric_scooter", "is_reserved": 0, "lon": -77.02176083333333}, {"fusion_lat": 0.0, "name": "97889c04d7221052e3755ab6b4e368e5", "is_disabled": 0, "rental_uris": {"android": "https://dc.lft.to/lastmile_qr_scan", "ios": "https://dc.lft.to/lastmile_qr_scan"}, "fusion_lon": 0.0, "lat": 38.92234066666666, "bike_id": "97889c04d7221052e3755ab6b4e368e5", "type": "electric_scooter", "is_reserved": 0, "lon": -77.03659016666667}, {"fusion_lat": 0.0, "name": "787bf5755964997b640385a287c79699", "is_disabled": 0, "rental_uris": {"android": "https://dc.lft.to/lastmile_qr_scan", "ios": "https://dc.lft.to/lastmile_qr_scan"}, "fusion_lon": 0.0, "lat": 38.9068995, "bike_id": "787bf5755964997b640385a287c79699", "type": "electric_scooter", "is_reserved": 0, "lon": -77.03660333333333}, {"fusion_lat": 0.0, "name": "c8770dfe6ac2c150006d7bd983495910", "is_disabled": 0, "rental_uris": {"android": "https://dc.lft.to/lastmile_qr_scan", "ios": "https://dc.lft.to/lastmile_qr_scan"}, "fusion_lon": 0.0, "lat": 38.910168166666665, "bike_id": "c8770dfe6ac2c150006d7bd983495910", "type": "electric_scooter", "is_reserved": 0, "lon": -77.0385325}, {"fusion_lat": 0.0, "name": "bc3720a47fb3755fc5bc5f3a819eb49f", "is_disabled": 0, "rental_uris": {"android": "https://dc.lft.to/lastmile_qr_scan", "ios": "https://dc.lft.to/lastmile_qr_scan"}, "fusion_lon": 0.0, "lat": 38.92463583333333, "bike_id": "bc3720a47fb3755fc5bc5f3a819eb49f", "type": "electric_scooter", "is_reserved": 0, "lon": -77.0394795}, {"fusion_lat": 0.0, "name": "537dfb41207cfb504b5266e6bb6cf152", "is_disabled": 0, "rental_uris": {"android": "https://dc.lft.to/lastmile_qr_scan", "ios": "https://dc.lft.to/lastmile_qr_scan"}, "fusion_lon": 0.0, "lat": 38.9141275, "bike_id": "537dfb41207cfb504b5266e6bb6cf152", "type": "electric_scooter", "is_reserved": 0, "lon": -77.02484383333334}, {"fusion_lat": 0.0, "name": "731af6d71a3f19586e919976da85e696", "is_disabled": 0, "rental_uris": {"android": "https://dc.lft.to/lastmile_qr_scan", "ios": "https://dc.lft.to/lastmile_qr_scan"}, "fusion_lon": 0.0, "lat": 38.9074555, "bike_id": "731af6d71a3f19586e919976da85e696", "type": "electric_scooter", "is_reserved": 0, "lon": -77.0347385}, {"fusion_lat": 0.0, "name": "4b7b4e77428ee4f3e1ea53e68ccb9591", "is_disabled": 0, "rental_uris": {"android": "https://dc.lft.to/lastmile_qr_scan", "ios": "https://dc.lft.to/lastmile_qr_scan"}, "fusion_lon": 0.0, "lat": 38.887503333333335, "bike_id": "4b7b4e77428ee4f3e1ea53e68ccb9591", "type": "electric_scooter", "is_reserved": 0, "lon": -77.01775566666667}, {"fusion_lat": 0.0, "name": "6ce6a97055cd7be46c703a49ce08a191", "is_disabled": 0, "rental_uris": {"android": "https://dc.lft.to/lastmile_qr_scan", "ios": "https://dc.lft.to/lastmile_qr_scan"}, "fusion_lon": 0.0, "lat": 38.908547, "bike_id": "6ce6a97055cd7be46c703a49ce08a191", "type": "electric_bike", "is_reserved": 0, "lon": -77.04417583333333}, {"fusion_lat": 0.0, "name": "7752207e58b087d2b2cb776bbe0d44ba", "is_disabled": 0, "rental_uris": {"android": "https://dc.lft.to/lastmile_qr_scan", "ios": "https://dc.lft.to/lastmile_qr_scan"}, "fusion_lon": 0.0, "lat": 38.940088, "bike_id": "7752207e58b087d2b2cb776bbe0d44ba", "type": "electric_scooter", "is_reserved": 0, "lon": -77.02540666666667}, {"fusion_lat": 0.0, "name": "5c8c3f489a9123dda5940c0d8b012162", "is_disabled": 0, "rental_uris": {"android": "https://dc.lft.to/lastmile_qr_scan", "ios": "https://dc.lft.to/lastmile_qr_scan"}, "fusion_lon": 0.0, "lat": 38.88746416666667, "bike_id": "5c8c3f489a9123dda5940c0d8b012162", "type": "electric_scooter", "is_reserved": 0, "lon": -77.02126683333333}, {"fusion_lat": 0.0, "name": "ae51be5410e5f9bc187ef1463a66bd5f", "is_disabled": 0, "rental_uris": {"android": "https://dc.lft.to/lastmile_qr_scan", "ios": "https://dc.lft.to/lastmile_qr_scan"}, "fusion_lon": 0.0, "lat": 38.9169725, "bike_id": "ae51be5410e5f9bc187ef1463a66bd5f", "type": "electric_scooter", "is_reserved": 0, "lon": -77.02746916666666}, {"fusion_lat": 0.0, "name": "649c4956e813123a5516abf42987ace1", "is_disabled": 0, "rental_uris": {"android": "https://dc.lft.to/lastmile_qr_scan", "ios": "https://dc.lft.to/lastmile_qr_scan"}, "fusion_lon": 0.0, "lat": 38.93235966666667, "bike_id": "649c4956e813123a5516abf42987ace1", "type": "electric_scooter", "is_reserved": 0, "lon": -77.02947166666667}, {"fusion_lat": 0.0, "name": "2482c97515fc91a509fb6a36915f31b7", "is_disabled": 0, "rental_uris": {"android": "https://dc.lft.to/lastmile_qr_scan", "ios": "https://dc.lft.to/lastmile_qr_scan"}, "fusion_lon": 0.0, "lat": 38.9324485, "bike_id": "2482c97515fc91a509fb6a36915f31b7", "type": "electric_scooter", "is_reserved": 0, "lon": -77.02966516666666}, {"fusion_lat": 0.0, "name": "1b5ad1160fc02d19b6e122b00c7d2f50", "is_disabled": 0, "rental_uris": {"android": "https://dc.lft.to/lastmile_qr_scan", "ios": "https://dc.lft.to/lastmile_qr_scan"}, "fusion_lon": 0.0, "lat": 38.934491333333334, "bike_id": "1b5ad1160fc02d19b6e122b00c7d2f50", "type": "electric_scooter", "is_reserved": 0, "lon": -77.03867666666666}, {"fusion_lat": 0.0, "name": "08a5fcb304a12b6e672f7a4a332ed892", "is_disabled": 0, "rental_uris": {"android": "https://dc.lft.to/lastmile_qr_scan", "ios": "https://dc.lft.to/lastmile_qr_scan"}, "fusion_lon": 0.0, "lat": 38.904313333333334, "bike_id": "08a5fcb304a12b6e672f7a4a332ed892", "type": "electric_bike", "is_reserved": 0, "lon": -77.027649}, {"fusion_lat": 0.0, "name": "bb6434f095a3fc22483b125f0cec74e5", "is_disabled": 0, "rental_uris": {"android": "https://dc.lft.to/lastmile_qr_scan", "ios": "https://dc.lft.to/lastmile_qr_scan"}, "fusion_lon": 0.0, "lat": 38.907978166666666, "bike_id": "bb6434f095a3fc22483b125f0cec74e5", "type": "electric_scooter", "is_reserved": 0, "lon": -77.034637}, {"fusion_lat": 0.0, "name": "c6e0844b4b7ebb731c3b7b1da5052925", "is_disabled": 0, "rental_uris": {"android": "https://dc.lft.to/lastmile_qr_scan", "ios": "https://dc.lft.to/lastmile_qr_scan"}, "fusion_lon": 0.0, "lat": 38.9203535, "bike_id": "c6e0844b4b7ebb731c3b7b1da5052925", "type": "electric_scooter", "is_reserved": 0, "lon": -76.98997383333334}, {"fusion_lat": 0.0, "name": "3e84b5f07355af2cd21f62d1742b4e81", "is_disabled": 0, "rental_uris": {"android": "https://dc.lft.to/lastmile_qr_scan", "ios": "https://dc.lft.to/lastmile_qr_scan"}, "fusion_lon": 0.0, "lat": 38.9250625, "bike_id": "3e84b5f07355af2cd21f62d1742b4e81", "type": "electric_scooter", "is_reserved": 0, "lon": -77.037905}, {"fusion_lat": 0.0, "name": "ce1968111a64d172b78b1d299bd15f39", "is_disabled": 0, "rental_uris": {"android": "https://dc.lft.to/lastmile_qr_scan", "ios": "https://dc.lft.to/lastmile_qr_scan"}, "fusion_lon": 0.0, "lat": 38.865812166666664, "bike_id": "ce1968111a64d172b78b1d299bd15f39", "type": "electric_bike", "is_reserved": 0, "lon": -76.973414}, {"fusion_lat": 0.0, "name": "4f668195940ddcff4db02f870119cc01", "is_disabled": 0, "rental_uris": {"android": "https://dc.lft.to/lastmile_qr_scan", "ios": "https://dc.lft.to/lastmile_qr_scan"}, "fusion_lon": 0.0, "lat": 38.92654183333333, "bike_id": "4f668195940ddcff4db02f870119cc01", "type": "electric_scooter", "is_reserved": 0, "lon": -77.03838933333333}, {"fusion_lat": 0.0, "name": "97fe3d49692fba79c1affe14b6b1d91a", "is_disabled": 0, "rental_uris": {"android": "https://dc.lft.to/lastmile_qr_scan", "ios": "https://dc.lft.to/lastmile_qr_scan"}, "fusion_lon": 0.0, "lat": 38.899179, "bike_id": "97fe3d49692fba79c1affe14b6b1d91a", "type": "electric_scooter", "is_reserved": 0, "lon": -77.0294095}, {"fusion_lat": 0.0, "name": "a251b88efb69a544f4f40560ceec60f9", "is_disabled": 0, "rental_uris": {"android": "https://dc.lft.to/lastmile_qr_scan", "ios": "https://dc.lft.to/lastmile_qr_scan"}, "fusion_lon": 0.0, "lat": 38.83317, "bike_id": "a251b88efb69a544f4f40560ceec60f9", "type": "electric_bike", "is_reserved": 0, "lon": -77.04167716666667}, {"fusion_lat": 0.0, "name": "8e17ff6ff03828467a0324114810aae2", "is_disabled": 0, "rental_uris": {"android": "https://dc.lft.to/lastmile_qr_scan", "ios": "https://dc.lft.to/lastmile_qr_scan"}, "fusion_lon": 0.0, "lat": 38.900576, "bike_id": "8e17ff6ff03828467a0324114810aae2", "type": "electric_scooter", "is_reserved": 0, "lon": -77.01613683333333}, {"fusion_lat": 0.0, "name": "c5915bfd97fe2d9f29a37b5f8bd49963", "is_disabled": 0, "rental_uris": {"android": "https://dc.lft.to/lastmile_qr_scan", "ios": "https://dc.lft.to/lastmile_qr_scan"}, "fusion_lon": 0.0, "lat": 38.945401333333336, "bike_id": "c5915bfd97fe2d9f29a37b5f8bd49963", "type": "electric_scooter", "is_reserved": 0, "lon": -77.0168865}, {"fusion_lat": 0.0, "name": "3ede2db589fcb3a94115d3f90fb2a498", "is_disabled": 0, "rental_uris": {"android": "https://dc.lft.to/lastmile_qr_scan", "ios": "https://dc.lft.to/lastmile_qr_scan"}, "fusion_lon": 0.0, "lat": 38.892246, "bike_id": "3ede2db589fcb3a94115d3f90fb2a498", "type": "electric_scooter", "is_reserved": 0, "lon": -77.0281185}, {"fusion_lat": 0.0, "name": "95163540062ef893fa4c97ee044ac787", "is_disabled": 0, "rental_uris": {"android": "https://dc.lft.to/lastmile_qr_scan", "ios": "https://dc.lft.to/lastmile_qr_scan"}, "fusion_lon": 0.0, "lat": 39.09973633333333, "bike_id": "95163540062ef893fa4c97ee044ac787", "type": "electric_bike", "is_reserved": 0, "lon": -77.18302283333334}, {"fusion_lat": 0.0, "name": "51acba4fa3173fc4221c1730b510892b", "is_disabled": 0, "rental_uris": {"android": "https://dc.lft.to/lastmile_qr_scan", "ios": "https://dc.lft.to/lastmile_qr_scan"}, "fusion_lon": 0.0, "lat": 38.9004135, "bike_id": "51acba4fa3173fc4221c1730b510892b", "type": "electric_scooter", "is_reserved": 0, "lon": -77.0261335}, {"fusion_lat": 0.0, "name": "aced37a600d54b9b5fe46b8f8c9f4539", "is_disabled": 0, "rental_uris": {"android": "https://dc.lft.to/lastmile_qr_scan", "ios": "https://dc.lft.to/lastmile_qr_scan"}, "fusion_lon": 0.0, "lat": 38.915554666666665, "bike_id": "aced37a600d54b9b5fe46b8f8c9f4539", "type": "electric_scooter", "is_reserved": 0, "lon": -77.03871666666667}, {"fusion_lat": 0.0, "name": "bc674d3f4c819faa64844addcc13e944", "is_disabled": 0, "rental_uris": {"android": "https://dc.lft.to/lastmile_qr_scan", "ios": "https://dc.lft.to/lastmile_qr_scan"}, "fusion_lon": 0.0, "lat": 38.9241175, "bike_id": "bc674d3f4c819faa64844addcc13e944", "type": "electric_scooter", "is_reserved": 0, "lon": -77.04082916666667}, {"fusion_lat": 0.0, "name": "a90091b1601068243704c183bb5f800e", "is_disabled": 0, "rental_uris": {"android": "https://dc.lft.to/lastmile_qr_scan", "ios": "https://dc.lft.to/lastmile_qr_scan"}, "fusion_lon": 0.0, "lat": 38.93069783333333, "bike_id": "a90091b1601068243704c183bb5f800e", "type": "electric_scooter", "is_reserved": 0, "lon": -77.021615}, {"fusion_lat": 0.0, "name": "be8ea589521e1faa569bfad0ae516908", "is_disabled": 0, "rental_uris": {"android": "https://dc.lft.to/lastmile_qr_scan", "ios": "https://dc.lft.to/lastmile_qr_scan"}, "fusion_lon": 0.0, "lat": 38.892244833333336, "bike_id": "be8ea589521e1faa569bfad0ae516908", "type": "electric_scooter", "is_reserved": 0, "lon": -77.04644566666667}, {"fusion_lat": 0.0, "name": "7cd71b16e2f62938d1434cc2f6917256", "is_disabled": 0, "rental_uris": {"android": "https://dc.lft.to/lastmile_qr_scan", "ios": "https://dc.lft.to/lastmile_qr_scan"}, "fusion_lon": 0.0, "lat": 38.916405, "bike_id": "7cd71b16e2f62938d1434cc2f6917256", "type": "electric_scooter", "is_reserved": 0, "lon": -77.03213633333333}, {"fusion_lat": 0.0, "name": "355958589a16e26543b500ec82ed7740", "is_disabled": 0, "rental_uris": {"android": "https://dc.lft.to/lastmile_qr_scan", "ios": "https://dc.lft.to/lastmile_qr_scan"}, "fusion_lon": 0.0, "lat": 38.93104616666667, "bike_id": "355958589a16e26543b500ec82ed7740", "type": "electric_scooter", "is_reserved": 0, "lon": -77.03028283333333}, {"fusion_lat": 0.0, "name": "22c79fd83f58475e0dd076e39f047897", "is_disabled": 0, "rental_uris": {"android": "https://dc.lft.to/lastmile_qr_scan", "ios": "https://dc.lft.to/lastmile_qr_scan"}, "fusion_lon": 0.0, "lat": 38.91841333333333, "bike_id": "22c79fd83f58475e0dd076e39f047897", "type": "electric_scooter", "is_reserved": 0, "lon": -77.02371833333333}, {"fusion_lat": 0.0, "name": "f5f6c50d5a3f5e9a169092bdc7139b07", "is_disabled": 0, "rental_uris": {"android": "https://dc.lft.to/lastmile_qr_scan", "ios": "https://dc.lft.to/lastmile_qr_scan"}, "fusion_lon": 0.0, "lat": 38.9262725, "bike_id": "f5f6c50d5a3f5e9a169092bdc7139b07", "type": "electric_scooter", "is_reserved": 0, "lon": -77.042017}, {"fusion_lat": 0.0, "name": "77b8cb9e3e790a61eaad04acc021eab1", "is_disabled": 0, "rental_uris": {"android": "https://dc.lft.to/lastmile_qr_scan", "ios": "https://dc.lft.to/lastmile_qr_scan"}, "fusion_lon": 0.0, "lat": 38.934451833333334, "bike_id": "77b8cb9e3e790a61eaad04acc021eab1", "type": "electric_scooter", "is_reserved": 0, "lon": -77.029832}, {"fusion_lat": 0.0, "name": "aa286ebc20e3b790f8842873285ec90d", "is_disabled": 0, "rental_uris": {"android": "https://dc.lft.to/lastmile_qr_scan", "ios": "https://dc.lft.to/lastmile_qr_scan"}, "fusion_lon": 0.0, "lat": 38.936546666666665, "bike_id": "aa286ebc20e3b790f8842873285ec90d", "type": "electric_scooter", "is_reserved": 0, "lon": -77.036607}, {"fusion_lat": 0.0, "name": "b16e56499d1592ba4fd95d1abd6e2161", "is_disabled": 0, "rental_uris": {"android": "https://dc.lft.to/lastmile_qr_scan", "ios": "https://dc.lft.to/lastmile_qr_scan"}, "fusion_lon": 0.0, "lat": 38.918450666666665, "bike_id": "b16e56499d1592ba4fd95d1abd6e2161", "type": "electric_bike", "is_reserved": 0, "lon": -77.06974933333333}, {"fusion_lat": 0.0, "name": "bb4e70e34f62adb7c0bdb51c8e57d30b", "is_disabled": 0, "rental_uris": {"android": "https://dc.lft.to/lastmile_qr_scan", "ios": "https://dc.lft.to/lastmile_qr_scan"}, "fusion_lon": 0.0, "lat": 38.8782545, "bike_id": "bb4e70e34f62adb7c0bdb51c8e57d30b", "type": "electric_scooter", "is_reserved": 0, "lon": -77.00136966666666}, {"fusion_lat": 0.0, "name": "0eab3b298ad55875cd9992322fe9888a", "is_disabled": 0, "rental_uris": {"android": "https://dc.lft.to/lastmile_qr_scan", "ios": "https://dc.lft.to/lastmile_qr_scan"}, "fusion_lon": 0.0, "lat": 38.89898566666667, "bike_id": "0eab3b298ad55875cd9992322fe9888a", "type": "electric_scooter", "is_reserved": 0, "lon": -76.99958683333334}, {"fusion_lat": 0.0, "name": "9ec3916a199a307022254e1fd3b73aec", "is_disabled": 0, "rental_uris": {"android": "https://dc.lft.to/lastmile_qr_scan", "ios": "https://dc.lft.to/lastmile_qr_scan"}, "fusion_lon": 0.0, "lat": 38.9157565, "bike_id": "9ec3916a199a307022254e1fd3b73aec", "type": "electric_scooter", "is_reserved": 0, "lon": -77.04481483333333}, {"fusion_lat": 0.0, "name": "8ef0122d02894c8d23cd1fb03ffbcd55", "is_disabled": 0, "rental_uris": {"android": "https://dc.lft.to/lastmile_qr_scan", "ios": "https://dc.lft.to/lastmile_qr_scan"}, "fusion_lon": 0.0, "lat": 38.832224833333335, "bike_id": "8ef0122d02894c8d23cd1fb03ffbcd55", "type": "electric_bike", "is_reserved": 0, "lon": -76.94616433333333}, {"fusion_lat": 0.0, "name": "3b50a9b072980859074bebb060f95b22", "is_disabled": 0, "rental_uris": {"android": "https://dc.lft.to/lastmile_qr_scan", "ios": "https://dc.lft.to/lastmile_qr_scan"}, "fusion_lon": 0.0, "lat": 38.905701, "bike_id": "3b50a9b072980859074bebb060f95b22", "type": "electric_scooter", "is_reserved": 0, "lon": -77.04170033333334}, {"fusion_lat": 0.0, "name": "155d7412e9ab06ea85f19f5fd41dc2b6", "is_disabled": 0, "rental_uris": {"android": "https://dc.lft.to/lastmile_qr_scan", "ios": "https://dc.lft.to/lastmile_qr_scan"}, "fusion_lon": 0.0, "lat": 38.849127, "bike_id": "155d7412e9ab06ea85f19f5fd41dc2b6", "type": "electric_bike", "is_reserved": 0, "lon": -77.0997965}, {"fusion_lat": 0.0, "name": "832e7ec3e517786490f01ccecb9d2288", "is_disabled": 0, "rental_uris": {"android": "https://dc.lft.to/lastmile_qr_scan", "ios": "https://dc.lft.to/lastmile_qr_scan"}, "fusion_lon": 0.0, "lat": 38.862443999999996, "bike_id": "832e7ec3e517786490f01ccecb9d2288", "type": "electric_scooter", "is_reserved": 0, "lon": -76.994975}, {"fusion_lat": 0.0, "name": "05d40c994b9682a5d57ffafb1b235e15", "is_disabled": 0, "rental_uris": {"android": "https://dc.lft.to/lastmile_qr_scan", "ios": "https://dc.lft.to/lastmile_qr_scan"}, "fusion_lon": 0.0, "lat": 38.90685233333333, "bike_id": "05d40c994b9682a5d57ffafb1b235e15", "type": "electric_bike", "is_reserved": 0, "lon": -76.9449495}, {"fusion_lat": 0.0, "name": "da1aded27cac438f4c68c3876183ee8d", "is_disabled": 0, "rental_uris": {"android": "https://dc.lft.to/lastmile_qr_scan", "ios": "https://dc.lft.to/lastmile_qr_scan"}, "fusion_lon": 0.0, "lat": 38.938276333333334, "bike_id": "da1aded27cac438f4c68c3876183ee8d", "type": "electric_scooter", "is_reserved": 0, "lon": -77.0304745}, {"fusion_lat": 0.0, "name": "76f12683b83b2084f557737f124338e2", "is_disabled": 0, "rental_uris": {"android": "https://dc.lft.to/lastmile_qr_scan", "ios": "https://dc.lft.to/lastmile_qr_scan"}, "fusion_lon": 0.0, "lat": 38.901489166666664, "bike_id": "76f12683b83b2084f557737f124338e2", "type": "electric_scooter", "is_reserved": 0, "lon": -76.93063866666667}, {"fusion_lat": 0.0, "name": "c93df2e7b1ed5d0637f5cd05a2a3c9f6", "is_disabled": 0, "rental_uris": {"android": "https://dc.lft.to/lastmile_qr_scan", "ios": "https://dc.lft.to/lastmile_qr_scan"}, "fusion_lon": 0.0, "lat": 38.9084935, "bike_id": "c93df2e7b1ed5d0637f5cd05a2a3c9f6", "type": "electric_scooter", "is_reserved": 0, "lon": -76.9974935}, {"fusion_lat": 0.0, "name": "0c84ce8dcc76bca1232bad16e1d40580", "is_disabled": 0, "rental_uris": {"android": "https://dc.lft.to/lastmile_qr_scan", "ios": "https://dc.lft.to/lastmile_qr_scan"}, "fusion_lon": 0.0, "lat": 38.92316666666667, "bike_id": "0c84ce8dcc76bca1232bad16e1d40580", "type": "electric_scooter", "is_reserved": 0, "lon": -77.04143883333333}, {"fusion_lat": 0.0, "name": "4fca3a1503a7b4ee93e1cfeb1a1dfb03", "is_disabled": 0, "rental_uris": {"android": "https://dc.lft.to/lastmile_qr_scan", "ios": "https://dc.lft.to/lastmile_qr_scan"}, "fusion_lon": 0.0, "lat": 38.8755545, "bike_id": "4fca3a1503a7b4ee93e1cfeb1a1dfb03", "type": "electric_scooter", "is_reserved": 0, "lon": -77.00581666666666}, {"fusion_lat": 0.0, "name": "79235ff48cc175c60f1404489d401192", "is_disabled": 0, "rental_uris": {"android": "https://dc.lft.to/lastmile_qr_scan", "ios": "https://dc.lft.to/lastmile_qr_scan"}, "fusion_lon": 0.0, "lat": 38.9223325, "bike_id": "79235ff48cc175c60f1404489d401192", "type": "electric_scooter", "is_reserved": 0, "lon": -77.04240866666666}, {"fusion_lat": 0.0, "name": "a4557865f0891e8f6af982ee73b25381", "is_disabled": 0, "rental_uris": {"android": "https://dc.lft.to/lastmile_qr_scan", "ios": "https://dc.lft.to/lastmile_qr_scan"}, "fusion_lon": 0.0, "lat": 38.92060683333333, "bike_id": "a4557865f0891e8f6af982ee73b25381", "type": "electric_scooter", "is_reserved": 0, "lon": -77.04241066666667}, {"fusion_lat": 0.0, "name": "d6b0234110628c42ff2eb6a82b48a844", "is_disabled": 0, "rental_uris": {"android": "https://dc.lft.to/lastmile_qr_scan", "ios": "https://dc.lft.to/lastmile_qr_scan"}, "fusion_lon": 0.0, "lat": 38.916962833333336, "bike_id": "d6b0234110628c42ff2eb6a82b48a844", "type": "electric_scooter", "is_reserved": 0, "lon": -77.02432066666667}, {"fusion_lat": 0.0, "name": "f4ca77d2c2a0ac498deaf1af669e9ca7", "is_disabled": 0, "rental_uris": {"android": "https://dc.lft.to/lastmile_qr_scan", "ios": "https://dc.lft.to/lastmile_qr_scan"}, "fusion_lon": 0.0, "lat": 38.91764383333334, "bike_id": "f4ca77d2c2a0ac498deaf1af669e9ca7", "type": "electric_scooter", "is_reserved": 0, "lon": -77.04548133333333}, {"fusion_lat": 0.0, "name": "5c5f02f789880a507046086c09892979", "is_disabled": 0, "rental_uris": {"android": "https://dc.lft.to/lastmile_qr_scan", "ios": "https://dc.lft.to/lastmile_qr_scan"}, "fusion_lon": 0.0, "lat": 38.95057166666667, "bike_id": "5c5f02f789880a507046086c09892979", "type": "electric_scooter", "is_reserved": 0, "lon": -77.08027333333334}, {"fusion_lat": 0.0, "name": "c19d6f4e2498a6ab504226c1d16909c9", "is_disabled": 0, "rental_uris": {"android": "https://dc.lft.to/lastmile_qr_scan", "ios": "https://dc.lft.to/lastmile_qr_scan"}, "fusion_lon": 0.0, "lat": 38.87556633333333, "bike_id": "c19d6f4e2498a6ab504226c1d16909c9", "type": "electric_scooter", "is_reserved": 0, "lon": -77.0058145}, {"fusion_lat": 0.0, "name": "7af86b2d8f74f33c27f03b4a4f5d18b1", "is_disabled": 0, "rental_uris": {"android": "https://dc.lft.to/lastmile_qr_scan", "ios": "https://dc.lft.to/lastmile_qr_scan"}, "fusion_lon": 0.0, "lat": 38.912834, "bike_id": "7af86b2d8f74f33c27f03b4a4f5d18b1", "type": "electric_scooter", "is_reserved": 0, "lon": -77.03667866666666}, {"fusion_lat": 0.0, "name": "16feddbd49fb88715d4da9ed9f20396d", "is_disabled": 0, "rental_uris": {"android": "https://dc.lft.to/lastmile_qr_scan", "ios": "https://dc.lft.to/lastmile_qr_scan"}, "fusion_lon": 0.0, "lat": 38.871584666666664, "bike_id": "16feddbd49fb88715d4da9ed9f20396d", "type": "electric_bike", "is_reserved": 0, "lon": -77.01194233333334}, {"fusion_lat": 0.0, "name": "f91de86b849664366166632f7e808bad", "is_disabled": 0, "rental_uris": {"android": "https://dc.lft.to/lastmile_qr_scan", "ios": "https://dc.lft.to/lastmile_qr_scan"}, "fusion_lon": 0.0, "lat": 38.90205133333333, "bike_id": "f91de86b849664366166632f7e808bad", "type": "electric_scooter", "is_reserved": 0, "lon": -77.02377066666666}, {"fusion_lat": 0.0, "name": "822a06db13ccace77ae0364fb060c683", "is_disabled": 0, "rental_uris": {"android": "https://dc.lft.to/lastmile_qr_scan", "ios": "https://dc.lft.to/lastmile_qr_scan"}, "fusion_lon": 0.0, "lat": 38.89985033333333, "bike_id": "822a06db13ccace77ae0364fb060c683", "type": "electric_scooter", "is_reserved": 0, "lon": -76.983726}, {"fusion_lat": 0.0, "name": "fcd9310063cbc7804d06ae1b6e0ecc63", "is_disabled": 0, "rental_uris": {"android": "https://dc.lft.to/lastmile_qr_scan", "ios": "https://dc.lft.to/lastmile_qr_scan"}, "fusion_lon": 0.0, "lat": 38.9244395, "bike_id": "fcd9310063cbc7804d06ae1b6e0ecc63", "type": "electric_scooter", "is_reserved": 0, "lon": -77.03333283333333}, {"fusion_lat": 0.0, "name": "eb65b232f3d68ac174ebb4e8af973df3", "is_disabled": 0, "rental_uris": {"android": "https://dc.lft.to/lastmile_qr_scan", "ios": "https://dc.lft.to/lastmile_qr_scan"}, "fusion_lon": 0.0, "lat": 38.918486, "bike_id": "eb65b232f3d68ac174ebb4e8af973df3", "type": "electric_scooter", "is_reserved": 0, "lon": -76.965344}, {"fusion_lat": 0.0, "name": "13ccb2938a4be990812880d9c17fe73d", "is_disabled": 0, "rental_uris": {"android": "https://dc.lft.to/lastmile_qr_scan", "ios": "https://dc.lft.to/lastmile_qr_scan"}, "fusion_lon": 0.0, "lat": 38.907322, "bike_id": "13ccb2938a4be990812880d9c17fe73d", "type": "electric_scooter", "is_reserved": 0, "lon": -77.04142116666667}, {"fusion_lat": 0.0, "name": "2365db59f0780f59e64563f89fb5cf5b", "is_disabled": 0, "rental_uris": {"android": "https://dc.lft.to/lastmile_qr_scan", "ios": "https://dc.lft.to/lastmile_qr_scan"}, "fusion_lon": 0.0, "lat": 38.9192965, "bike_id": "2365db59f0780f59e64563f89fb5cf5b", "type": "electric_scooter", "is_reserved": 0, "lon": -77.03044516666667}, {"fusion_lat": 0.0, "name": "f224f62ff61289c499f27cc95b8536e7", "is_disabled": 0, "rental_uris": {"android": "https://dc.lft.to/lastmile_qr_scan", "ios": "https://dc.lft.to/lastmile_qr_scan"}, "fusion_lon": 0.0, "lat": 38.92317083333333, "bike_id": "f224f62ff61289c499f27cc95b8536e7", "type": "electric_scooter", "is_reserved": 0, "lon": -77.0451325}, {"fusion_lat": 0.0, "name": "990708965ecdd0d6eac5f035fc71cd82", "is_disabled": 0, "rental_uris": {"android": "https://dc.lft.to/lastmile_qr_scan", "ios": "https://dc.lft.to/lastmile_qr_scan"}, "fusion_lon": 0.0, "lat": 38.914061, "bike_id": "990708965ecdd0d6eac5f035fc71cd82", "type": "electric_scooter", "is_reserved": 0, "lon": -77.03226633333334}, {"fusion_lat": 0.0, "name": "3291f9d00004bd9ca6f393e5f724bc85", "is_disabled": 0, "rental_uris": {"android": "https://dc.lft.to/lastmile_qr_scan", "ios": "https://dc.lft.to/lastmile_qr_scan"}, "fusion_lon": 0.0, "lat": 38.94151933333333, "bike_id": "3291f9d00004bd9ca6f393e5f724bc85", "type": "electric_scooter", "is_reserved": 0, "lon": -77.032806}, {"fusion_lat": 0.0, "name": "cd196e13e210f64d73cf6841c97920d9", "is_disabled": 0, "rental_uris": {"android": "https://dc.lft.to/lastmile_qr_scan", "ios": "https://dc.lft.to/lastmile_qr_scan"}, "fusion_lon": 0.0, "lat": 38.9206875, "bike_id": "cd196e13e210f64d73cf6841c97920d9", "type": "electric_scooter", "is_reserved": 0, "lon": -77.0222355}, {"fusion_lat": 0.0, "name": "2d30c92c667b7bd1ab28bc3c74cec197", "is_disabled": 0, "rental_uris": {"android": "https://dc.lft.to/lastmile_qr_scan", "ios": "https://dc.lft.to/lastmile_qr_scan"}, "fusion_lon": 0.0, "lat": 38.91675716666666, "bike_id": "2d30c92c667b7bd1ab28bc3c74cec197", "type": "electric_scooter", "is_reserved": 0, "lon": -77.02388366666666}, {"fusion_lat": 0.0, "name": "fbe06f8796e84ce7ae3ea09c641e5927", "is_disabled": 0, "rental_uris": {"android": "https://dc.lft.to/lastmile_qr_scan", "ios": "https://dc.lft.to/lastmile_qr_scan"}, "fusion_lon": 0.0, "lat": 38.9215345, "bike_id": "fbe06f8796e84ce7ae3ea09c641e5927", "type": "electric_scooter", "is_reserved": 0, "lon": -77.03878566666667}, {"fusion_lat": 0.0, "name": "def1122c5f08a1b569f0b8c4df40c661", "is_disabled": 0, "rental_uris": {"android": "https://dc.lft.to/lastmile_qr_scan", "ios": "https://dc.lft.to/lastmile_qr_scan"}, "fusion_lon": 0.0, "lat": 38.90959466666666, "bike_id": "def1122c5f08a1b569f0b8c4df40c661", "type": "electric_scooter", "is_reserved": 0, "lon": -77.014386}, {"fusion_lat": 0.0, "name": "51af5dc819b96aa192a0bb7cb4b15d7f", "is_disabled": 0, "rental_uris": {"android": "https://dc.lft.to/lastmile_qr_scan", "ios": "https://dc.lft.to/lastmile_qr_scan"}, "fusion_lon": 0.0, "lat": 38.8789965, "bike_id": "51af5dc819b96aa192a0bb7cb4b15d7f", "type": "electric_scooter", "is_reserved": 0, "lon": -77.00581283333334}, {"fusion_lat": 0.0, "name": "67896bca3460dd35308d4b9a1c396332", "is_disabled": 0, "rental_uris": {"android": "https://dc.lft.to/lastmile_qr_scan", "ios": "https://dc.lft.to/lastmile_qr_scan"}, "fusion_lon": 0.0, "lat": 38.917986166666665, "bike_id": "67896bca3460dd35308d4b9a1c396332", "type": "electric_scooter", "is_reserved": 0, "lon": -77.02706483333333}, {"fusion_lat": 0.0, "name": "e95e4e3fa5a76bc7ef0954174f7dc09a", "is_disabled": 0, "rental_uris": {"android": "https://dc.lft.to/lastmile_qr_scan", "ios": "https://dc.lft.to/lastmile_qr_scan"}, "fusion_lon": 0.0, "lat": 38.93277966666667, "bike_id": "e95e4e3fa5a76bc7ef0954174f7dc09a", "type": "electric_scooter", "is_reserved": 0, "lon": -77.04081933333333}, {"fusion_lat": 0.0, "name": "332c7008f4f1c18886ba72e4f3c00071", "is_disabled": 0, "rental_uris": {"android": "https://dc.lft.to/lastmile_qr_scan", "ios": "https://dc.lft.to/lastmile_qr_scan"}, "fusion_lon": 0.0, "lat": 38.90558466666667, "bike_id": "332c7008f4f1c18886ba72e4f3c00071", "type": "electric_scooter", "is_reserved": 0, "lon": -77.005787}, {"fusion_lat": 0.0, "name": "d25880a173e16ae9a87d159a8a170011", "is_disabled": 0, "rental_uris": {"android": "https://dc.lft.to/lastmile_qr_scan", "ios": "https://dc.lft.to/lastmile_qr_scan"}, "fusion_lon": 0.0, "lat": 38.902545, "bike_id": "d25880a173e16ae9a87d159a8a170011", "type": "electric_scooter", "is_reserved": 0, "lon": -77.05335166666667}, {"fusion_lat": 0.0, "name": "575ecd0abdf809bc31dadcd1d8086668", "is_disabled": 0, "rental_uris": {"android": "https://dc.lft.to/lastmile_qr_scan", "ios": "https://dc.lft.to/lastmile_qr_scan"}, "fusion_lon": 0.0, "lat": 38.914802333333334, "bike_id": "575ecd0abdf809bc31dadcd1d8086668", "type": "electric_scooter", "is_reserved": 0, "lon": -77.0385745}, {"fusion_lat": 0.0, "name": "0755833eb72976f68f63728de6066191", "is_disabled": 0, "rental_uris": {"android": "https://dc.lft.to/lastmile_qr_scan", "ios": "https://dc.lft.to/lastmile_qr_scan"}, "fusion_lon": 0.0, "lat": 38.835030833333334, "bike_id": "0755833eb72976f68f63728de6066191", "type": "electric_bike", "is_reserved": 0, "lon": -77.09022283333333}, {"fusion_lat": 0.0, "name": "3b582fe4a2470161696a65acf3ce708a", "is_disabled": 0, "rental_uris": {"android": "https://dc.lft.to/lastmile_qr_scan", "ios": "https://dc.lft.to/lastmile_qr_scan"}, "fusion_lon": 0.0, "lat": 38.908547666666664, "bike_id": "3b582fe4a2470161696a65acf3ce708a", "type": "electric_scooter", "is_reserved": 0, "lon": -77.03308983333334}, {"fusion_lat": 0.0, "name": "ce3066f37513b3a38d37bb7136f787eb", "is_disabled": 0, "rental_uris": {"android": "https://dc.lft.to/lastmile_qr_scan", "ios": "https://dc.lft.to/lastmile_qr_scan"}, "fusion_lon": 0.0, "lat": 38.8996935, "bike_id": "ce3066f37513b3a38d37bb7136f787eb", "type": "electric_scooter", "is_reserved": 0, "lon": -77.027547}, {"fusion_lat": 0.0, "name": "8713b10bb756f8c82d9900bd3bc82aa7", "is_disabled": 0, "rental_uris": {"android": "https://dc.lft.to/lastmile_qr_scan", "ios": "https://dc.lft.to/lastmile_qr_scan"}, "fusion_lon": 0.0, "lat": 38.92361416666667, "bike_id": "8713b10bb756f8c82d9900bd3bc82aa7", "type": "electric_scooter", "is_reserved": 0, "lon": -77.05051233333333}, {"fusion_lat": 0.0, "name": "29aeee174af490b7f36d1a29f9058db6", "is_disabled": 0, "rental_uris": {"android": "https://dc.lft.to/lastmile_qr_scan", "ios": "https://dc.lft.to/lastmile_qr_scan"}, "fusion_lon": 0.0, "lat": 38.905876, "bike_id": "29aeee174af490b7f36d1a29f9058db6", "type": "electric_scooter", "is_reserved": 0, "lon": -77.00270816666666}, {"fusion_lat": 0.0, "name": "b376eabb2f7f5a0ec6676d555edf2391", "is_disabled": 0, "rental_uris": {"android": "https://dc.lft.to/lastmile_qr_scan", "ios": "https://dc.lft.to/lastmile_qr_scan"}, "fusion_lon": 0.0, "lat": 38.89686966666667, "bike_id": "b376eabb2f7f5a0ec6676d555edf2391", "type": "electric_scooter", "is_reserved": 0, "lon": -76.93714066666666}, {"fusion_lat": 0.0, "name": "5fbe64163a2c36b981810546f1017201", "is_disabled": 0, "rental_uris": {"android": "https://dc.lft.to/lastmile_qr_scan", "ios": "https://dc.lft.to/lastmile_qr_scan"}, "fusion_lon": 0.0, "lat": 38.92406533333333, "bike_id": "5fbe64163a2c36b981810546f1017201", "type": "electric_scooter", "is_reserved": 0, "lon": -77.0525695}, {"fusion_lat": 0.0, "name": "51f0b6d60729252414c49cb7d55cd37a", "is_disabled": 0, "rental_uris": {"android": "https://dc.lft.to/lastmile_qr_scan", "ios": "https://dc.lft.to/lastmile_qr_scan"}, "fusion_lon": 0.0, "lat": 38.95056316666667, "bike_id": "51f0b6d60729252414c49cb7d55cd37a", "type": "electric_scooter", "is_reserved": 0, "lon": -77.08027483333333}, {"fusion_lat": 0.0, "name": "1ec1d57e6dbdae87213b0b67cb02c075", "is_disabled": 0, "rental_uris": {"android": "https://dc.lft.to/lastmile_qr_scan", "ios": "https://dc.lft.to/lastmile_qr_scan"}, "fusion_lon": 0.0, "lat": 38.875783, "bike_id": "1ec1d57e6dbdae87213b0b67cb02c075", "type": "electric_bike", "is_reserved": 0, "lon": -77.2341615}, {"fusion_lat": 0.0, "name": "efe88d5d6332acf109f5974bfee10b60", "is_disabled": 0, "rental_uris": {"android": "https://dc.lft.to/lastmile_qr_scan", "ios": "https://dc.lft.to/lastmile_qr_scan"}, "fusion_lon": 0.0, "lat": 38.899119666666664, "bike_id": "efe88d5d6332acf109f5974bfee10b60", "type": "electric_scooter", "is_reserved": 0, "lon": -76.945868}, {"fusion_lat": 0.0, "name": "9f3b82c1396d0cd5caa7dc2fd5a75e01", "is_disabled": 0, "rental_uris": {"android": "https://dc.lft.to/lastmile_qr_scan", "ios": "https://dc.lft.to/lastmile_qr_scan"}, "fusion_lon": 0.0, "lat": 38.91513233333333, "bike_id": "9f3b82c1396d0cd5caa7dc2fd5a75e01", "type": "electric_scooter", "is_reserved": 0, "lon": -77.01900983333333}, {"fusion_lat": 0.0, "name": "eb71780b74a789b79db4136c55e30dfb", "is_disabled": 0, "rental_uris": {"android": "https://dc.lft.to/lastmile_qr_scan", "ios": "https://dc.lft.to/lastmile_qr_scan"}, "fusion_lon": 0.0, "lat": 38.9058235, "bike_id": "eb71780b74a789b79db4136c55e30dfb", "type": "electric_scooter", "is_reserved": 0, "lon": -77.0088685}, {"fusion_lat": 0.0, "name": "4773a084ffa810a9bd8dda467d3a19a7", "is_disabled": 0, "rental_uris": {"android": "https://dc.lft.to/lastmile_qr_scan", "ios": "https://dc.lft.to/lastmile_qr_scan"}, "fusion_lon": 0.0, "lat": 38.935422333333335, "bike_id": "4773a084ffa810a9bd8dda467d3a19a7", "type": "electric_scooter", "is_reserved": 0, "lon": -77.05753866666667}, {"fusion_lat": 0.0, "name": "b9c1e3d6b118ef6bd1b9e7809f026b45", "is_disabled": 0, "rental_uris": {"android": "https://dc.lft.to/lastmile_qr_scan", "ios": "https://dc.lft.to/lastmile_qr_scan"}, "fusion_lon": 0.0, "lat": 38.91713266666667, "bike_id": "b9c1e3d6b118ef6bd1b9e7809f026b45", "type": "electric_scooter", "is_reserved": 0, "lon": -77.02594716666667}, {"fusion_lat": 0.0, "name": "6383b3478173770e5b09c144f3d3c97a", "is_disabled": 0, "rental_uris": {"android": "https://dc.lft.to/lastmile_qr_scan", "ios": "https://dc.lft.to/lastmile_qr_scan"}, "fusion_lon": 0.0, "lat": 38.9163325, "bike_id": "6383b3478173770e5b09c144f3d3c97a", "type": "electric_scooter", "is_reserved": 0, "lon": -77.03183333333334}, {"fusion_lat": 0.0, "name": "90241d51ffa17f0b11f903f4044f9175", "is_disabled": 0, "rental_uris": {"android": "https://dc.lft.to/lastmile_qr_scan", "ios": "https://dc.lft.to/lastmile_qr_scan"}, "fusion_lon": 0.0, "lat": 38.9110775, "bike_id": "90241d51ffa17f0b11f903f4044f9175", "type": "electric_scooter", "is_reserved": 0, "lon": -77.042046}, {"fusion_lat": 0.0, "name": "3b89dd26fb3dfc82fd4f5b32bababb98", "is_disabled": 0, "rental_uris": {"android": "https://dc.lft.to/lastmile_qr_scan", "ios": "https://dc.lft.to/lastmile_qr_scan"}, "fusion_lon": 0.0, "lat": 38.86391533333333, "bike_id": "3b89dd26fb3dfc82fd4f5b32bababb98", "type": "electric_bike", "is_reserved": 0, "lon": -76.98996816666667}, {"fusion_lat": 0.0, "name": "f64f4c4d0768aa3ec74f377132e47685", "is_disabled": 0, "rental_uris": {"android": "https://dc.lft.to/lastmile_qr_scan", "ios": "https://dc.lft.to/lastmile_qr_scan"}, "fusion_lon": 0.0, "lat": 38.919952333333335, "bike_id": "f64f4c4d0768aa3ec74f377132e47685", "type": "electric_scooter", "is_reserved": 0, "lon": -77.03283616666667}, {"fusion_lat": 0.0, "name": "855fd1d120a6fe8613086a18f7751352", "is_disabled": 0, "rental_uris": {"android": "https://dc.lft.to/lastmile_qr_scan", "ios": "https://dc.lft.to/lastmile_qr_scan"}, "fusion_lon": 0.0, "lat": 38.9095825, "bike_id": "855fd1d120a6fe8613086a18f7751352", "type": "electric_scooter", "is_reserved": 0, "lon": -77.03945783333333}, {"fusion_lat": 0.0, "name": "434fca2a4b52a669c3d5cb8d5ef20331", "is_disabled": 0, "rental_uris": {"android": "https://dc.lft.to/lastmile_qr_scan", "ios": "https://dc.lft.to/lastmile_qr_scan"}, "fusion_lon": 0.0, "lat": 38.8872805, "bike_id": "434fca2a4b52a669c3d5cb8d5ef20331", "type": "electric_scooter", "is_reserved": 0, "lon": -77.01770533333334}, {"fusion_lat": 0.0, "name": "1e43e12c40d679c31aa5ae6e49bc2660", "is_disabled": 0, "rental_uris": {"android": "https://dc.lft.to/lastmile_qr_scan", "ios": "https://dc.lft.to/lastmile_qr_scan"}, "fusion_lon": 0.0, "lat": 38.92869533333333, "bike_id": "1e43e12c40d679c31aa5ae6e49bc2660", "type": "electric_scooter", "is_reserved": 0, "lon": -77.0330535}, {"fusion_lat": 0.0, "name": "0756fa01dfc1b0d4308858bbd36fb33d", "is_disabled": 0, "rental_uris": {"android": "https://dc.lft.to/lastmile_qr_scan", "ios": "https://dc.lft.to/lastmile_qr_scan"}, "fusion_lon": 0.0, "lat": 38.8997005, "bike_id": "0756fa01dfc1b0d4308858bbd36fb33d", "type": "electric_scooter", "is_reserved": 0, "lon": -77.01609383333333}, {"fusion_lat": 0.0, "name": "4280d8211a65a4474b6b6219d6af6819", "is_disabled": 0, "rental_uris": {"android": "https://dc.lft.to/lastmile_qr_scan", "ios": "https://dc.lft.to/lastmile_qr_scan"}, "fusion_lon": 0.0, "lat": 38.918045666666664, "bike_id": "4280d8211a65a4474b6b6219d6af6819", "type": "electric_scooter", "is_reserved": 0, "lon": -77.0344635}, {"fusion_lat": 0.0, "name": "4f4385f27082d987ccf09865cdfa8ca6", "is_disabled": 0, "rental_uris": {"android": "https://dc.lft.to/lastmile_qr_scan", "ios": "https://dc.lft.to/lastmile_qr_scan"}, "fusion_lon": 0.0, "lat": 38.92229433333333, "bike_id": "4f4385f27082d987ccf09865cdfa8ca6", "type": "electric_scooter", "is_reserved": 0, "lon": -77.02984516666666}, {"fusion_lat": 0.0, "name": "8facd3b43790716acf2bee3e939ba624", "is_disabled": 0, "rental_uris": {"android": "https://dc.lft.to/lastmile_qr_scan", "ios": "https://dc.lft.to/lastmile_qr_scan"}, "fusion_lon": 0.0, "lat": 38.91692583333333, "bike_id": "8facd3b43790716acf2bee3e939ba624", "type": "electric_scooter", "is_reserved": 0, "lon": -77.0228935}, {"fusion_lat": 0.0, "name": "7d9fcb1d57d3e8d076c1fedf1ee14f09", "is_disabled": 0, "rental_uris": {"android": "https://dc.lft.to/lastmile_qr_scan", "ios": "https://dc.lft.to/lastmile_qr_scan"}, "fusion_lon": 0.0, "lat": 38.84282416666667, "bike_id": "7d9fcb1d57d3e8d076c1fedf1ee14f09", "type": "electric_bike", "is_reserved": 0, "lon": -76.98843666666667}, {"fusion_lat": 0.0, "name": "3a0512698d1da335bb764c2714a1278c", "is_disabled": 0, "rental_uris": {"android": "https://dc.lft.to/lastmile_qr_scan", "ios": "https://dc.lft.to/lastmile_qr_scan"}, "fusion_lon": 0.0, "lat": 38.914123333333336, "bike_id": "3a0512698d1da335bb764c2714a1278c", "type": "electric_scooter", "is_reserved": 0, "lon": -77.0107745}, {"fusion_lat": 0.0, "name": "3ef58095abc5813f3a185b54c379fd79", "is_disabled": 0, "rental_uris": {"android": "https://dc.lft.to/lastmile_qr_scan", "ios": "https://dc.lft.to/lastmile_qr_scan"}, "fusion_lon": 0.0, "lat": 38.8872005, "bike_id": "3ef58095abc5813f3a185b54c379fd79", "type": "electric_scooter", "is_reserved": 0, "lon": -77.03149066666667}, {"fusion_lat": 0.0, "name": "ff5786a2f91597e5b0296b7395091c96", "is_disabled": 0, "rental_uris": {"android": "https://dc.lft.to/lastmile_qr_scan", "ios": "https://dc.lft.to/lastmile_qr_scan"}, "fusion_lon": 0.0, "lat": 38.92150016666667, "bike_id": "ff5786a2f91597e5b0296b7395091c96", "type": "electric_scooter", "is_reserved": 0, "lon": -77.0335995}, {"fusion_lat": 0.0, "name": "98d31b6d3bf5fa58d0f19f85a3400110", "is_disabled": 0, "rental_uris": {"android": "https://dc.lft.to/lastmile_qr_scan", "ios": "https://dc.lft.to/lastmile_qr_scan"}, "fusion_lon": 0.0, "lat": 38.920361666666665, "bike_id": "98d31b6d3bf5fa58d0f19f85a3400110", "type": "electric_scooter", "is_reserved": 0, "lon": -77.01751633333333}, {"fusion_lat": 0.0, "name": "ddfdb9d5098c6d75280428893e0bb74a", "is_disabled": 0, "rental_uris": {"android": "https://dc.lft.to/lastmile_qr_scan", "ios": "https://dc.lft.to/lastmile_qr_scan"}, "fusion_lon": 0.0, "lat": 38.923794, "bike_id": "ddfdb9d5098c6d75280428893e0bb74a", "type": "electric_scooter", "is_reserved": 0, "lon": -77.04113433333333}, {"fusion_lat": 0.0, "name": "e19dbd91439beeba5462255c27e1f4d1", "is_disabled": 0, "rental_uris": {"android": "https://dc.lft.to/lastmile_qr_scan", "ios": "https://dc.lft.to/lastmile_qr_scan"}, "fusion_lon": 0.0, "lat": 38.915504166666665, "bike_id": "e19dbd91439beeba5462255c27e1f4d1", "type": "electric_scooter", "is_reserved": 0, "lon": -77.00366}, {"fusion_lat": 0.0, "name": "c1e65a900d095e0f5e0f6d4f0a2ed4b6", "is_disabled": 0, "rental_uris": {"android": "https://dc.lft.to/lastmile_qr_scan", "ios": "https://dc.lft.to/lastmile_qr_scan"}, "fusion_lon": 0.0, "lat": 38.94966466666666, "bike_id": "c1e65a900d095e0f5e0f6d4f0a2ed4b6", "type": "electric_bike", "is_reserved": 0, "lon": -77.06648383333334}, {"fusion_lat": 0.0, "name": "ab7db5054d918d666e42668ddeb8c86a", "is_disabled": 0, "rental_uris": {"android": "https://dc.lft.to/lastmile_qr_scan", "ios": "https://dc.lft.to/lastmile_qr_scan"}, "fusion_lon": 0.0, "lat": 38.8901495, "bike_id": "ab7db5054d918d666e42668ddeb8c86a", "type": "electric_scooter", "is_reserved": 0, "lon": -76.93736433333333}, {"fusion_lat": 0.0, "name": "c2c23fce79696f0f9222fae96281b657", "is_disabled": 0, "rental_uris": {"android": "https://dc.lft.to/lastmile_qr_scan", "ios": "https://dc.lft.to/lastmile_qr_scan"}, "fusion_lon": 0.0, "lat": 38.91552383333333, "bike_id": "c2c23fce79696f0f9222fae96281b657", "type": "electric_scooter", "is_reserved": 0, "lon": -77.04161766666667}, {"fusion_lat": 0.0, "name": "8eeba936f0b79342c0c5d1ee8812c4d2", "is_disabled": 0, "rental_uris": {"android": "https://dc.lft.to/lastmile_qr_scan", "ios": "https://dc.lft.to/lastmile_qr_scan"}, "fusion_lon": 0.0, "lat": 38.8756255, "bike_id": "8eeba936f0b79342c0c5d1ee8812c4d2", "type": "electric_scooter", "is_reserved": 0, "lon": -77.00574933333333}, {"fusion_lat": 0.0, "name": "74a3781768d2c0d0238d859c0cabb136", "is_disabled": 0, "rental_uris": {"android": "https://dc.lft.to/lastmile_qr_scan", "ios": "https://dc.lft.to/lastmile_qr_scan"}, "fusion_lon": 0.0, "lat": 38.895290333333335, "bike_id": "74a3781768d2c0d0238d859c0cabb136", "type": "electric_scooter", "is_reserved": 0, "lon": -77.044798}, {"fusion_lat": 0.0, "name": "b0d2170a9965eefc18f342d2b66039d5", "is_disabled": 0, "rental_uris": {"android": "https://dc.lft.to/lastmile_qr_scan", "ios": "https://dc.lft.to/lastmile_qr_scan"}, "fusion_lon": 0.0, "lat": 38.9234735, "bike_id": "b0d2170a9965eefc18f342d2b66039d5", "type": "electric_scooter", "is_reserved": 0, "lon": -77.05171616666667}, {"fusion_lat": 0.0, "name": "76bf016a613a15ce578f6922b1ca6f08", "is_disabled": 0, "rental_uris": {"android": "https://dc.lft.to/lastmile_qr_scan", "ios": "https://dc.lft.to/lastmile_qr_scan"}, "fusion_lon": 0.0, "lat": 38.886096, "bike_id": "76bf016a613a15ce578f6922b1ca6f08", "type": "electric_scooter", "is_reserved": 0, "lon": -76.99544483333334}, {"fusion_lat": 0.0, "name": "a1bc3bbb5053c419ebcf883701e217b2", "is_disabled": 0, "rental_uris": {"android": "https://dc.lft.to/lastmile_qr_scan", "ios": "https://dc.lft.to/lastmile_qr_scan"}, "fusion_lon": 0.0, "lat": 38.900884166666664, "bike_id": "a1bc3bbb5053c419ebcf883701e217b2", "type": "electric_scooter", "is_reserved": 0, "lon": -76.9833245}, {"fusion_lat": 0.0, "name": "a896272555dc1baeb7dfb205d6590657", "is_disabled": 0, "rental_uris": {"android": "https://dc.lft.to/lastmile_qr_scan", "ios": "https://dc.lft.to/lastmile_qr_scan"}, "fusion_lon": 0.0, "lat": 38.920834, "bike_id": "a896272555dc1baeb7dfb205d6590657", "type": "electric_scooter", "is_reserved": 0, "lon": -77.013998}, {"fusion_lat": 0.0, "name": "7ca29da437863f75566a8d38781178c8", "is_disabled": 0, "rental_uris": {"android": "https://dc.lft.to/lastmile_qr_scan", "ios": "https://dc.lft.to/lastmile_qr_scan"}, "fusion_lon": 0.0, "lat": 38.905238, "bike_id": "7ca29da437863f75566a8d38781178c8", "type": "electric_scooter", "is_reserved": 0, "lon": -77.06513133333333}, {"fusion_lat": 0.0, "name": "605a6d43681362b8534edb89577b0058", "is_disabled": 0, "rental_uris": {"android": "https://dc.lft.to/lastmile_qr_scan", "ios": "https://dc.lft.to/lastmile_qr_scan"}, "fusion_lon": 0.0, "lat": 38.90049066666667, "bike_id": "605a6d43681362b8534edb89577b0058", "type": "electric_scooter", "is_reserved": 0, "lon": -77.02627066666666}, {"fusion_lat": 0.0, "name": "4188b579638ee72b4705004eb379e646", "is_disabled": 0, "rental_uris": {"android": "https://dc.lft.to/lastmile_qr_scan", "ios": "https://dc.lft.to/lastmile_qr_scan"}, "fusion_lon": 0.0, "lat": 38.887294833333335, "bike_id": "4188b579638ee72b4705004eb379e646", "type": "electric_scooter", "is_reserved": 0, "lon": -76.98364466666666}, {"fusion_lat": 0.0, "name": "8fd6fcf482e8f602734b4675d3ebfed4", "is_disabled": 0, "rental_uris": {"android": "https://dc.lft.to/lastmile_qr_scan", "ios": "https://dc.lft.to/lastmile_qr_scan"}, "fusion_lon": 0.0, "lat": 38.9073335, "bike_id": "8fd6fcf482e8f602734b4675d3ebfed4", "type": "electric_scooter", "is_reserved": 0, "lon": -77.04328583333333}, {"fusion_lat": 0.0, "name": "daf5a1312cc45a3fced97b7e9ae4fc6f", "is_disabled": 0, "rental_uris": {"android": "https://dc.lft.to/lastmile_qr_scan", "ios": "https://dc.lft.to/lastmile_qr_scan"}, "fusion_lon": 0.0, "lat": 38.88729166666667, "bike_id": "daf5a1312cc45a3fced97b7e9ae4fc6f", "type": "electric_scooter", "is_reserved": 0, "lon": -76.98358383333333}, {"fusion_lat": 0.0, "name": "9126c900b9754e2bc897e641b026f4ef", "is_disabled": 0, "rental_uris": {"android": "https://dc.lft.to/lastmile_qr_scan", "ios": "https://dc.lft.to/lastmile_qr_scan"}, "fusion_lon": 0.0, "lat": 38.920802, "bike_id": "9126c900b9754e2bc897e641b026f4ef", "type": "electric_scooter", "is_reserved": 0, "lon": -77.024064}, {"fusion_lat": 0.0, "name": "c599d12c769bbdc4ed6f0a2d84e66548", "is_disabled": 0, "rental_uris": {"android": "https://dc.lft.to/lastmile_qr_scan", "ios": "https://dc.lft.to/lastmile_qr_scan"}, "fusion_lon": 0.0, "lat": 38.901432166666666, "bike_id": "c599d12c769bbdc4ed6f0a2d84e66548", "type": "electric_scooter", "is_reserved": 0, "lon": -76.9741825}, {"fusion_lat": 0.0, "name": "280a39d8012653aa27b969431f2a5165", "is_disabled": 0, "rental_uris": {"android": "https://dc.lft.to/lastmile_qr_scan", "ios": "https://dc.lft.to/lastmile_qr_scan"}, "fusion_lon": 0.0, "lat": 38.91678266666667, "bike_id": "280a39d8012653aa27b969431f2a5165", "type": "electric_scooter", "is_reserved": 0, "lon": -77.03684083333333}, {"fusion_lat": 0.0, "name": "224bbc57f04891805990edbc1e132981", "is_disabled": 0, "rental_uris": {"android": "https://dc.lft.to/lastmile_qr_scan", "ios": "https://dc.lft.to/lastmile_qr_scan"}, "fusion_lon": 0.0, "lat": 38.907289666666664, "bike_id": "224bbc57f04891805990edbc1e132981", "type": "electric_scooter", "is_reserved": 0, "lon": -77.04358}, {"fusion_lat": 0.0, "name": "07c91c3e099e34313c2f0128bbbb0a27", "is_disabled": 0, "rental_uris": {"android": "https://dc.lft.to/lastmile_qr_scan", "ios": "https://dc.lft.to/lastmile_qr_scan"}, "fusion_lon": 0.0, "lat": 38.93058666666667, "bike_id": "07c91c3e099e34313c2f0128bbbb0a27", "type": "electric_scooter", "is_reserved": 0, "lon": -77.032146}, {"fusion_lat": 0.0, "name": "8bb8d24ece63fee115f71bc31b403f11", "is_disabled": 0, "rental_uris": {"android": "https://dc.lft.to/lastmile_qr_scan", "ios": "https://dc.lft.to/lastmile_qr_scan"}, "fusion_lon": 0.0, "lat": 38.91687966666667, "bike_id": "8bb8d24ece63fee115f71bc31b403f11", "type": "electric_scooter", "is_reserved": 0, "lon": -77.031159}, {"fusion_lat": 0.0, "name": "6c10825d3f03af782baae2ed5e8f5ada", "is_disabled": 0, "rental_uris": {"android": "https://dc.lft.to/lastmile_qr_scan", "ios": "https://dc.lft.to/lastmile_qr_scan"}, "fusion_lon": 0.0, "lat": 38.887515666666665, "bike_id": "6c10825d3f03af782baae2ed5e8f5ada", "type": "electric_scooter", "is_reserved": 0, "lon": -77.01782966666667}, {"fusion_lat": 0.0, "name": "c727a4f4d56f3bff65d590617c90a02d", "is_disabled": 0, "rental_uris": {"android": "https://dc.lft.to/lastmile_qr_scan", "ios": "https://dc.lft.to/lastmile_qr_scan"}, "fusion_lon": 0.0, "lat": 38.92081533333333, "bike_id": "c727a4f4d56f3bff65d590617c90a02d", "type": "electric_scooter", "is_reserved": 0, "lon": -77.023922}, {"fusion_lat": 0.0, "name": "ba521c7fbcff91b41e01a976f05a28ec", "is_disabled": 0, "rental_uris": {"android": "https://dc.lft.to/lastmile_qr_scan", "ios": "https://dc.lft.to/lastmile_qr_scan"}, "fusion_lon": 0.0, "lat": 38.907365, "bike_id": "ba521c7fbcff91b41e01a976f05a28ec", "type": "electric_scooter", "is_reserved": 0, "lon": -77.0356375}, {"fusion_lat": 0.0, "name": "67233899d027f80df82214a7132f4d93", "is_disabled": 0, "rental_uris": {"android": "https://dc.lft.to/lastmile_qr_scan", "ios": "https://dc.lft.to/lastmile_qr_scan"}, "fusion_lon": 0.0, "lat": 38.915285, "bike_id": "67233899d027f80df82214a7132f4d93", "type": "electric_scooter", "is_reserved": 0, "lon": -77.07475366666667}, {"fusion_lat": 0.0, "name": "78c110e4a272084f8e1f42733c536791", "is_disabled": 0, "rental_uris": {"android": "https://dc.lft.to/lastmile_qr_scan", "ios": "https://dc.lft.to/lastmile_qr_scan"}, "fusion_lon": 0.0, "lat": 38.912191, "bike_id": "78c110e4a272084f8e1f42733c536791", "type": "electric_scooter", "is_reserved": 0, "lon": -77.0452335}, {"fusion_lat": 0.0, "name": "890d812f52b5fd87d5daec27f057311b", "is_disabled": 0, "rental_uris": {"android": "https://dc.lft.to/lastmile_qr_scan", "ios": "https://dc.lft.to/lastmile_qr_scan"}, "fusion_lon": 0.0, "lat": 38.909777166666665, "bike_id": "890d812f52b5fd87d5daec27f057311b", "type": "electric_scooter", "is_reserved": 0, "lon": -77.0467085}, {"fusion_lat": 0.0, "name": "35087753043ae96d526916437407731a", "is_disabled": 0, "rental_uris": {"android": "https://dc.lft.to/lastmile_qr_scan", "ios": "https://dc.lft.to/lastmile_qr_scan"}, "fusion_lon": 0.0, "lat": 38.938628333333334, "bike_id": "35087753043ae96d526916437407731a", "type": "electric_scooter", "is_reserved": 0, "lon": -77.0343755}, {"fusion_lat": 0.0, "name": "a0f4bce6e1a55273ff9faf8897d6a52f", "is_disabled": 0, "rental_uris": {"android": "https://dc.lft.to/lastmile_qr_scan", "ios": "https://dc.lft.to/lastmile_qr_scan"}, "fusion_lon": 0.0, "lat": 38.89296183333333, "bike_id": "a0f4bce6e1a55273ff9faf8897d6a52f", "type": "electric_scooter", "is_reserved": 0, "lon": -77.01228766666667}, {"fusion_lat": 0.0, "name": "ef5bd70f528e48734a479553844bc7c9", "is_disabled": 0, "rental_uris": {"android": "https://dc.lft.to/lastmile_qr_scan", "ios": "https://dc.lft.to/lastmile_qr_scan"}, "fusion_lon": 0.0, "lat": 38.91961216666667, "bike_id": "ef5bd70f528e48734a479553844bc7c9", "type": "electric_scooter", "is_reserved": 0, "lon": -77.03180616666667}, {"fusion_lat": 0.0, "name": "b259019c7e4161681c067e170fadad73", "is_disabled": 0, "rental_uris": {"android": "https://dc.lft.to/lastmile_qr_scan", "ios": "https://dc.lft.to/lastmile_qr_scan"}, "fusion_lon": 0.0, "lat": 38.9169645, "bike_id": "b259019c7e4161681c067e170fadad73", "type": "electric_scooter", "is_reserved": 0, "lon": -77.03384616666666}, {"fusion_lat": 0.0, "name": "91540c015290e47c3ecbf56ce984ddbc", "is_disabled": 0, "rental_uris": {"android": "https://dc.lft.to/lastmile_qr_scan", "ios": "https://dc.lft.to/lastmile_qr_scan"}, "fusion_lon": 0.0, "lat": 38.91823633333333, "bike_id": "91540c015290e47c3ecbf56ce984ddbc", "type": "electric_scooter", "is_reserved": 0, "lon": -77.03201266666666}, {"fusion_lat": 0.0, "name": "08f11edc37dee921cf8efde6284f727d", "is_disabled": 0, "rental_uris": {"android": "https://dc.lft.to/lastmile_qr_scan", "ios": "https://dc.lft.to/lastmile_qr_scan"}, "fusion_lon": 0.0, "lat": 38.9354475, "bike_id": "08f11edc37dee921cf8efde6284f727d", "type": "electric_scooter", "is_reserved": 0, "lon": -77.05740216666666}, {"fusion_lat": 0.0, "name": "b14617f2ef903a98d939dd0d2fca223e", "is_disabled": 0, "rental_uris": {"android": "https://dc.lft.to/lastmile_qr_scan", "ios": "https://dc.lft.to/lastmile_qr_scan"}, "fusion_lon": 0.0, "lat": 38.90126266666667, "bike_id": "b14617f2ef903a98d939dd0d2fca223e", "type": "electric_scooter", "is_reserved": 0, "lon": -77.00210833333334}, {"fusion_lat": 0.0, "name": "2ec19119d602e7653a6a6639fcdec272", "is_disabled": 0, "rental_uris": {"android": "https://dc.lft.to/lastmile_qr_scan", "ios": "https://dc.lft.to/lastmile_qr_scan"}, "fusion_lon": 0.0, "lat": 38.8878205, "bike_id": "2ec19119d602e7653a6a6639fcdec272", "type": "electric_scooter", "is_reserved": 0, "lon": -76.95532916666667}, {"fusion_lat": 0.0, "name": "d69815fbad96f1c0f6a2deff511ea784", "is_disabled": 0, "rental_uris": {"android": "https://dc.lft.to/lastmile_qr_scan", "ios": "https://dc.lft.to/lastmile_qr_scan"}, "fusion_lon": 0.0, "lat": 38.992147, "bike_id": "d69815fbad96f1c0f6a2deff511ea784", "type": "electric_bike", "is_reserved": 0, "lon": -77.03215183333333}, {"fusion_lat": 0.0, "name": "03063e5a898d9ff3ddab64f107c7e46e", "is_disabled": 0, "rental_uris": {"android": "https://dc.lft.to/lastmile_qr_scan", "ios": "https://dc.lft.to/lastmile_qr_scan"}, "fusion_lon": 0.0, "lat": 38.90561133333333, "bike_id": "03063e5a898d9ff3ddab64f107c7e46e", "type": "electric_scooter", "is_reserved": 0, "lon": -77.04650666666667}, {"fusion_lat": 0.0, "name": "1b224e993b52a4bc88b7a89ddb2971ce", "is_disabled": 0, "rental_uris": {"android": "https://dc.lft.to/lastmile_qr_scan", "ios": "https://dc.lft.to/lastmile_qr_scan"}, "fusion_lon": 0.0, "lat": 38.933962333333334, "bike_id": "1b224e993b52a4bc88b7a89ddb2971ce", "type": "electric_scooter", "is_reserved": 0, "lon": -77.05740916666667}, {"fusion_lat": 0.0, "name": "495223357f17ba3d0f4a4e5ff65a1ab2", "is_disabled": 0, "rental_uris": {"android": "https://dc.lft.to/lastmile_qr_scan", "ios": "https://dc.lft.to/lastmile_qr_scan"}, "fusion_lon": 0.0, "lat": 38.909723666666665, "bike_id": "495223357f17ba3d0f4a4e5ff65a1ab2", "type": "electric_scooter", "is_reserved": 0, "lon": -77.03210866666667}, {"fusion_lat": 0.0, "name": "173cacd0a5ba124952a37baceec9eea6", "is_disabled": 0, "rental_uris": {"android": "https://dc.lft.to/lastmile_qr_scan", "ios": "https://dc.lft.to/lastmile_qr_scan"}, "fusion_lon": 0.0, "lat": 38.907986, "bike_id": "173cacd0a5ba124952a37baceec9eea6", "type": "electric_scooter", "is_reserved": 0, "lon": -77.0344695}, {"fusion_lat": 0.0, "name": "4cb925278a96d5b66566e8c870cd9e95", "is_disabled": 0, "rental_uris": {"android": "https://dc.lft.to/lastmile_qr_scan", "ios": "https://dc.lft.to/lastmile_qr_scan"}, "fusion_lon": 0.0, "lat": 38.8837255, "bike_id": "4cb925278a96d5b66566e8c870cd9e95", "type": "electric_scooter", "is_reserved": 0, "lon": -76.99518216666667}, {"fusion_lat": 0.0, "name": "7012659d2feb7ce57606980012b00261", "is_disabled": 0, "rental_uris": {"android": "https://dc.lft.to/lastmile_qr_scan", "ios": "https://dc.lft.to/lastmile_qr_scan"}, "fusion_lon": 0.0, "lat": 38.903019666666665, "bike_id": "7012659d2feb7ce57606980012b00261", "type": "electric_scooter", "is_reserved": 0, "lon": -77.05807066666667}, {"fusion_lat": 0.0, "name": "b3d80da01b8638d950449f743c4e2693", "is_disabled": 0, "rental_uris": {"android": "https://dc.lft.to/lastmile_qr_scan", "ios": "https://dc.lft.to/lastmile_qr_scan"}, "fusion_lon": 0.0, "lat": 38.90055916666667, "bike_id": "b3d80da01b8638d950449f743c4e2693", "type": "electric_scooter", "is_reserved": 0, "lon": -76.99942633333333}, {"fusion_lat": 0.0, "name": "71769d849c2826897071f03f7fc5576c", "is_disabled": 0, "rental_uris": {"android": "https://dc.lft.to/lastmile_qr_scan", "ios": "https://dc.lft.to/lastmile_qr_scan"}, "fusion_lon": 0.0, "lat": 38.89250883333333, "bike_id": "71769d849c2826897071f03f7fc5576c", "type": "electric_scooter", "is_reserved": 0, "lon": -77.03957016666666}, {"fusion_lat": 0.0, "name": "02b7e15bbb900ff78d36c281c71b51dc", "is_disabled": 0, "rental_uris": {"android": "https://dc.lft.to/lastmile_qr_scan", "ios": "https://dc.lft.to/lastmile_qr_scan"}, "fusion_lon": 0.0, "lat": 38.91120333333333, "bike_id": "02b7e15bbb900ff78d36c281c71b51dc", "type": "electric_scooter", "is_reserved": 0, "lon": -77.0075395}, {"fusion_lat": 0.0, "name": "915991ff918740f14ebfd6428d6b6948", "is_disabled": 0, "rental_uris": {"android": "https://dc.lft.to/lastmile_qr_scan", "ios": "https://dc.lft.to/lastmile_qr_scan"}, "fusion_lon": 0.0, "lat": 38.92618683333333, "bike_id": "915991ff918740f14ebfd6428d6b6948", "type": "electric_scooter", "is_reserved": 0, "lon": -77.03672566666667}, {"fusion_lat": 0.0, "name": "45dd140a475a4503fae75c288f45b2cc", "is_disabled": 0, "rental_uris": {"android": "https://dc.lft.to/lastmile_qr_scan", "ios": "https://dc.lft.to/lastmile_qr_scan"}, "fusion_lon": 0.0, "lat": 38.92322033333333, "bike_id": "45dd140a475a4503fae75c288f45b2cc", "type": "electric_scooter", "is_reserved": 0, "lon": -77.040338}, {"fusion_lat": 0.0, "name": "e338bbe7eed553aabe6dc0765387efc1", "is_disabled": 0, "rental_uris": {"android": "https://dc.lft.to/lastmile_qr_scan", "ios": "https://dc.lft.to/lastmile_qr_scan"}, "fusion_lon": 0.0, "lat": 38.91951266666667, "bike_id": "e338bbe7eed553aabe6dc0765387efc1", "type": "electric_scooter", "is_reserved": 0, "lon": -77.07843266666667}, {"fusion_lat": 0.0, "name": "0596ffd1810ef5c4a0706ecc3c2397f0", "is_disabled": 0, "rental_uris": {"android": "https://dc.lft.to/lastmile_qr_scan", "ios": "https://dc.lft.to/lastmile_qr_scan"}, "fusion_lon": 0.0, "lat": 38.920195, "bike_id": "0596ffd1810ef5c4a0706ecc3c2397f0", "type": "electric_scooter", "is_reserved": 0, "lon": -77.01314283333333}, {"fusion_lat": 0.0, "name": "1694b778e38a508180a4df09cb46ce82", "is_disabled": 0, "rental_uris": {"android": "https://dc.lft.to/lastmile_qr_scan", "ios": "https://dc.lft.to/lastmile_qr_scan"}, "fusion_lon": 0.0, "lat": 38.9072665, "bike_id": "1694b778e38a508180a4df09cb46ce82", "type": "electric_scooter", "is_reserved": 0, "lon": -77.043585}, {"fusion_lat": 0.0, "name": "b655327b810df97f5f6d0ba5b4e83afd", "is_disabled": 0, "rental_uris": {"android": "https://dc.lft.to/lastmile_qr_scan", "ios": "https://dc.lft.to/lastmile_qr_scan"}, "fusion_lon": 0.0, "lat": 38.887495666666666, "bike_id": "b655327b810df97f5f6d0ba5b4e83afd", "type": "electric_scooter", "is_reserved": 0, "lon": -77.02569333333334}, {"fusion_lat": 0.0, "name": "c8e6080be96f6bf169d271ffbf83417a", "is_disabled": 0, "rental_uris": {"android": "https://dc.lft.to/lastmile_qr_scan", "ios": "https://dc.lft.to/lastmile_qr_scan"}, "fusion_lon": 0.0, "lat": 38.932575666666665, "bike_id": "c8e6080be96f6bf169d271ffbf83417a", "type": "electric_scooter", "is_reserved": 0, "lon": -77.032669}, {"fusion_lat": 0.0, "name": "1ff15b3ae6077bb9c5e968d05ee38e6b", "is_disabled": 0, "rental_uris": {"android": "https://dc.lft.to/lastmile_qr_scan", "ios": "https://dc.lft.to/lastmile_qr_scan"}, "fusion_lon": 0.0, "lat": 38.934717166666665, "bike_id": "1ff15b3ae6077bb9c5e968d05ee38e6b", "type": "electric_scooter", "is_reserved": 0, "lon": -77.0727105}, {"fusion_lat": 0.0, "name": "a0d58d3f15ceaefbeda710d48e0f81d0", "is_disabled": 0, "rental_uris": {"android": "https://dc.lft.to/lastmile_qr_scan", "ios": "https://dc.lft.to/lastmile_qr_scan"}, "fusion_lon": 0.0, "lat": 38.898760333333335, "bike_id": "a0d58d3f15ceaefbeda710d48e0f81d0", "type": "electric_scooter", "is_reserved": 0, "lon": -76.931813}, {"fusion_lat": 0.0, "name": "a44947ee2efc69eeea372c47236820ce", "is_disabled": 0, "rental_uris": {"android": "https://dc.lft.to/lastmile_qr_scan", "ios": "https://dc.lft.to/lastmile_qr_scan"}, "fusion_lon": 0.0, "lat": 38.9145475, "bike_id": "a44947ee2efc69eeea372c47236820ce", "type": "electric_scooter", "is_reserved": 0, "lon": -77.00210233333334}, {"fusion_lat": 0.0, "name": "055b1baa2c08b9a895030f7caacf4a50", "is_disabled": 0, "rental_uris": {"android": "https://dc.lft.to/lastmile_qr_scan", "ios": "https://dc.lft.to/lastmile_qr_scan"}, "fusion_lon": 0.0, "lat": 38.904191, "bike_id": "055b1baa2c08b9a895030f7caacf4a50", "type": "electric_scooter", "is_reserved": 0, "lon": -77.02505133333334}, {"fusion_lat": 0.0, "name": "4282105650661c6a04af0c5f6ca99992", "is_disabled": 0, "rental_uris": {"android": "https://dc.lft.to/lastmile_qr_scan", "ios": "https://dc.lft.to/lastmile_qr_scan"}, "fusion_lon": 0.0, "lat": 38.91566233333333, "bike_id": "4282105650661c6a04af0c5f6ca99992", "type": "electric_scooter", "is_reserved": 0, "lon": -77.03180583333334}, {"fusion_lat": 0.0, "name": "0d26252342d72653e5f46779fa476b04", "is_disabled": 0, "rental_uris": {"android": "https://dc.lft.to/lastmile_qr_scan", "ios": "https://dc.lft.to/lastmile_qr_scan"}, "fusion_lon": 0.0, "lat": 38.92011633333333, "bike_id": "0d26252342d72653e5f46779fa476b04", "type": "electric_scooter", "is_reserved": 0, "lon": -77.0323595}, {"fusion_lat": 0.0, "name": "54f57a9943561b4f3fa8c5dd4f700b66", "is_disabled": 0, "rental_uris": {"android": "https://dc.lft.to/lastmile_qr_scan", "ios": "https://dc.lft.to/lastmile_qr_scan"}, "fusion_lon": 0.0, "lat": 38.91496883333333, "bike_id": "54f57a9943561b4f3fa8c5dd4f700b66", "type": "electric_scooter", "is_reserved": 0, "lon": -77.012279}, {"fusion_lat": 0.0, "name": "a5e8e3f7500ec0dfda48566c715375a1", "is_disabled": 0, "rental_uris": {"android": "https://dc.lft.to/lastmile_qr_scan", "ios": "https://dc.lft.to/lastmile_qr_scan"}, "fusion_lon": 0.0, "lat": 38.892255166666665, "bike_id": "a5e8e3f7500ec0dfda48566c715375a1", "type": "electric_scooter", "is_reserved": 0, "lon": -77.04094233333333}, {"fusion_lat": 0.0, "name": "597b33897252489f6fd5e353c0ad99de", "is_disabled": 0, "rental_uris": {"android": "https://dc.lft.to/lastmile_qr_scan", "ios": "https://dc.lft.to/lastmile_qr_scan"}, "fusion_lon": 0.0, "lat": 38.921524833333336, "bike_id": "597b33897252489f6fd5e353c0ad99de", "type": "electric_scooter", "is_reserved": 0, "lon": -77.03868916666667}, {"fusion_lat": 0.0, "name": "0de2edd840613d864285a6d94202be8c", "is_disabled": 0, "rental_uris": {"android": "https://dc.lft.to/lastmile_qr_scan", "ios": "https://dc.lft.to/lastmile_qr_scan"}, "fusion_lon": 0.0, "lat": 38.88624766666667, "bike_id": "0de2edd840613d864285a6d94202be8c", "type": "electric_scooter", "is_reserved": 0, "lon": -77.02835966666666}, {"fusion_lat": 0.0, "name": "82b5caff8f6f1803f1010b4b17d9cd20", "is_disabled": 0, "rental_uris": {"android": "https://dc.lft.to/lastmile_qr_scan", "ios": "https://dc.lft.to/lastmile_qr_scan"}, "fusion_lon": 0.0, "lat": 38.92070533333333, "bike_id": "82b5caff8f6f1803f1010b4b17d9cd20", "type": "electric_scooter", "is_reserved": 0, "lon": -77.022179}, {"fusion_lat": 0.0, "name": "d2a7c35b01bc0499e8a85a4b9881a9d1", "is_disabled": 0, "rental_uris": {"android": "https://dc.lft.to/lastmile_qr_scan", "ios": "https://dc.lft.to/lastmile_qr_scan"}, "fusion_lon": 0.0, "lat": 38.91688366666666, "bike_id": "d2a7c35b01bc0499e8a85a4b9881a9d1", "type": "electric_scooter", "is_reserved": 0, "lon": -77.02282866666667}, {"fusion_lat": 0.0, "name": "43faf43eec2a2eb8a5e65e661572b3c4", "is_disabled": 0, "rental_uris": {"android": "https://dc.lft.to/lastmile_qr_scan", "ios": "https://dc.lft.to/lastmile_qr_scan"}, "fusion_lon": 0.0, "lat": 38.89222383333333, "bike_id": "43faf43eec2a2eb8a5e65e661572b3c4", "type": "electric_scooter", "is_reserved": 0, "lon": -77.02226033333334}, {"fusion_lat": 0.0, "name": "593b50dc936e4d7e7a0c277699de33e7", "is_disabled": 0, "rental_uris": {"android": "https://dc.lft.to/lastmile_qr_scan", "ios": "https://dc.lft.to/lastmile_qr_scan"}, "fusion_lon": 0.0, "lat": 38.9156155, "bike_id": "593b50dc936e4d7e7a0c277699de33e7", "type": "electric_scooter", "is_reserved": 0, "lon": -77.01053966666667}, {"fusion_lat": 0.0, "name": "8475accc14c6b5997247bd12a8ec552e", "is_disabled": 0, "rental_uris": {"android": "https://dc.lft.to/lastmile_qr_scan", "ios": "https://dc.lft.to/lastmile_qr_scan"}, "fusion_lon": 0.0, "lat": 38.92497083333333, "bike_id": "8475accc14c6b5997247bd12a8ec552e", "type": "electric_scooter", "is_reserved": 0, "lon": -77.021473}, {"fusion_lat": 0.0, "name": "39c978041b4806e868f2b66accdedde7", "is_disabled": 0, "rental_uris": {"android": "https://dc.lft.to/lastmile_qr_scan", "ios": "https://dc.lft.to/lastmile_qr_scan"}, "fusion_lon": 0.0, "lat": 39.03610233333333, "bike_id": "39c978041b4806e868f2b66accdedde7", "type": "electric_bike", "is_reserved": 0, "lon": -77.055468}, {"fusion_lat": 0.0, "name": "4cfbcbf8dfe6fce4592d1a651842057f", "is_disabled": 0, "rental_uris": {"android": "https://dc.lft.to/lastmile_qr_scan", "ios": "https://dc.lft.to/lastmile_qr_scan"}, "fusion_lon": 0.0, "lat": 38.91189333333333, "bike_id": "4cfbcbf8dfe6fce4592d1a651842057f", "type": "electric_scooter", "is_reserved": 0, "lon": -77.03586683333333}, {"fusion_lat": 0.0, "name": "863a20319b092a5c02686531d52e23de", "is_disabled": 0, "rental_uris": {"android": "https://dc.lft.to/lastmile_qr_scan", "ios": "https://dc.lft.to/lastmile_qr_scan"}, "fusion_lon": 0.0, "lat": 38.862447333333336, "bike_id": "863a20319b092a5c02686531d52e23de", "type": "electric_scooter", "is_reserved": 0, "lon": -76.99497166666667}, {"fusion_lat": 0.0, "name": "0785ebae8024e8752a44cf183b194604", "is_disabled": 0, "rental_uris": {"android": "https://dc.lft.to/lastmile_qr_scan", "ios": "https://dc.lft.to/lastmile_qr_scan"}, "fusion_lon": 0.0, "lat": 38.8977195, "bike_id": "0785ebae8024e8752a44cf183b194604", "type": "electric_scooter", "is_reserved": 0, "lon": -76.98464166666666}, {"fusion_lat": 0.0, "name": "6e2a42e79808cda48858b8a33645e266", "is_disabled": 0, "rental_uris": {"android": "https://dc.lft.to/lastmile_qr_scan", "ios": "https://dc.lft.to/lastmile_qr_scan"}, "fusion_lon": 0.0, "lat": 38.873777, "bike_id": "6e2a42e79808cda48858b8a33645e266", "type": "electric_scooter", "is_reserved": 0, "lon": -77.00048383333333}, {"fusion_lat": 0.0, "name": "3ca95737e181c681fb526fea1f95e27c", "is_disabled": 0, "rental_uris": {"android": "https://dc.lft.to/lastmile_qr_scan", "ios": "https://dc.lft.to/lastmile_qr_scan"}, "fusion_lon": 0.0, "lat": 38.92155666666667, "bike_id": "3ca95737e181c681fb526fea1f95e27c", "type": "electric_scooter", "is_reserved": 0, "lon": -77.03434433333334}, {"fusion_lat": 0.0, "name": "a98fd8e76ff2b0cd29afbf4dfa428802", "is_disabled": 0, "rental_uris": {"android": "https://dc.lft.to/lastmile_qr_scan", "ios": "https://dc.lft.to/lastmile_qr_scan"}, "fusion_lon": 0.0, "lat": 38.943099833333335, "bike_id": "a98fd8e76ff2b0cd29afbf4dfa428802", "type": "electric_scooter", "is_reserved": 0, "lon": -77.0613435}, {"fusion_lat": 0.0, "name": "0949e86c370c836e53d985e263921b88", "is_disabled": 0, "rental_uris": {"android": "https://dc.lft.to/lastmile_qr_scan", "ios": "https://dc.lft.to/lastmile_qr_scan"}, "fusion_lon": 0.0, "lat": 38.87744416666666, "bike_id": "0949e86c370c836e53d985e263921b88", "type": "electric_scooter", "is_reserved": 0, "lon": -76.99679233333333}, {"fusion_lat": 0.0, "name": "7b0734b4ecc53228cf6aabf4396e6ec6", "is_disabled": 0, "rental_uris": {"android": "https://dc.lft.to/lastmile_qr_scan", "ios": "https://dc.lft.to/lastmile_qr_scan"}, "fusion_lon": 0.0, "lat": 38.917049166666665, "bike_id": "7b0734b4ecc53228cf6aabf4396e6ec6", "type": "electric_scooter", "is_reserved": 0, "lon": -77.03050483333334}, {"fusion_lat": 0.0, "name": "2c45ba5e68616bbfd420d3df664281ef", "is_disabled": 0, "rental_uris": {"android": "https://dc.lft.to/lastmile_qr_scan", "ios": "https://dc.lft.to/lastmile_qr_scan"}, "fusion_lon": 0.0, "lat": 38.91918833333333, "bike_id": "2c45ba5e68616bbfd420d3df664281ef", "type": "electric_scooter", "is_reserved": 0, "lon": -77.027359}, {"fusion_lat": 0.0, "name": "e65bb536b0735e11c3c4c196d4d2834b", "is_disabled": 0, "rental_uris": {"android": "https://dc.lft.to/lastmile_qr_scan", "ios": "https://dc.lft.to/lastmile_qr_scan"}, "fusion_lon": 0.0, "lat": 38.93356266666667, "bike_id": "e65bb536b0735e11c3c4c196d4d2834b", "type": "electric_scooter", "is_reserved": 0, "lon": -77.034158}, {"fusion_lat": 0.0, "name": "bcd3c965647a0fec21a67c602ebc5bb1", "is_disabled": 0, "rental_uris": {"android": "https://dc.lft.to/lastmile_qr_scan", "ios": "https://dc.lft.to/lastmile_qr_scan"}, "fusion_lon": 0.0, "lat": 38.917075, "bike_id": "bcd3c965647a0fec21a67c602ebc5bb1", "type": "electric_scooter", "is_reserved": 0, "lon": -77.03864583333333}, {"fusion_lat": 0.0, "name": "e547c43eb19ec9a9f634a4b6749c8cc2", "is_disabled": 0, "rental_uris": {"android": "https://dc.lft.to/lastmile_qr_scan", "ios": "https://dc.lft.to/lastmile_qr_scan"},