{"data": {"bikes": [{"is_reserved": 0, "type": "electric_scooter", "bike_id": "24121c2c1fe7e5625e93734ab92ea794", "lat": 38.919785833333336, "lon": -77.025032, "rental_uris": {"android": "https://dc.lft.to/lastmile_qr_scan", "ios": "https://dc.lft.to/lastmile_qr_scan"}, "is_disabled": 0, "fusion_lat": 0.0, "name": "24121c2c1fe7e5625e93734ab92ea794", "fusion_lon": 0.0}, {"is_reserved": 0, "type": "electric_scooter", "bike_id": "a5efd32756c8586a2b0977b831cb5adb", "lat": 38.892256, "lon": -77.04370733333333, "rental_uris": {"android": "https://dc.lft.to/lastmile_qr_scan", "ios": "https://dc.lft.to/lastmile_qr_scan"}, "is_disabled": 0, "fusion_lat": 0.0, "name": "a5efd32756c8586a2b0977b831cb5adb", "fusion_lon": 0.0}, {"is_reserved": 0, "type": "electric_scooter", "bike_id": "2f7471b4e24b1b69b698f3418da4ea54", "lat": 38.900465, "lon": -77.024067, "rental_uris": {"android": "https://dc.lft.to/lastmile_qr_scan", "ios": "https://dc.lft.to/lastmile_qr_scan"}, "is_disabled": 0, "fusion_lat": 0.0, "name": "2f7471b4e24b1b69b698f3418da4ea54", "fusion_lon": 0.0}, {"is_reserved": 0, "type": "electric_scooter", "bike_id": "018e09ae44cba3bddbadeef96ae20fe3", "lat": 38.92580483333333, "lon": -77.02940016666666, "rental_uris": {"android": "https://dc.lft.to/lastmile_qr_scan", "ios": "https://dc.lft.to/lastmile_qr_scan"}, "is_disabled": 0, "fusion_lat": 0.0, "name": "018e09ae44cba3bddbadeef96ae20fe3", "fusion_lon": 0.0}, {"is_reserved": 0, "type": "electric_scooter", "bike_id": "073945a1fa73c3e06ddc3056271cc870", "lat": 38.916953666666664, "lon": -77.02905533333333, "rental_uris": {"android": "https://dc.lft.to/lastmile_qr_scan", "ios": "https://dc.lft.to/lastmile_qr_scan"}, "is_disabled": 0, "fusion_lat": 0.0, "name": "073945a1fa73c3e06ddc3056271cc870", "fusion_lon": 0.0}, {"is_reserved": 0, "type": "electric_bike", "bike_id": "dd572951e6619472d9b57f0f8792e1b9", "lat": 38.806577, "lon": -77.08759416666666, "rental_uris": {"android": "https://dc.lft.to/lastmile_qr_scan", "ios": "https://dc.lft.to/lastmile_qr_scan"}, "is_disabled": 0, "fusion_lat": 0.0, "name": "dd572951e6619472d9b57f0f8792e1b9", "fusion_lon": 0.0}, {"is_reserved": 0, "type": "electric_scooter", "bike_id": "b79ec6fe217c292048ede232dabf9ecf", "lat": 38.91409933333333, "lon": -77.02726483333333, "rental_uris": {"android": "https://dc.lft.to/lastmile_qr_scan", "ios": "https://dc.lft.to/lastmile_qr_scan"}, "is_disabled": 0, "fusion_lat": 0.0, "name": "b79ec6fe217c292048ede232dabf9ecf", "fusion_lon": 0.0}, {"is_reserved": 0, "type": "electric_scooter", "bike_id": "3ab1274d475b5f1e68fad7c5a69b2d3b", "lat": 38.89784066666667, "lon": -77.02691283333333, "rental_uris": {"android": "https://dc.lft.to/lastmile_qr_scan", "ios": "https://dc.lft.to/lastmile_qr_scan"}, "is_disabled": 0, "fusion_lat": 0.0, "name": "3ab1274d475b5f1e68fad7c5a69b2d3b", "fusion_lon": 0.0}, {"is_reserved": 0, "type": "electric_scooter", "bike_id": "36783dd0376b4a5dd814c9be9e9e0111", "lat": 38.887375166666665, "lon": -77.01353133333333, "rental_uris": {"android": "https://dc.lft.to/lastmile_qr_scan", "ios": "https://dc.lft.to/lastmile_qr_scan"}, "is_disabled": 0, "fusion_lat": 0.0, "name": "36783dd0376b4a5dd814c9be9e9e0111", "fusion_lon": 0.0}, {"is_reserved": 0, "type": "electric_scooter", "bike_id": "4ed11a8780f7c4820e8cec7a10377b12", "lat": 38.92350033333334, "lon": -77.034959, "rental_uris": {"android": "https://dc.lft.to/lastmile_qr_scan", "ios": "https://dc.lft.to/lastmile_qr_scan"}, "is_disabled": 0, "fusion_lat": 0.0, "name": "4ed11a8780f7c4820e8cec7a10377b12", "fusion_lon": 0.0}, {"is_reserved": 0, "type": "electric_scooter", "bike_id": "c90391aaa7ac68ebab2e119a70e9f7ac", "lat": 38.9215265, "lon": -77.0387125, "rental_uris": {"android": "https://dc.lft.to/lastmile_qr_scan", "ios": "https://dc.lft.to/lastmile_qr_scan"}, "is_disabled": 0, "fusion_lat": 0.0, "name": "c90391aaa7ac68ebab2e119a70e9f7ac", "fusion_lon": 0.0}, {"is_reserved": 0, "type": "electric_scooter", "bike_id": "cddc1aedf74816529c8fa174c6e0c33d", "lat": 38.93184516666667, "lon": -77.0385225, "rental_uris": {"android": "https://dc.lft.to/lastmile_qr_scan", "ios": "https://dc.lft.to/lastmile_qr_scan"}, "is_disabled": 0, "fusion_lat": 0.0, "name": "cddc1aedf74816529c8fa174c6e0c33d", "fusion_lon": 0.0}, {"is_reserved": 0, "type": "electric_scooter", "bike_id": "cb0f9ce535e9157f88a9355f35ba4ae6", "lat": 38.9319565, "lon": -77.02353266666667, "rental_uris": {"android": "https://dc.lft.to/lastmile_qr_scan", "ios": "https://dc.lft.to/lastmile_qr_scan"}, "is_disabled": 0, "fusion_lat": 0.0, "name": "cb0f9ce535e9157f88a9355f35ba4ae6", "fusion_lon": 0.0}, {"is_reserved": 0, "type": "electric_scooter", "bike_id": "d8fb792f34cf5bf31bb05f26efd9a66e", "lat": 38.9103525, "lon": -77.036897, "rental_uris": {"android": "https://dc.lft.to/lastmile_qr_scan", "ios": "https://dc.lft.to/lastmile_qr_scan"}, "is_disabled": 0, "fusion_lat": 0.0, "name": "d8fb792f34cf5bf31bb05f26efd9a66e", "fusion_lon": 0.0}, {"is_reserved": 0, "type": "electric_scooter", "bike_id": "f801649a45c18e9688924f18d765c183", "lat": 38.90058066666667, "lon": -76.99841566666667, "rental_uris": {"android": "https://dc.lft.to/lastmile_qr_scan", "ios": "https://dc.lft.to/lastmile_qr_scan"}, "is_disabled": 0, "fusion_lat": 0.0, "name": "f801649a45c18e9688924f18d765c183", "fusion_lon": 0.0}, {"is_reserved": 0, "type": "electric_bike", "bike_id": "f9e3db30f46c85259c6918771cc203dc", "lat": 38.84051816666667, "lon": -77.0560015, "rental_uris": {"android": "https://dc.lft.to/lastmile_qr_scan", "ios": "https://dc.lft.to/lastmile_qr_scan"}, "is_disabled": 0, "fusion_lat": 0.0, "name": "f9e3db30f46c85259c6918771cc203dc", "fusion_lon": 0.0}, {"is_reserved": 0, "type": "electric_scooter", "bike_id": "ffe5d3d16695f26e46f8ee32f021070e", "lat": 38.899293166666666, "lon": -77.03200416666667, "rental_uris": {"android": "https://dc.lft.to/lastmile_qr_scan", "ios": "https://dc.lft.to/lastmile_qr_scan"}, "is_disabled": 0, "fusion_lat": 0.0, "name": "ffe5d3d16695f26e46f8ee32f021070e", "fusion_lon": 0.0}, {"is_reserved": 0, "type": "electric_scooter", "bike_id": "13185d88539db9508092142cb49ed88d", "lat": 38.918758, "lon": -77.03568283333334, "rental_uris": {"android": "https://dc.lft.to/lastmile_qr_scan", "ios": "https://dc.lft.to/lastmile_qr_scan"}, "is_disabled": 0, "fusion_lat": 0.0, "name": "13185d88539db9508092142cb49ed88d", "fusion_lon": 0.0}, {"is_reserved": 0, "type": "electric_scooter", "bike_id": "39fc0c7c6b39dc00bf6b37cae4fe47b6", "lat": 38.917828666666665, "lon": -77.02407716666667, "rental_uris": {"android": "https://dc.lft.to/lastmile_qr_scan", "ios": "https://dc.lft.to/lastmile_qr_scan"}, "is_disabled": 0, "fusion_lat": 0.0, "name": "39fc0c7c6b39dc00bf6b37cae4fe47b6", "fusion_lon": 0.0}, {"is_reserved": 0, "type": "electric_scooter", "bike_id": "5a18d907b45230f43f5c6e4b389ccdf7", "lat": 38.9258545, "lon": -77.01220616666667, "rental_uris": {"android": "https://dc.lft.to/lastmile_qr_scan", "ios": "https://dc.lft.to/lastmile_qr_scan"}, "is_disabled": 0, "fusion_lat": 0.0, "name": "5a18d907b45230f43f5c6e4b389ccdf7", "fusion_lon": 0.0}, {"is_reserved": 0, "type": "electric_scooter", "bike_id": "2412c8dc17d5bf3a689228aa8c363b59", "lat": 38.920705, "lon": -77.041903, "rental_uris": {"android": "https://dc.lft.to/lastmile_qr_scan", "ios": "https://dc.lft.to/lastmile_qr_scan"}, "is_disabled": 0, "fusion_lat": 0.0, "name": "2412c8dc17d5bf3a689228aa8c363b59", "fusion_lon": 0.0}, {"is_reserved": 0, "type": "electric_scooter", "bike_id": "ac3646bab24fe5cb4af7049096f1fd36", "lat": 38.9237185, "lon": -77.03658366666667, "rental_uris": {"android": "https://dc.lft.to/lastmile_qr_scan", "ios": "https://dc.lft.to/lastmile_qr_scan"}, "is_disabled": 0, "fusion_lat": 0.0, "name": "ac3646bab24fe5cb4af7049096f1fd36", "fusion_lon": 0.0}, {"is_reserved": 0, "type": "electric_scooter", "bike_id": "80ce55824239126fa8529a7798d305f3", "lat": 38.90502983333333, "lon": -77.0676575, "rental_uris": {"android": "https://dc.lft.to/lastmile_qr_scan", "ios": "https://dc.lft.to/lastmile_qr_scan"}, "is_disabled": 0, "fusion_lat": 0.0, "name": "80ce55824239126fa8529a7798d305f3", "fusion_lon": 0.0}, {"is_reserved": 0, "type": "electric_scooter", "bike_id": "877e10b29956a38c533ba7a1424cdb09", "lat": 38.9215385, "lon": -77.03508283333333, "rental_uris": {"android": "https://dc.lft.to/lastmile_qr_scan", "ios": "https://dc.lft.to/lastmile_qr_scan"}, "is_disabled": 0, "fusion_lat": 0.0, "name": "877e10b29956a38c533ba7a1424cdb09", "fusion_lon": 0.0}, {"is_reserved": 0, "type": "electric_scooter", "bike_id": "cebc80237c88c12735b0de7d029c8acd", "lat": 38.920781833333336, "lon": -77.07459283333333, "rental_uris": {"android": "https://dc.lft.to/lastmile_qr_scan", "ios": "https://dc.lft.to/lastmile_qr_scan"}, "is_disabled": 0, "fusion_lat": 0.0, "name": "cebc80237c88c12735b0de7d029c8acd", "fusion_lon": 0.0}, {"is_reserved": 0, "type": "electric_scooter", "bike_id": "e45b649bfed6f3e27dc88aebfba292a2", "lat": 38.897292166666666, "lon": -77.02020483333334, "rental_uris": {"android": "https://dc.lft.to/lastmile_qr_scan", "ios": "https://dc.lft.to/lastmile_qr_scan"}, "is_disabled": 0, "fusion_lat": 0.0, "name": "e45b649bfed6f3e27dc88aebfba292a2", "fusion_lon": 0.0}, {"is_reserved": 0, "type": "electric_scooter", "bike_id": "6eb3ec81833f75e9977add99b02ead6d", "lat": 38.895417333333334, "lon": -77.011049, "rental_uris": {"android": "https://dc.lft.to/lastmile_qr_scan", "ios": "https://dc.lft.to/lastmile_qr_scan"}, "is_disabled": 0, "fusion_lat": 0.0, "name": "6eb3ec81833f75e9977add99b02ead6d", "fusion_lon": 0.0}, {"is_reserved": 0, "type": "electric_scooter", "bike_id": "74966548e2b4a3a3992174bc421f2a5c", "lat": 38.88502166666667, "lon": -77.01579183333334, "rental_uris": {"android": "https://dc.lft.to/lastmile_qr_scan", "ios": "https://dc.lft.to/lastmile_qr_scan"}, "is_disabled": 0, "fusion_lat": 0.0, "name": "74966548e2b4a3a3992174bc421f2a5c", "fusion_lon": 0.0}, {"is_reserved": 0, "type": "electric_scooter", "bike_id": "b1573835d444464163e9656ef9fbb985", "lat": 38.916744, "lon": -77.02720866666667, "rental_uris": {"android": "https://dc.lft.to/lastmile_qr_scan", "ios": "https://dc.lft.to/lastmile_qr_scan"}, "is_disabled": 0, "fusion_lat": 0.0, "name": "b1573835d444464163e9656ef9fbb985", "fusion_lon": 0.0}, {"is_reserved": 0, "type": "electric_scooter", "bike_id": "a611ff29461c04565acec4c5d0effca3", "lat": 38.92538616666667, "lon": -77.055513, "rental_uris": {"android": "https://dc.lft.to/lastmile_qr_scan", "ios": "https://dc.lft.to/lastmile_qr_scan"}, "is_disabled": 0, "fusion_lat": 0.0, "name": "a611ff29461c04565acec4c5d0effca3", "fusion_lon": 0.0}, {"is_reserved": 0, "type": "electric_scooter", "bike_id": "71e37e6cf4009140c6ffdaab4820ba48", "lat": 38.921031666666664, "lon": -77.03010833333333, "rental_uris": {"android": "https://dc.lft.to/lastmile_qr_scan", "ios": "https://dc.lft.to/lastmile_qr_scan"}, "is_disabled": 0, "fusion_lat": 0.0, "name": "71e37e6cf4009140c6ffdaab4820ba48", "fusion_lon": 0.0}, {"is_reserved": 0, "type": "electric_scooter", "bike_id": "29c4e4fbc51c9501dd6cb4b268713995", "lat": 38.919378, "lon": -77.08135066666667, "rental_uris": {"android": "https://dc.lft.to/lastmile_qr_scan", "ios": "https://dc.lft.to/lastmile_qr_scan"}, "is_disabled": 0, "fusion_lat": 0.0, "name": "29c4e4fbc51c9501dd6cb4b268713995", "fusion_lon": 0.0}, {"is_reserved": 0, "type": "electric_scooter", "bike_id": "f2bb0c0e0d192b433e9ab68d1e485124", "lat": 38.900306, "lon": -77.00213866666667, "rental_uris": {"android": "https://dc.lft.to/lastmile_qr_scan", "ios": "https://dc.lft.to/lastmile_qr_scan"}, "is_disabled": 0, "fusion_lat": 0.0, "name": "f2bb0c0e0d192b433e9ab68d1e485124", "fusion_lon": 0.0}, {"is_reserved": 0, "type": "electric_scooter", "bike_id": "80c6dd1820a5918be930cb44105d4f1f", "lat": 38.899396833333334, "lon": -77.02689183333334, "rental_uris": {"android": "https://dc.lft.to/lastmile_qr_scan", "ios": "https://dc.lft.to/lastmile_qr_scan"}, "is_disabled": 0, "fusion_lat": 0.0, "name": "80c6dd1820a5918be930cb44105d4f1f", "fusion_lon": 0.0}, {"is_reserved": 0, "type": "electric_scooter", "bike_id": "e99363917e2d52f62472b6b571793f26", "lat": 38.9171175, "lon": -77.028443, "rental_uris": {"android": "https://dc.lft.to/lastmile_qr_scan", "ios": "https://dc.lft.to/lastmile_qr_scan"}, "is_disabled": 0, "fusion_lat": 0.0, "name": "e99363917e2d52f62472b6b571793f26", "fusion_lon": 0.0}, {"is_reserved": 0, "type": "electric_scooter", "bike_id": "0af2faf7892b61b620f2ef94737e0feb", "lat": 38.9055875, "lon": -77.0296825, "rental_uris": {"android": "https://dc.lft.to/lastmile_qr_scan", "ios": "https://dc.lft.to/lastmile_qr_scan"}, "is_disabled": 0, "fusion_lat": 0.0, "name": "0af2faf7892b61b620f2ef94737e0feb", "fusion_lon": 0.0}, {"is_reserved": 0, "type": "electric_scooter", "bike_id": "591fa964eaa4b43db2d32dca65e9ced6", "lat": 38.91113683333333, "lon": -77.02344666666667, "rental_uris": {"android": "https://dc.lft.to/lastmile_qr_scan", "ios": "https://dc.lft.to/lastmile_qr_scan"}, "is_disabled": 0, "fusion_lat": 0.0, "name": "591fa964eaa4b43db2d32dca65e9ced6", "fusion_lon": 0.0}, {"is_reserved": 0, "type": "electric_scooter", "bike_id": "ad897e68d36ea27f58e1a6582989fb7b", "lat": 38.88409433333333, "lon": -76.98584183333334, "rental_uris": {"android": "https://dc.lft.to/lastmile_qr_scan", "ios": "https://dc.lft.to/lastmile_qr_scan"}, "is_disabled": 0, "fusion_lat": 0.0, "name": "ad897e68d36ea27f58e1a6582989fb7b", "fusion_lon": 0.0}, {"is_reserved": 0, "type": "electric_scooter", "bike_id": "dd31ca146158c89b2429d172e0257f94", "lat": 38.934382166666666, "lon": -77.07258383333334, "rental_uris": {"android": "https://dc.lft.to/lastmile_qr_scan", "ios": "https://dc.lft.to/lastmile_qr_scan"}, "is_disabled": 0, "fusion_lat": 0.0, "name": "dd31ca146158c89b2429d172e0257f94", "fusion_lon": 0.0}, {"is_reserved": 0, "type": "electric_scooter", "bike_id": "78ca39503e3a6fd79a8cc5edcb5ccf46", "lat": 38.9203075, "lon": -77.01034333333334, "rental_uris": {"android": "https://dc.lft.to/lastmile_qr_scan", "ios": "https://dc.lft.to/lastmile_qr_scan"}, "is_disabled": 0, "fusion_lat": 0.0, "name": "78ca39503e3a6fd79a8cc5edcb5ccf46", "fusion_lon": 0.0}, {"is_reserved": 0, "type": "electric_scooter", "bike_id": "5421121d73d00cdb7595ea0aa75e5b68", "lat": 38.94224833333333, "lon": -77.07153416666667, "rental_uris": {"android": "https://dc.lft.to/lastmile_qr_scan", "ios": "https://dc.lft.to/lastmile_qr_scan"}, "is_disabled": 0, "fusion_lat": 0.0, "name": "5421121d73d00cdb7595ea0aa75e5b68", "fusion_lon": 0.0}, {"is_reserved": 0, "type": "electric_scooter", "bike_id": "ef5d429fba1d6d7c51f4f36abd5ff1c2", "lat": 38.9547675, "lon": -77.06990333333333, "rental_uris": {"android": "https://dc.lft.to/lastmile_qr_scan", "ios": "https://dc.lft.to/lastmile_qr_scan"}, "is_disabled": 0, "fusion_lat": 0.0, "name": "ef5d429fba1d6d7c51f4f36abd5ff1c2", "fusion_lon": 0.0}, {"is_reserved": 0, "type": "electric_scooter", "bike_id": "e24b216bae7d0c8e69063b9211fec380", "lat": 38.900171666666665, "lon": -76.99346800000001, "rental_uris": {"android": "https://dc.lft.to/lastmile_qr_scan", "ios": "https://dc.lft.to/lastmile_qr_scan"}, "is_disabled": 0, "fusion_lat": 0.0, "name": "e24b216bae7d0c8e69063b9211fec380", "fusion_lon": 0.0}, {"is_reserved": 0, "type": "electric_scooter", "bike_id": "d3240cd69a7d1b6ff2dc79f0684cffb1", "lat": 38.903716333333335, "lon": -77.04898783333333, "rental_uris": {"android": "https://dc.lft.to/lastmile_qr_scan", "ios": "https://dc.lft.to/lastmile_qr_scan"}, "is_disabled": 0, "fusion_lat": 0.0, "name": "d3240cd69a7d1b6ff2dc79f0684cffb1", "fusion_lon": 0.0}, {"is_reserved": 0, "type": "electric_scooter", "bike_id": "1cca7d07201de1d5daa079910db35bdb", "lat": 38.9224445, "lon": -77.04351566666666, "rental_uris": {"android": "https://dc.lft.to/lastmile_qr_scan", "ios": "https://dc.lft.to/lastmile_qr_scan"}, "is_disabled": 0, "fusion_lat": 0.0, "name": "1cca7d07201de1d5daa079910db35bdb", "fusion_lon": 0.0}, {"is_reserved": 0, "type": "electric_bike", "bike_id": "d4015f4d08f899ad9824b24afcb531f3", "lat": 38.857911666666666, "lon": -77.0996025, "rental_uris": {"android": "https://dc.lft.to/lastmile_qr_scan", "ios": "https://dc.lft.to/lastmile_qr_scan"}, "is_disabled": 0, "fusion_lat": 0.0, "name": "d4015f4d08f899ad9824b24afcb531f3", "fusion_lon": 0.0}, {"is_reserved": 0, "type": "electric_bike", "bike_id": "79a16f65fbee696a2628ff87fa8e87dc", "lat": 38.965594833333334, "lon": -77.01617216666666, "rental_uris": {"android": "https://dc.lft.to/lastmile_qr_scan", "ios": "https://dc.lft.to/lastmile_qr_scan"}, "is_disabled": 0, "fusion_lat": 0.0, "name": "79a16f65fbee696a2628ff87fa8e87dc", "fusion_lon": 0.0}, {"is_reserved": 0, "type": "electric_scooter", "bike_id": "db61f362111e86d02c115f2809481b9f", "lat": 38.908630333333335, "lon": -77.0458885, "rental_uris": {"android": "https://dc.lft.to/lastmile_qr_scan", "ios": "https://dc.lft.to/lastmile_qr_scan"}, "is_disabled": 0, "fusion_lat": 0.0, "name": "db61f362111e86d02c115f2809481b9f", "fusion_lon": 0.0}, {"is_reserved": 0, "type": "electric_scooter", "bike_id": "ade772063d012c0ebb180f875060f95b", "lat": 38.90034633333333, "lon": -76.987672, "rental_uris": {"android": "https://dc.lft.to/lastmile_qr_scan", "ios": "https://dc.lft.to/lastmile_qr_scan"}, "is_disabled": 0, "fusion_lat": 0.0, "name": "ade772063d012c0ebb180f875060f95b", "fusion_lon": 0.0}, {"is_reserved": 0, "type": "electric_scooter", "bike_id": "b467e7b619ae2e29d3a4968c11404d21", "lat": 38.89984783333333, "lon": -77.02192183333334, "rental_uris": {"android": "https://dc.lft.to/lastmile_qr_scan", "ios": "https://dc.lft.to/lastmile_qr_scan"}, "is_disabled": 0, "fusion_lat": 0.0, "name": "b467e7b619ae2e29d3a4968c11404d21", "fusion_lon": 0.0}, {"is_reserved": 0, "type": "electric_scooter", "bike_id": "05e18185da49f28737be8aa52b0e090a", "lat": 38.8805615, "lon": -77.02562983333333, "rental_uris": {"android": "https://dc.lft.to/lastmile_qr_scan", "ios": "https://dc.lft.to/lastmile_qr_scan"}, "is_disabled": 0, "fusion_lat": 0.0, "name": "05e18185da49f28737be8aa52b0e090a", "fusion_lon": 0.0}, {"is_reserved": 0, "type": "electric_scooter", "bike_id": "435b32704ba97a433afa382a0830c5c4", "lat": 38.928657, "lon": -77.03714416666666, "rental_uris": {"android": "https://dc.lft.to/lastmile_qr_scan", "ios": "https://dc.lft.to/lastmile_qr_scan"}, "is_disabled": 0, "fusion_lat": 0.0, "name": "435b32704ba97a433afa382a0830c5c4", "fusion_lon": 0.0}, {"is_reserved": 0, "type": "electric_bike", "bike_id": "28c89b2c5d18b5f408f3543a06f41ff4", "lat": 38.94801916666667, "lon": -76.9425075, "rental_uris": {"android": "https://dc.lft.to/lastmile_qr_scan", "ios": "https://dc.lft.to/lastmile_qr_scan"}, "is_disabled": 0, "fusion_lat": 0.0, "name": "28c89b2c5d18b5f408f3543a06f41ff4", "fusion_lon": 0.0}, {"is_reserved": 0, "type": "electric_bike", "bike_id": "e6f7e377a510c3b38b1586e437449449", "lat": 38.8056545, "lon": -77.13227616666667, "rental_uris": {"android": "https://dc.lft.to/lastmile_qr_scan", "ios": "https://dc.lft.to/lastmile_qr_scan"}, "is_disabled": 0, "fusion_lat": 0.0, "name": "e6f7e377a510c3b38b1586e437449449", "fusion_lon": 0.0}, {"is_reserved": 0, "type": "electric_scooter", "bike_id": "9923b789c1a9bc0a70e1b6d80a53da9a", "lat": 38.935077666666665, "lon": -77.0736035, "rental_uris": {"android": "https://dc.lft.to/lastmile_qr_scan", "ios": "https://dc.lft.to/lastmile_qr_scan"}, "is_disabled": 0, "fusion_lat": 0.0, "name": "9923b789c1a9bc0a70e1b6d80a53da9a", "fusion_lon": 0.0}, {"is_reserved": 0, "type": "electric_scooter", "bike_id": "5a2a84d26fb18ea60556faabda07916d", "lat": 38.9111685, "lon": -77.03831033333333, "rental_uris": {"android": "https://dc.lft.to/lastmile_qr_scan", "ios": "https://dc.lft.to/lastmile_qr_scan"}, "is_disabled": 0, "fusion_lat": 0.0, "name": "5a2a84d26fb18ea60556faabda07916d", "fusion_lon": 0.0}, {"is_reserved": 0, "type": "electric_scooter", "bike_id": "ce0922ff567818529d875b5cae468a3b", "lat": 38.886508, "lon": -76.99611216666666, "rental_uris": {"android": "https://dc.lft.to/lastmile_qr_scan", "ios": "https://dc.lft.to/lastmile_qr_scan"}, "is_disabled": 0, "fusion_lat": 0.0, "name": "ce0922ff567818529d875b5cae468a3b", "fusion_lon": 0.0}, {"is_reserved": 0, "type": "electric_scooter", "bike_id": "ca0c00f75423069cc01ad2f927184f76", "lat": 38.931116833333334, "lon": -77.020065, "rental_uris": {"android": "https://dc.lft.to/lastmile_qr_scan", "ios": "https://dc.lft.to/lastmile_qr_scan"}, "is_disabled": 0, "fusion_lat": 0.0, "name": "ca0c00f75423069cc01ad2f927184f76", "fusion_lon": 0.0}, {"is_reserved": 0, "type": "electric_scooter", "bike_id": "81cf72382c9a54f185b69ce14f55165f", "lat": 38.89937616666667, "lon": -77.00363133333333, "rental_uris": {"android": "https://dc.lft.to/lastmile_qr_scan", "ios": "https://dc.lft.to/lastmile_qr_scan"}, "is_disabled": 0, "fusion_lat": 0.0, "name": "81cf72382c9a54f185b69ce14f55165f", "fusion_lon": 0.0}, {"is_reserved": 0, "type": "electric_bike", "bike_id": "9d1eaa38ed5739af79066478da663b6b", "lat": 38.987181, "lon": -76.9458405, "rental_uris": {"android": "https://dc.lft.to/lastmile_qr_scan", "ios": "https://dc.lft.to/lastmile_qr_scan"}, "is_disabled": 0, "fusion_lat": 0.0, "name": "9d1eaa38ed5739af79066478da663b6b", "fusion_lon": 0.0}, {"is_reserved": 0, "type": "electric_scooter", "bike_id": "fce946e204a0897dd36db6d3b889c2a4", "lat": 38.913995, "lon": -77.043401, "rental_uris": {"android": "https://dc.lft.to/lastmile_qr_scan", "ios": "https://dc.lft.to/lastmile_qr_scan"}, "is_disabled": 0, "fusion_lat": 0.0, "name": "fce946e204a0897dd36db6d3b889c2a4", "fusion_lon": 0.0}, {"is_reserved": 0, "type": "electric_scooter", "bike_id": "a635e51a03c8df091f90c6de5b5146af", "lat": 38.913378, "lon": -77.04181216666667, "rental_uris": {"android": "https://dc.lft.to/lastmile_qr_scan", "ios": "https://dc.lft.to/lastmile_qr_scan"}, "is_disabled": 0, "fusion_lat": 0.0, "name": "a635e51a03c8df091f90c6de5b5146af", "fusion_lon": 0.0}, {"is_reserved": 0, "type": "electric_scooter", "bike_id": "cad260e95f17adbeca28cf545cbfbfb1", "lat": 38.92134333333333, "lon": -77.01821983333333, "rental_uris": {"android": "https://dc.lft.to/lastmile_qr_scan", "ios": "https://dc.lft.to/lastmile_qr_scan"}, "is_disabled": 0, "fusion_lat": 0.0, "name": "cad260e95f17adbeca28cf545cbfbfb1", "fusion_lon": 0.0}, {"is_reserved": 0, "type": "electric_scooter", "bike_id": "e4f3912e14be99b2a27a861e2cda9628", "lat": 38.91520666666667, "lon": -77.01327683333334, "rental_uris": {"android": "https://dc.lft.to/lastmile_qr_scan", "ios": "https://dc.lft.to/lastmile_qr_scan"}, "is_disabled": 0, "fusion_lat": 0.0, "name": "e4f3912e14be99b2a27a861e2cda9628", "fusion_lon": 0.0}, {"is_reserved": 0, "type": "electric_scooter", "bike_id": "a30b632566987c2de27213a09babdbdb", "lat": 38.92670016666667, "lon": -77.01509616666667, "rental_uris": {"android": "https://dc.lft.to/lastmile_qr_scan", "ios": "https://dc.lft.to/lastmile_qr_scan"}, "is_disabled": 0, "fusion_lat": 0.0, "name": "a30b632566987c2de27213a09babdbdb", "fusion_lon": 0.0}, {"is_reserved": 0, "type": "electric_scooter", "bike_id": "f6e450a9c454873e66001960607083e8", "lat": 38.876842333333336, "lon": -76.99627866666667, "rental_uris": {"android": "https://dc.lft.to/lastmile_qr_scan", "ios": "https://dc.lft.to/lastmile_qr_scan"}, "is_disabled": 0, "fusion_lat": 0.0, "name": "f6e450a9c454873e66001960607083e8", "fusion_lon": 0.0}, {"is_reserved": 0, "type": "electric_scooter", "bike_id": "0deac1f0c704dac82eafb305154381d0", "lat": 38.9001255, "lon": -77.01184816666667, "rental_uris": {"android": "https://dc.lft.to/lastmile_qr_scan", "ios": "https://dc.lft.to/lastmile_qr_scan"}, "is_disabled": 0, "fusion_lat": 0.0, "name": "0deac1f0c704dac82eafb305154381d0", "fusion_lon": 0.0}, {"is_reserved": 0, "type": "electric_scooter", "bike_id": "b07cf0600dde506dcb8a0c91eb08d781", "lat": 38.90486116666667, "lon": -77.068562, "rental_uris": {"android": "https://dc.lft.to/lastmile_qr_scan", "ios": "https://dc.lft.to/lastmile_qr_scan"}, "is_disabled": 0, "fusion_lat": 0.0, "name": "b07cf0600dde506dcb8a0c91eb08d781", "fusion_lon": 0.0}, {"is_reserved": 0, "type": "electric_scooter", "bike_id": "ec9f0e0c6adeec4bf830c4073562c62e", "lat": 38.93937416666667, "lon": -77.03683483333333, "rental_uris": {"android": "https://dc.lft.to/lastmile_qr_scan", "ios": "https://dc.lft.to/lastmile_qr_scan"}, "is_disabled": 0, "fusion_lat": 0.0, "name": "ec9f0e0c6adeec4bf830c4073562c62e", "fusion_lon": 0.0}, {"is_reserved": 0, "type": "electric_bike", "bike_id": "21f536e7a6d94c9c46d56b3aba544dfe", "lat": 38.895913666666665, "lon": -76.906945, "rental_uris": {"android": "https://dc.lft.to/lastmile_qr_scan", "ios": "https://dc.lft.to/lastmile_qr_scan"}, "is_disabled": 0, "fusion_lat": 0.0, "name": "21f536e7a6d94c9c46d56b3aba544dfe", "fusion_lon": 0.0}, {"is_reserved": 0, "type": "electric_scooter", "bike_id": "acd6b8bc4a61c93a5ee60a66e0fa1106", "lat": 38.865907, "lon": -76.97445416666666, "rental_uris": {"android": "https://dc.lft.to/lastmile_qr_scan", "ios": "https://dc.lft.to/lastmile_qr_scan"}, "is_disabled": 0, "fusion_lat": 0.0, "name": "acd6b8bc4a61c93a5ee60a66e0fa1106", "fusion_lon": 0.0}, {"is_reserved": 0, "type": "electric_scooter", "bike_id": "6e92230559f4e48823259b6712cd27d2", "lat": 38.91960733333333, "lon": -77.04359483333333, "rental_uris": {"android": "https://dc.lft.to/lastmile_qr_scan", "ios": "https://dc.lft.to/lastmile_qr_scan"}, "is_disabled": 0, "fusion_lat": 0.0, "name": "6e92230559f4e48823259b6712cd27d2", "fusion_lon": 0.0}, {"is_reserved": 0, "type": "electric_scooter", "bike_id": "8c5eb90072690b5a3346aa5180aff699", "lat": 38.86717733333333, "lon": -76.98072766666667, "rental_uris": {"android": "https://dc.lft.to/lastmile_qr_scan", "ios": "https://dc.lft.to/lastmile_qr_scan"}, "is_disabled": 0, "fusion_lat": 0.0, "name": "8c5eb90072690b5a3346aa5180aff699", "fusion_lon": 0.0}, {"is_reserved": 0, "type": "electric_scooter", "bike_id": "1ba9c31117bc9af7528aa309e40a7678", "lat": 38.919442333333336, "lon": -77.01878783333333, "rental_uris": {"android": "https://dc.lft.to/lastmile_qr_scan", "ios": "https://dc.lft.to/lastmile_qr_scan"}, "is_disabled": 0, "fusion_lat": 0.0, "name": "1ba9c31117bc9af7528aa309e40a7678", "fusion_lon": 0.0}, {"is_reserved": 0, "type": "electric_scooter", "bike_id": "a1c66ec939947192c2c2b4d2eb398f2f", "lat": 38.911081333333335, "lon": -77.0208365, "rental_uris": {"android": "https://dc.lft.to/lastmile_qr_scan", "ios": "https://dc.lft.to/lastmile_qr_scan"}, "is_disabled": 0, "fusion_lat": 0.0, "name": "a1c66ec939947192c2c2b4d2eb398f2f", "fusion_lon": 0.0}, {"is_reserved": 0, "type": "electric_scooter", "bike_id": "1fe6be2c4c8398102ef7246e9057b5fb", "lat": 38.897777166666664, "lon": -77.026973, "rental_uris": {"android": "https://dc.lft.to/lastmile_qr_scan", "ios": "https://dc.lft.to/lastmile_qr_scan"}, "is_disabled": 0, "fusion_lat": 0.0, "name": "1fe6be2c4c8398102ef7246e9057b5fb", "fusion_lon": 0.0}, {"is_reserved": 0, "type": "electric_scooter", "bike_id": "d28cde8e10d6a95d3357a789cc4dce06", "lat": 38.89219583333333, "lon": -77.0230965, "rental_uris": {"android": "https://dc.lft.to/lastmile_qr_scan", "ios": "https://dc.lft.to/lastmile_qr_scan"}, "is_disabled": 0, "fusion_lat": 0.0, "name": "d28cde8e10d6a95d3357a789cc4dce06", "fusion_lon": 0.0}, {"is_reserved": 0, "type": "electric_scooter", "bike_id": "3c9aa0e508efe1dd8b3ccfad05439287", "lat": 38.9064475, "lon": -77.01794466666666, "rental_uris": {"android": "https://dc.lft.to/lastmile_qr_scan", "ios": "https://dc.lft.to/lastmile_qr_scan"}, "is_disabled": 0, "fusion_lat": 0.0, "name": "3c9aa0e508efe1dd8b3ccfad05439287", "fusion_lon": 0.0}, {"is_reserved": 0, "type": "electric_scooter", "bike_id": "bd6a2ab3af9ed6231e02028a0b896011", "lat": 38.89814666666667, "lon": -76.99686533333333, "rental_uris": {"android": "https://dc.lft.to/lastmile_qr_scan", "ios": "https://dc.lft.to/lastmile_qr_scan"}, "is_disabled": 0, "fusion_lat": 0.0, "name": "bd6a2ab3af9ed6231e02028a0b896011", "fusion_lon": 0.0}, {"is_reserved": 0, "type": "electric_scooter", "bike_id": "1a27c612625ec9ade64d53ddd2615bb5", "lat": 38.88770783333333, "lon": -76.98324616666666, "rental_uris": {"android": "https://dc.lft.to/lastmile_qr_scan", "ios": "https://dc.lft.to/lastmile_qr_scan"}, "is_disabled": 0, "fusion_lat": 0.0, "name": "1a27c612625ec9ade64d53ddd2615bb5", "fusion_lon": 0.0}, {"is_reserved": 0, "type": "electric_scooter", "bike_id": "4369ef944efe58e66814de7edc9f94be", "lat": 38.892295, "lon": -77.02387783333333, "rental_uris": {"android": "https://dc.lft.to/lastmile_qr_scan", "ios": "https://dc.lft.to/lastmile_qr_scan"}, "is_disabled": 0, "fusion_lat": 0.0, "name": "4369ef944efe58e66814de7edc9f94be", "fusion_lon": 0.0}, {"is_reserved": 0, "type": "electric_scooter", "bike_id": "6f46e50d09f97b9233e5f6f192c1b6e4", "lat": 38.90950266666667, "lon": -77.03449266666667, "rental_uris": {"android": "https://dc.lft.to/lastmile_qr_scan", "ios": "https://dc.lft.to/lastmile_qr_scan"}, "is_disabled": 0, "fusion_lat": 0.0, "name": "6f46e50d09f97b9233e5f6f192c1b6e4", "fusion_lon": 0.0}, {"is_reserved": 0, "type": "electric_scooter", "bike_id": "f1e8686a55763c6dc5fe514b3df53e14", "lat": 38.91509966666667, "lon": -77.00345016666667, "rental_uris": {"android": "https://dc.lft.to/lastmile_qr_scan", "ios": "https://dc.lft.to/lastmile_qr_scan"}, "is_disabled": 0, "fusion_lat": 0.0, "name": "f1e8686a55763c6dc5fe514b3df53e14", "fusion_lon": 0.0}, {"is_reserved": 0, "type": "electric_scooter", "bike_id": "826afc06ebd8ed52b2843197e6e4dacc", "lat": 38.8987735, "lon": -77.0197505, "rental_uris": {"android": "https://dc.lft.to/lastmile_qr_scan", "ios": "https://dc.lft.to/lastmile_qr_scan"}, "is_disabled": 0, "fusion_lat": 0.0, "name": "826afc06ebd8ed52b2843197e6e4dacc", "fusion_lon": 0.0}, {"is_reserved": 0, "type": "electric_scooter", "bike_id": "5cb820280bbe84c432437ea3d7073b39", "lat": 38.90731233333333, "lon": -77.04493083333334, "rental_uris": {"android": "https://dc.lft.to/lastmile_qr_scan", "ios": "https://dc.lft.to/lastmile_qr_scan"}, "is_disabled": 0, "fusion_lat": 0.0, "name": "5cb820280bbe84c432437ea3d7073b39", "fusion_lon": 0.0}, {"is_reserved": 0, "type": "electric_scooter", "bike_id": "82383e93398ddb424dc71fcdbc78e95b", "lat": 38.91931066666667, "lon": -77.03214616666666, "rental_uris": {"android": "https://dc.lft.to/lastmile_qr_scan", "ios": "https://dc.lft.to/lastmile_qr_scan"}, "is_disabled": 0, "fusion_lat": 0.0, "name": "82383e93398ddb424dc71fcdbc78e95b", "fusion_lon": 0.0}, {"is_reserved": 0, "type": "electric_bike", "bike_id": "78a4b841c82b92f8527d037cc85556d2", "lat": 38.92834533333333, "lon": -77.06862533333333, "rental_uris": {"android": "https://dc.lft.to/lastmile_qr_scan", "ios": "https://dc.lft.to/lastmile_qr_scan"}, "is_disabled": 0, "fusion_lat": 0.0, "name": "78a4b841c82b92f8527d037cc85556d2", "fusion_lon": 0.0}, {"is_reserved": 0, "type": "electric_scooter", "bike_id": "423f73571697e07bc8988b8bba28ec27", "lat": 38.90723966666667, "lon": -77.047516, "rental_uris": {"android": "https://dc.lft.to/lastmile_qr_scan", "ios": "https://dc.lft.to/lastmile_qr_scan"}, "is_disabled": 0, "fusion_lat": 0.0, "name": "423f73571697e07bc8988b8bba28ec27", "fusion_lon": 0.0}, {"is_reserved": 0, "type": "electric_scooter", "bike_id": "40a4c818112be81fb361432c103cbd96", "lat": 38.918163, "lon": -77.03960766666667, "rental_uris": {"android": "https://dc.lft.to/lastmile_qr_scan", "ios": "https://dc.lft.to/lastmile_qr_scan"}, "is_disabled": 0, "fusion_lat": 0.0, "name": "40a4c818112be81fb361432c103cbd96", "fusion_lon": 0.0}, {"is_reserved": 0, "type": "electric_scooter", "bike_id": "fc4248043450f28c9b33c64a833c7b16", "lat": 38.92908533333333, "lon": -77.02191883333333, "rental_uris": {"android": "https://dc.lft.to/lastmile_qr_scan", "ios": "https://dc.lft.to/lastmile_qr_scan"}, "is_disabled": 0, "fusion_lat": 0.0, "name": "fc4248043450f28c9b33c64a833c7b16", "fusion_lon": 0.0}, {"is_reserved": 0, "type": "electric_scooter", "bike_id": "d0bbc38f1a850f3ef86419bc6cce1636", "lat": 38.90071016666667, "lon": -77.0453275, "rental_uris": {"android": "https://dc.lft.to/lastmile_qr_scan", "ios": "https://dc.lft.to/lastmile_qr_scan"}, "is_disabled": 0, "fusion_lat": 0.0, "name": "d0bbc38f1a850f3ef86419bc6cce1636", "fusion_lon": 0.0}, {"is_reserved": 0, "type": "electric_scooter", "bike_id": "b496e9671a9db63dcde16a9325973ebb", "lat": 38.8898985, "lon": -77.00148233333333, "rental_uris": {"android": "https://dc.lft.to/lastmile_qr_scan", "ios": "https://dc.lft.to/lastmile_qr_scan"}, "is_disabled": 0, "fusion_lat": 0.0, "name": "b496e9671a9db63dcde16a9325973ebb", "fusion_lon": 0.0}, {"is_reserved": 0, "type": "electric_scooter", "bike_id": "df587b5a3e7876b7913c2b105f4e3c63", "lat": 38.883833, "lon": -77.0460465, "rental_uris": {"android": "https://dc.lft.to/lastmile_qr_scan", "ios": "https://dc.lft.to/lastmile_qr_scan"}, "is_disabled": 0, "fusion_lat": 0.0, "name": "df587b5a3e7876b7913c2b105f4e3c63", "fusion_lon": 0.0}, {"is_reserved": 0, "type": "electric_bike", "bike_id": "db41bdc80f47121db36412b578b5bd1e", "lat": 38.974797833333334, "lon": -77.018196, "rental_uris": {"android": "https://dc.lft.to/lastmile_qr_scan", "ios": "https://dc.lft.to/lastmile_qr_scan"}, "is_disabled": 0, "fusion_lat": 0.0, "name": "db41bdc80f47121db36412b578b5bd1e", "fusion_lon": 0.0}, {"is_reserved": 0, "type": "electric_scooter", "bike_id": "0f197938389b1030b477b6d5d52ae15f", "lat": 38.898911166666664, "lon": -77.04084283333333, "rental_uris": {"android": "https://dc.lft.to/lastmile_qr_scan", "ios": "https://dc.lft.to/lastmile_qr_scan"}, "is_disabled": 0, "fusion_lat": 0.0, "name": "0f197938389b1030b477b6d5d52ae15f", "fusion_lon": 0.0}, {"is_reserved": 0, "type": "electric_scooter", "bike_id": "b84e352f58e7862ea48ece2e0562b1b7", "lat": 38.8708845, "lon": -77.0137605, "rental_uris": {"android": "https://dc.lft.to/lastmile_qr_scan", "ios": "https://dc.lft.to/lastmile_qr_scan"}, "is_disabled": 0, "fusion_lat": 0.0, "name": "b84e352f58e7862ea48ece2e0562b1b7", "fusion_lon": 0.0}, {"is_reserved": 0, "type": "electric_scooter", "bike_id": "da8e73b7dc6017d473048813c0cbb830", "lat": 38.90507516666667, "lon": -76.9918095, "rental_uris": {"android": "https://dc.lft.to/lastmile_qr_scan", "ios": "https://dc.lft.to/lastmile_qr_scan"}, "is_disabled": 0, "fusion_lat": 0.0, "name": "da8e73b7dc6017d473048813c0cbb830", "fusion_lon": 0.0}, {"is_reserved": 0, "type": "electric_scooter", "bike_id": "94902472ac0cff53b7ccc5d5581150bc", "lat": 38.928759666666664, "lon": -77.0334295, "rental_uris": {"android": "https://dc.lft.to/lastmile_qr_scan", "ios": "https://dc.lft.to/lastmile_qr_scan"}, "is_disabled": 0, "fusion_lat": 0.0, "name": "94902472ac0cff53b7ccc5d5581150bc", "fusion_lon": 0.0}, {"is_reserved": 0, "type": "electric_scooter", "bike_id": "ac1b01e52df4796814592ed05329bc3d", "lat": 38.9050155, "lon": -77.05684066666667, "rental_uris": {"android": "https://dc.lft.to/lastmile_qr_scan", "ios": "https://dc.lft.to/lastmile_qr_scan"}, "is_disabled": 0, "fusion_lat": 0.0, "name": "ac1b01e52df4796814592ed05329bc3d", "fusion_lon": 0.0}, {"is_reserved": 0, "type": "electric_scooter", "bike_id": "8466752b38deb72af7d73d2f8cdf8273", "lat": 38.8946315, "lon": -77.00341133333333, "rental_uris": {"android": "https://dc.lft.to/lastmile_qr_scan", "ios": "https://dc.lft.to/lastmile_qr_scan"}, "is_disabled": 0, "fusion_lat": 0.0, "name": "8466752b38deb72af7d73d2f8cdf8273", "fusion_lon": 0.0}, {"is_reserved": 0, "type": "electric_scooter", "bike_id": "3bcbc86e44cb109df477b326e2b9e817", "lat": 38.92105, "lon": -77.0301515, "rental_uris": {"android": "https://dc.lft.to/lastmile_qr_scan", "ios": "https://dc.lft.to/lastmile_qr_scan"}, "is_disabled": 0, "fusion_lat": 0.0, "name": "3bcbc86e44cb109df477b326e2b9e817", "fusion_lon": 0.0}, {"is_reserved": 0, "type": "electric_scooter", "bike_id": "22d60e4668f2bd1280f6f3396ec65a6d", "lat": 38.8972105, "lon": -77.02868166666667, "rental_uris": {"android": "https://dc.lft.to/lastmile_qr_scan", "ios": "https://dc.lft.to/lastmile_qr_scan"}, "is_disabled": 0, "fusion_lat": 0.0, "name": "22d60e4668f2bd1280f6f3396ec65a6d", "fusion_lon": 0.0}, {"is_reserved": 0, "type": "electric_scooter", "bike_id": "a76d15530ef8c9fc952c169aca63d02f", "lat": 38.920845666666665, "lon": -77.02301433333334, "rental_uris": {"android": "https://dc.lft.to/lastmile_qr_scan", "ios": "https://dc.lft.to/lastmile_qr_scan"}, "is_disabled": 0, "fusion_lat": 0.0, "name": "a76d15530ef8c9fc952c169aca63d02f", "fusion_lon": 0.0}, {"is_reserved": 0, "type": "electric_scooter", "bike_id": "5eb3253c919dec11883526964f8d9f15", "lat": 38.907954833333335, "lon": -77.01076266666666, "rental_uris": {"android": "https://dc.lft.to/lastmile_qr_scan", "ios": "https://dc.lft.to/lastmile_qr_scan"}, "is_disabled": 0, "fusion_lat": 0.0, "name": "5eb3253c919dec11883526964f8d9f15", "fusion_lon": 0.0}, {"is_reserved": 0, "type": "electric_scooter", "bike_id": "ba7ab68c76be075f82596db75a6b0857", "lat": 38.89548883333333, "lon": -77.01108266666667, "rental_uris": {"android": "https://dc.lft.to/lastmile_qr_scan", "ios": "https://dc.lft.to/lastmile_qr_scan"}, "is_disabled": 0, "fusion_lat": 0.0, "name": "ba7ab68c76be075f82596db75a6b0857", "fusion_lon": 0.0}, {"is_reserved": 0, "type": "electric_scooter", "bike_id": "d840634f59613cc653d6916987267a95", "lat": 38.94514016666667, "lon": -77.0336375, "rental_uris": {"android": "https://dc.lft.to/lastmile_qr_scan", "ios": "https://dc.lft.to/lastmile_qr_scan"}, "is_disabled": 0, "fusion_lat": 0.0, "name": "d840634f59613cc653d6916987267a95", "fusion_lon": 0.0}, {"is_reserved": 0, "type": "electric_scooter", "bike_id": "4378ecc66691acbaced738ceadf37159", "lat": 38.91804716666667, "lon": -77.02494433333334, "rental_uris": {"android": "https://dc.lft.to/lastmile_qr_scan", "ios": "https://dc.lft.to/lastmile_qr_scan"}, "is_disabled": 0, "fusion_lat": 0.0, "name": "4378ecc66691acbaced738ceadf37159", "fusion_lon": 0.0}, {"is_reserved": 0, "type": "electric_scooter", "bike_id": "1e99b649e600fa7ac0566aa64e8c8247", "lat": 38.91015066666667, "lon": -77.04464133333333, "rental_uris": {"android": "https://dc.lft.to/lastmile_qr_scan", "ios": "https://dc.lft.to/lastmile_qr_scan"}, "is_disabled": 0, "fusion_lat": 0.0, "name": "1e99b649e600fa7ac0566aa64e8c8247", "fusion_lon": 0.0}, {"is_reserved": 0, "type": "electric_bike", "bike_id": "f8ed7d597ff8c97393a8ee1aa0edeaae", "lat": 38.836799166666665, "lon": -77.04995466666666, "rental_uris": {"android": "https://dc.lft.to/lastmile_qr_scan", "ios": "https://dc.lft.to/lastmile_qr_scan"}, "is_disabled": 0, "fusion_lat": 0.0, "name": "f8ed7d597ff8c97393a8ee1aa0edeaae", "fusion_lon": 0.0}, {"is_reserved": 0, "type": "electric_scooter", "bike_id": "061f68b98dcab67a0ea4cc4e1fb0870c", "lat": 38.89489533333333, "lon": -77.0499345, "rental_uris": {"android": "https://dc.lft.to/lastmile_qr_scan", "ios": "https://dc.lft.to/lastmile_qr_scan"}, "is_disabled": 0, "fusion_lat": 0.0, "name": "061f68b98dcab67a0ea4cc4e1fb0870c", "fusion_lon": 0.0}, {"is_reserved": 0, "type": "electric_scooter", "bike_id": "d30b8704a4d1a579c5f6a120e7ae45da", "lat": 38.88532816666667, "lon": -77.02199483333334, "rental_uris": {"android": "https://dc.lft.to/lastmile_qr_scan", "ios": "https://dc.lft.to/lastmile_qr_scan"}, "is_disabled": 0, "fusion_lat": 0.0, "name": "d30b8704a4d1a579c5f6a120e7ae45da", "fusion_lon": 0.0}, {"is_reserved": 0, "type": "electric_scooter", "bike_id": "4825dac115fe6fb80d121ea8527cad67", "lat": 38.925806666666666, "lon": -77.02943316666666, "rental_uris": {"android": "https://dc.lft.to/lastmile_qr_scan", "ios": "https://dc.lft.to/lastmile_qr_scan"}, "is_disabled": 0, "fusion_lat": 0.0, "name": "4825dac115fe6fb80d121ea8527cad67", "fusion_lon": 0.0}, {"is_reserved": 0, "type": "electric_scooter", "bike_id": "161e579ad7a1dfe29ab1a7cfb02cadec", "lat": 38.91630166666667, "lon": -77.00760833333334, "rental_uris": {"android": "https://dc.lft.to/lastmile_qr_scan", "ios": "https://dc.lft.to/lastmile_qr_scan"}, "is_disabled": 0, "fusion_lat": 0.0, "name": "161e579ad7a1dfe29ab1a7cfb02cadec", "fusion_lon": 0.0}, {"is_reserved": 0, "type": "electric_scooter", "bike_id": "6f6cff134bb1a764a9a068bbdfb340a5", "lat": 38.89392183333333, "lon": -77.02253366666666, "rental_uris": {"android": "https://dc.lft.to/lastmile_qr_scan", "ios": "https://dc.lft.to/lastmile_qr_scan"}, "is_disabled": 0, "fusion_lat": 0.0, "name": "6f6cff134bb1a764a9a068bbdfb340a5", "fusion_lon": 0.0}, {"is_reserved": 0, "type": "electric_scooter", "bike_id": "0bdff4bea412d80449fef80f73855dd2", "lat": 38.916648333333335, "lon": -77.03850866666667, "rental_uris": {"android": "https://dc.lft.to/lastmile_qr_scan", "ios": "https://dc.lft.to/lastmile_qr_scan"}, "is_disabled": 0, "fusion_lat": 0.0, "name": "0bdff4bea412d80449fef80f73855dd2", "fusion_lon": 0.0}, {"is_reserved": 0, "type": "electric_scooter", "bike_id": "e6dabeecc61d5d676c612cf9d11408d2", "lat": 38.922740166666664, "lon": -77.03668066666667, "rental_uris": {"android": "https://dc.lft.to/lastmile_qr_scan", "ios": "https://dc.lft.to/lastmile_qr_scan"}, "is_disabled": 0, "fusion_lat": 0.0, "name": "e6dabeecc61d5d676c612cf9d11408d2", "fusion_lon": 0.0}, {"is_reserved": 0, "type": "electric_scooter", "bike_id": "b80ef29ab0c5212935896455a7ec2661", "lat": 38.90027216666667, "lon": -76.988602, "rental_uris": {"android": "https://dc.lft.to/lastmile_qr_scan", "ios": "https://dc.lft.to/lastmile_qr_scan"}, "is_disabled": 0, "fusion_lat": 0.0, "name": "b80ef29ab0c5212935896455a7ec2661", "fusion_lon": 0.0}, {"is_reserved": 0, "type": "electric_scooter", "bike_id": "deef9e6fff49ba3b1ef680d6514932b7", "lat": 38.901010166666666, "lon": -77.01616766666666, "rental_uris": {"android": "https://dc.lft.to/lastmile_qr_scan", "ios": "https://dc.lft.to/lastmile_qr_scan"}, "is_disabled": 0, "fusion_lat": 0.0, "name": "deef9e6fff49ba3b1ef680d6514932b7", "fusion_lon": 0.0}, {"is_reserved": 0, "type": "electric_scooter", "bike_id": "083e4945132a8033b53f5c732b5e633e", "lat": 38.93522516666667, "lon": -77.01954066666667, "rental_uris": {"android": "https://dc.lft.to/lastmile_qr_scan", "ios": "https://dc.lft.to/lastmile_qr_scan"}, "is_disabled": 0, "fusion_lat": 0.0, "name": "083e4945132a8033b53f5c732b5e633e", "fusion_lon": 0.0}, {"is_reserved": 0, "type": "electric_scooter", "bike_id": "f49051847eab9be2c543fe5cc572e194", "lat": 38.893089333333336, "lon": -77.022057, "rental_uris": {"android": "https://dc.lft.to/lastmile_qr_scan", "ios": "https://dc.lft.to/lastmile_qr_scan"}, "is_disabled": 0, "fusion_lat": 0.0, "name": "f49051847eab9be2c543fe5cc572e194", "fusion_lon": 0.0}, {"is_reserved": 0, "type": "electric_scooter", "bike_id": "5dc49e55b7256cc1056872b9ea47336d", "lat": 38.92576016666667, "lon": -77.0309755, "rental_uris": {"android": "https://dc.lft.to/lastmile_qr_scan", "ios": "https://dc.lft.to/lastmile_qr_scan"}, "is_disabled": 0, "fusion_lat": 0.0, "name": "5dc49e55b7256cc1056872b9ea47336d", "fusion_lon": 0.0}, {"is_reserved": 0, "type": "electric_scooter", "bike_id": "385b8cefd698abc210c79c5fc4f48dd9", "lat": 38.919928666666664, "lon": -77.00929716666667, "rental_uris": {"android": "https://dc.lft.to/lastmile_qr_scan", "ios": "https://dc.lft.to/lastmile_qr_scan"}, "is_disabled": 0, "fusion_lat": 0.0, "name": "385b8cefd698abc210c79c5fc4f48dd9", "fusion_lon": 0.0}, {"is_reserved": 0, "type": "electric_scooter", "bike_id": "38c7c1491cbef9c8aa70d6f5ecfffe8e", "lat": 38.909583833333336, "lon": -77.03628666666667, "rental_uris": {"android": "https://dc.lft.to/lastmile_qr_scan", "ios": "https://dc.lft.to/lastmile_qr_scan"}, "is_disabled": 0, "fusion_lat": 0.0, "name": "38c7c1491cbef9c8aa70d6f5ecfffe8e", "fusion_lon": 0.0}, {"is_reserved": 0, "type": "electric_scooter", "bike_id": "9d3417fd6a31da9374b3071f201a3b58", "lat": 38.906871333333335, "lon": -77.06251083333333, "rental_uris": {"android": "https://dc.lft.to/lastmile_qr_scan", "ios": "https://dc.lft.to/lastmile_qr_scan"}, "is_disabled": 0, "fusion_lat": 0.0, "name": "9d3417fd6a31da9374b3071f201a3b58", "fusion_lon": 0.0}, {"is_reserved": 0, "type": "electric_scooter", "bike_id": "15840e8dcc26bfbb0855dbe49575c8a6", "lat": 38.91609, "lon": -77.0121525, "rental_uris": {"android": "https://dc.lft.to/lastmile_qr_scan", "ios": "https://dc.lft.to/lastmile_qr_scan"}, "is_disabled": 0, "fusion_lat": 0.0, "name": "15840e8dcc26bfbb0855dbe49575c8a6", "fusion_lon": 0.0}, {"is_reserved": 0, "type": "electric_scooter", "bike_id": "aecf4c2088de2066af4d8035e2ef5585", "lat": 38.907512833333335, "lon": -77.0415315, "rental_uris": {"android": "https://dc.lft.to/lastmile_qr_scan", "ios": "https://dc.lft.to/lastmile_qr_scan"}, "is_disabled": 0, "fusion_lat": 0.0, "name": "aecf4c2088de2066af4d8035e2ef5585", "fusion_lon": 0.0}, {"is_reserved": 0, "type": "electric_scooter", "bike_id": "cf0f05d81fa3a1f220428f0031d86f20", "lat": 38.91418483333333, "lon": -77.01412983333333, "rental_uris": {"android": "https://dc.lft.to/lastmile_qr_scan", "ios": "https://dc.lft.to/lastmile_qr_scan"}, "is_disabled": 0, "fusion_lat": 0.0, "name": "cf0f05d81fa3a1f220428f0031d86f20", "fusion_lon": 0.0}, {"is_reserved": 0, "type": "electric_scooter", "bike_id": "b7d7556e938badb21067d62fa0b35a11", "lat": 38.872877, "lon": -77.0162525, "rental_uris": {"android": "https://dc.lft.to/lastmile_qr_scan", "ios": "https://dc.lft.to/lastmile_qr_scan"}, "is_disabled": 0, "fusion_lat": 0.0, "name": "b7d7556e938badb21067d62fa0b35a11", "fusion_lon": 0.0}, {"is_reserved": 0, "type": "electric_bike", "bike_id": "c6899098bc5ad3513d0de1c6bb99159c", "lat": 38.80865716666667, "lon": -77.11257016666667, "rental_uris": {"android": "https://dc.lft.to/lastmile_qr_scan", "ios": "https://dc.lft.to/lastmile_qr_scan"}, "is_disabled": 0, "fusion_lat": 0.0, "name": "c6899098bc5ad3513d0de1c6bb99159c", "fusion_lon": 0.0}, {"is_reserved": 0, "type": "electric_bike", "bike_id": "fe93d084cca9835177525d4c81f49556", "lat": 38.95206116666667, "lon": -76.9658975, "rental_uris": {"android": "https://dc.lft.to/lastmile_qr_scan", "ios": "https://dc.lft.to/lastmile_qr_scan"}, "is_disabled": 0, "fusion_lat": 0.0, "name": "fe93d084cca9835177525d4c81f49556", "fusion_lon": 0.0}, {"is_reserved": 0, "type": "electric_scooter", "bike_id": "106d6d33c55fad0cae3b0c1790bcbbf1", "lat": 38.9008915, "lon": -77.05738133333334, "rental_uris": {"android": "https://dc.lft.to/lastmile_qr_scan", "ios": "https://dc.lft.to/lastmile_qr_scan"}, "is_disabled": 0, "fusion_lat": 0.0, "name": "106d6d33c55fad0cae3b0c1790bcbbf1", "fusion_lon": 0.0}, {"is_reserved": 0, "type": "electric_scooter", "bike_id": "fc8b9d98c3d5b259a9123134cc571772", "lat": 38.90112966666667, "lon": -77.03657416666667, "rental_uris": {"android": "https://dc.lft.to/lastmile_qr_scan", "ios": "https://dc.lft.to/lastmile_qr_scan"}, "is_disabled": 0, "fusion_lat": 0.0, "name": "fc8b9d98c3d5b259a9123134cc571772", "fusion_lon": 0.0}, {"is_reserved": 0, "type": "electric_scooter", "bike_id": "c1f0033b2fed6a7bb3990e9b018c5d47", "lat": 38.9020305, "lon": -77.02207083333333, "rental_uris": {"android": "https://dc.lft.to/lastmile_qr_scan", "ios": "https://dc.lft.to/lastmile_qr_scan"}, "is_disabled": 0, "fusion_lat": 0.0, "name": "c1f0033b2fed6a7bb3990e9b018c5d47", "fusion_lon": 0.0}, {"is_reserved": 0, "type": "electric_bike", "bike_id": "3c9556f8c462fa7eb1b06f80b9fc1031", "lat": 38.9951775, "lon": -77.07469416666666, "rental_uris": {"android": "https://dc.lft.to/lastmile_qr_scan", "ios": "https://dc.lft.to/lastmile_qr_scan"}, "is_disabled": 0, "fusion_lat": 0.0, "name": "3c9556f8c462fa7eb1b06f80b9fc1031", "fusion_lon": 0.0}, {"is_reserved": 0, "type": "electric_scooter", "bike_id": "56a8aff5d4faaf5206ccc67f02794ddc", "lat": 38.917287333333334, "lon": -77.00205916666667, "rental_uris": {"android": "https://dc.lft.to/lastmile_qr_scan", "ios": "https://dc.lft.to/lastmile_qr_scan"}, "is_disabled": 0, "fusion_lat": 0.0, "name": "56a8aff5d4faaf5206ccc67f02794ddc", "fusion_lon": 0.0}, {"is_reserved": 0, "type": "electric_scooter", "bike_id": "17a5037fe4618f8ce34fa1fa582c6049", "lat": 38.9239765, "lon": -77.05056933333333, "rental_uris": {"android": "https://dc.lft.to/lastmile_qr_scan", "ios": "https://dc.lft.to/lastmile_qr_scan"}, "is_disabled": 0, "fusion_lat": 0.0, "name": "17a5037fe4618f8ce34fa1fa582c6049", "fusion_lon": 0.0}, {"is_reserved": 0, "type": "electric_scooter", "bike_id": "192720f79ab58c82bb37c0440ebb3036", "lat": 38.9262195, "lon": -77.0394615, "rental_uris": {"android": "https://dc.lft.to/lastmile_qr_scan", "ios": "https://dc.lft.to/lastmile_qr_scan"}, "is_disabled": 0, "fusion_lat": 0.0, "name": "192720f79ab58c82bb37c0440ebb3036", "fusion_lon": 0.0}, {"is_reserved": 0, "type": "electric_scooter", "bike_id": "b31f7abcb8351cdbe5400c1d167f3037", "lat": 38.9526765, "lon": -77.0239555, "rental_uris": {"android": "https://dc.lft.to/lastmile_qr_scan", "ios": "https://dc.lft.to/lastmile_qr_scan"}, "is_disabled": 0, "fusion_lat": 0.0, "name": "b31f7abcb8351cdbe5400c1d167f3037", "fusion_lon": 0.0}, {"is_reserved": 0, "type": "electric_scooter", "bike_id": "c747b56deb5bbab4592058beb5d0751c", "lat": 38.91185083333333, "lon": -77.00448583333333, "rental_uris": {"android": "https://dc.lft.to/lastmile_qr_scan", "ios": "https://dc.lft.to/lastmile_qr_scan"}, "is_disabled": 0, "fusion_lat": 0.0, "name": "c747b56deb5bbab4592058beb5d0751c", "fusion_lon": 0.0}, {"is_reserved": 0, "type": "electric_scooter", "bike_id": "a5097a4099b1bafaf3d70a35874c61fc", "lat": 38.9518305, "lon": -77.0261245, "rental_uris": {"android": "https://dc.lft.to/lastmile_qr_scan", "ios": "https://dc.lft.to/lastmile_qr_scan"}, "is_disabled": 0, "fusion_lat": 0.0, "name": "a5097a4099b1bafaf3d70a35874c61fc", "fusion_lon": 0.0}, {"is_reserved": 0, "type": "electric_scooter", "bike_id": "81ffa12569a3200cf509f0974ef171ed", "lat": 38.905613333333335, "lon": -77.00596366666667, "rental_uris": {"android": "https://dc.lft.to/lastmile_qr_scan", "ios": "https://dc.lft.to/lastmile_qr_scan"}, "is_disabled": 0, "fusion_lat": 0.0, "name": "81ffa12569a3200cf509f0974ef171ed", "fusion_lon": 0.0}, {"is_reserved": 0, "type": "electric_scooter", "bike_id": "d7eb5d4caf71127b2d4060f4955742a5", "lat": 38.872036666666666, "lon": -77.0155305, "rental_uris": {"android": "https://dc.lft.to/lastmile_qr_scan", "ios": "https://dc.lft.to/lastmile_qr_scan"}, "is_disabled": 0, "fusion_lat": 0.0, "name": "d7eb5d4caf71127b2d4060f4955742a5", "fusion_lon": 0.0}, {"is_reserved": 0, "type": "electric_scooter", "bike_id": "d784ecc13712f84313a7732ee0d8fa31", "lat": 38.9242825, "lon": -77.02262883333333, "rental_uris": {"android": "https://dc.lft.to/lastmile_qr_scan", "ios": "https://dc.lft.to/lastmile_qr_scan"}, "is_disabled": 0, "fusion_lat": 0.0, "name": "d784ecc13712f84313a7732ee0d8fa31", "fusion_lon": 0.0}, {"is_reserved": 0, "type": "electric_scooter", "bike_id": "ce373f4b797267b054249a4295408df7", "lat": 38.899104666666666, "lon": -77.00357816666667, "rental_uris": {"android": "https://dc.lft.to/lastmile_qr_scan", "ios": "https://dc.lft.to/lastmile_qr_scan"}, "is_disabled": 0, "fusion_lat": 0.0, "name": "ce373f4b797267b054249a4295408df7", "fusion_lon": 0.0}, {"is_reserved": 0, "type": "electric_scooter", "bike_id": "6ddd3e00a157ddff95f163cb4c05dc1d", "lat": 38.90687916666667, "lon": -77.06281466666667, "rental_uris": {"android": "https://dc.lft.to/lastmile_qr_scan", "ios": "https://dc.lft.to/lastmile_qr_scan"}, "is_disabled": 0, "fusion_lat": 0.0, "name": "6ddd3e00a157ddff95f163cb4c05dc1d", "fusion_lon": 0.0}, {"is_reserved": 0, "type": "electric_scooter", "bike_id": "72e1bf3e984fef12de65cdf8f64ce49d", "lat": 38.922482333333335, "lon": -77.02885366666666, "rental_uris": {"android": "https://dc.lft.to/lastmile_qr_scan", "ios": "https://dc.lft.to/lastmile_qr_scan"}, "is_disabled": 0, "fusion_lat": 0.0, "name": "72e1bf3e984fef12de65cdf8f64ce49d", "fusion_lon": 0.0}, {"is_reserved": 0, "type": "electric_scooter", "bike_id": "eac74bdb6743d82fd6068dcad84ec438", "lat": 38.901782, "lon": -76.92891683333333, "rental_uris": {"android": "https://dc.lft.to/lastmile_qr_scan", "ios": "https://dc.lft.to/lastmile_qr_scan"}, "is_disabled": 0, "fusion_lat": 0.0, "name": "eac74bdb6743d82fd6068dcad84ec438", "fusion_lon": 0.0}, {"is_reserved": 0, "type": "electric_scooter", "bike_id": "28162c7575f68e5e99a0e8ca43c896a0", "lat": 38.90025416666667, "lon": -76.99606333333334, "rental_uris": {"android": "https://dc.lft.to/lastmile_qr_scan", "ios": "https://dc.lft.to/lastmile_qr_scan"}, "is_disabled": 0, "fusion_lat": 0.0, "name": "28162c7575f68e5e99a0e8ca43c896a0", "fusion_lon": 0.0}, {"is_reserved": 0, "type": "electric_scooter", "bike_id": "e53eaae04483626ab155094366f510fd", "lat": 38.9055685, "lon": -77.05698666666666, "rental_uris": {"android": "https://dc.lft.to/lastmile_qr_scan", "ios": "https://dc.lft.to/lastmile_qr_scan"}, "is_disabled": 0, "fusion_lat": 0.0, "name": "e53eaae04483626ab155094366f510fd", "fusion_lon": 0.0}, {"is_reserved": 0, "type": "electric_bike", "bike_id": "7263f545e7025ece8ff0044633f011a3", "lat": 38.807336666666664, "lon": -76.99257983333334, "rental_uris": {"android": "https://dc.lft.to/lastmile_qr_scan", "ios": "https://dc.lft.to/lastmile_qr_scan"}, "is_disabled": 0, "fusion_lat": 0.0, "name": "7263f545e7025ece8ff0044633f011a3", "fusion_lon": 0.0}, {"is_reserved": 0, "type": "electric_scooter", "bike_id": "458a8cfc64300400ed08e93d94be3346", "lat": 38.89709233333333, "lon": -77.05365183333333, "rental_uris": {"android": "https://dc.lft.to/lastmile_qr_scan", "ios": "https://dc.lft.to/lastmile_qr_scan"}, "is_disabled": 0, "fusion_lat": 0.0, "name": "458a8cfc64300400ed08e93d94be3346", "fusion_lon": 0.0}, {"is_reserved": 0, "type": "electric_scooter", "bike_id": "7d4bc60bd39769abc39a235731aeae85", "lat": 38.923515, "lon": -77.03346433333333, "rental_uris": {"android": "https://dc.lft.to/lastmile_qr_scan", "ios": "https://dc.lft.to/lastmile_qr_scan"}, "is_disabled": 0, "fusion_lat": 0.0, "name": "7d4bc60bd39769abc39a235731aeae85", "fusion_lon": 0.0}, {"is_reserved": 0, "type": "electric_scooter", "bike_id": "f60e7974447799f88507ed22f13b827b", "lat": 38.897341833333336, "lon": -77.04853516666667, "rental_uris": {"android": "https://dc.lft.to/lastmile_qr_scan", "ios": "https://dc.lft.to/lastmile_qr_scan"}, "is_disabled": 0, "fusion_lat": 0.0, "name": "f60e7974447799f88507ed22f13b827b", "fusion_lon": 0.0}, {"is_reserved": 0, "type": "electric_scooter", "bike_id": "821a8f1a589ef1df81a74538eb1e81da", "lat": 38.926627333333336, "lon": -77.02369383333334, "rental_uris": {"android": "https://dc.lft.to/lastmile_qr_scan", "ios": "https://dc.lft.to/lastmile_qr_scan"}, "is_disabled": 0, "fusion_lat": 0.0, "name": "821a8f1a589ef1df81a74538eb1e81da", "fusion_lon": 0.0}, {"is_reserved": 0, "type": "electric_scooter", "bike_id": "7e47f82cb12bbec8638ab09c8a7d1ef7", "lat": 38.90369883333334, "lon": -77.03140516666667, "rental_uris": {"android": "https://dc.lft.to/lastmile_qr_scan", "ios": "https://dc.lft.to/lastmile_qr_scan"}, "is_disabled": 0, "fusion_lat": 0.0, "name": "7e47f82cb12bbec8638ab09c8a7d1ef7", "fusion_lon": 0.0}, {"is_reserved": 0, "type": "electric_scooter", "bike_id": "db914931fc96b7f3d313780b75eb8ec8", "lat": 38.921025666666665, "lon": -77.03176083333334, "rental_uris": {"android": "https://dc.lft.to/lastmile_qr_scan", "ios": "https://dc.lft.to/lastmile_qr_scan"}, "is_disabled": 0, "fusion_lat": 0.0, "name": "db914931fc96b7f3d313780b75eb8ec8", "fusion_lon": 0.0}, {"is_reserved": 0, "type": "electric_bike", "bike_id": "30224ac27389d47147dc815fb1f41d3f", "lat": 38.784019, "lon": -77.1208445, "rental_uris": {"android": "https://dc.lft.to/lastmile_qr_scan", "ios": "https://dc.lft.to/lastmile_qr_scan"}, "is_disabled": 0, "fusion_lat": 0.0, "name": "30224ac27389d47147dc815fb1f41d3f", "fusion_lon": 0.0}, {"is_reserved": 0, "type": "electric_scooter", "bike_id": "7a3a2fcd032eaed5c066792f66c38c30", "lat": 38.892262333333335, "lon": -77.03218933333333, "rental_uris": {"android": "https://dc.lft.to/lastmile_qr_scan", "ios": "https://dc.lft.to/lastmile_qr_scan"}, "is_disabled": 0, "fusion_lat": 0.0, "name": "7a3a2fcd032eaed5c066792f66c38c30", "fusion_lon": 0.0}, {"is_reserved": 0, "type": "electric_scooter", "bike_id": "05fa4d31fa6111795bda62f19110d0a2", "lat": 38.960952666666664, "lon": -77.033876, "rental_uris": {"android": "https://dc.lft.to/lastmile_qr_scan", "ios": "https://dc.lft.to/lastmile_qr_scan"}, "is_disabled": 0, "fusion_lat": 0.0, "name": "05fa4d31fa6111795bda62f19110d0a2", "fusion_lon": 0.0}, {"is_reserved": 0, "type": "electric_scooter", "bike_id": "81133c440c74b12c225e383d9475adf8", "lat": 38.903882833333334, "lon": -77.0539085, "rental_uris": {"android": "https://dc.lft.to/lastmile_qr_scan", "ios": "https://dc.lft.to/lastmile_qr_scan"}, "is_disabled": 0, "fusion_lat": 0.0, "name": "81133c440c74b12c225e383d9475adf8", "fusion_lon": 0.0}, {"is_reserved": 0, "type": "electric_scooter", "bike_id": "04c2c056ead222976784b454aaa7e386", "lat": 38.8995055, "lon": -76.98198633333334, "rental_uris": {"android": "https://dc.lft.to/lastmile_qr_scan", "ios": "https://dc.lft.to/lastmile_qr_scan"}, "is_disabled": 0, "fusion_lat": 0.0, "name": "04c2c056ead222976784b454aaa7e386", "fusion_lon": 0.0}, {"is_reserved": 0, "type": "electric_scooter", "bike_id": "a5a39000f5bb8f1a674ed72d6e8ca33d", "lat": 38.8955285, "lon": -77.01086366666667, "rental_uris": {"android": "https://dc.lft.to/lastmile_qr_scan", "ios": "https://dc.lft.to/lastmile_qr_scan"}, "is_disabled": 0, "fusion_lat": 0.0, "name": "a5a39000f5bb8f1a674ed72d6e8ca33d", "fusion_lon": 0.0}, {"is_reserved": 0, "type": "electric_scooter", "bike_id": "f28b28f91d1f2119cd38ad0acee93488", "lat": 38.9180145, "lon": -77.01216033333333, "rental_uris": {"android": "https://dc.lft.to/lastmile_qr_scan", "ios": "https://dc.lft.to/lastmile_qr_scan"}, "is_disabled": 0, "fusion_lat": 0.0, "name": "f28b28f91d1f2119cd38ad0acee93488", "fusion_lon": 0.0}, {"is_reserved": 0, "type": "electric_scooter", "bike_id": "6aea1d114e8760b1e6dc1c179c15d42c", "lat": 38.9269435, "lon": -77.0229525, "rental_uris": {"android": "https://dc.lft.to/lastmile_qr_scan", "ios": "https://dc.lft.to/lastmile_qr_scan"}, "is_disabled": 0, "fusion_lat": 0.0, "name": "6aea1d114e8760b1e6dc1c179c15d42c", "fusion_lon": 0.0}, {"is_reserved": 0, "type": "electric_scooter", "bike_id": "b319e08c618bc6968b37e0cc8088a164", "lat": 38.883289, "lon": -77.00943766666667, "rental_uris": {"android": "https://dc.lft.to/lastmile_qr_scan", "ios": "https://dc.lft.to/lastmile_qr_scan"}, "is_disabled": 0, "fusion_lat": 0.0, "name": "b319e08c618bc6968b37e0cc8088a164", "fusion_lon": 0.0}, {"is_reserved": 0, "type": "electric_scooter", "bike_id": "1b769e79ec44852e68349f3ecc98c91c", "lat": 38.90586966666667, "lon": -77.05575266666666, "rental_uris": {"android": "https://dc.lft.to/lastmile_qr_scan", "ios": "https://dc.lft.to/lastmile_qr_scan"}, "is_disabled": 0, "fusion_lat": 0.0, "name": "1b769e79ec44852e68349f3ecc98c91c", "fusion_lon": 0.0}, {"is_reserved": 0, "type": "electric_scooter", "bike_id": "deda2ff730a67f0e57105bf05267d634", "lat": 38.940998, "lon": -77.07741116666666, "rental_uris": {"android": "https://dc.lft.to/lastmile_qr_scan", "ios": "https://dc.lft.to/lastmile_qr_scan"}, "is_disabled": 0, "fusion_lat": 0.0, "name": "deda2ff730a67f0e57105bf05267d634", "fusion_lon": 0.0}, {"is_reserved": 0, "type": "electric_scooter", "bike_id": "ddb2f48e5d5abb4057e33b8acce34ee2", "lat": 38.909596666666665, "lon": -77.03421816666666, "rental_uris": {"android": "https://dc.lft.to/lastmile_qr_scan", "ios": "https://dc.lft.to/lastmile_qr_scan"}, "is_disabled": 0, "fusion_lat": 0.0, "name": "ddb2f48e5d5abb4057e33b8acce34ee2", "fusion_lon": 0.0}, {"is_reserved": 0, "type": "electric_scooter", "bike_id": "abec37b5166299b2ec8dfcf713ab13f0", "lat": 38.90905933333333, "lon": -76.99617416666666, "rental_uris": {"android": "https://dc.lft.to/lastmile_qr_scan", "ios": "https://dc.lft.to/lastmile_qr_scan"}, "is_disabled": 0, "fusion_lat": 0.0, "name": "abec37b5166299b2ec8dfcf713ab13f0", "fusion_lon": 0.0}, {"is_reserved": 0, "type": "electric_scooter", "bike_id": "7c888fd45aa70a6975936c581e468386", "lat": 38.880553166666665, "lon": -77.02485216666666, "rental_uris": {"android": "https://dc.lft.to/lastmile_qr_scan", "ios": "https://dc.lft.to/lastmile_qr_scan"}, "is_disabled": 0, "fusion_lat": 0.0, "name": "7c888fd45aa70a6975936c581e468386", "fusion_lon": 0.0}, {"is_reserved": 0, "type": "electric_scooter", "bike_id": "10fb7e4656af1ed34de62bcf0cb38c91", "lat": 38.9263835, "lon": -77.042464, "rental_uris": {"android": "https://dc.lft.to/lastmile_qr_scan", "ios": "https://dc.lft.to/lastmile_qr_scan"}, "is_disabled": 0, "fusion_lat": 0.0, "name": "10fb7e4656af1ed34de62bcf0cb38c91", "fusion_lon": 0.0}, {"is_reserved": 0, "type": "electric_scooter", "bike_id": "022e17d4f0e5ec6323fc0fea9719bf2a", "lat": 38.94329366666667, "lon": -77.01256716666667, "rental_uris": {"android": "https://dc.lft.to/lastmile_qr_scan", "ios": "https://dc.lft.to/lastmile_qr_scan"}, "is_disabled": 0, "fusion_lat": 0.0, "name": "022e17d4f0e5ec6323fc0fea9719bf2a", "fusion_lon": 0.0}, {"is_reserved": 0, "type": "electric_scooter", "bike_id": "7b12c7401223985d14ded17d8acea935", "lat": 38.930392833333336, "lon": -77.05539133333333, "rental_uris": {"android": "https://dc.lft.to/lastmile_qr_scan", "ios": "https://dc.lft.to/lastmile_qr_scan"}, "is_disabled": 0, "fusion_lat": 0.0, "name": "7b12c7401223985d14ded17d8acea935", "fusion_lon": 0.0}, {"is_reserved": 0, "type": "electric_scooter", "bike_id": "6192d30b20afc9a75e3c0c9bb266a0c7", "lat": 38.92438033333333, "lon": -77.034124, "rental_uris": {"android": "https://dc.lft.to/lastmile_qr_scan", "ios": "https://dc.lft.to/lastmile_qr_scan"}, "is_disabled": 0, "fusion_lat": 0.0, "name": "6192d30b20afc9a75e3c0c9bb266a0c7", "fusion_lon": 0.0}, {"is_reserved": 0, "type": "electric_scooter", "bike_id": "0040e2d95ee50bab7b1bae26b2c479b8", "lat": 38.91200416666667, "lon": -77.037526, "rental_uris": {"android": "https://dc.lft.to/lastmile_qr_scan", "ios": "https://dc.lft.to/lastmile_qr_scan"}, "is_disabled": 0, "fusion_lat": 0.0, "name": "0040e2d95ee50bab7b1bae26b2c479b8", "fusion_lon": 0.0}, {"is_reserved": 0, "type": "electric_scooter", "bike_id": "e68fe86300087657c0a4ea2b8f5da822", "lat": 38.89511916666667, "lon": -76.978937, "rental_uris": {"android": "https://dc.lft.to/lastmile_qr_scan", "ios": "https://dc.lft.to/lastmile_qr_scan"}, "is_disabled": 0, "fusion_lat": 0.0, "name": "e68fe86300087657c0a4ea2b8f5da822", "fusion_lon": 0.0}, {"is_reserved": 0, "type": "electric_scooter", "bike_id": "57beb85d34ea089eb16427909586db71", "lat": 38.90861233333333, "lon": -77.03194933333333, "rental_uris": {"android": "https://dc.lft.to/lastmile_qr_scan", "ios": "https://dc.lft.to/lastmile_qr_scan"}, "is_disabled": 0, "fusion_lat": 0.0, "name": "57beb85d34ea089eb16427909586db71", "fusion_lon": 0.0}, {"is_reserved": 0, "type": "electric_scooter", "bike_id": "695770202a10eda3e3f550c9071706e1", "lat": 38.90548616666667, "lon": -77.04094116666667, "rental_uris": {"android": "https://dc.lft.to/lastmile_qr_scan", "ios": "https://dc.lft.to/lastmile_qr_scan"}, "is_disabled": 0, "fusion_lat": 0.0, "name": "695770202a10eda3e3f550c9071706e1", "fusion_lon": 0.0}, {"is_reserved": 0, "type": "electric_scooter", "bike_id": "944178416b16c19b847e5f134107cfca", "lat": 38.9039165, "lon": -77.02732816666666, "rental_uris": {"android": "https://dc.lft.to/lastmile_qr_scan", "ios": "https://dc.lft.to/lastmile_qr_scan"}, "is_disabled": 0, "fusion_lat": 0.0, "name": "944178416b16c19b847e5f134107cfca", "fusion_lon": 0.0}, {"is_reserved": 0, "type": "electric_scooter", "bike_id": "ca19bd2385e6c0729af7d5902882c793", "lat": 38.92747266666667, "lon": -77.02314166666666, "rental_uris": {"android": "https://dc.lft.to/lastmile_qr_scan", "ios": "https://dc.lft.to/lastmile_qr_scan"}, "is_disabled": 0, "fusion_lat": 0.0, "name": "ca19bd2385e6c0729af7d5902882c793", "fusion_lon": 0.0}, {"is_reserved": 0, "type": "electric_scooter", "bike_id": "6768777fe7934be27525c9eb39d530c3", "lat": 38.918176, "lon": -77.03071566666667, "rental_uris": {"android": "https://dc.lft.to/lastmile_qr_scan", "ios": "https://dc.lft.to/lastmile_qr_scan"}, "is_disabled": 0, "fusion_lat": 0.0, "name": "6768777fe7934be27525c9eb39d530c3", "fusion_lon": 0.0}, {"is_reserved": 0, "type": "electric_scooter", "bike_id": "c5ec4b42f9ad23e5aafbcd2299e660c0", "lat": 38.92159816666667, "lon": -77.03384833333334, "rental_uris": {"android": "https://dc.lft.to/lastmile_qr_scan", "ios": "https://dc.lft.to/lastmile_qr_scan"}, "is_disabled": 0, "fusion_lat": 0.0, "name": "c5ec4b42f9ad23e5aafbcd2299e660c0", "fusion_lon": 0.0}, {"is_reserved": 0, "type": "electric_bike", "bike_id": "77f0139a618b40d3460092b4a6552db4", "lat": 38.8893515, "lon": -76.9132575, "rental_uris": {"android": "https://dc.lft.to/lastmile_qr_scan", "ios": "https://dc.lft.to/lastmile_qr_scan"}, "is_disabled": 0, "fusion_lat": 0.0, "name": "77f0139a618b40d3460092b4a6552db4", "fusion_lon": 0.0}, {"is_reserved": 0, "type": "electric_scooter", "bike_id": "aca2703f750c660d8b780a43fb6cf104", "lat": 38.90785833333333, "lon": -76.99975116666667, "rental_uris": {"android": "https://dc.lft.to/lastmile_qr_scan", "ios": "https://dc.lft.to/lastmile_qr_scan"}, "is_disabled": 0, "fusion_lat": 0.0, "name": "aca2703f750c660d8b780a43fb6cf104", "fusion_lon": 0.0}, {"is_reserved": 0, "type": "electric_scooter", "bike_id": "08b5e3bf85d4c0e8720dfa56bd790e59", "lat": 38.89704666666667, "lon": -77.04344866666666, "rental_uris": {"android": "https://dc.lft.to/lastmile_qr_scan", "ios": "https://dc.lft.to/lastmile_qr_scan"}, "is_disabled": 0, "fusion_lat": 0.0, "name": "08b5e3bf85d4c0e8720dfa56bd790e59", "fusion_lon": 0.0}, {"is_reserved": 0, "type": "electric_bike", "bike_id": "0dd265b577af71143a0ff7b5580afdfb", "lat": 38.920381166666665, "lon": -76.979577, "rental_uris": {"android": "https://dc.lft.to/lastmile_qr_scan", "ios": "https://dc.lft.to/lastmile_qr_scan"}, "is_disabled": 0, "fusion_lat": 0.0, "name": "0dd265b577af71143a0ff7b5580afdfb", "fusion_lon": 0.0}, {"is_reserved": 0, "type": "electric_scooter", "bike_id": "1f5445a0ca7d8e1cf2596e22648993e0", "lat": 38.91758166666666, "lon": -77.004584, "rental_uris": {"android": "https://dc.lft.to/lastmile_qr_scan", "ios": "https://dc.lft.to/lastmile_qr_scan"}, "is_disabled": 0, "fusion_lat": 0.0, "name": "1f5445a0ca7d8e1cf2596e22648993e0", "fusion_lon": 0.0}, {"is_reserved": 0, "type": "electric_scooter", "bike_id": "8b11f4d171c05d29d8bd876f968f3df7", "lat": 38.903225666666664, "lon": -77.010837, "rental_uris": {"android": "https://dc.lft.to/lastmile_qr_scan", "ios": "https://dc.lft.to/lastmile_qr_scan"}, "is_disabled": 0, "fusion_lat": 0.0, "name": "8b11f4d171c05d29d8bd876f968f3df7", "fusion_lon": 0.0}, {"is_reserved": 0, "type": "electric_bike", "bike_id": "df24eb12fc2fb4ce0624b784930f4cf4", "lat": 38.917059333333334, "lon": -77.05718833333333, "rental_uris": {"android": "https://dc.lft.to/lastmile_qr_scan", "ios": "https://dc.lft.to/lastmile_qr_scan"}, "is_disabled": 0, "fusion_lat": 0.0, "name": "df24eb12fc2fb4ce0624b784930f4cf4", "fusion_lon": 0.0}, {"is_reserved": 0, "type": "electric_scooter", "bike_id": "590db6d439da131e77c2dc82d5482333", "lat": 38.9139575, "lon": -77.04338, "rental_uris": {"android": "https://dc.lft.to/lastmile_qr_scan", "ios": "https://dc.lft.to/lastmile_qr_scan"}, "is_disabled": 0, "fusion_lat": 0.0, "name": "590db6d439da131e77c2dc82d5482333", "fusion_lon": 0.0}, {"is_reserved": 0, "type": "electric_scooter", "bike_id": "563b5e2c2f7ac84556560524b8c01641", "lat": 38.91254566666667, "lon": -77.04531966666667, "rental_uris": {"android": "https://dc.lft.to/lastmile_qr_scan", "ios": "https://dc.lft.to/lastmile_qr_scan"}, "is_disabled": 0, "fusion_lat": 0.0, "name": "563b5e2c2f7ac84556560524b8c01641", "fusion_lon": 0.0}, {"is_reserved": 0, "type": "electric_bike", "bike_id": "78c44bcf245be2586f75fcc65988a17e", "lat": 38.9208015, "lon": -76.99573016666666, "rental_uris": {"android": "https://dc.lft.to/lastmile_qr_scan", "ios": "https://dc.lft.to/lastmile_qr_scan"}, "is_disabled": 0, "fusion_lat": 0.0, "name": "78c44bcf245be2586f75fcc65988a17e", "fusion_lon": 0.0}, {"is_reserved": 0, "type": "electric_scooter", "bike_id": "96e3ba6a3fc11dbf4775fea10fd7cd2d", "lat": 38.91095333333333, "lon": -77.03850616666666, "rental_uris": {"android": "https://dc.lft.to/lastmile_qr_scan", "ios": "https://dc.lft.to/lastmile_qr_scan"}, "is_disabled": 0, "fusion_lat": 0.0, "name": "96e3ba6a3fc11dbf4775fea10fd7cd2d", "fusion_lon": 0.0}, {"is_reserved": 0, "type": "electric_scooter", "bike_id": "e69c26674d457fd0e3f8bdc18c0df350", "lat": 38.88322733333333, "lon": -77.02375183333334, "rental_uris": {"android": "https://dc.lft.to/lastmile_qr_scan", "ios": "https://dc.lft.to/lastmile_qr_scan"}, "is_disabled": 0, "fusion_lat": 0.0, "name": "e69c26674d457fd0e3f8bdc18c0df350", "fusion_lon": 0.0}, {"is_reserved": 0, "type": "electric_scooter", "bike_id": "4424071267d7da098abe6ded3f543184", "lat": 38.925659, "lon": -76.97000766666666, "rental_uris": {"android": "https://dc.lft.to/lastmile_qr_scan", "ios": "https://dc.lft.to/lastmile_qr_scan"}, "is_disabled": 0, "fusion_lat": 0.0, "name": "4424071267d7da098abe6ded3f543184", "fusion_lon": 0.0}, {"is_reserved": 0, "type": "electric_scooter", "bike_id": "f566e1f1a05fbbfcb228838c7f8bdcac", "lat": 38.9043735, "lon": -77.028388, "rental_uris": {"android": "https://dc.lft.to/lastmile_qr_scan", "ios": "https://dc.lft.to/lastmile_qr_scan"}, "is_disabled": 0, "fusion_lat": 0.0, "name": "f566e1f1a05fbbfcb228838c7f8bdcac", "fusion_lon": 0.0}, {"is_reserved": 0, "type": "electric_scooter", "bike_id": "16e9a1234612f0f5598b29eae3229b99", "lat": 38.9292865, "lon": -77.020064, "rental_uris": {"android": "https://dc.lft.to/lastmile_qr_scan", "ios": "https://dc.lft.to/lastmile_qr_scan"}, "is_disabled": 0, "fusion_lat": 0.0, "name": "16e9a1234612f0f5598b29eae3229b99", "fusion_lon": 0.0}, {"is_reserved": 0, "type": "electric_scooter", "bike_id": "7669d1afebf4a6a5b6d3d66f6062324e", "lat": 38.903467, "lon": -77.03197616666667, "rental_uris": {"android": "https://dc.lft.to/lastmile_qr_scan", "ios": "https://dc.lft.to/lastmile_qr_scan"}, "is_disabled": 0, "fusion_lat": 0.0, "name": "7669d1afebf4a6a5b6d3d66f6062324e", "fusion_lon": 0.0}, {"is_reserved": 0, "type": "electric_scooter", "bike_id": "a67dba63d1b33bdd33f4b409aae33f7f", "lat": 38.90680116666667, "lon": -77.03643316666667, "rental_uris": {"android": "https://dc.lft.to/lastmile_qr_scan", "ios": "https://dc.lft.to/lastmile_qr_scan"}, "is_disabled": 0, "fusion_lat": 0.0, "name": "a67dba63d1b33bdd33f4b409aae33f7f", "fusion_lon": 0.0}, {"is_reserved": 0, "type": "electric_scooter", "bike_id": "33a8619bd9ba441d1e3e5b21271a8558", "lat": 38.9141185, "lon": -77.04461716666667, "rental_uris": {"android": "https://dc.lft.to/lastmile_qr_scan", "ios": "https://dc.lft.to/lastmile_qr_scan"}, "is_disabled": 0, "fusion_lat": 0.0, "name": "33a8619bd9ba441d1e3e5b21271a8558", "fusion_lon": 0.0}, {"is_reserved": 0, "type": "electric_scooter", "bike_id": "98cb16d6c48b26c55bd134cf8c237472", "lat": 38.930363166666666, "lon": -77.033421, "rental_uris": {"android": "https://dc.lft.to/lastmile_qr_scan", "ios": "https://dc.lft.to/lastmile_qr_scan"}, "is_disabled": 0, "fusion_lat": 0.0, "name": "98cb16d6c48b26c55bd134cf8c237472", "fusion_lon": 0.0}, {"is_reserved": 0, "type": "electric_scooter", "bike_id": "b470282dc34b14cdd188d4312e7076aa", "lat": 38.919858166666664, "lon": -77.03260216666666, "rental_uris": {"android": "https://dc.lft.to/lastmile_qr_scan", "ios": "https://dc.lft.to/lastmile_qr_scan"}, "is_disabled": 0, "fusion_lat": 0.0, "name": "b470282dc34b14cdd188d4312e7076aa", "fusion_lon": 0.0}, {"is_reserved": 0, "type": "electric_bike", "bike_id": "9abbc50fb282a6e8fe93bf01ef8fea81", "lat": 38.98181783333333, "lon": -76.982093, "rental_uris": {"android": "https://dc.lft.to/lastmile_qr_scan", "ios": "https://dc.lft.to/lastmile_qr_scan"}, "is_disabled": 0, "fusion_lat": 0.0, "name": "9abbc50fb282a6e8fe93bf01ef8fea81", "fusion_lon": 0.0}, {"is_reserved": 0, "type": "electric_scooter", "bike_id": "e94a3c6229f37e3a778659f4eb326fed", "lat": 38.896244, "lon": -76.95688766666666, "rental_uris": {"android": "https://dc.lft.to/lastmile_qr_scan", "ios": "https://dc.lft.to/lastmile_qr_scan"}, "is_disabled": 0, "fusion_lat": 0.0, "name": "e94a3c6229f37e3a778659f4eb326fed", "fusion_lon": 0.0}, {"is_reserved": 0, "type": "electric_scooter", "bike_id": "e446e23ddcd7d6b2af614ee7045b322c", "lat": 38.90117016666667, "lon": -77.0337425, "rental_uris": {"android": "https://dc.lft.to/lastmile_qr_scan", "ios": "https://dc.lft.to/lastmile_qr_scan"}, "is_disabled": 0, "fusion_lat": 0.0, "name": "e446e23ddcd7d6b2af614ee7045b322c", "fusion_lon": 0.0}, {"is_reserved": 0, "type": "electric_scooter", "bike_id": "78de328ad5c20134e6db190cea9707aa", "lat": 38.91801916666667, "lon": -77.0270435, "rental_uris": {"android": "https://dc.lft.to/lastmile_qr_scan", "ios": "https://dc.lft.to/lastmile_qr_scan"}, "is_disabled": 0, "fusion_lat": 0.0, "name": "78de328ad5c20134e6db190cea9707aa", "fusion_lon": 0.0}, {"is_reserved": 0, "type": "electric_scooter", "bike_id": "c9257f5a48a059cf4319167eb99f4d95", "lat": 38.91037466666667, "lon": -77.0371575, "rental_uris": {"android": "https://dc.lft.to/lastmile_qr_scan", "ios": "https://dc.lft.to/lastmile_qr_scan"}, "is_disabled": 0, "fusion_lat": 0.0, "name": "c9257f5a48a059cf4319167eb99f4d95", "fusion_lon": 0.0}, {"is_reserved": 0, "type": "electric_scooter", "bike_id": "77ca78909f7da4960f8a4dd56b2f9764", "lat": 38.91574466666667, "lon": -77.03642133333334, "rental_uris": {"android": "https://dc.lft.to/lastmile_qr_scan", "ios": "https://dc.lft.to/lastmile_qr_scan"}, "is_disabled": 0, "fusion_lat": 0.0, "name": "77ca78909f7da4960f8a4dd56b2f9764", "fusion_lon": 0.0}, {"is_reserved": 0, "type": "electric_scooter", "bike_id": "7033e753b28b35ddf3be8dfcf14252ef", "lat": 38.88458516666667, "lon": -76.92622183333333, "rental_uris": {"android": "https://dc.lft.to/lastmile_qr_scan", "ios": "https://dc.lft.to/lastmile_qr_scan"}, "is_disabled": 0, "fusion_lat": 0.0, "name": "7033e753b28b35ddf3be8dfcf14252ef", "fusion_lon": 0.0}, {"is_reserved": 0, "type": "electric_scooter", "bike_id": "1ddcc0825715b833205f27b504a2d0d1", "lat": 38.93099683333333, "lon": -77.03490733333334, "rental_uris": {"android": "https://dc.lft.to/lastmile_qr_scan", "ios": "https://dc.lft.to/lastmile_qr_scan"}, "is_disabled": 0, "fusion_lat": 0.0, "name": "1ddcc0825715b833205f27b504a2d0d1", "fusion_lon": 0.0}, {"is_reserved": 0, "type": "electric_scooter", "bike_id": "860fbb4a78dae0ffa47a514f412edd2e", "lat": 38.910635, "lon": -77.05519816666667, "rental_uris": {"android": "https://dc.lft.to/lastmile_qr_scan", "ios": "https://dc.lft.to/lastmile_qr_scan"}, "is_disabled": 0, "fusion_lat": 0.0, "name": "860fbb4a78dae0ffa47a514f412edd2e", "fusion_lon": 0.0}, {"is_reserved": 0, "type": "electric_scooter", "bike_id": "455f88e49cd492aaf49ce224ea4cec06", "lat": 38.97298633333333, "lon": -77.03625566666666, "rental_uris": {"android": "https://dc.lft.to/lastmile_qr_scan", "ios": "https://dc.lft.to/lastmile_qr_scan"}, "is_disabled": 0, "fusion_lat": 0.0, "name": "455f88e49cd492aaf49ce224ea4cec06", "fusion_lon": 0.0}, {"is_reserved": 0, "type": "electric_scooter", "bike_id": "373674c0b3ce39457a633ee74cae2b05", "lat": 38.918203166666665, "lon": -77.03211216666666, "rental_uris": {"android": "https://dc.lft.to/lastmile_qr_scan", "ios": "https://dc.lft.to/lastmile_qr_scan"}, "is_disabled": 0, "fusion_lat": 0.0, "name": "373674c0b3ce39457a633ee74cae2b05", "fusion_lon": 0.0}, {"is_reserved": 0, "type": "electric_scooter", "bike_id": "deb64fe8bbcba7097042ddc70f04bd05", "lat": 38.927845166666664, "lon": -77.0360145, "rental_uris": {"android": "https://dc.lft.to/lastmile_qr_scan", "ios": "https://dc.lft.to/lastmile_qr_scan"}, "is_disabled": 0, "fusion_lat": 0.0, "name": "deb64fe8bbcba7097042ddc70f04bd05", "fusion_lon": 0.0}, {"is_reserved": 0, "type": "electric_scooter", "bike_id": "20d7f724190054727b15dfb50fd1a2e5", "lat": 38.89977183333333, "lon": -77.04239466666667, "rental_uris": {"android": "https://dc.lft.to/lastmile_qr_scan", "ios": "https://dc.lft.to/lastmile_qr_scan"}, "is_disabled": 0, "fusion_lat": 0.0, "name": "20d7f724190054727b15dfb50fd1a2e5", "fusion_lon": 0.0}, {"is_reserved": 0, "type": "electric_scooter", "bike_id": "222eb4c8bda87ffd0da9b508e0605f50", "lat": 38.8835235, "lon": -76.99485966666667, "rental_uris": {"android": "https://dc.lft.to/lastmile_qr_scan", "ios": "https://dc.lft.to/lastmile_qr_scan"}, "is_disabled": 0, "fusion_lat": 0.0, "name": "222eb4c8bda87ffd0da9b508e0605f50", "fusion_lon": 0.0}, {"is_reserved": 0, "type": "electric_bike", "bike_id": "a072daea2742cd8f2b95c3ee8d265b93", "lat": 39.0944925, "lon": -77.13462266666667, "rental_uris": {"android": "https://dc.lft.to/lastmile_qr_scan", "ios": "https://dc.lft.to/lastmile_qr_scan"}, "is_disabled": 0, "fusion_lat": 0.0, "name": "a072daea2742cd8f2b95c3ee8d265b93", "fusion_lon": 0.0}, {"is_reserved": 0, "type": "electric_scooter", "bike_id": "ec5b01780963426862e67872b2e18b95", "lat": 38.93066116666667, "lon": -77.04220683333334, "rental_uris": {"android": "https://dc.lft.to/lastmile_qr_scan", "ios": "https://dc.lft.to/lastmile_qr_scan"}, "is_disabled": 0, "fusion_lat": 0.0, "name": "ec5b01780963426862e67872b2e18b95", "fusion_lon": 0.0}, {"is_reserved": 0, "type": "electric_scooter", "bike_id": "c712050435bfa2eea3fcb4abfca1b858", "lat": 38.909073666666664, "lon": -77.04387366666667, "rental_uris": {"android": "https://dc.lft.to/lastmile_qr_scan", "ios": "https://dc.lft.to/lastmile_qr_scan"}, "is_disabled": 0, "fusion_lat": 0.0, "name": "c712050435bfa2eea3fcb4abfca1b858", "fusion_lon": 0.0}, {"is_reserved": 0, "type": "electric_scooter", "bike_id": "f526fb1deae31ef6b40325532de4fa17", "lat": 38.900919333333334, "lon": -77.02514616666667, "rental_uris": {"android": "https://dc.lft.to/lastmile_qr_scan", "ios": "https://dc.lft.to/lastmile_qr_scan"}, "is_disabled": 0, "fusion_lat": 0.0, "name": "f526fb1deae31ef6b40325532de4fa17", "fusion_lon": 0.0}, {"is_reserved": 0, "type": "electric_scooter", "bike_id": "4a168116b4e6a2c47066b57d628bcb04", "lat": 38.91910883333333, "lon": -77.02184866666667, "rental_uris": {"android": "https://dc.lft.to/lastmile_qr_scan", "ios": "https://dc.lft.to/lastmile_qr_scan"}, "is_disabled": 0, "fusion_lat": 0.0, "name": "4a168116b4e6a2c47066b57d628bcb04", "fusion_lon": 0.0}, {"is_reserved": 0, "type": "electric_scooter", "bike_id": "c3dbdf5ed887e63e87946a1534b36540", "lat": 38.88410233333333, "lon": -76.9952655, "rental_uris": {"android": "https://dc.lft.to/lastmile_qr_scan", "ios": "https://dc.lft.to/lastmile_qr_scan"}, "is_disabled": 0, "fusion_lat": 0.0, "name": "c3dbdf5ed887e63e87946a1534b36540", "fusion_lon": 0.0}, {"is_reserved": 0, "type": "electric_scooter", "bike_id": "a7abb305173e8c110ef8023811dc0ece", "lat": 38.92288116666667, "lon": -77.042245, "rental_uris": {"android": "https://dc.lft.to/lastmile_qr_scan", "ios": "https://dc.lft.to/lastmile_qr_scan"}, "is_disabled": 0, "fusion_lat": 0.0, "name": "a7abb305173e8c110ef8023811dc0ece", "fusion_lon": 0.0}, {"is_reserved": 0, "type": "electric_bike", "bike_id": "f006596d019f129af830cd38169cef44", "lat": 39.010971, "lon": -77.04952933333334, "rental_uris": {"android": "https://dc.lft.to/lastmile_qr_scan", "ios": "https://dc.lft.to/lastmile_qr_scan"}, "is_disabled": 0, "fusion_lat": 0.0, "name": "f006596d019f129af830cd38169cef44", "fusion_lon": 0.0}, {"is_reserved": 0, "type": "electric_scooter", "bike_id": "59624a06d1ffe3f244cff8c4c790d321", "lat": 38.900634833333335, "lon": -77.03206533333334, "rental_uris": {"android": "https://dc.lft.to/lastmile_qr_scan", "ios": "https://dc.lft.to/lastmile_qr_scan"}, "is_disabled": 0, "fusion_lat": 0.0, "name": "59624a06d1ffe3f244cff8c4c790d321", "fusion_lon": 0.0}, {"is_reserved": 0, "type": "electric_bike", "bike_id": "a4ec63fe4302504e0339a01c42615065", "lat": 38.88036433333333, "lon": -77.02513916666666, "rental_uris": {"android": "https://dc.lft.to/lastmile_qr_scan", "ios": "https://dc.lft.to/lastmile_qr_scan"}, "is_disabled": 0, "fusion_lat": 0.0, "name": "a4ec63fe4302504e0339a01c42615065", "fusion_lon": 0.0}, {"is_reserved": 0, "type": "electric_bike", "bike_id": "bffd8f847822ee8effcc03f7a4884f4e", "lat": 38.874226, "lon": -77.08568166666667, "rental_uris": {"android": "https://dc.lft.to/lastmile_qr_scan", "ios": "https://dc.lft.to/lastmile_qr_scan"}, "is_disabled": 0, "fusion_lat": 0.0, "name": "bffd8f847822ee8effcc03f7a4884f4e", "fusion_lon": 0.0}, {"is_reserved": 0, "type": "electric_scooter", "bike_id": "21eb33510d0af3a94e0512b67eaad3cf", "lat": 38.92985933333333, "lon": -77.03792083333333, "rental_uris": {"android": "https://dc.lft.to/lastmile_qr_scan", "ios": "https://dc.lft.to/lastmile_qr_scan"}, "is_disabled": 0, "fusion_lat": 0.0, "name": "21eb33510d0af3a94e0512b67eaad3cf", "fusion_lon": 0.0}, {"is_reserved": 0, "type": "electric_bike", "bike_id": "a12b349a9c266b4ef8ad6654760231d2", "lat": 39.00003866666667, "lon": -76.91802483333333, "rental_uris": {"android": "https://dc.lft.to/lastmile_qr_scan", "ios": "https://dc.lft.to/lastmile_qr_scan"}, "is_disabled": 0, "fusion_lat": 0.0, "name": "a12b349a9c266b4ef8ad6654760231d2", "fusion_lon": 0.0}, {"is_reserved": 0, "type": "electric_bike", "bike_id": "8638b3ad36e3766d63ad2103b19f6e81", "lat": 38.8427655, "lon": -76.98809816666666, "rental_uris": {"android": "https://dc.lft.to/lastmile_qr_scan", "ios": "https://dc.lft.to/lastmile_qr_scan"}, "is_disabled": 0, "fusion_lat": 0.0, "name": "8638b3ad36e3766d63ad2103b19f6e81", "fusion_lon": 0.0}, {"is_reserved": 0, "type": "electric_scooter", "bike_id": "47dfe1264549e96eeea1339a96626f4d", "lat": 38.9038275, "lon": -77.03029566666666, "rental_uris": {"android": "https://dc.lft.to/lastmile_qr_scan", "ios": "https://dc.lft.to/lastmile_qr_scan"}, "is_disabled": 0, "fusion_lat": 0.0, "name": "47dfe1264549e96eeea1339a96626f4d", "fusion_lon": 0.0}, {"is_reserved": 0, "type": "electric_scooter", "bike_id": "365332ef0fc142291726469515163874", "lat": 38.920013, "lon": -77.03225233333333, "rental_uris": {"android": "https://dc.lft.to/lastmile_qr_scan", "ios": "https://dc.lft.to/lastmile_qr_scan"}, "is_disabled": 0, "fusion_lat": 0.0, "name": "365332ef0fc142291726469515163874", "fusion_lon": 0.0}, {"is_reserved": 0, "type": "electric_scooter", "bike_id": "bf71c1c85099fd85fbfd14435f30f5bd", "lat": 38.9003145, "lon": -76.99618716666667, "rental_uris": {"android": "https://dc.lft.to/lastmile_qr_scan", "ios": "https://dc.lft.to/lastmile_qr_scan"}, "is_disabled": 0, "fusion_lat": 0.0, "name": "bf71c1c85099fd85fbfd14435f30f5bd", "fusion_lon": 0.0}, {"is_reserved": 0, "type": "electric_scooter", "bike_id": "ab034a19e11198652745ff6709a112c3", "lat": 38.90043816666667, "lon": -76.988315, "rental_uris": {"android": "https://dc.lft.to/lastmile_qr_scan", "ios": "https://dc.lft.to/lastmile_qr_scan"}, "is_disabled": 0, "fusion_lat": 0.0, "name": "ab034a19e11198652745ff6709a112c3", "fusion_lon": 0.0}, {"is_reserved": 0, "type": "electric_scooter", "bike_id": "4d71b7da04bd5a960d0e37bdf7194151", "lat": 38.907382, "lon": -77.0432835, "rental_uris": {"android": "https://dc.lft.to/lastmile_qr_scan", "ios": "https://dc.lft.to/lastmile_qr_scan"}, "is_disabled": 0, "fusion_lat": 0.0, "name": "4d71b7da04bd5a960d0e37bdf7194151", "fusion_lon": 0.0}, {"is_reserved": 0, "type": "electric_scooter", "bike_id": "41b1b52608d6839dc697ba686ec79246", "lat": 38.90793883333333, "lon": -76.9970035, "rental_uris": {"android": "https://dc.lft.to/lastmile_qr_scan", "ios": "https://dc.lft.to/lastmile_qr_scan"}, "is_disabled": 0, "fusion_lat": 0.0, "name": "41b1b52608d6839dc697ba686ec79246", "fusion_lon": 0.0}, {"is_reserved": 0, "type": "electric_scooter", "bike_id": "3ee9c852de104fffae940bf2308148b6", "lat": 38.90346866666667, "lon": -77.02572316666667, "rental_uris": {"android": "https://dc.lft.to/lastmile_qr_scan", "ios": "https://dc.lft.to/lastmile_qr_scan"}, "is_disabled": 0, "fusion_lat": 0.0, "name": "3ee9c852de104fffae940bf2308148b6", "fusion_lon": 0.0}, {"is_reserved": 0, "type": "electric_scooter", "bike_id": "41a386febc15445b2135ed8c73661ff8", "lat": 38.91782033333333, "lon": -77.04748433333333, "rental_uris": {"android": "https://dc.lft.to/lastmile_qr_scan", "ios": "https://dc.lft.to/lastmile_qr_scan"}, "is_disabled": 0, "fusion_lat": 0.0, "name": "41a386febc15445b2135ed8c73661ff8", "fusion_lon": 0.0}, {"is_reserved": 0, "type": "electric_scooter", "bike_id": "0f77b7a870582072739d16e851eaf2e9", "lat": 38.930380666666665, "lon": -77.02966966666666, "rental_uris": {"android": "https://dc.lft.to/lastmile_qr_scan", "ios": "https://dc.lft.to/lastmile_qr_scan"}, "is_disabled": 0, "fusion_lat": 0.0, "name": "0f77b7a870582072739d16e851eaf2e9", "fusion_lon": 0.0}, {"is_reserved": 0, "type": "electric_scooter", "bike_id": "585eeb5d3551d97a68db2a546a55fb45", "lat": 38.898371166666664, "lon": -77.02454733333333, "rental_uris": {"android": "https://dc.lft.to/lastmile_qr_scan", "ios": "https://dc.lft.to/lastmile_qr_scan"}, "is_disabled": 0, "fusion_lat": 0.0, "name": "585eeb5d3551d97a68db2a546a55fb45", "fusion_lon": 0.0}, {"is_reserved": 0, "type": "electric_scooter", "bike_id": "1c4a13fa2011f6e1369341fe3747c90b", "lat": 38.923021166666665, "lon": -77.04217316666667, "rental_uris": {"android": "https://dc.lft.to/lastmile_qr_scan", "ios": "https://dc.lft.to/lastmile_qr_scan"}, "is_disabled": 0, "fusion_lat": 0.0, "name": "1c4a13fa2011f6e1369341fe3747c90b", "fusion_lon": 0.0}, {"is_reserved": 0, "type": "electric_scooter", "bike_id": "9626c996ed13e952144b6631d532ea0a", "lat": 38.93318383333333, "lon": -77.04423033333333, "rental_uris": {"android": "https://dc.lft.to/lastmile_qr_scan", "ios": "https://dc.lft.to/lastmile_qr_scan"}, "is_disabled": 0, "fusion_lat": 0.0, "name": "9626c996ed13e952144b6631d532ea0a", "fusion_lon": 0.0}, {"is_reserved": 0, "type": "electric_scooter", "bike_id": "0826f5a8e0b07c7b889d129cbf699fc9", "lat": 38.908418, "lon": -77.05498183333333, "rental_uris": {"android": "https://dc.lft.to/lastmile_qr_scan", "ios": "https://dc.lft.to/lastmile_qr_scan"}, "is_disabled": 0, "fusion_lat": 0.0, "name": "0826f5a8e0b07c7b889d129cbf699fc9", "fusion_lon": 0.0}, {"is_reserved": 0, "type": "electric_scooter", "bike_id": "c7f245d0334ede6c63794b11e959e909", "lat": 38.93663016666667, "lon": -77.03650883333333, "rental_uris": {"android": "https://dc.lft.to/lastmile_qr_scan", "ios": "https://dc.lft.to/lastmile_qr_scan"}, "is_disabled": 0, "fusion_lat": 0.0, "name": "c7f245d0334ede6c63794b11e959e909", "fusion_lon": 0.0}, {"is_reserved": 0, "type": "electric_scooter", "bike_id": "da9f130862ade7b1b8c22f1699366da5", "lat": 38.91575116666667, "lon": -77.03639916666667, "rental_uris": {"android": "https://dc.lft.to/lastmile_qr_scan", "ios": "https://dc.lft.to/lastmile_qr_scan"}, "is_disabled": 0, "fusion_lat": 0.0, "name": "da9f130862ade7b1b8c22f1699366da5", "fusion_lon": 0.0}, {"is_reserved": 0, "type": "electric_bike", "bike_id": "e0161af862820a4677e3c8ce7c8ad1e8", "lat": 38.902301666666666, "lon": -77.05911233333333, "rental_uris": {"android": "https://dc.lft.to/lastmile_qr_scan", "ios": "https://dc.lft.to/lastmile_qr_scan"}, "is_disabled": 0, "fusion_lat": 0.0, "name": "e0161af862820a4677e3c8ce7c8ad1e8", "fusion_lon": 0.0}, {"is_reserved": 0, "type": "electric_bike", "bike_id": "eda299ac300ef12c969b42cfac95b310", "lat": 38.854213, "lon": -77.083647, "rental_uris": {"android": "https://dc.lft.to/lastmile_qr_scan", "ios": "https://dc.lft.to/lastmile_qr_scan"}, "is_disabled": 0, "fusion_lat": 0.0, "name": "eda299ac300ef12c969b42cfac95b310", "fusion_lon": 0.0}, {"is_reserved": 0, "type": "electric_bike", "bike_id": "ce84c56817fa8e60c63a3833f580ae54", "lat": 39.004437333333335, "lon": -76.90133266666666, "rental_uris": {"android": "https://dc.lft.to/lastmile_qr_scan", "ios": "https://dc.lft.to/lastmile_qr_scan"}, "is_disabled": 0, "fusion_lat": 0.0, "name": "ce84c56817fa8e60c63a3833f580ae54", "fusion_lon": 0.0}, {"is_reserved": 0, "type": "electric_bike", "bike_id": "09cca53571f2db987e39259c0445be37", "lat": 38.87036033333333, "lon": -77.22904633333333, "rental_uris": {"android": "https://dc.lft.to/lastmile_qr_scan", "ios": "https://dc.lft.to/lastmile_qr_scan"}, "is_disabled": 0, "fusion_lat": 0.0, "name": "09cca53571f2db987e39259c0445be37", "fusion_lon": 0.0}, {"is_reserved": 0, "type": "electric_scooter", "bike_id": "982fc3b50a5fade1a460f0c0a0645754", "lat": 38.89733283333333, "lon": -77.04993433333334, "rental_uris": {"android": "https://dc.lft.to/lastmile_qr_scan", "ios": "https://dc.lft.to/lastmile_qr_scan"}, "is_disabled": 0, "fusion_lat": 0.0, "name": "982fc3b50a5fade1a460f0c0a0645754", "fusion_lon": 0.0}, {"is_reserved": 0, "type": "electric_scooter", "bike_id": "194bf226a8d9008195746c57096f5715", "lat": 38.92854333333333, "lon": -77.036125, "rental_uris": {"android": "https://dc.lft.to/lastmile_qr_scan", "ios": "https://dc.lft.to/lastmile_qr_scan"}, "is_disabled": 0, "fusion_lat": 0.0, "name": "194bf226a8d9008195746c57096f5715", "fusion_lon": 0.0}, {"is_reserved": 0, "type": "electric_scooter", "bike_id": "8d9ef23242095434d99cfb1a3673e213", "lat": 38.92450316666667, "lon": -77.02035083333334, "rental_uris": {"android": "https://dc.lft.to/lastmile_qr_scan", "ios": "https://dc.lft.to/lastmile_qr_scan"}, "is_disabled": 0, "fusion_lat": 0.0, "name": "8d9ef23242095434d99cfb1a3673e213", "fusion_lon": 0.0}, {"is_reserved": 0, "type": "electric_scooter", "bike_id": "09e6464424194e144c65670baea6d111", "lat": 38.91197283333333, "lon": -77.031797, "rental_uris": {"android": "https://dc.lft.to/lastmile_qr_scan", "ios": "https://dc.lft.to/lastmile_qr_scan"}, "is_disabled": 0, "fusion_lat": 0.0, "name": "09e6464424194e144c65670baea6d111", "fusion_lon": 0.0}, {"is_reserved": 0, "type": "electric_scooter", "bike_id": "62863acf8444d376485bba9ace24bd55", "lat": 38.893863, "lon": -76.9230855, "rental_uris": {"android": "https://dc.lft.to/lastmile_qr_scan", "ios": "https://dc.lft.to/lastmile_qr_scan"}, "is_disabled": 0, "fusion_lat": 0.0, "name": "62863acf8444d376485bba9ace24bd55", "fusion_lon": 0.0}, {"is_reserved": 0, "type": "electric_scooter", "bike_id": "b8d2afafa19371e4a9489882ba80b96d", "lat": 38.90517916666667, "lon": -77.03452883333334, "rental_uris": {"android": "https://dc.lft.to/lastmile_qr_scan", "ios": "https://dc.lft.to/lastmile_qr_scan"}, "is_disabled": 0, "fusion_lat": 0.0, "name": "b8d2afafa19371e4a9489882ba80b96d", "fusion_lon": 0.0}, {"is_reserved": 0, "type": "electric_scooter", "bike_id": "28d3d6eb8bc1fe38e622a4ef45bbff9e", "lat": 38.89738666666667, "lon": -77.02017516666666, "rental_uris": {"android": "https://dc.lft.to/lastmile_qr_scan", "ios": "https://dc.lft.to/lastmile_qr_scan"}, "is_disabled": 0, "fusion_lat": 0.0, "name": "28d3d6eb8bc1fe38e622a4ef45bbff9e", "fusion_lon": 0.0}, {"is_reserved": 0, "type": "electric_scooter", "bike_id": "3556ef1ff5906eded816f79eddb7b6f0", "lat": 38.898786333333334, "lon": -76.93181866666667, "rental_uris": {"android": "https://dc.lft.to/lastmile_qr_scan", "ios": "https://dc.lft.to/lastmile_qr_scan"}, "is_disabled": 0, "fusion_lat": 0.0, "name": "3556ef1ff5906eded816f79eddb7b6f0", "fusion_lon": 0.0}, {"is_reserved": 0, "type": "electric_bike", "bike_id": "f01ebac42cf3cb53e0e091e4ff10d6bb", "lat": 38.9052835, "lon": -77.04185833333334, "rental_uris": {"android": "https://dc.lft.to/lastmile_qr_scan", "ios": "https://dc.lft.to/lastmile_qr_scan"}, "is_disabled": 0, "fusion_lat": 0.0, "name": "f01ebac42cf3cb53e0e091e4ff10d6bb", "fusion_lon": 0.0}, {"is_reserved": 0, "type": "electric_scooter", "bike_id": "6dd3941c23501e20a42c574485dcd517", "lat": 38.9088005, "lon": -76.99815466666666, "rental_uris": {"android": "https://dc.lft.to/lastmile_qr_scan", "ios": "https://dc.lft.to/lastmile_qr_scan"}, "is_disabled": 0, "fusion_lat": 0.0, "name": "6dd3941c23501e20a42c574485dcd517", "fusion_lon": 0.0}, {"is_reserved": 0, "type": "electric_scooter", "bike_id": "c8f659a1c18437004270081909ec4b2d", "lat": 38.92103566666667, "lon": -77.0220975, "rental_uris": {"android": "https://dc.lft.to/lastmile_qr_scan", "ios": "https://dc.lft.to/lastmile_qr_scan"}, "is_disabled": 0, "fusion_lat": 0.0, "name": "c8f659a1c18437004270081909ec4b2d", "fusion_lon": 0.0}, {"is_reserved": 0, "type": "electric_scooter", "bike_id": "acc6cbee56f355318cb532e39b9c3f24", "lat": 38.936089833333334, "lon": -77.03205433333333, "rental_uris": {"android": "https://dc.lft.to/lastmile_qr_scan", "ios": "https://dc.lft.to/lastmile_qr_scan"}, "is_disabled": 0, "fusion_lat": 0.0, "name": "acc6cbee56f355318cb532e39b9c3f24", "fusion_lon": 0.0}, {"is_reserved": 0, "type": "electric_scooter", "bike_id": "6ec78948515db51e756044799734f9ec", "lat": 38.90612183333333, "lon": -77.0090835, "rental_uris": {"android": "https://dc.lft.to/lastmile_qr_scan", "ios": "https://dc.lft.to/lastmile_qr_scan"}, "is_disabled": 0, "fusion_lat": 0.0, "name": "6ec78948515db51e756044799734f9ec", "fusion_lon": 0.0}, {"is_reserved": 0, "type": "electric_bike", "bike_id": "0c810469ea89cba7ef2103f4a9b380ff", "lat": 38.951087333333334, "lon": -77.02007733333333, "rental_uris": {"android": "https://dc.lft.to/lastmile_qr_scan", "ios": "https://dc.lft.to/lastmile_qr_scan"}, "is_disabled": 0, "fusion_lat": 0.0, "name": "0c810469ea89cba7ef2103f4a9b380ff", "fusion_lon": 0.0}, {"is_reserved": 0, "type": "electric_scooter", "bike_id": "cefd288025af0625654a62c6dc16a627", "lat": 38.88739316666667, "lon": -77.01353733333333, "rental_uris": {"android": "https://dc.lft.to/lastmile_qr_scan", "ios": "https://dc.lft.to/lastmile_qr_scan"}, "is_disabled": 0, "fusion_lat": 0.0, "name": "cefd288025af0625654a62c6dc16a627", "fusion_lon": 0.0}, {"is_reserved": 0, "type": "electric_scooter", "bike_id": "796d35527dfde288d764f5ee47d60f15", "lat": 38.90437383333333, "lon": -77.05245466666666, "rental_uris": {"android": "https://dc.lft.to/lastmile_qr_scan", "ios": "https://dc.lft.to/lastmile_qr_scan"}, "is_disabled": 0, "fusion_lat": 0.0, "name": "796d35527dfde288d764f5ee47d60f15", "fusion_lon": 0.0}, {"is_reserved": 0, "type": "electric_scooter", "bike_id": "972ebcb7e1f9dc02748c0c742c4bde88", "lat": 38.89364916666667, "lon": -76.9868035, "rental_uris": {"android": "https://dc.lft.to/lastmile_qr_scan", "ios": "https://dc.lft.to/lastmile_qr_scan"}, "is_disabled": 0, "fusion_lat": 0.0, "name": "972ebcb7e1f9dc02748c0c742c4bde88", "fusion_lon": 0.0}, {"is_reserved": 0, "type": "electric_scooter", "bike_id": "f141ac7d4433ae210b34c2797a3f6802", "lat": 38.894665333333336, "lon": -76.92747933333334, "rental_uris": {"android": "https://dc.lft.to/lastmile_qr_scan", "ios": "https://dc.lft.to/lastmile_qr_scan"}, "is_disabled": 0, "fusion_lat": 0.0, "name": "f141ac7d4433ae210b34c2797a3f6802", "fusion_lon": 0.0}, {"is_reserved": 0, "type": "electric_scooter", "bike_id": "84267e5da84112d872d3c05ba285d9fb", "lat": 38.92443333333333, "lon": -77.02026683333334, "rental_uris": {"android": "https://dc.lft.to/lastmile_qr_scan", "ios": "https://dc.lft.to/lastmile_qr_scan"}, "is_disabled": 0, "fusion_lat": 0.0, "name": "84267e5da84112d872d3c05ba285d9fb", "fusion_lon": 0.0}, {"is_reserved": 0, "type": "electric_scooter", "bike_id": "7337a6b3aa1145ba4a6fa9b42e81e9e2", "lat": 38.989894, "lon": -77.033604, "rental_uris": {"android": "https://dc.lft.to/lastmile_qr_scan", "ios": "https://dc.lft.to/lastmile_qr_scan"}, "is_disabled": 0, "fusion_lat": 0.0, "name": "7337a6b3aa1145ba4a6fa9b42e81e9e2", "fusion_lon": 0.0}, {"is_reserved": 0, "type": "electric_scooter", "bike_id": "954bdc60f050616a67fb48f823f3914b", "lat": 38.9111155, "lon": -77.03829166666667, "rental_uris": {"android": "https://dc.lft.to/lastmile_qr_scan", "ios": "https://dc.lft.to/lastmile_qr_scan"}, "is_disabled": 0, "fusion_lat": 0.0, "name": "954bdc60f050616a67fb48f823f3914b", "fusion_lon": 0.0}, {"is_reserved": 0, "type": "electric_scooter", "bike_id": "a3d26e68bf059715a011fd5e43978043", "lat": 38.90031183333333, "lon": -76.98770783333333, "rental_uris": {"android": "https://dc.lft.to/lastmile_qr_scan", "ios": "https://dc.lft.to/lastmile_qr_scan"}, "is_disabled": 0, "fusion_lat": 0.0, "name": "a3d26e68bf059715a011fd5e43978043", "fusion_lon": 0.0}, {"is_reserved": 0, "type": "electric_scooter", "bike_id": "0ee11e4d3deaf864df0a13ecb03c5fbb", "lat": 38.934568666666664, "lon": -77.020926, "rental_uris": {"android": "https://dc.lft.to/lastmile_qr_scan", "ios": "https://dc.lft.to/lastmile_qr_scan"}, "is_disabled": 0, "fusion_lat": 0.0, "name": "0ee11e4d3deaf864df0a13ecb03c5fbb", "fusion_lon": 0.0}, {"is_reserved": 0, "type": "electric_bike", "bike_id": "cbfb6a2d5de64e3151ae01f7b43bd9cc", "lat": 38.83049, "lon": -77.01255316666666, "rental_uris": {"android": "https://dc.lft.to/lastmile_qr_scan", "ios": "https://dc.lft.to/lastmile_qr_scan"}, "is_disabled": 0, "fusion_lat": 0.0, "name": "cbfb6a2d5de64e3151ae01f7b43bd9cc", "fusion_lon": 0.0}, {"is_reserved": 0, "type": "electric_scooter", "bike_id": "fde8fb933300f37d5a7f0821d2f6b669", "lat": 38.88996, "lon": -76.992943, "rental_uris": {"android": "https://dc.lft.to/lastmile_qr_scan", "ios": "https://dc.lft.to/lastmile_qr_scan"}, "is_disabled": 0, "fusion_lat": 0.0, "name": "fde8fb933300f37d5a7f0821d2f6b669", "fusion_lon": 0.0}, {"is_reserved": 0, "type": "electric_scooter", "bike_id": "70f090f5aa7138ae52933dd9d963bd5b", "lat": 38.917768, "lon": -77.02314066666666, "rental_uris": {"android": "https://dc.lft.to/lastmile_qr_scan", "ios": "https://dc.lft.to/lastmile_qr_scan"}, "is_disabled": 0, "fusion_lat": 0.0, "name": "70f090f5aa7138ae52933dd9d963bd5b", "fusion_lon": 0.0}, {"is_reserved": 0, "type": "electric_scooter", "bike_id": "2e9a65b07b51846f57cbe802301e6a27", "lat": 38.908408, "lon": -76.9917545, "rental_uris": {"android": "https://dc.lft.to/lastmile_qr_scan", "ios": "https://dc.lft.to/lastmile_qr_scan"}, "is_disabled": 0, "fusion_lat": 0.0, "name": "2e9a65b07b51846f57cbe802301e6a27", "fusion_lon": 0.0}, {"is_reserved": 0, "type": "electric_scooter", "bike_id": "861c986c98c1bf9ac6dd99293f1b816c", "lat": 38.88281083333333, "lon": -76.994907, "rental_uris": {"android": "https://dc.lft.to/lastmile_qr_scan", "ios": "https://dc.lft.to/lastmile_qr_scan"}, "is_disabled": 0, "fusion_lat": 0.0, "name": "861c986c98c1bf9ac6dd99293f1b816c", "fusion_lon": 0.0}, {"is_reserved": 0, "type": "electric_scooter", "bike_id": "a919b2ba917901c52af188ee05a2ddde", "lat": 38.9127135, "lon": -77.03871333333333, "rental_uris": {"android": "https://dc.lft.to/lastmile_qr_scan", "ios": "https://dc.lft.to/lastmile_qr_scan"}, "is_disabled": 0, "fusion_lat": 0.0, "name": "a919b2ba917901c52af188ee05a2ddde", "fusion_lon": 0.0}, {"is_reserved": 0, "type": "electric_bike", "bike_id": "f4f496ece3bb3cb4ef13240f4e1221d4", "lat": 39.084337166666664, "lon": -76.9514675, "rental_uris": {"android": "https://dc.lft.to/lastmile_qr_scan", "ios": "https://dc.lft.to/lastmile_qr_scan"}, "is_disabled": 0, "fusion_lat": 0.0, "name": "f4f496ece3bb3cb4ef13240f4e1221d4", "fusion_lon": 0.0}, {"is_reserved": 0, "type": "electric_bike", "bike_id": "f9bb0804fe353fb0f92f669d69429139", "lat": 38.9453655, "lon": -77.34463666666667, "rental_uris": {"android": "https://dc.lft.to/lastmile_qr_scan", "ios": "https://dc.lft.to/lastmile_qr_scan"}, "is_disabled": 0, "fusion_lat": 0.0, "name": "f9bb0804fe353fb0f92f669d69429139", "fusion_lon": 0.0}, {"is_reserved": 0, "type": "electric_bike", "bike_id": "f112b1234a68adf14c724a135cc48fc9", "lat": 38.90307333333333, "lon": -76.984434, "rental_uris": {"android": "https://dc.lft.to/lastmile_qr_scan", "ios": "https://dc.lft.to/lastmile_qr_scan"}, "is_disabled": 0, "fusion_lat": 0.0, "name": "f112b1234a68adf14c724a135cc48fc9", "fusion_lon": 0.0}, {"is_reserved": 0, "type": "electric_scooter", "bike_id": "e6626f801d5ce1cc91b04550c12cfe38", "lat": 38.9044565, "lon": -77.06287666666667, "rental_uris": {"android": "https://dc.lft.to/lastmile_qr_scan", "ios": "https://dc.lft.to/lastmile_qr_scan"}, "is_disabled": 0, "fusion_lat": 0.0, "name": "e6626f801d5ce1cc91b04550c12cfe38", "fusion_lon": 0.0},