{"data": {"bikes": [{"fusion_lon": 0.0, "bike_id": "57046eeac83bc906c4a21dc00e88520c", "name": "57046eeac83bc906c4a21dc00e88520c", "type": "electric_bike", "lon": -76.97504016666667, "rental_uris": {"android": "https://dc.lft.to/lastmile_qr_scan", "ios": "https://dc.lft.to/lastmile_qr_scan"}, "lat": 38.919345666666665, "is_reserved": 0, "is_disabled": 0, "fusion_lat": 0.0}, {"fusion_lon": 0.0, "bike_id": "8a37c0fc1f0a3b216cf06255c2738db2", "name": "8a37c0fc1f0a3b216cf06255c2738db2", "type": "electric_scooter", "lon": -77.0328875, "rental_uris": {"android": "https://dc.lft.to/lastmile_qr_scan", "ios": "https://dc.lft.to/lastmile_qr_scan"}, "lat": 38.89904633333333, "is_reserved": 0, "is_disabled": 0, "fusion_lat": 0.0}, {"fusion_lon": 0.0, "bike_id": "908a56f75aad1559ce5a30b80eeba815", "name": "908a56f75aad1559ce5a30b80eeba815", "type": "electric_scooter", "lon": -77.03216883333333, "rental_uris": {"android": "https://dc.lft.to/lastmile_qr_scan", "ios": "https://dc.lft.to/lastmile_qr_scan"}, "lat": 38.892191333333336, "is_reserved": 0, "is_disabled": 0, "fusion_lat": 0.0}, {"fusion_lon": 0.0, "bike_id": "690c4cbf711b2314d08c4283e5dc756c", "name": "690c4cbf711b2314d08c4283e5dc756c", "type": "electric_scooter", "lon": -77.04588716666666, "rental_uris": {"android": "https://dc.lft.to/lastmile_qr_scan", "ios": "https://dc.lft.to/lastmile_qr_scan"}, "lat": 38.909496, "is_reserved": 0, "is_disabled": 0, "fusion_lat": 0.0}, {"fusion_lon": 0.0, "bike_id": "1181384d9e45fb5e4b64b308db13f47f", "name": "1181384d9e45fb5e4b64b308db13f47f", "type": "electric_scooter", "lon": -76.99150233333333, "rental_uris": {"android": "https://dc.lft.to/lastmile_qr_scan", "ios": "https://dc.lft.to/lastmile_qr_scan"}, "lat": 38.8868095, "is_reserved": 0, "is_disabled": 0, "fusion_lat": 0.0}, {"fusion_lon": 0.0, "bike_id": "026ebd5c8c50668ab8e9e03b0b229b0d", "name": "026ebd5c8c50668ab8e9e03b0b229b0d", "type": "electric_scooter", "lon": -76.9792935, "rental_uris": {"android": "https://dc.lft.to/lastmile_qr_scan", "ios": "https://dc.lft.to/lastmile_qr_scan"}, "lat": 38.902465166666666, "is_reserved": 0, "is_disabled": 0, "fusion_lat": 0.0}, {"fusion_lon": 0.0, "bike_id": "92192c10db201597036eba5f49cee4cf", "name": "92192c10db201597036eba5f49cee4cf", "type": "electric_scooter", "lon": -77.026095, "rental_uris": {"android": "https://dc.lft.to/lastmile_qr_scan", "ios": "https://dc.lft.to/lastmile_qr_scan"}, "lat": 38.91842333333334, "is_reserved": 0, "is_disabled": 0, "fusion_lat": 0.0}, {"fusion_lon": 0.0, "bike_id": "ddc4909c758a3ed0e89f7393d15fd45e", "name": "ddc4909c758a3ed0e89f7393d15fd45e", "type": "electric_scooter", "lon": -76.94721133333333, "rental_uris": {"android": "https://dc.lft.to/lastmile_qr_scan", "ios": "https://dc.lft.to/lastmile_qr_scan"}, "lat": 38.89734883333333, "is_reserved": 0, "is_disabled": 0, "fusion_lat": 0.0}, {"fusion_lon": 0.0, "bike_id": "67ba59b4dbbfb65ed78e6970d34dcab5", "name": "67ba59b4dbbfb65ed78e6970d34dcab5", "type": "electric_scooter", "lon": -77.037799, "rental_uris": {"android": "https://dc.lft.to/lastmile_qr_scan", "ios": "https://dc.lft.to/lastmile_qr_scan"}, "lat": 38.925739, "is_reserved": 0, "is_disabled": 0, "fusion_lat": 0.0}, {"fusion_lon": 0.0, "bike_id": "471a3d33a0c0b3ade31f18fa9aa76ec5", "name": "471a3d33a0c0b3ade31f18fa9aa76ec5", "type": "electric_scooter", "lon": -76.98828283333333, "rental_uris": {"android": "https://dc.lft.to/lastmile_qr_scan", "ios": "https://dc.lft.to/lastmile_qr_scan"}, "lat": 38.90035483333333, "is_reserved": 0, "is_disabled": 0, "fusion_lat": 0.0}, {"fusion_lon": 0.0, "bike_id": "946844444a4b16cba11630840514b3ef", "name": "946844444a4b16cba11630840514b3ef", "type": "electric_scooter", "lon": -77.032147, "rental_uris": {"android": "https://dc.lft.to/lastmile_qr_scan", "ios": "https://dc.lft.to/lastmile_qr_scan"}, "lat": 38.903651833333335, "is_reserved": 0, "is_disabled": 0, "fusion_lat": 0.0}, {"fusion_lon": 0.0, "bike_id": "8ae87e13277583b76ff84d5c84b8be53", "name": "8ae87e13277583b76ff84d5c84b8be53", "type": "electric_scooter", "lon": -76.98455733333333, "rental_uris": {"android": "https://dc.lft.to/lastmile_qr_scan", "ios": "https://dc.lft.to/lastmile_qr_scan"}, "lat": 38.880099, "is_reserved": 0, "is_disabled": 0, "fusion_lat": 0.0}, {"fusion_lon": 0.0, "bike_id": "feafe5d257d736a468bb72676cc4291e", "name": "feafe5d257d736a468bb72676cc4291e", "type": "electric_scooter", "lon": -77.02776366666667, "rental_uris": {"android": "https://dc.lft.to/lastmile_qr_scan", "ios": "https://dc.lft.to/lastmile_qr_scan"}, "lat": 38.956538, "is_reserved": 0, "is_disabled": 0, "fusion_lat": 0.0}, {"fusion_lon": 0.0, "bike_id": "80a58360262b74ee148412c9c5d136d5", "name": "80a58360262b74ee148412c9c5d136d5", "type": "electric_bike", "lon": -77.0843515, "rental_uris": {"android": "https://dc.lft.to/lastmile_qr_scan", "ios": "https://dc.lft.to/lastmile_qr_scan"}, "lat": 38.810221166666665, "is_reserved": 0, "is_disabled": 0, "fusion_lat": 0.0}, {"fusion_lon": 0.0, "bike_id": "33560d67b6f1cc34c26f141baa80ed4a", "name": "33560d67b6f1cc34c26f141baa80ed4a", "type": "electric_bike", "lon": -76.98118483333333, "rental_uris": {"android": "https://dc.lft.to/lastmile_qr_scan", "ios": "https://dc.lft.to/lastmile_qr_scan"}, "lat": 38.89668966666667, "is_reserved": 0, "is_disabled": 0, "fusion_lat": 0.0}, {"fusion_lon": 0.0, "bike_id": "bcf295ab09141ac3f18ccd6096f99b1a", "name": "bcf295ab09141ac3f18ccd6096f99b1a", "type": "electric_bike", "lon": -77.10186616666667, "rental_uris": {"android": "https://dc.lft.to/lastmile_qr_scan", "ios": "https://dc.lft.to/lastmile_qr_scan"}, "lat": 38.918098666666666, "is_reserved": 0, "is_disabled": 0, "fusion_lat": 0.0}, {"fusion_lon": 0.0, "bike_id": "4fcd956fcca89aba6098a7522d50258a", "name": "4fcd956fcca89aba6098a7522d50258a", "type": "electric_scooter", "lon": -77.00938316666667, "rental_uris": {"android": "https://dc.lft.to/lastmile_qr_scan", "ios": "https://dc.lft.to/lastmile_qr_scan"}, "lat": 38.8765725, "is_reserved": 0, "is_disabled": 0, "fusion_lat": 0.0}, {"fusion_lon": 0.0, "bike_id": "1b6472e0cf0b657e554b2eb8208e956b", "name": "1b6472e0cf0b657e554b2eb8208e956b", "type": "electric_scooter", "lon": -76.98374033333333, "rental_uris": {"android": "https://dc.lft.to/lastmile_qr_scan", "ios": "https://dc.lft.to/lastmile_qr_scan"}, "lat": 38.90651833333333, "is_reserved": 0, "is_disabled": 0, "fusion_lat": 0.0}, {"fusion_lon": 0.0, "bike_id": "08d3363de7e52f8dd6ce4f1ff798101e", "name": "08d3363de7e52f8dd6ce4f1ff798101e", "type": "electric_bike", "lon": -76.98335416666667, "rental_uris": {"android": "https://dc.lft.to/lastmile_qr_scan", "ios": "https://dc.lft.to/lastmile_qr_scan"}, "lat": 38.966029666666664, "is_reserved": 0, "is_disabled": 0, "fusion_lat": 0.0}, {"fusion_lon": 0.0, "bike_id": "72bf30358569becbcc3950a2e1508aa2", "name": "72bf30358569becbcc3950a2e1508aa2", "type": "electric_scooter", "lon": -77.02596383333334, "rental_uris": {"android": "https://dc.lft.to/lastmile_qr_scan", "ios": "https://dc.lft.to/lastmile_qr_scan"}, "lat": 38.9127655, "is_reserved": 0, "is_disabled": 0, "fusion_lat": 0.0}, {"fusion_lon": 0.0, "bike_id": "9621074364c1b130c6aab8ef16b21ccc", "name": "9621074364c1b130c6aab8ef16b21ccc", "type": "electric_scooter", "lon": -77.03494883333333, "rental_uris": {"android": "https://dc.lft.to/lastmile_qr_scan", "ios": "https://dc.lft.to/lastmile_qr_scan"}, "lat": 38.9327285, "is_reserved": 0, "is_disabled": 0, "fusion_lat": 0.0}, {"fusion_lon": 0.0, "bike_id": "515c8868d963ea6d0defdd6f1d4b9b75", "name": "515c8868d963ea6d0defdd6f1d4b9b75", "type": "electric_scooter", "lon": -77.06817633333333, "rental_uris": {"android": "https://dc.lft.to/lastmile_qr_scan", "ios": "https://dc.lft.to/lastmile_qr_scan"}, "lat": 38.944730666666665, "is_reserved": 0, "is_disabled": 0, "fusion_lat": 0.0}, {"fusion_lon": 0.0, "bike_id": "4812e9e05e7750ea790f99ad7821b8f9", "name": "4812e9e05e7750ea790f99ad7821b8f9", "type": "electric_scooter", "lon": -77.021595, "rental_uris": {"android": "https://dc.lft.to/lastmile_qr_scan", "ios": "https://dc.lft.to/lastmile_qr_scan"}, "lat": 38.925998, "is_reserved": 0, "is_disabled": 0, "fusion_lat": 0.0}, {"fusion_lon": 0.0, "bike_id": "b9da03a7de87de87e484c9244ef51786", "name": "b9da03a7de87de87e484c9244ef51786", "type": "electric_scooter", "lon": -77.0279315, "rental_uris": {"android": "https://dc.lft.to/lastmile_qr_scan", "ios": "https://dc.lft.to/lastmile_qr_scan"}, "lat": 38.93076816666667, "is_reserved": 0, "is_disabled": 0, "fusion_lat": 0.0}, {"fusion_lon": 0.0, "bike_id": "5b2cea7ba9841c5de2bcbd55881d7551", "name": "5b2cea7ba9841c5de2bcbd55881d7551", "type": "electric_bike", "lon": -77.112304, "rental_uris": {"android": "https://dc.lft.to/lastmile_qr_scan", "ios": "https://dc.lft.to/lastmile_qr_scan"}, "lat": 38.81218533333333, "is_reserved": 0, "is_disabled": 0, "fusion_lat": 0.0}, {"fusion_lon": 0.0, "bike_id": "527b3490775ab7916fe4017810faaab4", "name": "527b3490775ab7916fe4017810faaab4", "type": "electric_scooter", "lon": -77.05237466666667, "rental_uris": {"android": "https://dc.lft.to/lastmile_qr_scan", "ios": "https://dc.lft.to/lastmile_qr_scan"}, "lat": 38.92466266666667, "is_reserved": 0, "is_disabled": 0, "fusion_lat": 0.0}, {"fusion_lon": 0.0, "bike_id": "1e93f82e108ba67cd8f6c1b9035c3743", "name": "1e93f82e108ba67cd8f6c1b9035c3743", "type": "electric_scooter", "lon": -77.03212566666667, "rental_uris": {"android": "https://dc.lft.to/lastmile_qr_scan", "ios": "https://dc.lft.to/lastmile_qr_scan"}, "lat": 38.907793166666664, "is_reserved": 0, "is_disabled": 0, "fusion_lat": 0.0}, {"fusion_lon": 0.0, "bike_id": "72d2f7a90167b20e6d9d5d25306be2b1", "name": "72d2f7a90167b20e6d9d5d25306be2b1", "type": "electric_scooter", "lon": -76.996083, "rental_uris": {"android": "https://dc.lft.to/lastmile_qr_scan", "ios": "https://dc.lft.to/lastmile_qr_scan"}, "lat": 38.88610166666667, "is_reserved": 0, "is_disabled": 0, "fusion_lat": 0.0}, {"fusion_lon": 0.0, "bike_id": "3897c4a8cd52fb4d780a37c6ebaad0b6", "name": "3897c4a8cd52fb4d780a37c6ebaad0b6", "type": "electric_scooter", "lon": -76.937281, "rental_uris": {"android": "https://dc.lft.to/lastmile_qr_scan", "ios": "https://dc.lft.to/lastmile_qr_scan"}, "lat": 38.8910255, "is_reserved": 0, "is_disabled": 0, "fusion_lat": 0.0}, {"fusion_lon": 0.0, "bike_id": "8c36f85c8a213db04fd8b0f2590ecf03", "name": "8c36f85c8a213db04fd8b0f2590ecf03", "type": "electric_scooter", "lon": -77.00335016666666, "rental_uris": {"android": "https://dc.lft.to/lastmile_qr_scan", "ios": "https://dc.lft.to/lastmile_qr_scan"}, "lat": 38.893502166666664, "is_reserved": 0, "is_disabled": 0, "fusion_lat": 0.0}, {"fusion_lon": 0.0, "bike_id": "e8c09089c29217e0e429b5398fb4adb7", "name": "e8c09089c29217e0e429b5398fb4adb7", "type": "electric_scooter", "lon": -76.99146566666667, "rental_uris": {"android": "https://dc.lft.to/lastmile_qr_scan", "ios": "https://dc.lft.to/lastmile_qr_scan"}, "lat": 38.87904916666667, "is_reserved": 0, "is_disabled": 0, "fusion_lat": 0.0}, {"fusion_lon": 0.0, "bike_id": "daad091107a2fe2840bb20be79dc6519", "name": "daad091107a2fe2840bb20be79dc6519", "type": "electric_scooter", "lon": -77.03424066666666, "rental_uris": {"android": "https://dc.lft.to/lastmile_qr_scan", "ios": "https://dc.lft.to/lastmile_qr_scan"}, "lat": 38.92937916666666, "is_reserved": 0, "is_disabled": 0, "fusion_lat": 0.0}, {"fusion_lon": 0.0, "bike_id": "dadb32054a20c5bb498b6d4e6ce1511d", "name": "dadb32054a20c5bb498b6d4e6ce1511d", "type": "electric_scooter", "lon": -77.038713, "rental_uris": {"android": "https://dc.lft.to/lastmile_qr_scan", "ios": "https://dc.lft.to/lastmile_qr_scan"}, "lat": 38.91974616666667, "is_reserved": 0, "is_disabled": 0, "fusion_lat": 0.0}, {"fusion_lon": 0.0, "bike_id": "8226f9c0e56b112ef3fdd2cfd8f04cea", "name": "8226f9c0e56b112ef3fdd2cfd8f04cea", "type": "electric_scooter", "lon": -77.037604, "rental_uris": {"android": "https://dc.lft.to/lastmile_qr_scan", "ios": "https://dc.lft.to/lastmile_qr_scan"}, "lat": 38.92465083333333, "is_reserved": 0, "is_disabled": 0, "fusion_lat": 0.0}, {"fusion_lon": 0.0, "bike_id": "3cc970a034d579b8a1e22de95f921f1b", "name": "3cc970a034d579b8a1e22de95f921f1b", "type": "electric_scooter", "lon": -77.0280145, "rental_uris": {"android": "https://dc.lft.to/lastmile_qr_scan", "ios": "https://dc.lft.to/lastmile_qr_scan"}, "lat": 38.906141833333336, "is_reserved": 0, "is_disabled": 0, "fusion_lat": 0.0}, {"fusion_lon": 0.0, "bike_id": "9b0bda0d715e6bbb194d05d0444aed65", "name": "9b0bda0d715e6bbb194d05d0444aed65", "type": "electric_bike", "lon": -76.99758533333333, "rental_uris": {"android": "https://dc.lft.to/lastmile_qr_scan", "ios": "https://dc.lft.to/lastmile_qr_scan"}, "lat": 39.00589166666666, "is_reserved": 0, "is_disabled": 0, "fusion_lat": 0.0}, {"fusion_lon": 0.0, "bike_id": "d9527f2d1f8759b7c7ef7b45f6cac1c6", "name": "d9527f2d1f8759b7c7ef7b45f6cac1c6", "type": "electric_scooter", "lon": -77.04171966666667, "rental_uris": {"android": "https://dc.lft.to/lastmile_qr_scan", "ios": "https://dc.lft.to/lastmile_qr_scan"}, "lat": 38.9031855, "is_reserved": 0, "is_disabled": 0, "fusion_lat": 0.0}, {"fusion_lon": 0.0, "bike_id": "2d26a829d255b1693e9c5b454caa32f2", "name": "2d26a829d255b1693e9c5b454caa32f2", "type": "electric_scooter", "lon": -77.03066833333334, "rental_uris": {"android": "https://dc.lft.to/lastmile_qr_scan", "ios": "https://dc.lft.to/lastmile_qr_scan"}, "lat": 38.8804595, "is_reserved": 0, "is_disabled": 0, "fusion_lat": 0.0}, {"fusion_lon": 0.0, "bike_id": "7be0e7b8fd8b578f3524d365e7e86cda", "name": "7be0e7b8fd8b578f3524d365e7e86cda", "type": "electric_bike", "lon": -77.01242433333333, "rental_uris": {"android": "https://dc.lft.to/lastmile_qr_scan", "ios": "https://dc.lft.to/lastmile_qr_scan"}, "lat": 38.88741566666667, "is_reserved": 0, "is_disabled": 0, "fusion_lat": 0.0}, {"fusion_lon": 0.0, "bike_id": "0fc8e7d43ffec438e43176cb5afe3c48", "name": "0fc8e7d43ffec438e43176cb5afe3c48", "type": "electric_scooter", "lon": -77.03668166666667, "rental_uris": {"android": "https://dc.lft.to/lastmile_qr_scan", "ios": "https://dc.lft.to/lastmile_qr_scan"}, "lat": 38.90259733333333, "is_reserved": 0, "is_disabled": 0, "fusion_lat": 0.0}, {"fusion_lon": 0.0, "bike_id": "a20f65f8ad6f32b528b48feff41e2d20", "name": "a20f65f8ad6f32b528b48feff41e2d20", "type": "electric_scooter", "lon": -77.02207, "rental_uris": {"android": "https://dc.lft.to/lastmile_qr_scan", "ios": "https://dc.lft.to/lastmile_qr_scan"}, "lat": 38.89538566666667, "is_reserved": 0, "is_disabled": 0, "fusion_lat": 0.0}, {"fusion_lon": 0.0, "bike_id": "9f4c46749fd5bf1d2b132ef363bfaab0", "name": "9f4c46749fd5bf1d2b132ef363bfaab0", "type": "electric_scooter", "lon": -77.029575, "rental_uris": {"android": "https://dc.lft.to/lastmile_qr_scan", "ios": "https://dc.lft.to/lastmile_qr_scan"}, "lat": 38.903974833333336, "is_reserved": 0, "is_disabled": 0, "fusion_lat": 0.0}, {"fusion_lon": 0.0, "bike_id": "6d3dc5f4aee295f16fdc8be6f1330aae", "name": "6d3dc5f4aee295f16fdc8be6f1330aae", "type": "electric_scooter", "lon": -77.03383916666667, "rental_uris": {"android": "https://dc.lft.to/lastmile_qr_scan", "ios": "https://dc.lft.to/lastmile_qr_scan"}, "lat": 38.92535783333334, "is_reserved": 0, "is_disabled": 0, "fusion_lat": 0.0}, {"fusion_lon": 0.0, "bike_id": "1355c8c05087bf1a826ddf8d5f04e878", "name": "1355c8c05087bf1a826ddf8d5f04e878", "type": "electric_bike", "lon": -77.06383116666666, "rental_uris": {"android": "https://dc.lft.to/lastmile_qr_scan", "ios": "https://dc.lft.to/lastmile_qr_scan"}, "lat": 38.944945, "is_reserved": 0, "is_disabled": 0, "fusion_lat": 0.0}, {"fusion_lon": 0.0, "bike_id": "c44a8e13d3f433b323b4c7c27aa6bc8d", "name": "c44a8e13d3f433b323b4c7c27aa6bc8d", "type": "electric_bike", "lon": -77.131831, "rental_uris": {"android": "https://dc.lft.to/lastmile_qr_scan", "ios": "https://dc.lft.to/lastmile_qr_scan"}, "lat": 38.8690365, "is_reserved": 0, "is_disabled": 0, "fusion_lat": 0.0}, {"fusion_lon": 0.0, "bike_id": "f8b05a94e47a4ffdbe6631bd99bcd0be", "name": "f8b05a94e47a4ffdbe6631bd99bcd0be", "type": "electric_scooter", "lon": -77.01194033333333, "rental_uris": {"android": "https://dc.lft.to/lastmile_qr_scan", "ios": "https://dc.lft.to/lastmile_qr_scan"}, "lat": 38.871566666666666, "is_reserved": 0, "is_disabled": 0, "fusion_lat": 0.0}, {"fusion_lon": 0.0, "bike_id": "0ee95d677781ee949fd93262b7268c1e", "name": "0ee95d677781ee949fd93262b7268c1e", "type": "electric_scooter", "lon": -77.02784033333333, "rental_uris": {"android": "https://dc.lft.to/lastmile_qr_scan", "ios": "https://dc.lft.to/lastmile_qr_scan"}, "lat": 38.8816185, "is_reserved": 0, "is_disabled": 0, "fusion_lat": 0.0}, {"fusion_lon": 0.0, "bike_id": "06b62b9166c213385b1c02d2ac6fee6e", "name": "06b62b9166c213385b1c02d2ac6fee6e", "type": "electric_scooter", "lon": -76.92954983333334, "rental_uris": {"android": "https://dc.lft.to/lastmile_qr_scan", "ios": "https://dc.lft.to/lastmile_qr_scan"}, "lat": 38.89878233333334, "is_reserved": 0, "is_disabled": 0, "fusion_lat": 0.0}, {"fusion_lon": 0.0, "bike_id": "b9a080208c8193efb586213137e4c1b6", "name": "b9a080208c8193efb586213137e4c1b6", "type": "electric_bike", "lon": -77.02653166666667, "rental_uris": {"android": "https://dc.lft.to/lastmile_qr_scan", "ios": "https://dc.lft.to/lastmile_qr_scan"}, "lat": 38.98814433333333, "is_reserved": 0, "is_disabled": 0, "fusion_lat": 0.0}, {"fusion_lon": 0.0, "bike_id": "66a6ee3cd77232a299492082ba2c0fd5", "name": "66a6ee3cd77232a299492082ba2c0fd5", "type": "electric_scooter", "lon": -77.04678783333334, "rental_uris": {"android": "https://dc.lft.to/lastmile_qr_scan", "ios": "https://dc.lft.to/lastmile_qr_scan"}, "lat": 38.90337533333334, "is_reserved": 0, "is_disabled": 0, "fusion_lat": 0.0}, {"fusion_lon": 0.0, "bike_id": "1d2f57f4dafcb88ac00382b4de650a11", "name": "1d2f57f4dafcb88ac00382b4de650a11", "type": "electric_scooter", "lon": -77.02371033333333, "rental_uris": {"android": "https://dc.lft.to/lastmile_qr_scan", "ios": "https://dc.lft.to/lastmile_qr_scan"}, "lat": 38.9072435, "is_reserved": 0, "is_disabled": 0, "fusion_lat": 0.0}, {"fusion_lon": 0.0, "bike_id": "9d7d6415c9e2e30d865103c755f15eec", "name": "9d7d6415c9e2e30d865103c755f15eec", "type": "electric_scooter", "lon": -77.01215466666666, "rental_uris": {"android": "https://dc.lft.to/lastmile_qr_scan", "ios": "https://dc.lft.to/lastmile_qr_scan"}, "lat": 38.89331833333333, "is_reserved": 0, "is_disabled": 0, "fusion_lat": 0.0}, {"fusion_lon": 0.0, "bike_id": "a4805b4df640858e322d43ad3f1a8c1e", "name": "a4805b4df640858e322d43ad3f1a8c1e", "type": "electric_bike", "lon": -77.08533216666666, "rental_uris": {"android": "https://dc.lft.to/lastmile_qr_scan", "ios": "https://dc.lft.to/lastmile_qr_scan"}, "lat": 38.8564675, "is_reserved": 0, "is_disabled": 0, "fusion_lat": 0.0}, {"fusion_lon": 0.0, "bike_id": "189afb7a4a62c342b8ec49ef7ca2f6b6", "name": "189afb7a4a62c342b8ec49ef7ca2f6b6", "type": "electric_scooter", "lon": -77.01107983333333, "rental_uris": {"android": "https://dc.lft.to/lastmile_qr_scan", "ios": "https://dc.lft.to/lastmile_qr_scan"}, "lat": 38.90362916666667, "is_reserved": 0, "is_disabled": 0, "fusion_lat": 0.0}, {"fusion_lon": 0.0, "bike_id": "ce810b2bb49e634c621d7a2b8ea99e6d", "name": "ce810b2bb49e634c621d7a2b8ea99e6d", "type": "electric_scooter", "lon": -77.03392033333333, "rental_uris": {"android": "https://dc.lft.to/lastmile_qr_scan", "ios": "https://dc.lft.to/lastmile_qr_scan"}, "lat": 38.886544666666666, "is_reserved": 0, "is_disabled": 0, "fusion_lat": 0.0}, {"fusion_lon": 0.0, "bike_id": "004f75202c4996a2e81ea646466c5fc6", "name": "004f75202c4996a2e81ea646466c5fc6", "type": "electric_scooter", "lon": -77.04842266666667, "rental_uris": {"android": "https://dc.lft.to/lastmile_qr_scan", "ios": "https://dc.lft.to/lastmile_qr_scan"}, "lat": 38.913447166666664, "is_reserved": 0, "is_disabled": 0, "fusion_lat": 0.0}, {"fusion_lon": 0.0, "bike_id": "5657d0bd9f3b265afb059f127f6b5e10", "name": "5657d0bd9f3b265afb059f127f6b5e10", "type": "electric_scooter", "lon": -77.00336366666667, "rental_uris": {"android": "https://dc.lft.to/lastmile_qr_scan", "ios": "https://dc.lft.to/lastmile_qr_scan"}, "lat": 38.8935245, "is_reserved": 0, "is_disabled": 0, "fusion_lat": 0.0}, {"fusion_lon": 0.0, "bike_id": "31ceaafb812b422f244c96885a473837", "name": "31ceaafb812b422f244c96885a473837", "type": "electric_scooter", "lon": -77.03207983333333, "rental_uris": {"android": "https://dc.lft.to/lastmile_qr_scan", "ios": "https://dc.lft.to/lastmile_qr_scan"}, "lat": 38.90780916666667, "is_reserved": 0, "is_disabled": 0, "fusion_lat": 0.0}, {"fusion_lon": 0.0, "bike_id": "3fea24ebbd5252ad280d46f1f90c9e4b", "name": "3fea24ebbd5252ad280d46f1f90c9e4b", "type": "electric_scooter", "lon": -76.9484145, "rental_uris": {"android": "https://dc.lft.to/lastmile_qr_scan", "ios": "https://dc.lft.to/lastmile_qr_scan"}, "lat": 38.89482133333333, "is_reserved": 0, "is_disabled": 0, "fusion_lat": 0.0}, {"fusion_lon": 0.0, "bike_id": "0c5f798bdb7f2124fd53b575a7df6f58", "name": "0c5f798bdb7f2124fd53b575a7df6f58", "type": "electric_scooter", "lon": -77.0370075, "rental_uris": {"android": "https://dc.lft.to/lastmile_qr_scan", "ios": "https://dc.lft.to/lastmile_qr_scan"}, "lat": 38.926424, "is_reserved": 0, "is_disabled": 0, "fusion_lat": 0.0}, {"fusion_lon": 0.0, "bike_id": "a3571d08b9f31f3a09ce4e08e94a48c4", "name": "a3571d08b9f31f3a09ce4e08e94a48c4", "type": "electric_bike", "lon": -77.02621966666666, "rental_uris": {"android": "https://dc.lft.to/lastmile_qr_scan", "ios": "https://dc.lft.to/lastmile_qr_scan"}, "lat": 38.9622465, "is_reserved": 0, "is_disabled": 0, "fusion_lat": 0.0}, {"fusion_lon": 0.0, "bike_id": "12e8c9cdd2189eff3dbf0dae29ddb434", "name": "12e8c9cdd2189eff3dbf0dae29ddb434", "type": "electric_scooter", "lon": -77.062555, "rental_uris": {"android": "https://dc.lft.to/lastmile_qr_scan", "ios": "https://dc.lft.to/lastmile_qr_scan"}, "lat": 38.9131825, "is_reserved": 0, "is_disabled": 0, "fusion_lat": 0.0}, {"fusion_lon": 0.0, "bike_id": "48d50ea27638715efec2eab0bb5973ff", "name": "48d50ea27638715efec2eab0bb5973ff", "type": "electric_scooter", "lon": -77.01996533333333, "rental_uris": {"android": "https://dc.lft.to/lastmile_qr_scan", "ios": "https://dc.lft.to/lastmile_qr_scan"}, "lat": 38.966357, "is_reserved": 0, "is_disabled": 0, "fusion_lat": 0.0}, {"fusion_lon": 0.0, "bike_id": "5ab87d78545faf34b830186389a530b1", "name": "5ab87d78545faf34b830186389a530b1", "type": "electric_scooter", "lon": -77.0466025, "rental_uris": {"android": "https://dc.lft.to/lastmile_qr_scan", "ios": "https://dc.lft.to/lastmile_qr_scan"}, "lat": 38.89998883333333, "is_reserved": 0, "is_disabled": 0, "fusion_lat": 0.0}, {"fusion_lon": 0.0, "bike_id": "64e7c1a41f88bf2881ff89c1bea2bd8e", "name": "64e7c1a41f88bf2881ff89c1bea2bd8e", "type": "electric_scooter", "lon": -76.99363633333333, "rental_uris": {"android": "https://dc.lft.to/lastmile_qr_scan", "ios": "https://dc.lft.to/lastmile_qr_scan"}, "lat": 38.92840266666666, "is_reserved": 0, "is_disabled": 0, "fusion_lat": 0.0}, {"fusion_lon": 0.0, "bike_id": "d90d97fceecc43a22d29503382143c91", "name": "d90d97fceecc43a22d29503382143c91", "type": "electric_scooter", "lon": -77.012076, "rental_uris": {"android": "https://dc.lft.to/lastmile_qr_scan", "ios": "https://dc.lft.to/lastmile_qr_scan"}, "lat": 38.9258435, "is_reserved": 0, "is_disabled": 0, "fusion_lat": 0.0}, {"fusion_lon": 0.0, "bike_id": "a82841812de61b9d3e0afe138f653711", "name": "a82841812de61b9d3e0afe138f653711", "type": "electric_scooter", "lon": -77.02302883333333, "rental_uris": {"android": "https://dc.lft.to/lastmile_qr_scan", "ios": "https://dc.lft.to/lastmile_qr_scan"}, "lat": 38.9171995, "is_reserved": 0, "is_disabled": 0, "fusion_lat": 0.0}, {"fusion_lon": 0.0, "bike_id": "b05f583c5883812e41818cc7a0865162", "name": "b05f583c5883812e41818cc7a0865162", "type": "electric_scooter", "lon": -76.99081633333333, "rental_uris": {"android": "https://dc.lft.to/lastmile_qr_scan", "ios": "https://dc.lft.to/lastmile_qr_scan"}, "lat": 38.860453666666665, "is_reserved": 0, "is_disabled": 0, "fusion_lat": 0.0}, {"fusion_lon": 0.0, "bike_id": "af42cff0f9a295731691c4d36ed908d7", "name": "af42cff0f9a295731691c4d36ed908d7", "type": "electric_scooter", "lon": -77.02224616666666, "rental_uris": {"android": "https://dc.lft.to/lastmile_qr_scan", "ios": "https://dc.lft.to/lastmile_qr_scan"}, "lat": 38.892177, "is_reserved": 0, "is_disabled": 0, "fusion_lat": 0.0}, {"fusion_lon": 0.0, "bike_id": "0bcb9722deb3f891e4ae923bf31ad993", "name": "0bcb9722deb3f891e4ae923bf31ad993", "type": "electric_scooter", "lon": -76.99007, "rental_uris": {"android": "https://dc.lft.to/lastmile_qr_scan", "ios": "https://dc.lft.to/lastmile_qr_scan"}, "lat": 38.86504983333333, "is_reserved": 0, "is_disabled": 0, "fusion_lat": 0.0}, {"fusion_lon": 0.0, "bike_id": "baca3df3d403c23fa4d590e6166e2cd4", "name": "baca3df3d403c23fa4d590e6166e2cd4", "type": "electric_scooter", "lon": -77.02356966666666, "rental_uris": {"android": "https://dc.lft.to/lastmile_qr_scan", "ios": "https://dc.lft.to/lastmile_qr_scan"}, "lat": 38.93536233333333, "is_reserved": 0, "is_disabled": 0, "fusion_lat": 0.0}, {"fusion_lon": 0.0, "bike_id": "d3204930587a96f93b0df26bd09a3c6b", "name": "d3204930587a96f93b0df26bd09a3c6b", "type": "electric_scooter", "lon": -76.94157116666666, "rental_uris": {"android": "https://dc.lft.to/lastmile_qr_scan", "ios": "https://dc.lft.to/lastmile_qr_scan"}, "lat": 38.88362383333333, "is_reserved": 0, "is_disabled": 0, "fusion_lat": 0.0}, {"fusion_lon": 0.0, "bike_id": "e07e622efb39b2d1756323e30f820a60", "name": "e07e622efb39b2d1756323e30f820a60", "type": "electric_scooter", "lon": -77.033834, "rental_uris": {"android": "https://dc.lft.to/lastmile_qr_scan", "ios": "https://dc.lft.to/lastmile_qr_scan"}, "lat": 38.8866055, "is_reserved": 0, "is_disabled": 0, "fusion_lat": 0.0}, {"fusion_lon": 0.0, "bike_id": "c08d13ff683ebe4b25ec4ea8ee15c6cb", "name": "c08d13ff683ebe4b25ec4ea8ee15c6cb", "type": "electric_scooter", "lon": -76.97279433333334, "rental_uris": {"android": "https://dc.lft.to/lastmile_qr_scan", "ios": "https://dc.lft.to/lastmile_qr_scan"}, "lat": 38.930840833333335, "is_reserved": 0, "is_disabled": 0, "fusion_lat": 0.0}, {"fusion_lon": 0.0, "bike_id": "4a264fbffc30201ec33432426a2db049", "name": "4a264fbffc30201ec33432426a2db049", "type": "electric_scooter", "lon": -77.02447083333334, "rental_uris": {"android": "https://dc.lft.to/lastmile_qr_scan", "ios": "https://dc.lft.to/lastmile_qr_scan"}, "lat": 38.9024075, "is_reserved": 0, "is_disabled": 0, "fusion_lat": 0.0}, {"fusion_lon": 0.0, "bike_id": "181cf58f9f41adcaf21b0541a1447cc9", "name": "181cf58f9f41adcaf21b0541a1447cc9", "type": "electric_bike", "lon": -76.994283, "rental_uris": {"android": "https://dc.lft.to/lastmile_qr_scan", "ios": "https://dc.lft.to/lastmile_qr_scan"}, "lat": 38.87669866666667, "is_reserved": 0, "is_disabled": 0, "fusion_lat": 0.0}, {"fusion_lon": 0.0, "bike_id": "21d2ba7206f18ace6bcac3513bc0367f", "name": "21d2ba7206f18ace6bcac3513bc0367f", "type": "electric_scooter", "lon": -77.00110083333334, "rental_uris": {"android": "https://dc.lft.to/lastmile_qr_scan", "ios": "https://dc.lft.to/lastmile_qr_scan"}, "lat": 38.91710116666667, "is_reserved": 0, "is_disabled": 0, "fusion_lat": 0.0}, {"fusion_lon": 0.0, "bike_id": "2a92772c894ff35f05f58090e9a95449", "name": "2a92772c894ff35f05f58090e9a95449", "type": "electric_bike", "lon": -77.0060785, "rental_uris": {"android": "https://dc.lft.to/lastmile_qr_scan", "ios": "https://dc.lft.to/lastmile_qr_scan"}, "lat": 38.898052, "is_reserved": 0, "is_disabled": 0, "fusion_lat": 0.0}, {"fusion_lon": 0.0, "bike_id": "75d2b811198a1f426992e09b97bbcb6f", "name": "75d2b811198a1f426992e09b97bbcb6f", "type": "electric_scooter", "lon": -77.03209333333334, "rental_uris": {"android": "https://dc.lft.to/lastmile_qr_scan", "ios": "https://dc.lft.to/lastmile_qr_scan"}, "lat": 38.90522716666667, "is_reserved": 0, "is_disabled": 0, "fusion_lat": 0.0}, {"fusion_lon": 0.0, "bike_id": "4fed506763f3820b189f837b91e11baa", "name": "4fed506763f3820b189f837b91e11baa", "type": "electric_scooter", "lon": -77.05271066666667, "rental_uris": {"android": "https://dc.lft.to/lastmile_qr_scan", "ios": "https://dc.lft.to/lastmile_qr_scan"}, "lat": 38.92247066666667, "is_reserved": 0, "is_disabled": 0, "fusion_lat": 0.0}, {"fusion_lon": 0.0, "bike_id": "2b28201fcaa9a57ea74ee91c39deaafe", "name": "2b28201fcaa9a57ea74ee91c39deaafe", "type": "electric_scooter", "lon": -77.024124, "rental_uris": {"android": "https://dc.lft.to/lastmile_qr_scan", "ios": "https://dc.lft.to/lastmile_qr_scan"}, "lat": 38.957423, "is_reserved": 0, "is_disabled": 0, "fusion_lat": 0.0}, {"fusion_lon": 0.0, "bike_id": "c35c8ccea629b8c267376f601d33e7bc", "name": "c35c8ccea629b8c267376f601d33e7bc", "type": "electric_scooter", "lon": -76.98729083333333, "rental_uris": {"android": "https://dc.lft.to/lastmile_qr_scan", "ios": "https://dc.lft.to/lastmile_qr_scan"}, "lat": 38.867047, "is_reserved": 0, "is_disabled": 0, "fusion_lat": 0.0}, {"fusion_lon": 0.0, "bike_id": "c4608de00cca52f5bf76e2e0fdf490fc", "name": "c4608de00cca52f5bf76e2e0fdf490fc", "type": "electric_scooter", "lon": -77.04229833333333, "rental_uris": {"android": "https://dc.lft.to/lastmile_qr_scan", "ios": "https://dc.lft.to/lastmile_qr_scan"}, "lat": 38.90935566666667, "is_reserved": 0, "is_disabled": 0, "fusion_lat": 0.0}, {"fusion_lon": 0.0, "bike_id": "f4c0d509288990a53b3a846cf88e56d2", "name": "f4c0d509288990a53b3a846cf88e56d2", "type": "electric_scooter", "lon": -77.02570083333333, "rental_uris": {"android": "https://dc.lft.to/lastmile_qr_scan", "ios": "https://dc.lft.to/lastmile_qr_scan"}, "lat": 38.890413833333334, "is_reserved": 0, "is_disabled": 0, "fusion_lat": 0.0}, {"fusion_lon": 0.0, "bike_id": "1fa3405e303264a25f04498183d6a63a", "name": "1fa3405e303264a25f04498183d6a63a", "type": "electric_scooter", "lon": -77.03839, "rental_uris": {"android": "https://dc.lft.to/lastmile_qr_scan", "ios": "https://dc.lft.to/lastmile_qr_scan"}, "lat": 38.90384666666667, "is_reserved": 0, "is_disabled": 0, "fusion_lat": 0.0}, {"fusion_lon": 0.0, "bike_id": "48bdff4d3057c8cb3649157142288b9f", "name": "48bdff4d3057c8cb3649157142288b9f", "type": "electric_scooter", "lon": -77.0248435, "rental_uris": {"android": "https://dc.lft.to/lastmile_qr_scan", "ios": "https://dc.lft.to/lastmile_qr_scan"}, "lat": 38.8801135, "is_reserved": 0, "is_disabled": 0, "fusion_lat": 0.0}, {"fusion_lon": 0.0, "bike_id": "854d3f872429f0b3e1ed02a76571ec56", "name": "854d3f872429f0b3e1ed02a76571ec56", "type": "electric_scooter", "lon": -77.00568466666667, "rental_uris": {"android": "https://dc.lft.to/lastmile_qr_scan", "ios": "https://dc.lft.to/lastmile_qr_scan"}, "lat": 38.9035225, "is_reserved": 0, "is_disabled": 0, "fusion_lat": 0.0}, {"fusion_lon": 0.0, "bike_id": "cfebeb1493fbbb6d611b1906572894f0", "name": "cfebeb1493fbbb6d611b1906572894f0", "type": "electric_scooter", "lon": -77.02423766666666, "rental_uris": {"android": "https://dc.lft.to/lastmile_qr_scan", "ios": "https://dc.lft.to/lastmile_qr_scan"}, "lat": 38.89535683333333, "is_reserved": 0, "is_disabled": 0, "fusion_lat": 0.0}, {"fusion_lon": 0.0, "bike_id": "648564b711c2f7dce6637a6c148dc902", "name": "648564b711c2f7dce6637a6c148dc902", "type": "electric_scooter", "lon": -77.020127, "rental_uris": {"android": "https://dc.lft.to/lastmile_qr_scan", "ios": "https://dc.lft.to/lastmile_qr_scan"}, "lat": 38.924111833333335, "is_reserved": 0, "is_disabled": 0, "fusion_lat": 0.0}, {"fusion_lon": 0.0, "bike_id": "3eaa5fe11ee67c06ce0de08420b1c741", "name": "3eaa5fe11ee67c06ce0de08420b1c741", "type": "electric_scooter", "lon": -77.00963716666666, "rental_uris": {"android": "https://dc.lft.to/lastmile_qr_scan", "ios": "https://dc.lft.to/lastmile_qr_scan"}, "lat": 38.88122033333333, "is_reserved": 0, "is_disabled": 0, "fusion_lat": 0.0}, {"fusion_lon": 0.0, "bike_id": "4e289a1c0159d36fd0595973783bcba3", "name": "4e289a1c0159d36fd0595973783bcba3", "type": "electric_scooter", "lon": -77.04397683333333, "rental_uris": {"android": "https://dc.lft.to/lastmile_qr_scan", "ios": "https://dc.lft.to/lastmile_qr_scan"}, "lat": 38.911108166666665, "is_reserved": 0, "is_disabled": 0, "fusion_lat": 0.0}, {"fusion_lon": 0.0, "bike_id": "da757771e1be663aadc33a943f49c0f2", "name": "da757771e1be663aadc33a943f49c0f2", "type": "electric_scooter", "lon": -77.0277965, "rental_uris": {"android": "https://dc.lft.to/lastmile_qr_scan", "ios": "https://dc.lft.to/lastmile_qr_scan"}, "lat": 38.892177, "is_reserved": 0, "is_disabled": 0, "fusion_lat": 0.0}, {"fusion_lon": 0.0, "bike_id": "da691accffad64e8334765b41a19194d", "name": "da691accffad64e8334765b41a19194d", "type": "electric_scooter", "lon": -77.04123, "rental_uris": {"android": "https://dc.lft.to/lastmile_qr_scan", "ios": "https://dc.lft.to/lastmile_qr_scan"}, "lat": 38.906247666666665, "is_reserved": 0, "is_disabled": 0, "fusion_lat": 0.0}, {"fusion_lon": 0.0, "bike_id": "dbbb3d8b5dfed64a5c13b7f20356b646", "name": "dbbb3d8b5dfed64a5c13b7f20356b646", "type": "electric_scooter", "lon": -77.063512, "rental_uris": {"android": "https://dc.lft.to/lastmile_qr_scan", "ios": "https://dc.lft.to/lastmile_qr_scan"}, "lat": 38.94446516666667, "is_reserved": 0, "is_disabled": 0, "fusion_lat": 0.0}, {"fusion_lon": 0.0, "bike_id": "db958c91cb29db64acdd94a6403bbceb", "name": "db958c91cb29db64acdd94a6403bbceb", "type": "electric_scooter", "lon": -77.03249266666667, "rental_uris": {"android": "https://dc.lft.to/lastmile_qr_scan", "ios": "https://dc.lft.to/lastmile_qr_scan"}, "lat": 38.90420783333333, "is_reserved": 0, "is_disabled": 0, "fusion_lat": 0.0}, {"fusion_lon": 0.0, "bike_id": "d731b9d15a5d8969007223ba00d3c77b", "name": "d731b9d15a5d8969007223ba00d3c77b", "type": "electric_scooter", "lon": -77.0254365, "rental_uris": {"android": "https://dc.lft.to/lastmile_qr_scan", "ios": "https://dc.lft.to/lastmile_qr_scan"}, "lat": 38.8973135, "is_reserved": 0, "is_disabled": 0, "fusion_lat": 0.0}, {"fusion_lon": 0.0, "bike_id": "2e6e82f75f9dc6808d2a86a041934812", "name": "2e6e82f75f9dc6808d2a86a041934812", "type": "electric_scooter", "lon": -77.04508216666666, "rental_uris": {"android": "https://dc.lft.to/lastmile_qr_scan", "ios": "https://dc.lft.to/lastmile_qr_scan"}, "lat": 38.886054333333334, "is_reserved": 0, "is_disabled": 0, "fusion_lat": 0.0}, {"fusion_lon": 0.0, "bike_id": "4741271a885dd9c7fbd8b7f109457656", "name": "4741271a885dd9c7fbd8b7f109457656", "type": "electric_scooter", "lon": -77.036995, "rental_uris": {"android": "https://dc.lft.to/lastmile_qr_scan", "ios": "https://dc.lft.to/lastmile_qr_scan"}, "lat": 38.920268166666666, "is_reserved": 0, "is_disabled": 0, "fusion_lat": 0.0}, {"fusion_lon": 0.0, "bike_id": "b2f457fb4bd3facf5caabb9f6021eee5", "name": "b2f457fb4bd3facf5caabb9f6021eee5", "type": "electric_bike", "lon": -77.10132516666667, "rental_uris": {"android": "https://dc.lft.to/lastmile_qr_scan", "ios": "https://dc.lft.to/lastmile_qr_scan"}, "lat": 38.85216466666667, "is_reserved": 0, "is_disabled": 0, "fusion_lat": 0.0}, {"fusion_lon": 0.0, "bike_id": "0c3de9c28d8bd2341ac3c9746a7e50cf", "name": "0c3de9c28d8bd2341ac3c9746a7e50cf", "type": "electric_scooter", "lon": -76.99093766666667, "rental_uris": {"android": "https://dc.lft.to/lastmile_qr_scan", "ios": "https://dc.lft.to/lastmile_qr_scan"}, "lat": 38.863551, "is_reserved": 0, "is_disabled": 0, "fusion_lat": 0.0}, {"fusion_lon": 0.0, "bike_id": "3cdca683a86fc7c1bf8977978bdc7f5d", "name": "3cdca683a86fc7c1bf8977978bdc7f5d", "type": "electric_scooter", "lon": -77.02919733333333, "rental_uris": {"android": "https://dc.lft.to/lastmile_qr_scan", "ios": "https://dc.lft.to/lastmile_qr_scan"}, "lat": 38.89977316666667, "is_reserved": 0, "is_disabled": 0, "fusion_lat": 0.0}, {"fusion_lon": 0.0, "bike_id": "96764ab2ca9b51fbb4ff6a810116c64d", "name": "96764ab2ca9b51fbb4ff6a810116c64d", "type": "electric_scooter", "lon": -77.038042, "rental_uris": {"android": "https://dc.lft.to/lastmile_qr_scan", "ios": "https://dc.lft.to/lastmile_qr_scan"}, "lat": 38.91033183333333, "is_reserved": 0, "is_disabled": 0, "fusion_lat": 0.0}, {"fusion_lon": 0.0, "bike_id": "a5b296cc30ce993291d16d48b86ba72f", "name": "a5b296cc30ce993291d16d48b86ba72f", "type": "electric_bike", "lon": -77.00833766666666, "rental_uris": {"android": "https://dc.lft.to/lastmile_qr_scan", "ios": "https://dc.lft.to/lastmile_qr_scan"}, "lat": 38.887170833333336, "is_reserved": 0, "is_disabled": 0, "fusion_lat": 0.0}, {"fusion_lon": 0.0, "bike_id": "64ded0e69f537853f926758204e0280e", "name": "64ded0e69f537853f926758204e0280e", "type": "electric_scooter", "lon": -77.04596716666667, "rental_uris": {"android": "https://dc.lft.to/lastmile_qr_scan", "ios": "https://dc.lft.to/lastmile_qr_scan"}, "lat": 38.896074666666664, "is_reserved": 0, "is_disabled": 0, "fusion_lat": 0.0}, {"fusion_lon": 0.0, "bike_id": "3e7e3a7dfa90be078deffbc6eb018814", "name": "3e7e3a7dfa90be078deffbc6eb018814", "type": "electric_scooter", "lon": -77.03525033333334, "rental_uris": {"android": "https://dc.lft.to/lastmile_qr_scan", "ios": "https://dc.lft.to/lastmile_qr_scan"}, "lat": 38.9327835, "is_reserved": 0, "is_disabled": 0, "fusion_lat": 0.0}, {"fusion_lon": 0.0, "bike_id": "6889e0092fddf972b38697fd1cb4387e", "name": "6889e0092fddf972b38697fd1cb4387e", "type": "electric_scooter", "lon": -77.03240216666667, "rental_uris": {"android": "https://dc.lft.to/lastmile_qr_scan", "ios": "https://dc.lft.to/lastmile_qr_scan"}, "lat": 38.91261216666667, "is_reserved": 0, "is_disabled": 0, "fusion_lat": 0.0}, {"fusion_lon": 0.0, "bike_id": "947032c991055f5e469c19d4184a7f76", "name": "947032c991055f5e469c19d4184a7f76", "type": "electric_scooter", "lon": -77.01893016666666, "rental_uris": {"android": "https://dc.lft.to/lastmile_qr_scan", "ios": "https://dc.lft.to/lastmile_qr_scan"}, "lat": 38.94921866666667, "is_reserved": 0, "is_disabled": 0, "fusion_lat": 0.0}, {"fusion_lon": 0.0, "bike_id": "9f934251ab7a06e0cb6a20f7ed15a468", "name": "9f934251ab7a06e0cb6a20f7ed15a468", "type": "electric_bike", "lon": -77.1005765, "rental_uris": {"android": "https://dc.lft.to/lastmile_qr_scan", "ios": "https://dc.lft.to/lastmile_qr_scan"}, "lat": 38.92365916666667, "is_reserved": 0, "is_disabled": 0, "fusion_lat": 0.0}, {"fusion_lon": 0.0, "bike_id": "a37ddac47d9bbd39ec8e1ee38fedd43d", "name": "a37ddac47d9bbd39ec8e1ee38fedd43d", "type": "electric_scooter", "lon": -77.02839583333333, "rental_uris": {"android": "https://dc.lft.to/lastmile_qr_scan", "ios": "https://dc.lft.to/lastmile_qr_scan"}, "lat": 38.89823916666667, "is_reserved": 0, "is_disabled": 0, "fusion_lat": 0.0}, {"fusion_lon": 0.0, "bike_id": "ee221db776f72c86ee3dd6e3282e3b5e", "name": "ee221db776f72c86ee3dd6e3282e3b5e", "type": "electric_bike", "lon": -76.98160783333333, "rental_uris": {"android": "https://dc.lft.to/lastmile_qr_scan", "ios": "https://dc.lft.to/lastmile_qr_scan"}, "lat": 38.95959766666667, "is_reserved": 0, "is_disabled": 0, "fusion_lat": 0.0}, {"fusion_lon": 0.0, "bike_id": "c42371263a1209bfd0ed4c578420d2eb", "name": "c42371263a1209bfd0ed4c578420d2eb", "type": "electric_scooter", "lon": -77.01536683333333, "rental_uris": {"android": "https://dc.lft.to/lastmile_qr_scan", "ios": "https://dc.lft.to/lastmile_qr_scan"}, "lat": 38.89485916666667, "is_reserved": 0, "is_disabled": 0, "fusion_lat": 0.0}, {"fusion_lon": 0.0, "bike_id": "37a0f61f4402f3ec848830fd7cb5647d", "name": "37a0f61f4402f3ec848830fd7cb5647d", "type": "electric_scooter", "lon": -77.0292665, "rental_uris": {"android": "https://dc.lft.to/lastmile_qr_scan", "ios": "https://dc.lft.to/lastmile_qr_scan"}, "lat": 38.882123166666666, "is_reserved": 0, "is_disabled": 0, "fusion_lat": 0.0}, {"fusion_lon": 0.0, "bike_id": "74b4f5fdabecafba84dde661454f7162", "name": "74b4f5fdabecafba84dde661454f7162", "type": "electric_scooter", "lon": -77.002175, "rental_uris": {"android": "https://dc.lft.to/lastmile_qr_scan", "ios": "https://dc.lft.to/lastmile_qr_scan"}, "lat": 38.9004095, "is_reserved": 0, "is_disabled": 0, "fusion_lat": 0.0}, {"fusion_lon": 0.0, "bike_id": "0295106caabd115d37bc866fe5cee49e", "name": "0295106caabd115d37bc866fe5cee49e", "type": "electric_scooter", "lon": -77.0121325, "rental_uris": {"android": "https://dc.lft.to/lastmile_qr_scan", "ios": "https://dc.lft.to/lastmile_qr_scan"}, "lat": 38.89329766666667, "is_reserved": 0, "is_disabled": 0, "fusion_lat": 0.0}, {"fusion_lon": 0.0, "bike_id": "5ebfd8e61fc2f6e5c34d27f015d278ee", "name": "5ebfd8e61fc2f6e5c34d27f015d278ee", "type": "electric_scooter", "lon": -77.02787966666666, "rental_uris": {"android": "https://dc.lft.to/lastmile_qr_scan", "ios": "https://dc.lft.to/lastmile_qr_scan"}, "lat": 38.8988575, "is_reserved": 0, "is_disabled": 0, "fusion_lat": 0.0}, {"fusion_lon": 0.0, "bike_id": "b5e10cb683813a6d537075022d77d999", "name": "b5e10cb683813a6d537075022d77d999", "type": "electric_scooter", "lon": -77.0415285, "rental_uris": {"android": "https://dc.lft.to/lastmile_qr_scan", "ios": "https://dc.lft.to/lastmile_qr_scan"}, "lat": 38.916020833333334, "is_reserved": 0, "is_disabled": 0, "fusion_lat": 0.0}, {"fusion_lon": 0.0, "bike_id": "fa8d90ab71d96f73f46e59a533817af0", "name": "fa8d90ab71d96f73f46e59a533817af0", "type": "electric_scooter", "lon": -76.98453183333334, "rental_uris": {"android": "https://dc.lft.to/lastmile_qr_scan", "ios": "https://dc.lft.to/lastmile_qr_scan"}, "lat": 38.880108166666666, "is_reserved": 0, "is_disabled": 0, "fusion_lat": 0.0}, {"fusion_lon": 0.0, "bike_id": "f6cb126bd8233ce51008d6dd0052ebec", "name": "f6cb126bd8233ce51008d6dd0052ebec", "type": "electric_scooter", "lon": -77.03262316666667, "rental_uris": {"android": "https://dc.lft.to/lastmile_qr_scan", "ios": "https://dc.lft.to/lastmile_qr_scan"}, "lat": 38.93720716666667, "is_reserved": 0, "is_disabled": 0, "fusion_lat": 0.0}, {"fusion_lon": 0.0, "bike_id": "116eb876aa3889fe04a3c96ba422bcea", "name": "116eb876aa3889fe04a3c96ba422bcea", "type": "electric_scooter", "lon": -77.03544933333333, "rental_uris": {"android": "https://dc.lft.to/lastmile_qr_scan", "ios": "https://dc.lft.to/lastmile_qr_scan"}, "lat": 38.93602883333333, "is_reserved": 0, "is_disabled": 0, "fusion_lat": 0.0}, {"fusion_lon": 0.0, "bike_id": "677a05bed73a6d60baa5bbbd7840906e", "name": "677a05bed73a6d60baa5bbbd7840906e", "type": "electric_scooter", "lon": -77.0302945, "rental_uris": {"android": "https://dc.lft.to/lastmile_qr_scan", "ios": "https://dc.lft.to/lastmile_qr_scan"}, "lat": 38.9266585, "is_reserved": 0, "is_disabled": 0, "fusion_lat": 0.0}, {"fusion_lon": 0.0, "bike_id": "3e0e5c81379f91b887d57b572bacd030", "name": "3e0e5c81379f91b887d57b572bacd030", "type": "electric_scooter", "lon": -77.04581616666667, "rental_uris": {"android": "https://dc.lft.to/lastmile_qr_scan", "ios": "https://dc.lft.to/lastmile_qr_scan"}, "lat": 38.90265616666667, "is_reserved": 0, "is_disabled": 0, "fusion_lat": 0.0}, {"fusion_lon": 0.0, "bike_id": "c226934817acd0ef0c9de98c6933bc9c", "name": "c226934817acd0ef0c9de98c6933bc9c", "type": "electric_scooter", "lon": -77.0254955, "rental_uris": {"android": "https://dc.lft.to/lastmile_qr_scan", "ios": "https://dc.lft.to/lastmile_qr_scan"}, "lat": 38.903474333333335, "is_reserved": 0, "is_disabled": 0, "fusion_lat": 0.0}, {"fusion_lon": 0.0, "bike_id": "9fbc371b1401b1104a750da457ea248e", "name": "9fbc371b1401b1104a750da457ea248e", "type": "electric_scooter", "lon": -77.00026733333333, "rental_uris": {"android": "https://dc.lft.to/lastmile_qr_scan", "ios": "https://dc.lft.to/lastmile_qr_scan"}, "lat": 38.874921, "is_reserved": 0, "is_disabled": 0, "fusion_lat": 0.0}, {"fusion_lon": 0.0, "bike_id": "adc5bb0170e538e9502354db5bbdc1de", "name": "adc5bb0170e538e9502354db5bbdc1de", "type": "electric_scooter", "lon": -76.99821266666666, "rental_uris": {"android": "https://dc.lft.to/lastmile_qr_scan", "ios": "https://dc.lft.to/lastmile_qr_scan"}, "lat": 38.90718966666667, "is_reserved": 0, "is_disabled": 0, "fusion_lat": 0.0}, {"fusion_lon": 0.0, "bike_id": "a85d18a8df39768a3e8cef9ddfa80625", "name": "a85d18a8df39768a3e8cef9ddfa80625", "type": "electric_bike", "lon": -77.11224533333333, "rental_uris": {"android": "https://dc.lft.to/lastmile_qr_scan", "ios": "https://dc.lft.to/lastmile_qr_scan"}, "lat": 38.8287315, "is_reserved": 0, "is_disabled": 0, "fusion_lat": 0.0}, {"fusion_lon": 0.0, "bike_id": "98ec45109a4bc891a567b3ff19694cb0", "name": "98ec45109a4bc891a567b3ff19694cb0", "type": "electric_bike", "lon": -77.07681466666666, "rental_uris": {"android": "https://dc.lft.to/lastmile_qr_scan", "ios": "https://dc.lft.to/lastmile_qr_scan"}, "lat": 38.8318805, "is_reserved": 0, "is_disabled": 0, "fusion_lat": 0.0}, {"fusion_lon": 0.0, "bike_id": "263e63c74fd0a449e1d60e0164f63838", "name": "263e63c74fd0a449e1d60e0164f63838", "type": "electric_scooter", "lon": -77.04510933333333, "rental_uris": {"android": "https://dc.lft.to/lastmile_qr_scan", "ios": "https://dc.lft.to/lastmile_qr_scan"}, "lat": 38.9127385, "is_reserved": 0, "is_disabled": 0, "fusion_lat": 0.0}, {"fusion_lon": 0.0, "bike_id": "6006d55dee1a375cc4bcacb442b39446", "name": "6006d55dee1a375cc4bcacb442b39446", "type": "electric_scooter", "lon": -76.991626, "rental_uris": {"android": "https://dc.lft.to/lastmile_qr_scan", "ios": "https://dc.lft.to/lastmile_qr_scan"}, "lat": 38.8791485, "is_reserved": 0, "is_disabled": 0, "fusion_lat": 0.0}, {"fusion_lon": 0.0, "bike_id": "448609be07b996f9d46bf11645712f08", "name": "448609be07b996f9d46bf11645712f08", "type": "electric_scooter", "lon": -77.01099016666667, "rental_uris": {"android": "https://dc.lft.to/lastmile_qr_scan", "ios": "https://dc.lft.to/lastmile_qr_scan"}, "lat": 38.9055275, "is_reserved": 0, "is_disabled": 0, "fusion_lat": 0.0}, {"fusion_lon": 0.0, "bike_id": "908fb8fd4c2a16fb23f8e415ebb33bac", "name": "908fb8fd4c2a16fb23f8e415ebb33bac", "type": "electric_scooter", "lon": -76.99407733333334, "rental_uris": {"android": "https://dc.lft.to/lastmile_qr_scan", "ios": "https://dc.lft.to/lastmile_qr_scan"}, "lat": 38.877801, "is_reserved": 0, "is_disabled": 0, "fusion_lat": 0.0}, {"fusion_lon": 0.0, "bike_id": "d8ca1100b058224213b78e04a38c3981", "name": "d8ca1100b058224213b78e04a38c3981", "type": "electric_scooter", "lon": -77.0344375, "rental_uris": {"android": "https://dc.lft.to/lastmile_qr_scan", "ios": "https://dc.lft.to/lastmile_qr_scan"}, "lat": 38.90563816666667, "is_reserved": 0, "is_disabled": 0, "fusion_lat": 0.0}, {"fusion_lon": 0.0, "bike_id": "0e2d581c6c6dff8bbe798ab322f267ea", "name": "0e2d581c6c6dff8bbe798ab322f267ea", "type": "electric_scooter", "lon": -77.047642, "rental_uris": {"android": "https://dc.lft.to/lastmile_qr_scan", "ios": "https://dc.lft.to/lastmile_qr_scan"}, "lat": 38.90214916666667, "is_reserved": 0, "is_disabled": 0, "fusion_lat": 0.0}, {"fusion_lon": 0.0, "bike_id": "a6d1b1eb6d4e500f28b0099942f364f7", "name": "a6d1b1eb6d4e500f28b0099942f364f7", "type": "electric_bike", "lon": -76.93536966666667, "rental_uris": {"android": "https://dc.lft.to/lastmile_qr_scan", "ios": "https://dc.lft.to/lastmile_qr_scan"}, "lat": 38.955571166666665, "is_reserved": 0, "is_disabled": 0, "fusion_lat": 0.0}, {"fusion_lon": 0.0, "bike_id": "dd078d4351266f70f67c1bea9f090e1a", "name": "dd078d4351266f70f67c1bea9f090e1a", "type": "electric_scooter", "lon": -77.03862233333334, "rental_uris": {"android": "https://dc.lft.to/lastmile_qr_scan", "ios": "https://dc.lft.to/lastmile_qr_scan"}, "lat": 38.932163, "is_reserved": 0, "is_disabled": 0, "fusion_lat": 0.0}, {"fusion_lon": 0.0, "bike_id": "d86443815d05d5d0ba49b22e0f56be0c", "name": "d86443815d05d5d0ba49b22e0f56be0c", "type": "electric_scooter", "lon": -77.07860716666667, "rental_uris": {"android": "https://dc.lft.to/lastmile_qr_scan", "ios": "https://dc.lft.to/lastmile_qr_scan"}, "lat": 38.924599666666666, "is_reserved": 0, "is_disabled": 0, "fusion_lat": 0.0}, {"fusion_lon": 0.0, "bike_id": "24d02c6dd7c57d456bb3297fe163df85", "name": "24d02c6dd7c57d456bb3297fe163df85", "type": "electric_scooter", "lon": -77.02849383333333, "rental_uris": {"android": "https://dc.lft.to/lastmile_qr_scan", "ios": "https://dc.lft.to/lastmile_qr_scan"}, "lat": 38.900285, "is_reserved": 0, "is_disabled": 0, "fusion_lat": 0.0}, {"fusion_lon": 0.0, "bike_id": "3ef6e8026570601e36f89c96bbe01947", "name": "3ef6e8026570601e36f89c96bbe01947", "type": "electric_bike", "lon": -77.02177883333333, "rental_uris": {"android": "https://dc.lft.to/lastmile_qr_scan", "ios": "https://dc.lft.to/lastmile_qr_scan"}, "lat": 38.913107333333336, "is_reserved": 0, "is_disabled": 0, "fusion_lat": 0.0}, {"fusion_lon": 0.0, "bike_id": "dece457cc8dd26d6755899df99e5c3ad", "name": "dece457cc8dd26d6755899df99e5c3ad", "type": "electric_scooter", "lon": -77.04763566666666, "rental_uris": {"android": "https://dc.lft.to/lastmile_qr_scan", "ios": "https://dc.lft.to/lastmile_qr_scan"}, "lat": 38.9022545, "is_reserved": 0, "is_disabled": 0, "fusion_lat": 0.0}, {"fusion_lon": 0.0, "bike_id": "e5f0671af5c814b2fccbc22e8b9aa248", "name": "e5f0671af5c814b2fccbc22e8b9aa248", "type": "electric_bike", "lon": -77.12255516666667, "rental_uris": {"android": "https://dc.lft.to/lastmile_qr_scan", "ios": "https://dc.lft.to/lastmile_qr_scan"}, "lat": 38.8876405, "is_reserved": 0, "is_disabled": 0, "fusion_lat": 0.0}, {"fusion_lon": 0.0, "bike_id": "4a40e4e560fc0941704dd88b033dc28b", "name": "4a40e4e560fc0941704dd88b033dc28b", "type": "electric_scooter", "lon": -77.03211866666666, "rental_uris": {"android": "https://dc.lft.to/lastmile_qr_scan", "ios": "https://dc.lft.to/lastmile_qr_scan"}, "lat": 38.90010733333333, "is_reserved": 0, "is_disabled": 0, "fusion_lat": 0.0}, {"fusion_lon": 0.0, "bike_id": "e938a88ac29c089a43bc83e4635ee0b5", "name": "e938a88ac29c089a43bc83e4635ee0b5", "type": "electric_scooter", "lon": -77.04188833333333, "rental_uris": {"android": "https://dc.lft.to/lastmile_qr_scan", "ios": "https://dc.lft.to/lastmile_qr_scan"}, "lat": 38.92332183333333, "is_reserved": 0, "is_disabled": 0, "fusion_lat": 0.0}, {"fusion_lon": 0.0, "bike_id": "b725ed00ad9e55b4ba0e7c5b77453c56", "name": "b725ed00ad9e55b4ba0e7c5b77453c56", "type": "electric_bike", "lon": -76.91656166666667, "rental_uris": {"android": "https://dc.lft.to/lastmile_qr_scan", "ios": "https://dc.lft.to/lastmile_qr_scan"}, "lat": 38.868595166666665, "is_reserved": 0, "is_disabled": 0, "fusion_lat": 0.0}, {"fusion_lon": 0.0, "bike_id": "d24858606c895ffc99ff5f7f9b441707", "name": "d24858606c895ffc99ff5f7f9b441707", "type": "electric_bike", "lon": -77.23393283333333, "rental_uris": {"android": "https://dc.lft.to/lastmile_qr_scan", "ios": "https://dc.lft.to/lastmile_qr_scan"}, "lat": 38.92496416666667, "is_reserved": 0, "is_disabled": 0, "fusion_lat": 0.0}, {"fusion_lon": 0.0, "bike_id": "0ad546ba8c827bf7ed0a31b23670a6e0", "name": "0ad546ba8c827bf7ed0a31b23670a6e0", "type": "electric_scooter", "lon": -76.92214433333334, "rental_uris": {"android": "https://dc.lft.to/lastmile_qr_scan", "ios": "https://dc.lft.to/lastmile_qr_scan"}, "lat": 38.8993525, "is_reserved": 0, "is_disabled": 0, "fusion_lat": 0.0}, {"fusion_lon": 0.0, "bike_id": "4d33a20e7cdc95fc70f68f710bd572f4", "name": "4d33a20e7cdc95fc70f68f710bd572f4", "type": "electric_scooter", "lon": -77.070914, "rental_uris": {"android": "https://dc.lft.to/lastmile_qr_scan", "ios": "https://dc.lft.to/lastmile_qr_scan"}, "lat": 38.919707833333334, "is_reserved": 0, "is_disabled": 0, "fusion_lat": 0.0}, {"fusion_lon": 0.0, "bike_id": "9c2900b124f88d715072605de7097363", "name": "9c2900b124f88d715072605de7097363", "type": "electric_scooter", "lon": -77.0217015, "rental_uris": {"android": "https://dc.lft.to/lastmile_qr_scan", "ios": "https://dc.lft.to/lastmile_qr_scan"}, "lat": 38.89972383333333, "is_reserved": 0, "is_disabled": 0, "fusion_lat": 0.0}, {"fusion_lon": 0.0, "bike_id": "66c38282445ae8a07abed0d84a53648c", "name": "66c38282445ae8a07abed0d84a53648c", "type": "electric_scooter", "lon": -76.94249916666666, "rental_uris": {"android": "https://dc.lft.to/lastmile_qr_scan", "ios": "https://dc.lft.to/lastmile_qr_scan"}, "lat": 38.89680033333333, "is_reserved": 0, "is_disabled": 0, "fusion_lat": 0.0}, {"fusion_lon": 0.0, "bike_id": "4547ccf8fb26e75728d05b4bb499a4da", "name": "4547ccf8fb26e75728d05b4bb499a4da", "type": "electric_scooter", "lon": -77.04380416666666, "rental_uris": {"android": "https://dc.lft.to/lastmile_qr_scan", "ios": "https://dc.lft.to/lastmile_qr_scan"}, "lat": 38.906415833333334, "is_reserved": 0, "is_disabled": 0, "fusion_lat": 0.0}, {"fusion_lon": 0.0, "bike_id": "f0c7a4bb649b2c1aa833c84e05dc7103", "name": "f0c7a4bb649b2c1aa833c84e05dc7103", "type": "electric_scooter", "lon": -77.04009166666667, "rental_uris": {"android": "https://dc.lft.to/lastmile_qr_scan", "ios": "https://dc.lft.to/lastmile_qr_scan"}, "lat": 38.912976666666665, "is_reserved": 0, "is_disabled": 0, "fusion_lat": 0.0}, {"fusion_lon": 0.0, "bike_id": "7682888b575bbc1f0d8254bbdf871761", "name": "7682888b575bbc1f0d8254bbdf871761", "type": "electric_scooter", "lon": -77.02390616666666, "rental_uris": {"android": "https://dc.lft.to/lastmile_qr_scan", "ios": "https://dc.lft.to/lastmile_qr_scan"}, "lat": 38.915078666666666, "is_reserved": 0, "is_disabled": 0, "fusion_lat": 0.0}, {"fusion_lon": 0.0, "bike_id": "0e6fb1f605d0319ffe6a7262d0d699f2", "name": "0e6fb1f605d0319ffe6a7262d0d699f2", "type": "electric_scooter", "lon": -77.01365033333333, "rental_uris": {"android": "https://dc.lft.to/lastmile_qr_scan", "ios": "https://dc.lft.to/lastmile_qr_scan"}, "lat": 38.8870055, "is_reserved": 0, "is_disabled": 0, "fusion_lat": 0.0}, {"fusion_lon": 0.0, "bike_id": "1465749ea0edbfda58b0ff969c9cc46b", "name": "1465749ea0edbfda58b0ff969c9cc46b", "type": "electric_scooter", "lon": -77.0384875, "rental_uris": {"android": "https://dc.lft.to/lastmile_qr_scan", "ios": "https://dc.lft.to/lastmile_qr_scan"}, "lat": 38.9121315, "is_reserved": 0, "is_disabled": 0, "fusion_lat": 0.0}, {"fusion_lon": 0.0, "bike_id": "63b25f6cc649b1d49158f638eacc4130", "name": "63b25f6cc649b1d49158f638eacc4130", "type": "electric_scooter", "lon": -77.02573433333333, "rental_uris": {"android": "https://dc.lft.to/lastmile_qr_scan", "ios": "https://dc.lft.to/lastmile_qr_scan"}, "lat": 38.92502416666667, "is_reserved": 0, "is_disabled": 0, "fusion_lat": 0.0}, {"fusion_lon": 0.0, "bike_id": "cb1fc1ff4f8d64425cf2dd68457ec51f", "name": "cb1fc1ff4f8d64425cf2dd68457ec51f", "type": "electric_scooter", "lon": -77.025648, "rental_uris": {"android": "https://dc.lft.to/lastmile_qr_scan", "ios": "https://dc.lft.to/lastmile_qr_scan"}, "lat": 38.89509066666667, "is_reserved": 0, "is_disabled": 0, "fusion_lat": 0.0}, {"fusion_lon": 0.0, "bike_id": "9f9056b72d2dd12903919268863060fb", "name": "9f9056b72d2dd12903919268863060fb", "type": "electric_bike", "lon": -77.12266183333334, "rental_uris": {"android": "https://dc.lft.to/lastmile_qr_scan", "ios": "https://dc.lft.to/lastmile_qr_scan"}, "lat": 38.897340166666666, "is_reserved": 0, "is_disabled": 0, "fusion_lat": 0.0}, {"fusion_lon": 0.0, "bike_id": "7b97d9c4621b723a2526627a29854908", "name": "7b97d9c4621b723a2526627a29854908", "type": "electric_scooter", "lon": -76.99481983333334, "rental_uris": {"android": "https://dc.lft.to/lastmile_qr_scan", "ios": "https://dc.lft.to/lastmile_qr_scan"}, "lat": 38.86217083333333, "is_reserved": 0, "is_disabled": 0, "fusion_lat": 0.0}, {"fusion_lon": 0.0, "bike_id": "4cb1c1be1741f4c795210948abb0d404", "name": "4cb1c1be1741f4c795210948abb0d404", "type": "electric_scooter", "lon": -77.02482133333334, "rental_uris": {"android": "https://dc.lft.to/lastmile_qr_scan", "ios": "https://dc.lft.to/lastmile_qr_scan"}, "lat": 38.9161615, "is_reserved": 0, "is_disabled": 0, "fusion_lat": 0.0}, {"fusion_lon": 0.0, "bike_id": "3e5df858090aee45a7084e8fb7545525", "name": "3e5df858090aee45a7084e8fb7545525", "type": "electric_scooter", "lon": -77.01966666666667, "rental_uris": {"android": "https://dc.lft.to/lastmile_qr_scan", "ios": "https://dc.lft.to/lastmile_qr_scan"}, "lat": 38.9357655, "is_reserved": 0, "is_disabled": 0, "fusion_lat": 0.0}, {"fusion_lon": 0.0, "bike_id": "6fc52011a491cbd15098516216451f6b", "name": "6fc52011a491cbd15098516216451f6b", "type": "electric_scooter", "lon": -77.03342383333333, "rental_uris": {"android": "https://dc.lft.to/lastmile_qr_scan", "ios": "https://dc.lft.to/lastmile_qr_scan"}, "lat": 38.91908316666667, "is_reserved": 0, "is_disabled": 0, "fusion_lat": 0.0}, {"fusion_lon": 0.0, "bike_id": "4afd8c04cd2265e8d6a4b1bb505ef440", "name": "4afd8c04cd2265e8d6a4b1bb505ef440", "type": "electric_scooter", "lon": -77.03976716666666, "rental_uris": {"android": "https://dc.lft.to/lastmile_qr_scan", "ios": "https://dc.lft.to/lastmile_qr_scan"}, "lat": 38.906177166666666, "is_reserved": 0, "is_disabled": 0, "fusion_lat": 0.0}, {"fusion_lon": 0.0, "bike_id": "148825df4659f90f9591a65bde71a907", "name": "148825df4659f90f9591a65bde71a907", "type": "electric_scooter", "lon": -77.07997933333333, "rental_uris": {"android": "https://dc.lft.to/lastmile_qr_scan", "ios": "https://dc.lft.to/lastmile_qr_scan"}, "lat": 38.923659666666666, "is_reserved": 0, "is_disabled": 0, "fusion_lat": 0.0}, {"fusion_lon": 0.0, "bike_id": "997e59dba4be7cd0df63c93b0e34be1a", "name": "997e59dba4be7cd0df63c93b0e34be1a", "type": "electric_scooter", "lon": -77.04667183333333, "rental_uris": {"android": "https://dc.lft.to/lastmile_qr_scan", "ios": "https://dc.lft.to/lastmile_qr_scan"}, "lat": 38.90512366666667, "is_reserved": 0, "is_disabled": 0, "fusion_lat": 0.0}, {"fusion_lon": 0.0, "bike_id": "886cd5e177f4c70afb512b74bf9b45b9", "name": "886cd5e177f4c70afb512b74bf9b45b9", "type": "electric_scooter", "lon": -77.02430133333333, "rental_uris": {"android": "https://dc.lft.to/lastmile_qr_scan", "ios": "https://dc.lft.to/lastmile_qr_scan"}, "lat": 38.923656333333334, "is_reserved": 0, "is_disabled": 0, "fusion_lat": 0.0}, {"fusion_lon": 0.0, "bike_id": "f21b52196705c2ef95fae998be700896", "name": "f21b52196705c2ef95fae998be700896", "type": "electric_scooter", "lon": -77.050927, "rental_uris": {"android": "https://dc.lft.to/lastmile_qr_scan", "ios": "https://dc.lft.to/lastmile_qr_scan"}, "lat": 38.92336683333333, "is_reserved": 0, "is_disabled": 0, "fusion_lat": 0.0}, {"fusion_lon": 0.0, "bike_id": "dad3de7223df9aca5f766e301a409c1e", "name": "dad3de7223df9aca5f766e301a409c1e", "type": "electric_scooter", "lon": -77.04645916666666, "rental_uris": {"android": "https://dc.lft.to/lastmile_qr_scan", "ios": "https://dc.lft.to/lastmile_qr_scan"}, "lat": 38.903606, "is_reserved": 0, "is_disabled": 0, "fusion_lat": 0.0}, {"fusion_lon": 0.0, "bike_id": "7ff4739b4de9e28cbf1f7456a2a80658", "name": "7ff4739b4de9e28cbf1f7456a2a80658", "type": "electric_scooter", "lon": -77.03341766666667, "rental_uris": {"android": "https://dc.lft.to/lastmile_qr_scan", "ios": "https://dc.lft.to/lastmile_qr_scan"}, "lat": 38.9191145, "is_reserved": 0, "is_disabled": 0, "fusion_lat": 0.0}, {"fusion_lon": 0.0, "bike_id": "8da22d4684d92b96d935cdfe0ffa1f42", "name": "8da22d4684d92b96d935cdfe0ffa1f42", "type": "electric_scooter", "lon": -77.0401145, "rental_uris": {"android": "https://dc.lft.to/lastmile_qr_scan", "ios": "https://dc.lft.to/lastmile_qr_scan"}, "lat": 38.9037395, "is_reserved": 0, "is_disabled": 0, "fusion_lat": 0.0}, {"fusion_lon": 0.0, "bike_id": "d2d7b717b6f98a8c69c49bee92fd8467", "name": "d2d7b717b6f98a8c69c49bee92fd8467", "type": "electric_scooter", "lon": -77.00839583333334, "rental_uris": {"android": "https://dc.lft.to/lastmile_qr_scan", "ios": "https://dc.lft.to/lastmile_qr_scan"}, "lat": 38.90670033333333, "is_reserved": 0, "is_disabled": 0, "fusion_lat": 0.0}, {"fusion_lon": 0.0, "bike_id": "957b36d46eda1e2fd5ba075a9cc675f4", "name": "957b36d46eda1e2fd5ba075a9cc675f4", "type": "electric_bike", "lon": -77.01307233333333, "rental_uris": {"android": "https://dc.lft.to/lastmile_qr_scan", "ios": "https://dc.lft.to/lastmile_qr_scan"}, "lat": 38.8813, "is_reserved": 0, "is_disabled": 0, "fusion_lat": 0.0}, {"fusion_lon": 0.0, "bike_id": "5bfa2584059d57d20f61af4e6f7026ab", "name": "5bfa2584059d57d20f61af4e6f7026ab", "type": "electric_scooter", "lon": -77.04026733333333, "rental_uris": {"android": "https://dc.lft.to/lastmile_qr_scan", "ios": "https://dc.lft.to/lastmile_qr_scan"}, "lat": 38.898731166666664, "is_reserved": 0, "is_disabled": 0, "fusion_lat": 0.0}, {"fusion_lon": 0.0, "bike_id": "333dc73e04baaab6b81fb68e00ae5fb1", "name": "333dc73e04baaab6b81fb68e00ae5fb1", "type": "electric_bike", "lon": -76.97328183333333, "rental_uris": {"android": "https://dc.lft.to/lastmile_qr_scan", "ios": "https://dc.lft.to/lastmile_qr_scan"}, "lat": 38.85063816666667, "is_reserved": 0, "is_disabled": 0, "fusion_lat": 0.0}, {"fusion_lon": 0.0, "bike_id": "7fda00a0ff40fd749395d2dcd738ae81", "name": "7fda00a0ff40fd749395d2dcd738ae81", "type": "electric_scooter", "lon": -76.999041, "rental_uris": {"android": "https://dc.lft.to/lastmile_qr_scan", "ios": "https://dc.lft.to/lastmile_qr_scan"}, "lat": 38.95652583333333, "is_reserved": 0, "is_disabled": 0, "fusion_lat": 0.0}, {"fusion_lon": 0.0, "bike_id": "b9a385e651e76b3878abdd4180dbc32e", "name": "b9a385e651e76b3878abdd4180dbc32e", "type": "electric_scooter", "lon": -76.9995675, "rental_uris": {"android": "https://dc.lft.to/lastmile_qr_scan", "ios": "https://dc.lft.to/lastmile_qr_scan"}, "lat": 38.90861133333333, "is_reserved": 0, "is_disabled": 0, "fusion_lat": 0.0}, {"fusion_lon": 0.0, "bike_id": "6e4c8a5b74a0fe00fa2acb12c8889129", "name": "6e4c8a5b74a0fe00fa2acb12c8889129", "type": "electric_scooter", "lon": -77.03966333333334, "rental_uris": {"android": "https://dc.lft.to/lastmile_qr_scan", "ios": "https://dc.lft.to/lastmile_qr_scan"}, "lat": 38.905624, "is_reserved": 0, "is_disabled": 0, "fusion_lat": 0.0}, {"fusion_lon": 0.0, "bike_id": "e0a31d94e18d2e5bc3f0b355ec456e93", "name": "e0a31d94e18d2e5bc3f0b355ec456e93", "type": "electric_scooter", "lon": -77.03688233333334, "rental_uris": {"android": "https://dc.lft.to/lastmile_qr_scan", "ios": "https://dc.lft.to/lastmile_qr_scan"}, "lat": 38.91672766666667, "is_reserved": 0, "is_disabled": 0, "fusion_lat": 0.0}, {"fusion_lon": 0.0, "bike_id": "9bec3791b59f4a5faab43b8c97cf1b62", "name": "9bec3791b59f4a5faab43b8c97cf1b62", "type": "electric_scooter", "lon": -77.06664533333333, "rental_uris": {"android": "https://dc.lft.to/lastmile_qr_scan", "ios": "https://dc.lft.to/lastmile_qr_scan"}, "lat": 38.90326983333333, "is_reserved": 0, "is_disabled": 0, "fusion_lat": 0.0}, {"fusion_lon": 0.0, "bike_id": "742dd0f4a3025b39ecf089bcbec94843", "name": "742dd0f4a3025b39ecf089bcbec94843", "type": "electric_scooter", "lon": -77.03476983333333, "rental_uris": {"android": "https://dc.lft.to/lastmile_qr_scan", "ios": "https://dc.lft.to/lastmile_qr_scan"}, "lat": 38.903961833333334, "is_reserved": 0, "is_disabled": 0, "fusion_lat": 0.0}, {"fusion_lon": 0.0, "bike_id": "4c009f7e367e034a09094674347742c4", "name": "4c009f7e367e034a09094674347742c4", "type": "electric_scooter", "lon": -76.99808833333333, "rental_uris": {"android": "https://dc.lft.to/lastmile_qr_scan", "ios": "https://dc.lft.to/lastmile_qr_scan"}, "lat": 38.876833166666664, "is_reserved": 0, "is_disabled": 0, "fusion_lat": 0.0}, {"fusion_lon": 0.0, "bike_id": "b1ab62983d70ba5d9e76a5f71bf54994", "name": "b1ab62983d70ba5d9e76a5f71bf54994", "type": "electric_scooter", "lon": -77.008578, "rental_uris": {"android": "https://dc.lft.to/lastmile_qr_scan", "ios": "https://dc.lft.to/lastmile_qr_scan"}, "lat": 38.87641766666667, "is_reserved": 0, "is_disabled": 0, "fusion_lat": 0.0}, {"fusion_lon": 0.0, "bike_id": "28b2c9342f2896c6862341ebbe48b0f4", "name": "28b2c9342f2896c6862341ebbe48b0f4", "type": "electric_bike", "lon": -76.9806395, "rental_uris": {"android": "https://dc.lft.to/lastmile_qr_scan", "ios": "https://dc.lft.to/lastmile_qr_scan"}, "lat": 38.88785466666667, "is_reserved": 0, "is_disabled": 0, "fusion_lat": 0.0}, {"fusion_lon": 0.0, "bike_id": "929875bf636cb415d8f91fb09e919c83", "name": "929875bf636cb415d8f91fb09e919c83", "type": "electric_scooter", "lon": -77.03715783333334, "rental_uris": {"android": "https://dc.lft.to/lastmile_qr_scan", "ios": "https://dc.lft.to/lastmile_qr_scan"}, "lat": 38.91799533333333, "is_reserved": 0, "is_disabled": 0, "fusion_lat": 0.0}, {"fusion_lon": 0.0, "bike_id": "bd4178018b22fdd3d6b0e629ec394485", "name": "bd4178018b22fdd3d6b0e629ec394485", "type": "electric_scooter", "lon": -77.06360683333334, "rental_uris": {"android": "https://dc.lft.to/lastmile_qr_scan", "ios": "https://dc.lft.to/lastmile_qr_scan"}, "lat": 38.944529833333334, "is_reserved": 0, "is_disabled": 0, "fusion_lat": 0.0}, {"fusion_lon": 0.0, "bike_id": "cb9ac29d6608721760835485ba9a425a", "name": "cb9ac29d6608721760835485ba9a425a", "type": "electric_scooter", "lon": -77.04283383333333, "rental_uris": {"android": "https://dc.lft.to/lastmile_qr_scan", "ios": "https://dc.lft.to/lastmile_qr_scan"}, "lat": 38.917797666666665, "is_reserved": 0, "is_disabled": 0, "fusion_lat": 0.0}, {"fusion_lon": 0.0, "bike_id": "b30554bad4180d6a333a8b7fbe5ab002", "name": "b30554bad4180d6a333a8b7fbe5ab002", "type": "electric_scooter", "lon": -77.03977433333333, "rental_uris": {"android": "https://dc.lft.to/lastmile_qr_scan", "ios": "https://dc.lft.to/lastmile_qr_scan"}, "lat": 38.911883333333336, "is_reserved": 0, "is_disabled": 0, "fusion_lat": 0.0}, {"fusion_lon": 0.0, "bike_id": "3db1e61c1bedacec241e7b63465724ae", "name": "3db1e61c1bedacec241e7b63465724ae", "type": "electric_bike", "lon": -76.96003533333334, "rental_uris": {"android": "https://dc.lft.to/lastmile_qr_scan", "ios": "https://dc.lft.to/lastmile_qr_scan"}, "lat": 38.87001033333333, "is_reserved": 0, "is_disabled": 0, "fusion_lat": 0.0}, {"fusion_lon": 0.0, "bike_id": "c2b2ebba5f23ed1d3fc794d168a45b8f", "name": "c2b2ebba5f23ed1d3fc794d168a45b8f", "type": "electric_scooter", "lon": -77.08617366666667, "rental_uris": {"android": "https://dc.lft.to/lastmile_qr_scan", "ios": "https://dc.lft.to/lastmile_qr_scan"}, "lat": 38.958671, "is_reserved": 0, "is_disabled": 0, "fusion_lat": 0.0}, {"fusion_lon": 0.0, "bike_id": "725230fb1bf127a0c79415c0e71b8458", "name": "725230fb1bf127a0c79415c0e71b8458", "type": "electric_scooter", "lon": -76.94331533333333, "rental_uris": {"android": "https://dc.lft.to/lastmile_qr_scan", "ios": "https://dc.lft.to/lastmile_qr_scan"}, "lat": 38.891083333333334, "is_reserved": 0, "is_disabled": 0, "fusion_lat": 0.0}, {"fusion_lon": 0.0, "bike_id": "4128967c0552a9734b89d718aad3ab20", "name": "4128967c0552a9734b89d718aad3ab20", "type": "electric_scooter", "lon": -77.01884333333334, "rental_uris": {"android": "https://dc.lft.to/lastmile_qr_scan", "ios": "https://dc.lft.to/lastmile_qr_scan"}, "lat": 38.878471, "is_reserved": 0, "is_disabled": 0, "fusion_lat": 0.0}, {"fusion_lon": 0.0, "bike_id": "6b728ce43801ee0254416ca9fa1eaf72", "name": "6b728ce43801ee0254416ca9fa1eaf72", "type": "electric_scooter", "lon": -77.04344533333334, "rental_uris": {"android": "https://dc.lft.to/lastmile_qr_scan", "ios": "https://dc.lft.to/lastmile_qr_scan"}, "lat": 38.904930666666665, "is_reserved": 0, "is_disabled": 0, "fusion_lat": 0.0}, {"fusion_lon": 0.0, "bike_id": "7ec2576c067f4c2c21308288d3a107d7", "name": "7ec2576c067f4c2c21308288d3a107d7", "type": "electric_bike", "lon": -77.11221183333333, "rental_uris": {"android": "https://dc.lft.to/lastmile_qr_scan", "ios": "https://dc.lft.to/lastmile_qr_scan"}, "lat": 38.8287255, "is_reserved": 0, "is_disabled": 0, "fusion_lat": 0.0}, {"fusion_lon": 0.0, "bike_id": "6c54f2ff1c512bd917d378f72399d70f", "name": "6c54f2ff1c512bd917d378f72399d70f", "type": "electric_scooter", "lon": -77.0033825, "rental_uris": {"android": "https://dc.lft.to/lastmile_qr_scan", "ios": "https://dc.lft.to/lastmile_qr_scan"}, "lat": 38.89505533333333, "is_reserved": 0, "is_disabled": 0, "fusion_lat": 0.0}, {"fusion_lon": 0.0, "bike_id": "ca632c7d2c3d69065f2aa40e6e31874e", "name": "ca632c7d2c3d69065f2aa40e6e31874e", "type": "electric_scooter", "lon": -77.01590833333333, "rental_uris": {"android": "https://dc.lft.to/lastmile_qr_scan", "ios": "https://dc.lft.to/lastmile_qr_scan"}, "lat": 38.900005, "is_reserved": 0, "is_disabled": 0, "fusion_lat": 0.0}, {"fusion_lon": 0.0, "bike_id": "a6493eacb6d7b95712490823560a27ec", "name": "a6493eacb6d7b95712490823560a27ec", "type": "electric_scooter", "lon": -77.02744616666666, "rental_uris": {"android": "https://dc.lft.to/lastmile_qr_scan", "ios": "https://dc.lft.to/lastmile_qr_scan"}, "lat": 38.9012255, "is_reserved": 0, "is_disabled": 0, "fusion_lat": 0.0}, {"fusion_lon": 0.0, "bike_id": "7829bc52a9d65615a53a1108b3af2492", "name": "7829bc52a9d65615a53a1108b3af2492", "type": "electric_scooter", "lon": -76.983794, "rental_uris": {"android": "https://dc.lft.to/lastmile_qr_scan", "ios": "https://dc.lft.to/lastmile_qr_scan"}, "lat": 38.89968283333333, "is_reserved": 0, "is_disabled": 0, "fusion_lat": 0.0}, {"fusion_lon": 0.0, "bike_id": "46309915163a3c2a4cc3d8718a625f56", "name": "46309915163a3c2a4cc3d8718a625f56", "type": "electric_scooter", "lon": -77.03841266666667, "rental_uris": {"android": "https://dc.lft.to/lastmile_qr_scan", "ios": "https://dc.lft.to/lastmile_qr_scan"}, "lat": 38.91728166666667, "is_reserved": 0, "is_disabled": 0, "fusion_lat": 0.0}, {"fusion_lon": 0.0, "bike_id": "984efe6bb06be57c1e9184cf5026d690", "name": "984efe6bb06be57c1e9184cf5026d690", "type": "electric_bike", "lon": -76.87497083333334, "rental_uris": {"android": "https://dc.lft.to/lastmile_qr_scan", "ios": "https://dc.lft.to/lastmile_qr_scan"}, "lat": 38.99086883333333, "is_reserved": 0, "is_disabled": 0, "fusion_lat": 0.0}, {"fusion_lon": 0.0, "bike_id": "7c39d5bb8c34b8618027ab455317f73f", "name": "7c39d5bb8c34b8618027ab455317f73f", "type": "electric_scooter", "lon": -76.93159283333334, "rental_uris": {"android": "https://dc.lft.to/lastmile_qr_scan", "ios": "https://dc.lft.to/lastmile_qr_scan"}, "lat": 38.8987385, "is_reserved": 0, "is_disabled": 0, "fusion_lat": 0.0}, {"fusion_lon": 0.0, "bike_id": "472bd0668ed4219d4a1477f8050b707f", "name": "472bd0668ed4219d4a1477f8050b707f", "type": "electric_scooter", "lon": -77.03852116666667, "rental_uris": {"android": "https://dc.lft.to/lastmile_qr_scan", "ios": "https://dc.lft.to/lastmile_qr_scan"}, "lat": 38.912099833333336, "is_reserved": 0, "is_disabled": 0, "fusion_lat": 0.0}, {"fusion_lon": 0.0, "bike_id": "9e3afee97c6f0fc1218600b10c83a6ca", "name": "9e3afee97c6f0fc1218600b10c83a6ca", "type": "electric_scooter", "lon": -76.98362733333333, "rental_uris": {"android": "https://dc.lft.to/lastmile_qr_scan", "ios": "https://dc.lft.to/lastmile_qr_scan"}, "lat": 38.864704333333336, "is_reserved": 0, "is_disabled": 0, "fusion_lat": 0.0}, {"fusion_lon": 0.0, "bike_id": "531d21ef50a975fafa3519ececb64c15", "name": "531d21ef50a975fafa3519ececb64c15", "type": "electric_scooter", "lon": -77.02759683333333, "rental_uris": {"android": "https://dc.lft.to/lastmile_qr_scan", "ios": "https://dc.lft.to/lastmile_qr_scan"}, "lat": 38.954147, "is_reserved": 0, "is_disabled": 0, "fusion_lat": 0.0}, {"fusion_lon": 0.0, "bike_id": "6900042d51023e4c7993fbdff53824a5", "name": "6900042d51023e4c7993fbdff53824a5", "type": "electric_scooter", "lon": -77.03516566666667, "rental_uris": {"android": "https://dc.lft.to/lastmile_qr_scan", "ios": "https://dc.lft.to/lastmile_qr_scan"}, "lat": 38.9215965, "is_reserved": 0, "is_disabled": 0, "fusion_lat": 0.0}, {"fusion_lon": 0.0, "bike_id": "eafa61cf6aa11d11a98a68609f0bc581", "name": "eafa61cf6aa11d11a98a68609f0bc581", "type": "electric_scooter", "lon": -77.0318145, "rental_uris": {"android": "https://dc.lft.to/lastmile_qr_scan", "ios": "https://dc.lft.to/lastmile_qr_scan"}, "lat": 38.8922705, "is_reserved": 0, "is_disabled": 0, "fusion_lat": 0.0}, {"fusion_lon": 0.0, "bike_id": "d6bb72d1458ff51ce436d68fe992e976", "name": "d6bb72d1458ff51ce436d68fe992e976", "type": "electric_scooter", "lon": -77.04648833333333, "rental_uris": {"android": "https://dc.lft.to/lastmile_qr_scan", "ios": "https://dc.lft.to/lastmile_qr_scan"}, "lat": 38.903536833333334, "is_reserved": 0, "is_disabled": 0, "fusion_lat": 0.0}, {"fusion_lon": 0.0, "bike_id": "885a26f024dbbac438d562a7aadf7100", "name": "885a26f024dbbac438d562a7aadf7100", "type": "electric_scooter", "lon": -77.04547233333334, "rental_uris": {"android": "https://dc.lft.to/lastmile_qr_scan", "ios": "https://dc.lft.to/lastmile_qr_scan"}, "lat": 38.91253366666667, "is_reserved": 0, "is_disabled": 0, "fusion_lat": 0.0}, {"fusion_lon": 0.0, "bike_id": "2f03dcf23ccfa69c84381af0a230d262", "name": "2f03dcf23ccfa69c84381af0a230d262", "type": "electric_scooter", "lon": -77.04160483333334, "rental_uris": {"android": "https://dc.lft.to/lastmile_qr_scan", "ios": "https://dc.lft.to/lastmile_qr_scan"}, "lat": 38.91647916666667, "is_reserved": 0, "is_disabled": 0, "fusion_lat": 0.0}, {"fusion_lon": 0.0, "bike_id": "d8f9d9a9876ff9d662f55de085b3e93f", "name": "d8f9d9a9876ff9d662f55de085b3e93f", "type": "electric_scooter", "lon": -77.02828066666666, "rental_uris": {"android": "https://dc.lft.to/lastmile_qr_scan", "ios": "https://dc.lft.to/lastmile_qr_scan"}, "lat": 38.94829816666667, "is_reserved": 0, "is_disabled": 0, "fusion_lat": 0.0}, {"fusion_lon": 0.0, "bike_id": "96d4955e3ad0a701e5d519096f5338db", "name": "96d4955e3ad0a701e5d519096f5338db", "type": "electric_scooter", "lon": -77.06006883333333, "rental_uris": {"android": "https://dc.lft.to/lastmile_qr_scan", "ios": "https://dc.lft.to/lastmile_qr_scan"}, "lat": 38.905144, "is_reserved": 0, "is_disabled": 0, "fusion_lat": 0.0}, {"fusion_lon": 0.0, "bike_id": "df433a99206cdc1fb872de93a81cbc9c", "name": "df433a99206cdc1fb872de93a81cbc9c", "type": "electric_scooter", "lon": -77.03291416666667, "rental_uris": {"android": "https://dc.lft.to/lastmile_qr_scan", "ios": "https://dc.lft.to/lastmile_qr_scan"}, "lat": 38.956435666666664, "is_reserved": 0, "is_disabled": 0, "fusion_lat": 0.0}, {"fusion_lon": 0.0, "bike_id": "09801a54ac27a2dfa2b1ba4fc9b10078", "name": "09801a54ac27a2dfa2b1ba4fc9b10078", "type": "electric_scooter", "lon": -77.0592155, "rental_uris": {"android": "https://dc.lft.to/lastmile_qr_scan", "ios": "https://dc.lft.to/lastmile_qr_scan"}, "lat": 38.93647966666666, "is_reserved": 0, "is_disabled": 0, "fusion_lat": 0.0}, {"fusion_lon": 0.0, "bike_id": "b09b097c9196cfafda18d42531f5cda0", "name": "b09b097c9196cfafda18d42531f5cda0", "type": "electric_scooter", "lon": -76.93836416666667, "rental_uris": {"android": "https://dc.lft.to/lastmile_qr_scan", "ios": "https://dc.lft.to/lastmile_qr_scan"}, "lat": 38.890050333333335, "is_reserved": 0, "is_disabled": 0, "fusion_lat": 0.0}, {"fusion_lon": 0.0, "bike_id": "7219aed4497d439e761b089139318b9d", "name": "7219aed4497d439e761b089139318b9d", "type": "electric_bike", "lon": -77.23410033333333, "rental_uris": {"android": "https://dc.lft.to/lastmile_qr_scan", "ios": "https://dc.lft.to/lastmile_qr_scan"}, "lat": 38.875755166666664, "is_reserved": 0, "is_disabled": 0, "fusion_lat": 0.0}, {"fusion_lon": 0.0, "bike_id": "28c759b9f5132256db66bf1551d225f4", "name": "28c759b9f5132256db66bf1551d225f4", "type": "electric_scooter", "lon": -77.04684016666667, "rental_uris": {"android": "https://dc.lft.to/lastmile_qr_scan", "ios": "https://dc.lft.to/lastmile_qr_scan"}, "lat": 38.90333416666667, "is_reserved": 0, "is_disabled": 0, "fusion_lat": 0.0}, {"fusion_lon": 0.0, "bike_id": "b704f8ce75e90d06942c18f22989ad98", "name": "b704f8ce75e90d06942c18f22989ad98", "type": "electric_scooter", "lon": -77.04246916666666, "rental_uris": {"android": "https://dc.lft.to/lastmile_qr_scan", "ios": "https://dc.lft.to/lastmile_qr_scan"}, "lat": 38.9221515, "is_reserved": 0, "is_disabled": 0, "fusion_lat": 0.0}, {"fusion_lon": 0.0, "bike_id": "58a3c9d821983d386cfe00457585582a", "name": "58a3c9d821983d386cfe00457585582a", "type": "electric_bike", "lon": -77.12510016666667, "rental_uris": {"android": "https://dc.lft.to/lastmile_qr_scan", "ios": "https://dc.lft.to/lastmile_qr_scan"}, "lat": 39.024211, "is_reserved": 0, "is_disabled": 0, "fusion_lat": 0.0}, {"fusion_lon": 0.0, "bike_id": "6fd14555e0c7cbc3a63bbd7f046d7cbb", "name": "6fd14555e0c7cbc3a63bbd7f046d7cbb", "type": "electric_scooter", "lon": -76.98334833333334, "rental_uris": {"android": "https://dc.lft.to/lastmile_qr_scan", "ios": "https://dc.lft.to/lastmile_qr_scan"}, "lat": 38.88987, "is_reserved": 0, "is_disabled": 0, "fusion_lat": 0.0}, {"fusion_lon": 0.0, "bike_id": "993b70c684ca5bcf242acd45f1b8083e", "name": "993b70c684ca5bcf242acd45f1b8083e", "type": "electric_scooter", "lon": -77.00592783333333, "rental_uris": {"android": "https://dc.lft.to/lastmile_qr_scan", "ios": "https://dc.lft.to/lastmile_qr_scan"}, "lat": 38.905756, "is_reserved": 0, "is_disabled": 0, "fusion_lat": 0.0}, {"fusion_lon": 0.0, "bike_id": "a07a94408678114ff7a0a271c25f31ee", "name": "a07a94408678114ff7a0a271c25f31ee", "type": "electric_scooter", "lon": -77.032569, "rental_uris": {"android": "https://dc.lft.to/lastmile_qr_scan", "ios": "https://dc.lft.to/lastmile_qr_scan"}, "lat": 38.92962333333333, "is_reserved": 0, "is_disabled": 0, "fusion_lat": 0.0}, {"fusion_lon": 0.0, "bike_id": "3ededccb39dcc80b7ccfcb4363d4d550", "name": "3ededccb39dcc80b7ccfcb4363d4d550", "type": "electric_scooter", "lon": -76.99095983333333, "rental_uris": {"android": "https://dc.lft.to/lastmile_qr_scan", "ios": "https://dc.lft.to/lastmile_qr_scan"}, "lat": 38.8635305, "is_reserved": 0, "is_disabled": 0, "fusion_lat": 0.0}, {"fusion_lon": 0.0, "bike_id": "0f316ba5ae6561b2ee26bb2bbf29f8dc", "name": "0f316ba5ae6561b2ee26bb2bbf29f8dc", "type": "electric_scooter", "lon": -77.00143083333333, "rental_uris": {"android": "https://dc.lft.to/lastmile_qr_scan", "ios": "https://dc.lft.to/lastmile_qr_scan"}, "lat": 38.87394116666667, "is_reserved": 0, "is_disabled": 0, "fusion_lat": 0.0}, {"fusion_lon": 0.0, "bike_id": "d3f8b097ac5df13203279e92311cebd6", "name": "d3f8b097ac5df13203279e92311cebd6", "type": "electric_scooter", "lon": -77.063958, "rental_uris": {"android": "https://dc.lft.to/lastmile_qr_scan", "ios": "https://dc.lft.to/lastmile_qr_scan"}, "lat": 38.9092635, "is_reserved": 0, "is_disabled": 0, "fusion_lat": 0.0}, {"fusion_lon": 0.0, "bike_id": "b7da1c6b109a0b747db9b2ef2a1f9549", "name": "b7da1c6b109a0b747db9b2ef2a1f9549", "type": "electric_scooter", "lon": -76.995191, "rental_uris": {"android": "https://dc.lft.to/lastmile_qr_scan", "ios": "https://dc.lft.to/lastmile_qr_scan"}, "lat": 38.862540333333335, "is_reserved": 0, "is_disabled": 0, "fusion_lat": 0.0}, {"fusion_lon": 0.0, "bike_id": "8bf76b7cb1acf819ed8a6c2134918def", "name": "8bf76b7cb1acf819ed8a6c2134918def", "type": "electric_scooter", "lon": -77.04775233333334, "rental_uris": {"android": "https://dc.lft.to/lastmile_qr_scan", "ios": "https://dc.lft.to/lastmile_qr_scan"}, "lat": 38.9132805, "is_reserved": 0, "is_disabled": 0, "fusion_lat": 0.0}, {"fusion_lon": 0.0, "bike_id": "f2e6eeb2a24ac142bac09553662d998c", "name": "f2e6eeb2a24ac142bac09553662d998c", "type": "electric_scooter", "lon": -77.02227816666667, "rental_uris": {"android": "https://dc.lft.to/lastmile_qr_scan", "ios": "https://dc.lft.to/lastmile_qr_scan"}, "lat": 38.91267216666667, "is_reserved": 0, "is_disabled": 0, "fusion_lat": 0.0}, {"fusion_lon": 0.0, "bike_id": "8f0c8760c1187d4a0513067483a8bb51", "name": "8f0c8760c1187d4a0513067483a8bb51", "type": "electric_bike", "lon": -77.006747, "rental_uris": {"android": "https://dc.lft.to/lastmile_qr_scan", "ios": "https://dc.lft.to/lastmile_qr_scan"}, "lat": 38.945062, "is_reserved": 0, "is_disabled": 0, "fusion_lat": 0.0}, {"fusion_lon": 0.0, "bike_id": "1f9c1ab0e4c6bf03de449c99202bf78b", "name": "1f9c1ab0e4c6bf03de449c99202bf78b", "type": "electric_scooter", "lon": -77.02971533333333, "rental_uris": {"android": "https://dc.lft.to/lastmile_qr_scan", "ios": "https://dc.lft.to/lastmile_qr_scan"}, "lat": 38.89633516666667, "is_reserved": 0, "is_disabled": 0, "fusion_lat": 0.0}, {"fusion_lon": 0.0, "bike_id": "4937cf5de55b98634be2e10371bd75b5", "name": "4937cf5de55b98634be2e10371bd75b5", "type": "electric_scooter", "lon": -77.0033775, "rental_uris": {"android": "https://dc.lft.to/lastmile_qr_scan", "ios": "https://dc.lft.to/lastmile_qr_scan"}, "lat": 38.893624833333334, "is_reserved": 0, "is_disabled": 0, "fusion_lat": 0.0}, {"fusion_lon": 0.0, "bike_id": "91c4a04b95737b17ca30cdc0b327b556", "name": "91c4a04b95737b17ca30cdc0b327b556", "type": "electric_scooter", "lon": -77.00026733333333, "rental_uris": {"android": "https://dc.lft.to/lastmile_qr_scan", "ios": "https://dc.lft.to/lastmile_qr_scan"}, "lat": 38.900057833333335, "is_reserved": 0, "is_disabled": 0, "fusion_lat": 0.0}, {"fusion_lon": 0.0, "bike_id": "deb645f940c02c24cf7707bb89be4e73", "name": "deb645f940c02c24cf7707bb89be4e73", "type": "electric_scooter", "lon": -77.02088416666666, "rental_uris": {"android": "https://dc.lft.to/lastmile_qr_scan", "ios": "https://dc.lft.to/lastmile_qr_scan"}, "lat": 38.90310733333333, "is_reserved": 0, "is_disabled": 0, "fusion_lat": 0.0}, {"fusion_lon": 0.0, "bike_id": "707b0f717842c2f4299bafb38a6dbd10", "name": "707b0f717842c2f4299bafb38a6dbd10", "type": "electric_scooter", "lon": -77.04512766666667, "rental_uris": {"android": "https://dc.lft.to/lastmile_qr_scan", "ios": "https://dc.lft.to/lastmile_qr_scan"}, "lat": 38.903696833333335, "is_reserved": 0, "is_disabled": 0, "fusion_lat": 0.0}, {"fusion_lon": 0.0, "bike_id": "d4b36aa871a0bfe3c98fe2fc8acb0100", "name": "d4b36aa871a0bfe3c98fe2fc8acb0100", "type": "electric_scooter", "lon": -77.03170233333333, "rental_uris": {"android": "https://dc.lft.to/lastmile_qr_scan", "ios": "https://dc.lft.to/lastmile_qr_scan"}, "lat": 38.897689166666666, "is_reserved": 0, "is_disabled": 0, "fusion_lat": 0.0}, {"fusion_lon": 0.0, "bike_id": "ae160941a0fd79eb5d1fad9eea045e69", "name": "ae160941a0fd79eb5d1fad9eea045e69", "type": "electric_scooter", "lon": -77.08448066666666, "rental_uris": {"android": "https://dc.lft.to/lastmile_qr_scan", "ios": "https://dc.lft.to/lastmile_qr_scan"}, "lat": 38.91173216666667, "is_reserved": 0, "is_disabled": 0, "fusion_lat": 0.0}, {"fusion_lon": 0.0, "bike_id": "12c4ae595f8273fd6fae9a1f8b92c148", "name": "12c4ae595f8273fd6fae9a1f8b92c148", "type": "electric_scooter", "lon": -77.0020465, "rental_uris": {"android": "https://dc.lft.to/lastmile_qr_scan", "ios": "https://dc.lft.to/lastmile_qr_scan"}, "lat": 38.902426166666665, "is_reserved": 0, "is_disabled": 0, "fusion_lat": 0.0}, {"fusion_lon": 0.0, "bike_id": "102aee5c13c3ac657d19f5620f51a072", "name": "102aee5c13c3ac657d19f5620f51a072", "type": "electric_scooter", "lon": -76.9802005, "rental_uris": {"android": "https://dc.lft.to/lastmile_qr_scan", "ios": "https://dc.lft.to/lastmile_qr_scan"}, "lat": 38.86400666666667, "is_reserved": 0, "is_disabled": 0, "fusion_lat": 0.0}, {"fusion_lon": 0.0, "bike_id": "5a043b7ecafc3ead9d55d2f8a45a3a22", "name": "5a043b7ecafc3ead9d55d2f8a45a3a22", "type": "electric_scooter", "lon": -77.02474833333333, "rental_uris": {"android": "https://dc.lft.to/lastmile_qr_scan", "ios": "https://dc.lft.to/lastmile_qr_scan"}, "lat": 38.930982166666666, "is_reserved": 0, "is_disabled": 0, "fusion_lat": 0.0}, {"fusion_lon": 0.0, "bike_id": "adcab1fab58224b178f0d2be9fe32271", "name": "adcab1fab58224b178f0d2be9fe32271", "type": "electric_scooter", "lon": -76.96544066666667, "rental_uris": {"android": "https://dc.lft.to/lastmile_qr_scan", "ios": "https://dc.lft.to/lastmile_qr_scan"}, "lat": 38.918493, "is_reserved": 0, "is_disabled": 0, "fusion_lat": 0.0}, {"fusion_lon": 0.0, "bike_id": "315beded094cedca058b53c84f3f302e", "name": "315beded094cedca058b53c84f3f302e", "type": "electric_scooter", "lon": -77.04496083333333, "rental_uris": {"android": "https://dc.lft.to/lastmile_qr_scan", "ios": "https://dc.lft.to/lastmile_qr_scan"}, "lat": 38.90928016666667, "is_reserved": 0, "is_disabled": 0, "fusion_lat": 0.0}, {"fusion_lon": 0.0, "bike_id": "4c772fd45ce0d814e3a58a65750942bd", "name": "4c772fd45ce0d814e3a58a65750942bd", "type": "electric_scooter", "lon": -77.00064933333333, "rental_uris": {"android": "https://dc.lft.to/lastmile_qr_scan", "ios": "https://dc.lft.to/lastmile_qr_scan"}, "lat": 38.89289383333333, "is_reserved": 0, "is_disabled": 0, "fusion_lat": 0.0}, {"fusion_lon": 0.0, "bike_id": "ac6a4e81be808a9dfaa100ee98f75157", "name": "ac6a4e81be808a9dfaa100ee98f75157", "type": "electric_scooter", "lon": -77.04078233333334, "rental_uris": {"android": "https://dc.lft.to/lastmile_qr_scan", "ios": "https://dc.lft.to/lastmile_qr_scan"}, "lat": 38.9049215, "is_reserved": 0, "is_disabled": 0, "fusion_lat": 0.0}, {"fusion_lon": 0.0, "bike_id": "d3ce97f4de1cc5e0428c6c2f082e0b40", "name": "d3ce97f4de1cc5e0428c6c2f082e0b40", "type": "electric_bike", "lon": -77.07798116666666, "rental_uris": {"android": "https://dc.lft.to/lastmile_qr_scan", "ios": "https://dc.lft.to/lastmile_qr_scan"}, "lat": 38.84515583333334, "is_reserved": 0, "is_disabled": 0, "fusion_lat": 0.0}, {"fusion_lon": 0.0, "bike_id": "fc4cec5246faa1a2f12579dfb1061e37", "name": "fc4cec5246faa1a2f12579dfb1061e37", "type": "electric_scooter", "lon": -77.04236, "rental_uris": {"android": "https://dc.lft.to/lastmile_qr_scan", "ios": "https://dc.lft.to/lastmile_qr_scan"}, "lat": 38.897483, "is_reserved": 0, "is_disabled": 0, "fusion_lat": 0.0}, {"fusion_lon": 0.0, "bike_id": "4be88316e7f1990a7f9cc7c7667f0613", "name": "4be88316e7f1990a7f9cc7c7667f0613", "type": "electric_scooter", "lon": -77.05807083333333, "rental_uris": {"android": "https://dc.lft.to/lastmile_qr_scan", "ios": "https://dc.lft.to/lastmile_qr_scan"}, "lat": 38.9029375, "is_reserved": 0, "is_disabled": 0, "fusion_lat": 0.0}, {"fusion_lon": 0.0, "bike_id": "d305616e011ef1249fafd2be456e7649", "name": "d305616e011ef1249fafd2be456e7649", "type": "electric_scooter", "lon": -77.023959, "rental_uris": {"android": "https://dc.lft.to/lastmile_qr_scan", "ios": "https://dc.lft.to/lastmile_qr_scan"}, "lat": 38.937012333333335, "is_reserved": 0, "is_disabled": 0, "fusion_lat": 0.0}, {"fusion_lon": 0.0, "bike_id": "78239d237035f7fb11276a0cf9c7397f", "name": "78239d237035f7fb11276a0cf9c7397f", "type": "electric_scooter", "lon": -77.02177366666666, "rental_uris": {"android": "https://dc.lft.to/lastmile_qr_scan", "ios": "https://dc.lft.to/lastmile_qr_scan"}, "lat": 38.94308483333333, "is_reserved": 0, "is_disabled": 0, "fusion_lat": 0.0}, {"fusion_lon": 0.0, "bike_id": "a1ee90f192330274d7b3985530fe6967", "name": "a1ee90f192330274d7b3985530fe6967", "type": "electric_scooter", "lon": -77.06340916666667, "rental_uris": {"android": "https://dc.lft.to/lastmile_qr_scan", "ios": "https://dc.lft.to/lastmile_qr_scan"}, "lat": 38.90841866666667, "is_reserved": 0, "is_disabled": 0, "fusion_lat": 0.0}, {"fusion_lon": 0.0, "bike_id": "c896fd931bc994f63aeea59e94e88a8f", "name": "c896fd931bc994f63aeea59e94e88a8f", "type": "electric_scooter", "lon": -77.05032116666666, "rental_uris": {"android": "https://dc.lft.to/lastmile_qr_scan", "ios": "https://dc.lft.to/lastmile_qr_scan"}, "lat": 38.8964935, "is_reserved": 0, "is_disabled": 0, "fusion_lat": 0.0}, {"fusion_lon": 0.0, "bike_id": "cbeea83217d7fcbed3b10a43523b7981", "name": "cbeea83217d7fcbed3b10a43523b7981", "type": "electric_scooter", "lon": -77.02960916666666, "rental_uris": {"android": "https://dc.lft.to/lastmile_qr_scan", "ios": "https://dc.lft.to/lastmile_qr_scan"}, "lat": 38.92145583333333, "is_reserved": 0, "is_disabled": 0, "fusion_lat": 0.0}, {"fusion_lon": 0.0, "bike_id": "b91c2d6d6be2e6002e22af5576338464", "name": "b91c2d6d6be2e6002e22af5576338464", "type": "electric_scooter", "lon": -77.07250433333333, "rental_uris": {"android": "https://dc.lft.to/lastmile_qr_scan", "ios": "https://dc.lft.to/lastmile_qr_scan"}, "lat": 38.907748833333336, "is_reserved": 0, "is_disabled": 0, "fusion_lat": 0.0}, {"fusion_lon": 0.0, "bike_id": "cd39ab325e76c5ea12974c2d664f2999", "name": "cd39ab325e76c5ea12974c2d664f2999", "type": "electric_scooter", "lon": -77.02956366666666, "rental_uris": {"android": "https://dc.lft.to/lastmile_qr_scan", "ios": "https://dc.lft.to/lastmile_qr_scan"}, "lat": 38.89629883333333, "is_reserved": 0, "is_disabled": 0, "fusion_lat": 0.0}, {"fusion_lon": 0.0, "bike_id": "9ba1cf7340aa03883bd8c5c75b2f007e", "name": "9ba1cf7340aa03883bd8c5c75b2f007e", "type": "electric_scooter", "lon": -77.03182583333333, "rental_uris": {"android": "https://dc.lft.to/lastmile_qr_scan", "ios": "https://dc.lft.to/lastmile_qr_scan"}, "lat": 38.909792, "is_reserved": 0, "is_disabled": 0, "fusion_lat": 0.0}, {"fusion_lon": 0.0, "bike_id": "ad565692c4019342d01b82bb5ba097fc", "name": "ad565692c4019342d01b82bb5ba097fc", "type": "electric_scooter", "lon": -77.00897266666666, "rental_uris": {"android": "https://dc.lft.to/lastmile_qr_scan", "ios": "https://dc.lft.to/lastmile_qr_scan"}, "lat": 38.873240333333335, "is_reserved": 0, "is_disabled": 0, "fusion_lat": 0.0}, {"fusion_lon": 0.0, "bike_id": "bfb676784a561b5938276689448abf6c", "name": "bfb676784a561b5938276689448abf6c", "type": "electric_scooter", "lon": -77.05994966666667, "rental_uris": {"android": "https://dc.lft.to/lastmile_qr_scan", "ios": "https://dc.lft.to/lastmile_qr_scan"}, "lat": 38.911915, "is_reserved": 0, "is_disabled": 0, "fusion_lat": 0.0}, {"fusion_lon": 0.0, "bike_id": "b7ec75eb29aa4d1c8878662761c0cc03", "name": "b7ec75eb29aa4d1c8878662761c0cc03", "type": "electric_scooter", "lon": -76.9974495, "rental_uris": {"android": "https://dc.lft.to/lastmile_qr_scan", "ios": "https://dc.lft.to/lastmile_qr_scan"}, "lat": 38.92034066666667, "is_reserved": 0, "is_disabled": 0, "fusion_lat": 0.0}, {"fusion_lon": 0.0, "bike_id": "ed9dabe6c9e096bec36e8a72e5ab8036", "name": "ed9dabe6c9e096bec36e8a72e5ab8036", "type": "electric_scooter", "lon": -77.04054466666666, "rental_uris": {"android": "https://dc.lft.to/lastmile_qr_scan", "ios": "https://dc.lft.to/lastmile_qr_scan"}, "lat": 38.901470333333336, "is_reserved": 0, "is_disabled": 0, "fusion_lat": 0.0}, {"fusion_lon": 0.0, "bike_id": "2bd489a72757728ac292027fb7bb5d3c", "name": "2bd489a72757728ac292027fb7bb5d3c", "type": "electric_scooter", "lon": -77.0382525, "rental_uris": {"android": "https://dc.lft.to/lastmile_qr_scan", "ios": "https://dc.lft.to/lastmile_qr_scan"}, "lat": 38.92062883333333, "is_reserved": 0, "is_disabled": 0, "fusion_lat": 0.0}, {"fusion_lon": 0.0, "bike_id": "8e3d98af62c1f113c963ce0996544585", "name": "8e3d98af62c1f113c963ce0996544585", "type": "electric_scooter", "lon": -77.0339925, "rental_uris": {"android": "https://dc.lft.to/lastmile_qr_scan", "ios": "https://dc.lft.to/lastmile_qr_scan"}, "lat": 38.921526, "is_reserved": 0, "is_disabled": 0, "fusion_lat": 0.0}, {"fusion_lon": 0.0, "bike_id": "4785987178b742ae9cf7a5d53f8ee480", "name": "4785987178b742ae9cf7a5d53f8ee480", "type": "electric_scooter", "lon": -77.03636383333334, "rental_uris": {"android": "https://dc.lft.to/lastmile_qr_scan", "ios": "https://dc.lft.to/lastmile_qr_scan"}, "lat": 38.916949333333335, "is_reserved": 0, "is_disabled": 0, "fusion_lat": 0.0}, {"fusion_lon": 0.0, "bike_id": "2be179ce0d94e4410e8d80951d286529", "name": "2be179ce0d94e4410e8d80951d286529", "type": "electric_scooter", "lon": -77.013162, "rental_uris": {"android": "https://dc.lft.to/lastmile_qr_scan", "ios": "https://dc.lft.to/lastmile_qr_scan"}, "lat": 38.9005515, "is_reserved": 0, "is_disabled": 0, "fusion_lat": 0.0}, {"fusion_lon": 0.0, "bike_id": "4a81320f9606b188fcab0c6278051d79", "name": "4a81320f9606b188fcab0c6278051d79", "type": "electric_scooter", "lon": -77.038438, "rental_uris": {"android": "https://dc.lft.to/lastmile_qr_scan", "ios": "https://dc.lft.to/lastmile_qr_scan"}, "lat": 38.90467066666667, "is_reserved": 0, "is_disabled": 0, "fusion_lat": 0.0}, {"fusion_lon": 0.0, "bike_id": "ea85a7e55dd3fde737275612220e1053", "name": "ea85a7e55dd3fde737275612220e1053", "type": "electric_bike", "lon": -77.002918, "rental_uris": {"android": "https://dc.lft.to/lastmile_qr_scan", "ios": "https://dc.lft.to/lastmile_qr_scan"}, "lat": 38.91167883333333, "is_reserved": 0, "is_disabled": 0, "fusion_lat": 0.0}, {"fusion_lon": 0.0, "bike_id": "7a9b7d1d8fe0797bec77e39cec675089", "name": "7a9b7d1d8fe0797bec77e39cec675089", "type": "electric_scooter", "lon": -77.00298, "rental_uris": {"android": "https://dc.lft.to/lastmile_qr_scan", "ios": "https://dc.lft.to/lastmile_qr_scan"}, "lat": 38.892217, "is_reserved": 0, "is_disabled": 0, "fusion_lat": 0.0}, {"fusion_lon": 0.0, "bike_id": "4297b70272c923625923f473df71baa7", "name": "4297b70272c923625923f473df71baa7", "type": "electric_scooter", "lon": -77.00213483333333, "rental_uris": {"android": "https://dc.lft.to/lastmile_qr_scan", "ios": "https://dc.lft.to/lastmile_qr_scan"}, "lat": 38.894932833333336, "is_reserved": 0, "is_disabled": 0, "fusion_lat": 0.0}, {"fusion_lon": 0.0, "bike_id": "e7b3cd2f4bf900c54a30c5263c410ade", "name": "e7b3cd2f4bf900c54a30c5263c410ade", "type": "electric_bike", "lon": -77.02509466666666, "rental_uris": {"android": "https://dc.lft.to/lastmile_qr_scan", "ios": "https://dc.lft.to/lastmile_qr_scan"}, "lat": 38.9340975, "is_reserved": 0, "is_disabled": 0, "fusion_lat": 0.0}, {"fusion_lon": 0.0, "bike_id": "717c8571172d77bf7e64482075ec98b7", "name": "717c8571172d77bf7e64482075ec98b7", "type": "electric_scooter", "lon": -76.99612966666666, "rental_uris": {"android": "https://dc.lft.to/lastmile_qr_scan", "ios": "https://dc.lft.to/lastmile_qr_scan"}, "lat": 38.884915166666666, "is_reserved": 0, "is_disabled": 0, "fusion_lat": 0.0}, {"fusion_lon": 0.0, "bike_id": "298068dddf1941ace7531611976b47f7", "name": "298068dddf1941ace7531611976b47f7", "type": "electric_bike", "lon": -77.01799316666667, "rental_uris": {"android": "https://dc.lft.to/lastmile_qr_scan", "ios": "https://dc.lft.to/lastmile_qr_scan"}, "lat": 38.9898535, "is_reserved": 0, "is_disabled": 0, "fusion_lat": 0.0}, {"fusion_lon": 0.0, "bike_id": "818a0c21f7e53b4dd5a6a3df519d30b7", "name": "818a0c21f7e53b4dd5a6a3df519d30b7", "type": "electric_scooter", "lon": -77.03431833333333, "rental_uris": {"android": "https://dc.lft.to/lastmile_qr_scan", "ios": "https://dc.lft.to/lastmile_qr_scan"}, "lat": 38.90424183333333, "is_reserved": 0, "is_disabled": 0, "fusion_lat": 0.0}, {"fusion_lon": 0.0, "bike_id": "891f92ae3080e62e603bebfcf841557f", "name": "891f92ae3080e62e603bebfcf841557f", "type": "electric_scooter", "lon": -77.072365, "rental_uris": {"android": "https://dc.lft.to/lastmile_qr_scan", "ios": "https://dc.lft.to/lastmile_qr_scan"}, "lat": 38.9345495, "is_reserved": 0, "is_disabled": 0, "fusion_lat": 0.0}, {"fusion_lon": 0.0, "bike_id": "3e99e917f04903976bda87617fa543d9", "name": "3e99e917f04903976bda87617fa543d9", "type": "electric_scooter", "lon": -77.0382675, "rental_uris": {"android": "https://dc.lft.to/lastmile_qr_scan", "ios": "https://dc.lft.to/lastmile_qr_scan"}, "lat": 38.90319366666667, "is_reserved": 0, "is_disabled": 0, "fusion_lat": 0.0}, {"fusion_lon": 0.0, "bike_id": "4564129b38596f2a259b77872e335bfc", "name": "4564129b38596f2a259b77872e335bfc", "type": "electric_scooter", "lon": -77.052595, "rental_uris": {"android": "https://dc.lft.to/lastmile_qr_scan", "ios": "https://dc.lft.to/lastmile_qr_scan"}, "lat": 38.92569316666667, "is_reserved": 0, "is_disabled": 0, "fusion_lat": 0.0}, {"fusion_lon": 0.0, "bike_id": "4035001125badba673c99ee1bcdb301c", "name": "4035001125badba673c99ee1bcdb301c", "type": "electric_scooter", "lon": -77.01430366666666, "rental_uris": {"android": "https://dc.lft.to/lastmile_qr_scan", "ios": "https://dc.lft.to/lastmile_qr_scan"}, "lat": 38.89882733333334, "is_reserved": 0, "is_disabled": 0, "fusion_lat": 0.0}, {"fusion_lon": 0.0, "bike_id": "d43174b63b3e35af8f96fe41a683f5a3", "name": "d43174b63b3e35af8f96fe41a683f5a3", "type": "electric_scooter", "lon": -77.0386495, "rental_uris": {"android": "https://dc.lft.to/lastmile_qr_scan", "ios": "https://dc.lft.to/lastmile_qr_scan"}, "lat": 38.90969366666667, "is_reserved": 0, "is_disabled": 0, "fusion_lat": 0.0}, {"fusion_lon": 0.0, "bike_id": "df850ed0d52d7b5d7d04cc2e75df3f5b", "name": "df850ed0d52d7b5d7d04cc2e75df3f5b", "type": "electric_scooter", "lon": -77.015562, "rental_uris": {"android": "https://dc.lft.to/lastmile_qr_scan", "ios": "https://dc.lft.to/lastmile_qr_scan"}, "lat": 38.872608166666666, "is_reserved": 0, "is_disabled": 0, "fusion_lat": 0.0}, {"fusion_lon": 0.0, "bike_id": "d9178f94f207072bc9e03b8202052b49", "name": "d9178f94f207072bc9e03b8202052b49", "type": "electric_scooter", "lon": -76.98615383333333, "rental_uris": {"android": "https://dc.lft.to/lastmile_qr_scan", "ios": "https://dc.lft.to/lastmile_qr_scan"}, "lat": 38.85459316666667, "is_reserved": 0, "is_disabled": 0, "fusion_lat": 0.0}, {"fusion_lon": 0.0, "bike_id": "deade0a9ed1dabb65cfca5ba58c2fd32", "name": "deade0a9ed1dabb65cfca5ba58c2fd32", "type": "electric_scooter", "lon": -76.994918, "rental_uris": {"android": "https://dc.lft.to/lastmile_qr_scan", "ios": "https://dc.lft.to/lastmile_qr_scan"}, "lat": 38.9257945, "is_reserved": 0, "is_disabled": 0, "fusion_lat": 0.0}, {"fusion_lon": 0.0, "bike_id": "372c0e728d8c7c13452c5989bef2f134", "name": "372c0e728d8c7c13452c5989bef2f134", "type": "electric_scooter", "lon": -77.039134, "rental_uris": {"android": "https://dc.lft.to/lastmile_qr_scan", "ios": "https://dc.lft.to/lastmile_qr_scan"}, "lat": 38.91275733333333, "is_reserved": 0, "is_disabled": 0, "fusion_lat": 0.0}, {"fusion_lon": 0.0, "bike_id": "aa30dd87bbc268228731b7268936d898", "name": "aa30dd87bbc268228731b7268936d898", "type": "electric_bike", "lon": -77.0398925, "rental_uris": {"android": "https://dc.lft.to/lastmile_qr_scan", "ios": "https://dc.lft.to/lastmile_qr_scan"}, "lat": 38.802951, "is_reserved": 0, "is_disabled": 0, "fusion_lat": 0.0}, {"fusion_lon": 0.0, "bike_id": "e0765a0f68e5e5d9bbc3de7d4abbfb7c", "name": "e0765a0f68e5e5d9bbc3de7d4abbfb7c", "type": "electric_scooter", "lon": -77.03253816666667, "rental_uris": {"android": "https://dc.lft.to/lastmile_qr_scan", "ios": "https://dc.lft.to/lastmile_qr_scan"}, "lat": 38.930177, "is_reserved": 0, "is_disabled": 0, "fusion_lat": 0.0}, {"fusion_lon": 0.0, "bike_id": "a73196ea59f0b26856295cce012250c5", "name": "a73196ea59f0b26856295cce012250c5", "type": "electric_scooter", "lon": -76.97548266666666, "rental_uris": {"android": "https://dc.lft.to/lastmile_qr_scan", "ios": "https://dc.lft.to/lastmile_qr_scan"}, "lat": 38.90255116666667, "is_reserved": 0, "is_disabled": 0, "fusion_lat": 0.0}, {"fusion_lon": 0.0, "bike_id": "1b5f9da902bd0280ff94215b541de705", "name": "1b5f9da902bd0280ff94215b541de705", "type": "electric_scooter", "lon": -77.03925083333333, "rental_uris": {"android": "https://dc.lft.to/lastmile_qr_scan", "ios": "https://dc.lft.to/lastmile_qr_scan"}, "lat": 38.90257033333334, "is_reserved": 0, "is_disabled": 0, "fusion_lat": 0.0}, {"fusion_lon": 0.0, "bike_id": "541f6d907de66db8d2ee284767e4e496", "name": "541f6d907de66db8d2ee284767e4e496", "type": "electric_scooter", "lon": -77.0174615, "rental_uris": {"android": "https://dc.lft.to/lastmile_qr_scan", "ios": "https://dc.lft.to/lastmile_qr_scan"}, "lat": 38.8766395, "is_reserved": 0, "is_disabled": 0, "fusion_lat": 0.0}, {"fusion_lon": 0.0, "bike_id": "db38f0a26d74300176981b23b57b258a", "name": "db38f0a26d74300176981b23b57b258a", "type": "electric_scooter", "lon": -77.04553816666666, "rental_uris": {"android": "https://dc.lft.to/lastmile_qr_scan", "ios": "https://dc.lft.to/lastmile_qr_scan"}, "lat": 38.92061416666667, "is_reserved": 0, "is_disabled": 0, "fusion_lat": 0.0}, {"fusion_lon": 0.0, "bike_id": "4485ab3ac705c4a9ca7b9b3b2e806c17", "name": "4485ab3ac705c4a9ca7b9b3b2e806c17", "type": "electric_scooter", "lon": -76.98885266666667, "rental_uris": {"android": "https://dc.lft.to/lastmile_qr_scan", "ios": "https://dc.lft.to/lastmile_qr_scan"}, "lat": 38.902062666666666, "is_reserved": 0, "is_disabled": 0, "fusion_lat": 0.0}, {"fusion_lon": 0.0, "bike_id": "46bb1803682be88ab0462122e7a88a9f", "name": "46bb1803682be88ab0462122e7a88a9f", "type": "electric_scooter", "lon": -77.0418, "rental_uris": {"android": "https://dc.lft.to/lastmile_qr_scan", "ios": "https://dc.lft.to/lastmile_qr_scan"}, "lat": 38.90727916666667, "is_reserved": 0, "is_disabled": 0, "fusion_lat": 0.0},