{"data": {"bikes": [{"bike_id": "af0bc851f001f0631bd0ebfa84678c4c", "lat": 38.796042, "is_reserved": 0, "fusion_lat": 0.0, "rental_uris": {"android": "https://dc.lft.to/lastmile_qr_scan", "ios": "https://dc.lft.to/lastmile_qr_scan"}, "fusion_lon": 0.0, "name": "af0bc851f001f0631bd0ebfa84678c4c", "lon": -76.99745366666667, "is_disabled": 0, "type": "electric_bike"}, {"bike_id": "9181f68f0ff3c56b97de86628d3f43a4", "lat": 38.90718433333333, "is_reserved": 0, "fusion_lat": 0.0, "rental_uris": {"android": "https://dc.lft.to/lastmile_qr_scan", "ios": "https://dc.lft.to/lastmile_qr_scan"}, "fusion_lon": 0.0, "name": "9181f68f0ff3c56b97de86628d3f43a4", "lon": -77.0217485, "is_disabled": 0, "type": "electric_scooter"}, {"bike_id": "ff44182ba323dec2868db71cf53fb571", "lat": 38.898640666666665, "is_reserved": 0, "fusion_lat": 0.0, "rental_uris": {"android": "https://dc.lft.to/lastmile_qr_scan", "ios": "https://dc.lft.to/lastmile_qr_scan"}, "fusion_lon": 0.0, "name": "ff44182ba323dec2868db71cf53fb571", "lon": -76.94643366666666, "is_disabled": 0, "type": "electric_scooter"}, {"bike_id": "d3821a1ae9b6abd31dfb4bb8cd1d977e", "lat": 38.9185215, "is_reserved": 0, "fusion_lat": 0.0, "rental_uris": {"android": "https://dc.lft.to/lastmile_qr_scan", "ios": "https://dc.lft.to/lastmile_qr_scan"}, "fusion_lon": 0.0, "name": "d3821a1ae9b6abd31dfb4bb8cd1d977e", "lon": -77.03177366666667, "is_disabled": 0, "type": "electric_scooter"}, {"bike_id": "3949424e643ca87bed0295f23800be80", "lat": 38.92175783333333, "is_reserved": 0, "fusion_lat": 0.0, "rental_uris": {"android": "https://dc.lft.to/lastmile_qr_scan", "ios": "https://dc.lft.to/lastmile_qr_scan"}, "fusion_lon": 0.0, "name": "3949424e643ca87bed0295f23800be80", "lon": -77.0210625, "is_disabled": 0, "type": "electric_scooter"}, {"bike_id": "3ccf114290b36dc4f1916034584903c7", "lat": 38.815095666666664, "is_reserved": 0, "fusion_lat": 0.0, "rental_uris": {"android": "https://dc.lft.to/lastmile_qr_scan", "ios": "https://dc.lft.to/lastmile_qr_scan"}, "fusion_lon": 0.0, "name": "3ccf114290b36dc4f1916034584903c7", "lon": -77.1265605, "is_disabled": 0, "type": "electric_bike"}, {"bike_id": "107f3fa2d3ae652a9268e8d574ad5d24", "lat": 38.90398416666667, "is_reserved": 0, "fusion_lat": 0.0, "rental_uris": {"android": "https://dc.lft.to/lastmile_qr_scan", "ios": "https://dc.lft.to/lastmile_qr_scan"}, "fusion_lon": 0.0, "name": "107f3fa2d3ae652a9268e8d574ad5d24", "lon": -77.024971, "is_disabled": 0, "type": "electric_scooter"}, {"bike_id": "62ecafdf9724cc00a40d294ecf91a63f", "lat": 38.897187833333334, "is_reserved": 0, "fusion_lat": 0.0, "rental_uris": {"android": "https://dc.lft.to/lastmile_qr_scan", "ios": "https://dc.lft.to/lastmile_qr_scan"}, "fusion_lon": 0.0, "name": "62ecafdf9724cc00a40d294ecf91a63f", "lon": -77.027199, "is_disabled": 0, "type": "electric_scooter"}, {"bike_id": "eccc42072e61c695fc804060e0048cfc", "lat": 38.914179, "is_reserved": 0, "fusion_lat": 0.0, "rental_uris": {"android": "https://dc.lft.to/lastmile_qr_scan", "ios": "https://dc.lft.to/lastmile_qr_scan"}, "fusion_lon": 0.0, "name": "eccc42072e61c695fc804060e0048cfc", "lon": -77.01803516666666, "is_disabled": 0, "type": "electric_scooter"}, {"bike_id": "6f189ea40b177d1f9265b697462158cd", "lat": 38.91266566666667, "is_reserved": 0, "fusion_lat": 0.0, "rental_uris": {"android": "https://dc.lft.to/lastmile_qr_scan", "ios": "https://dc.lft.to/lastmile_qr_scan"}, "fusion_lon": 0.0, "name": "6f189ea40b177d1f9265b697462158cd", "lon": -77.04501033333334, "is_disabled": 0, "type": "electric_scooter"}, {"bike_id": "347b87b7836d494456713d76399a521d", "lat": 38.87310866666667, "is_reserved": 0, "fusion_lat": 0.0, "rental_uris": {"android": "https://dc.lft.to/lastmile_qr_scan", "ios": "https://dc.lft.to/lastmile_qr_scan"}, "fusion_lon": 0.0, "name": "347b87b7836d494456713d76399a521d", "lon": -77.00155533333333, "is_disabled": 0, "type": "electric_scooter"}, {"bike_id": "409c50722c6e9fbc8023a81c99762d51", "lat": 38.92390666666667, "is_reserved": 0, "fusion_lat": 0.0, "rental_uris": {"android": "https://dc.lft.to/lastmile_qr_scan", "ios": "https://dc.lft.to/lastmile_qr_scan"}, "fusion_lon": 0.0, "name": "409c50722c6e9fbc8023a81c99762d51", "lon": -77.04457716666667, "is_disabled": 0, "type": "electric_scooter"}, {"bike_id": "a8b0b3126ba90044e93204b02b1274ad", "lat": 38.91670666666667, "is_reserved": 0, "fusion_lat": 0.0, "rental_uris": {"android": "https://dc.lft.to/lastmile_qr_scan", "ios": "https://dc.lft.to/lastmile_qr_scan"}, "fusion_lon": 0.0, "name": "a8b0b3126ba90044e93204b02b1274ad", "lon": -77.02325666666667, "is_disabled": 0, "type": "electric_scooter"}, {"bike_id": "48c5c047667dbaea8eeecff8aa86e1b9", "lat": 38.899152, "is_reserved": 0, "fusion_lat": 0.0, "rental_uris": {"android": "https://dc.lft.to/lastmile_qr_scan", "ios": "https://dc.lft.to/lastmile_qr_scan"}, "fusion_lon": 0.0, "name": "48c5c047667dbaea8eeecff8aa86e1b9", "lon": -76.93371566666667, "is_disabled": 0, "type": "electric_scooter"}, {"bike_id": "aff0d283b1bed24a56fd01c459a84549", "lat": 38.897903, "is_reserved": 0, "fusion_lat": 0.0, "rental_uris": {"android": "https://dc.lft.to/lastmile_qr_scan", "ios": "https://dc.lft.to/lastmile_qr_scan"}, "fusion_lon": 0.0, "name": "aff0d283b1bed24a56fd01c459a84549", "lon": -77.01201833333333, "is_disabled": 0, "type": "electric_scooter"}, {"bike_id": "1805b054aa48a28d7580370e723ce9dc", "lat": 38.904429, "is_reserved": 0, "fusion_lat": 0.0, "rental_uris": {"android": "https://dc.lft.to/lastmile_qr_scan", "ios": "https://dc.lft.to/lastmile_qr_scan"}, "fusion_lon": 0.0, "name": "1805b054aa48a28d7580370e723ce9dc", "lon": -76.98006766666667, "is_disabled": 0, "type": "electric_scooter"}, {"bike_id": "7739a51998623bea8270b0a67da559c1", "lat": 38.91106116666667, "is_reserved": 0, "fusion_lat": 0.0, "rental_uris": {"android": "https://dc.lft.to/lastmile_qr_scan", "ios": "https://dc.lft.to/lastmile_qr_scan"}, "fusion_lon": 0.0, "name": "7739a51998623bea8270b0a67da559c1", "lon": -77.02234766666666, "is_disabled": 0, "type": "electric_scooter"}, {"bike_id": "bc361bf31b0bca75240031ac46d41a01", "lat": 38.91860283333333, "is_reserved": 0, "fusion_lat": 0.0, "rental_uris": {"android": "https://dc.lft.to/lastmile_qr_scan", "ios": "https://dc.lft.to/lastmile_qr_scan"}, "fusion_lon": 0.0, "name": "bc361bf31b0bca75240031ac46d41a01", "lon": -77.044782, "is_disabled": 0, "type": "electric_scooter"}, {"bike_id": "bee081f9451fb5b028a3ea7cb25ca6ff", "lat": 38.925050166666665, "is_reserved": 0, "fusion_lat": 0.0, "rental_uris": {"android": "https://dc.lft.to/lastmile_qr_scan", "ios": "https://dc.lft.to/lastmile_qr_scan"}, "fusion_lon": 0.0, "name": "bee081f9451fb5b028a3ea7cb25ca6ff", "lon": -77.03811366666666, "is_disabled": 0, "type": "electric_scooter"}, {"bike_id": "d324b74a7e7c42054dab8d7d9a3cda6f", "lat": 38.89229266666667, "is_reserved": 0, "fusion_lat": 0.0, "rental_uris": {"android": "https://dc.lft.to/lastmile_qr_scan", "ios": "https://dc.lft.to/lastmile_qr_scan"}, "fusion_lon": 0.0, "name": "d324b74a7e7c42054dab8d7d9a3cda6f", "lon": -77.01493516666666, "is_disabled": 0, "type": "electric_scooter"}, {"bike_id": "c9a0822c7e77b45be83e8061d16b1c79", "lat": 38.9342345, "is_reserved": 0, "fusion_lat": 0.0, "rental_uris": {"android": "https://dc.lft.to/lastmile_qr_scan", "ios": "https://dc.lft.to/lastmile_qr_scan"}, "fusion_lon": 0.0, "name": "c9a0822c7e77b45be83e8061d16b1c79", "lon": -77.03999433333334, "is_disabled": 0, "type": "electric_scooter"}, {"bike_id": "0e8a6524f4a449ab6e78c44756b630cb", "lat": 38.91672633333334, "is_reserved": 0, "fusion_lat": 0.0, "rental_uris": {"android": "https://dc.lft.to/lastmile_qr_scan", "ios": "https://dc.lft.to/lastmile_qr_scan"}, "fusion_lon": 0.0, "name": "0e8a6524f4a449ab6e78c44756b630cb", "lon": -76.9817765, "is_disabled": 0, "type": "electric_scooter"}, {"bike_id": "3c2f51b5d6f428e9ec78f31e516357fd", "lat": 38.8922005, "is_reserved": 0, "fusion_lat": 0.0, "rental_uris": {"android": "https://dc.lft.to/lastmile_qr_scan", "ios": "https://dc.lft.to/lastmile_qr_scan"}, "fusion_lon": 0.0, "name": "3c2f51b5d6f428e9ec78f31e516357fd", "lon": -77.02455966666666, "is_disabled": 0, "type": "electric_scooter"}, {"bike_id": "6041eca92b73905f9e654da130e07918", "lat": 38.928511, "is_reserved": 0, "fusion_lat": 0.0, "rental_uris": {"android": "https://dc.lft.to/lastmile_qr_scan", "ios": "https://dc.lft.to/lastmile_qr_scan"}, "fusion_lon": 0.0, "name": "6041eca92b73905f9e654da130e07918", "lon": -77.03260416666667, "is_disabled": 0, "type": "electric_scooter"}, {"bike_id": "6e7e2847c48da110ed0f24cf6063a125", "lat": 38.910015666666666, "is_reserved": 0, "fusion_lat": 0.0, "rental_uris": {"android": "https://dc.lft.to/lastmile_qr_scan", "ios": "https://dc.lft.to/lastmile_qr_scan"}, "fusion_lon": 0.0, "name": "6e7e2847c48da110ed0f24cf6063a125", "lon": -77.0400815, "is_disabled": 0, "type": "electric_scooter"}, {"bike_id": "b89bd9e4948944eb11faedb316a8c079", "lat": 38.85357316666666, "is_reserved": 0, "fusion_lat": 0.0, "rental_uris": {"android": "https://dc.lft.to/lastmile_qr_scan", "ios": "https://dc.lft.to/lastmile_qr_scan"}, "fusion_lon": 0.0, "name": "b89bd9e4948944eb11faedb316a8c079", "lon": -77.08688333333333, "is_disabled": 0, "type": "electric_bike"}, {"bike_id": "480069f8b64aef710fb49bdf254edc90", "lat": 38.9228005, "is_reserved": 0, "fusion_lat": 0.0, "rental_uris": {"android": "https://dc.lft.to/lastmile_qr_scan", "ios": "https://dc.lft.to/lastmile_qr_scan"}, "fusion_lon": 0.0, "name": "480069f8b64aef710fb49bdf254edc90", "lon": -77.04237833333333, "is_disabled": 0, "type": "electric_scooter"}, {"bike_id": "63c0b7ee77a4e4c97c41dde73fa56ab0", "lat": 38.86506216666667, "is_reserved": 0, "fusion_lat": 0.0, "rental_uris": {"android": "https://dc.lft.to/lastmile_qr_scan", "ios": "https://dc.lft.to/lastmile_qr_scan"}, "fusion_lon": 0.0, "name": "63c0b7ee77a4e4c97c41dde73fa56ab0", "lon": -76.99005616666666, "is_disabled": 0, "type": "electric_scooter"}, {"bike_id": "6778b5d8e7cf2c05afbad8bf2856551b", "lat": 38.915578, "is_reserved": 0, "fusion_lat": 0.0, "rental_uris": {"android": "https://dc.lft.to/lastmile_qr_scan", "ios": "https://dc.lft.to/lastmile_qr_scan"}, "fusion_lon": 0.0, "name": "6778b5d8e7cf2c05afbad8bf2856551b", "lon": -77.02572866666667, "is_disabled": 0, "type": "electric_scooter"}, {"bike_id": "c2a9318bd482394eb979dfcc7183adc3", "lat": 38.955668333333335, "is_reserved": 0, "fusion_lat": 0.0, "rental_uris": {"android": "https://dc.lft.to/lastmile_qr_scan", "ios": "https://dc.lft.to/lastmile_qr_scan"}, "fusion_lon": 0.0, "name": "c2a9318bd482394eb979dfcc7183adc3", "lon": -77.02726033333333, "is_disabled": 0, "type": "electric_scooter"}, {"bike_id": "6222038ffb77b9727492dfa534137b15", "lat": 38.92321716666667, "is_reserved": 0, "fusion_lat": 0.0, "rental_uris": {"android": "https://dc.lft.to/lastmile_qr_scan", "ios": "https://dc.lft.to/lastmile_qr_scan"}, "fusion_lon": 0.0, "name": "6222038ffb77b9727492dfa534137b15", "lon": -77.0367865, "is_disabled": 0, "type": "electric_scooter"}, {"bike_id": "64193d52a1e83935bfb2c8ddf9e89077", "lat": 38.91411216666667, "is_reserved": 0, "fusion_lat": 0.0, "rental_uris": {"android": "https://dc.lft.to/lastmile_qr_scan", "ios": "https://dc.lft.to/lastmile_qr_scan"}, "fusion_lon": 0.0, "name": "64193d52a1e83935bfb2c8ddf9e89077", "lon": -77.02616983333333, "is_disabled": 0, "type": "electric_scooter"}, {"bike_id": "e7d41c325024c64fc5545e382a0aa4b2", "lat": 38.90368933333333, "is_reserved": 0, "fusion_lat": 0.0, "rental_uris": {"android": "https://dc.lft.to/lastmile_qr_scan", "ios": "https://dc.lft.to/lastmile_qr_scan"}, "fusion_lon": 0.0, "name": "e7d41c325024c64fc5545e382a0aa4b2", "lon": -77.04512583333333, "is_disabled": 0, "type": "electric_scooter"}, {"bike_id": "3c416c153620225c5fde342f979eaac5", "lat": 38.896841333333334, "is_reserved": 0, "fusion_lat": 0.0, "rental_uris": {"android": "https://dc.lft.to/lastmile_qr_scan", "ios": "https://dc.lft.to/lastmile_qr_scan"}, "fusion_lon": 0.0, "name": "3c416c153620225c5fde342f979eaac5", "lon": -77.00496416666667, "is_disabled": 0, "type": "electric_scooter"}, {"bike_id": "e1f20fde08cca11b7926e3dd354b13a5", "lat": 38.9232115, "is_reserved": 0, "fusion_lat": 0.0, "rental_uris": {"android": "https://dc.lft.to/lastmile_qr_scan", "ios": "https://dc.lft.to/lastmile_qr_scan"}, "fusion_lon": 0.0, "name": "e1f20fde08cca11b7926e3dd354b13a5", "lon": -77.03682766666667, "is_disabled": 0, "type": "electric_scooter"}, {"bike_id": "a6250da8e9f0d4d2d83f4c0092df694d", "lat": 38.89843166666667, "is_reserved": 0, "fusion_lat": 0.0, "rental_uris": {"android": "https://dc.lft.to/lastmile_qr_scan", "ios": "https://dc.lft.to/lastmile_qr_scan"}, "fusion_lon": 0.0, "name": "a6250da8e9f0d4d2d83f4c0092df694d", "lon": -77.0272705, "is_disabled": 0, "type": "electric_scooter"}, {"bike_id": "175d03b37bdef7d252cd3cca48239970", "lat": 38.88717616666667, "is_reserved": 0, "fusion_lat": 0.0, "rental_uris": {"android": "https://dc.lft.to/lastmile_qr_scan", "ios": "https://dc.lft.to/lastmile_qr_scan"}, "fusion_lon": 0.0, "name": "175d03b37bdef7d252cd3cca48239970", "lon": -77.02206333333334, "is_disabled": 0, "type": "electric_scooter"}, {"bike_id": "b42bf83cd3c03d92e724db1a4b9bbb1e", "lat": 38.9156125, "is_reserved": 0, "fusion_lat": 0.0, "rental_uris": {"android": "https://dc.lft.to/lastmile_qr_scan", "ios": "https://dc.lft.to/lastmile_qr_scan"}, "fusion_lon": 0.0, "name": "b42bf83cd3c03d92e724db1a4b9bbb1e", "lon": -77.03047833333333, "is_disabled": 0, "type": "electric_scooter"}, {"bike_id": "3ae33cdbb574a7bbf9cfe53dd352d9fa", "lat": 38.909721833333336, "is_reserved": 0, "fusion_lat": 0.0, "rental_uris": {"android": "https://dc.lft.to/lastmile_qr_scan", "ios": "https://dc.lft.to/lastmile_qr_scan"}, "fusion_lon": 0.0, "name": "3ae33cdbb574a7bbf9cfe53dd352d9fa", "lon": -77.03446166666667, "is_disabled": 0, "type": "electric_scooter"}, {"bike_id": "68cdfb2e36aa4d75c3567459e16c043c", "lat": 39.051057, "is_reserved": 0, "fusion_lat": 0.0, "rental_uris": {"android": "https://dc.lft.to/lastmile_qr_scan", "ios": "https://dc.lft.to/lastmile_qr_scan"}, "fusion_lon": 0.0, "name": "68cdfb2e36aa4d75c3567459e16c043c", "lon": -77.117525, "is_disabled": 0, "type": "electric_bike"}, {"bike_id": "c01cb0df0aae4d5d8f3dc2ca1547ea81", "lat": 38.88538883333333, "is_reserved": 0, "fusion_lat": 0.0, "rental_uris": {"android": "https://dc.lft.to/lastmile_qr_scan", "ios": "https://dc.lft.to/lastmile_qr_scan"}, "fusion_lon": 0.0, "name": "c01cb0df0aae4d5d8f3dc2ca1547ea81", "lon": -77.00582366666667, "is_disabled": 0, "type": "electric_scooter"}, {"bike_id": "0a1cb4d8585a46fdfbaeb11d6c243ede", "lat": 38.8951565, "is_reserved": 0, "fusion_lat": 0.0, "rental_uris": {"android": "https://dc.lft.to/lastmile_qr_scan", "ios": "https://dc.lft.to/lastmile_qr_scan"}, "fusion_lon": 0.0, "name": "0a1cb4d8585a46fdfbaeb11d6c243ede", "lon": -77.043417, "is_disabled": 0, "type": "electric_scooter"}, {"bike_id": "e28708c54ae7b39384d7cab700aee132", "lat": 38.884004, "is_reserved": 0, "fusion_lat": 0.0, "rental_uris": {"android": "https://dc.lft.to/lastmile_qr_scan", "ios": "https://dc.lft.to/lastmile_qr_scan"}, "fusion_lon": 0.0, "name": "e28708c54ae7b39384d7cab700aee132", "lon": -76.96064683333333, "is_disabled": 0, "type": "electric_bike"}, {"bike_id": "e0190fed413f6c22db6b1ee74e30d3af", "lat": 38.95637516666667, "is_reserved": 0, "fusion_lat": 0.0, "rental_uris": {"android": "https://dc.lft.to/lastmile_qr_scan", "ios": "https://dc.lft.to/lastmile_qr_scan"}, "fusion_lon": 0.0, "name": "e0190fed413f6c22db6b1ee74e30d3af", "lon": -77.03632783333333, "is_disabled": 0, "type": "electric_scooter"}, {"bike_id": "d30989c3e0e931cf36ee00c697968a9f", "lat": 38.9015415, "is_reserved": 0, "fusion_lat": 0.0, "rental_uris": {"android": "https://dc.lft.to/lastmile_qr_scan", "ios": "https://dc.lft.to/lastmile_qr_scan"}, "fusion_lon": 0.0, "name": "d30989c3e0e931cf36ee00c697968a9f", "lon": -77.040578, "is_disabled": 0, "type": "electric_scooter"}, {"bike_id": "ff707368a38b611d889bad3ccabe501e", "lat": 38.90796116666667, "is_reserved": 0, "fusion_lat": 0.0, "rental_uris": {"android": "https://dc.lft.to/lastmile_qr_scan", "ios": "https://dc.lft.to/lastmile_qr_scan"}, "fusion_lon": 0.0, "name": "ff707368a38b611d889bad3ccabe501e", "lon": -77.02695, "is_disabled": 0, "type": "electric_scooter"}, {"bike_id": "1d3e05c3b6751957dbaa5785f65b239f", "lat": 38.903514666666666, "is_reserved": 0, "fusion_lat": 0.0, "rental_uris": {"android": "https://dc.lft.to/lastmile_qr_scan", "ios": "https://dc.lft.to/lastmile_qr_scan"}, "fusion_lon": 0.0, "name": "1d3e05c3b6751957dbaa5785f65b239f", "lon": -76.99225583333333, "is_disabled": 0, "type": "electric_scooter"}, {"bike_id": "21d1e40381817c326914e32fa0afe79f", "lat": 38.90906066666667, "is_reserved": 0, "fusion_lat": 0.0, "rental_uris": {"android": "https://dc.lft.to/lastmile_qr_scan", "ios": "https://dc.lft.to/lastmile_qr_scan"}, "fusion_lon": 0.0, "name": "21d1e40381817c326914e32fa0afe79f", "lon": -77.04211066666667, "is_disabled": 0, "type": "electric_scooter"}, {"bike_id": "671ec635d4c5e61396eb64878f8d11a6", "lat": 39.040819166666665, "is_reserved": 0, "fusion_lat": 0.0, "rental_uris": {"android": "https://dc.lft.to/lastmile_qr_scan", "ios": "https://dc.lft.to/lastmile_qr_scan"}, "fusion_lon": 0.0, "name": "671ec635d4c5e61396eb64878f8d11a6", "lon": -77.053417, "is_disabled": 0, "type": "electric_bike"}, {"bike_id": "aef78e8987bd877bc44511cf9e7d57ec", "lat": 38.92365133333333, "is_reserved": 0, "fusion_lat": 0.0, "rental_uris": {"android": "https://dc.lft.to/lastmile_qr_scan", "ios": "https://dc.lft.to/lastmile_qr_scan"}, "fusion_lon": 0.0, "name": "aef78e8987bd877bc44511cf9e7d57ec", "lon": -77.0327135, "is_disabled": 0, "type": "electric_scooter"}, {"bike_id": "8ed6236b83a9d7ac851b646b49fd5f5f", "lat": 38.884499166666664, "is_reserved": 0, "fusion_lat": 0.0, "rental_uris": {"android": "https://dc.lft.to/lastmile_qr_scan", "ios": "https://dc.lft.to/lastmile_qr_scan"}, "fusion_lon": 0.0, "name": "8ed6236b83a9d7ac851b646b49fd5f5f", "lon": -76.95098216666666, "is_disabled": 0, "type": "electric_scooter"}, {"bike_id": "6c5dd885b80386aabd861697b6e674e3", "lat": 38.899787, "is_reserved": 0, "fusion_lat": 0.0, "rental_uris": {"android": "https://dc.lft.to/lastmile_qr_scan", "ios": "https://dc.lft.to/lastmile_qr_scan"}, "fusion_lon": 0.0, "name": "6c5dd885b80386aabd861697b6e674e3", "lon": -77.019804, "is_disabled": 0, "type": "electric_scooter"}, {"bike_id": "106d6b46aec1ea6af8dd1940eb55df8f", "lat": 38.914048666666666, "is_reserved": 0, "fusion_lat": 0.0, "rental_uris": {"android": "https://dc.lft.to/lastmile_qr_scan", "ios": "https://dc.lft.to/lastmile_qr_scan"}, "fusion_lon": 0.0, "name": "106d6b46aec1ea6af8dd1940eb55df8f", "lon": -77.03170216666666, "is_disabled": 0, "type": "electric_scooter"}, {"bike_id": "d3d36098f982d0d9ae14c6088e2f61f8", "lat": 38.900507833333336, "is_reserved": 0, "fusion_lat": 0.0, "rental_uris": {"android": "https://dc.lft.to/lastmile_qr_scan", "ios": "https://dc.lft.to/lastmile_qr_scan"}, "fusion_lon": 0.0, "name": "d3d36098f982d0d9ae14c6088e2f61f8", "lon": -77.002353, "is_disabled": 0, "type": "electric_scooter"}, {"bike_id": "30454c54d7c66aa7bb58e95a9bcc3f04", "lat": 38.92854333333333, "is_reserved": 0, "fusion_lat": 0.0, "rental_uris": {"android": "https://dc.lft.to/lastmile_qr_scan", "ios": "https://dc.lft.to/lastmile_qr_scan"}, "fusion_lon": 0.0, "name": "30454c54d7c66aa7bb58e95a9bcc3f04", "lon": -77.033118, "is_disabled": 0, "type": "electric_scooter"}, {"bike_id": "360a83c99d8ffe8952908f371c4a26ea", "lat": 38.88117066666667, "is_reserved": 0, "fusion_lat": 0.0, "rental_uris": {"android": "https://dc.lft.to/lastmile_qr_scan", "ios": "https://dc.lft.to/lastmile_qr_scan"}, "fusion_lon": 0.0, "name": "360a83c99d8ffe8952908f371c4a26ea", "lon": -77.016618, "is_disabled": 0, "type": "electric_scooter"}, {"bike_id": "dc0dff5b8048ed05a49e2d57e3bdef94", "lat": 38.90590983333333, "is_reserved": 0, "fusion_lat": 0.0, "rental_uris": {"android": "https://dc.lft.to/lastmile_qr_scan", "ios": "https://dc.lft.to/lastmile_qr_scan"}, "fusion_lon": 0.0, "name": "dc0dff5b8048ed05a49e2d57e3bdef94", "lon": -77.02198216666666, "is_disabled": 0, "type": "electric_scooter"}, {"bike_id": "c29c454d3d5dcd265e83e3aa4cd2b386", "lat": 38.873888666666666, "is_reserved": 0, "fusion_lat": 0.0, "rental_uris": {"android": "https://dc.lft.to/lastmile_qr_scan", "ios": "https://dc.lft.to/lastmile_qr_scan"}, "fusion_lon": 0.0, "name": "c29c454d3d5dcd265e83e3aa4cd2b386", "lon": -77.0007435, "is_disabled": 0, "type": "electric_scooter"}, {"bike_id": "f9b2295ff2e667f7e2c700b176b3502b", "lat": 38.8922685, "is_reserved": 0, "fusion_lat": 0.0, "rental_uris": {"android": "https://dc.lft.to/lastmile_qr_scan", "ios": "https://dc.lft.to/lastmile_qr_scan"}, "fusion_lon": 0.0, "name": "f9b2295ff2e667f7e2c700b176b3502b", "lon": -77.045083, "is_disabled": 0, "type": "electric_scooter"}, {"bike_id": "b2a70b6ed45989ee2aa7d8b40f77b216", "lat": 38.929545833333336, "is_reserved": 0, "fusion_lat": 0.0, "rental_uris": {"android": "https://dc.lft.to/lastmile_qr_scan", "ios": "https://dc.lft.to/lastmile_qr_scan"}, "fusion_lon": 0.0, "name": "b2a70b6ed45989ee2aa7d8b40f77b216", "lon": -77.03472666666667, "is_disabled": 0, "type": "electric_scooter"}, {"bike_id": "45794ab162604fe8baa38adb20d5d980", "lat": 38.897271833333335, "is_reserved": 0, "fusion_lat": 0.0, "rental_uris": {"android": "https://dc.lft.to/lastmile_qr_scan", "ios": "https://dc.lft.to/lastmile_qr_scan"}, "fusion_lon": 0.0, "name": "45794ab162604fe8baa38adb20d5d980", "lon": -77.02471066666666, "is_disabled": 0, "type": "electric_scooter"}, {"bike_id": "8ff96c52e226d36fda582ffc2055d7ef", "lat": 38.87244783333333, "is_reserved": 0, "fusion_lat": 0.0, "rental_uris": {"android": "https://dc.lft.to/lastmile_qr_scan", "ios": "https://dc.lft.to/lastmile_qr_scan"}, "fusion_lon": 0.0, "name": "8ff96c52e226d36fda582ffc2055d7ef", "lon": -76.97727066666667, "is_disabled": 0, "type": "electric_scooter"}, {"bike_id": "eb45ed6c55c846c7d7dcbbf9bd106f64", "lat": 38.91108533333333, "is_reserved": 0, "fusion_lat": 0.0, "rental_uris": {"android": "https://dc.lft.to/lastmile_qr_scan", "ios": "https://dc.lft.to/lastmile_qr_scan"}, "fusion_lon": 0.0, "name": "eb45ed6c55c846c7d7dcbbf9bd106f64", "lon": -77.04505933333333, "is_disabled": 0, "type": "electric_scooter"}, {"bike_id": "1c8a219f5f5010155a92a4b8851ff973", "lat": 38.909577166666665, "is_reserved": 0, "fusion_lat": 0.0, "rental_uris": {"android": "https://dc.lft.to/lastmile_qr_scan", "ios": "https://dc.lft.to/lastmile_qr_scan"}, "fusion_lon": 0.0, "name": "1c8a219f5f5010155a92a4b8851ff973", "lon": -77.024111, "is_disabled": 0, "type": "electric_scooter"}, {"bike_id": "c776fac99b70a4b0465f1cdebeae54d4", "lat": 38.932962833333335, "is_reserved": 0, "fusion_lat": 0.0, "rental_uris": {"android": "https://dc.lft.to/lastmile_qr_scan", "ios": "https://dc.lft.to/lastmile_qr_scan"}, "fusion_lon": 0.0, "name": "c776fac99b70a4b0465f1cdebeae54d4", "lon": -77.085457, "is_disabled": 0, "type": "electric_scooter"}, {"bike_id": "698220991c672f54b4492c241b21a8fa", "lat": 38.87390666666667, "is_reserved": 0, "fusion_lat": 0.0, "rental_uris": {"android": "https://dc.lft.to/lastmile_qr_scan", "ios": "https://dc.lft.to/lastmile_qr_scan"}, "fusion_lon": 0.0, "name": "698220991c672f54b4492c241b21a8fa", "lon": -77.000763, "is_disabled": 0, "type": "electric_scooter"}, {"bike_id": "7f7ba390669822a37a9d0258f7c3fa00", "lat": 38.91556333333333, "is_reserved": 0, "fusion_lat": 0.0, "rental_uris": {"android": "https://dc.lft.to/lastmile_qr_scan", "ios": "https://dc.lft.to/lastmile_qr_scan"}, "fusion_lon": 0.0, "name": "7f7ba390669822a37a9d0258f7c3fa00", "lon": -77.00647316666667, "is_disabled": 0, "type": "electric_scooter"}, {"bike_id": "0ca6641e0ef63482bd5b923935a4be27", "lat": 38.91176383333333, "is_reserved": 0, "fusion_lat": 0.0, "rental_uris": {"android": "https://dc.lft.to/lastmile_qr_scan", "ios": "https://dc.lft.to/lastmile_qr_scan"}, "fusion_lon": 0.0, "name": "0ca6641e0ef63482bd5b923935a4be27", "lon": -77.01218066666667, "is_disabled": 0, "type": "electric_scooter"}, {"bike_id": "2394a4e1563043060c14b1ba5df4cfc0", "lat": 38.88527933333334, "is_reserved": 0, "fusion_lat": 0.0, "rental_uris": {"android": "https://dc.lft.to/lastmile_qr_scan", "ios": "https://dc.lft.to/lastmile_qr_scan"}, "fusion_lon": 0.0, "name": "2394a4e1563043060c14b1ba5df4cfc0", "lon": -76.99824333333333, "is_disabled": 0, "type": "electric_scooter"}, {"bike_id": "a63be0ba8d8f02d40ddf5ca56b24abde", "lat": 38.901039, "is_reserved": 0, "fusion_lat": 0.0, "rental_uris": {"android": "https://dc.lft.to/lastmile_qr_scan", "ios": "https://dc.lft.to/lastmile_qr_scan"}, "fusion_lon": 0.0, "name": "a63be0ba8d8f02d40ddf5ca56b24abde", "lon": -77.0280035, "is_disabled": 0, "type": "electric_scooter"}, {"bike_id": "30afada920fa1de66cc68e51d8373e4e", "lat": 38.917478833333334, "is_reserved": 0, "fusion_lat": 0.0, "rental_uris": {"android": "https://dc.lft.to/lastmile_qr_scan", "ios": "https://dc.lft.to/lastmile_qr_scan"}, "fusion_lon": 0.0, "name": "30afada920fa1de66cc68e51d8373e4e", "lon": -77.03203433333333, "is_disabled": 0, "type": "electric_scooter"}, {"bike_id": "2f01483dbf7afe5e5d85940eab18f493", "lat": 38.95785016666667, "is_reserved": 0, "fusion_lat": 0.0, "rental_uris": {"android": "https://dc.lft.to/lastmile_qr_scan", "ios": "https://dc.lft.to/lastmile_qr_scan"}, "fusion_lon": 0.0, "name": "2f01483dbf7afe5e5d85940eab18f493", "lon": -77.0321975, "is_disabled": 0, "type": "electric_scooter"}, {"bike_id": "f1ded3c086cf79feedbf58e225964309", "lat": 38.8972655, "is_reserved": 0, "fusion_lat": 0.0, "rental_uris": {"android": "https://dc.lft.to/lastmile_qr_scan", "ios": "https://dc.lft.to/lastmile_qr_scan"}, "fusion_lon": 0.0, "name": "f1ded3c086cf79feedbf58e225964309", "lon": -77.01768166666666, "is_disabled": 0, "type": "electric_scooter"}, {"bike_id": "42ece51e54146b7d93de294a5b13a6ff", "lat": 38.9169155, "is_reserved": 0, "fusion_lat": 0.0, "rental_uris": {"android": "https://dc.lft.to/lastmile_qr_scan", "ios": "https://dc.lft.to/lastmile_qr_scan"}, "fusion_lon": 0.0, "name": "42ece51e54146b7d93de294a5b13a6ff", "lon": -77.02963566666666, "is_disabled": 0, "type": "electric_scooter"}, {"bike_id": "b1562c5c95b0fffe76ad42d2eb3c38c2", "lat": 38.85968333333334, "is_reserved": 0, "fusion_lat": 0.0, "rental_uris": {"android": "https://dc.lft.to/lastmile_qr_scan", "ios": "https://dc.lft.to/lastmile_qr_scan"}, "fusion_lon": 0.0, "name": "b1562c5c95b0fffe76ad42d2eb3c38c2", "lon": -76.99164966666666, "is_disabled": 0, "type": "electric_scooter"}, {"bike_id": "a8194814ab4ffe30a85398047237437f", "lat": 38.92867666666667, "is_reserved": 0, "fusion_lat": 0.0, "rental_uris": {"android": "https://dc.lft.to/lastmile_qr_scan", "ios": "https://dc.lft.to/lastmile_qr_scan"}, "fusion_lon": 0.0, "name": "a8194814ab4ffe30a85398047237437f", "lon": -77.03340866666667, "is_disabled": 0, "type": "electric_scooter"}, {"bike_id": "470e8a76bfb212bef6fc930d047a4144", "lat": 38.94183266666667, "is_reserved": 0, "fusion_lat": 0.0, "rental_uris": {"android": "https://dc.lft.to/lastmile_qr_scan", "ios": "https://dc.lft.to/lastmile_qr_scan"}, "fusion_lon": 0.0, "name": "470e8a76bfb212bef6fc930d047a4144", "lon": -77.02488933333333, "is_disabled": 0, "type": "electric_scooter"}, {"bike_id": "5de6d63ddd5bd15349531fd51837bfad", "lat": 38.95647916666667, "is_reserved": 0, "fusion_lat": 0.0, "rental_uris": {"android": "https://dc.lft.to/lastmile_qr_scan", "ios": "https://dc.lft.to/lastmile_qr_scan"}, "fusion_lon": 0.0, "name": "5de6d63ddd5bd15349531fd51837bfad", "lon": -77.01967633333334, "is_disabled": 0, "type": "electric_scooter"}, {"bike_id": "a60130ea98f83a6818c885f914d2cec4", "lat": 38.91608433333333, "is_reserved": 0, "fusion_lat": 0.0, "rental_uris": {"android": "https://dc.lft.to/lastmile_qr_scan", "ios": "https://dc.lft.to/lastmile_qr_scan"}, "fusion_lon": 0.0, "name": "a60130ea98f83a6818c885f914d2cec4", "lon": -77.02318016666666, "is_disabled": 0, "type": "electric_scooter"}, {"bike_id": "f7b5beb837209c31bc3f7360ac81891b", "lat": 38.951010833333335, "is_reserved": 0, "fusion_lat": 0.0, "rental_uris": {"android": "https://dc.lft.to/lastmile_qr_scan", "ios": "https://dc.lft.to/lastmile_qr_scan"}, "fusion_lon": 0.0, "name": "f7b5beb837209c31bc3f7360ac81891b", "lon": -77.0972385, "is_disabled": 0, "type": "electric_scooter"}, {"bike_id": "22745d37bb617243c5c3b72d82b58c43", "lat": 38.900103666666666, "is_reserved": 0, "fusion_lat": 0.0, "rental_uris": {"android": "https://dc.lft.to/lastmile_qr_scan", "ios": "https://dc.lft.to/lastmile_qr_scan"}, "fusion_lon": 0.0, "name": "22745d37bb617243c5c3b72d82b58c43", "lon": -76.9870305, "is_disabled": 0, "type": "electric_scooter"}, {"bike_id": "4b5392915a2e4a48bd2edaa9ea085dc5", "lat": 38.923259, "is_reserved": 0, "fusion_lat": 0.0, "rental_uris": {"android": "https://dc.lft.to/lastmile_qr_scan", "ios": "https://dc.lft.to/lastmile_qr_scan"}, "fusion_lon": 0.0, "name": "4b5392915a2e4a48bd2edaa9ea085dc5", "lon": -77.04145483333333, "is_disabled": 0, "type": "electric_scooter"}, {"bike_id": "e35417144c4ccac2d9748bf30efa53c6", "lat": 38.93262633333333, "is_reserved": 0, "fusion_lat": 0.0, "rental_uris": {"android": "https://dc.lft.to/lastmile_qr_scan", "ios": "https://dc.lft.to/lastmile_qr_scan"}, "fusion_lon": 0.0, "name": "e35417144c4ccac2d9748bf30efa53c6", "lon": -77.0350315, "is_disabled": 0, "type": "electric_scooter"}, {"bike_id": "414cdb71f55cf5303007ab8fee860605", "lat": 38.91758883333333, "is_reserved": 0, "fusion_lat": 0.0, "rental_uris": {"android": "https://dc.lft.to/lastmile_qr_scan", "ios": "https://dc.lft.to/lastmile_qr_scan"}, "fusion_lon": 0.0, "name": "414cdb71f55cf5303007ab8fee860605", "lon": -77.02707716666667, "is_disabled": 0, "type": "electric_scooter"}, {"bike_id": "e49e2d97fe3afd3991e52f6dd6d739f1", "lat": 38.89237983333334, "is_reserved": 0, "fusion_lat": 0.0, "rental_uris": {"android": "https://dc.lft.to/lastmile_qr_scan", "ios": "https://dc.lft.to/lastmile_qr_scan"}, "fusion_lon": 0.0, "name": "e49e2d97fe3afd3991e52f6dd6d739f1", "lon": -76.94102666666667, "is_disabled": 0, "type": "electric_scooter"}, {"bike_id": "e4a05ac4eee5cf86ca5f3fc413be180f", "lat": 38.897926166666664, "is_reserved": 0, "fusion_lat": 0.0, "rental_uris": {"android": "https://dc.lft.to/lastmile_qr_scan", "ios": "https://dc.lft.to/lastmile_qr_scan"}, "fusion_lon": 0.0, "name": "e4a05ac4eee5cf86ca5f3fc413be180f", "lon": -77.02481033333333, "is_disabled": 0, "type": "electric_scooter"}, {"bike_id": "74056cb587791d2d820e669851902bbe", "lat": 38.920277, "is_reserved": 0, "fusion_lat": 0.0, "rental_uris": {"android": "https://dc.lft.to/lastmile_qr_scan", "ios": "https://dc.lft.to/lastmile_qr_scan"}, "fusion_lon": 0.0, "name": "74056cb587791d2d820e669851902bbe", "lon": -77.04202183333334, "is_disabled": 0, "type": "electric_scooter"}, {"bike_id": "7200b386568118d0245a4c4180b705c0", "lat": 38.90396366666667, "is_reserved": 0, "fusion_lat": 0.0, "rental_uris": {"android": "https://dc.lft.to/lastmile_qr_scan", "ios": "https://dc.lft.to/lastmile_qr_scan"}, "fusion_lon": 0.0, "name": "7200b386568118d0245a4c4180b705c0", "lon": -77.02938383333333, "is_disabled": 0, "type": "electric_scooter"}, {"bike_id": "8513cfdad79f4bf343f3afb5672f07a6", "lat": 38.935113333333334, "is_reserved": 0, "fusion_lat": 0.0, "rental_uris": {"android": "https://dc.lft.to/lastmile_qr_scan", "ios": "https://dc.lft.to/lastmile_qr_scan"}, "fusion_lon": 0.0, "name": "8513cfdad79f4bf343f3afb5672f07a6", "lon": -77.0329075, "is_disabled": 0, "type": "electric_scooter"}, {"bike_id": "746197b45158004b9ab79b768bbe78e2", "lat": 38.92878966666667, "is_reserved": 0, "fusion_lat": 0.0, "rental_uris": {"android": "https://dc.lft.to/lastmile_qr_scan", "ios": "https://dc.lft.to/lastmile_qr_scan"}, "fusion_lon": 0.0, "name": "746197b45158004b9ab79b768bbe78e2", "lon": -77.02716516666666, "is_disabled": 0, "type": "electric_scooter"}, {"bike_id": "645dce39c2358e388625a050ce255727", "lat": 38.891991166666664, "is_reserved": 0, "fusion_lat": 0.0, "rental_uris": {"android": "https://dc.lft.to/lastmile_qr_scan", "ios": "https://dc.lft.to/lastmile_qr_scan"}, "fusion_lon": 0.0, "name": "645dce39c2358e388625a050ce255727", "lon": -77.003006, "is_disabled": 0, "type": "electric_scooter"}, {"bike_id": "a0f7532d8ae26888f745b8298c325cd6", "lat": 38.91709983333333, "is_reserved": 0, "fusion_lat": 0.0, "rental_uris": {"android": "https://dc.lft.to/lastmile_qr_scan", "ios": "https://dc.lft.to/lastmile_qr_scan"}, "fusion_lon": 0.0, "name": "a0f7532d8ae26888f745b8298c325cd6", "lon": -77.029734, "is_disabled": 0, "type": "electric_scooter"}, {"bike_id": "c4fdd0fb5da55eb99fbbe32afa128bc9", "lat": 38.910297166666666, "is_reserved": 0, "fusion_lat": 0.0, "rental_uris": {"android": "https://dc.lft.to/lastmile_qr_scan", "ios": "https://dc.lft.to/lastmile_qr_scan"}, "fusion_lon": 0.0, "name": "c4fdd0fb5da55eb99fbbe32afa128bc9", "lon": -76.9855655, "is_disabled": 0, "type": "electric_scooter"}, {"bike_id": "b2e983c3f9674893c71eb29bef596849", "lat": 38.8854975, "is_reserved": 0, "fusion_lat": 0.0, "rental_uris": {"android": "https://dc.lft.to/lastmile_qr_scan", "ios": "https://dc.lft.to/lastmile_qr_scan"}, "fusion_lon": 0.0, "name": "b2e983c3f9674893c71eb29bef596849", "lon": -76.99625366666666, "is_disabled": 0, "type": "electric_scooter"}, {"bike_id": "120ebd143db19d09db5a86b34670b050", "lat": 38.91688366666666, "is_reserved": 0, "fusion_lat": 0.0, "rental_uris": {"android": "https://dc.lft.to/lastmile_qr_scan", "ios": "https://dc.lft.to/lastmile_qr_scan"}, "fusion_lon": 0.0, "name": "120ebd143db19d09db5a86b34670b050", "lon": -77.02897983333334, "is_disabled": 0, "type": "electric_scooter"}, {"bike_id": "a9e54b71ff7719d69f8bc41aa3899404", "lat": 38.9181995, "is_reserved": 0, "fusion_lat": 0.0, "rental_uris": {"android": "https://dc.lft.to/lastmile_qr_scan", "ios": "https://dc.lft.to/lastmile_qr_scan"}, "fusion_lon": 0.0, "name": "a9e54b71ff7719d69f8bc41aa3899404", "lon": -77.04946666666666, "is_disabled": 0, "type": "electric_scooter"}, {"bike_id": "c2528c03227849c22e6cdd9fba3ba0ff", "lat": 38.902609166666664, "is_reserved": 0, "fusion_lat": 0.0, "rental_uris": {"android": "https://dc.lft.to/lastmile_qr_scan", "ios": "https://dc.lft.to/lastmile_qr_scan"}, "fusion_lon": 0.0, "name": "c2528c03227849c22e6cdd9fba3ba0ff", "lon": -77.05440466666667, "is_disabled": 0, "type": "electric_scooter"}, {"bike_id": "b048453dc504e44747964166ba67205c", "lat": 38.88707566666667, "is_reserved": 0, "fusion_lat": 0.0, "rental_uris": {"android": "https://dc.lft.to/lastmile_qr_scan", "ios": "https://dc.lft.to/lastmile_qr_scan"}, "fusion_lon": 0.0, "name": "b048453dc504e44747964166ba67205c", "lon": -77.0177455, "is_disabled": 0, "type": "electric_scooter"}, {"bike_id": "bd43b83767b77ed2cc0a4d68b073b404", "lat": 38.87468666666667, "is_reserved": 0, "fusion_lat": 0.0, "rental_uris": {"android": "https://dc.lft.to/lastmile_qr_scan", "ios": "https://dc.lft.to/lastmile_qr_scan"}, "fusion_lon": 0.0, "name": "bd43b83767b77ed2cc0a4d68b073b404", "lon": -77.00560216666666, "is_disabled": 0, "type": "electric_scooter"}, {"bike_id": "c5d56a8a430a632cd5306565240e8150", "lat": 38.90042483333333, "is_reserved": 0, "fusion_lat": 0.0, "rental_uris": {"android": "https://dc.lft.to/lastmile_qr_scan", "ios": "https://dc.lft.to/lastmile_qr_scan"}, "fusion_lon": 0.0, "name": "c5d56a8a430a632cd5306565240e8150", "lon": -76.98821733333334, "is_disabled": 0, "type": "electric_scooter"}, {"bike_id": "77f3467256872bbc9181996e2df3f28e", "lat": 38.90274766666667, "is_reserved": 0, "fusion_lat": 0.0, "rental_uris": {"android": "https://dc.lft.to/lastmile_qr_scan", "ios": "https://dc.lft.to/lastmile_qr_scan"}, "fusion_lon": 0.0, "name": "77f3467256872bbc9181996e2df3f28e", "lon": -77.03333716666667, "is_disabled": 0, "type": "electric_scooter"}, {"bike_id": "b7cdc44bd727f93848a2dc8bd7940b7a", "lat": 38.918322333333336, "is_reserved": 0, "fusion_lat": 0.0, "rental_uris": {"android": "https://dc.lft.to/lastmile_qr_scan", "ios": "https://dc.lft.to/lastmile_qr_scan"}, "fusion_lon": 0.0, "name": "b7cdc44bd727f93848a2dc8bd7940b7a", "lon": -77.0415995, "is_disabled": 0, "type": "electric_scooter"}, {"bike_id": "863e782b7ea32492914055ec93c6525e", "lat": 38.904401166666666, "is_reserved": 0, "fusion_lat": 0.0, "rental_uris": {"android": "https://dc.lft.to/lastmile_qr_scan", "ios": "https://dc.lft.to/lastmile_qr_scan"}, "fusion_lon": 0.0, "name": "863e782b7ea32492914055ec93c6525e", "lon": -77.0280655, "is_disabled": 0, "type": "electric_scooter"}, {"bike_id": "868dcb83a520d3c5d249521e044207c4", "lat": 38.936100333333336, "is_reserved": 0, "fusion_lat": 0.0, "rental_uris": {"android": "https://dc.lft.to/lastmile_qr_scan", "ios": "https://dc.lft.to/lastmile_qr_scan"}, "fusion_lon": 0.0, "name": "868dcb83a520d3c5d249521e044207c4", "lon": -77.05893, "is_disabled": 0, "type": "electric_scooter"}, {"bike_id": "91d1240ad11ca8a31ff72d539140a62f", "lat": 38.89741933333333, "is_reserved": 0, "fusion_lat": 0.0, "rental_uris": {"android": "https://dc.lft.to/lastmile_qr_scan", "ios": "https://dc.lft.to/lastmile_qr_scan"}, "fusion_lon": 0.0, "name": "91d1240ad11ca8a31ff72d539140a62f", "lon": -76.92049183333333, "is_disabled": 0, "type": "electric_bike"}, {"bike_id": "176526f3079e2a96dbbf5c7fcf776494", "lat": 38.93945216666667, "is_reserved": 0, "fusion_lat": 0.0, "rental_uris": {"android": "https://dc.lft.to/lastmile_qr_scan", "ios": "https://dc.lft.to/lastmile_qr_scan"}, "fusion_lon": 0.0, "name": "176526f3079e2a96dbbf5c7fcf776494", "lon": -77.07244033333333, "is_disabled": 0, "type": "electric_scooter"}, {"bike_id": "65c9a10e6ae8bc1edca5dd832ae9ad37", "lat": 38.89235583333333, "is_reserved": 0, "fusion_lat": 0.0, "rental_uris": {"android": "https://dc.lft.to/lastmile_qr_scan", "ios": "https://dc.lft.to/lastmile_qr_scan"}, "fusion_lon": 0.0, "name": "65c9a10e6ae8bc1edca5dd832ae9ad37", "lon": -77.04154433333333, "is_disabled": 0, "type": "electric_scooter"}, {"bike_id": "400feb932c082d0604a71028c248450a", "lat": 38.887443833333336, "is_reserved": 0, "fusion_lat": 0.0, "rental_uris": {"android": "https://dc.lft.to/lastmile_qr_scan", "ios": "https://dc.lft.to/lastmile_qr_scan"}, "fusion_lon": 0.0, "name": "400feb932c082d0604a71028c248450a", "lon": -77.0173075, "is_disabled": 0, "type": "electric_scooter"}, {"bike_id": "1999e932e25abe47bbb16f148ab23b54", "lat": 38.92498833333333, "is_reserved": 0, "fusion_lat": 0.0, "rental_uris": {"android": "https://dc.lft.to/lastmile_qr_scan", "ios": "https://dc.lft.to/lastmile_qr_scan"}, "fusion_lon": 0.0, "name": "1999e932e25abe47bbb16f148ab23b54", "lon": -77.03788516666667, "is_disabled": 0, "type": "electric_scooter"}, {"bike_id": "14af988e56210a71181c1e903ff5e10f", "lat": 38.9061825, "is_reserved": 0, "fusion_lat": 0.0, "rental_uris": {"android": "https://dc.lft.to/lastmile_qr_scan", "ios": "https://dc.lft.to/lastmile_qr_scan"}, "fusion_lon": 0.0, "name": "14af988e56210a71181c1e903ff5e10f", "lon": -77.01283033333333, "is_disabled": 0, "type": "electric_scooter"}, {"bike_id": "a74bc0565eb94189a4ca64182ff74e29", "lat": 38.915633166666666, "is_reserved": 0, "fusion_lat": 0.0, "rental_uris": {"android": "https://dc.lft.to/lastmile_qr_scan", "ios": "https://dc.lft.to/lastmile_qr_scan"}, "fusion_lon": 0.0, "name": "a74bc0565eb94189a4ca64182ff74e29", "lon": -77.0339935, "is_disabled": 0, "type": "electric_scooter"}, {"bike_id": "ec24290c008ce3d9965482cd745971bd", "lat": 38.899472333333335, "is_reserved": 0, "fusion_lat": 0.0, "rental_uris": {"android": "https://dc.lft.to/lastmile_qr_scan", "ios": "https://dc.lft.to/lastmile_qr_scan"}, "fusion_lon": 0.0, "name": "ec24290c008ce3d9965482cd745971bd", "lon": -77.00357866666667, "is_disabled": 0, "type": "electric_scooter"}, {"bike_id": "d16462e1b50030f64238144f9c6695ca", "lat": 38.91676666666667, "is_reserved": 0, "fusion_lat": 0.0, "rental_uris": {"android": "https://dc.lft.to/lastmile_qr_scan", "ios": "https://dc.lft.to/lastmile_qr_scan"}, "fusion_lon": 0.0, "name": "d16462e1b50030f64238144f9c6695ca", "lon": -77.022888, "is_disabled": 0, "type": "electric_scooter"}, {"bike_id": "545ff460618e6711e881a7eb5b2257f3", "lat": 38.899734, "is_reserved": 0, "fusion_lat": 0.0, "rental_uris": {"android": "https://dc.lft.to/lastmile_qr_scan", "ios": "https://dc.lft.to/lastmile_qr_scan"}, "fusion_lon": 0.0, "name": "545ff460618e6711e881a7eb5b2257f3", "lon": -77.0318405, "is_disabled": 0, "type": "electric_scooter"}, {"bike_id": "05510117570772b65ae01e0bb73357d8", "lat": 38.909668833333335, "is_reserved": 0, "fusion_lat": 0.0, "rental_uris": {"android": "https://dc.lft.to/lastmile_qr_scan", "ios": "https://dc.lft.to/lastmile_qr_scan"}, "fusion_lon": 0.0, "name": "05510117570772b65ae01e0bb73357d8", "lon": -77.03385333333334, "is_disabled": 0, "type": "electric_scooter"}, {"bike_id": "89fe585fb1b6787c032ed817b1c2b6f2", "lat": 38.915307, "is_reserved": 0, "fusion_lat": 0.0, "rental_uris": {"android": "https://dc.lft.to/lastmile_qr_scan", "ios": "https://dc.lft.to/lastmile_qr_scan"}, "fusion_lon": 0.0, "name": "89fe585fb1b6787c032ed817b1c2b6f2", "lon": -76.9835285, "is_disabled": 0, "type": "electric_scooter"}, {"bike_id": "d9554584bd2be1f71dba53eed4fd4f49", "lat": 38.91397116666667, "is_reserved": 0, "fusion_lat": 0.0, "rental_uris": {"android": "https://dc.lft.to/lastmile_qr_scan", "ios": "https://dc.lft.to/lastmile_qr_scan"}, "fusion_lon": 0.0, "name": "d9554584bd2be1f71dba53eed4fd4f49", "lon": -77.0180015, "is_disabled": 0, "type": "electric_scooter"}, {"bike_id": "3ca32200d21633abc23c3a4890c96f57", "lat": 38.91639633333333, "is_reserved": 0, "fusion_lat": 0.0, "rental_uris": {"android": "https://dc.lft.to/lastmile_qr_scan", "ios": "https://dc.lft.to/lastmile_qr_scan"}, "fusion_lon": 0.0, "name": "3ca32200d21633abc23c3a4890c96f57", "lon": -77.02584633333333, "is_disabled": 0, "type": "electric_scooter"}, {"bike_id": "efbfe11f974d7807c381406358b1ba0c", "lat": 38.9226645, "is_reserved": 0, "fusion_lat": 0.0, "rental_uris": {"android": "https://dc.lft.to/lastmile_qr_scan", "ios": "https://dc.lft.to/lastmile_qr_scan"}, "fusion_lon": 0.0, "name": "efbfe11f974d7807c381406358b1ba0c", "lon": -77.01853816666667, "is_disabled": 0, "type": "electric_scooter"}, {"bike_id": "3063f88830c175b0c2b21687aa10072b", "lat": 38.89747366666667, "is_reserved": 0, "fusion_lat": 0.0, "rental_uris": {"android": "https://dc.lft.to/lastmile_qr_scan", "ios": "https://dc.lft.to/lastmile_qr_scan"}, "fusion_lon": 0.0, "name": "3063f88830c175b0c2b21687aa10072b", "lon": -77.0257535, "is_disabled": 0, "type": "electric_scooter"}, {"bike_id": "e76bd1a7a83a4c41c946df566bb94521", "lat": 38.903883666666665, "is_reserved": 0, "fusion_lat": 0.0, "rental_uris": {"android": "https://dc.lft.to/lastmile_qr_scan", "ios": "https://dc.lft.to/lastmile_qr_scan"}, "fusion_lon": 0.0, "name": "e76bd1a7a83a4c41c946df566bb94521", "lon": -77.03663266666666, "is_disabled": 0, "type": "electric_scooter"}, {"bike_id": "723b419e8ff9cbd614876da90273b42a", "lat": 38.920191833333334, "is_reserved": 0, "fusion_lat": 0.0, "rental_uris": {"android": "https://dc.lft.to/lastmile_qr_scan", "ios": "https://dc.lft.to/lastmile_qr_scan"}, "fusion_lon": 0.0, "name": "723b419e8ff9cbd614876da90273b42a", "lon": -77.041936, "is_disabled": 0, "type": "electric_scooter"}, {"bike_id": "3231d4b3bbceb3e17a49f62cff0dff6a", "lat": 38.88482233333333, "is_reserved": 0, "fusion_lat": 0.0, "rental_uris": {"android": "https://dc.lft.to/lastmile_qr_scan", "ios": "https://dc.lft.to/lastmile_qr_scan"}, "fusion_lon": 0.0, "name": "3231d4b3bbceb3e17a49f62cff0dff6a", "lon": -77.02537683333334, "is_disabled": 0, "type": "electric_scooter"}, {"bike_id": "f115220f443ed7ba93cf2f09055e8058", "lat": 38.9342445, "is_reserved": 0, "fusion_lat": 0.0, "rental_uris": {"android": "https://dc.lft.to/lastmile_qr_scan", "ios": "https://dc.lft.to/lastmile_qr_scan"}, "fusion_lon": 0.0, "name": "f115220f443ed7ba93cf2f09055e8058", "lon": -77.028457, "is_disabled": 0, "type": "electric_scooter"}, {"bike_id": "fbac0b5d820521ded22ce8db724be648", "lat": 38.90679466666667, "is_reserved": 0, "fusion_lat": 0.0, "rental_uris": {"android": "https://dc.lft.to/lastmile_qr_scan", "ios": "https://dc.lft.to/lastmile_qr_scan"}, "fusion_lon": 0.0, "name": "fbac0b5d820521ded22ce8db724be648", "lon": -77.000364, "is_disabled": 0, "type": "electric_scooter"}, {"bike_id": "470262abd4f28e4c198938cb9d93fb5f", "lat": 38.919164333333335, "is_reserved": 0, "fusion_lat": 0.0, "rental_uris": {"android": "https://dc.lft.to/lastmile_qr_scan", "ios": "https://dc.lft.to/lastmile_qr_scan"}, "fusion_lon": 0.0, "name": "470262abd4f28e4c198938cb9d93fb5f", "lon": -77.01343866666667, "is_disabled": 0, "type": "electric_scooter"}, {"bike_id": "3ed380a9c156867b76d196afad881f32", "lat": 38.90380416666667, "is_reserved": 0, "fusion_lat": 0.0, "rental_uris": {"android": "https://dc.lft.to/lastmile_qr_scan", "ios": "https://dc.lft.to/lastmile_qr_scan"}, "fusion_lon": 0.0, "name": "3ed380a9c156867b76d196afad881f32", "lon": -77.04806716666667, "is_disabled": 0, "type": "electric_scooter"}, {"bike_id": "e95e2575082ee536ecd5777e38505927", "lat": 38.928552833333335, "is_reserved": 0, "fusion_lat": 0.0, "rental_uris": {"android": "https://dc.lft.to/lastmile_qr_scan", "ios": "https://dc.lft.to/lastmile_qr_scan"}, "fusion_lon": 0.0, "name": "e95e2575082ee536ecd5777e38505927", "lon": -77.03407566666667, "is_disabled": 0, "type": "electric_scooter"}, {"bike_id": "1f41d50d010207fae884203e71fdc443", "lat": 38.90795166666667, "is_reserved": 0, "fusion_lat": 0.0, "rental_uris": {"android": "https://dc.lft.to/lastmile_qr_scan", "ios": "https://dc.lft.to/lastmile_qr_scan"}, "fusion_lon": 0.0, "name": "1f41d50d010207fae884203e71fdc443", "lon": -77.07168566666667, "is_disabled": 0, "type": "electric_bike"}, {"bike_id": "6f6949a4bf572395e3e461cd1b2f07ac", "lat": 38.9275315, "is_reserved": 0, "fusion_lat": 0.0, "rental_uris": {"android": "https://dc.lft.to/lastmile_qr_scan", "ios": "https://dc.lft.to/lastmile_qr_scan"}, "fusion_lon": 0.0, "name": "6f6949a4bf572395e3e461cd1b2f07ac", "lon": -77.0238975, "is_disabled": 0, "type": "electric_scooter"}, {"bike_id": "4e944c9679ef3dfa6bb4eb158af48925", "lat": 38.901908166666665, "is_reserved": 0, "fusion_lat": 0.0, "rental_uris": {"android": "https://dc.lft.to/lastmile_qr_scan", "ios": "https://dc.lft.to/lastmile_qr_scan"}, "fusion_lon": 0.0, "name": "4e944c9679ef3dfa6bb4eb158af48925", "lon": -76.97882416666667, "is_disabled": 0, "type": "electric_scooter"}, {"bike_id": "9c26112030d67afa088b3b224c403cd0", "lat": 38.916179666666665, "is_reserved": 0, "fusion_lat": 0.0, "rental_uris": {"android": "https://dc.lft.to/lastmile_qr_scan", "ios": "https://dc.lft.to/lastmile_qr_scan"}, "fusion_lon": 0.0, "name": "9c26112030d67afa088b3b224c403cd0", "lon": -77.02166766666667, "is_disabled": 0, "type": "electric_scooter"}, {"bike_id": "2c475ec9cbaf69a0677147a97ec44f5d", "lat": 38.92877216666667, "is_reserved": 0, "fusion_lat": 0.0, "rental_uris": {"android": "https://dc.lft.to/lastmile_qr_scan", "ios": "https://dc.lft.to/lastmile_qr_scan"}, "fusion_lon": 0.0, "name": "2c475ec9cbaf69a0677147a97ec44f5d", "lon": -77.01844583333333, "is_disabled": 0, "type": "electric_scooter"}, {"bike_id": "edf5adfa99761ec6da91173cfd305131", "lat": 38.9242495, "is_reserved": 0, "fusion_lat": 0.0, "rental_uris": {"android": "https://dc.lft.to/lastmile_qr_scan", "ios": "https://dc.lft.to/lastmile_qr_scan"}, "fusion_lon": 0.0, "name": "edf5adfa99761ec6da91173cfd305131", "lon": -77.05179783333334, "is_disabled": 0, "type": "electric_scooter"}, {"bike_id": "fd6ff35dddce8c5c00fc1896aa7a0652", "lat": 38.92729466666667, "is_reserved": 0, "fusion_lat": 0.0, "rental_uris": {"android": "https://dc.lft.to/lastmile_qr_scan", "ios": "https://dc.lft.to/lastmile_qr_scan"}, "fusion_lon": 0.0, "name": "fd6ff35dddce8c5c00fc1896aa7a0652", "lon": -77.029842, "is_disabled": 0, "type": "electric_scooter"}, {"bike_id": "c13139a9f93e956a4a7cd24d4d9b975e", "lat": 38.800255166666666, "is_reserved": 0, "fusion_lat": 0.0, "rental_uris": {"android": "https://dc.lft.to/lastmile_qr_scan", "ios": "https://dc.lft.to/lastmile_qr_scan"}, "fusion_lon": 0.0, "name": "c13139a9f93e956a4a7cd24d4d9b975e", "lon": -77.06338033333333, "is_disabled": 0, "type": "electric_bike"}, {"bike_id": "f4618148798c6b48d5fe1fb40fd5586b", "lat": 38.916086666666665, "is_reserved": 0, "fusion_lat": 0.0, "rental_uris": {"android": "https://dc.lft.to/lastmile_qr_scan", "ios": "https://dc.lft.to/lastmile_qr_scan"}, "fusion_lon": 0.0, "name": "f4618148798c6b48d5fe1fb40fd5586b", "lon": -77.033885, "is_disabled": 0, "type": "electric_scooter"}, {"bike_id": "0c3b1c9317ff03ec7049403b39de8e0c", "lat": 38.933597, "is_reserved": 0, "fusion_lat": 0.0, "rental_uris": {"android": "https://dc.lft.to/lastmile_qr_scan", "ios": "https://dc.lft.to/lastmile_qr_scan"}, "fusion_lon": 0.0, "name": "0c3b1c9317ff03ec7049403b39de8e0c", "lon": -77.04119566666667, "is_disabled": 0, "type": "electric_scooter"}, {"bike_id": "bd36ea5181a46dc1e14efaf0b67f9535", "lat": 38.866799, "is_reserved": 0, "fusion_lat": 0.0, "rental_uris": {"android": "https://dc.lft.to/lastmile_qr_scan", "ios": "https://dc.lft.to/lastmile_qr_scan"}, "fusion_lon": 0.0, "name": "bd36ea5181a46dc1e14efaf0b67f9535", "lon": -76.98577816666666, "is_disabled": 0, "type": "electric_scooter"}, {"bike_id": "f6098110e8dbeca3c0c3488df1e97cdc", "lat": 38.948273666666665, "is_reserved": 0, "fusion_lat": 0.0, "rental_uris": {"android": "https://dc.lft.to/lastmile_qr_scan", "ios": "https://dc.lft.to/lastmile_qr_scan"}, "fusion_lon": 0.0, "name": "f6098110e8dbeca3c0c3488df1e97cdc", "lon": -77.03901883333333, "is_disabled": 0, "type": "electric_bike"}, {"bike_id": "256a2c0529a4188c8c5068f3cfb11deb", "lat": 38.898239, "is_reserved": 0, "fusion_lat": 0.0, "rental_uris": {"android": "https://dc.lft.to/lastmile_qr_scan", "ios": "https://dc.lft.to/lastmile_qr_scan"}, "fusion_lon": 0.0, "name": "256a2c0529a4188c8c5068f3cfb11deb", "lon": -77.02581333333333, "is_disabled": 0, "type": "electric_scooter"}, {"bike_id": "1212726bcad299b4362a61bea05e17fe", "lat": 38.86247933333333, "is_reserved": 0, "fusion_lat": 0.0, "rental_uris": {"android": "https://dc.lft.to/lastmile_qr_scan", "ios": "https://dc.lft.to/lastmile_qr_scan"}, "fusion_lon": 0.0, "name": "1212726bcad299b4362a61bea05e17fe", "lon": -76.99503883333334, "is_disabled": 0, "type": "electric_scooter"}, {"bike_id": "8ed4b618385c86d0c6fa68288f2599f9", "lat": 38.92032233333333, "is_reserved": 0, "fusion_lat": 0.0, "rental_uris": {"android": "https://dc.lft.to/lastmile_qr_scan", "ios": "https://dc.lft.to/lastmile_qr_scan"}, "fusion_lon": 0.0, "name": "8ed4b618385c86d0c6fa68288f2599f9", "lon": -77.0420595, "is_disabled": 0, "type": "electric_scooter"}, {"bike_id": "a953eaa110d7a3010a0ed5abef6dccba", "lat": 38.902905, "is_reserved": 0, "fusion_lat": 0.0, "rental_uris": {"android": "https://dc.lft.to/lastmile_qr_scan", "ios": "https://dc.lft.to/lastmile_qr_scan"}, "fusion_lon": 0.0, "name": "a953eaa110d7a3010a0ed5abef6dccba", "lon": -77.038401, "is_disabled": 0, "type": "electric_scooter"}, {"bike_id": "60bf4d02f688ee25c1eaccf0ca7f5cb4", "lat": 38.916715333333336, "is_reserved": 0, "fusion_lat": 0.0, "rental_uris": {"android": "https://dc.lft.to/lastmile_qr_scan", "ios": "https://dc.lft.to/lastmile_qr_scan"}, "fusion_lon": 0.0, "name": "60bf4d02f688ee25c1eaccf0ca7f5cb4", "lon": -77.02383816666666, "is_disabled": 0, "type": "electric_scooter"}, {"bike_id": "17e1a9156dd8a0fd991fceabeedb308f", "lat": 38.918049333333336, "is_reserved": 0, "fusion_lat": 0.0, "rental_uris": {"android": "https://dc.lft.to/lastmile_qr_scan", "ios": "https://dc.lft.to/lastmile_qr_scan"}, "fusion_lon": 0.0, "name": "17e1a9156dd8a0fd991fceabeedb308f", "lon": -77.02499383333334, "is_disabled": 0, "type": "electric_scooter"}, {"bike_id": "c24cad1998a56b12b0700e83c1c6c505", "lat": 38.92387466666667, "is_reserved": 0, "fusion_lat": 0.0, "rental_uris": {"android": "https://dc.lft.to/lastmile_qr_scan", "ios": "https://dc.lft.to/lastmile_qr_scan"}, "fusion_lon": 0.0, "name": "c24cad1998a56b12b0700e83c1c6c505", "lon": -77.036624, "is_disabled": 0, "type": "electric_scooter"}, {"bike_id": "4469373dfca7d0740b4fc951ff72a3d7", "lat": 38.90245383333333, "is_reserved": 0, "fusion_lat": 0.0, "rental_uris": {"android": "https://dc.lft.to/lastmile_qr_scan", "ios": "https://dc.lft.to/lastmile_qr_scan"}, "fusion_lon": 0.0, "name": "4469373dfca7d0740b4fc951ff72a3d7", "lon": -77.03909466666667, "is_disabled": 0, "type": "electric_scooter"}, {"bike_id": "efd8520f501de67bf534eff8148affad", "lat": 38.907944, "is_reserved": 0, "fusion_lat": 0.0, "rental_uris": {"android": "https://dc.lft.to/lastmile_qr_scan", "ios": "https://dc.lft.to/lastmile_qr_scan"}, "fusion_lon": 0.0, "name": "efd8520f501de67bf534eff8148affad", "lon": -77.03451983333333, "is_disabled": 0, "type": "electric_scooter"}, {"bike_id": "f892c4b036ae1d9eae4a32f5f6ea9e92", "lat": 38.966672833333334, "is_reserved": 0, "fusion_lat": 0.0, "rental_uris": {"android": "https://dc.lft.to/lastmile_qr_scan", "ios": "https://dc.lft.to/lastmile_qr_scan"}, "fusion_lon": 0.0, "name": "f892c4b036ae1d9eae4a32f5f6ea9e92", "lon": -76.974462, "is_disabled": 0, "type": "electric_bike"}, {"bike_id": "0b54020913c9672b125ddb5e1d97287e", "lat": 38.92188183333333, "is_reserved": 0, "fusion_lat": 0.0, "rental_uris": {"android": "https://dc.lft.to/lastmile_qr_scan", "ios": "https://dc.lft.to/lastmile_qr_scan"}, "fusion_lon": 0.0, "name": "0b54020913c9672b125ddb5e1d97287e", "lon": -77.03931683333333, "is_disabled": 0, "type": "electric_scooter"}, {"bike_id": "1aa5ee5bd98df33a8fd11d9b5f4e056e", "lat": 38.92331133333333, "is_reserved": 0, "fusion_lat": 0.0, "rental_uris": {"android": "https://dc.lft.to/lastmile_qr_scan", "ios": "https://dc.lft.to/lastmile_qr_scan"}, "fusion_lon": 0.0, "name": "1aa5ee5bd98df33a8fd11d9b5f4e056e", "lon": -77.03677466666667, "is_disabled": 0, "type": "electric_scooter"}, {"bike_id": "5ab5daa1eb189f5c5d8338e939c06e6f", "lat": 38.873078, "is_reserved": 0, "fusion_lat": 0.0, "rental_uris": {"android": "https://dc.lft.to/lastmile_qr_scan", "ios": "https://dc.lft.to/lastmile_qr_scan"}, "fusion_lon": 0.0, "name": "5ab5daa1eb189f5c5d8338e939c06e6f", "lon": -77.001488, "is_disabled": 0, "type": "electric_scooter"}, {"bike_id": "9c3f546745037c1cdb5963bd39597605", "lat": 38.955267166666665, "is_reserved": 0, "fusion_lat": 0.0, "rental_uris": {"android": "https://dc.lft.to/lastmile_qr_scan", "ios": "https://dc.lft.to/lastmile_qr_scan"}, "fusion_lon": 0.0, "name": "9c3f546745037c1cdb5963bd39597605", "lon": -77.0230875, "is_disabled": 0, "type": "electric_scooter"}, {"bike_id": "04fbe64562a7342a3f9fd8b0be5fb08e", "lat": 38.88718933333333, "is_reserved": 0, "fusion_lat": 0.0, "rental_uris": {"android": "https://dc.lft.to/lastmile_qr_scan", "ios": "https://dc.lft.to/lastmile_qr_scan"}, "fusion_lon": 0.0, "name": "04fbe64562a7342a3f9fd8b0be5fb08e", "lon": -77.02204616666667, "is_disabled": 0, "type": "electric_scooter"}, {"bike_id": "54ebe713524f5cc3b13a4209a36424e3", "lat": 38.905301333333334, "is_reserved": 0, "fusion_lat": 0.0, "rental_uris": {"android": "https://dc.lft.to/lastmile_qr_scan", "ios": "https://dc.lft.to/lastmile_qr_scan"}, "fusion_lon": 0.0, "name": "54ebe713524f5cc3b13a4209a36424e3", "lon": -77.07031333333333, "is_disabled": 0, "type": "electric_scooter"}, {"bike_id": "cab7592fefc20c95317b1a0fb4e58ab8", "lat": 38.898876666666666, "is_reserved": 0, "fusion_lat": 0.0, "rental_uris": {"android": "https://dc.lft.to/lastmile_qr_scan", "ios": "https://dc.lft.to/lastmile_qr_scan"}, "fusion_lon": 0.0, "name": "cab7592fefc20c95317b1a0fb4e58ab8", "lon": -76.93226616666666, "is_disabled": 0, "type": "electric_scooter"}, {"bike_id": "ccaee9f78750c272f93f39db1bc938fd", "lat": 38.916441, "is_reserved": 0, "fusion_lat": 0.0, "rental_uris": {"android": "https://dc.lft.to/lastmile_qr_scan", "ios": "https://dc.lft.to/lastmile_qr_scan"}, "fusion_lon": 0.0, "name": "ccaee9f78750c272f93f39db1bc938fd", "lon": -77.03218983333333, "is_disabled": 0, "type": "electric_scooter"}, {"bike_id": "6760a8175b05db03501748dacd86745b", "lat": 38.963144666666665, "is_reserved": 0, "fusion_lat": 0.0, "rental_uris": {"android": "https://dc.lft.to/lastmile_qr_scan", "ios": "https://dc.lft.to/lastmile_qr_scan"}, "fusion_lon": 0.0, "name": "6760a8175b05db03501748dacd86745b", "lon": -76.9737335, "is_disabled": 0, "type": "electric_bike"}, {"bike_id": "d36b41090406ee72b6b93112d25ef66f", "lat": 38.90402483333333, "is_reserved": 0, "fusion_lat": 0.0, "rental_uris": {"android": "https://dc.lft.to/lastmile_qr_scan", "ios": "https://dc.lft.to/lastmile_qr_scan"}, "fusion_lon": 0.0, "name": "d36b41090406ee72b6b93112d25ef66f", "lon": -77.03484233333333, "is_disabled": 0, "type": "electric_scooter"}, {"bike_id": "38b903a70769e4376f1280a2d1c39d9f", "lat": 38.892215666666665, "is_reserved": 0, "fusion_lat": 0.0, "rental_uris": {"android": "https://dc.lft.to/lastmile_qr_scan", "ios": "https://dc.lft.to/lastmile_qr_scan"}, "fusion_lon": 0.0, "name": "38b903a70769e4376f1280a2d1c39d9f", "lon": -77.0034265, "is_disabled": 0, "type": "electric_scooter"}, {"bike_id": "7f0296cef272a48d7a01cea75b1cee0c", "lat": 38.944805333333335, "is_reserved": 0, "fusion_lat": 0.0, "rental_uris": {"android": "https://dc.lft.to/lastmile_qr_scan", "ios": "https://dc.lft.to/lastmile_qr_scan"}, "fusion_lon": 0.0, "name": "7f0296cef272a48d7a01cea75b1cee0c", "lon": -77.09434316666666, "is_disabled": 0, "type": "electric_scooter"}, {"bike_id": "4c5aca60a3de01763d164cc0617714ff", "lat": 38.921387, "is_reserved": 0, "fusion_lat": 0.0, "rental_uris": {"android": "https://dc.lft.to/lastmile_qr_scan", "ios": "https://dc.lft.to/lastmile_qr_scan"}, "fusion_lon": 0.0, "name": "4c5aca60a3de01763d164cc0617714ff", "lon": -77.04358633333334, "is_disabled": 0, "type": "electric_scooter"}, {"bike_id": "958aa41b6850ca797e7a1d6944c3d398", "lat": 38.9207315, "is_reserved": 0, "fusion_lat": 0.0, "rental_uris": {"android": "https://dc.lft.to/lastmile_qr_scan", "ios": "https://dc.lft.to/lastmile_qr_scan"}, "fusion_lon": 0.0, "name": "958aa41b6850ca797e7a1d6944c3d398", "lon": -77.02341183333333, "is_disabled": 0, "type": "electric_scooter"}, {"bike_id": "677a7ad0cbb2d6b9eb406580b6207f96", "lat": 38.91903966666667, "is_reserved": 0, "fusion_lat": 0.0, "rental_uris": {"android": "https://dc.lft.to/lastmile_qr_scan", "ios": "https://dc.lft.to/lastmile_qr_scan"}, "fusion_lon": 0.0, "name": "677a7ad0cbb2d6b9eb406580b6207f96", "lon": -77.002186, "is_disabled": 0, "type": "electric_scooter"}, {"bike_id": "bd5b881a865a84683e117000034c70f9", "lat": 38.93526716666667, "is_reserved": 0, "fusion_lat": 0.0, "rental_uris": {"android": "https://dc.lft.to/lastmile_qr_scan", "ios": "https://dc.lft.to/lastmile_qr_scan"}, "fusion_lon": 0.0, "name": "bd5b881a865a84683e117000034c70f9", "lon": -77.0335175, "is_disabled": 0, "type": "electric_scooter"}, {"bike_id": "16b25dd0c8297e3c1e221178ad5eaa54", "lat": 38.9346155, "is_reserved": 0, "fusion_lat": 0.0, "rental_uris": {"android": "https://dc.lft.to/lastmile_qr_scan", "ios": "https://dc.lft.to/lastmile_qr_scan"}, "fusion_lon": 0.0, "name": "16b25dd0c8297e3c1e221178ad5eaa54", "lon": -77.04532333333333, "is_disabled": 0, "type": "electric_scooter"}, {"bike_id": "8492271a14b1a519160815fc131eae2d", "lat": 38.89947466666667, "is_reserved": 0, "fusion_lat": 0.0, "rental_uris": {"android": "https://dc.lft.to/lastmile_qr_scan", "ios": "https://dc.lft.to/lastmile_qr_scan"}, "fusion_lon": 0.0, "name": "8492271a14b1a519160815fc131eae2d", "lon": -77.01455116666666, "is_disabled": 0, "type": "electric_scooter"}, {"bike_id": "66110d4afb64862a6897953709dafca7", "lat": 38.9368945, "is_reserved": 0, "fusion_lat": 0.0, "rental_uris": {"android": "https://dc.lft.to/lastmile_qr_scan", "ios": "https://dc.lft.to/lastmile_qr_scan"}, "fusion_lon": 0.0, "name": "66110d4afb64862a6897953709dafca7", "lon": -76.99061516666667, "is_disabled": 0, "type": "electric_bike"}, {"bike_id": "35d815c34119ed2ccd7c582ac90994f6", "lat": 38.90358, "is_reserved": 0, "fusion_lat": 0.0, "rental_uris": {"android": "https://dc.lft.to/lastmile_qr_scan", "ios": "https://dc.lft.to/lastmile_qr_scan"}, "fusion_lon": 0.0, "name": "35d815c34119ed2ccd7c582ac90994f6", "lon": -77.03787766666666, "is_disabled": 0, "type": "electric_scooter"}, {"bike_id": "2abf39fcc3f58739dcbfb8d4d4c44fc2", "lat": 38.901026333333334, "is_reserved": 0, "fusion_lat": 0.0, "rental_uris": {"android": "https://dc.lft.to/lastmile_qr_scan", "ios": "https://dc.lft.to/lastmile_qr_scan"}, "fusion_lon": 0.0, "name": "2abf39fcc3f58739dcbfb8d4d4c44fc2", "lon": -77.04867833333333, "is_disabled": 0, "type": "electric_bike"}, {"bike_id": "19b5652e5d8fab2099ac5c1e351b6e2f", "lat": 38.89914183333333, "is_reserved": 0, "fusion_lat": 0.0, "rental_uris": {"android": "https://dc.lft.to/lastmile_qr_scan", "ios": "https://dc.lft.to/lastmile_qr_scan"}, "fusion_lon": 0.0, "name": "19b5652e5d8fab2099ac5c1e351b6e2f", "lon": -76.93372066666667, "is_disabled": 0, "type": "electric_scooter"}, {"bike_id": "e7d51e7fd0d1fef491ad8237e4795a8a", "lat": 38.915644666666665, "is_reserved": 0, "fusion_lat": 0.0, "rental_uris": {"android": "https://dc.lft.to/lastmile_qr_scan", "ios": "https://dc.lft.to/lastmile_qr_scan"}, "fusion_lon": 0.0, "name": "e7d51e7fd0d1fef491ad8237e4795a8a", "lon": -77.02593066666667, "is_disabled": 0, "type": "electric_scooter"}, {"bike_id": "e09359a1501c9b53a8d877b8a7eab04d", "lat": 38.893539833333335, "is_reserved": 0, "fusion_lat": 0.0, "rental_uris": {"android": "https://dc.lft.to/lastmile_qr_scan", "ios": "https://dc.lft.to/lastmile_qr_scan"}, "fusion_lon": 0.0, "name": "e09359a1501c9b53a8d877b8a7eab04d", "lon": -77.0033525, "is_disabled": 0, "type": "electric_scooter"}, {"bike_id": "338938d76afe294121cae53c179746b4", "lat": 38.92253933333333, "is_reserved": 0, "fusion_lat": 0.0, "rental_uris": {"android": "https://dc.lft.to/lastmile_qr_scan", "ios": "https://dc.lft.to/lastmile_qr_scan"}, "fusion_lon": 0.0, "name": "338938d76afe294121cae53c179746b4", "lon": -77.04207833333334, "is_disabled": 0, "type": "electric_scooter"}, {"bike_id": "e7526167e37fd6f06c5c6f64504a46bc", "lat": 38.8788135, "is_reserved": 0, "fusion_lat": 0.0, "rental_uris": {"android": "https://dc.lft.to/lastmile_qr_scan", "ios": "https://dc.lft.to/lastmile_qr_scan"}, "fusion_lon": 0.0, "name": "e7526167e37fd6f06c5c6f64504a46bc", "lon": -77.01756766666666, "is_disabled": 0, "type": "electric_scooter"}, {"bike_id": "1a13f0ccd10c657fba19f9e3606b0561", "lat": 38.89860783333334, "is_reserved": 0, "fusion_lat": 0.0, "rental_uris": {"android": "https://dc.lft.to/lastmile_qr_scan", "ios": "https://dc.lft.to/lastmile_qr_scan"}, "fusion_lon": 0.0, "name": "1a13f0ccd10c657fba19f9e3606b0561", "lon": -77.0419545, "is_disabled": 0, "type": "electric_scooter"}, {"bike_id": "1815b3e59f0fe752aa72adfcf60446d2", "lat": 38.953319, "is_reserved": 0, "fusion_lat": 0.0, "rental_uris": {"android": "https://dc.lft.to/lastmile_qr_scan", "ios": "https://dc.lft.to/lastmile_qr_scan"}, "fusion_lon": 0.0, "name": "1815b3e59f0fe752aa72adfcf60446d2", "lon": -76.98257666666666, "is_disabled": 0, "type": "electric_bike"}, {"bike_id": "d182aabc88bd1fa8a7e0da051fa740ff", "lat": 38.9027195, "is_reserved": 0, "fusion_lat": 0.0, "rental_uris": {"android": "https://dc.lft.to/lastmile_qr_scan", "ios": "https://dc.lft.to/lastmile_qr_scan"}, "fusion_lon": 0.0, "name": "d182aabc88bd1fa8a7e0da051fa740ff", "lon": -77.030044, "is_disabled": 0, "type": "electric_scooter"}, {"bike_id": "bfe357d438e5da54170943120e824fa4", "lat": 38.910305666666666, "is_reserved": 0, "fusion_lat": 0.0, "rental_uris": {"android": "https://dc.lft.to/lastmile_qr_scan", "ios": "https://dc.lft.to/lastmile_qr_scan"}, "fusion_lon": 0.0, "name": "bfe357d438e5da54170943120e824fa4", "lon": -76.98559166666666, "is_disabled": 0, "type": "electric_scooter"}, {"bike_id": "e2789f88e447478a3f560e85ee2b5d22", "lat": 38.901902, "is_reserved": 0, "fusion_lat": 0.0, "rental_uris": {"android": "https://dc.lft.to/lastmile_qr_scan", "ios": "https://dc.lft.to/lastmile_qr_scan"}, "fusion_lon": 0.0, "name": "e2789f88e447478a3f560e85ee2b5d22", "lon": -77.012883, "is_disabled": 0, "type": "electric_scooter"}, {"bike_id": "fd0dba7e58a82f893c52148e8dd78f85", "lat": 38.89977533333333, "is_reserved": 0, "fusion_lat": 0.0, "rental_uris": {"android": "https://dc.lft.to/lastmile_qr_scan", "ios": "https://dc.lft.to/lastmile_qr_scan"}, "fusion_lon": 0.0, "name": "fd0dba7e58a82f893c52148e8dd78f85", "lon": -77.0225165, "is_disabled": 0, "type": "electric_scooter"}, {"bike_id": "895450baf85dd68339f109eb1aa8fb1b", "lat": 38.9002, "is_reserved": 0, "fusion_lat": 0.0, "rental_uris": {"android": "https://dc.lft.to/lastmile_qr_scan", "ios": "https://dc.lft.to/lastmile_qr_scan"}, "fusion_lon": 0.0, "name": "895450baf85dd68339f109eb1aa8fb1b", "lon": -77.04866416666667, "is_disabled": 0, "type": "electric_scooter"}, {"bike_id": "73e9daf6ac052780354640b6c447ca79", "lat": 38.91422, "is_reserved": 0, "fusion_lat": 0.0, "rental_uris": {"android": "https://dc.lft.to/lastmile_qr_scan", "ios": "https://dc.lft.to/lastmile_qr_scan"}, "fusion_lon": 0.0, "name": "73e9daf6ac052780354640b6c447ca79", "lon": -77.022104, "is_disabled": 0, "type": "electric_scooter"}, {"bike_id": "70ab43a99991788f893abb2f11c6a555", "lat": 38.947335, "is_reserved": 0, "fusion_lat": 0.0, "rental_uris": {"android": "https://dc.lft.to/lastmile_qr_scan", "ios": "https://dc.lft.to/lastmile_qr_scan"}, "fusion_lon": 0.0, "name": "70ab43a99991788f893abb2f11c6a555", "lon": -76.99583, "is_disabled": 0, "type": "electric_bike"}, {"bike_id": "bad38d4500feafb632959351ff3b3b74", "lat": 38.8664595, "is_reserved": 0, "fusion_lat": 0.0, "rental_uris": {"android": "https://dc.lft.to/lastmile_qr_scan", "ios": "https://dc.lft.to/lastmile_qr_scan"}, "fusion_lon": 0.0, "name": "bad38d4500feafb632959351ff3b3b74", "lon": -76.9886845, "is_disabled": 0, "type": "electric_scooter"}, {"bike_id": "0a1e29715de276f92f07d052b3a71b91", "lat": 38.915044, "is_reserved": 0, "fusion_lat": 0.0, "rental_uris": {"android": "https://dc.lft.to/lastmile_qr_scan", "ios": "https://dc.lft.to/lastmile_qr_scan"}, "fusion_lon": 0.0, "name": "0a1e29715de276f92f07d052b3a71b91", "lon": -77.0177915, "is_disabled": 0, "type": "electric_scooter"}, {"bike_id": "80ebcf191553998e7d6db45060faa2a5", "lat": 38.90564033333333, "is_reserved": 0, "fusion_lat": 0.0, "rental_uris": {"android": "https://dc.lft.to/lastmile_qr_scan", "ios": "https://dc.lft.to/lastmile_qr_scan"}, "fusion_lon": 0.0, "name": "80ebcf191553998e7d6db45060faa2a5", "lon": -77.02826233333333, "is_disabled": 0, "type": "electric_scooter"}, {"bike_id": "3a3429e364e21bfb3368d2a19de26111", "lat": 38.900633166666665, "is_reserved": 0, "fusion_lat": 0.0, "rental_uris": {"android": "https://dc.lft.to/lastmile_qr_scan", "ios": "https://dc.lft.to/lastmile_qr_scan"}, "fusion_lon": 0.0, "name": "3a3429e364e21bfb3368d2a19de26111", "lon": -77.04882866666667, "is_disabled": 0, "type": "electric_scooter"}, {"bike_id": "8ed63d6d44f0dd32dfa861886f40c86f", "lat": 38.92166666666667, "is_reserved": 0, "fusion_lat": 0.0, "rental_uris": {"android": "https://dc.lft.to/lastmile_qr_scan", "ios": "https://dc.lft.to/lastmile_qr_scan"}, "fusion_lon": 0.0, "name": "8ed63d6d44f0dd32dfa861886f40c86f", "lon": -77.033483, "is_disabled": 0, "type": "electric_scooter"}, {"bike_id": "51089db1f1b4204791b6552fecdaf110", "lat": 38.90216383333333, "is_reserved": 0, "fusion_lat": 0.0, "rental_uris": {"android": "https://dc.lft.to/lastmile_qr_scan", "ios": "https://dc.lft.to/lastmile_qr_scan"}, "fusion_lon": 0.0, "name": "51089db1f1b4204791b6552fecdaf110", "lon": -77.0320175, "is_disabled": 0, "type": "electric_scooter"}, {"bike_id": "4e54ef0aa6adb03fe91e6ff7d26b33ce", "lat": 38.914147166666666, "is_reserved": 0, "fusion_lat": 0.0, "rental_uris": {"android": "https://dc.lft.to/lastmile_qr_scan", "ios": "https://dc.lft.to/lastmile_qr_scan"}, "fusion_lon": 0.0, "name": "4e54ef0aa6adb03fe91e6ff7d26b33ce", "lon": -77.02408383333334, "is_disabled": 0, "type": "electric_scooter"}, {"bike_id": "0425999e20f004c7f1e2469a92e66e0a", "lat": 38.90410516666667, "is_reserved": 0, "fusion_lat": 0.0, "rental_uris": {"android": "https://dc.lft.to/lastmile_qr_scan", "ios": "https://dc.lft.to/lastmile_qr_scan"}, "fusion_lon": 0.0, "name": "0425999e20f004c7f1e2469a92e66e0a", "lon": -76.97334033333334, "is_disabled": 0, "type": "electric_scooter"}, {"bike_id": "c3131fd5b31adf3f555f2feb52736740", "lat": 38.9225225, "is_reserved": 0, "fusion_lat": 0.0, "rental_uris": {"android": "https://dc.lft.to/lastmile_qr_scan", "ios": "https://dc.lft.to/lastmile_qr_scan"}, "fusion_lon": 0.0, "name": "c3131fd5b31adf3f555f2feb52736740", "lon": -77.040231, "is_disabled": 0, "type": "electric_scooter"}, {"bike_id": "ac2b15491c72eeb7926a73884e7d0121", "lat": 38.918131333333335, "is_reserved": 0, "fusion_lat": 0.0, "rental_uris": {"android": "https://dc.lft.to/lastmile_qr_scan", "ios": "https://dc.lft.to/lastmile_qr_scan"}, "fusion_lon": 0.0, "name": "ac2b15491c72eeb7926a73884e7d0121", "lon": -77.04007233333333, "is_disabled": 0, "type": "electric_scooter"}, {"bike_id": "659ac1dda88680af69862a54cea07ad9", "lat": 38.9036675, "is_reserved": 0, "fusion_lat": 0.0, "rental_uris": {"android": "https://dc.lft.to/lastmile_qr_scan", "ios": "https://dc.lft.to/lastmile_qr_scan"}, "fusion_lon": 0.0, "name": "659ac1dda88680af69862a54cea07ad9", "lon": -77.04576, "is_disabled": 0, "type": "electric_scooter"}, {"bike_id": "9f2409a2885c925eff361bb140f28759", "lat": 38.90641733333333, "is_reserved": 0, "fusion_lat": 0.0, "rental_uris": {"android": "https://dc.lft.to/lastmile_qr_scan", "ios": "https://dc.lft.to/lastmile_qr_scan"}, "fusion_lon": 0.0, "name": "9f2409a2885c925eff361bb140f28759", "lon": -77.042915, "is_disabled": 0, "type": "electric_scooter"}, {"bike_id": "ffb63e6b874dbd52f34c4c63a40c4ce5", "lat": 38.914287, "is_reserved": 0, "fusion_lat": 0.0, "rental_uris": {"android": "https://dc.lft.to/lastmile_qr_scan", "ios": "https://dc.lft.to/lastmile_qr_scan"}, "fusion_lon": 0.0, "name": "ffb63e6b874dbd52f34c4c63a40c4ce5", "lon": -77.03180366666666, "is_disabled": 0, "type": "electric_scooter"}, {"bike_id": "46302fa68a4853b69ca6c6f007a188de", "lat": 38.9233155, "is_reserved": 0, "fusion_lat": 0.0, "rental_uris": {"android": "https://dc.lft.to/lastmile_qr_scan", "ios": "https://dc.lft.to/lastmile_qr_scan"}, "fusion_lon": 0.0, "name": "46302fa68a4853b69ca6c6f007a188de", "lon": -77.0462205, "is_disabled": 0, "type": "electric_scooter"}, {"bike_id": "dea8a0133277a7eb6e11ccc0adb87501", "lat": 38.9035795, "is_reserved": 0, "fusion_lat": 0.0, "rental_uris": {"android": "https://dc.lft.to/lastmile_qr_scan", "ios": "https://dc.lft.to/lastmile_qr_scan"}, "fusion_lon": 0.0, "name": "dea8a0133277a7eb6e11ccc0adb87501", "lon": -77.031976, "is_disabled": 0, "type": "electric_scooter"}, {"bike_id": "89979dab684b87646eeb2ad97decfd73", "lat": 38.905745833333334, "is_reserved": 0, "fusion_lat": 0.0, "rental_uris": {"android": "https://dc.lft.to/lastmile_qr_scan", "ios": "https://dc.lft.to/lastmile_qr_scan"}, "fusion_lon": 0.0, "name": "89979dab684b87646eeb2ad97decfd73", "lon": -77.02215316666667, "is_disabled": 0, "type": "electric_scooter"}, {"bike_id": "7f5518b30897a3accd40b4fa2fdc0d25", "lat": 38.914415, "is_reserved": 0, "fusion_lat": 0.0, "rental_uris": {"android": "https://dc.lft.to/lastmile_qr_scan", "ios": "https://dc.lft.to/lastmile_qr_scan"}, "fusion_lon": 0.0, "name": "7f5518b30897a3accd40b4fa2fdc0d25", "lon": -77.01225333333333, "is_disabled": 0, "type": "electric_scooter"}, {"bike_id": "4780bf9ad2f2621cf2f804a554a5c8e4", "lat": 38.914008833333334, "is_reserved": 0, "fusion_lat": 0.0, "rental_uris": {"android": "https://dc.lft.to/lastmile_qr_scan", "ios": "https://dc.lft.to/lastmile_qr_scan"}, "fusion_lon": 0.0, "name": "4780bf9ad2f2621cf2f804a554a5c8e4", "lon": -77.02409816666666, "is_disabled": 0, "type": "electric_scooter"}, {"bike_id": "2c70b9994495268cc6f94b7e408d0ce3", "lat": 38.92768183333333, "is_reserved": 0, "fusion_lat": 0.0, "rental_uris": {"android": "https://dc.lft.to/lastmile_qr_scan", "ios": "https://dc.lft.to/lastmile_qr_scan"}, "fusion_lon": 0.0, "name": "2c70b9994495268cc6f94b7e408d0ce3", "lon": -77.0564335, "is_disabled": 0, "type": "electric_scooter"}, {"bike_id": "10e5308d5dbdb8c083910699ef383089", "lat": 38.91786416666667, "is_reserved": 0, "fusion_lat": 0.0, "rental_uris": {"android": "https://dc.lft.to/lastmile_qr_scan", "ios": "https://dc.lft.to/lastmile_qr_scan"}, "fusion_lon": 0.0, "name": "10e5308d5dbdb8c083910699ef383089", "lon": -77.02311833333333, "is_disabled": 0, "type": "electric_scooter"}, {"bike_id": "9e0ead564db0e263fd42c0d2fde0fea1", "lat": 38.91114183333333, "is_reserved": 0, "fusion_lat": 0.0, "rental_uris": {"android": "https://dc.lft.to/lastmile_qr_scan", "ios": "https://dc.lft.to/lastmile_qr_scan"}, "fusion_lon": 0.0, "name": "9e0ead564db0e263fd42c0d2fde0fea1", "lon": -77.03866033333334, "is_disabled": 0, "type": "electric_scooter"}, {"bike_id": "4b125f212c5e600347b859bc27387dd1", "lat": 38.9002975, "is_reserved": 0, "fusion_lat": 0.0, "rental_uris": {"android": "https://dc.lft.to/lastmile_qr_scan", "ios": "https://dc.lft.to/lastmile_qr_scan"}, "fusion_lon": 0.0, "name": "4b125f212c5e600347b859bc27387dd1", "lon": -76.99842866666667, "is_disabled": 0, "type": "electric_scooter"}, {"bike_id": "e104c84b95ab29fca35c2a9f931884f2", "lat": 38.891346, "is_reserved": 0, "fusion_lat": 0.0, "rental_uris": {"android": "https://dc.lft.to/lastmile_qr_scan", "ios": "https://dc.lft.to/lastmile_qr_scan"}, "fusion_lon": 0.0, "name": "e104c84b95ab29fca35c2a9f931884f2", "lon": -76.95187716666666, "is_disabled": 0, "type": "electric_scooter"}, {"bike_id": "87303ca00fd1cfd72a359d6adccc6ad8", "lat": 38.900269, "is_reserved": 0, "fusion_lat": 0.0, "rental_uris": {"android": "https://dc.lft.to/lastmile_qr_scan", "ios": "https://dc.lft.to/lastmile_qr_scan"}, "fusion_lon": 0.0, "name": "87303ca00fd1cfd72a359d6adccc6ad8", "lon": -76.99834716666666, "is_disabled": 0, "type": "electric_scooter"}, {"bike_id": "0926fa5fe0d1aab16cec97ccbd325a65", "lat": 38.89730733333333, "is_reserved": 0, "fusion_lat": 0.0, "rental_uris": {"android": "https://dc.lft.to/lastmile_qr_scan", "ios": "https://dc.lft.to/lastmile_qr_scan"}, "fusion_lon": 0.0, "name": "0926fa5fe0d1aab16cec97ccbd325a65", "lon": -77.044571, "is_disabled": 0, "type": "electric_scooter"}, {"bike_id": "277ee3c04a189c53c061a49d12c88a77", "lat": 38.90769733333333, "is_reserved": 0, "fusion_lat": 0.0, "rental_uris": {"android": "https://dc.lft.to/lastmile_qr_scan", "ios": "https://dc.lft.to/lastmile_qr_scan"}, "fusion_lon": 0.0, "name": "277ee3c04a189c53c061a49d12c88a77", "lon": -77.00385783333333, "is_disabled": 0, "type": "electric_scooter"}, {"bike_id": "5f5a80e486f4ebe8b88d11fb0c1250b1", "lat": 38.92642883333333, "is_reserved": 0, "fusion_lat": 0.0, "rental_uris": {"android": "https://dc.lft.to/lastmile_qr_scan", "ios": "https://dc.lft.to/lastmile_qr_scan"}, "fusion_lon": 0.0, "name": "5f5a80e486f4ebe8b88d11fb0c1250b1", "lon": -77.03432333333333, "is_disabled": 0, "type": "electric_scooter"}, {"bike_id": "ae23facda58fb229d21188b69543da80", "lat": 38.87171083333333, "is_reserved": 0, "fusion_lat": 0.0, "rental_uris": {"android": "https://dc.lft.to/lastmile_qr_scan", "ios": "https://dc.lft.to/lastmile_qr_scan"}, "fusion_lon": 0.0, "name": "ae23facda58fb229d21188b69543da80", "lon": -77.006284, "is_disabled": 0, "type": "electric_scooter"}, {"bike_id": "f90a10fde65020d36a09cb605653d5d5", "lat": 38.936193833333334, "is_reserved": 0, "fusion_lat": 0.0, "rental_uris": {"android": "https://dc.lft.to/lastmile_qr_scan", "ios": "https://dc.lft.to/lastmile_qr_scan"}, "fusion_lon": 0.0, "name": "f90a10fde65020d36a09cb605653d5d5", "lon": -76.97983133333334, "is_disabled": 0, "type": "electric_scooter"}, {"bike_id": "a6cd8cfd4aada665a9e851a91557df87", "lat": 38.918224, "is_reserved": 0, "fusion_lat": 0.0, "rental_uris": {"android": "https://dc.lft.to/lastmile_qr_scan", "ios": "https://dc.lft.to/lastmile_qr_scan"}, "fusion_lon": 0.0, "name": "a6cd8cfd4aada665a9e851a91557df87", "lon": -77.02422166666666, "is_disabled": 0, "type": "electric_scooter"}, {"bike_id": "a5c51309a1a61b0d863195fb414c3a8e", "lat": 38.903382, "is_reserved": 0, "fusion_lat": 0.0, "rental_uris": {"android": "https://dc.lft.to/lastmile_qr_scan", "ios": "https://dc.lft.to/lastmile_qr_scan"}, "fusion_lon": 0.0, "name": "a5c51309a1a61b0d863195fb414c3a8e", "lon": -77.06187916666667, "is_disabled": 0, "type": "electric_scooter"}, {"bike_id": "a493bbd8a679b35a52a373c03f77b8d7", "lat": 38.898830333333336, "is_reserved": 0, "fusion_lat": 0.0, "rental_uris": {"android": "https://dc.lft.to/lastmile_qr_scan", "ios": "https://dc.lft.to/lastmile_qr_scan"}, "fusion_lon": 0.0, "name": "a493bbd8a679b35a52a373c03f77b8d7", "lon": -76.9317845, "is_disabled": 0, "type": "electric_scooter"}, {"bike_id": "e760c47e37d0a4430c9c72f87d258854", "lat": 38.882682333333335, "is_reserved": 0, "fusion_lat": 0.0, "rental_uris": {"android": "https://dc.lft.to/lastmile_qr_scan", "ios": "https://dc.lft.to/lastmile_qr_scan"}, "fusion_lon": 0.0, "name": "e760c47e37d0a4430c9c72f87d258854", "lon": -77.0051145, "is_disabled": 0, "type": "electric_scooter"}, {"bike_id": "82e0eb556f9bc5e1bd0c9ddf3322c864", "lat": 38.858873333333335, "is_reserved": 0, "fusion_lat": 0.0, "rental_uris": {"android": "https://dc.lft.to/lastmile_qr_scan", "ios": "https://dc.lft.to/lastmile_qr_scan"}, "fusion_lon": 0.0, "name": "82e0eb556f9bc5e1bd0c9ddf3322c864", "lon": -76.99555133333334, "is_disabled": 0, "type": "electric_scooter"}, {"bike_id": "9a807f9d053c4ee10c474551f77ce1a1", "lat": 38.9388655, "is_reserved": 0, "fusion_lat": 0.0, "rental_uris": {"android": "https://dc.lft.to/lastmile_qr_scan", "ios": "https://dc.lft.to/lastmile_qr_scan"}, "fusion_lon": 0.0, "name": "9a807f9d053c4ee10c474551f77ce1a1", "lon": -77.0331935, "is_disabled": 0, "type": "electric_scooter"}, {"bike_id": "227e48569166f6200848d24f39968b7a", "lat": 38.90147666666667, "is_reserved": 0, "fusion_lat": 0.0, "rental_uris": {"android": "https://dc.lft.to/lastmile_qr_scan", "ios": "https://dc.lft.to/lastmile_qr_scan"}, "fusion_lon": 0.0, "name": "227e48569166f6200848d24f39968b7a", "lon": -77.02952566666667, "is_disabled": 0, "type": "electric_scooter"}, {"bike_id": "35b8389e42d36875dd6c9bf1b677944c", "lat": 38.887414666666665, "is_reserved": 0, "fusion_lat": 0.0, "rental_uris": {"android": "https://dc.lft.to/lastmile_qr_scan", "ios": "https://dc.lft.to/lastmile_qr_scan"}, "fusion_lon": 0.0, "name": "35b8389e42d36875dd6c9bf1b677944c", "lon": -77.0316835, "is_disabled": 0, "type": "electric_scooter"}, {"bike_id": "5a49d6d06c0e9d5137811d40b51a80cf", "lat": 38.937363833333336, "is_reserved": 0, "fusion_lat": 0.0, "rental_uris": {"android": "https://dc.lft.to/lastmile_qr_scan", "ios": "https://dc.lft.to/lastmile_qr_scan"}, "fusion_lon": 0.0, "name": "5a49d6d06c0e9d5137811d40b51a80cf", "lon": -77.032568, "is_disabled": 0, "type": "electric_scooter"}, {"bike_id": "fed1866b15dfe2fdb7a4ac68c7a7e869", "lat": 38.92917666666666, "is_reserved": 0, "fusion_lat": 0.0, "rental_uris": {"android": "https://dc.lft.to/lastmile_qr_scan", "ios": "https://dc.lft.to/lastmile_qr_scan"}, "fusion_lon": 0.0, "name": "fed1866b15dfe2fdb7a4ac68c7a7e869", "lon": -77.02090466666667, "is_disabled": 0, "type": "electric_scooter"}, {"bike_id": "2dad77d9ab9629e146b13d5e79d6bd1e", "lat": 38.924662166666664, "is_reserved": 0, "fusion_lat": 0.0, "rental_uris": {"android": "https://dc.lft.to/lastmile_qr_scan", "ios": "https://dc.lft.to/lastmile_qr_scan"}, "fusion_lon": 0.0, "name": "2dad77d9ab9629e146b13d5e79d6bd1e", "lon": -77.05239233333333, "is_disabled": 0, "type": "electric_scooter"}, {"bike_id": "3d92c7c7ee4537c661cbf80702a049dc", "lat": 38.90871633333333, "is_reserved": 0, "fusion_lat": 0.0, "rental_uris": {"android": "https://dc.lft.to/lastmile_qr_scan", "ios": "https://dc.lft.to/lastmile_qr_scan"}, "fusion_lon": 0.0, "name": "3d92c7c7ee4537c661cbf80702a049dc", "lon": -76.99799266666666, "is_disabled": 0, "type": "electric_scooter"}, {"bike_id": "c5e9815a5dc846cf3199d4e0a3b089ba", "lat": 38.92767116666667, "is_reserved": 0, "fusion_lat": 0.0, "rental_uris": {"android": "https://dc.lft.to/lastmile_qr_scan", "ios": "https://dc.lft.to/lastmile_qr_scan"}, "fusion_lon": 0.0, "name": "c5e9815a5dc846cf3199d4e0a3b089ba", "lon": -77.02793116666666, "is_disabled": 0, "type": "electric_scooter"}, {"bike_id": "cfae31d7ef28097c79cc5ee90b5e24a2", "lat": 38.8675405, "is_reserved": 0, "fusion_lat": 0.0, "rental_uris": {"android": "https://dc.lft.to/lastmile_qr_scan", "ios": "https://dc.lft.to/lastmile_qr_scan"}, "fusion_lon": 0.0, "name": "cfae31d7ef28097c79cc5ee90b5e24a2", "lon": -76.94537633333333, "is_disabled": 0, "type": "electric_bike"}, {"bike_id": "15f6c06c0596ab4cb017ef32d4f837ae", "lat": 38.915633666666665, "is_reserved": 0, "fusion_lat": 0.0, "rental_uris": {"android": "https://dc.lft.to/lastmile_qr_scan", "ios": "https://dc.lft.to/lastmile_qr_scan"}, "fusion_lon": 0.0, "name": "15f6c06c0596ab4cb017ef32d4f837ae", "lon": -77.03842116666667, "is_disabled": 0, "type": "electric_scooter"}, {"bike_id": "751aae7ffb25b65d4e178c925ea8ba2e", "lat": 38.90724783333334, "is_reserved": 0, "fusion_lat": 0.0, "rental_uris": {"android": "https://dc.lft.to/lastmile_qr_scan", "ios": "https://dc.lft.to/lastmile_qr_scan"}, "fusion_lon": 0.0, "name": "751aae7ffb25b65d4e178c925ea8ba2e", "lon": -77.04155283333333, "is_disabled": 0, "type": "electric_scooter"}, {"bike_id": "a4023b2341acca04c87f955e026b183c", "lat": 38.91403116666667, "is_reserved": 0, "fusion_lat": 0.0, "rental_uris": {"android": "https://dc.lft.to/lastmile_qr_scan", "ios": "https://dc.lft.to/lastmile_qr_scan"}, "fusion_lon": 0.0, "name": "a4023b2341acca04c87f955e026b183c", "lon": -77.02010666666666, "is_disabled": 0, "type": "electric_scooter"}, {"bike_id": "b0fcef57fa596033afe2291ec2f20d6a", "lat": 38.929592166666666, "is_reserved": 0, "fusion_lat": 0.0, "rental_uris": {"android": "https://dc.lft.to/lastmile_qr_scan", "ios": "https://dc.lft.to/lastmile_qr_scan"}, "fusion_lon": 0.0, "name": "b0fcef57fa596033afe2291ec2f20d6a", "lon": -77.01148816666667, "is_disabled": 0, "type": "electric_scooter"}, {"bike_id": "e3bb13c49ad05c91d3e9d9a55c45f945", "lat": 38.88972783333333, "is_reserved": 0, "fusion_lat": 0.0, "rental_uris": {"android": "https://dc.lft.to/lastmile_qr_scan", "ios": "https://dc.lft.to/lastmile_qr_scan"}, "fusion_lon": 0.0, "name": "e3bb13c49ad05c91d3e9d9a55c45f945", "lon": -76.99937266666667, "is_disabled": 0, "type": "electric_scooter"}, {"bike_id": "1528200ccec25a33666317d914a0da33", "lat": 38.905650333333334, "is_reserved": 0, "fusion_lat": 0.0, "rental_uris": {"android": "https://dc.lft.to/lastmile_qr_scan", "ios": "https://dc.lft.to/lastmile_qr_scan"}, "fusion_lon": 0.0, "name": "1528200ccec25a33666317d914a0da33", "lon": -77.025419, "is_disabled": 0, "type": "electric_scooter"}, {"bike_id": "11758db5dd2c45ac437a0315aa827f09", "lat": 38.943323166666666, "is_reserved": 0, "fusion_lat": 0.0, "rental_uris": {"android": "https://dc.lft.to/lastmile_qr_scan", "ios": "https://dc.lft.to/lastmile_qr_scan"}, "fusion_lon": 0.0, "name": "11758db5dd2c45ac437a0315aa827f09", "lon": -77.06284233333334, "is_disabled": 0, "type": "electric_scooter"}, {"bike_id": "0c7e4bbfd5f1d2d3a5a2800058c0f98a", "lat": 38.841448166666666, "is_reserved": 0, "fusion_lat": 0.0, "rental_uris": {"android": "https://dc.lft.to/lastmile_qr_scan", "ios": "https://dc.lft.to/lastmile_qr_scan"}, "fusion_lon": 0.0, "name": "0c7e4bbfd5f1d2d3a5a2800058c0f98a", "lon": -77.11470683333333, "is_disabled": 0, "type": "electric_bike"}, {"bike_id": "533b100f7a3a93c5b0f1d04b934472f4", "lat": 38.921600833333336, "is_reserved": 0, "fusion_lat": 0.0, "rental_uris": {"android": "https://dc.lft.to/lastmile_qr_scan", "ios": "https://dc.lft.to/lastmile_qr_scan"}, "fusion_lon": 0.0, "name": "533b100f7a3a93c5b0f1d04b934472f4", "lon": -77.02088516666667, "is_disabled": 0, "type": "electric_scooter"}, {"bike_id": "567ae25be97e43e830d7c6a04800376d", "lat": 38.992233666666664, "is_reserved": 0, "fusion_lat": 0.0, "rental_uris": {"android": "https://dc.lft.to/lastmile_qr_scan", "ios": "https://dc.lft.to/lastmile_qr_scan"}, "fusion_lon": 0.0, "name": "567ae25be97e43e830d7c6a04800376d", "lon": -76.94460433333333, "is_disabled": 0, "type": "electric_bike"}, {"bike_id": "261a53e5b58b55ee9503a6c8e040eeec", "lat": 38.90561683333333, "is_reserved": 0, "fusion_lat": 0.0, "rental_uris": {"android": "https://dc.lft.to/lastmile_qr_scan", "ios": "https://dc.lft.to/lastmile_qr_scan"}, "fusion_lon": 0.0, "name": "261a53e5b58b55ee9503a6c8e040eeec", "lon": -77.01681383333333, "is_disabled": 0, "type": "electric_scooter"}, {"bike_id": "444c54d3ae02e2fead55909d55d5fc92", "lat": 38.85486483333333, "is_reserved": 0, "fusion_lat": 0.0, "rental_uris": {"android": "https://dc.lft.to/lastmile_qr_scan", "ios": "https://dc.lft.to/lastmile_qr_scan"}, "fusion_lon": 0.0, "name": "444c54d3ae02e2fead55909d55d5fc92", "lon": -77.11616866666667, "is_disabled": 0, "type": "electric_bike"}, {"bike_id": "83e2f0062c4613d15c89e4e6f1dc0c2f", "lat": 38.90522283333333, "is_reserved": 0, "fusion_lat": 0.0, "rental_uris": {"android": "https://dc.lft.to/lastmile_qr_scan", "ios": "https://dc.lft.to/lastmile_qr_scan"}, "fusion_lon": 0.0, "name": "83e2f0062c4613d15c89e4e6f1dc0c2f", "lon": -77.06615916666667, "is_disabled": 0, "type": "electric_scooter"}, {"bike_id": "f3c9efce92588ae15968db348c08c28a", "lat": 38.855621166666666, "is_reserved": 0, "fusion_lat": 0.0, "rental_uris": {"android": "https://dc.lft.to/lastmile_qr_scan", "ios": "https://dc.lft.to/lastmile_qr_scan"}, "fusion_lon": 0.0, "name": "f3c9efce92588ae15968db348c08c28a", "lon": -77.11318133333333, "is_disabled": 0, "type": "electric_bike"}, {"bike_id": "8f38a19c61ed431abe18325bed77e2dc", "lat": 38.90693783333333, "is_reserved": 0, "fusion_lat": 0.0, "rental_uris": {"android": "https://dc.lft.to/lastmile_qr_scan", "ios": "https://dc.lft.to/lastmile_qr_scan"}, "fusion_lon": 0.0, "name": "8f38a19c61ed431abe18325bed77e2dc", "lon": -77.0261055, "is_disabled": 0, "type": "electric_scooter"}, {"bike_id": "672d8b1f748d92bde77ebeb12351702a", "lat": 38.9276435, "is_reserved": 0, "fusion_lat": 0.0, "rental_uris": {"android": "https://dc.lft.to/lastmile_qr_scan", "ios": "https://dc.lft.to/lastmile_qr_scan"}, "fusion_lon": 0.0, "name": "672d8b1f748d92bde77ebeb12351702a", "lon": -77.02736466666667, "is_disabled": 0, "type": "electric_scooter"}, {"bike_id": "43307577528d31184502527864a49d8a", "lat": 38.91525516666667, "is_reserved": 0, "fusion_lat": 0.0, "rental_uris": {"android": "https://dc.lft.to/lastmile_qr_scan", "ios": "https://dc.lft.to/lastmile_qr_scan"}, "fusion_lon": 0.0, "name": "43307577528d31184502527864a49d8a", "lon": -76.9836325, "is_disabled": 0, "type": "electric_scooter"}, {"bike_id": "fbfe83c5dfa0499651c52ec123e86f01", "lat": 38.894927, "is_reserved": 0, "fusion_lat": 0.0, "rental_uris": {"android": "https://dc.lft.to/lastmile_qr_scan", "ios": "https://dc.lft.to/lastmile_qr_scan"}, "fusion_lon": 0.0, "name": "fbfe83c5dfa0499651c52ec123e86f01", "lon": -77.02290116666667, "is_disabled": 0, "type": "electric_scooter"}, {"bike_id": "6dea60e513ea2da7ff68df67215dfd02", "lat": 38.920483833333336, "is_reserved": 0, "fusion_lat": 0.0, "rental_uris": {"android": "https://dc.lft.to/lastmile_qr_scan", "ios": "https://dc.lft.to/lastmile_qr_scan"}, "fusion_lon": 0.0, "name": "6dea60e513ea2da7ff68df67215dfd02", "lon": -77.04194383333333, "is_disabled": 0, "type": "electric_scooter"}, {"bike_id": "ea2f8bf903df2372fb2f3be40e6683a6", "lat": 38.920337833333335, "is_reserved": 0, "fusion_lat": 0.0, "rental_uris": {"android": "https://dc.lft.to/lastmile_qr_scan", "ios": "https://dc.lft.to/lastmile_qr_scan"}, "fusion_lon": 0.0, "name": "ea2f8bf903df2372fb2f3be40e6683a6", "lon": -77.08198133333333, "is_disabled": 0, "type": "electric_scooter"}, {"bike_id": "cc20615e8eced25b7f9463e8dad3cd9a", "lat": 38.908195, "is_reserved": 0, "fusion_lat": 0.0, "rental_uris": {"android": "https://dc.lft.to/lastmile_qr_scan", "ios": "https://dc.lft.to/lastmile_qr_scan"}, "fusion_lon": 0.0, "name": "cc20615e8eced25b7f9463e8dad3cd9a", "lon": -77.03188816666666, "is_disabled": 0, "type": "electric_scooter"}, {"bike_id": "7764bce981bcfdf78e5d28e209e0ae26", "lat": 38.922329833333336, "is_reserved": 0, "fusion_lat": 0.0, "rental_uris": {"android": "https://dc.lft.to/lastmile_qr_scan", "ios": "https://dc.lft.to/lastmile_qr_scan"}, "fusion_lon": 0.0, "name": "7764bce981bcfdf78e5d28e209e0ae26", "lon": -77.021845, "is_disabled": 0, "type": "electric_scooter"}, {"bike_id": "7a483fa24a940a1853fb6a66b584a230", "lat": 38.92281166666667, "is_reserved": 0, "fusion_lat": 0.0, "rental_uris": {"android": "https://dc.lft.to/lastmile_qr_scan", "ios": "https://dc.lft.to/lastmile_qr_scan"}, "fusion_lon": 0.0, "name": "7a483fa24a940a1853fb6a66b584a230", "lon": -77.01955483333333, "is_disabled": 0, "type": "electric_scooter"}, {"bike_id": "79b861d520e66ab23c595dafd21cecde", "lat": 38.914084333333335, "is_reserved": 0, "fusion_lat": 0.0, "rental_uris": {"android": "https://dc.lft.to/lastmile_qr_scan", "ios": "https://dc.lft.to/lastmile_qr_scan"}, "fusion_lon": 0.0, "name": "79b861d520e66ab23c595dafd21cecde", "lon": -77.04073316666667, "is_disabled": 0, "type": "electric_scooter"}, {"bike_id": "72aeb015c604d64e1a39d6388a12b17b", "lat": 38.913345666666665, "is_reserved": 0, "fusion_lat": 0.0, "rental_uris": {"android": "https://dc.lft.to/lastmile_qr_scan", "ios": "https://dc.lft.to/lastmile_qr_scan"}, "fusion_lon": 0.0, "name": "72aeb015c604d64e1a39d6388a12b17b", "lon": -77.03193233333333, "is_disabled": 0, "type": "electric_scooter"}, {"bike_id": "67bceae1ca294b7112537d04b87faa93", "lat": 38.885226833333334, "is_reserved": 0, "fusion_lat": 0.0, "rental_uris": {"android": "https://dc.lft.to/lastmile_qr_scan", "ios": "https://dc.lft.to/lastmile_qr_scan"}, "fusion_lon": 0.0, "name": "67bceae1ca294b7112537d04b87faa93", "lon": -76.9771045, "is_disabled": 0, "type": "electric_scooter"}, {"bike_id": "af7349e036ffb24d88804020befecddd", "lat": 38.89600216666667, "is_reserved": 0, "fusion_lat": 0.0, "rental_uris": {"android": "https://dc.lft.to/lastmile_qr_scan", "ios": "https://dc.lft.to/lastmile_qr_scan"}, "fusion_lon": 0.0, "name": "af7349e036ffb24d88804020befecddd", "lon": -77.00689883333334, "is_disabled": 0, "type": "electric_scooter"}, {"bike_id": "799e8b97624c7d2a9d1e9a07ef596473", "lat": 38.8871655, "is_reserved": 0, "fusion_lat": 0.0, "rental_uris": {"android": "https://dc.lft.to/lastmile_qr_scan", "ios": "https://dc.lft.to/lastmile_qr_scan"}, "fusion_lon": 0.0, "name": "799e8b97624c7d2a9d1e9a07ef596473", "lon": -77.0221325, "is_disabled": 0, "type": "electric_scooter"}, {"bike_id": "6e2b5286ef06d6cf9d3aad1cd6b5563a", "lat": 38.90792583333333, "is_reserved": 0, "fusion_lat": 0.0, "rental_uris": {"android": "https://dc.lft.to/lastmile_qr_scan", "ios": "https://dc.lft.to/lastmile_qr_scan"}, "fusion_lon": 0.0, "name": "6e2b5286ef06d6cf9d3aad1cd6b5563a", "lon": -77.03438283333334, "is_disabled": 0, "type": "electric_scooter"}, {"bike_id": "57c552278fe4bc5a331f5e60c018a81a", "lat": 38.91329316666667, "is_reserved": 0, "fusion_lat": 0.0, "rental_uris": {"android": "https://dc.lft.to/lastmile_qr_scan", "ios": "https://dc.lft.to/lastmile_qr_scan"}, "fusion_lon": 0.0, "name": "57c552278fe4bc5a331f5e60c018a81a", "lon": -77.03199916666667, "is_disabled": 0, "type": "electric_scooter"}, {"bike_id": "e7a0ef3cb9e660d13d9df63effea8f1b", "lat": 38.90828583333333, "is_reserved": 0, "fusion_lat": 0.0, "rental_uris": {"android": "https://dc.lft.to/lastmile_qr_scan", "ios": "https://dc.lft.to/lastmile_qr_scan"}, "fusion_lon": 0.0, "name": "e7a0ef3cb9e660d13d9df63effea8f1b", "lon": -76.9969835, "is_disabled": 0, "type": "electric_scooter"}, {"bike_id": "3f8ac84db87d96cd36acd1131cb69838", "lat": 38.904250833333336, "is_reserved": 0, "fusion_lat": 0.0, "rental_uris": {"android": "https://dc.lft.to/lastmile_qr_scan", "ios": "https://dc.lft.to/lastmile_qr_scan"}, "fusion_lon": 0.0, "name": "3f8ac84db87d96cd36acd1131cb69838", "lon": -77.0465485, "is_disabled": 0, "type": "electric_scooter"}, {"bike_id": "2e98d18cd538e580cf3fdbd1dc5b039f", "lat": 38.9719345, "is_reserved": 0, "fusion_lat": 0.0, "rental_uris": {"android": "https://dc.lft.to/lastmile_qr_scan", "ios": "https://dc.lft.to/lastmile_qr_scan"}, "fusion_lon": 0.0, "name": "2e98d18cd538e580cf3fdbd1dc5b039f", "lon": -77.0265385, "is_disabled": 0, "type": "electric_scooter"}, {"bike_id": "f2a759fbda2ceab932ac44fa6da3e217", "lat": 38.884818, "is_reserved": 0, "fusion_lat": 0.0, "rental_uris": {"android": "https://dc.lft.to/lastmile_qr_scan", "ios": "https://dc.lft.to/lastmile_qr_scan"}, "fusion_lon": 0.0, "name": "f2a759fbda2ceab932ac44fa6da3e217", "lon": -77.127738, "is_disabled": 0, "type": "electric_bike"}, {"bike_id": "6d0b2d5f9bd1e1cfe9783411338872b2", "lat": 38.8662345, "is_reserved": 0, "fusion_lat": 0.0, "rental_uris": {"android": "https://dc.lft.to/lastmile_qr_scan", "ios": "https://dc.lft.to/lastmile_qr_scan"}, "fusion_lon": 0.0, "name": "6d0b2d5f9bd1e1cfe9783411338872b2", "lon": -76.98726283333333, "is_disabled": 0, "type": "electric_scooter"}, {"bike_id": "6212b71bb19cb6f08018b22846dd07a4", "lat": 38.896960166666666, "is_reserved": 0, "fusion_lat": 0.0, "rental_uris": {"android": "https://dc.lft.to/lastmile_qr_scan", "ios": "https://dc.lft.to/lastmile_qr_scan"}, "fusion_lon": 0.0, "name": "6212b71bb19cb6f08018b22846dd07a4", "lon": -77.02295916666667, "is_disabled": 0, "type": "electric_scooter"}, {"bike_id": "91c533699074477aab77ab66e7f5f22e", "lat": 38.905565833333334, "is_reserved": 0, "fusion_lat": 0.0, "rental_uris": {"android": "https://dc.lft.to/lastmile_qr_scan", "ios": "https://dc.lft.to/lastmile_qr_scan"}, "fusion_lon": 0.0, "name": "91c533699074477aab77ab66e7f5f22e", "lon": -77.00595066666666, "is_disabled": 0, "type": "electric_scooter"}, {"bike_id": "f81882c000277a044bf65e8db899b04d", "lat": 38.9071945, "is_reserved": 0, "fusion_lat": 0.0, "rental_uris": {"android": "https://dc.lft.to/lastmile_qr_scan", "ios": "https://dc.lft.to/lastmile_qr_scan"}, "fusion_lon": 0.0, "name": "f81882c000277a044bf65e8db899b04d", "lon": -77.0252395, "is_disabled": 0, "type": "electric_scooter"}, {"bike_id": "2a0461768ca320d4fd011a39f72807b4", "lat": 38.9336025, "is_reserved": 0, "fusion_lat": 0.0, "rental_uris": {"android": "https://dc.lft.to/lastmile_qr_scan", "ios": "https://dc.lft.to/lastmile_qr_scan"}, "fusion_lon": 0.0, "name": "2a0461768ca320d4fd011a39f72807b4", "lon": -77.08857233333333, "is_disabled": 0, "type": "electric_scooter"}, {"bike_id": "87b121f6d4e00654e953d55e12a47eb6", "lat": 38.9032175, "is_reserved": 0, "fusion_lat": 0.0, "rental_uris": {"android": "https://dc.lft.to/lastmile_qr_scan", "ios": "https://dc.lft.to/lastmile_qr_scan"}, "fusion_lon": 0.0, "name": "87b121f6d4e00654e953d55e12a47eb6", "lon": -77.038295, "is_disabled": 0, "type": "electric_scooter"}, {"bike_id": "c9850835ae0bcdc4b4d249d6b277780d", "lat": 38.900354666666665, "is_reserved": 0, "fusion_lat": 0.0, "rental_uris": {"android": "https://dc.lft.to/lastmile_qr_scan", "ios": "https://dc.lft.to/lastmile_qr_scan"}, "fusion_lon": 0.0, "name": "c9850835ae0bcdc4b4d249d6b277780d", "lon": -77.01183133333333, "is_disabled": 0, "type": "electric_scooter"}, {"bike_id": "0ac7470ebc79dbeef244c3b49aae5d86", "lat": 38.9052775, "is_reserved": 0, "fusion_lat": 0.0, "rental_uris": {"android": "https://dc.lft.to/lastmile_qr_scan", "ios": "https://dc.lft.to/lastmile_qr_scan"}, "fusion_lon": 0.0, "name": "0ac7470ebc79dbeef244c3b49aae5d86", "lon": -77.0435565, "is_disabled": 0, "type": "electric_scooter"}, {"bike_id": "1cf340bcff84680bea9ba47d5ecc33db", "lat": 38.92647633333333, "is_reserved": 0, "fusion_lat": 0.0, "rental_uris": {"android": "https://dc.lft.to/lastmile_qr_scan", "ios": "https://dc.lft.to/lastmile_qr_scan"}, "fusion_lon": 0.0, "name": "1cf340bcff84680bea9ba47d5ecc33db", "lon": -77.02474666666667, "is_disabled": 0, "type": "electric_scooter"}, {"bike_id": "be3a1e9c39c1d382173c81097966cae9", "lat": 38.919214333333336, "is_reserved": 0, "fusion_lat": 0.0, "rental_uris": {"android": "https://dc.lft.to/lastmile_qr_scan", "ios": "https://dc.lft.to/lastmile_qr_scan"}, "fusion_lon": 0.0, "name": "be3a1e9c39c1d382173c81097966cae9", "lon": -77.00932233333333, "is_disabled": 0, "type": "electric_scooter"}, {"bike_id": "dff9943a5d3d9556c2ba03c6fa14f2c1", "lat": 38.902235, "is_reserved": 0, "fusion_lat": 0.0, "rental_uris": {"android": "https://dc.lft.to/lastmile_qr_scan", "ios": "https://dc.lft.to/lastmile_qr_scan"}, "fusion_lon": 0.0, "name": "dff9943a5d3d9556c2ba03c6fa14f2c1", "lon": -77.03729833333334, "is_disabled": 0, "type": "electric_scooter"}, {"bike_id": "bcb4a9cdc05ee40f9e0aa82cd4238d36", "lat": 38.900064666666665, "is_reserved": 0, "fusion_lat": 0.0, "rental_uris": {"android": "https://dc.lft.to/lastmile_qr_scan", "ios": "https://dc.lft.to/lastmile_qr_scan"}, "fusion_lon": 0.0, "name": "bcb4a9cdc05ee40f9e0aa82cd4238d36", "lon": -77.0447105, "is_disabled": 0, "type": "electric_scooter"}, {"bike_id": "1dd644f868a3e89e638da6a4c6176cc3", "lat": 38.9003635, "is_reserved": 0, "fusion_lat": 0.0, "rental_uris": {"android": "https://dc.lft.to/lastmile_qr_scan", "ios": "https://dc.lft.to/lastmile_qr_scan"}, "fusion_lon": 0.0, "name": "1dd644f868a3e89e638da6a4c6176cc3", "lon": -76.9883695, "is_disabled": 0, "type": "electric_scooter"}, {"bike_id": "e685560944ccf790e5440fce3ade1462", "lat": 38.87484283333333, "is_reserved": 0, "fusion_lat": 0.0, "rental_uris": {"android": "https://dc.lft.to/lastmile_qr_scan", "ios": "https://dc.lft.to/lastmile_qr_scan"}, "fusion_lon": 0.0, "name": "e685560944ccf790e5440fce3ade1462", "lon": -76.9998155, "is_disabled": 0, "type": "electric_scooter"}, {"bike_id": "346c387b70e68c752a25372e0c89279c", "lat": 38.823699500000004, "is_reserved": 0, "fusion_lat": 0.0, "rental_uris": {"android": "https://dc.lft.to/lastmile_qr_scan", "ios": "https://dc.lft.to/lastmile_qr_scan"}, "fusion_lon": 0.0, "name": "346c387b70e68c752a25372e0c89279c", "lon": -77.0021945, "is_disabled": 0, "type": "electric_bike"}, {"bike_id": "c7845ac7ac969df16530a4f52968210b", "lat": 38.85936, "is_reserved": 0, "fusion_lat": 0.0, "rental_uris": {"android": "https://dc.lft.to/lastmile_qr_scan", "ios": "https://dc.lft.to/lastmile_qr_scan"}, "fusion_lon": 0.0, "name": "c7845ac7ac969df16530a4f52968210b", "lon": -77.11833233333333, "is_disabled": 0, "type": "electric_bike"}, {"bike_id": "949cf1f6f39342e26ae021054af18167", "lat": 38.923741166666666, "is_reserved": 0, "fusion_lat": 0.0, "rental_uris": {"android": "https://dc.lft.to/lastmile_qr_scan", "ios": "https://dc.lft.to/lastmile_qr_scan"}, "fusion_lon": 0.0, "name": "949cf1f6f39342e26ae021054af18167", "lon": -77.05174966666667, "is_disabled": 0, "type": "electric_scooter"}, {"bike_id": "bf150c95d543769f52bdf3b4de62954b", "lat": 38.907442, "is_reserved": 0, "fusion_lat": 0.0, "rental_uris": {"android": "https://dc.lft.to/lastmile_qr_scan", "ios": "https://dc.lft.to/lastmile_qr_scan"}, "fusion_lon": 0.0, "name": "bf150c95d543769f52bdf3b4de62954b", "lon": -77.0689855, "is_disabled": 0, "type": "electric_scooter"}, {"bike_id": "934e1eec7b05ca8cfd65591777a3572a", "lat": 38.87453216666667, "is_reserved": 0, "fusion_lat": 0.0, "rental_uris": {"android": "https://dc.lft.to/lastmile_qr_scan", "ios": "https://dc.lft.to/lastmile_qr_scan"}, "fusion_lon": 0.0, "name": "934e1eec7b05ca8cfd65591777a3572a", "lon": -77.00065466666666, "is_disabled": 0, "type": "electric_scooter"}, {"bike_id": "d8fbc7bbd49c24b1015445b701ddb825", "lat": 38.957809833333336, "is_reserved": 0, "fusion_lat": 0.0, "rental_uris": {"android": "https://dc.lft.to/lastmile_qr_scan", "ios": "https://dc.lft.to/lastmile_qr_scan"}, "fusion_lon": 0.0, "name": "d8fbc7bbd49c24b1015445b701ddb825", "lon": -77.02468133333333, "is_disabled": 0, "type": "electric_scooter"},