{"data": {"bikes": [{"fusion_lat": 0.0, "name": "2135fccd99fb39c3e2a5e5c1efad4565", "is_disabled": 0, "rental_uris": {"android": "https://dc.lft.to/lastmile_qr_scan", "ios": "https://dc.lft.to/lastmile_qr_scan"}, "fusion_lon": 0.0, "lat": 38.904017333333336, "bike_id": "2135fccd99fb39c3e2a5e5c1efad4565", "type": "electric_scooter", "is_reserved": 0, "lon": -77.067869}, {"fusion_lat": 0.0, "name": "214ce66a771a45f04f30f162d920e42a", "is_disabled": 0, "rental_uris": {"android": "https://dc.lft.to/lastmile_qr_scan", "ios": "https://dc.lft.to/lastmile_qr_scan"}, "fusion_lon": 0.0, "lat": 38.897125, "bike_id": "214ce66a771a45f04f30f162d920e42a", "type": "electric_scooter", "is_reserved": 0, "lon": -77.0084215}, {"fusion_lat": 0.0, "name": "f32f3f8e01b627d6cd329a2bedc60fe1", "is_disabled": 0, "rental_uris": {"android": "https://dc.lft.to/lastmile_qr_scan", "ios": "https://dc.lft.to/lastmile_qr_scan"}, "fusion_lon": 0.0, "lat": 38.89996333333333, "bike_id": "f32f3f8e01b627d6cd329a2bedc60fe1", "type": "electric_scooter", "is_reserved": 0, "lon": -77.0233075}, {"fusion_lat": 0.0, "name": "482b55903b1f365fe5ebfbe8bfdab12e", "is_disabled": 0, "rental_uris": {"android": "https://dc.lft.to/lastmile_qr_scan", "ios": "https://dc.lft.to/lastmile_qr_scan"}, "fusion_lon": 0.0, "lat": 38.90250533333333, "bike_id": "482b55903b1f365fe5ebfbe8bfdab12e", "type": "electric_scooter", "is_reserved": 0, "lon": -77.0068305}, {"fusion_lat": 0.0, "name": "51e2e5863e2c5391363bbf3211ac0da5", "is_disabled": 0, "rental_uris": {"android": "https://dc.lft.to/lastmile_qr_scan", "ios": "https://dc.lft.to/lastmile_qr_scan"}, "fusion_lon": 0.0, "lat": 38.90597916666667, "bike_id": "51e2e5863e2c5391363bbf3211ac0da5", "type": "electric_scooter", "is_reserved": 0, "lon": -76.9880185}, {"fusion_lat": 0.0, "name": "9a95f3f21e28c09ca14e134552e7719f", "is_disabled": 0, "rental_uris": {"android": "https://dc.lft.to/lastmile_qr_scan", "ios": "https://dc.lft.to/lastmile_qr_scan"}, "fusion_lon": 0.0, "lat": 38.816023666666666, "bike_id": "9a95f3f21e28c09ca14e134552e7719f", "type": "electric_bike", "is_reserved": 0, "lon": -77.050544}, {"fusion_lat": 0.0, "name": "6c7df2222a8e0373c2637cd624dbb1fc", "is_disabled": 0, "rental_uris": {"android": "https://dc.lft.to/lastmile_qr_scan", "ios": "https://dc.lft.to/lastmile_qr_scan"}, "fusion_lon": 0.0, "lat": 38.89545916666667, "bike_id": "6c7df2222a8e0373c2637cd624dbb1fc", "type": "electric_scooter", "is_reserved": 0, "lon": -76.98210816666666}, {"fusion_lat": 0.0, "name": "1d8f617ee7f0e52faf7ae6d9c82a0c59", "is_disabled": 0, "rental_uris": {"android": "https://dc.lft.to/lastmile_qr_scan", "ios": "https://dc.lft.to/lastmile_qr_scan"}, "fusion_lon": 0.0, "lat": 38.916177833333336, "bike_id": "1d8f617ee7f0e52faf7ae6d9c82a0c59", "type": "electric_scooter", "is_reserved": 0, "lon": -77.01123466666667}, {"fusion_lat": 0.0, "name": "ed7f3cc10d60d98675d5251d8ecc4185", "is_disabled": 0, "rental_uris": {"android": "https://dc.lft.to/lastmile_qr_scan", "ios": "https://dc.lft.to/lastmile_qr_scan"}, "fusion_lon": 0.0, "lat": 38.96442566666666, "bike_id": "ed7f3cc10d60d98675d5251d8ecc4185", "type": "electric_bike", "is_reserved": 0, "lon": -77.03164433333333}, {"fusion_lat": 0.0, "name": "483142a0b11c4170281a194f6705eb8d", "is_disabled": 0, "rental_uris": {"android": "https://dc.lft.to/lastmile_qr_scan", "ios": "https://dc.lft.to/lastmile_qr_scan"}, "fusion_lon": 0.0, "lat": 38.90930816666667, "bike_id": "483142a0b11c4170281a194f6705eb8d", "type": "electric_scooter", "is_reserved": 0, "lon": -77.04565183333334}, {"fusion_lat": 0.0, "name": "fc79bdc324d797e4b0f08e603cf93492", "is_disabled": 0, "rental_uris": {"android": "https://dc.lft.to/lastmile_qr_scan", "ios": "https://dc.lft.to/lastmile_qr_scan"}, "fusion_lon": 0.0, "lat": 38.89619416666667, "bike_id": "fc79bdc324d797e4b0f08e603cf93492", "type": "electric_scooter", "is_reserved": 0, "lon": -77.03071616666666}, {"fusion_lat": 0.0, "name": "58063bb75e091044f418e7c4970a53dd", "is_disabled": 0, "rental_uris": {"android": "https://dc.lft.to/lastmile_qr_scan", "ios": "https://dc.lft.to/lastmile_qr_scan"}, "fusion_lon": 0.0, "lat": 38.8987975, "bike_id": "58063bb75e091044f418e7c4970a53dd", "type": "electric_scooter", "is_reserved": 0, "lon": -77.05275216666666}, {"fusion_lat": 0.0, "name": "1974751929e53cb62ca903eb1e748bd0", "is_disabled": 0, "rental_uris": {"android": "https://dc.lft.to/lastmile_qr_scan", "ios": "https://dc.lft.to/lastmile_qr_scan"}, "fusion_lon": 0.0, "lat": 38.94086683333333, "bike_id": "1974751929e53cb62ca903eb1e748bd0", "type": "electric_scooter", "is_reserved": 0, "lon": -77.0618285}, {"fusion_lat": 0.0, "name": "7553f8a00e210a2c6ec126745e8b1edf", "is_disabled": 0, "rental_uris": {"android": "https://dc.lft.to/lastmile_qr_scan", "ios": "https://dc.lft.to/lastmile_qr_scan"}, "fusion_lon": 0.0, "lat": 38.88398, "bike_id": "7553f8a00e210a2c6ec126745e8b1edf", "type": "electric_scooter", "is_reserved": 0, "lon": -76.93046516666666}, {"fusion_lat": 0.0, "name": "c0bed58abefa9bff3cf06d0ab033411e", "is_disabled": 0, "rental_uris": {"android": "https://dc.lft.to/lastmile_qr_scan", "ios": "https://dc.lft.to/lastmile_qr_scan"}, "fusion_lon": 0.0, "lat": 38.9306, "bike_id": "c0bed58abefa9bff3cf06d0ab033411e", "type": "electric_scooter", "is_reserved": 0, "lon": -77.02325316666666}, {"fusion_lat": 0.0, "name": "71b185f699bfa4a13efcf7c46266b22c", "is_disabled": 0, "rental_uris": {"android": "https://dc.lft.to/lastmile_qr_scan", "ios": "https://dc.lft.to/lastmile_qr_scan"}, "fusion_lon": 0.0, "lat": 38.9217985, "bike_id": "71b185f699bfa4a13efcf7c46266b22c", "type": "electric_scooter", "is_reserved": 0, "lon": -77.03824316666666}, {"fusion_lat": 0.0, "name": "64836ef4f8da785aef20df4236ac8d9c", "is_disabled": 0, "rental_uris": {"android": "https://dc.lft.to/lastmile_qr_scan", "ios": "https://dc.lft.to/lastmile_qr_scan"}, "fusion_lon": 0.0, "lat": 38.92320933333333, "bike_id": "64836ef4f8da785aef20df4236ac8d9c", "type": "electric_scooter", "is_reserved": 0, "lon": -77.04392133333333}, {"fusion_lat": 0.0, "name": "5cdbf64d279748bf086ac56c0af301d3", "is_disabled": 0, "rental_uris": {"android": "https://dc.lft.to/lastmile_qr_scan", "ios": "https://dc.lft.to/lastmile_qr_scan"}, "fusion_lon": 0.0, "lat": 38.9141745, "bike_id": "5cdbf64d279748bf086ac56c0af301d3", "type": "electric_scooter", "is_reserved": 0, "lon": -77.03170583333333}, {"fusion_lat": 0.0, "name": "68b4296736063c5a4b2c4cf3fcb923ed", "is_disabled": 0, "rental_uris": {"android": "https://dc.lft.to/lastmile_qr_scan", "ios": "https://dc.lft.to/lastmile_qr_scan"}, "fusion_lon": 0.0, "lat": 38.948972833333336, "bike_id": "68b4296736063c5a4b2c4cf3fcb923ed", "type": "electric_bike", "is_reserved": 0, "lon": -76.96372416666667}, {"fusion_lat": 0.0, "name": "d828a8dd0eee685949812f5901b478ae", "is_disabled": 0, "rental_uris": {"android": "https://dc.lft.to/lastmile_qr_scan", "ios": "https://dc.lft.to/lastmile_qr_scan"}, "fusion_lon": 0.0, "lat": 38.915737, "bike_id": "d828a8dd0eee685949812f5901b478ae", "type": "electric_scooter", "is_reserved": 0, "lon": -77.03197333333334}, {"fusion_lat": 0.0, "name": "d3f257894790518bad42665a4126ae10", "is_disabled": 0, "rental_uris": {"android": "https://dc.lft.to/lastmile_qr_scan", "ios": "https://dc.lft.to/lastmile_qr_scan"}, "fusion_lon": 0.0, "lat": 38.923994666666665, "bike_id": "d3f257894790518bad42665a4126ae10", "type": "electric_scooter", "is_reserved": 0, "lon": -77.042962}, {"fusion_lat": 0.0, "name": "481a370489076db9713c6a076d51ff8c", "is_disabled": 0, "rental_uris": {"android": "https://dc.lft.to/lastmile_qr_scan", "ios": "https://dc.lft.to/lastmile_qr_scan"}, "fusion_lon": 0.0, "lat": 38.9559545, "bike_id": "481a370489076db9713c6a076d51ff8c", "type": "electric_bike", "is_reserved": 0, "lon": -76.9953465}, {"fusion_lat": 0.0, "name": "c5020adb3e0ae502337b781627596f16", "is_disabled": 0, "rental_uris": {"android": "https://dc.lft.to/lastmile_qr_scan", "ios": "https://dc.lft.to/lastmile_qr_scan"}, "fusion_lon": 0.0, "lat": 38.841309, "bike_id": "c5020adb3e0ae502337b781627596f16", "type": "electric_bike", "is_reserved": 0, "lon": -77.06312466666667}, {"fusion_lat": 0.0, "name": "ced697a24e4096de8b75cf41abcf7d27", "is_disabled": 0, "rental_uris": {"android": "https://dc.lft.to/lastmile_qr_scan", "ios": "https://dc.lft.to/lastmile_qr_scan"}, "fusion_lon": 0.0, "lat": 38.8999665, "bike_id": "ced697a24e4096de8b75cf41abcf7d27", "type": "electric_scooter", "is_reserved": 0, "lon": -76.99939866666666}, {"fusion_lat": 0.0, "name": "312c017a2295448fa92ccb01bd7d8911", "is_disabled": 0, "rental_uris": {"android": "https://dc.lft.to/lastmile_qr_scan", "ios": "https://dc.lft.to/lastmile_qr_scan"}, "fusion_lon": 0.0, "lat": 38.907198666666666, "bike_id": "312c017a2295448fa92ccb01bd7d8911", "type": "electric_scooter", "is_reserved": 0, "lon": -77.04212033333333}, {"fusion_lat": 0.0, "name": "5c0d2bdaab7caa6deb45f98d2b2859a7", "is_disabled": 0, "rental_uris": {"android": "https://dc.lft.to/lastmile_qr_scan", "ios": "https://dc.lft.to/lastmile_qr_scan"}, "fusion_lon": 0.0, "lat": 38.89843333333334, "bike_id": "5c0d2bdaab7caa6deb45f98d2b2859a7", "type": "electric_scooter", "is_reserved": 0, "lon": -77.03179783333333}, {"fusion_lat": 0.0, "name": "168cf249cc404290cca2ef9f8c9a8100", "is_disabled": 0, "rental_uris": {"android": "https://dc.lft.to/lastmile_qr_scan", "ios": "https://dc.lft.to/lastmile_qr_scan"}, "fusion_lon": 0.0, "lat": 38.914205, "bike_id": "168cf249cc404290cca2ef9f8c9a8100", "type": "electric_scooter", "is_reserved": 0, "lon": -77.0317105}, {"fusion_lat": 0.0, "name": "2231725eadffc786359b642ac3c19df8", "is_disabled": 0, "rental_uris": {"android": "https://dc.lft.to/lastmile_qr_scan", "ios": "https://dc.lft.to/lastmile_qr_scan"}, "fusion_lon": 0.0, "lat": 38.9429465, "bike_id": "2231725eadffc786359b642ac3c19df8", "type": "electric_scooter", "is_reserved": 0, "lon": -77.0216815}, {"fusion_lat": 0.0, "name": "048669f689d0ad1047b22fccb3b54b08", "is_disabled": 0, "rental_uris": {"android": "https://dc.lft.to/lastmile_qr_scan", "ios": "https://dc.lft.to/lastmile_qr_scan"}, "fusion_lon": 0.0, "lat": 38.8935325, "bike_id": "048669f689d0ad1047b22fccb3b54b08", "type": "electric_scooter", "is_reserved": 0, "lon": -77.003358}, {"fusion_lat": 0.0, "name": "16c030418fd069f814312683bcd82f30", "is_disabled": 0, "rental_uris": {"android": "https://dc.lft.to/lastmile_qr_scan", "ios": "https://dc.lft.to/lastmile_qr_scan"}, "fusion_lon": 0.0, "lat": 38.899659, "bike_id": "16c030418fd069f814312683bcd82f30", "type": "electric_scooter", "is_reserved": 0, "lon": -76.98167116666667}, {"fusion_lat": 0.0, "name": "78ed146dcd66d43260945f58026c83c9", "is_disabled": 0, "rental_uris": {"android": "https://dc.lft.to/lastmile_qr_scan", "ios": "https://dc.lft.to/lastmile_qr_scan"}, "fusion_lon": 0.0, "lat": 38.88532133333333, "bike_id": "78ed146dcd66d43260945f58026c83c9", "type": "electric_bike", "is_reserved": 0, "lon": -77.12190583333333}, {"fusion_lat": 0.0, "name": "0e7114f3204e915d6337d766d8be19ef", "is_disabled": 0, "rental_uris": {"android": "https://dc.lft.to/lastmile_qr_scan", "ios": "https://dc.lft.to/lastmile_qr_scan"}, "fusion_lon": 0.0, "lat": 38.9312275, "bike_id": "0e7114f3204e915d6337d766d8be19ef", "type": "electric_scooter", "is_reserved": 0, "lon": -76.984431}, {"fusion_lat": 0.0, "name": "7bd764d9c59cc1ff88e0caa7a20ccdd9", "is_disabled": 0, "rental_uris": {"android": "https://dc.lft.to/lastmile_qr_scan", "ios": "https://dc.lft.to/lastmile_qr_scan"}, "fusion_lon": 0.0, "lat": 38.905747166666664, "bike_id": "7bd764d9c59cc1ff88e0caa7a20ccdd9", "type": "electric_scooter", "is_reserved": 0, "lon": -77.00578433333334}, {"fusion_lat": 0.0, "name": "5c68d74b6a2c8fdf3a2382d2df92a1b2", "is_disabled": 0, "rental_uris": {"android": "https://dc.lft.to/lastmile_qr_scan", "ios": "https://dc.lft.to/lastmile_qr_scan"}, "fusion_lon": 0.0, "lat": 38.87300533333333, "bike_id": "5c68d74b6a2c8fdf3a2382d2df92a1b2", "type": "electric_scooter", "is_reserved": 0, "lon": -77.00983733333334}, {"fusion_lat": 0.0, "name": "c9499c4212424f18fd2e6591b138b78b", "is_disabled": 0, "rental_uris": {"android": "https://dc.lft.to/lastmile_qr_scan", "ios": "https://dc.lft.to/lastmile_qr_scan"}, "fusion_lon": 0.0, "lat": 38.896240166666665, "bike_id": "c9499c4212424f18fd2e6591b138b78b", "type": "electric_scooter", "is_reserved": 0, "lon": -77.02616983333333}, {"fusion_lat": 0.0, "name": "cacfaae9c935ba82b80c2233257ad8bf", "is_disabled": 0, "rental_uris": {"android": "https://dc.lft.to/lastmile_qr_scan", "ios": "https://dc.lft.to/lastmile_qr_scan"}, "fusion_lon": 0.0, "lat": 38.91995883333333, "bike_id": "cacfaae9c935ba82b80c2233257ad8bf", "type": "electric_scooter", "is_reserved": 0, "lon": -77.07190533333333}, {"fusion_lat": 0.0, "name": "9fb39bede909c3fc89bb059d05f030be", "is_disabled": 0, "rental_uris": {"android": "https://dc.lft.to/lastmile_qr_scan", "ios": "https://dc.lft.to/lastmile_qr_scan"}, "fusion_lon": 0.0, "lat": 38.883009, "bike_id": "9fb39bede909c3fc89bb059d05f030be", "type": "electric_scooter", "is_reserved": 0, "lon": -76.94854016666666}, {"fusion_lat": 0.0, "name": "4e09bb14bfdeeccd103ec25885d96f65", "is_disabled": 0, "rental_uris": {"android": "https://dc.lft.to/lastmile_qr_scan", "ios": "https://dc.lft.to/lastmile_qr_scan"}, "fusion_lon": 0.0, "lat": 38.884243833333336, "bike_id": "4e09bb14bfdeeccd103ec25885d96f65", "type": "electric_scooter", "is_reserved": 0, "lon": -76.95745466666666}, {"fusion_lat": 0.0, "name": "b146dd1fa000228083e5fa580eb5a4e3", "is_disabled": 0, "rental_uris": {"android": "https://dc.lft.to/lastmile_qr_scan", "ios": "https://dc.lft.to/lastmile_qr_scan"}, "fusion_lon": 0.0, "lat": 38.898415, "bike_id": "b146dd1fa000228083e5fa580eb5a4e3", "type": "electric_scooter", "is_reserved": 0, "lon": -77.0133685}, {"fusion_lat": 0.0, "name": "212b5f8b7917e33daafcdbc061f9506a", "is_disabled": 0, "rental_uris": {"android": "https://dc.lft.to/lastmile_qr_scan", "ios": "https://dc.lft.to/lastmile_qr_scan"}, "fusion_lon": 0.0, "lat": 38.92519266666667, "bike_id": "212b5f8b7917e33daafcdbc061f9506a", "type": "electric_scooter", "is_reserved": 0, "lon": -77.02286083333334}, {"fusion_lat": 0.0, "name": "24ce2df548cb97678867bcd32c9043c6", "is_disabled": 0, "rental_uris": {"android": "https://dc.lft.to/lastmile_qr_scan", "ios": "https://dc.lft.to/lastmile_qr_scan"}, "fusion_lon": 0.0, "lat": 38.882058, "bike_id": "24ce2df548cb97678867bcd32c9043c6", "type": "electric_scooter", "is_reserved": 0, "lon": -77.01770216666667}, {"fusion_lat": 0.0, "name": "27f8c6e36ed747d63aa4dcb50fa90243", "is_disabled": 0, "rental_uris": {"android": "https://dc.lft.to/lastmile_qr_scan", "ios": "https://dc.lft.to/lastmile_qr_scan"}, "fusion_lon": 0.0, "lat": 38.94293016666666, "bike_id": "27f8c6e36ed747d63aa4dcb50fa90243", "type": "electric_scooter", "is_reserved": 0, "lon": -77.021749}, {"fusion_lat": 0.0, "name": "b5abfb2108d9dfe17d91ff4790223885", "is_disabled": 0, "rental_uris": {"android": "https://dc.lft.to/lastmile_qr_scan", "ios": "https://dc.lft.to/lastmile_qr_scan"}, "fusion_lon": 0.0, "lat": 38.95221816666667, "bike_id": "b5abfb2108d9dfe17d91ff4790223885", "type": "electric_scooter", "is_reserved": 0, "lon": -77.08217}, {"fusion_lat": 0.0, "name": "c8bad1cd35606e1a898a1044dc04b4d7", "is_disabled": 0, "rental_uris": {"android": "https://dc.lft.to/lastmile_qr_scan", "ios": "https://dc.lft.to/lastmile_qr_scan"}, "fusion_lon": 0.0, "lat": 38.907766, "bike_id": "c8bad1cd35606e1a898a1044dc04b4d7", "type": "electric_scooter", "is_reserved": 0, "lon": -77.05598683333334}, {"fusion_lat": 0.0, "name": "4da9eb95c1f98f88b395661cef788f5c", "is_disabled": 0, "rental_uris": {"android": "https://dc.lft.to/lastmile_qr_scan", "ios": "https://dc.lft.to/lastmile_qr_scan"}, "fusion_lon": 0.0, "lat": 38.938804833333336, "bike_id": "4da9eb95c1f98f88b395661cef788f5c", "type": "electric_scooter", "is_reserved": 0, "lon": -77.02478083333334}, {"fusion_lat": 0.0, "name": "509144448b0b98756a343e06766f3146", "is_disabled": 0, "rental_uris": {"android": "https://dc.lft.to/lastmile_qr_scan", "ios": "https://dc.lft.to/lastmile_qr_scan"}, "fusion_lon": 0.0, "lat": 38.93252833333333, "bike_id": "509144448b0b98756a343e06766f3146", "type": "electric_scooter", "is_reserved": 0, "lon": -77.02054583333333}, {"fusion_lat": 0.0, "name": "d8b5c2e73051861bcd5d0ba7fb34e71d", "is_disabled": 0, "rental_uris": {"android": "https://dc.lft.to/lastmile_qr_scan", "ios": "https://dc.lft.to/lastmile_qr_scan"}, "fusion_lon": 0.0, "lat": 38.90034283333333, "bike_id": "d8b5c2e73051861bcd5d0ba7fb34e71d", "type": "electric_scooter", "is_reserved": 0, "lon": -77.035059}, {"fusion_lat": 0.0, "name": "ff3fd7aaad8913cd822decda45498875", "is_disabled": 0, "rental_uris": {"android": "https://dc.lft.to/lastmile_qr_scan", "ios": "https://dc.lft.to/lastmile_qr_scan"}, "fusion_lon": 0.0, "lat": 38.924167, "bike_id": "ff3fd7aaad8913cd822decda45498875", "type": "electric_scooter", "is_reserved": 0, "lon": -76.99743883333333}, {"fusion_lat": 0.0, "name": "4b969e1ff39cf7757c6c183ea800ceee", "is_disabled": 0, "rental_uris": {"android": "https://dc.lft.to/lastmile_qr_scan", "ios": "https://dc.lft.to/lastmile_qr_scan"}, "fusion_lon": 0.0, "lat": 38.879463333333334, "bike_id": "4b969e1ff39cf7757c6c183ea800ceee", "type": "electric_scooter", "is_reserved": 0, "lon": -77.00879783333333}, {"fusion_lat": 0.0, "name": "e1747ab2a69cab83ec893e00d4580a31", "is_disabled": 0, "rental_uris": {"android": "https://dc.lft.to/lastmile_qr_scan", "ios": "https://dc.lft.to/lastmile_qr_scan"}, "fusion_lon": 0.0, "lat": 38.854163, "bike_id": "e1747ab2a69cab83ec893e00d4580a31", "type": "electric_bike", "is_reserved": 0, "lon": -77.12082483333333}, {"fusion_lat": 0.0, "name": "31d70391ce44355d988dad83611b1cb4", "is_disabled": 0, "rental_uris": {"android": "https://dc.lft.to/lastmile_qr_scan", "ios": "https://dc.lft.to/lastmile_qr_scan"}, "fusion_lon": 0.0, "lat": 38.89219416666667, "bike_id": "31d70391ce44355d988dad83611b1cb4", "type": "electric_scooter", "is_reserved": 0, "lon": -77.03314666666667}, {"fusion_lat": 0.0, "name": "84645d73a0fd226093b73995f400017b", "is_disabled": 0, "rental_uris": {"android": "https://dc.lft.to/lastmile_qr_scan", "ios": "https://dc.lft.to/lastmile_qr_scan"}, "fusion_lon": 0.0, "lat": 38.93025983333333, "bike_id": "84645d73a0fd226093b73995f400017b", "type": "electric_scooter", "is_reserved": 0, "lon": -77.03801183333333}, {"fusion_lat": 0.0, "name": "e42c52203fb09d9415af2f3f814df09a", "is_disabled": 0, "rental_uris": {"android": "https://dc.lft.to/lastmile_qr_scan", "ios": "https://dc.lft.to/lastmile_qr_scan"}, "fusion_lon": 0.0, "lat": 38.91796133333333, "bike_id": "e42c52203fb09d9415af2f3f814df09a", "type": "electric_scooter", "is_reserved": 0, "lon": -77.0345235}, {"fusion_lat": 0.0, "name": "e3834fd65ff23934548a210258ca9d3f", "is_disabled": 0, "rental_uris": {"android": "https://dc.lft.to/lastmile_qr_scan", "ios": "https://dc.lft.to/lastmile_qr_scan"}, "fusion_lon": 0.0, "lat": 38.901424666666664, "bike_id": "e3834fd65ff23934548a210258ca9d3f", "type": "electric_scooter", "is_reserved": 0, "lon": -77.060762}, {"fusion_lat": 0.0, "name": "242f99bb27742755056618b4dd37d325", "is_disabled": 0, "rental_uris": {"android": "https://dc.lft.to/lastmile_qr_scan", "ios": "https://dc.lft.to/lastmile_qr_scan"}, "fusion_lon": 0.0, "lat": 38.9035375, "bike_id": "242f99bb27742755056618b4dd37d325", "type": "electric_scooter", "is_reserved": 0, "lon": -76.97478666666666}, {"fusion_lat": 0.0, "name": "8228d74b70a7a233493307a001e3cf30", "is_disabled": 0, "rental_uris": {"android": "https://dc.lft.to/lastmile_qr_scan", "ios": "https://dc.lft.to/lastmile_qr_scan"}, "fusion_lon": 0.0, "lat": 38.883336666666665, "bike_id": "8228d74b70a7a233493307a001e3cf30", "type": "electric_scooter", "is_reserved": 0, "lon": -77.01361216666666}, {"fusion_lat": 0.0, "name": "c5621d712e5d6f09103a746e9db8ebc5", "is_disabled": 0, "rental_uris": {"android": "https://dc.lft.to/lastmile_qr_scan", "ios": "https://dc.lft.to/lastmile_qr_scan"}, "fusion_lon": 0.0, "lat": 38.894792833333334, "bike_id": "c5621d712e5d6f09103a746e9db8ebc5", "type": "electric_scooter", "is_reserved": 0, "lon": -77.039574}, {"fusion_lat": 0.0, "name": "1bd03b1d24ebaa02daa0f509d5788f9e", "is_disabled": 0, "rental_uris": {"android": "https://dc.lft.to/lastmile_qr_scan", "ios": "https://dc.lft.to/lastmile_qr_scan"}, "fusion_lon": 0.0, "lat": 38.90868433333333, "bike_id": "1bd03b1d24ebaa02daa0f509d5788f9e", "type": "electric_scooter", "is_reserved": 0, "lon": -77.05421683333333}, {"fusion_lat": 0.0, "name": "1fd5cf53af1243dd580621c496742198", "is_disabled": 0, "rental_uris": {"android": "https://dc.lft.to/lastmile_qr_scan", "ios": "https://dc.lft.to/lastmile_qr_scan"}, "fusion_lon": 0.0, "lat": 38.89733316666667, "bike_id": "1fd5cf53af1243dd580621c496742198", "type": "electric_scooter", "is_reserved": 0, "lon": -77.0547205}, {"fusion_lat": 0.0, "name": "7a8681eb1e765e6ec4b799184d51d937", "is_disabled": 0, "rental_uris": {"android": "https://dc.lft.to/lastmile_qr_scan", "ios": "https://dc.lft.to/lastmile_qr_scan"}, "fusion_lon": 0.0, "lat": 38.923211333333334, "bike_id": "7a8681eb1e765e6ec4b799184d51d937", "type": "electric_scooter", "is_reserved": 0, "lon": -77.029696}, {"fusion_lat": 0.0, "name": "d10087a20f5ec8269991a4e67e898bee", "is_disabled": 0, "rental_uris": {"android": "https://dc.lft.to/lastmile_qr_scan", "ios": "https://dc.lft.to/lastmile_qr_scan"}, "fusion_lon": 0.0, "lat": 38.887673666666664, "bike_id": "d10087a20f5ec8269991a4e67e898bee", "type": "electric_scooter", "is_reserved": 0, "lon": -76.994661}, {"fusion_lat": 0.0, "name": "26f71da32f37b4c3e9eadffec7bd762a", "is_disabled": 0, "rental_uris": {"android": "https://dc.lft.to/lastmile_qr_scan", "ios": "https://dc.lft.to/lastmile_qr_scan"}, "fusion_lon": 0.0, "lat": 38.895369, "bike_id": "26f71da32f37b4c3e9eadffec7bd762a", "type": "electric_scooter", "is_reserved": 0, "lon": -77.028129}, {"fusion_lat": 0.0, "name": "48221a93b4e81fba090cf93fa5048e33", "is_disabled": 0, "rental_uris": {"android": "https://dc.lft.to/lastmile_qr_scan", "ios": "https://dc.lft.to/lastmile_qr_scan"}, "fusion_lon": 0.0, "lat": 38.915274333333336, "bike_id": "48221a93b4e81fba090cf93fa5048e33", "type": "electric_scooter", "is_reserved": 0, "lon": -77.0185545}, {"fusion_lat": 0.0, "name": "7c0439e1fb1fb9195b46825f9835052c", "is_disabled": 0, "rental_uris": {"android": "https://dc.lft.to/lastmile_qr_scan", "ios": "https://dc.lft.to/lastmile_qr_scan"}, "fusion_lon": 0.0, "lat": 38.937043333333335, "bike_id": "7c0439e1fb1fb9195b46825f9835052c", "type": "electric_scooter", "is_reserved": 0, "lon": -77.02398633333334}, {"fusion_lat": 0.0, "name": "eb0b2679aa2f2040f7d6be41aecb6518", "is_disabled": 0, "rental_uris": {"android": "https://dc.lft.to/lastmile_qr_scan", "ios": "https://dc.lft.to/lastmile_qr_scan"}, "fusion_lon": 0.0, "lat": 38.926038166666665, "bike_id": "eb0b2679aa2f2040f7d6be41aecb6518", "type": "electric_scooter", "is_reserved": 0, "lon": -77.02588183333333}, {"fusion_lat": 0.0, "name": "95d15137b043524a59b866ec567cfc3a", "is_disabled": 0, "rental_uris": {"android": "https://dc.lft.to/lastmile_qr_scan", "ios": "https://dc.lft.to/lastmile_qr_scan"}, "fusion_lon": 0.0, "lat": 38.9366025, "bike_id": "95d15137b043524a59b866ec567cfc3a", "type": "electric_scooter", "is_reserved": 0, "lon": -77.03656683333334}, {"fusion_lat": 0.0, "name": "88b3ac4cd03d0a2d943a05cdcf317231", "is_disabled": 0, "rental_uris": {"android": "https://dc.lft.to/lastmile_qr_scan", "ios": "https://dc.lft.to/lastmile_qr_scan"}, "fusion_lon": 0.0, "lat": 38.909524, "bike_id": "88b3ac4cd03d0a2d943a05cdcf317231", "type": "electric_scooter", "is_reserved": 0, "lon": -76.99881083333334}, {"fusion_lat": 0.0, "name": "0f4c015c8abdc9c4da1c7deb38a6acf6", "is_disabled": 0, "rental_uris": {"android": "https://dc.lft.to/lastmile_qr_scan", "ios": "https://dc.lft.to/lastmile_qr_scan"}, "fusion_lon": 0.0, "lat": 38.895581666666665, "bike_id": "0f4c015c8abdc9c4da1c7deb38a6acf6", "type": "electric_scooter", "is_reserved": 0, "lon": -77.03962583333333}, {"fusion_lat": 0.0, "name": "6e18bf84c0ac24f155ffd344287e1999", "is_disabled": 0, "rental_uris": {"android": "https://dc.lft.to/lastmile_qr_scan", "ios": "https://dc.lft.to/lastmile_qr_scan"}, "fusion_lon": 0.0, "lat": 38.927487166666666, "bike_id": "6e18bf84c0ac24f155ffd344287e1999", "type": "electric_scooter", "is_reserved": 0, "lon": -77.021292}, {"fusion_lat": 0.0, "name": "190fba08c49edafd40eef983baa029d4", "is_disabled": 0, "rental_uris": {"android": "https://dc.lft.to/lastmile_qr_scan", "ios": "https://dc.lft.to/lastmile_qr_scan"}, "fusion_lon": 0.0, "lat": 38.911331, "bike_id": "190fba08c49edafd40eef983baa029d4", "type": "electric_scooter", "is_reserved": 0, "lon": -77.0441375}, {"fusion_lat": 0.0, "name": "4ca90a56aff033488f77a19b50cf9bcf", "is_disabled": 0, "rental_uris": {"android": "https://dc.lft.to/lastmile_qr_scan", "ios": "https://dc.lft.to/lastmile_qr_scan"}, "fusion_lon": 0.0, "lat": 38.98061416666667, "bike_id": "4ca90a56aff033488f77a19b50cf9bcf", "type": "electric_scooter", "is_reserved": 0, "lon": -77.02638166666667}, {"fusion_lat": 0.0, "name": "4dafd0d72b96aba144a6953ca19fb9f0", "is_disabled": 0, "rental_uris": {"android": "https://dc.lft.to/lastmile_qr_scan", "ios": "https://dc.lft.to/lastmile_qr_scan"}, "fusion_lon": 0.0, "lat": 38.907205, "bike_id": "4dafd0d72b96aba144a6953ca19fb9f0", "type": "electric_scooter", "is_reserved": 0, "lon": -77.06899066666666}, {"fusion_lat": 0.0, "name": "ae15de00b8bed232d518de06995183c2", "is_disabled": 0, "rental_uris": {"android": "https://dc.lft.to/lastmile_qr_scan", "ios": "https://dc.lft.to/lastmile_qr_scan"}, "fusion_lon": 0.0, "lat": 38.91103183333333, "bike_id": "ae15de00b8bed232d518de06995183c2", "type": "electric_scooter", "is_reserved": 0, "lon": -77.04486766666666}, {"fusion_lat": 0.0, "name": "29b75be0598615fb816644e119910960", "is_disabled": 0, "rental_uris": {"android": "https://dc.lft.to/lastmile_qr_scan", "ios": "https://dc.lft.to/lastmile_qr_scan"}, "fusion_lon": 0.0, "lat": 38.91556816666667, "bike_id": "29b75be0598615fb816644e119910960", "type": "electric_scooter", "is_reserved": 0, "lon": -77.0325545}, {"fusion_lat": 0.0, "name": "bd77e7a561f526e4f19d5ecca861ed2a", "is_disabled": 0, "rental_uris": {"android": "https://dc.lft.to/lastmile_qr_scan", "ios": "https://dc.lft.to/lastmile_qr_scan"}, "fusion_lon": 0.0, "lat": 38.90971833333333, "bike_id": "bd77e7a561f526e4f19d5ecca861ed2a", "type": "electric_scooter", "is_reserved": 0, "lon": -77.03287966666667}, {"fusion_lat": 0.0, "name": "6cbe003f63d4735d3effc1fd07f4e239", "is_disabled": 0, "rental_uris": {"android": "https://dc.lft.to/lastmile_qr_scan", "ios": "https://dc.lft.to/lastmile_qr_scan"}, "fusion_lon": 0.0, "lat": 38.930854, "bike_id": "6cbe003f63d4735d3effc1fd07f4e239", "type": "electric_scooter", "is_reserved": 0, "lon": -77.03744533333334}, {"fusion_lat": 0.0, "name": "9969983585e398f438f4cc84b78da78d", "is_disabled": 0, "rental_uris": {"android": "https://dc.lft.to/lastmile_qr_scan", "ios": "https://dc.lft.to/lastmile_qr_scan"}, "fusion_lon": 0.0, "lat": 38.800161333333335, "bike_id": "9969983585e398f438f4cc84b78da78d", "type": "electric_bike", "is_reserved": 0, "lon": -77.0548345}, {"fusion_lat": 0.0, "name": "c24015c33c6c974c04d09c628de55ae4", "is_disabled": 0, "rental_uris": {"android": "https://dc.lft.to/lastmile_qr_scan", "ios": "https://dc.lft.to/lastmile_qr_scan"}, "fusion_lon": 0.0, "lat": 38.91641933333333, "bike_id": "c24015c33c6c974c04d09c628de55ae4", "type": "electric_scooter", "is_reserved": 0, "lon": -77.03200333333334}, {"fusion_lat": 0.0, "name": "361cb1b6dc0c033ededb55dfb292c880", "is_disabled": 0, "rental_uris": {"android": "https://dc.lft.to/lastmile_qr_scan", "ios": "https://dc.lft.to/lastmile_qr_scan"}, "fusion_lon": 0.0, "lat": 38.9077715, "bike_id": "361cb1b6dc0c033ededb55dfb292c880", "type": "electric_scooter", "is_reserved": 0, "lon": -77.03518133333333}, {"fusion_lat": 0.0, "name": "2cd993f950ce7ba145b5b11b78349148", "is_disabled": 0, "rental_uris": {"android": "https://dc.lft.to/lastmile_qr_scan", "ios": "https://dc.lft.to/lastmile_qr_scan"}, "fusion_lon": 0.0, "lat": 38.92230716666667, "bike_id": "2cd993f950ce7ba145b5b11b78349148", "type": "electric_scooter", "is_reserved": 0, "lon": -77.03424916666667}, {"fusion_lat": 0.0, "name": "cdb71e95bbb88c22da4309615cc79715", "is_disabled": 0, "rental_uris": {"android": "https://dc.lft.to/lastmile_qr_scan", "ios": "https://dc.lft.to/lastmile_qr_scan"}, "fusion_lon": 0.0, "lat": 38.90480566666667, "bike_id": "cdb71e95bbb88c22da4309615cc79715", "type": "electric_scooter", "is_reserved": 0, "lon": -77.04345816666667}, {"fusion_lat": 0.0, "name": "a4dccc44acd2113404d62e77a852dc4c", "is_disabled": 0, "rental_uris": {"android": "https://dc.lft.to/lastmile_qr_scan", "ios": "https://dc.lft.to/lastmile_qr_scan"}, "fusion_lon": 0.0, "lat": 38.864484166666664, "bike_id": "a4dccc44acd2113404d62e77a852dc4c", "type": "electric_scooter", "is_reserved": 0, "lon": -76.9799805}, {"fusion_lat": 0.0, "name": "830c2cfb64f93f4fd7fd244c5faee0f2", "is_disabled": 0, "rental_uris": {"android": "https://dc.lft.to/lastmile_qr_scan", "ios": "https://dc.lft.to/lastmile_qr_scan"}, "fusion_lon": 0.0, "lat": 38.892202833333336, "bike_id": "830c2cfb64f93f4fd7fd244c5faee0f2", "type": "electric_scooter", "is_reserved": 0, "lon": -77.02668133333333}, {"fusion_lat": 0.0, "name": "3804b8aa72cebfcbe94ce79707876b3b", "is_disabled": 0, "rental_uris": {"android": "https://dc.lft.to/lastmile_qr_scan", "ios": "https://dc.lft.to/lastmile_qr_scan"}, "fusion_lon": 0.0, "lat": 38.90273233333333, "bike_id": "3804b8aa72cebfcbe94ce79707876b3b", "type": "electric_scooter", "is_reserved": 0, "lon": -77.03849916666667}, {"fusion_lat": 0.0, "name": "4e63f71a146a43bd32aa055792971c79", "is_disabled": 0, "rental_uris": {"android": "https://dc.lft.to/lastmile_qr_scan", "ios": "https://dc.lft.to/lastmile_qr_scan"}, "fusion_lon": 0.0, "lat": 38.847256, "bike_id": "4e63f71a146a43bd32aa055792971c79", "type": "electric_scooter", "is_reserved": 0, "lon": -76.98250766666666}, {"fusion_lat": 0.0, "name": "894ec179132e6ecdb86f011094bbc11c", "is_disabled": 0, "rental_uris": {"android": "https://dc.lft.to/lastmile_qr_scan", "ios": "https://dc.lft.to/lastmile_qr_scan"}, "fusion_lon": 0.0, "lat": 38.9155585, "bike_id": "894ec179132e6ecdb86f011094bbc11c", "type": "electric_scooter", "is_reserved": 0, "lon": -77.03169466666667}, {"fusion_lat": 0.0, "name": "d3815d9b4e4ae46c749b32b73daef94a", "is_disabled": 0, "rental_uris": {"android": "https://dc.lft.to/lastmile_qr_scan", "ios": "https://dc.lft.to/lastmile_qr_scan"}, "fusion_lon": 0.0, "lat": 38.878826333333336, "bike_id": "d3815d9b4e4ae46c749b32b73daef94a", "type": "electric_scooter", "is_reserved": 0, "lon": -77.023174}, {"fusion_lat": 0.0, "name": "f141e77659c9aaa1cacc71e8a7a0ba5e", "is_disabled": 0, "rental_uris": {"android": "https://dc.lft.to/lastmile_qr_scan", "ios": "https://dc.lft.to/lastmile_qr_scan"}, "fusion_lon": 0.0, "lat": 38.91589583333333, "bike_id": "f141e77659c9aaa1cacc71e8a7a0ba5e", "type": "electric_scooter", "is_reserved": 0, "lon": -76.979946}, {"fusion_lat": 0.0, "name": "dceb4f8631d920c084de56af2025cafb", "is_disabled": 0, "rental_uris": {"android": "https://dc.lft.to/lastmile_qr_scan", "ios": "https://dc.lft.to/lastmile_qr_scan"}, "fusion_lon": 0.0, "lat": 38.896375166666665, "bike_id": "dceb4f8631d920c084de56af2025cafb", "type": "electric_scooter", "is_reserved": 0, "lon": -77.00887683333333}, {"fusion_lat": 0.0, "name": "35ad16c3acc1910a6701850da2ea6ba1", "is_disabled": 0, "rental_uris": {"android": "https://dc.lft.to/lastmile_qr_scan", "ios": "https://dc.lft.to/lastmile_qr_scan"}, "fusion_lon": 0.0, "lat": 38.917069166666664, "bike_id": "35ad16c3acc1910a6701850da2ea6ba1", "type": "electric_scooter", "is_reserved": 0, "lon": -77.02884583333334}, {"fusion_lat": 0.0, "name": "c842255d474f336114a294ce79a21965", "is_disabled": 0, "rental_uris": {"android": "https://dc.lft.to/lastmile_qr_scan", "ios": "https://dc.lft.to/lastmile_qr_scan"}, "fusion_lon": 0.0, "lat": 38.89838066666667, "bike_id": "c842255d474f336114a294ce79a21965", "type": "electric_scooter", "is_reserved": 0, "lon": -77.02849866666666}, {"fusion_lat": 0.0, "name": "3e3008e7cbf88ab36157315c76c0b9f6", "is_disabled": 0, "rental_uris": {"android": "https://dc.lft.to/lastmile_qr_scan", "ios": "https://dc.lft.to/lastmile_qr_scan"}, "fusion_lon": 0.0, "lat": 38.90239533333333, "bike_id": "3e3008e7cbf88ab36157315c76c0b9f6", "type": "electric_scooter", "is_reserved": 0, "lon": -77.001987}, {"fusion_lat": 0.0, "name": "3ddee5aa1e4a24ecc64412ec7770fa32", "is_disabled": 0, "rental_uris": {"android": "https://dc.lft.to/lastmile_qr_scan", "ios": "https://dc.lft.to/lastmile_qr_scan"}, "fusion_lon": 0.0, "lat": 38.9285625, "bike_id": "3ddee5aa1e4a24ecc64412ec7770fa32", "type": "electric_scooter", "is_reserved": 0, "lon": -77.035215}, {"fusion_lat": 0.0, "name": "cee8d86426ddb975dd2c5b48a6201715", "is_disabled": 0, "rental_uris": {"android": "https://dc.lft.to/lastmile_qr_scan", "ios": "https://dc.lft.to/lastmile_qr_scan"}, "fusion_lon": 0.0, "lat": 38.891046333333335, "bike_id": "cee8d86426ddb975dd2c5b48a6201715", "type": "electric_bike", "is_reserved": 0, "lon": -77.18420583333334}, {"fusion_lat": 0.0, "name": "9a51eaae5c4376d22cb2dc4f7f942e34", "is_disabled": 0, "rental_uris": {"android": "https://dc.lft.to/lastmile_qr_scan", "ios": "https://dc.lft.to/lastmile_qr_scan"}, "fusion_lon": 0.0, "lat": 38.91618066666667, "bike_id": "9a51eaae5c4376d22cb2dc4f7f942e34", "type": "electric_scooter", "is_reserved": 0, "lon": -77.02300483333333}, {"fusion_lat": 0.0, "name": "66be0430e00dbae65f96bbc77ec337ec", "is_disabled": 0, "rental_uris": {"android": "https://dc.lft.to/lastmile_qr_scan", "ios": "https://dc.lft.to/lastmile_qr_scan"}, "fusion_lon": 0.0, "lat": 38.85699666666667, "bike_id": "66be0430e00dbae65f96bbc77ec337ec", "type": "electric_scooter", "is_reserved": 0, "lon": -76.99599016666667}, {"fusion_lat": 0.0, "name": "10e2b052fccb2189c5bc8480e5939582", "is_disabled": 0, "rental_uris": {"android": "https://dc.lft.to/lastmile_qr_scan", "ios": "https://dc.lft.to/lastmile_qr_scan"}, "fusion_lon": 0.0, "lat": 38.8962475, "bike_id": "10e2b052fccb2189c5bc8480e5939582", "type": "electric_scooter", "is_reserved": 0, "lon": -76.98837783333333}, {"fusion_lat": 0.0, "name": "e7d7d0036b9c1f1df57e4a4947a5e930", "is_disabled": 0, "rental_uris": {"android": "https://dc.lft.to/lastmile_qr_scan", "ios": "https://dc.lft.to/lastmile_qr_scan"}, "fusion_lon": 0.0, "lat": 38.92855633333333, "bike_id": "e7d7d0036b9c1f1df57e4a4947a5e930", "type": "electric_scooter", "is_reserved": 0, "lon": -77.03100883333333}, {"fusion_lat": 0.0, "name": "781f9df03e14a2a1a0b470d874d00040", "is_disabled": 0, "rental_uris": {"android": "https://dc.lft.to/lastmile_qr_scan", "ios": "https://dc.lft.to/lastmile_qr_scan"}, "fusion_lon": 0.0, "lat": 38.895359, "bike_id": "781f9df03e14a2a1a0b470d874d00040", "type": "electric_scooter", "is_reserved": 0, "lon": -77.0120915}, {"fusion_lat": 0.0, "name": "11a21a916b7036f52a0894de5fb2f217", "is_disabled": 0, "rental_uris": {"android": "https://dc.lft.to/lastmile_qr_scan", "ios": "https://dc.lft.to/lastmile_qr_scan"}, "fusion_lon": 0.0, "lat": 38.9251715, "bike_id": "11a21a916b7036f52a0894de5fb2f217", "type": "electric_scooter", "is_reserved": 0, "lon": -76.99565883333334}, {"fusion_lat": 0.0, "name": "ca7df0caa81c9880576e6c9bdf5f6afb", "is_disabled": 0, "rental_uris": {"android": "https://dc.lft.to/lastmile_qr_scan", "ios": "https://dc.lft.to/lastmile_qr_scan"}, "fusion_lon": 0.0, "lat": 38.875508333333336, "bike_id": "ca7df0caa81c9880576e6c9bdf5f6afb", "type": "electric_scooter", "is_reserved": 0, "lon": -77.00572533333333}, {"fusion_lat": 0.0, "name": "c2d595fd3f27503ac25ba0da7e180a17", "is_disabled": 0, "rental_uris": {"android": "https://dc.lft.to/lastmile_qr_scan", "ios": "https://dc.lft.to/lastmile_qr_scan"}, "fusion_lon": 0.0, "lat": 38.91751583333333, "bike_id": "c2d595fd3f27503ac25ba0da7e180a17", "type": "electric_scooter", "is_reserved": 0, "lon": -77.03857883333333}, {"fusion_lat": 0.0, "name": "5361e755b7989f9341a62afc3d034c63", "is_disabled": 0, "rental_uris": {"android": "https://dc.lft.to/lastmile_qr_scan", "ios": "https://dc.lft.to/lastmile_qr_scan"}, "fusion_lon": 0.0, "lat": 38.890649833333335, "bike_id": "5361e755b7989f9341a62afc3d034c63", "type": "electric_scooter", "is_reserved": 0, "lon": -76.94445083333333}, {"fusion_lat": 0.0, "name": "cdbe8b22ec45d522222c414dcd26effd", "is_disabled": 0, "rental_uris": {"android": "https://dc.lft.to/lastmile_qr_scan", "ios": "https://dc.lft.to/lastmile_qr_scan"}, "fusion_lon": 0.0, "lat": 38.90260333333333, "bike_id": "cdbe8b22ec45d522222c414dcd26effd", "type": "electric_scooter", "is_reserved": 0, "lon": -77.01754183333334}, {"fusion_lat": 0.0, "name": "88e8cf4eafe1c5b8f5426303fbfd1186", "is_disabled": 0, "rental_uris": {"android": "https://dc.lft.to/lastmile_qr_scan", "ios": "https://dc.lft.to/lastmile_qr_scan"}, "fusion_lon": 0.0, "lat": 38.876992333333334, "bike_id": "88e8cf4eafe1c5b8f5426303fbfd1186", "type": "electric_scooter", "is_reserved": 0, "lon": -77.004318}, {"fusion_lat": 0.0, "name": "aa456b1a4b3afb35cee5214c84335b83", "is_disabled": 0, "rental_uris": {"android": "https://dc.lft.to/lastmile_qr_scan", "ios": "https://dc.lft.to/lastmile_qr_scan"}, "fusion_lon": 0.0, "lat": 38.922565666666664, "bike_id": "aa456b1a4b3afb35cee5214c84335b83", "type": "electric_scooter", "is_reserved": 0, "lon": -77.00919766666667}, {"fusion_lat": 0.0, "name": "e4cba8f1bee2a19a176d2d88b7e963ab", "is_disabled": 0, "rental_uris": {"android": "https://dc.lft.to/lastmile_qr_scan", "ios": "https://dc.lft.to/lastmile_qr_scan"}, "fusion_lon": 0.0, "lat": 38.91449183333334, "bike_id": "e4cba8f1bee2a19a176d2d88b7e963ab", "type": "electric_scooter", "is_reserved": 0, "lon": -76.9882015}, {"fusion_lat": 0.0, "name": "4062f3e61fb00f091e9e00aae9c4fd39", "is_disabled": 0, "rental_uris": {"android": "https://dc.lft.to/lastmile_qr_scan", "ios": "https://dc.lft.to/lastmile_qr_scan"}, "fusion_lon": 0.0, "lat": 38.938607833333336, "bike_id": "4062f3e61fb00f091e9e00aae9c4fd39", "type": "electric_scooter", "is_reserved": 0, "lon": -77.02556}, {"fusion_lat": 0.0, "name": "604bb9954fe2a16d6bc2e8c1c14397b0", "is_disabled": 0, "rental_uris": {"android": "https://dc.lft.to/lastmile_qr_scan", "ios": "https://dc.lft.to/lastmile_qr_scan"}, "fusion_lon": 0.0, "lat": 38.83158816666667, "bike_id": "604bb9954fe2a16d6bc2e8c1c14397b0", "type": "electric_bike", "is_reserved": 0, "lon": -76.995446}, {"fusion_lat": 0.0, "name": "ba976bae62d0a4efb01da6700db970ea", "is_disabled": 0, "rental_uris": {"android": "https://dc.lft.to/lastmile_qr_scan", "ios": "https://dc.lft.to/lastmile_qr_scan"}, "fusion_lon": 0.0, "lat": 38.899561, "bike_id": "ba976bae62d0a4efb01da6700db970ea", "type": "electric_scooter", "is_reserved": 0, "lon": -77.011716}, {"fusion_lat": 0.0, "name": "8d104bd7e4dcef35d166e3b08aab18f1", "is_disabled": 0, "rental_uris": {"android": "https://dc.lft.to/lastmile_qr_scan", "ios": "https://dc.lft.to/lastmile_qr_scan"}, "fusion_lon": 0.0, "lat": 38.920859, "bike_id": "8d104bd7e4dcef35d166e3b08aab18f1", "type": "electric_scooter", "is_reserved": 0, "lon": -77.02395616666666}, {"fusion_lat": 0.0, "name": "dd1e8b2818b315c4fb3d621d4c1ad674", "is_disabled": 0, "rental_uris": {"android": "https://dc.lft.to/lastmile_qr_scan", "ios": "https://dc.lft.to/lastmile_qr_scan"}, "fusion_lon": 0.0, "lat": 38.90569383333333, "bike_id": "dd1e8b2818b315c4fb3d621d4c1ad674", "type": "electric_scooter", "is_reserved": 0, "lon": -77.04347066666666}, {"fusion_lat": 0.0, "name": "38ec4e94244b68e7dd8b05d37ba315bd", "is_disabled": 0, "rental_uris": {"android": "https://dc.lft.to/lastmile_qr_scan", "ios": "https://dc.lft.to/lastmile_qr_scan"}, "fusion_lon": 0.0, "lat": 38.892325166666666, "bike_id": "38ec4e94244b68e7dd8b05d37ba315bd", "type": "electric_scooter", "is_reserved": 0, "lon": -77.048782}, {"fusion_lat": 0.0, "name": "2b79ecad49c43ca56cb07b1b2dc4700c", "is_disabled": 0, "rental_uris": {"android": "https://dc.lft.to/lastmile_qr_scan", "ios": "https://dc.lft.to/lastmile_qr_scan"}, "fusion_lon": 0.0, "lat": 38.9003205, "bike_id": "2b79ecad49c43ca56cb07b1b2dc4700c", "type": "electric_bike", "is_reserved": 0, "lon": -76.97223433333333}, {"fusion_lat": 0.0, "name": "e00c3c9941bbd2e99f719f0565205de6", "is_disabled": 0, "rental_uris": {"android": "https://dc.lft.to/lastmile_qr_scan", "ios": "https://dc.lft.to/lastmile_qr_scan"}, "fusion_lon": 0.0, "lat": 38.915332166666666, "bike_id": "e00c3c9941bbd2e99f719f0565205de6", "type": "electric_scooter", "is_reserved": 0, "lon": -77.0461035}, {"fusion_lat": 0.0, "name": "59267cc8f4d7726d79c66a16a21bb2cb", "is_disabled": 0, "rental_uris": {"android": "https://dc.lft.to/lastmile_qr_scan", "ios": "https://dc.lft.to/lastmile_qr_scan"}, "fusion_lon": 0.0, "lat": 38.89224383333333, "bike_id": "59267cc8f4d7726d79c66a16a21bb2cb", "type": "electric_scooter", "is_reserved": 0, "lon": -77.03099516666667}, {"fusion_lat": 0.0, "name": "ce0812ec79897a45e240dbfbfa61b17f", "is_disabled": 0, "rental_uris": {"android": "https://dc.lft.to/lastmile_qr_scan", "ios": "https://dc.lft.to/lastmile_qr_scan"}, "fusion_lon": 0.0, "lat": 38.93435066666667, "bike_id": "ce0812ec79897a45e240dbfbfa61b17f", "type": "electric_scooter", "is_reserved": 0, "lon": -77.03999233333333}, {"fusion_lat": 0.0, "name": "cb5b118cb487c2c9c0925baea4199d69", "is_disabled": 0, "rental_uris": {"android": "https://dc.lft.to/lastmile_qr_scan", "ios": "https://dc.lft.to/lastmile_qr_scan"}, "fusion_lon": 0.0, "lat": 38.99366066666666, "bike_id": "cb5b118cb487c2c9c0925baea4199d69", "type": "electric_bike", "is_reserved": 0, "lon": -77.031893}, {"fusion_lat": 0.0, "name": "71856bf7893b156352a1912ee758bab6", "is_disabled": 0, "rental_uris": {"android": "https://dc.lft.to/lastmile_qr_scan", "ios": "https://dc.lft.to/lastmile_qr_scan"}, "fusion_lon": 0.0, "lat": 38.90063083333333, "bike_id": "71856bf7893b156352a1912ee758bab6", "type": "electric_scooter", "is_reserved": 0, "lon": -76.93384683333333}, {"fusion_lat": 0.0, "name": "28187d13d666dbd44c2a32bae298ceef", "is_disabled": 0, "rental_uris": {"android": "https://dc.lft.to/lastmile_qr_scan", "ios": "https://dc.lft.to/lastmile_qr_scan"}, "fusion_lon": 0.0, "lat": 38.93206633333333, "bike_id": "28187d13d666dbd44c2a32bae298ceef", "type": "electric_scooter", "is_reserved": 0, "lon": -77.032791}, {"fusion_lat": 0.0, "name": "67f7e69b5e9a7d014915ef4bbe8bf52d", "is_disabled": 0, "rental_uris": {"android": "https://dc.lft.to/lastmile_qr_scan", "ios": "https://dc.lft.to/lastmile_qr_scan"}, "fusion_lon": 0.0, "lat": 38.954026999999996, "bike_id": "67f7e69b5e9a7d014915ef4bbe8bf52d", "type": "electric_scooter", "is_reserved": 0, "lon": -77.02748316666667}, {"fusion_lat": 0.0, "name": "3cccd0fbd3b921e22f776ab2b49eb08a", "is_disabled": 0, "rental_uris": {"android": "https://dc.lft.to/lastmile_qr_scan", "ios": "https://dc.lft.to/lastmile_qr_scan"}, "fusion_lon": 0.0, "lat": 38.8994405, "bike_id": "3cccd0fbd3b921e22f776ab2b49eb08a", "type": "electric_scooter", "is_reserved": 0, "lon": -77.0417935}, {"fusion_lat": 0.0, "name": "67df89ac39feec7aedb1ab3303c89895", "is_disabled": 0, "rental_uris": {"android": "https://dc.lft.to/lastmile_qr_scan", "ios": "https://dc.lft.to/lastmile_qr_scan"}, "fusion_lon": 0.0, "lat": 38.92101433333333, "bike_id": "67df89ac39feec7aedb1ab3303c89895", "type": "electric_scooter", "is_reserved": 0, "lon": -77.03173966666667}, {"fusion_lat": 0.0, "name": "10d38d21a4d75278acf97bc775c3aa9b", "is_disabled": 0, "rental_uris": {"android": "https://dc.lft.to/lastmile_qr_scan", "ios": "https://dc.lft.to/lastmile_qr_scan"}, "fusion_lon": 0.0, "lat": 38.91352666666667, "bike_id": "10d38d21a4d75278acf97bc775c3aa9b", "type": "electric_scooter", "is_reserved": 0, "lon": -77.031802}, {"fusion_lat": 0.0, "name": "485bb4194f9da426ee1e5d7c2c40f4e9", "is_disabled": 0, "rental_uris": {"android": "https://dc.lft.to/lastmile_qr_scan", "ios": "https://dc.lft.to/lastmile_qr_scan"}, "fusion_lon": 0.0, "lat": 38.87689, "bike_id": "485bb4194f9da426ee1e5d7c2c40f4e9", "type": "electric_scooter", "is_reserved": 0, "lon": -77.0175385}, {"fusion_lat": 0.0, "name": "96bf904c4f43c2abc6686c5e6ea40c6d", "is_disabled": 0, "rental_uris": {"android": "https://dc.lft.to/lastmile_qr_scan", "ios": "https://dc.lft.to/lastmile_qr_scan"}, "fusion_lon": 0.0, "lat": 38.8862325, "bike_id": "96bf904c4f43c2abc6686c5e6ea40c6d", "type": "electric_scooter", "is_reserved": 0, "lon": -77.01530466666667}, {"fusion_lat": 0.0, "name": "147b9b464afa6bb6a13382195236ac07", "is_disabled": 0, "rental_uris": {"android": "https://dc.lft.to/lastmile_qr_scan", "ios": "https://dc.lft.to/lastmile_qr_scan"}, "fusion_lon": 0.0, "lat": 38.91596633333333, "bike_id": "147b9b464afa6bb6a13382195236ac07", "type": "electric_scooter", "is_reserved": 0, "lon": -77.0385765}, {"fusion_lat": 0.0, "name": "53f925079e9d4e4d7cfb40301c3f00d4", "is_disabled": 0, "rental_uris": {"android": "https://dc.lft.to/lastmile_qr_scan", "ios": "https://dc.lft.to/lastmile_qr_scan"}, "fusion_lon": 0.0, "lat": 38.92197766666666, "bike_id": "53f925079e9d4e4d7cfb40301c3f00d4", "type": "electric_scooter", "is_reserved": 0, "lon": -77.0296715}, {"fusion_lat": 0.0, "name": "dd87c2e78063b419e96b2902eedd4860", "is_disabled": 0, "rental_uris": {"android": "https://dc.lft.to/lastmile_qr_scan", "ios": "https://dc.lft.to/lastmile_qr_scan"}, "fusion_lon": 0.0, "lat": 38.835496666666664, "bike_id": "dd87c2e78063b419e96b2902eedd4860", "type": "electric_bike", "is_reserved": 0, "lon": -76.98727383333333}, {"fusion_lat": 0.0, "name": "31b6fba2f792baec1c3c3d563dcef32a", "is_disabled": 0, "rental_uris": {"android": "https://dc.lft.to/lastmile_qr_scan", "ios": "https://dc.lft.to/lastmile_qr_scan"}, "fusion_lon": 0.0, "lat": 38.944095, "bike_id": "31b6fba2f792baec1c3c3d563dcef32a", "type": "electric_scooter", "is_reserved": 0, "lon": -77.03201933333334}, {"fusion_lat": 0.0, "name": "5dcc1f1fe8acf5844275fe52aa4b4cd8", "is_disabled": 0, "rental_uris": {"android": "https://dc.lft.to/lastmile_qr_scan", "ios": "https://dc.lft.to/lastmile_qr_scan"}, "fusion_lon": 0.0, "lat": 38.92963733333333, "bike_id": "5dcc1f1fe8acf5844275fe52aa4b4cd8", "type": "electric_scooter", "is_reserved": 0, "lon": -77.0310015}, {"fusion_lat": 0.0, "name": "0bd3cab660dca83ea97acc7503a5276d", "is_disabled": 0, "rental_uris": {"android": "https://dc.lft.to/lastmile_qr_scan", "ios": "https://dc.lft.to/lastmile_qr_scan"}, "fusion_lon": 0.0, "lat": 38.906806333333336, "bike_id": "0bd3cab660dca83ea97acc7503a5276d", "type": "electric_scooter", "is_reserved": 0, "lon": -77.047252}, {"fusion_lat": 0.0, "name": "4558b71d6bb9796f6e280ca69e4f3222", "is_disabled": 0, "rental_uris": {"android": "https://dc.lft.to/lastmile_qr_scan", "ios": "https://dc.lft.to/lastmile_qr_scan"}, "fusion_lon": 0.0, "lat": 38.878987333333335, "bike_id": "4558b71d6bb9796f6e280ca69e4f3222", "type": "electric_scooter", "is_reserved": 0, "lon": -77.01361133333333}, {"fusion_lat": 0.0, "name": "0b7ddd56437fa78cac012743629a45be", "is_disabled": 0, "rental_uris": {"android": "https://dc.lft.to/lastmile_qr_scan", "ios": "https://dc.lft.to/lastmile_qr_scan"}, "fusion_lon": 0.0, "lat": 38.97485566666667, "bike_id": "0b7ddd56437fa78cac012743629a45be", "type": "electric_scooter", "is_reserved": 0, "lon": -77.01470633333334}, {"fusion_lat": 0.0, "name": "92174d4831378cfbbc7d2ca61b1413f5", "is_disabled": 0, "rental_uris": {"android": "https://dc.lft.to/lastmile_qr_scan", "ios": "https://dc.lft.to/lastmile_qr_scan"}, "fusion_lon": 0.0, "lat": 38.897199666666666, "bike_id": "92174d4831378cfbbc7d2ca61b1413f5", "type": "electric_scooter", "is_reserved": 0, "lon": -77.00803766666667}, {"fusion_lat": 0.0, "name": "469b13f1ff551ed399a32c58f98ed595", "is_disabled": 0, "rental_uris": {"android": "https://dc.lft.to/lastmile_qr_scan", "ios": "https://dc.lft.to/lastmile_qr_scan"}, "fusion_lon": 0.0, "lat": 38.90062666666667, "bike_id": "469b13f1ff551ed399a32c58f98ed595", "type": "electric_scooter", "is_reserved": 0, "lon": -76.9855595}, {"fusion_lat": 0.0, "name": "6fae448d1a8456eb8655dbf688ca67f2", "is_disabled": 0, "rental_uris": {"android": "https://dc.lft.to/lastmile_qr_scan", "ios": "https://dc.lft.to/lastmile_qr_scan"}, "fusion_lon": 0.0, "lat": 38.939694833333334, "bike_id": "6fae448d1a8456eb8655dbf688ca67f2", "type": "electric_scooter", "is_reserved": 0, "lon": -77.0325515}, {"fusion_lat": 0.0, "name": "cd2dbf8f4372b0c3950809891ebb8ba1", "is_disabled": 0, "rental_uris": {"android": "https://dc.lft.to/lastmile_qr_scan", "ios": "https://dc.lft.to/lastmile_qr_scan"}, "fusion_lon": 0.0, "lat": 38.937917, "bike_id": "cd2dbf8f4372b0c3950809891ebb8ba1", "type": "electric_scooter", "is_reserved": 0, "lon": -77.02439133333333}, {"fusion_lat": 0.0, "name": "715473f852663ee840f0d6a892646e4c", "is_disabled": 0, "rental_uris": {"android": "https://dc.lft.to/lastmile_qr_scan", "ios": "https://dc.lft.to/lastmile_qr_scan"}, "fusion_lon": 0.0, "lat": 38.9433225, "bike_id": "715473f852663ee840f0d6a892646e4c", "type": "electric_scooter", "is_reserved": 0, "lon": -77.0268695}, {"fusion_lat": 0.0, "name": "6ac967c5d88da2117e31b76f519d7a7e", "is_disabled": 0, "rental_uris": {"android": "https://dc.lft.to/lastmile_qr_scan", "ios": "https://dc.lft.to/lastmile_qr_scan"}, "fusion_lon": 0.0, "lat": 38.917047, "bike_id": "6ac967c5d88da2117e31b76f519d7a7e", "type": "electric_scooter", "is_reserved": 0, "lon": -77.001129}, {"fusion_lat": 0.0, "name": "bdf97af1c57ff588e48f181186f565c9", "is_disabled": 0, "rental_uris": {"android": "https://dc.lft.to/lastmile_qr_scan", "ios": "https://dc.lft.to/lastmile_qr_scan"}, "fusion_lon": 0.0, "lat": 38.9057245, "bike_id": "bdf97af1c57ff588e48f181186f565c9", "type": "electric_scooter", "is_reserved": 0, "lon": -77.04641733333334}, {"fusion_lat": 0.0, "name": "a7670317a88a4eee22302c238eec4418", "is_disabled": 0, "rental_uris": {"android": "https://dc.lft.to/lastmile_qr_scan", "ios": "https://dc.lft.to/lastmile_qr_scan"}, "fusion_lon": 0.0, "lat": 38.928711666666665, "bike_id": "a7670317a88a4eee22302c238eec4418", "type": "electric_scooter", "is_reserved": 0, "lon": -77.03789533333334}, {"fusion_lat": 0.0, "name": "98a5423099ea551e8314f4107ba51607", "is_disabled": 0, "rental_uris": {"android": "https://dc.lft.to/lastmile_qr_scan", "ios": "https://dc.lft.to/lastmile_qr_scan"}, "fusion_lon": 0.0, "lat": 38.8992225, "bike_id": "98a5423099ea551e8314f4107ba51607", "type": "electric_scooter", "is_reserved": 0, "lon": -77.07193616666666}, {"fusion_lat": 0.0, "name": "0217abf40d352dad4be76bd6965a4fcd", "is_disabled": 0, "rental_uris": {"android": "https://dc.lft.to/lastmile_qr_scan", "ios": "https://dc.lft.to/lastmile_qr_scan"}, "fusion_lon": 0.0, "lat": 38.896342833333335, "bike_id": "0217abf40d352dad4be76bd6965a4fcd", "type": "electric_scooter", "is_reserved": 0, "lon": -77.03323916666666}, {"fusion_lat": 0.0, "name": "438a78fbef2efa73945c3b0c3524c8ac", "is_disabled": 0, "rental_uris": {"android": "https://dc.lft.to/lastmile_qr_scan", "ios": "https://dc.lft.to/lastmile_qr_scan"}, "fusion_lon": 0.0, "lat": 38.938806666666665, "bike_id": "438a78fbef2efa73945c3b0c3524c8ac", "type": "electric_scooter", "is_reserved": 0, "lon": -77.03084383333334}, {"fusion_lat": 0.0, "name": "9b03c38dbd301a3f7faf4cd4c137eddc", "is_disabled": 0, "rental_uris": {"android": "https://dc.lft.to/lastmile_qr_scan", "ios": "https://dc.lft.to/lastmile_qr_scan"}, "fusion_lon": 0.0, "lat": 38.87394616666667, "bike_id": "9b03c38dbd301a3f7faf4cd4c137eddc", "type": "electric_scooter", "is_reserved": 0, "lon": -77.00029233333333}, {"fusion_lat": 0.0, "name": "6a8ccc5564d85426411f040853a1bebd", "is_disabled": 0, "rental_uris": {"android": "https://dc.lft.to/lastmile_qr_scan", "ios": "https://dc.lft.to/lastmile_qr_scan"}, "fusion_lon": 0.0, "lat": 38.92510033333333, "bike_id": "6a8ccc5564d85426411f040853a1bebd", "type": "electric_scooter", "is_reserved": 0, "lon": -77.0021595}, {"fusion_lat": 0.0, "name": "83a6ccfb1faeb38cf9cacf3875d7ab46", "is_disabled": 0, "rental_uris": {"android": "https://dc.lft.to/lastmile_qr_scan", "ios": "https://dc.lft.to/lastmile_qr_scan"}, "fusion_lon": 0.0, "lat": 38.8974095, "bike_id": "83a6ccfb1faeb38cf9cacf3875d7ab46", "type": "electric_scooter", "is_reserved": 0, "lon": -77.04313016666667}, {"fusion_lat": 0.0, "name": "ec89b76b68a27f0a49da83a8a82ba07f", "is_disabled": 0, "rental_uris": {"android": "https://dc.lft.to/lastmile_qr_scan", "ios": "https://dc.lft.to/lastmile_qr_scan"}, "fusion_lon": 0.0, "lat": 38.906014666666664, "bike_id": "ec89b76b68a27f0a49da83a8a82ba07f", "type": "electric_scooter", "is_reserved": 0, "lon": -77.05695333333334}, {"fusion_lat": 0.0, "name": "efed00a8033db37bb5d51bef1dd9217d", "is_disabled": 0, "rental_uris": {"android": "https://dc.lft.to/lastmile_qr_scan", "ios": "https://dc.lft.to/lastmile_qr_scan"}, "fusion_lon": 0.0, "lat": 38.923239833333334, "bike_id": "efed00a8033db37bb5d51bef1dd9217d", "type": "electric_scooter", "is_reserved": 0, "lon": -77.02131716666666}, {"fusion_lat": 0.0, "name": "62b3797d93a09bb071bdca9f70936453", "is_disabled": 0, "rental_uris": {"android": "https://dc.lft.to/lastmile_qr_scan", "ios": "https://dc.lft.to/lastmile_qr_scan"}, "fusion_lon": 0.0, "lat": 38.8478645, "bike_id": "62b3797d93a09bb071bdca9f70936453", "type": "electric_scooter", "is_reserved": 0, "lon": -76.97486016666667}, {"fusion_lat": 0.0, "name": "f36e3340f6fd3439090b0a504df0b3b2", "is_disabled": 0, "rental_uris": {"android": "https://dc.lft.to/lastmile_qr_scan", "ios": "https://dc.lft.to/lastmile_qr_scan"}, "fusion_lon": 0.0, "lat": 38.93064416666667, "bike_id": "f36e3340f6fd3439090b0a504df0b3b2", "type": "electric_scooter", "is_reserved": 0, "lon": -77.02324833333333}, {"fusion_lat": 0.0, "name": "2a0404a98bb9dc5887ead796054801b4", "is_disabled": 0, "rental_uris": {"android": "https://dc.lft.to/lastmile_qr_scan", "ios": "https://dc.lft.to/lastmile_qr_scan"}, "fusion_lon": 0.0, "lat": 38.92000683333333, "bike_id": "2a0404a98bb9dc5887ead796054801b4", "type": "electric_scooter", "is_reserved": 0, "lon": -77.07131066666666}, {"fusion_lat": 0.0, "name": "b2c386d359be2aed9e7677f49f30e8c4", "is_disabled": 0, "rental_uris": {"android": "https://dc.lft.to/lastmile_qr_scan", "ios": "https://dc.lft.to/lastmile_qr_scan"}, "fusion_lon": 0.0, "lat": 38.953551166666664, "bike_id": "b2c386d359be2aed9e7677f49f30e8c4", "type": "electric_bike", "is_reserved": 0, "lon": -76.9809265}, {"fusion_lat": 0.0, "name": "a1f14caa0e38e62bea44b23908e77f23", "is_disabled": 0, "rental_uris": {"android": "https://dc.lft.to/lastmile_qr_scan", "ios": "https://dc.lft.to/lastmile_qr_scan"}, "fusion_lon": 0.0, "lat": 38.923034, "bike_id": "a1f14caa0e38e62bea44b23908e77f23", "type": "electric_scooter", "is_reserved": 0, "lon": -77.04268933333333}, {"fusion_lat": 0.0, "name": "43cde0d4ab9a6acf6f1ea45b59948467", "is_disabled": 0, "rental_uris": {"android": "https://dc.lft.to/lastmile_qr_scan", "ios": "https://dc.lft.to/lastmile_qr_scan"}, "fusion_lon": 0.0, "lat": 38.9217395, "bike_id": "43cde0d4ab9a6acf6f1ea45b59948467", "type": "electric_scooter", "is_reserved": 0, "lon": -77.03267433333333}, {"fusion_lat": 0.0, "name": "0e9f8715c818931461d4db88ce885bac", "is_disabled": 0, "rental_uris": {"android": "https://dc.lft.to/lastmile_qr_scan", "ios": "https://dc.lft.to/lastmile_qr_scan"}, "fusion_lon": 0.0, "lat": 38.89223616666666, "bike_id": "0e9f8715c818931461d4db88ce885bac", "type": "electric_scooter", "is_reserved": 0, "lon": -77.0468315}, {"fusion_lat": 0.0, "name": "a142f950b6a3be127681c36bd260be9f", "is_disabled": 0, "rental_uris": {"android": "https://dc.lft.to/lastmile_qr_scan", "ios": "https://dc.lft.to/lastmile_qr_scan"}, "fusion_lon": 0.0, "lat": 38.923322166666665, "bike_id": "a142f950b6a3be127681c36bd260be9f", "type": "electric_scooter", "is_reserved": 0, "lon": -77.020516}, {"fusion_lat": 0.0, "name": "1ebf315336e38bec1dd447d406d665c5", "is_disabled": 0, "rental_uris": {"android": "https://dc.lft.to/lastmile_qr_scan", "ios": "https://dc.lft.to/lastmile_qr_scan"}, "fusion_lon": 0.0, "lat": 38.84089516666667, "bike_id": "1ebf315336e38bec1dd447d406d665c5", "type": "electric_bike", "is_reserved": 0, "lon": -76.97027433333334}, {"fusion_lat": 0.0, "name": "2b34dd699d3b9171491d8a2f037fe83a", "is_disabled": 0, "rental_uris": {"android": "https://dc.lft.to/lastmile_qr_scan", "ios": "https://dc.lft.to/lastmile_qr_scan"}, "fusion_lon": 0.0, "lat": 38.921589833333336, "bike_id": "2b34dd699d3b9171491d8a2f037fe83a", "type": "electric_scooter", "is_reserved": 0, "lon": -77.03395333333333}, {"fusion_lat": 0.0, "name": "1ba3db38d22b6f41fa003ae032b99056", "is_disabled": 0, "rental_uris": {"android": "https://dc.lft.to/lastmile_qr_scan", "ios": "https://dc.lft.to/lastmile_qr_scan"}, "fusion_lon": 0.0, "lat": 38.916727, "bike_id": "1ba3db38d22b6f41fa003ae032b99056", "type": "electric_scooter", "is_reserved": 0, "lon": -77.03661766666667}, {"fusion_lat": 0.0, "name": "203b7d7af69c3a75c2398b7fccc717cf", "is_disabled": 0, "rental_uris": {"android": "https://dc.lft.to/lastmile_qr_scan", "ios": "https://dc.lft.to/lastmile_qr_scan"}, "fusion_lon": 0.0, "lat": 38.855489666666664, "bike_id": "203b7d7af69c3a75c2398b7fccc717cf", "type": "electric_scooter", "is_reserved": 0, "lon": -76.98758316666667}, {"fusion_lat": 0.0, "name": "3fc98676b2d95913f44c787db32b7f55", "is_disabled": 0, "rental_uris": {"android": "https://dc.lft.to/lastmile_qr_scan", "ios": "https://dc.lft.to/lastmile_qr_scan"}, "fusion_lon": 0.0, "lat": 38.90874216666667, "bike_id": "3fc98676b2d95913f44c787db32b7f55", "type": "electric_scooter", "is_reserved": 0, "lon": -77.04876}, {"fusion_lat": 0.0, "name": "34f73e6cd01781791975e61d7391ddd6", "is_disabled": 0, "rental_uris": {"android": "https://dc.lft.to/lastmile_qr_scan", "ios": "https://dc.lft.to/lastmile_qr_scan"}, "fusion_lon": 0.0, "lat": 38.897300666666666, "bike_id": "34f73e6cd01781791975e61d7391ddd6", "type": "electric_scooter", "is_reserved": 0, "lon": -77.0499285}, {"fusion_lat": 0.0, "name": "a5a875030596a60d307676676522c948", "is_disabled": 0, "rental_uris": {"android": "https://dc.lft.to/lastmile_qr_scan", "ios": "https://dc.lft.to/lastmile_qr_scan"}, "fusion_lon": 0.0, "lat": 38.864497, "bike_id": "a5a875030596a60d307676676522c948", "type": "electric_bike", "is_reserved": 0, "lon": -77.10686683333333}, {"fusion_lat": 0.0, "name": "922aa3b9aa7fe24adb3b9f6f72c547e9", "is_disabled": 0, "rental_uris": {"android": "https://dc.lft.to/lastmile_qr_scan", "ios": "https://dc.lft.to/lastmile_qr_scan"}, "fusion_lon": 0.0, "lat": 38.871001, "bike_id": "922aa3b9aa7fe24adb3b9f6f72c547e9", "type": "electric_scooter", "is_reserved": 0, "lon": -77.01205266666666}, {"fusion_lat": 0.0, "name": "3caf5c5e4ac64408f7298ddc3ba21a68", "is_disabled": 0, "rental_uris": {"android": "https://dc.lft.to/lastmile_qr_scan", "ios": "https://dc.lft.to/lastmile_qr_scan"}, "fusion_lon": 0.0, "lat": 38.90961383333333, "bike_id": "3caf5c5e4ac64408f7298ddc3ba21a68", "type": "electric_scooter", "is_reserved": 0, "lon": -77.03309183333333}, {"fusion_lat": 0.0, "name": "d154866b007de06a2bbca2b3db8b74c8", "is_disabled": 0, "rental_uris": {"android": "https://dc.lft.to/lastmile_qr_scan", "ios": "https://dc.lft.to/lastmile_qr_scan"}, "fusion_lon": 0.0, "lat": 38.873065, "bike_id": "d154866b007de06a2bbca2b3db8b74c8", "type": "electric_scooter", "is_reserved": 0, "lon": -77.00032733333333}, {"fusion_lat": 0.0, "name": "e7b129a4acc890d50e8b924db82a843b", "is_disabled": 0, "rental_uris": {"android": "https://dc.lft.to/lastmile_qr_scan", "ios": "https://dc.lft.to/lastmile_qr_scan"}, "fusion_lon": 0.0, "lat": 38.9097605, "bike_id": "e7b129a4acc890d50e8b924db82a843b", "type": "electric_scooter", "is_reserved": 0, "lon": -77.03392083333334}, {"fusion_lat": 0.0, "name": "ac6c379588b08e0a4515e02c43d6a15c", "is_disabled": 0, "rental_uris": {"android": "https://dc.lft.to/lastmile_qr_scan", "ios": "https://dc.lft.to/lastmile_qr_scan"}, "fusion_lon": 0.0, "lat": 38.9029195, "bike_id": "ac6c379588b08e0a4515e02c43d6a15c", "type": "electric_scooter", "is_reserved": 0, "lon": -77.043653}, {"fusion_lat": 0.0, "name": "683e9ab2b0fe6b523824e894684ff7f7", "is_disabled": 0, "rental_uris": {"android": "https://dc.lft.to/lastmile_qr_scan", "ios": "https://dc.lft.to/lastmile_qr_scan"}, "fusion_lon": 0.0, "lat": 38.919238166666666, "bike_id": "683e9ab2b0fe6b523824e894684ff7f7", "type": "electric_scooter", "is_reserved": 0, "lon": -77.00984983333333}, {"fusion_lat": 0.0, "name": "0628508e9bb723584d5e48a6a003df3d", "is_disabled": 0, "rental_uris": {"android": "https://dc.lft.to/lastmile_qr_scan", "ios": "https://dc.lft.to/lastmile_qr_scan"}, "fusion_lon": 0.0, "lat": 38.9563395, "bike_id": "0628508e9bb723584d5e48a6a003df3d", "type": "electric_scooter", "is_reserved": 0, "lon": -77.0913025}, {"fusion_lat": 0.0, "name": "6d86119c8029c25ec26db578a513399c", "is_disabled": 0, "rental_uris": {"android": "https://dc.lft.to/lastmile_qr_scan", "ios": "https://dc.lft.to/lastmile_qr_scan"}, "fusion_lon": 0.0, "lat": 38.906298166666666, "bike_id": "6d86119c8029c25ec26db578a513399c", "type": "electric_scooter", "is_reserved": 0, "lon": -77.01029}, {"fusion_lat": 0.0, "name": "686230d86d5f5268abd3ece40188f610", "is_disabled": 0, "rental_uris": {"android": "https://dc.lft.to/lastmile_qr_scan", "ios": "https://dc.lft.to/lastmile_qr_scan"}, "fusion_lon": 0.0, "lat": 38.90392516666667, "bike_id": "686230d86d5f5268abd3ece40188f610", "type": "electric_scooter", "is_reserved": 0, "lon": -77.04450516666667}, {"fusion_lat": 0.0, "name": "cc3acf2ef01f1514d2c2f4e701080378", "is_disabled": 0, "rental_uris": {"android": "https://dc.lft.to/lastmile_qr_scan", "ios": "https://dc.lft.to/lastmile_qr_scan"}, "fusion_lon": 0.0, "lat": 38.87622366666667, "bike_id": "cc3acf2ef01f1514d2c2f4e701080378", "type": "electric_scooter", "is_reserved": 0, "lon": -77.01579466666666}, {"fusion_lat": 0.0, "name": "5d35e1634f2c657bc627a92806da5a4a", "is_disabled": 0, "rental_uris": {"android": "https://dc.lft.to/lastmile_qr_scan", "ios": "https://dc.lft.to/lastmile_qr_scan"}, "fusion_lon": 0.0, "lat": 38.928885, "bike_id": "5d35e1634f2c657bc627a92806da5a4a", "type": "electric_scooter", "is_reserved": 0, "lon": -77.03233933333334}, {"fusion_lat": 0.0, "name": "e79ba5fdac5ac5fc22fb14d6f8fc8f98", "is_disabled": 0, "rental_uris": {"android": "https://dc.lft.to/lastmile_qr_scan", "ios": "https://dc.lft.to/lastmile_qr_scan"}, "fusion_lon": 0.0, "lat": 38.917386, "bike_id": "e79ba5fdac5ac5fc22fb14d6f8fc8f98", "type": "electric_scooter", "is_reserved": 0, "lon": -77.03198716666667}, {"fusion_lat": 0.0, "name": "7de673a3f4a603608b6176fc14102860", "is_disabled": 0, "rental_uris": {"android": "https://dc.lft.to/lastmile_qr_scan", "ios": "https://dc.lft.to/lastmile_qr_scan"}, "fusion_lon": 0.0, "lat": 38.922697, "bike_id": "7de673a3f4a603608b6176fc14102860", "type": "electric_scooter", "is_reserved": 0, "lon": -77.0296175}, {"fusion_lat": 0.0, "name": "4ea9edc45b7e86197b05189bcf004f48", "is_disabled": 0, "rental_uris": {"android": "https://dc.lft.to/lastmile_qr_scan", "ios": "https://dc.lft.to/lastmile_qr_scan"}, "fusion_lon": 0.0, "lat": 38.900038333333335, "bike_id": "4ea9edc45b7e86197b05189bcf004f48", "type": "electric_scooter", "is_reserved": 0, "lon": -77.006628}, {"fusion_lat": 0.0, "name": "18203e2997ae7325c74b9e2cd8df64db", "is_disabled": 0, "rental_uris": {"android": "https://dc.lft.to/lastmile_qr_scan", "ios": "https://dc.lft.to/lastmile_qr_scan"}, "fusion_lon": 0.0, "lat": 38.88531966666667, "bike_id": "18203e2997ae7325c74b9e2cd8df64db", "type": "electric_scooter", "is_reserved": 0, "lon": -77.01515366666666}, {"fusion_lat": 0.0, "name": "4c2f650e997feb60754cd98382cc1e25", "is_disabled": 0, "rental_uris": {"android": "https://dc.lft.to/lastmile_qr_scan", "ios": "https://dc.lft.to/lastmile_qr_scan"}, "fusion_lon": 0.0, "lat": 38.9240025, "bike_id": "4c2f650e997feb60754cd98382cc1e25", "type": "electric_scooter", "is_reserved": 0, "lon": -77.0428765}, {"fusion_lat": 0.0, "name": "de8e6dcb1b89cf9074b052e5a8e9bcf5", "is_disabled": 0, "rental_uris": {"android": "https://dc.lft.to/lastmile_qr_scan", "ios": "https://dc.lft.to/lastmile_qr_scan"}, "fusion_lon": 0.0, "lat": 38.90427116666667, "bike_id": "de8e6dcb1b89cf9074b052e5a8e9bcf5", "type": "electric_scooter", "is_reserved": 0, "lon": -76.9497525}, {"fusion_lat": 0.0, "name": "36c9b75c95b5e7b847eef3fd9a8e5898", "is_disabled": 0, "rental_uris": {"android": "https://dc.lft.to/lastmile_qr_scan", "ios": "https://dc.lft.to/lastmile_qr_scan"}, "fusion_lon": 0.0, "lat": 38.921641666666666, "bike_id": "36c9b75c95b5e7b847eef3fd9a8e5898", "type": "electric_scooter", "is_reserved": 0, "lon": -77.03382333333333}, {"fusion_lat": 0.0, "name": "a6226f37ba4a04dc40b18dc46c92b221", "is_disabled": 0, "rental_uris": {"android": "https://dc.lft.to/lastmile_qr_scan", "ios": "https://dc.lft.to/lastmile_qr_scan"}, "fusion_lon": 0.0, "lat": 38.897155166666664, "bike_id": "a6226f37ba4a04dc40b18dc46c92b221", "type": "electric_scooter", "is_reserved": 0, "lon": -77.01309383333333}, {"fusion_lat": 0.0, "name": "44943af2f74d04991fb43d2ca13ea007", "is_disabled": 0, "rental_uris": {"android": "https://dc.lft.to/lastmile_qr_scan", "ios": "https://dc.lft.to/lastmile_qr_scan"}, "fusion_lon": 0.0, "lat": 38.93456966666667, "bike_id": "44943af2f74d04991fb43d2ca13ea007", "type": "electric_scooter", "is_reserved": 0, "lon": -77.0726975}, {"fusion_lat": 0.0, "name": "26c9f29c6ad5ca7af3b6aaa6cd7febfc", "is_disabled": 0, "rental_uris": {"android": "https://dc.lft.to/lastmile_qr_scan", "ios": "https://dc.lft.to/lastmile_qr_scan"}, "fusion_lon": 0.0, "lat": 38.913382666666664, "bike_id": "26c9f29c6ad5ca7af3b6aaa6cd7febfc", "type": "electric_scooter", "is_reserved": 0, "lon": -77.03172}, {"fusion_lat": 0.0, "name": "091a50317fdba19282490af169ddd3c3", "is_disabled": 0, "rental_uris": {"android": "https://dc.lft.to/lastmile_qr_scan", "ios": "https://dc.lft.to/lastmile_qr_scan"}, "fusion_lon": 0.0, "lat": 38.886279333333334, "bike_id": "091a50317fdba19282490af169ddd3c3", "type": "electric_scooter", "is_reserved": 0, "lon": -77.02219183333334}, {"fusion_lat": 0.0, "name": "4b7232d289c7ffd4d32599bc1733d234", "is_disabled": 0, "rental_uris": {"android": "https://dc.lft.to/lastmile_qr_scan", "ios": "https://dc.lft.to/lastmile_qr_scan"}, "fusion_lon": 0.0, "lat": 38.9169905, "bike_id": "4b7232d289c7ffd4d32599bc1733d234", "type": "electric_scooter", "is_reserved": 0, "lon": -77.0315965}, {"fusion_lat": 0.0, "name": "ead7170f6a2ca27dd5817ecce6301b4c", "is_disabled": 0, "rental_uris": {"android": "https://dc.lft.to/lastmile_qr_scan", "ios": "https://dc.lft.to/lastmile_qr_scan"}, "fusion_lon": 0.0, "lat": 38.88876833333333, "bike_id": "ead7170f6a2ca27dd5817ecce6301b4c", "type": "electric_scooter", "is_reserved": 0, "lon": -76.984583}, {"fusion_lat": 0.0, "name": "66e1c2f61c9f2acaa70c30c102211369", "is_disabled": 0, "rental_uris": {"android": "https://dc.lft.to/lastmile_qr_scan", "ios": "https://dc.lft.to/lastmile_qr_scan"}, "fusion_lon": 0.0, "lat": 38.92046533333333, "bike_id": "66e1c2f61c9f2acaa70c30c102211369", "type": "electric_scooter", "is_reserved": 0, "lon": -77.002059}, {"fusion_lat": 0.0, "name": "8bbd380e65c0f0a8ccb397f44fb61944", "is_disabled": 0, "rental_uris": {"android": "https://dc.lft.to/lastmile_qr_scan", "ios": "https://dc.lft.to/lastmile_qr_scan"}, "fusion_lon": 0.0, "lat": 38.901882666666666, "bike_id": "8bbd380e65c0f0a8ccb397f44fb61944", "type": "electric_scooter", "is_reserved": 0, "lon": -76.92897083333334}, {"fusion_lat": 0.0, "name": "37fce66c2bae605c5ff9ccbdfa1d1fd0", "is_disabled": 0, "rental_uris": {"android": "https://dc.lft.to/lastmile_qr_scan", "ios": "https://dc.lft.to/lastmile_qr_scan"}, "fusion_lon": 0.0, "lat": 38.886351166666664, "bike_id": "37fce66c2bae605c5ff9ccbdfa1d1fd0", "type": "electric_scooter", "is_reserved": 0, "lon": -76.9258815}, {"fusion_lat": 0.0, "name": "6601a48fb703322d8543225cb5134aff", "is_disabled": 0, "rental_uris": {"android": "https://dc.lft.to/lastmile_qr_scan", "ios": "https://dc.lft.to/lastmile_qr_scan"}, "fusion_lon": 0.0, "lat": 38.855149833333336, "bike_id": "6601a48fb703322d8543225cb5134aff", "type": "electric_bike", "is_reserved": 0, "lon": -77.105382}, {"fusion_lat": 0.0, "name": "53ab39331c27a7d7698c22065ed38d8d", "is_disabled": 0, "rental_uris": {"android": "https://dc.lft.to/lastmile_qr_scan", "ios": "https://dc.lft.to/lastmile_qr_scan"}, "fusion_lon": 0.0, "lat": 38.914019, "bike_id": "53ab39331c27a7d7698c22065ed38d8d", "type": "electric_scooter", "is_reserved": 0, "lon": -77.03185183333333}, {"fusion_lat": 0.0, "name": "667970723f897b71139a5f95ed0e7d69", "is_disabled": 0, "rental_uris": {"android": "https://dc.lft.to/lastmile_qr_scan", "ios": "https://dc.lft.to/lastmile_qr_scan"}, "fusion_lon": 0.0, "lat": 38.90619216666666, "bike_id": "667970723f897b71139a5f95ed0e7d69", "type": "electric_scooter", "is_reserved": 0, "lon": -77.013732}, {"fusion_lat": 0.0, "name": "29e93530e88187f93d75a61e2a53c9bc", "is_disabled": 0, "rental_uris": {"android": "https://dc.lft.to/lastmile_qr_scan", "ios": "https://dc.lft.to/lastmile_qr_scan"}, "fusion_lon": 0.0, "lat": 38.928264166666665, "bike_id": "29e93530e88187f93d75a61e2a53c9bc", "type": "electric_scooter", "is_reserved": 0, "lon": -77.05437566666667}, {"fusion_lat": 0.0, "name": "4cb49d877f801c97f06755ab7cc78525", "is_disabled": 0, "rental_uris": {"android": "https://dc.lft.to/lastmile_qr_scan", "ios": "https://dc.lft.to/lastmile_qr_scan"}, "fusion_lon": 0.0, "lat": 38.88352666666667, "bike_id": "4cb49d877f801c97f06755ab7cc78525", "type": "electric_scooter", "is_reserved": 0, "lon": -76.99504566666667}, {"fusion_lat": 0.0, "name": "ac7d2df52530548a6bfdc3b793783daf", "is_disabled": 0, "rental_uris": {"android": "https://dc.lft.to/lastmile_qr_scan", "ios": "https://dc.lft.to/lastmile_qr_scan"}, "fusion_lon": 0.0, "lat": 38.90316633333333, "bike_id": "ac7d2df52530548a6bfdc3b793783daf", "type": "electric_scooter", "is_reserved": 0, "lon": -76.97802683333333}, {"fusion_lat": 0.0, "name": "64896675d101d9a317092b1aee78728f", "is_disabled": 0, "rental_uris": {"android": "https://dc.lft.to/lastmile_qr_scan", "ios": "https://dc.lft.to/lastmile_qr_scan"}, "fusion_lon": 0.0, "lat": 38.89224433333333, "bike_id": "64896675d101d9a317092b1aee78728f", "type": "electric_scooter", "is_reserved": 0, "lon": -77.0480665}, {"fusion_lat": 0.0, "name": "f5aab32e460450340387f06691962e66", "is_disabled": 0, "rental_uris": {"android": "https://dc.lft.to/lastmile_qr_scan", "ios": "https://dc.lft.to/lastmile_qr_scan"}, "fusion_lon": 0.0, "lat": 38.9073635, "bike_id": "f5aab32e460450340387f06691962e66", "type": "electric_scooter", "is_reserved": 0, "lon": -77.03453}, {"fusion_lat": 0.0, "name": "c77738d9cb2331db3741bda12d369692", "is_disabled": 0, "rental_uris": {"android": "https://dc.lft.to/lastmile_qr_scan", "ios": "https://dc.lft.to/lastmile_qr_scan"}, "fusion_lon": 0.0, "lat": 38.92291633333333, "bike_id": "c77738d9cb2331db3741bda12d369692", "type": "electric_scooter", "is_reserved": 0, "lon": -77.03197366666667}, {"fusion_lat": 0.0, "name": "b01d2307a37f32f6ab70f94a980c785b", "is_disabled": 0, "rental_uris": {"android": "https://dc.lft.to/lastmile_qr_scan", "ios": "https://dc.lft.to/lastmile_qr_scan"}, "fusion_lon": 0.0, "lat": 38.98463, "bike_id": "b01d2307a37f32f6ab70f94a980c785b", "type": "electric_bike", "is_reserved": 0, "lon": -76.97055433333334}, {"fusion_lat": 0.0, "name": "6809e6b2910403f3955d9d4e301eedc3", "is_disabled": 0, "rental_uris": {"android": "https://dc.lft.to/lastmile_qr_scan", "ios": "https://dc.lft.to/lastmile_qr_scan"}, "fusion_lon": 0.0, "lat": 38.90684483333333, "bike_id": "6809e6b2910403f3955d9d4e301eedc3", "type": "electric_bike", "is_reserved": 0, "lon": -76.94494533333334}, {"fusion_lat": 0.0, "name": "ea8fe52afe07dd6b420be34f159f435f", "is_disabled": 0, "rental_uris": {"android": "https://dc.lft.to/lastmile_qr_scan", "ios": "https://dc.lft.to/lastmile_qr_scan"}, "fusion_lon": 0.0, "lat": 38.90152283333333, "bike_id": "ea8fe52afe07dd6b420be34f159f435f", "type": "electric_scooter", "is_reserved": 0, "lon": -76.93068216666667}, {"fusion_lat": 0.0, "name": "efc2e6211c87a2842cf96550364353fa", "is_disabled": 0, "rental_uris": {"android": "https://dc.lft.to/lastmile_qr_scan", "ios": "https://dc.lft.to/lastmile_qr_scan"}, "fusion_lon": 0.0, "lat": 38.9105675, "bike_id": "efc2e6211c87a2842cf96550364353fa", "type": "electric_scooter", "is_reserved": 0, "lon": -76.9851795}, {"fusion_lat": 0.0, "name": "5203b36e580edfef4fed9a310c6baf84", "is_disabled": 0, "rental_uris": {"android": "https://dc.lft.to/lastmile_qr_scan", "ios": "https://dc.lft.to/lastmile_qr_scan"}, "fusion_lon": 0.0, "lat": 38.8877035, "bike_id": "5203b36e580edfef4fed9a310c6baf84", "type": "electric_scooter", "is_reserved": 0, "lon": -76.97746916666667}, {"fusion_lat": 0.0, "name": "fd562a8298f566d39f1e83f643826eaa", "is_disabled": 0, "rental_uris": {"android": "https://dc.lft.to/lastmile_qr_scan", "ios": "https://dc.lft.to/lastmile_qr_scan"}, "fusion_lon": 0.0, "lat": 38.93693316666667, "bike_id": "fd562a8298f566d39f1e83f643826eaa", "type": "electric_bike", "is_reserved": 0, "lon": -76.990612}, {"fusion_lat": 0.0, "name": "d66e15a89be3d305ba75afe67083fd3e", "is_disabled": 0, "rental_uris": {"android": "https://dc.lft.to/lastmile_qr_scan", "ios": "https://dc.lft.to/lastmile_qr_scan"}, "fusion_lon": 0.0, "lat": 38.90437816666667, "bike_id": "d66e15a89be3d305ba75afe67083fd3e", "type": "electric_scooter", "is_reserved": 0, "lon": -77.04337966666667}, {"fusion_lat": 0.0, "name": "662b53a3b53975c0136593981c41f69c", "is_disabled": 0, "rental_uris": {"android": "https://dc.lft.to/lastmile_qr_scan", "ios": "https://dc.lft.to/lastmile_qr_scan"}, "fusion_lon": 0.0, "lat": 38.908812, "bike_id": "662b53a3b53975c0136593981c41f69c", "type": "electric_scooter", "is_reserved": 0, "lon": -77.04307116666666}, {"fusion_lat": 0.0, "name": "4e4974b75bbc75bec536f2e3d4b7d8be", "is_disabled": 0, "rental_uris": {"android": "https://dc.lft.to/lastmile_qr_scan", "ios": "https://dc.lft.to/lastmile_qr_scan"}, "fusion_lon": 0.0, "lat": 38.8983465, "bike_id": "4e4974b75bbc75bec536f2e3d4b7d8be", "type": "electric_scooter", "is_reserved": 0, "lon": -77.00747183333333}, {"fusion_lat": 0.0, "name": "137e669a60067a803ab0e16a7330e0e5", "is_disabled": 0, "rental_uris": {"android": "https://dc.lft.to/lastmile_qr_scan", "ios": "https://dc.lft.to/lastmile_qr_scan"}, "fusion_lon": 0.0, "lat": 38.8968795, "bike_id": "137e669a60067a803ab0e16a7330e0e5", "type": "electric_bike", "is_reserved": 0, "lon": -76.99623866666667}, {"fusion_lat": 0.0, "name": "dd8350648ceff016a52f83033c6d22dd", "is_disabled": 0, "rental_uris": {"android": "https://dc.lft.to/lastmile_qr_scan", "ios": "https://dc.lft.to/lastmile_qr_scan"}, "fusion_lon": 0.0, "lat": 38.9089055, "bike_id": "dd8350648ceff016a52f83033c6d22dd", "type": "electric_scooter", "is_reserved": 0, "lon": -77.002728}, {"fusion_lat": 0.0, "name": "07313d1a2b9297317a2f98725db61277", "is_disabled": 0, "rental_uris": {"android": "https://dc.lft.to/lastmile_qr_scan", "ios": "https://dc.lft.to/lastmile_qr_scan"}, "fusion_lon": 0.0, "lat": 38.8943245, "bike_id": "07313d1a2b9297317a2f98725db61277", "type": "electric_scooter", "is_reserved": 0, "lon": -77.02642883333333}, {"fusion_lat": 0.0, "name": "c54b746eb4edb8377fbde4d9b98057b3", "is_disabled": 0, "rental_uris": {"android": "https://dc.lft.to/lastmile_qr_scan", "ios": "https://dc.lft.to/lastmile_qr_scan"}, "fusion_lon": 0.0, "lat": 38.883078, "bike_id": "c54b746eb4edb8377fbde4d9b98057b3", "type": "electric_scooter", "is_reserved": 0, "lon": -76.9916325}, {"fusion_lat": 0.0, "name": "1bac21dfdbd5644bd0ccf604cd0eb705", "is_disabled": 0, "rental_uris": {"android": "https://dc.lft.to/lastmile_qr_scan", "ios": "https://dc.lft.to/lastmile_qr_scan"}, "fusion_lon": 0.0, "lat": 38.912842166666664, "bike_id": "1bac21dfdbd5644bd0ccf604cd0eb705", "type": "electric_scooter", "is_reserved": 0, "lon": -77.03859383333334}, {"fusion_lat": 0.0, "name": "fd6caf7362e13cc5086de230ab1ae095", "is_disabled": 0, "rental_uris": {"android": "https://dc.lft.to/lastmile_qr_scan", "ios": "https://dc.lft.to/lastmile_qr_scan"}, "fusion_lon": 0.0, "lat": 38.90008566666667, "bike_id": "fd6caf7362e13cc5086de230ab1ae095", "type": "electric_scooter", "is_reserved": 0, "lon": -77.02293}, {"fusion_lat": 0.0, "name": "615a973ed6a5cbf88686c8cfdbbc66d1", "is_disabled": 0, "rental_uris": {"android": "https://dc.lft.to/lastmile_qr_scan", "ios": "https://dc.lft.to/lastmile_qr_scan"}, "fusion_lon": 0.0, "lat": 38.95747333333333, "bike_id": "615a973ed6a5cbf88686c8cfdbbc66d1", "type": "electric_bike", "is_reserved": 0, "lon": -76.97256366666667}, {"fusion_lat": 0.0, "name": "45d6e1982104ba3423c0c5cc8a7efd3d", "is_disabled": 0, "rental_uris": {"android": "https://dc.lft.to/lastmile_qr_scan", "ios": "https://dc.lft.to/lastmile_qr_scan"}, "fusion_lon": 0.0, "lat": 38.897233166666666, "bike_id": "45d6e1982104ba3423c0c5cc8a7efd3d", "type": "electric_scooter", "is_reserved": 0, "lon": -77.0201115}, {"fusion_lat": 0.0, "name": "75dccdb35210b64a99ff80573e7ae786", "is_disabled": 0, "rental_uris": {"android": "https://dc.lft.to/lastmile_qr_scan", "ios": "https://dc.lft.to/lastmile_qr_scan"}, "fusion_lon": 0.0, "lat": 38.92223466666667, "bike_id": "75dccdb35210b64a99ff80573e7ae786", "type": "electric_scooter", "is_reserved": 0, "lon": -76.99355083333333}, {"fusion_lat": 0.0, "name": "53aca7aa0e460636866876c83602b8e7", "is_disabled": 0, "rental_uris": {"android": "https://dc.lft.to/lastmile_qr_scan", "ios": "https://dc.lft.to/lastmile_qr_scan"}, "fusion_lon": 0.0, "lat": 38.91325633333334, "bike_id": "53aca7aa0e460636866876c83602b8e7", "type": "electric_scooter", "is_reserved": 0, "lon": -77.02961366666666}, {"fusion_lat": 0.0, "name": "74cd78e8f91bc851eaa336936b396551", "is_disabled": 0, "rental_uris": {"android": "https://dc.lft.to/lastmile_qr_scan", "ios": "https://dc.lft.to/lastmile_qr_scan"}, "fusion_lon": 0.0, "lat": 38.95066416666667, "bike_id": "74cd78e8f91bc851eaa336936b396551", "type": "electric_bike", "is_reserved": 0, "lon": -77.07232433333333}, {"fusion_lat": 0.0, "name": "a3d5a0632b88487353b903d796eecbb0", "is_disabled": 0, "rental_uris": {"android": "https://dc.lft.to/lastmile_qr_scan", "ios": "https://dc.lft.to/lastmile_qr_scan"}, "fusion_lon": 0.0, "lat": 38.9563865, "bike_id": "a3d5a0632b88487353b903d796eecbb0", "type": "electric_scooter", "is_reserved": 0, "lon": -77.03305716666667}, {"fusion_lat": 0.0, "name": "5100600711ce17df8a43ab1dcedfdf3b", "is_disabled": 0, "rental_uris": {"android": "https://dc.lft.to/lastmile_qr_scan", "ios": "https://dc.lft.to/lastmile_qr_scan"}, "fusion_lon": 0.0, "lat": 38.916560833333335, "bike_id": "5100600711ce17df8a43ab1dcedfdf3b", "type": "electric_scooter", "is_reserved": 0, "lon": -77.038673}, {"fusion_lat": 0.0, "name": "9600c5aebd87b567c69b483b89207034", "is_disabled": 0, "rental_uris": {"android": "https://dc.lft.to/lastmile_qr_scan", "ios": "https://dc.lft.to/lastmile_qr_scan"}, "fusion_lon": 0.0, "lat": 38.95882816666666, "bike_id": "9600c5aebd87b567c69b483b89207034", "type": "electric_bike", "is_reserved": 0, "lon": -76.97049566666666}, {"fusion_lat": 0.0, "name": "b545182ab8f8f7f533d9d3aa9ce95d83", "is_disabled": 0, "rental_uris": {"android": "https://dc.lft.to/lastmile_qr_scan", "ios": "https://dc.lft.to/lastmile_qr_scan"}, "fusion_lon": 0.0, "lat": 38.92094933333333, "bike_id": "b545182ab8f8f7f533d9d3aa9ce95d83", "type": "electric_scooter", "is_reserved": 0, "lon": -77.07367533333333}, {"fusion_lat": 0.0, "name": "ac9ceee31ebff48f321c5831346df36e", "is_disabled": 0, "rental_uris": {"android": "https://dc.lft.to/lastmile_qr_scan", "ios": "https://dc.lft.to/lastmile_qr_scan"}, "fusion_lon": 0.0, "lat": 38.9574065, "bike_id": "ac9ceee31ebff48f321c5831346df36e", "type": "electric_bike", "is_reserved": 0, "lon": -77.02169366666666}, {"fusion_lat": 0.0, "name": "4f0d1438ee68abe9fb8d2ca19b0c35aa", "is_disabled": 0, "rental_uris": {"android": "https://dc.lft.to/lastmile_qr_scan", "ios": "https://dc.lft.to/lastmile_qr_scan"}, "fusion_lon": 0.0, "lat": 38.92666416666667, "bike_id": "4f0d1438ee68abe9fb8d2ca19b0c35aa", "type": "electric_bike", "is_reserved": 0, "lon": -77.09848916666667}, {"fusion_lat": 0.0, "name": "1f6a65d6685bc11fd3ed59c8a9454e48", "is_disabled": 0, "rental_uris": {"android": "https://dc.lft.to/lastmile_qr_scan", "ios": "https://dc.lft.to/lastmile_qr_scan"}, "fusion_lon": 0.0, "lat": 38.8976425, "bike_id": "1f6a65d6685bc11fd3ed59c8a9454e48", "type": "electric_scooter", "is_reserved": 0, "lon": -76.9855565}, {"fusion_lat": 0.0, "name": "a08f852d4c2150b80127f8316c2f6cb3", "is_disabled": 0, "rental_uris": {"android": "https://dc.lft.to/lastmile_qr_scan", "ios": "https://dc.lft.to/lastmile_qr_scan"}, "fusion_lon": 0.0, "lat": 38.91401183333333, "bike_id": "a08f852d4c2150b80127f8316c2f6cb3", "type": "electric_scooter", "is_reserved": 0, "lon": -77.026616}, {"fusion_lat": 0.0, "name": "555eb31b0e194818e3d8098c9250e733", "is_disabled": 0, "rental_uris": {"android": "https://dc.lft.to/lastmile_qr_scan", "ios": "https://dc.lft.to/lastmile_qr_scan"}, "fusion_lon": 0.0, "lat": 38.9465295, "bike_id": "555eb31b0e194818e3d8098c9250e733", "type": "electric_scooter", "is_reserved": 0, "lon": -77.064746}, {"fusion_lat": 0.0, "name": "04a44b7b0f6d7a870aec39bc288912a4", "is_disabled": 0, "rental_uris": {"android": "https://dc.lft.to/lastmile_qr_scan", "ios": "https://dc.lft.to/lastmile_qr_scan"}, "fusion_lon": 0.0, "lat": 38.89835883333333, "bike_id": "04a44b7b0f6d7a870aec39bc288912a4", "type": "electric_scooter", "is_reserved": 0, "lon": -76.931788}, {"fusion_lat": 0.0, "name": "73ca046a392f94f018143340630543e9", "is_disabled": 0, "rental_uris": {"android": "https://dc.lft.to/lastmile_qr_scan", "ios": "https://dc.lft.to/lastmile_qr_scan"}, "fusion_lon": 0.0, "lat": 38.91554883333333, "bike_id": "73ca046a392f94f018143340630543e9", "type": "electric_scooter", "is_reserved": 0, "lon": -77.03172833333333}, {"fusion_lat": 0.0, "name": "7d648a212719684c3e6a3bf808f3af6f", "is_disabled": 0, "rental_uris": {"android": "https://dc.lft.to/lastmile_qr_scan", "ios": "https://dc.lft.to/lastmile_qr_scan"}, "fusion_lon": 0.0, "lat": 38.84054533333333, "bike_id": "7d648a212719684c3e6a3bf808f3af6f", "type": "electric_scooter", "is_reserved": 0, "lon": -76.976677}, {"fusion_lat": 0.0, "name": "7aea2fbe878fe9e757954a2bac27ebbe", "is_disabled": 0, "rental_uris": {"android": "https://dc.lft.to/lastmile_qr_scan", "ios": "https://dc.lft.to/lastmile_qr_scan"}, "fusion_lon": 0.0, "lat": 38.949929833333336, "bike_id": "7aea2fbe878fe9e757954a2bac27ebbe", "type": "electric_scooter", "is_reserved": 0, "lon": -77.02706066666667}, {"fusion_lat": 0.0, "name": "26a1a4ebae8ad1647c265b83c0073565", "is_disabled": 0, "rental_uris": {"android": "https://dc.lft.to/lastmile_qr_scan", "ios": "https://dc.lft.to/lastmile_qr_scan"}, "fusion_lon": 0.0, "lat": 38.91061216666667, "bike_id": "26a1a4ebae8ad1647c265b83c0073565", "type": "electric_scooter", "is_reserved": 0, "lon": -77.04106466666667}, {"fusion_lat": 0.0, "name": "105d2153cc76fc638359954887f650a8", "is_disabled": 0, "rental_uris": {"android": "https://dc.lft.to/lastmile_qr_scan", "ios": "https://dc.lft.to/lastmile_qr_scan"}, "fusion_lon": 0.0, "lat": 38.88596666666667, "bike_id": "105d2153cc76fc638359954887f650a8", "type": "electric_scooter", "is_reserved": 0, "lon": -77.01717316666667}, {"fusion_lat": 0.0, "name": "5752537ef6f8d42cd0e3e3cec7bdbe43", "is_disabled": 0, "rental_uris": {"android": "https://dc.lft.to/lastmile_qr_scan", "ios": "https://dc.lft.to/lastmile_qr_scan"}, "fusion_lon": 0.0, "lat": 38.89207233333333, "bike_id": "5752537ef6f8d42cd0e3e3cec7bdbe43", "type": "electric_bike", "is_reserved": 0, "lon": -76.97051683333333}, {"fusion_lat": 0.0, "name": "df8bd2c94268afd1db3195564d08bfbf", "is_disabled": 0, "rental_uris": {"android": "https://dc.lft.to/lastmile_qr_scan", "ios": "https://dc.lft.to/lastmile_qr_scan"}, "fusion_lon": 0.0, "lat": 38.95062133333333, "bike_id": "df8bd2c94268afd1db3195564d08bfbf", "type": "electric_scooter", "is_reserved": 0, "lon": -77.08023166666666}, {"fusion_lat": 0.0, "name": "3c918369d46c106c450f384c0c41b725", "is_disabled": 0, "rental_uris": {"android": "https://dc.lft.to/lastmile_qr_scan", "ios": "https://dc.lft.to/lastmile_qr_scan"}, "fusion_lon": 0.0, "lat": 38.93400483333333, "bike_id": "3c918369d46c106c450f384c0c41b725", "type": "electric_scooter", "is_reserved": 0, "lon": -77.05744833333334}, {"fusion_lat": 0.0, "name": "c6aec7da5a4ee8a7aafcf806abf430a3", "is_disabled": 0, "rental_uris": {"android": "https://dc.lft.to/lastmile_qr_scan", "ios": "https://dc.lft.to/lastmile_qr_scan"}, "fusion_lon": 0.0, "lat": 38.924563, "bike_id": "c6aec7da5a4ee8a7aafcf806abf430a3", "type": "electric_scooter", "is_reserved": 0, "lon": -77.04202883333333}, {"fusion_lat": 0.0, "name": "3b027e80a0d269612c95e9f6f8e2e88e", "is_disabled": 0, "rental_uris": {"android": "https://dc.lft.to/lastmile_qr_scan", "ios": "https://dc.lft.to/lastmile_qr_scan"}, "fusion_lon": 0.0, "lat": 38.89812966666667, "bike_id": "3b027e80a0d269612c95e9f6f8e2e88e", "type": "electric_scooter", "is_reserved": 0, "lon": -77.02812133333333}, {"fusion_lat": 0.0, "name": "3d42679b2bdc3dedad79c4be1a0efc63", "is_disabled": 0, "rental_uris": {"android": "https://dc.lft.to/lastmile_qr_scan", "ios": "https://dc.lft.to/lastmile_qr_scan"}, "fusion_lon": 0.0, "lat": 38.89676433333333, "bike_id": "3d42679b2bdc3dedad79c4be1a0efc63", "type": "electric_scooter", "is_reserved": 0, "lon": -77.00517183333334}, {"fusion_lat": 0.0, "name": "796e5156970ba758a69dadf2615886da", "is_disabled": 0, "rental_uris": {"android": "https://dc.lft.to/lastmile_qr_scan", "ios": "https://dc.lft.to/lastmile_qr_scan"}, "fusion_lon": 0.0, "lat": 38.90830666666667, "bike_id": "796e5156970ba758a69dadf2615886da", "type": "electric_scooter", "is_reserved": 0, "lon": -76.98423833333334}, {"fusion_lat": 0.0, "name": "a7d0e2ab550b7e6ff7420b898e0695b3", "is_disabled": 0, "rental_uris": {"android": "https://dc.lft.to/lastmile_qr_scan", "ios": "https://dc.lft.to/lastmile_qr_scan"}, "fusion_lon": 0.0, "lat": 38.91830216666666, "bike_id": "a7d0e2ab550b7e6ff7420b898e0695b3", "type": "electric_scooter", "is_reserved": 0, "lon": -77.0319435}, {"fusion_lat": 0.0, "name": "a282ea29ea1db9ff6cfb1806180d830b", "is_disabled": 0, "rental_uris": {"android": "https://dc.lft.to/lastmile_qr_scan", "ios": "https://dc.lft.to/lastmile_qr_scan"}, "fusion_lon": 0.0, "lat": 38.900399166666666, "bike_id": "a282ea29ea1db9ff6cfb1806180d830b", "type": "electric_scooter", "is_reserved": 0, "lon": -77.03468683333334}, {"fusion_lat": 0.0, "name": "6136fa983a7bd8485588ba367078cdf0", "is_disabled": 0, "rental_uris": {"android": "https://dc.lft.to/lastmile_qr_scan", "ios": "https://dc.lft.to/lastmile_qr_scan"}, "fusion_lon": 0.0, "lat": 38.9196195, "bike_id": "6136fa983a7bd8485588ba367078cdf0", "type": "electric_scooter", "is_reserved": 0, "lon": -77.0177685}, {"fusion_lat": 0.0, "name": "e1d3023fab0b1b9850beee88f24e312c", "is_disabled": 0, "rental_uris": {"android": "https://dc.lft.to/lastmile_qr_scan", "ios": "https://dc.lft.to/lastmile_qr_scan"}, "fusion_lon": 0.0, "lat": 38.884707166666665, "bike_id": "e1d3023fab0b1b9850beee88f24e312c", "type": "electric_scooter", "is_reserved": 0, "lon": -77.01529933333333}, {"fusion_lat": 0.0, "name": "71c36dc98bfb2cbadbd855f1abf50cb5", "is_disabled": 0, "rental_uris": {"android": "https://dc.lft.to/lastmile_qr_scan", "ios": "https://dc.lft.to/lastmile_qr_scan"}, "fusion_lon": 0.0, "lat": 39.00383883333333, "bike_id": "71c36dc98bfb2cbadbd855f1abf50cb5", "type": "electric_bike", "is_reserved": 0, "lon": -77.01281533333334}, {"fusion_lat": 0.0, "name": "31ee7beec3f93972bfcd904b20e9159c", "is_disabled": 0, "rental_uris": {"android": "https://dc.lft.to/lastmile_qr_scan", "ios": "https://dc.lft.to/lastmile_qr_scan"}, "fusion_lon": 0.0, "lat": 38.88324216666667, "bike_id": "31ee7beec3f93972bfcd904b20e9159c", "type": "electric_scooter", "is_reserved": 0, "lon": -77.01670533333333}, {"fusion_lat": 0.0, "name": "203631dbca20485e367e0df66ae4c400", "is_disabled": 0, "rental_uris": {"android": "https://dc.lft.to/lastmile_qr_scan", "ios": "https://dc.lft.to/lastmile_qr_scan"}, "fusion_lon": 0.0, "lat": 38.931838666666664, "bike_id": "203631dbca20485e367e0df66ae4c400", "type": "electric_scooter", "is_reserved": 0, "lon": -77.0731915}, {"fusion_lat": 0.0, "name": "f8335fb869193ffaed9577fafc1951d7", "is_disabled": 0, "rental_uris": {"android": "https://dc.lft.to/lastmile_qr_scan", "ios": "https://dc.lft.to/lastmile_qr_scan"}, "fusion_lon": 0.0, "lat": 38.923672833333335, "bike_id": "f8335fb869193ffaed9577fafc1951d7", "type": "electric_scooter", "is_reserved": 0, "lon": -77.01902433333333}, {"fusion_lat": 0.0, "name": "3e11f2c269d50e08e5084927b5678327", "is_disabled": 0, "rental_uris": {"android": "https://dc.lft.to/lastmile_qr_scan", "ios": "https://dc.lft.to/lastmile_qr_scan"}, "fusion_lon": 0.0, "lat": 38.92895166666667, "bike_id": "3e11f2c269d50e08e5084927b5678327", "type": "electric_scooter", "is_reserved": 0, "lon": -77.03224883333333}, {"fusion_lat": 0.0, "name": "c18ee4b9b468be90f87706237d04ff24", "is_disabled": 0, "rental_uris": {"android": "https://dc.lft.to/lastmile_qr_scan", "ios": "https://dc.lft.to/lastmile_qr_scan"}, "fusion_lon": 0.0, "lat": 38.88495833333333, "bike_id": "c18ee4b9b468be90f87706237d04ff24", "type": "electric_scooter", "is_reserved": 0, "lon": -77.01088833333333}, {"fusion_lat": 0.0, "name": "24bb990416a43337332e94cbfb7fb694", "is_disabled": 0, "rental_uris": {"android": "https://dc.lft.to/lastmile_qr_scan", "ios": "https://dc.lft.to/lastmile_qr_scan"}, "fusion_lon": 0.0, "lat": 38.9052735, "bike_id": "24bb990416a43337332e94cbfb7fb694", "type": "electric_scooter", "is_reserved": 0, "lon": -77.04341083333334}, {"fusion_lat": 0.0, "name": "4e654680038c30c6299fb5d55c8f5a5b", "is_disabled": 0, "rental_uris": {"android": "https://dc.lft.to/lastmile_qr_scan", "ios": "https://dc.lft.to/lastmile_qr_scan"}, "fusion_lon": 0.0, "lat": 38.9295765, "bike_id": "4e654680038c30c6299fb5d55c8f5a5b", "type": "electric_scooter", "is_reserved": 0, "lon": -77.018159}, {"fusion_lat": 0.0, "name": "84e7f257e9f342d168711e7cf3f45ca0", "is_disabled": 0, "rental_uris": {"android": "https://dc.lft.to/lastmile_qr_scan", "ios": "https://dc.lft.to/lastmile_qr_scan"}, "fusion_lon": 0.0, "lat": 38.87792683333333, "bike_id": "84e7f257e9f342d168711e7cf3f45ca0", "type": "electric_scooter", "is_reserved": 0, "lon": -77.00119583333333}, {"fusion_lat": 0.0, "name": "04800ad45b3ed593aacf6a4472eff5e4", "is_disabled": 0, "rental_uris": {"android": "https://dc.lft.to/lastmile_qr_scan", "ios": "https://dc.lft.to/lastmile_qr_scan"}, "fusion_lon": 0.0, "lat": 38.91824183333333, "bike_id": "04800ad45b3ed593aacf6a4472eff5e4", "type": "electric_scooter", "is_reserved": 0, "lon": -77.041736}, {"fusion_lat": 0.0, "name": "8cb49258e022992e4a94d891497f5f30", "is_disabled": 0, "rental_uris": {"android": "https://dc.lft.to/lastmile_qr_scan", "ios": "https://dc.lft.to/lastmile_qr_scan"}, "fusion_lon": 0.0, "lat": 38.935152333333335, "bike_id": "8cb49258e022992e4a94d891497f5f30", "type": "electric_scooter", "is_reserved": 0, "lon": -77.05838966666667}, {"fusion_lat": 0.0, "name": "2d9bfce91212b9266bba48dfe0c142a7", "is_disabled": 0, "rental_uris": {"android": "https://dc.lft.to/lastmile_qr_scan", "ios": "https://dc.lft.to/lastmile_qr_scan"}, "fusion_lon": 0.0, "lat": 38.9099155, "bike_id": "2d9bfce91212b9266bba48dfe0c142a7", "type": "electric_scooter", "is_reserved": 0, "lon": -77.0239965}, {"fusion_lat": 0.0, "name": "07b9a0b56baa7c8143a9779c8e42a569", "is_disabled": 0, "rental_uris": {"android": "https://dc.lft.to/lastmile_qr_scan", "ios": "https://dc.lft.to/lastmile_qr_scan"}, "fusion_lon": 0.0, "lat": 38.90772183333333, "bike_id": "07b9a0b56baa7c8143a9779c8e42a569", "type": "electric_scooter", "is_reserved": 0, "lon": -77.02966116666667}, {"fusion_lat": 0.0, "name": "21db50f6f64d8537d6711e1e120dd569", "is_disabled": 0, "rental_uris": {"android": "https://dc.lft.to/lastmile_qr_scan", "ios": "https://dc.lft.to/lastmile_qr_scan"}, "fusion_lon": 0.0, "lat": 38.9156445, "bike_id": "21db50f6f64d8537d6711e1e120dd569", "type": "electric_bike", "is_reserved": 0, "lon": -77.0093065}, {"fusion_lat": 0.0, "name": "5c349b25c1195f1863f120803485d32d", "is_disabled": 0, "rental_uris": {"android": "https://dc.lft.to/lastmile_qr_scan", "ios": "https://dc.lft.to/lastmile_qr_scan"}, "fusion_lon": 0.0, "lat": 38.901402, "bike_id": "5c349b25c1195f1863f120803485d32d", "type": "electric_scooter", "is_reserved": 0, "lon": -77.06074833333334}, {"fusion_lat": 0.0, "name": "b4e2d40c253a75731c6ed5b145ea2253", "is_disabled": 0, "rental_uris": {"android": "https://dc.lft.to/lastmile_qr_scan", "ios": "https://dc.lft.to/lastmile_qr_scan"}, "fusion_lon": 0.0, "lat": 38.951826, "bike_id": "b4e2d40c253a75731c6ed5b145ea2253", "type": "electric_scooter", "is_reserved": 0, "lon": -77.0272625}, {"fusion_lat": 0.0, "name": "102712e84fb2eb5cf59f99a48d3ae90c", "is_disabled": 0, "rental_uris": {"android": "https://dc.lft.to/lastmile_qr_scan", "ios": "https://dc.lft.to/lastmile_qr_scan"}, "fusion_lon": 0.0, "lat": 38.90269333333333, "bike_id": "102712e84fb2eb5cf59f99a48d3ae90c", "type": "electric_scooter", "is_reserved": 0, "lon": -77.0532675}, {"fusion_lat": 0.0, "name": "f59d908edab28f39e6f2e530ece14f2a", "is_disabled": 0, "rental_uris": {"android": "https://dc.lft.to/lastmile_qr_scan", "ios": "https://dc.lft.to/lastmile_qr_scan"}, "fusion_lon": 0.0, "lat": 38.89608366666667, "bike_id": "f59d908edab28f39e6f2e530ece14f2a", "type": "electric_scooter", "is_reserved": 0, "lon": -77.0265705}, {"fusion_lat": 0.0, "name": "93b5b1b74ac38e7fa0d362d4a3ea4d05", "is_disabled": 0, "rental_uris": {"android": "https://dc.lft.to/lastmile_qr_scan", "ios": "https://dc.lft.to/lastmile_qr_scan"}, "fusion_lon": 0.0, "lat": 38.88411583333333, "bike_id": "93b5b1b74ac38e7fa0d362d4a3ea4d05", "type": "electric_bike", "is_reserved": 0, "lon": -76.954092}, {"fusion_lat": 0.0, "name": "97d7f2cbe810148b07cd9b7374e52726", "is_disabled": 0, "rental_uris": {"android": "https://dc.lft.to/lastmile_qr_scan", "ios": "https://dc.lft.to/lastmile_qr_scan"}, "fusion_lon": 0.0, "lat": 38.879453166666664, "bike_id": "97d7f2cbe810148b07cd9b7374e52726", "type": "electric_scooter", "is_reserved": 0, "lon": -77.00896983333334}, {"fusion_lat": 0.0, "name": "da39d6216fac4f9f3f68be19f3cdfc6a", "is_disabled": 0, "rental_uris": {"android": "https://dc.lft.to/lastmile_qr_scan", "ios": "https://dc.lft.to/lastmile_qr_scan"}, "fusion_lon": 0.0, "lat": 38.88719616666667, "bike_id": "da39d6216fac4f9f3f68be19f3cdfc6a", "type": "electric_scooter", "is_reserved": 0, "lon": -76.9964565}, {"fusion_lat": 0.0, "name": "76b78c072dfc81594d985615281ad6b7", "is_disabled": 0, "rental_uris": {"android": "https://dc.lft.to/lastmile_qr_scan", "ios": "https://dc.lft.to/lastmile_qr_scan"}, "fusion_lon": 0.0, "lat": 38.903913833333334, "bike_id": "76b78c072dfc81594d985615281ad6b7", "type": "electric_scooter", "is_reserved": 0, "lon": -77.01837166666667}, {"fusion_lat": 0.0, "name": "a14eb1d76c382386ec97cd1685f221cd", "is_disabled": 0, "rental_uris": {"android": "https://dc.lft.to/lastmile_qr_scan", "ios": "https://dc.lft.to/lastmile_qr_scan"}, "fusion_lon": 0.0, "lat": 39.032046, "bike_id": "a14eb1d76c382386ec97cd1685f221cd", "type": "electric_bike", "is_reserved": 0, "lon": -77.04727416666667}, {"fusion_lat": 0.0, "name": "96a23605d5735147034f81324b562e60", "is_disabled": 0, "rental_uris": {"android": "https://dc.lft.to/lastmile_qr_scan", "ios": "https://dc.lft.to/lastmile_qr_scan"}, "fusion_lon": 0.0, "lat": 38.90530166666667, "bike_id": "96a23605d5735147034f81324b562e60", "type": "electric_scooter", "is_reserved": 0, "lon": -77.056824}, {"fusion_lat": 0.0, "name": "49bd905cfd949993531fd2dca4e2b235", "is_disabled": 0, "rental_uris": {"android": "https://dc.lft.to/lastmile_qr_scan", "ios": "https://dc.lft.to/lastmile_qr_scan"}, "fusion_lon": 0.0, "lat": 38.928525, "bike_id": "49bd905cfd949993531fd2dca4e2b235", "type": "electric_scooter", "is_reserved": 0, "lon": -77.02438133333334}, {"fusion_lat": 0.0, "name": "c92b835bdb06310270dd7f1b6988fef1", "is_disabled": 0, "rental_uris": {"android": "https://dc.lft.to/lastmile_qr_scan", "ios": "https://dc.lft.to/lastmile_qr_scan"}, "fusion_lon": 0.0, "lat": 38.88770566666667, "bike_id": "c92b835bdb06310270dd7f1b6988fef1", "type": "electric_scooter", "is_reserved": 0, "lon": -76.97752466666667}, {"fusion_lat": 0.0, "name": "a4416215bb473bdd975be0855456b7a2", "is_disabled": 0, "rental_uris": {"android": "https://dc.lft.to/lastmile_qr_scan", "ios": "https://dc.lft.to/lastmile_qr_scan"}, "fusion_lon": 0.0, "lat": 38.892332, "bike_id": "a4416215bb473bdd975be0855456b7a2", "type": "electric_scooter", "is_reserved": 0, "lon": -77.01716333333333}, {"fusion_lat": 0.0, "name": "b7b8ea7c86354517851f57484ea6e2da", "is_disabled": 0, "rental_uris": {"android": "https://dc.lft.to/lastmile_qr_scan", "ios": "https://dc.lft.to/lastmile_qr_scan"}, "fusion_lon": 0.0, "lat": 38.8964285, "bike_id": "b7b8ea7c86354517851f57484ea6e2da", "type": "electric_scooter", "is_reserved": 0, "lon": -77.0093065}, {"fusion_lat": 0.0, "name": "52ab24cc7c9fbd956a6c51db5c6ee989", "is_disabled": 0, "rental_uris": {"android": "https://dc.lft.to/lastmile_qr_scan", "ios": "https://dc.lft.to/lastmile_qr_scan"}, "fusion_lon": 0.0, "lat": 38.921129, "bike_id": "52ab24cc7c9fbd956a6c51db5c6ee989", "type": "electric_scooter", "is_reserved": 0, "lon": -77.04389566666667}, {"fusion_lat": 0.0, "name": "57cd314c2c404eec04f72f727788bfe6", "is_disabled": 0, "rental_uris": {"android": "https://dc.lft.to/lastmile_qr_scan", "ios": "https://dc.lft.to/lastmile_qr_scan"}, "fusion_lon": 0.0, "lat": 38.915373, "bike_id": "57cd314c2c404eec04f72f727788bfe6", "type": "electric_scooter", "is_reserved": 0, "lon": -77.01222583333333}, {"fusion_lat": 0.0, "name": "fa6f994b7c6e180fbf4e8c81869fb42d", "is_disabled": 0, "rental_uris": {"android": "https://dc.lft.to/lastmile_qr_scan", "ios": "https://dc.lft.to/lastmile_qr_scan"}, "fusion_lon": 0.0, "lat": 38.91917566666667, "bike_id": "fa6f994b7c6e180fbf4e8c81869fb42d", "type": "electric_scooter", "is_reserved": 0, "lon": -77.03181333333333}, {"fusion_lat": 0.0, "name": "eefcab7cbc07734109a4ceb706245470", "is_disabled": 0, "rental_uris": {"android": "https://dc.lft.to/lastmile_qr_scan", "ios": "https://dc.lft.to/lastmile_qr_scan"}, "fusion_lon": 0.0, "lat": 38.90691316666667, "bike_id": "eefcab7cbc07734109a4ceb706245470", "type": "electric_scooter", "is_reserved": 0, "lon": -76.98496883333334}, {"fusion_lat": 0.0, "name": "1d5d2e21a27f0fcd7b5a0d03a7472a4b", "is_disabled": 0, "rental_uris": {"android": "https://dc.lft.to/lastmile_qr_scan", "ios": "https://dc.lft.to/lastmile_qr_scan"}, "fusion_lon": 0.0, "lat": 38.92824133333333, "bike_id": "1d5d2e21a27f0fcd7b5a0d03a7472a4b", "type": "electric_scooter", "is_reserved": 0, "lon": -77.05446533333334}, {"fusion_lat": 0.0, "name": "92803f690c23ead1d23d118641cfc231", "is_disabled": 0, "rental_uris": {"android": "https://dc.lft.to/lastmile_qr_scan", "ios": "https://dc.lft.to/lastmile_qr_scan"}, "fusion_lon": 0.0, "lat": 38.8971975, "bike_id": "92803f690c23ead1d23d118641cfc231", "type": "electric_scooter", "is_reserved": 0, "lon": -77.0079665}, {"fusion_lat": 0.0, "name": "81e56900d39cd2caad0715d021a974cb", "is_disabled": 0, "rental_uris": {"android": "https://dc.lft.to/lastmile_qr_scan", "ios": "https://dc.lft.to/lastmile_qr_scan"}, "fusion_lon": 0.0, "lat": 38.85461816666667, "bike_id": "81e56900d39cd2caad0715d021a974cb", "type": "electric_scooter", "is_reserved": 0, "lon": -76.97236116666667}, {"fusion_lat": 0.0, "name": "e4fdc4e461b76aa06100f45388c1c275", "is_disabled": 0, "rental_uris": {"android": "https://dc.lft.to/lastmile_qr_scan", "ios": "https://dc.lft.to/lastmile_qr_scan"},