{"data": {"bikes": [{"name": "a713e281f442ae66d08604b6efd46625", "fusion_lon": 0.0, "lat": 38.90227866666667, "is_reserved": 0, "type": "electric_scooter", "bike_id": "a713e281f442ae66d08604b6efd46625", "is_disabled": 0, "rental_uris": {"android": "https://dc.lft.to/lastmile_qr_scan", "ios": "https://dc.lft.to/lastmile_qr_scan"}, "lon": -77.0283585, "fusion_lat": 0.0}, {"name": "a0b1bc42b80e018e217adc041ae3baa2", "fusion_lon": 0.0, "lat": 38.878723666666666, "is_reserved": 0, "type": "electric_scooter", "bike_id": "a0b1bc42b80e018e217adc041ae3baa2", "is_disabled": 0, "rental_uris": {"android": "https://dc.lft.to/lastmile_qr_scan", "ios": "https://dc.lft.to/lastmile_qr_scan"}, "lon": -77.00827633333333, "fusion_lat": 0.0}, {"name": "911114bd21ad0d311e985771c34db2de", "fusion_lon": 0.0, "lat": 38.909342333333335, "is_reserved": 0, "type": "electric_scooter", "bike_id": "911114bd21ad0d311e985771c34db2de", "is_disabled": 0, "rental_uris": {"android": "https://dc.lft.to/lastmile_qr_scan", "ios": "https://dc.lft.to/lastmile_qr_scan"}, "lon": -77.0269965, "fusion_lat": 0.0}, {"name": "d02641cf000bdc7eb03f579dabca8697", "fusion_lon": 0.0, "lat": 38.89612866666667, "is_reserved": 0, "type": "electric_scooter", "bike_id": "d02641cf000bdc7eb03f579dabca8697", "is_disabled": 0, "rental_uris": {"android": "https://dc.lft.to/lastmile_qr_scan", "ios": "https://dc.lft.to/lastmile_qr_scan"}, "lon": -77.050565, "fusion_lat": 0.0}, {"name": "5d98bca9e624f9d5c2cd1c8dc8a1f6a8", "fusion_lon": 0.0, "lat": 38.915549166666665, "is_reserved": 0, "type": "electric_scooter", "bike_id": "5d98bca9e624f9d5c2cd1c8dc8a1f6a8", "is_disabled": 0, "rental_uris": {"android": "https://dc.lft.to/lastmile_qr_scan", "ios": "https://dc.lft.to/lastmile_qr_scan"}, "lon": -77.03864366666667, "fusion_lat": 0.0}, {"name": "04e597798770b91f3f7b71c5a647c7a9", "fusion_lon": 0.0, "lat": 38.90268783333333, "is_reserved": 0, "type": "electric_scooter", "bike_id": "04e597798770b91f3f7b71c5a647c7a9", "is_disabled": 0, "rental_uris": {"android": "https://dc.lft.to/lastmile_qr_scan", "ios": "https://dc.lft.to/lastmile_qr_scan"}, "lon": -77.00327166666666, "fusion_lat": 0.0}, {"name": "570f430dbe7840179fdba559e9655323", "fusion_lon": 0.0, "lat": 38.8922235, "is_reserved": 0, "type": "electric_scooter", "bike_id": "570f430dbe7840179fdba559e9655323", "is_disabled": 0, "rental_uris": {"android": "https://dc.lft.to/lastmile_qr_scan", "ios": "https://dc.lft.to/lastmile_qr_scan"}, "lon": -77.0485755, "fusion_lat": 0.0}, {"name": "fb58da51a32400d9d0098b2db4637124", "fusion_lon": 0.0, "lat": 38.876286, "is_reserved": 0, "type": "electric_scooter", "bike_id": "fb58da51a32400d9d0098b2db4637124", "is_disabled": 0, "rental_uris": {"android": "https://dc.lft.to/lastmile_qr_scan", "ios": "https://dc.lft.to/lastmile_qr_scan"}, "lon": -77.00256233333333, "fusion_lat": 0.0}, {"name": "7914a985cfcbdf19c517ac2e1f60fa83", "fusion_lon": 0.0, "lat": 38.92728683333333, "is_reserved": 0, "type": "electric_scooter", "bike_id": "7914a985cfcbdf19c517ac2e1f60fa83", "is_disabled": 0, "rental_uris": {"android": "https://dc.lft.to/lastmile_qr_scan", "ios": "https://dc.lft.to/lastmile_qr_scan"}, "lon": -77.0230085, "fusion_lat": 0.0}, {"name": "bcbefded0168c30b131b72b2c9fe65ea", "fusion_lon": 0.0, "lat": 38.905649833333335, "is_reserved": 0, "type": "electric_scooter", "bike_id": "bcbefded0168c30b131b72b2c9fe65ea", "is_disabled": 0, "rental_uris": {"android": "https://dc.lft.to/lastmile_qr_scan", "ios": "https://dc.lft.to/lastmile_qr_scan"}, "lon": -77.04348966666667, "fusion_lat": 0.0}, {"name": "b7514f85f31f34a454087b4ef2918abc", "fusion_lon": 0.0, "lat": 39.00029333333333, "is_reserved": 0, "type": "electric_bike", "bike_id": "b7514f85f31f34a454087b4ef2918abc", "is_disabled": 0, "rental_uris": {"android": "https://dc.lft.to/lastmile_qr_scan", "ios": "https://dc.lft.to/lastmile_qr_scan"}, "lon": -77.0474205, "fusion_lat": 0.0}, {"name": "1fe24d7d87ad177f9a4d66d257ced866", "fusion_lon": 0.0, "lat": 38.94989016666667, "is_reserved": 0, "type": "electric_scooter", "bike_id": "1fe24d7d87ad177f9a4d66d257ced866", "is_disabled": 0, "rental_uris": {"android": "https://dc.lft.to/lastmile_qr_scan", "ios": "https://dc.lft.to/lastmile_qr_scan"}, "lon": -77.0270095, "fusion_lat": 0.0}, {"name": "4aa28077143382551744eb7a9e75e330", "fusion_lon": 0.0, "lat": 38.91120983333333, "is_reserved": 0, "type": "electric_scooter", "bike_id": "4aa28077143382551744eb7a9e75e330", "is_disabled": 0, "rental_uris": {"android": "https://dc.lft.to/lastmile_qr_scan", "ios": "https://dc.lft.to/lastmile_qr_scan"}, "lon": -77.02239966666667, "fusion_lat": 0.0}, {"name": "bd3bf2e4d106a4b3e45e9e5cf3a7d4fe", "fusion_lon": 0.0, "lat": 38.8839155, "is_reserved": 0, "type": "electric_scooter", "bike_id": "bd3bf2e4d106a4b3e45e9e5cf3a7d4fe", "is_disabled": 0, "rental_uris": {"android": "https://dc.lft.to/lastmile_qr_scan", "ios": "https://dc.lft.to/lastmile_qr_scan"}, "lon": -77.02576433333333, "fusion_lat": 0.0}, {"name": "a5e1d6cfae3d9f492ae259da53f9a836", "fusion_lon": 0.0, "lat": 38.971870333333335, "is_reserved": 0, "type": "electric_scooter", "bike_id": "a5e1d6cfae3d9f492ae259da53f9a836", "is_disabled": 0, "rental_uris": {"android": "https://dc.lft.to/lastmile_qr_scan", "ios": "https://dc.lft.to/lastmile_qr_scan"}, "lon": -77.02684083333334, "fusion_lat": 0.0}, {"name": "9b1aa191cbe40feea6917fbeb066607a", "fusion_lon": 0.0, "lat": 38.918419666666665, "is_reserved": 0, "type": "electric_scooter", "bike_id": "9b1aa191cbe40feea6917fbeb066607a", "is_disabled": 0, "rental_uris": {"android": "https://dc.lft.to/lastmile_qr_scan", "ios": "https://dc.lft.to/lastmile_qr_scan"}, "lon": -77.05949233333334, "fusion_lat": 0.0}, {"name": "daaf88e2c7ef2f114deae57af543a2d8", "fusion_lon": 0.0, "lat": 38.87860166666667, "is_reserved": 0, "type": "electric_bike", "bike_id": "daaf88e2c7ef2f114deae57af543a2d8", "is_disabled": 0, "rental_uris": {"android": "https://dc.lft.to/lastmile_qr_scan", "ios": "https://dc.lft.to/lastmile_qr_scan"}, "lon": -77.01752666666667, "fusion_lat": 0.0}, {"name": "5301580ca24ca9ab8cfc072e31cd1e45", "fusion_lon": 0.0, "lat": 38.8781735, "is_reserved": 0, "type": "electric_scooter", "bike_id": "5301580ca24ca9ab8cfc072e31cd1e45", "is_disabled": 0, "rental_uris": {"android": "https://dc.lft.to/lastmile_qr_scan", "ios": "https://dc.lft.to/lastmile_qr_scan"}, "lon": -76.931007, "fusion_lat": 0.0}, {"name": "3d78ed4a25227f277d5cf1fcf595ebfc", "fusion_lon": 0.0, "lat": 38.92890116666667, "is_reserved": 0, "type": "electric_scooter", "bike_id": "3d78ed4a25227f277d5cf1fcf595ebfc", "is_disabled": 0, "rental_uris": {"android": "https://dc.lft.to/lastmile_qr_scan", "ios": "https://dc.lft.to/lastmile_qr_scan"}, "lon": -77.01361416666667, "fusion_lat": 0.0}, {"name": "dc8e066edc5312693738868c852b4951", "fusion_lon": 0.0, "lat": 38.9041015, "is_reserved": 0, "type": "electric_scooter", "bike_id": "dc8e066edc5312693738868c852b4951", "is_disabled": 0, "rental_uris": {"android": "https://dc.lft.to/lastmile_qr_scan", "ios": "https://dc.lft.to/lastmile_qr_scan"}, "lon": -76.97327983333334, "fusion_lat": 0.0}, {"name": "cd709e806c0c9ad9331d51322453dd72", "fusion_lon": 0.0, "lat": 38.872929166666665, "is_reserved": 0, "type": "electric_bike", "bike_id": "cd709e806c0c9ad9331d51322453dd72", "is_disabled": 0, "rental_uris": {"android": "https://dc.lft.to/lastmile_qr_scan", "ios": "https://dc.lft.to/lastmile_qr_scan"}, "lon": -76.969764, "fusion_lat": 0.0}, {"name": "958d97558e56491f5da3fc8f4f3579da", "fusion_lon": 0.0, "lat": 38.88120716666667, "is_reserved": 0, "type": "electric_bike", "bike_id": "958d97558e56491f5da3fc8f4f3579da", "is_disabled": 0, "rental_uris": {"android": "https://dc.lft.to/lastmile_qr_scan", "ios": "https://dc.lft.to/lastmile_qr_scan"}, "lon": -77.01679183333333, "fusion_lat": 0.0}, {"name": "5b6a4dae7e417d78298aa5ee93fe5579", "fusion_lon": 0.0, "lat": 38.92445133333333, "is_reserved": 0, "type": "electric_scooter", "bike_id": "5b6a4dae7e417d78298aa5ee93fe5579", "is_disabled": 0, "rental_uris": {"android": "https://dc.lft.to/lastmile_qr_scan", "ios": "https://dc.lft.to/lastmile_qr_scan"}, "lon": -77.0223825, "fusion_lat": 0.0}, {"name": "8e367b03a87bf91bf40376fefcdd214d", "fusion_lon": 0.0, "lat": 38.8697555, "is_reserved": 0, "type": "electric_scooter", "bike_id": "8e367b03a87bf91bf40376fefcdd214d", "is_disabled": 0, "rental_uris": {"android": "https://dc.lft.to/lastmile_qr_scan", "ios": "https://dc.lft.to/lastmile_qr_scan"}, "lon": -77.01220583333334, "fusion_lat": 0.0}, {"name": "b00eee2f1f42cb60184673a315aaf2ec", "fusion_lon": 0.0, "lat": 38.9572965, "is_reserved": 0, "type": "electric_scooter", "bike_id": "b00eee2f1f42cb60184673a315aaf2ec", "is_disabled": 0, "rental_uris": {"android": "https://dc.lft.to/lastmile_qr_scan", "ios": "https://dc.lft.to/lastmile_qr_scan"}, "lon": -77.02427016666667, "fusion_lat": 0.0}, {"name": "ca1578aec5afc6783d45a2929ee87513", "fusion_lon": 0.0, "lat": 39.039323, "is_reserved": 0, "type": "electric_bike", "bike_id": "ca1578aec5afc6783d45a2929ee87513", "is_disabled": 0, "rental_uris": {"android": "https://dc.lft.to/lastmile_qr_scan", "ios": "https://dc.lft.to/lastmile_qr_scan"}, "lon": -77.02850733333334, "fusion_lat": 0.0}, {"name": "b30027d254b57fcf71529b860d70e092", "fusion_lon": 0.0, "lat": 38.900112, "is_reserved": 0, "type": "electric_scooter", "bike_id": "b30027d254b57fcf71529b860d70e092", "is_disabled": 0, "rental_uris": {"android": "https://dc.lft.to/lastmile_qr_scan", "ios": "https://dc.lft.to/lastmile_qr_scan"}, "lon": -76.99525116666666, "fusion_lat": 0.0}, {"name": "8b627a4f7ff4da91697efaabc3824b9d", "fusion_lon": 0.0, "lat": 38.955029833333334, "is_reserved": 0, "type": "electric_bike", "bike_id": "8b627a4f7ff4da91697efaabc3824b9d", "is_disabled": 0, "rental_uris": {"android": "https://dc.lft.to/lastmile_qr_scan", "ios": "https://dc.lft.to/lastmile_qr_scan"}, "lon": -76.99353283333333, "fusion_lat": 0.0}, {"name": "df918d10914375132fd81227d5c62602", "fusion_lon": 0.0, "lat": 38.9513495, "is_reserved": 0, "type": "electric_scooter", "bike_id": "df918d10914375132fd81227d5c62602", "is_disabled": 0, "rental_uris": {"android": "https://dc.lft.to/lastmile_qr_scan", "ios": "https://dc.lft.to/lastmile_qr_scan"}, "lon": -77.0272, "fusion_lat": 0.0}, {"name": "2a0b853152db6c2982a026d78b0f386a", "fusion_lon": 0.0, "lat": 38.9194665, "is_reserved": 0, "type": "electric_scooter", "bike_id": "2a0b853152db6c2982a026d78b0f386a", "is_disabled": 0, "rental_uris": {"android": "https://dc.lft.to/lastmile_qr_scan", "ios": "https://dc.lft.to/lastmile_qr_scan"}, "lon": -77.02887166666666, "fusion_lat": 0.0}, {"name": "101dde07b69e58655465617a3846591e", "fusion_lon": 0.0, "lat": 38.893645166666666, "is_reserved": 0, "type": "electric_scooter", "bike_id": "101dde07b69e58655465617a3846591e", "is_disabled": 0, "rental_uris": {"android": "https://dc.lft.to/lastmile_qr_scan", "ios": "https://dc.lft.to/lastmile_qr_scan"}, "lon": -76.99083366666666, "fusion_lat": 0.0}, {"name": "112aea3f4fda2a4ba78f333bf7424f7e", "fusion_lon": 0.0, "lat": 38.876504833333335, "is_reserved": 0, "type": "electric_scooter", "bike_id": "112aea3f4fda2a4ba78f333bf7424f7e", "is_disabled": 0, "rental_uris": {"android": "https://dc.lft.to/lastmile_qr_scan", "ios": "https://dc.lft.to/lastmile_qr_scan"}, "lon": -76.96509383333333, "fusion_lat": 0.0}, {"name": "3da840d2eb4d040f8a216047f83f2865", "fusion_lon": 0.0, "lat": 38.95837066666667, "is_reserved": 0, "type": "electric_scooter", "bike_id": "3da840d2eb4d040f8a216047f83f2865", "is_disabled": 0, "rental_uris": {"android": "https://dc.lft.to/lastmile_qr_scan", "ios": "https://dc.lft.to/lastmile_qr_scan"}, "lon": -77.015115, "fusion_lat": 0.0}, {"name": "b6398f30e300fdac062708ca4a907c42", "fusion_lon": 0.0, "lat": 38.91415716666667, "is_reserved": 0, "type": "electric_scooter", "bike_id": "b6398f30e300fdac062708ca4a907c42", "is_disabled": 0, "rental_uris": {"android": "https://dc.lft.to/lastmile_qr_scan", "ios": "https://dc.lft.to/lastmile_qr_scan"}, "lon": -77.0417875, "fusion_lat": 0.0}, {"name": "b6f4293b2b044787ef9a363437a92db0", "fusion_lon": 0.0, "lat": 38.892223666666666, "is_reserved": 0, "type": "electric_scooter", "bike_id": "b6f4293b2b044787ef9a363437a92db0", "is_disabled": 0, "rental_uris": {"android": "https://dc.lft.to/lastmile_qr_scan", "ios": "https://dc.lft.to/lastmile_qr_scan"}, "lon": -77.04307433333334, "fusion_lat": 0.0}, {"name": "38173b1a21e04683a3fb3eeb18af7873", "fusion_lon": 0.0, "lat": 38.895553, "is_reserved": 0, "type": "electric_scooter", "bike_id": "38173b1a21e04683a3fb3eeb18af7873", "is_disabled": 0, "rental_uris": {"android": "https://dc.lft.to/lastmile_qr_scan", "ios": "https://dc.lft.to/lastmile_qr_scan"}, "lon": -77.04675716666667, "fusion_lat": 0.0}, {"name": "ff495914269cdf70b26172fa6b792f2a", "fusion_lon": 0.0, "lat": 38.92900266666667, "is_reserved": 0, "type": "electric_scooter", "bike_id": "ff495914269cdf70b26172fa6b792f2a", "is_disabled": 0, "rental_uris": {"android": "https://dc.lft.to/lastmile_qr_scan", "ios": "https://dc.lft.to/lastmile_qr_scan"}, "lon": -77.02613483333333, "fusion_lat": 0.0}, {"name": "6fec04cbc7ee19a1b275d9179e3245ef", "fusion_lon": 0.0, "lat": 38.8790515, "is_reserved": 0, "type": "electric_scooter", "bike_id": "6fec04cbc7ee19a1b275d9179e3245ef", "is_disabled": 0, "rental_uris": {"android": "https://dc.lft.to/lastmile_qr_scan", "ios": "https://dc.lft.to/lastmile_qr_scan"}, "lon": -77.0054695, "fusion_lat": 0.0}, {"name": "c0d37b3ecaa4bf81db627a127b5939b5", "fusion_lon": 0.0, "lat": 38.915455333333334, "is_reserved": 0, "type": "electric_scooter", "bike_id": "c0d37b3ecaa4bf81db627a127b5939b5", "is_disabled": 0, "rental_uris": {"android": "https://dc.lft.to/lastmile_qr_scan", "ios": "https://dc.lft.to/lastmile_qr_scan"}, "lon": -77.0385565, "fusion_lat": 0.0}, {"name": "43fbfef0ff9ece8e769dd0cac818214b", "fusion_lon": 0.0, "lat": 38.87937216666667, "is_reserved": 0, "type": "electric_scooter", "bike_id": "43fbfef0ff9ece8e769dd0cac818214b", "is_disabled": 0, "rental_uris": {"android": "https://dc.lft.to/lastmile_qr_scan", "ios": "https://dc.lft.to/lastmile_qr_scan"}, "lon": -77.00064683333333, "fusion_lat": 0.0}, {"name": "58f98ce7432ab68d7adce7be12fe4b58", "fusion_lon": 0.0, "lat": 38.90596583333333, "is_reserved": 0, "type": "electric_scooter", "bike_id": "58f98ce7432ab68d7adce7be12fe4b58", "is_disabled": 0, "rental_uris": {"android": "https://dc.lft.to/lastmile_qr_scan", "ios": "https://dc.lft.to/lastmile_qr_scan"}, "lon": -77.04119066666667, "fusion_lat": 0.0}, {"name": "4ba0aa3974b299e83cf6d6dee3663735", "fusion_lon": 0.0, "lat": 38.90143366666667, "is_reserved": 0, "type": "electric_scooter", "bike_id": "4ba0aa3974b299e83cf6d6dee3663735", "is_disabled": 0, "rental_uris": {"android": "https://dc.lft.to/lastmile_qr_scan", "ios": "https://dc.lft.to/lastmile_qr_scan"}, "lon": -77.04203483333333, "fusion_lat": 0.0}, {"name": "0dcf8d8761f1969a239cfee950233903", "fusion_lon": 0.0, "lat": 38.90956633333333, "is_reserved": 0, "type": "electric_scooter", "bike_id": "0dcf8d8761f1969a239cfee950233903", "is_disabled": 0, "rental_uris": {"android": "https://dc.lft.to/lastmile_qr_scan", "ios": "https://dc.lft.to/lastmile_qr_scan"}, "lon": -77.02684166666667, "fusion_lat": 0.0}, {"name": "0b61df3012a62cb9271697792f363c2c", "fusion_lon": 0.0, "lat": 38.863843, "is_reserved": 0, "type": "electric_scooter", "bike_id": "0b61df3012a62cb9271697792f363c2c", "is_disabled": 0, "rental_uris": {"android": "https://dc.lft.to/lastmile_qr_scan", "ios": "https://dc.lft.to/lastmile_qr_scan"}, "lon": -76.990419, "fusion_lat": 0.0}, {"name": "2f45d275f5b10c4a9735c94aeea03adb", "fusion_lon": 0.0, "lat": 38.903786833333335, "is_reserved": 0, "type": "electric_scooter", "bike_id": "2f45d275f5b10c4a9735c94aeea03adb", "is_disabled": 0, "rental_uris": {"android": "https://dc.lft.to/lastmile_qr_scan", "ios": "https://dc.lft.to/lastmile_qr_scan"}, "lon": -77.03634583333333, "fusion_lat": 0.0}, {"name": "b0dd6029126b99b188ca364515ff8a93", "fusion_lon": 0.0, "lat": 38.8840075, "is_reserved": 0, "type": "electric_scooter", "bike_id": "b0dd6029126b99b188ca364515ff8a93", "is_disabled": 0, "rental_uris": {"android": "https://dc.lft.to/lastmile_qr_scan", "ios": "https://dc.lft.to/lastmile_qr_scan"}, "lon": -76.930398, "fusion_lat": 0.0}, {"name": "db44856c68f2b05f699da7009cfb8bd6", "fusion_lon": 0.0, "lat": 38.80131033333333, "is_reserved": 0, "type": "electric_bike", "bike_id": "db44856c68f2b05f699da7009cfb8bd6", "is_disabled": 0, "rental_uris": {"android": "https://dc.lft.to/lastmile_qr_scan", "ios": "https://dc.lft.to/lastmile_qr_scan"}, "lon": -77.07043716666666, "fusion_lat": 0.0}, {"name": "4c33fc46ade3f5b88a6b10aa93bd3fc4", "fusion_lon": 0.0, "lat": 38.910815666666664, "is_reserved": 0, "type": "electric_scooter", "bike_id": "4c33fc46ade3f5b88a6b10aa93bd3fc4", "is_disabled": 0, "rental_uris": {"android": "https://dc.lft.to/lastmile_qr_scan", "ios": "https://dc.lft.to/lastmile_qr_scan"}, "lon": -76.99268366666666, "fusion_lat": 0.0}, {"name": "66001ede62356f37f50a157299a49bbb", "fusion_lon": 0.0, "lat": 38.9276695, "is_reserved": 0, "type": "electric_bike", "bike_id": "66001ede62356f37f50a157299a49bbb", "is_disabled": 0, "rental_uris": {"android": "https://dc.lft.to/lastmile_qr_scan", "ios": "https://dc.lft.to/lastmile_qr_scan"}, "lon": -77.0701, "fusion_lat": 0.0}, {"name": "824a1b1ab2a5e5a6f30df959ffe62569", "fusion_lon": 0.0, "lat": 38.94510666666667, "is_reserved": 0, "type": "electric_bike", "bike_id": "824a1b1ab2a5e5a6f30df959ffe62569", "is_disabled": 0, "rental_uris": {"android": "https://dc.lft.to/lastmile_qr_scan", "ios": "https://dc.lft.to/lastmile_qr_scan"}, "lon": -77.00672916666667, "fusion_lat": 0.0}, {"name": "c62456f22dab9233ee7fb8814e098005", "fusion_lon": 0.0, "lat": 38.83143366666667, "is_reserved": 0, "type": "electric_scooter", "bike_id": "c62456f22dab9233ee7fb8814e098005", "is_disabled": 0, "rental_uris": {"android": "https://dc.lft.to/lastmile_qr_scan", "ios": "https://dc.lft.to/lastmile_qr_scan"}, "lon": -77.05124033333334, "fusion_lat": 0.0}, {"name": "24ac118fca2ab70d51015e35142d7a9d", "fusion_lon": 0.0, "lat": 38.92813533333333, "is_reserved": 0, "type": "electric_scooter", "bike_id": "24ac118fca2ab70d51015e35142d7a9d", "is_disabled": 0, "rental_uris": {"android": "https://dc.lft.to/lastmile_qr_scan", "ios": "https://dc.lft.to/lastmile_qr_scan"}, "lon": -77.013992, "fusion_lat": 0.0}, {"name": "dc79af420dc948ae5ad4a18775a8e16e", "fusion_lon": 0.0, "lat": 38.936264333333334, "is_reserved": 0, "type": "electric_bike", "bike_id": "dc79af420dc948ae5ad4a18775a8e16e", "is_disabled": 0, "rental_uris": {"android": "https://dc.lft.to/lastmile_qr_scan", "ios": "https://dc.lft.to/lastmile_qr_scan"}, "lon": -77.09009716666667, "fusion_lat": 0.0}, {"name": "8746ee46f80e997ed5d7b1a3c84edf0b", "fusion_lon": 0.0, "lat": 38.91374366666667, "is_reserved": 0, "type": "electric_scooter", "bike_id": "8746ee46f80e997ed5d7b1a3c84edf0b", "is_disabled": 0, "rental_uris": {"android": "https://dc.lft.to/lastmile_qr_scan", "ios": "https://dc.lft.to/lastmile_qr_scan"}, "lon": -77.04131966666667, "fusion_lat": 0.0}, {"name": "473afcbc15f0c807d170dbb74445a5b1", "fusion_lon": 0.0, "lat": 38.96469333333334, "is_reserved": 0, "type": "electric_bike", "bike_id": "473afcbc15f0c807d170dbb74445a5b1", "is_disabled": 0, "rental_uris": {"android": "https://dc.lft.to/lastmile_qr_scan", "ios": "https://dc.lft.to/lastmile_qr_scan"}, "lon": -77.0355895, "fusion_lat": 0.0}, {"name": "6d62d4715fb2d58290848b1e67843663", "fusion_lon": 0.0, "lat": 38.9082545, "is_reserved": 0, "type": "electric_scooter", "bike_id": "6d62d4715fb2d58290848b1e67843663", "is_disabled": 0, "rental_uris": {"android": "https://dc.lft.to/lastmile_qr_scan", "ios": "https://dc.lft.to/lastmile_qr_scan"}, "lon": -76.9415625, "fusion_lat": 0.0}, {"name": "871d341bab070e8282cd8204ef2b8408", "fusion_lon": 0.0, "lat": 38.92031, "is_reserved": 0, "type": "electric_scooter", "bike_id": "871d341bab070e8282cd8204ef2b8408", "is_disabled": 0, "rental_uris": {"android": "https://dc.lft.to/lastmile_qr_scan", "ios": "https://dc.lft.to/lastmile_qr_scan"}, "lon": -77.01134966666666, "fusion_lat": 0.0}, {"name": "cda6df9ebb6ed526f5d220fcdf4f29d8", "fusion_lon": 0.0, "lat": 38.901698333333336, "is_reserved": 0, "type": "electric_scooter", "bike_id": "cda6df9ebb6ed526f5d220fcdf4f29d8", "is_disabled": 0, "rental_uris": {"android": "https://dc.lft.to/lastmile_qr_scan", "ios": "https://dc.lft.to/lastmile_qr_scan"}, "lon": -77.06013116666666, "fusion_lat": 0.0}, {"name": "588b496e8b016caeb6d4cdc2776be00a", "fusion_lon": 0.0, "lat": 38.90385783333333, "is_reserved": 0, "type": "electric_scooter", "bike_id": "588b496e8b016caeb6d4cdc2776be00a", "is_disabled": 0, "rental_uris": {"android": "https://dc.lft.to/lastmile_qr_scan", "ios": "https://dc.lft.to/lastmile_qr_scan"}, "lon": -77.03840516666666, "fusion_lat": 0.0}, {"name": "ee73c00f30beb7292b897e5070d88669", "fusion_lon": 0.0, "lat": 38.899924666666664, "is_reserved": 0, "type": "electric_scooter", "bike_id": "ee73c00f30beb7292b897e5070d88669", "is_disabled": 0, "rental_uris": {"android": "https://dc.lft.to/lastmile_qr_scan", "ios": "https://dc.lft.to/lastmile_qr_scan"}, "lon": -77.00650433333334, "fusion_lat": 0.0}, {"name": "288396a59877ed4be7af91c6e8fe8fd2", "fusion_lon": 0.0, "lat": 38.927254, "is_reserved": 0, "type": "electric_scooter", "bike_id": "288396a59877ed4be7af91c6e8fe8fd2", "is_disabled": 0, "rental_uris": {"android": "https://dc.lft.to/lastmile_qr_scan", "ios": "https://dc.lft.to/lastmile_qr_scan"}, "lon": -77.03999483333334, "fusion_lat": 0.0}, {"name": "048c7500b1a10acdbaec20fe377a4880", "fusion_lon": 0.0, "lat": 38.905335, "is_reserved": 0, "type": "electric_scooter", "bike_id": "048c7500b1a10acdbaec20fe377a4880", "is_disabled": 0, "rental_uris": {"android": "https://dc.lft.to/lastmile_qr_scan", "ios": "https://dc.lft.to/lastmile_qr_scan"}, "lon": -77.007276, "fusion_lat": 0.0}, {"name": "7ec3a7fbb642c171527ecb220a2551c8", "fusion_lon": 0.0, "lat": 38.900995, "is_reserved": 0, "type": "electric_scooter", "bike_id": "7ec3a7fbb642c171527ecb220a2551c8", "is_disabled": 0, "rental_uris": {"android": "https://dc.lft.to/lastmile_qr_scan", "ios": "https://dc.lft.to/lastmile_qr_scan"}, "lon": -77.04756, "fusion_lat": 0.0}, {"name": "b5273eff0e61d7e83f68796193d25b24", "fusion_lon": 0.0, "lat": 38.87276716666667, "is_reserved": 0, "type": "electric_bike", "bike_id": "b5273eff0e61d7e83f68796193d25b24", "is_disabled": 0, "rental_uris": {"android": "https://dc.lft.to/lastmile_qr_scan", "ios": "https://dc.lft.to/lastmile_qr_scan"}, "lon": -77.2333015, "fusion_lat": 0.0}, {"name": "3b7f2e390def3341f7612b2a2168f537", "fusion_lon": 0.0, "lat": 38.906296166666664, "is_reserved": 0, "type": "electric_scooter", "bike_id": "3b7f2e390def3341f7612b2a2168f537", "is_disabled": 0, "rental_uris": {"android": "https://dc.lft.to/lastmile_qr_scan", "ios": "https://dc.lft.to/lastmile_qr_scan"}, "lon": -77.06896633333334, "fusion_lat": 0.0}, {"name": "06a10456d31fc119b9246a7e81f62f2b", "fusion_lon": 0.0, "lat": 38.926456, "is_reserved": 0, "type": "electric_scooter", "bike_id": "06a10456d31fc119b9246a7e81f62f2b", "is_disabled": 0, "rental_uris": {"android": "https://dc.lft.to/lastmile_qr_scan", "ios": "https://dc.lft.to/lastmile_qr_scan"}, "lon": -77.04139016666667, "fusion_lat": 0.0}, {"name": "2368f0c025d7636ebe804d57847a2750", "fusion_lon": 0.0, "lat": 38.902023166666666, "is_reserved": 0, "type": "electric_scooter", "bike_id": "2368f0c025d7636ebe804d57847a2750", "is_disabled": 0, "rental_uris": {"android": "https://dc.lft.to/lastmile_qr_scan", "ios": "https://dc.lft.to/lastmile_qr_scan"}, "lon": -77.023637, "fusion_lat": 0.0}, {"name": "4eb4166ed0b8fc31bb845edab1610378", "fusion_lon": 0.0, "lat": 38.9054, "is_reserved": 0, "type": "electric_scooter", "bike_id": "4eb4166ed0b8fc31bb845edab1610378", "is_disabled": 0, "rental_uris": {"android": "https://dc.lft.to/lastmile_qr_scan", "ios": "https://dc.lft.to/lastmile_qr_scan"}, "lon": -77.0449985, "fusion_lat": 0.0}, {"name": "ff67547ed9ccb75bbaf4fbca7e9730cb", "fusion_lon": 0.0, "lat": 38.90222983333334, "is_reserved": 0, "type": "electric_scooter", "bike_id": "ff67547ed9ccb75bbaf4fbca7e9730cb", "is_disabled": 0, "rental_uris": {"android": "https://dc.lft.to/lastmile_qr_scan", "ios": "https://dc.lft.to/lastmile_qr_scan"}, "lon": -77.02369766666666, "fusion_lat": 0.0}, {"name": "875f0f7bdde721e583fda2aa1edc160c", "fusion_lon": 0.0, "lat": 38.8808525, "is_reserved": 0, "type": "electric_scooter", "bike_id": "875f0f7bdde721e583fda2aa1edc160c", "is_disabled": 0, "rental_uris": {"android": "https://dc.lft.to/lastmile_qr_scan", "ios": "https://dc.lft.to/lastmile_qr_scan"}, "lon": -76.98511433333333, "fusion_lat": 0.0}, {"name": "037916ba7a5fd9415cf47e92d081fa92", "fusion_lon": 0.0, "lat": 38.916645333333335, "is_reserved": 0, "type": "electric_scooter", "bike_id": "037916ba7a5fd9415cf47e92d081fa92", "is_disabled": 0, "rental_uris": {"android": "https://dc.lft.to/lastmile_qr_scan", "ios": "https://dc.lft.to/lastmile_qr_scan"}, "lon": -77.02970916666666, "fusion_lat": 0.0}, {"name": "4d256211251adbda651cdc3f6f9fc399", "fusion_lon": 0.0, "lat": 38.900202, "is_reserved": 0, "type": "electric_scooter", "bike_id": "4d256211251adbda651cdc3f6f9fc399", "is_disabled": 0, "rental_uris": {"android": "https://dc.lft.to/lastmile_qr_scan", "ios": "https://dc.lft.to/lastmile_qr_scan"}, "lon": -76.9989905, "fusion_lat": 0.0}, {"name": "f6c6771228f3f9c56df82193bcf1ae26", "fusion_lon": 0.0, "lat": 38.893203666666665, "is_reserved": 0, "type": "electric_scooter", "bike_id": "f6c6771228f3f9c56df82193bcf1ae26", "is_disabled": 0, "rental_uris": {"android": "https://dc.lft.to/lastmile_qr_scan", "ios": "https://dc.lft.to/lastmile_qr_scan"}, "lon": -77.04867866666666, "fusion_lat": 0.0}, {"name": "d8d63c029236f03f06177ed95a2b09e6", "fusion_lon": 0.0, "lat": 38.9166885, "is_reserved": 0, "type": "electric_scooter", "bike_id": "d8d63c029236f03f06177ed95a2b09e6", "is_disabled": 0, "rental_uris": {"android": "https://dc.lft.to/lastmile_qr_scan", "ios": "https://dc.lft.to/lastmile_qr_scan"}, "lon": -77.02971716666667, "fusion_lat": 0.0}, {"name": "c71064d0c977b8545806e3abc189594e", "fusion_lon": 0.0, "lat": 38.951497, "is_reserved": 0, "type": "electric_scooter", "bike_id": "c71064d0c977b8545806e3abc189594e", "is_disabled": 0, "rental_uris": {"android": "https://dc.lft.to/lastmile_qr_scan", "ios": "https://dc.lft.to/lastmile_qr_scan"}, "lon": -77.01863916666667, "fusion_lat": 0.0}, {"name": "eb159751a43b5aa7a16b63d6855262ac", "fusion_lon": 0.0, "lat": 38.92334783333333, "is_reserved": 0, "type": "electric_scooter", "bike_id": "eb159751a43b5aa7a16b63d6855262ac", "is_disabled": 0, "rental_uris": {"android": "https://dc.lft.to/lastmile_qr_scan", "ios": "https://dc.lft.to/lastmile_qr_scan"}, "lon": -77.056794, "fusion_lat": 0.0}, {"name": "97796e28f1160735450cf64181106385", "fusion_lon": 0.0, "lat": 38.9813465, "is_reserved": 0, "type": "electric_scooter", "bike_id": "97796e28f1160735450cf64181106385", "is_disabled": 0, "rental_uris": {"android": "https://dc.lft.to/lastmile_qr_scan", "ios": "https://dc.lft.to/lastmile_qr_scan"}, "lon": -77.02228266666667, "fusion_lat": 0.0}, {"name": "cb412d0bca5c90a52ba0e9568e5f7191", "fusion_lon": 0.0, "lat": 38.92248, "is_reserved": 0, "type": "electric_scooter", "bike_id": "cb412d0bca5c90a52ba0e9568e5f7191", "is_disabled": 0, "rental_uris": {"android": "https://dc.lft.to/lastmile_qr_scan", "ios": "https://dc.lft.to/lastmile_qr_scan"}, "lon": -77.01827883333333, "fusion_lat": 0.0}, {"name": "e7270f678cfe0f692ab05d944c85cb77", "fusion_lon": 0.0, "lat": 38.895549, "is_reserved": 0, "type": "electric_scooter", "bike_id": "e7270f678cfe0f692ab05d944c85cb77", "is_disabled": 0, "rental_uris": {"android": "https://dc.lft.to/lastmile_qr_scan", "ios": "https://dc.lft.to/lastmile_qr_scan"}, "lon": -77.02887983333333, "fusion_lat": 0.0}, {"name": "13fb04ab9e4a0297e61ffd61521853bf", "fusion_lon": 0.0, "lat": 38.929614, "is_reserved": 0, "type": "electric_scooter", "bike_id": "13fb04ab9e4a0297e61ffd61521853bf", "is_disabled": 0, "rental_uris": {"android": "https://dc.lft.to/lastmile_qr_scan", "ios": "https://dc.lft.to/lastmile_qr_scan"}, "lon": -77.03128216666667, "fusion_lat": 0.0}, {"name": "70f745050cbc4c3e9aa8136703aa4387", "fusion_lon": 0.0, "lat": 38.949633, "is_reserved": 0, "type": "electric_bike", "bike_id": "70f745050cbc4c3e9aa8136703aa4387", "is_disabled": 0, "rental_uris": {"android": "https://dc.lft.to/lastmile_qr_scan", "ios": "https://dc.lft.to/lastmile_qr_scan"}, "lon": -77.0273695, "fusion_lat": 0.0}, {"name": "3d3be014f7de2fd1c95c160754d69197", "fusion_lon": 0.0, "lat": 38.91466416666667, "is_reserved": 0, "type": "electric_scooter", "bike_id": "3d3be014f7de2fd1c95c160754d69197", "is_disabled": 0, "rental_uris": {"android": "https://dc.lft.to/lastmile_qr_scan", "ios": "https://dc.lft.to/lastmile_qr_scan"}, "lon": -77.0449655, "fusion_lat": 0.0}, {"name": "19b708a56fac75727d8c56912bef85ca", "fusion_lon": 0.0, "lat": 38.907197833333335, "is_reserved": 0, "type": "electric_scooter", "bike_id": "19b708a56fac75727d8c56912bef85ca", "is_disabled": 0, "rental_uris": {"android": "https://dc.lft.to/lastmile_qr_scan", "ios": "https://dc.lft.to/lastmile_qr_scan"}, "lon": -77.01828933333333, "fusion_lat": 0.0}, {"name": "035a09c6d095ac19d8d19090bd1af6b7", "fusion_lon": 0.0, "lat": 38.91487983333333, "is_reserved": 0, "type": "electric_scooter", "bike_id": "035a09c6d095ac19d8d19090bd1af6b7", "is_disabled": 0, "rental_uris": {"android": "https://dc.lft.to/lastmile_qr_scan", "ios": "https://dc.lft.to/lastmile_qr_scan"}, "lon": -77.06730683333333, "fusion_lat": 0.0}, {"name": "69906c44a936ad1c013847fc9a47e312", "fusion_lon": 0.0, "lat": 38.912718166666664, "is_reserved": 0, "type": "electric_scooter", "bike_id": "69906c44a936ad1c013847fc9a47e312", "is_disabled": 0, "rental_uris": {"android": "https://dc.lft.to/lastmile_qr_scan", "ios": "https://dc.lft.to/lastmile_qr_scan"}, "lon": -77.02225683333333, "fusion_lat": 0.0}, {"name": "9d6f8a1186003bc6f689fea439a33413", "fusion_lon": 0.0, "lat": 38.925418666666666, "is_reserved": 0, "type": "electric_scooter", "bike_id": "9d6f8a1186003bc6f689fea439a33413", "is_disabled": 0, "rental_uris": {"android": "https://dc.lft.to/lastmile_qr_scan", "ios": "https://dc.lft.to/lastmile_qr_scan"}, "lon": -77.07686983333333, "fusion_lat": 0.0}, {"name": "52ce4d06e9ca50f9bc9a9cb0b952232e", "fusion_lon": 0.0, "lat": 38.912028666666664, "is_reserved": 0, "type": "electric_scooter", "bike_id": "52ce4d06e9ca50f9bc9a9cb0b952232e", "is_disabled": 0, "rental_uris": {"android": "https://dc.lft.to/lastmile_qr_scan", "ios": "https://dc.lft.to/lastmile_qr_scan"}, "lon": -77.045279, "fusion_lat": 0.0}, {"name": "4db156c134d24356fa4e361f74733e36", "fusion_lon": 0.0, "lat": 38.89222216666667, "is_reserved": 0, "type": "electric_scooter", "bike_id": "4db156c134d24356fa4e361f74733e36", "is_disabled": 0, "rental_uris": {"android": "https://dc.lft.to/lastmile_qr_scan", "ios": "https://dc.lft.to/lastmile_qr_scan"}, "lon": -77.04263, "fusion_lat": 0.0}, {"name": "81176f4c7da8d8617adca995c8de2344", "fusion_lon": 0.0, "lat": 38.878137, "is_reserved": 0, "type": "electric_scooter", "bike_id": "81176f4c7da8d8617adca995c8de2344", "is_disabled": 0, "rental_uris": {"android": "https://dc.lft.to/lastmile_qr_scan", "ios": "https://dc.lft.to/lastmile_qr_scan"}, "lon": -76.930901, "fusion_lat": 0.0}, {"name": "682e8a50289f49e14416ce394f97508a", "fusion_lon": 0.0, "lat": 38.944373166666665, "is_reserved": 0, "type": "electric_scooter", "bike_id": "682e8a50289f49e14416ce394f97508a", "is_disabled": 0, "rental_uris": {"android": "https://dc.lft.to/lastmile_qr_scan", "ios": "https://dc.lft.to/lastmile_qr_scan"}, "lon": -77.0634975, "fusion_lat": 0.0}, {"name": "589b0f4430f702ba99e0ab021c8bb70c", "fusion_lon": 0.0, "lat": 38.917347, "is_reserved": 0, "type": "electric_scooter", "bike_id": "589b0f4430f702ba99e0ab021c8bb70c", "is_disabled": 0, "rental_uris": {"android": "https://dc.lft.to/lastmile_qr_scan", "ios": "https://dc.lft.to/lastmile_qr_scan"}, "lon": -77.03640983333334, "fusion_lat": 0.0}, {"name": "98f71d71fe8ed59ce2a13d418e8ce2a2", "fusion_lon": 0.0, "lat": 38.9309955, "is_reserved": 0, "type": "electric_scooter", "bike_id": "98f71d71fe8ed59ce2a13d418e8ce2a2", "is_disabled": 0, "rental_uris": {"android": "https://dc.lft.to/lastmile_qr_scan", "ios": "https://dc.lft.to/lastmile_qr_scan"}, "lon": -77.026572, "fusion_lat": 0.0}, {"name": "034dc41e957f1bc6fb610284201b6b12", "fusion_lon": 0.0, "lat": 38.92589683333333, "is_reserved": 0, "type": "electric_scooter", "bike_id": "034dc41e957f1bc6fb610284201b6b12", "is_disabled": 0, "rental_uris": {"android": "https://dc.lft.to/lastmile_qr_scan", "ios": "https://dc.lft.to/lastmile_qr_scan"}, "lon": -77.04409466666667, "fusion_lat": 0.0}, {"name": "e60f7a8d01ec6650c36ef54edc62f42a", "fusion_lon": 0.0, "lat": 38.93249266666667, "is_reserved": 0, "type": "electric_scooter", "bike_id": "e60f7a8d01ec6650c36ef54edc62f42a", "is_disabled": 0, "rental_uris": {"android": "https://dc.lft.to/lastmile_qr_scan", "ios": "https://dc.lft.to/lastmile_qr_scan"}, "lon": -77.03270966666666, "fusion_lat": 0.0}, {"name": "28b3fc2d349c042440212774202d3877", "fusion_lon": 0.0, "lat": 38.9192925, "is_reserved": 0, "type": "electric_scooter", "bike_id": "28b3fc2d349c042440212774202d3877", "is_disabled": 0, "rental_uris": {"android": "https://dc.lft.to/lastmile_qr_scan", "ios": "https://dc.lft.to/lastmile_qr_scan"}, "lon": -77.04554533333334, "fusion_lat": 0.0}, {"name": "d271a2ec6d7b3ec295912c32c35a730c", "fusion_lon": 0.0, "lat": 38.905507666666665, "is_reserved": 0, "type": "electric_scooter", "bike_id": "d271a2ec6d7b3ec295912c32c35a730c", "is_disabled": 0, "rental_uris": {"android": "https://dc.lft.to/lastmile_qr_scan", "ios": "https://dc.lft.to/lastmile_qr_scan"}, "lon": -77.0058335, "fusion_lat": 0.0}, {"name": "81e93f4a2bcdadcc457f73a5e2208955", "fusion_lon": 0.0, "lat": 38.91522233333333, "is_reserved": 0, "type": "electric_scooter", "bike_id": "81e93f4a2bcdadcc457f73a5e2208955", "is_disabled": 0, "rental_uris": {"android": "https://dc.lft.to/lastmile_qr_scan", "ios": "https://dc.lft.to/lastmile_qr_scan"}, "lon": -77.0121975, "fusion_lat": 0.0}, {"name": "1ccbf3c51c3728cadb2b27624d465f74", "fusion_lon": 0.0, "lat": 38.93964066666667, "is_reserved": 0, "type": "electric_scooter", "bike_id": "1ccbf3c51c3728cadb2b27624d465f74", "is_disabled": 0, "rental_uris": {"android": "https://dc.lft.to/lastmile_qr_scan", "ios": "https://dc.lft.to/lastmile_qr_scan"}, "lon": -77.0275145, "fusion_lat": 0.0}, {"name": "eef13674a18ea7563970c27143733f67", "fusion_lon": 0.0, "lat": 38.937241, "is_reserved": 0, "type": "electric_scooter", "bike_id": "eef13674a18ea7563970c27143733f67", "is_disabled": 0, "rental_uris": {"android": "https://dc.lft.to/lastmile_qr_scan", "ios": "https://dc.lft.to/lastmile_qr_scan"}, "lon": -77.03263566666666, "fusion_lat": 0.0}, {"name": "f84044d19f433644376fa972275b063b", "fusion_lon": 0.0, "lat": 38.93538183333333, "is_reserved": 0, "type": "electric_scooter", "bike_id": "f84044d19f433644376fa972275b063b", "is_disabled": 0, "rental_uris": {"android": "https://dc.lft.to/lastmile_qr_scan", "ios": "https://dc.lft.to/lastmile_qr_scan"}, "lon": -77.05745666666667, "fusion_lat": 0.0}, {"name": "1d3120c8105ab47606c8cb2cc5f2fb40", "fusion_lon": 0.0, "lat": 38.885933333333334, "is_reserved": 0, "type": "electric_scooter", "bike_id": "1d3120c8105ab47606c8cb2cc5f2fb40", "is_disabled": 0, "rental_uris": {"android": "https://dc.lft.to/lastmile_qr_scan", "ios": "https://dc.lft.to/lastmile_qr_scan"}, "lon": -76.99621566666667, "fusion_lat": 0.0}, {"name": "0b2f2a5e62b32f47d91f002191e0fb10", "fusion_lon": 0.0, "lat": 38.88616316666667, "is_reserved": 0, "type": "electric_scooter", "bike_id": "0b2f2a5e62b32f47d91f002191e0fb10", "is_disabled": 0, "rental_uris": {"android": "https://dc.lft.to/lastmile_qr_scan", "ios": "https://dc.lft.to/lastmile_qr_scan"}, "lon": -76.9557705, "fusion_lat": 0.0}, {"name": "3a3caeee52aede10a6790ef186a4c6c4", "fusion_lon": 0.0, "lat": 38.80898716666667, "is_reserved": 0, "type": "electric_bike", "bike_id": "3a3caeee52aede10a6790ef186a4c6c4", "is_disabled": 0, "rental_uris": {"android": "https://dc.lft.to/lastmile_qr_scan", "ios": "https://dc.lft.to/lastmile_qr_scan"}, "lon": -77.08658266666667, "fusion_lat": 0.0}, {"name": "2ce5e444d36dfc3efdafafa83d421606", "fusion_lon": 0.0, "lat": 38.88463316666667, "is_reserved": 0, "type": "electric_scooter", "bike_id": "2ce5e444d36dfc3efdafafa83d421606", "is_disabled": 0, "rental_uris": {"android": "https://dc.lft.to/lastmile_qr_scan", "ios": "https://dc.lft.to/lastmile_qr_scan"}, "lon": -77.03170983333334, "fusion_lat": 0.0}, {"name": "6cb605c6edb80c951c1c85b1e1021f12", "fusion_lon": 0.0, "lat": 38.903981333333334, "is_reserved": 0, "type": "electric_scooter", "bike_id": "6cb605c6edb80c951c1c85b1e1021f12", "is_disabled": 0, "rental_uris": {"android": "https://dc.lft.to/lastmile_qr_scan", "ios": "https://dc.lft.to/lastmile_qr_scan"}, "lon": -77.0629625, "fusion_lat": 0.0}, {"name": "bfb6f3206517ee0a4e28cde26eb68b16", "fusion_lon": 0.0, "lat": 38.900140666666665, "is_reserved": 0, "type": "electric_scooter", "bike_id": "bfb6f3206517ee0a4e28cde26eb68b16", "is_disabled": 0, "rental_uris": {"android": "https://dc.lft.to/lastmile_qr_scan", "ios": "https://dc.lft.to/lastmile_qr_scan"}, "lon": -77.04469966666667, "fusion_lat": 0.0}, {"name": "8fb8595130fd69f6de7ede5fa05d1ffa", "fusion_lon": 0.0, "lat": 38.903259166666665, "is_reserved": 0, "type": "electric_scooter", "bike_id": "8fb8595130fd69f6de7ede5fa05d1ffa", "is_disabled": 0, "rental_uris": {"android": "https://dc.lft.to/lastmile_qr_scan", "ios": "https://dc.lft.to/lastmile_qr_scan"}, "lon": -76.97548866666666, "fusion_lat": 0.0}, {"name": "d5327c5f5c01ee305a9e4e31ed2099bd", "fusion_lon": 0.0, "lat": 38.907879666666666, "is_reserved": 0, "type": "electric_scooter", "bike_id": "d5327c5f5c01ee305a9e4e31ed2099bd", "is_disabled": 0, "rental_uris": {"android": "https://dc.lft.to/lastmile_qr_scan", "ios": "https://dc.lft.to/lastmile_qr_scan"}, "lon": -77.03866783333334, "fusion_lat": 0.0}, {"name": "d655ad06885305783391d29d8c83c86f", "fusion_lon": 0.0, "lat": 38.86517966666667, "is_reserved": 0, "type": "electric_scooter", "bike_id": "d655ad06885305783391d29d8c83c86f", "is_disabled": 0, "rental_uris": {"android": "https://dc.lft.to/lastmile_qr_scan", "ios": "https://dc.lft.to/lastmile_qr_scan"}, "lon": -76.9901655, "fusion_lat": 0.0}, {"name": "6ad943c938b9e983915eec9bf625b5a8", "fusion_lon": 0.0, "lat": 38.92344833333333, "is_reserved": 0, "type": "electric_scooter", "bike_id": "6ad943c938b9e983915eec9bf625b5a8", "is_disabled": 0, "rental_uris": {"android": "https://dc.lft.to/lastmile_qr_scan", "ios": "https://dc.lft.to/lastmile_qr_scan"}, "lon": -77.050797, "fusion_lat": 0.0}, {"name": "dcbcc4ad2ec4d036634d86c53c9e02e8", "fusion_lon": 0.0, "lat": 38.88750683333333, "is_reserved": 0, "type": "electric_scooter", "bike_id": "dcbcc4ad2ec4d036634d86c53c9e02e8", "is_disabled": 0, "rental_uris": {"android": "https://dc.lft.to/lastmile_qr_scan", "ios": "https://dc.lft.to/lastmile_qr_scan"}, "lon": -77.02735166666666, "fusion_lat": 0.0}, {"name": "ab5bedd2d84c705b6130b2198e4fbedd", "fusion_lon": 0.0, "lat": 38.807098333333336, "is_reserved": 0, "type": "electric_bike", "bike_id": "ab5bedd2d84c705b6130b2198e4fbedd", "is_disabled": 0, "rental_uris": {"android": "https://dc.lft.to/lastmile_qr_scan", "ios": "https://dc.lft.to/lastmile_qr_scan"}, "lon": -77.06170716666666, "fusion_lat": 0.0}, {"name": "86f03f423c2234e315999babf56c784b", "fusion_lon": 0.0, "lat": 38.8984995, "is_reserved": 0, "type": "electric_scooter", "bike_id": "86f03f423c2234e315999babf56c784b", "is_disabled": 0, "rental_uris": {"android": "https://dc.lft.to/lastmile_qr_scan", "ios": "https://dc.lft.to/lastmile_qr_scan"}, "lon": -76.9817115, "fusion_lat": 0.0}, {"name": "3a6998c30c60405eabd1513b19e45447", "fusion_lon": 0.0, "lat": 38.91726, "is_reserved": 0, "type": "electric_scooter", "bike_id": "3a6998c30c60405eabd1513b19e45447", "is_disabled": 0, "rental_uris": {"android": "https://dc.lft.to/lastmile_qr_scan", "ios": "https://dc.lft.to/lastmile_qr_scan"}, "lon": -77.03654783333333, "fusion_lat": 0.0}, {"name": "fcd40a27d7389e3327061e587e77d0d0", "fusion_lon": 0.0, "lat": 38.922099, "is_reserved": 0, "type": "electric_scooter", "bike_id": "fcd40a27d7389e3327061e587e77d0d0", "is_disabled": 0, "rental_uris": {"android": "https://dc.lft.to/lastmile_qr_scan", "ios": "https://dc.lft.to/lastmile_qr_scan"}, "lon": -77.03452366666667, "fusion_lat": 0.0}, {"name": "2c114b9613b77fa16894c435402cf806", "fusion_lon": 0.0, "lat": 38.9234975, "is_reserved": 0, "type": "electric_scooter", "bike_id": "2c114b9613b77fa16894c435402cf806", "is_disabled": 0, "rental_uris": {"android": "https://dc.lft.to/lastmile_qr_scan", "ios": "https://dc.lft.to/lastmile_qr_scan"}, "lon": -77.0434025, "fusion_lat": 0.0}, {"name": "0911e3f20f67e4a055c6f0fe9d167b22", "fusion_lon": 0.0, "lat": 38.86391066666667, "is_reserved": 0, "type": "electric_scooter", "bike_id": "0911e3f20f67e4a055c6f0fe9d167b22", "is_disabled": 0, "rental_uris": {"android": "https://dc.lft.to/lastmile_qr_scan", "ios": "https://dc.lft.to/lastmile_qr_scan"}, "lon": -76.99041483333333, "fusion_lat": 0.0}, {"name": "35fea5190d236a2865f99a855b65b6d4", "fusion_lon": 0.0, "lat": 38.928301, "is_reserved": 0, "type": "electric_scooter", "bike_id": "35fea5190d236a2865f99a855b65b6d4", "is_disabled": 0, "rental_uris": {"android": "https://dc.lft.to/lastmile_qr_scan", "ios": "https://dc.lft.to/lastmile_qr_scan"}, "lon": -77.01401133333333, "fusion_lat": 0.0}, {"name": "20b0c306a18ec4a1e51037c1bb58a7c8", "fusion_lon": 0.0, "lat": 38.8849015, "is_reserved": 0, "type": "electric_scooter", "bike_id": "20b0c306a18ec4a1e51037c1bb58a7c8", "is_disabled": 0, "rental_uris": {"android": "https://dc.lft.to/lastmile_qr_scan", "ios": "https://dc.lft.to/lastmile_qr_scan"}, "lon": -77.00707583333333, "fusion_lat": 0.0}, {"name": "060ff164a91aeaf335e44925bd5f3656", "fusion_lon": 0.0, "lat": 38.911009, "is_reserved": 0, "type": "electric_scooter", "bike_id": "060ff164a91aeaf335e44925bd5f3656", "is_disabled": 0, "rental_uris": {"android": "https://dc.lft.to/lastmile_qr_scan", "ios": "https://dc.lft.to/lastmile_qr_scan"}, "lon": -77.04202566666666, "fusion_lat": 0.0}, {"name": "28256608997c1a5260254bfa57bca14c", "fusion_lon": 0.0, "lat": 38.91360816666667, "is_reserved": 0, "type": "electric_scooter", "bike_id": "28256608997c1a5260254bfa57bca14c", "is_disabled": 0, "rental_uris": {"android": "https://dc.lft.to/lastmile_qr_scan", "ios": "https://dc.lft.to/lastmile_qr_scan"}, "lon": -77.01621483333334, "fusion_lat": 0.0}, {"name": "9b1b080aa02685a4f0b2498b1af95e3c", "fusion_lon": 0.0, "lat": 38.91716233333333, "is_reserved": 0, "type": "electric_scooter", "bike_id": "9b1b080aa02685a4f0b2498b1af95e3c", "is_disabled": 0, "rental_uris": {"android": "https://dc.lft.to/lastmile_qr_scan", "ios": "https://dc.lft.to/lastmile_qr_scan"}, "lon": -77.02586816666667, "fusion_lat": 0.0}, {"name": "9198b9dc765c372767e48919a83c0f9c", "fusion_lon": 0.0, "lat": 38.9038865, "is_reserved": 0, "type": "electric_scooter", "bike_id": "9198b9dc765c372767e48919a83c0f9c", "is_disabled": 0, "rental_uris": {"android": "https://dc.lft.to/lastmile_qr_scan", "ios": "https://dc.lft.to/lastmile_qr_scan"}, "lon": -77.017742, "fusion_lat": 0.0}, {"name": "32a069b43f2a451b9c40202283420840", "fusion_lon": 0.0, "lat": 38.9000395, "is_reserved": 0, "type": "electric_scooter", "bike_id": "32a069b43f2a451b9c40202283420840", "is_disabled": 0, "rental_uris": {"android": "https://dc.lft.to/lastmile_qr_scan", "ios": "https://dc.lft.to/lastmile_qr_scan"}, "lon": -77.00305083333333, "fusion_lat": 0.0}, {"name": "79dbd6ae743f53506799725138de566d", "fusion_lon": 0.0, "lat": 38.9006135, "is_reserved": 0, "type": "electric_scooter", "bike_id": "79dbd6ae743f53506799725138de566d", "is_disabled": 0, "rental_uris": {"android": "https://dc.lft.to/lastmile_qr_scan", "ios": "https://dc.lft.to/lastmile_qr_scan"}, "lon": -77.0470315, "fusion_lat": 0.0}, {"name": "9c3489f2bb5b6c8b66cba0fc72bdedc8", "fusion_lon": 0.0, "lat": 38.91696733333333, "is_reserved": 0, "type": "electric_scooter", "bike_id": "9c3489f2bb5b6c8b66cba0fc72bdedc8", "is_disabled": 0, "rental_uris": {"android": "https://dc.lft.to/lastmile_qr_scan", "ios": "https://dc.lft.to/lastmile_qr_scan"}, "lon": -77.040434, "fusion_lat": 0.0}, {"name": "63a83e7fc96e351ee88137f55ae5e8bc", "fusion_lon": 0.0, "lat": 38.914156, "is_reserved": 0, "type": "electric_scooter", "bike_id": "63a83e7fc96e351ee88137f55ae5e8bc", "is_disabled": 0, "rental_uris": {"android": "https://dc.lft.to/lastmile_qr_scan", "ios": "https://dc.lft.to/lastmile_qr_scan"}, "lon": -77.02248183333333, "fusion_lat": 0.0}, {"name": "b884407cd8b991b3bc004a3297d37326", "fusion_lon": 0.0, "lat": 38.892298833333335, "is_reserved": 0, "type": "electric_scooter", "bike_id": "b884407cd8b991b3bc004a3297d37326", "is_disabled": 0, "rental_uris": {"android": "https://dc.lft.to/lastmile_qr_scan", "ios": "https://dc.lft.to/lastmile_qr_scan"}, "lon": -77.03222766666667, "fusion_lat": 0.0}, {"name": "41c291fc00c3cbe5cac103d29fbfa432", "fusion_lon": 0.0, "lat": 38.93397, "is_reserved": 0, "type": "electric_scooter", "bike_id": "41c291fc00c3cbe5cac103d29fbfa432", "is_disabled": 0, "rental_uris": {"android": "https://dc.lft.to/lastmile_qr_scan", "ios": "https://dc.lft.to/lastmile_qr_scan"}, "lon": -77.02726616666666, "fusion_lat": 0.0}, {"name": "3917b1164f51ea790337559dbc1e0a99", "fusion_lon": 0.0, "lat": 38.92329333333333, "is_reserved": 0, "type": "electric_scooter", "bike_id": "3917b1164f51ea790337559dbc1e0a99", "is_disabled": 0, "rental_uris": {"android": "https://dc.lft.to/lastmile_qr_scan", "ios": "https://dc.lft.to/lastmile_qr_scan"}, "lon": -77.073324, "fusion_lat": 0.0}, {"name": "3c790d3808861ba8c6863311bb0690ed", "fusion_lon": 0.0, "lat": 38.89221516666667, "is_reserved": 0, "type": "electric_scooter", "bike_id": "3c790d3808861ba8c6863311bb0690ed", "is_disabled": 0, "rental_uris": {"android": "https://dc.lft.to/lastmile_qr_scan", "ios": "https://dc.lft.to/lastmile_qr_scan"}, "lon": -77.04306783333334, "fusion_lat": 0.0}, {"name": "59fa5f55dad8c40d98a9a0c6bc394671", "fusion_lon": 0.0, "lat": 38.90935783333333, "is_reserved": 0, "type": "electric_scooter", "bike_id": "59fa5f55dad8c40d98a9a0c6bc394671", "is_disabled": 0, "rental_uris": {"android": "https://dc.lft.to/lastmile_qr_scan", "ios": "https://dc.lft.to/lastmile_qr_scan"}, "lon": -77.0310435, "fusion_lat": 0.0}, {"name": "5d9898fcd5f73e4108dc3c7391b0c22c", "fusion_lon": 0.0, "lat": 38.871138, "is_reserved": 0, "type": "electric_scooter", "bike_id": "5d9898fcd5f73e4108dc3c7391b0c22c", "is_disabled": 0, "rental_uris": {"android": "https://dc.lft.to/lastmile_qr_scan", "ios": "https://dc.lft.to/lastmile_qr_scan"}, "lon": -77.0075625, "fusion_lat": 0.0}, {"name": "7d6ecc534799051f6c3c586e3f5311a0", "fusion_lon": 0.0, "lat": 38.90798266666667, "is_reserved": 0, "type": "electric_scooter", "bike_id": "7d6ecc534799051f6c3c586e3f5311a0", "is_disabled": 0, "rental_uris": {"android": "https://dc.lft.to/lastmile_qr_scan", "ios": "https://dc.lft.to/lastmile_qr_scan"}, "lon": -77.03128533333333, "fusion_lat": 0.0}, {"name": "e5b9ff49c3195cdf16121f1beb65fba6", "fusion_lon": 0.0, "lat": 38.902280833333336, "is_reserved": 0, "type": "electric_scooter", "bike_id": "e5b9ff49c3195cdf16121f1beb65fba6", "is_disabled": 0, "rental_uris": {"android": "https://dc.lft.to/lastmile_qr_scan", "ios": "https://dc.lft.to/lastmile_qr_scan"}, "lon": -76.98932216666667, "fusion_lat": 0.0}, {"name": "bcd54b942ecc3481fbde6d9f1a40ac8b", "fusion_lon": 0.0, "lat": 38.898395, "is_reserved": 0, "type": "electric_scooter", "bike_id": "bcd54b942ecc3481fbde6d9f1a40ac8b", "is_disabled": 0, "rental_uris": {"android": "https://dc.lft.to/lastmile_qr_scan", "ios": "https://dc.lft.to/lastmile_qr_scan"}, "lon": -77.02272633333334, "fusion_lat": 0.0}, {"name": "0a66208feda86296559fe1164163ca78", "fusion_lon": 0.0, "lat": 38.918755, "is_reserved": 0, "type": "electric_scooter", "bike_id": "0a66208feda86296559fe1164163ca78", "is_disabled": 0, "rental_uris": {"android": "https://dc.lft.to/lastmile_qr_scan", "ios": "https://dc.lft.to/lastmile_qr_scan"}, "lon": -77.04457766666667, "fusion_lat": 0.0}, {"name": "286e871827e77ee1cf8d775933c2373f", "fusion_lon": 0.0, "lat": 38.905992, "is_reserved": 0, "type": "electric_scooter", "bike_id": "286e871827e77ee1cf8d775933c2373f", "is_disabled": 0, "rental_uris": {"android": "https://dc.lft.to/lastmile_qr_scan", "ios": "https://dc.lft.to/lastmile_qr_scan"}, "lon": -76.99267116666667, "fusion_lat": 0.0}, {"name": "bd0682944e1f702b1b07579813ecba54", "fusion_lon": 0.0, "lat": 38.919157, "is_reserved": 0, "type": "electric_scooter", "bike_id": "bd0682944e1f702b1b07579813ecba54", "is_disabled": 0, "rental_uris": {"android": "https://dc.lft.to/lastmile_qr_scan", "ios": "https://dc.lft.to/lastmile_qr_scan"}, "lon": -77.04804616666667, "fusion_lat": 0.0}, {"name": "26f07476fe8efc67d4e7543d090b8cb4", "fusion_lon": 0.0, "lat": 38.945096, "is_reserved": 0, "type": "electric_scooter", "bike_id": "26f07476fe8efc67d4e7543d090b8cb4", "is_disabled": 0, "rental_uris": {"android": "https://dc.lft.to/lastmile_qr_scan", "ios": "https://dc.lft.to/lastmile_qr_scan"}, "lon": -77.03325766666667, "fusion_lat": 0.0}, {"name": "d500e1ec11116c28e0125df4a00f1f1e", "fusion_lon": 0.0, "lat": 38.909394166666665, "is_reserved": 0, "type": "electric_scooter", "bike_id": "d500e1ec11116c28e0125df4a00f1f1e", "is_disabled": 0, "rental_uris": {"android": "https://dc.lft.to/lastmile_qr_scan", "ios": "https://dc.lft.to/lastmile_qr_scan"}, "lon": -77.04245666666667, "fusion_lat": 0.0}, {"name": "847568d25f372d4bffa5c51a69081fb7", "fusion_lon": 0.0, "lat": 38.8845855, "is_reserved": 0, "type": "electric_scooter", "bike_id": "847568d25f372d4bffa5c51a69081fb7", "is_disabled": 0, "rental_uris": {"android": "https://dc.lft.to/lastmile_qr_scan", "ios": "https://dc.lft.to/lastmile_qr_scan"}, "lon": -76.95747133333333, "fusion_lat": 0.0}, {"name": "8df8aaf146664c96adae3cebb48a8dea", "fusion_lon": 0.0, "lat": 38.90724316666667, "is_reserved": 0, "type": "electric_scooter", "bike_id": "8df8aaf146664c96adae3cebb48a8dea", "is_disabled": 0, "rental_uris": {"android": "https://dc.lft.to/lastmile_qr_scan", "ios": "https://dc.lft.to/lastmile_qr_scan"}, "lon": -77.01132716666666, "fusion_lat": 0.0}, {"name": "0bb9b53882d4b087750f369a493b8fe4", "fusion_lon": 0.0, "lat": 38.90860583333333, "is_reserved": 0, "type": "electric_scooter", "bike_id": "0bb9b53882d4b087750f369a493b8fe4", "is_disabled": 0, "rental_uris": {"android": "https://dc.lft.to/lastmile_qr_scan", "ios": "https://dc.lft.to/lastmile_qr_scan"}, "lon": -77.02414933333333, "fusion_lat": 0.0}, {"name": "e5480a0b73c6c0d0dd699d92b81171da", "fusion_lon": 0.0, "lat": 38.9205455, "is_reserved": 0, "type": "electric_scooter", "bike_id": "e5480a0b73c6c0d0dd699d92b81171da", "is_disabled": 0, "rental_uris": {"android": "https://dc.lft.to/lastmile_qr_scan", "ios": "https://dc.lft.to/lastmile_qr_scan"}, "lon": -77.04192266666666, "fusion_lat": 0.0}, {"name": "6f7129ffcbfb613b52b70ddcb4cc1976", "fusion_lon": 0.0, "lat": 38.9037835, "is_reserved": 0, "type": "electric_scooter", "bike_id": "6f7129ffcbfb613b52b70ddcb4cc1976", "is_disabled": 0, "rental_uris": {"android": "https://dc.lft.to/lastmile_qr_scan", "ios": "https://dc.lft.to/lastmile_qr_scan"}, "lon": -77.03638133333334, "fusion_lat": 0.0}, {"name": "1eb7f541a80ebdec974ffcf121d241a6", "fusion_lon": 0.0, "lat": 38.919103, "is_reserved": 0, "type": "electric_scooter", "bike_id": "1eb7f541a80ebdec974ffcf121d241a6", "is_disabled": 0, "rental_uris": {"android": "https://dc.lft.to/lastmile_qr_scan", "ios": "https://dc.lft.to/lastmile_qr_scan"}, "lon": -77.009864, "fusion_lat": 0.0}, {"name": "267a9f939201f7bd67e13542d24106f5", "fusion_lon": 0.0, "lat": 38.903155166666664, "is_reserved": 0, "type": "electric_scooter", "bike_id": "267a9f939201f7bd67e13542d24106f5", "is_disabled": 0, "rental_uris": {"android": "https://dc.lft.to/lastmile_qr_scan", "ios": "https://dc.lft.to/lastmile_qr_scan"}, "lon": -76.97801783333334, "fusion_lat": 0.0}, {"name": "b884b98bc6eeb07e1a435a391be54324", "fusion_lon": 0.0, "lat": 38.858987, "is_reserved": 0, "type": "electric_bike", "bike_id": "b884b98bc6eeb07e1a435a391be54324", "is_disabled": 0, "rental_uris": {"android": "https://dc.lft.to/lastmile_qr_scan", "ios": "https://dc.lft.to/lastmile_qr_scan"}, "lon": -77.11863183333334, "fusion_lat": 0.0}, {"name": "047479bf4235579dadd445ce2dafe8c0", "fusion_lon": 0.0, "lat": 38.926520833333335, "is_reserved": 0, "type": "electric_scooter", "bike_id": "047479bf4235579dadd445ce2dafe8c0", "is_disabled": 0, "rental_uris": {"android": "https://dc.lft.to/lastmile_qr_scan", "ios": "https://dc.lft.to/lastmile_qr_scan"}, "lon": -77.03708166666667, "fusion_lat": 0.0}, {"name": "2a0293bbefec827a9bda26ebddd38e6e", "fusion_lon": 0.0, "lat": 38.90028916666667, "is_reserved": 0, "type": "electric_bike", "bike_id": "2a0293bbefec827a9bda26ebddd38e6e", "is_disabled": 0, "rental_uris": {"android": "https://dc.lft.to/lastmile_qr_scan", "ios": "https://dc.lft.to/lastmile_qr_scan"}, "lon": -76.97223033333333, "fusion_lat": 0.0}, {"name": "722290789d5f0af2a27e7d3bf94e4b03", "fusion_lon": 0.0, "lat": 38.889116, "is_reserved": 0, "type": "electric_scooter", "bike_id": "722290789d5f0af2a27e7d3bf94e4b03", "is_disabled": 0, "rental_uris": {"android": "https://dc.lft.to/lastmile_qr_scan", "ios": "https://dc.lft.to/lastmile_qr_scan"}, "lon": -77.0521905, "fusion_lat": 0.0}, {"name": "66016a9474b9d6c7efc0a65422b3b3a3", "fusion_lon": 0.0, "lat": 38.923970833333335, "is_reserved": 0, "type": "electric_scooter", "bike_id": "66016a9474b9d6c7efc0a65422b3b3a3", "is_disabled": 0, "rental_uris": {"android": "https://dc.lft.to/lastmile_qr_scan", "ios": "https://dc.lft.to/lastmile_qr_scan"}, "lon": -77.0213795, "fusion_lat": 0.0}, {"name": "006569b1ac0be47a120ea8356e474d88", "fusion_lon": 0.0, "lat": 38.91616283333333, "is_reserved": 0, "type": "electric_scooter", "bike_id": "006569b1ac0be47a120ea8356e474d88", "is_disabled": 0, "rental_uris": {"android": "https://dc.lft.to/lastmile_qr_scan", "ios": "https://dc.lft.to/lastmile_qr_scan"}, "lon": -77.04846233333333, "fusion_lat": 0.0}, {"name": "f148361bb6e9fba3cce827d7c5659a86", "fusion_lon": 0.0, "lat": 38.923085, "is_reserved": 0, "type": "electric_scooter", "bike_id": "f148361bb6e9fba3cce827d7c5659a86", "is_disabled": 0, "rental_uris": {"android": "https://dc.lft.to/lastmile_qr_scan", "ios": "https://dc.lft.to/lastmile_qr_scan"}, "lon": -77.027547, "fusion_lat": 0.0}, {"name": "a8b640e23196ebc48300fb71555acfee", "fusion_lon": 0.0, "lat": 38.87609883333333, "is_reserved": 0, "type": "electric_scooter", "bike_id": "a8b640e23196ebc48300fb71555acfee", "is_disabled": 0, "rental_uris": {"android": "https://dc.lft.to/lastmile_qr_scan", "ios": "https://dc.lft.to/lastmile_qr_scan"}, "lon": -77.0007865, "fusion_lat": 0.0}, {"name": "1a96c7d899ea0577915d15b4102be782", "fusion_lon": 0.0, "lat": 38.89843833333333, "is_reserved": 0, "type": "electric_scooter", "bike_id": "1a96c7d899ea0577915d15b4102be782", "is_disabled": 0, "rental_uris": {"android": "https://dc.lft.to/lastmile_qr_scan", "ios": "https://dc.lft.to/lastmile_qr_scan"}, "lon": -77.03341933333333, "fusion_lat": 0.0}, {"name": "ec1bef4dce233ea62312cc2b7dd3223c", "fusion_lon": 0.0, "lat": 38.942025666666666, "is_reserved": 0, "type": "electric_scooter", "bike_id": "ec1bef4dce233ea62312cc2b7dd3223c", "is_disabled": 0, "rental_uris": {"android": "https://dc.lft.to/lastmile_qr_scan", "ios": "https://dc.lft.to/lastmile_qr_scan"}, "lon": -77.02511416666667, "fusion_lat": 0.0}, {"name": "26ad4b45b55fe379aa1a1f3424e5ee73", "fusion_lon": 0.0, "lat": 38.8634745, "is_reserved": 0, "type": "electric_scooter", "bike_id": "26ad4b45b55fe379aa1a1f3424e5ee73", "is_disabled": 0, "rental_uris": {"android": "https://dc.lft.to/lastmile_qr_scan", "ios": "https://dc.lft.to/lastmile_qr_scan"}, "lon": -76.9870245, "fusion_lat": 0.0}, {"name": "9e59669294161c5ae02569e4c12e3e94", "fusion_lon": 0.0, "lat": 38.91014366666667, "is_reserved": 0, "type": "electric_bike", "bike_id": "9e59669294161c5ae02569e4c12e3e94", "is_disabled": 0, "rental_uris": {"android": "https://dc.lft.to/lastmile_qr_scan", "ios": "https://dc.lft.to/lastmile_qr_scan"}, "lon": -77.22799683333334, "fusion_lat": 0.0}, {"name": "0fc4c5d0663f9e8ca92ed6a542021855", "fusion_lon": 0.0, "lat": 38.872761833333335, "is_reserved": 0, "type": "electric_bike", "bike_id": "0fc4c5d0663f9e8ca92ed6a542021855", "is_disabled": 0, "rental_uris": {"android": "https://dc.lft.to/lastmile_qr_scan", "ios": "https://dc.lft.to/lastmile_qr_scan"}, "lon": -77.23315, "fusion_lat": 0.0}, {"name": "87a6d03818458595a1f6806d1d1aed95", "fusion_lon": 0.0, "lat": 38.90382316666667, "is_reserved": 0, "type": "electric_scooter", "bike_id": "87a6d03818458595a1f6806d1d1aed95", "is_disabled": 0, "rental_uris": {"android": "https://dc.lft.to/lastmile_qr_scan", "ios": "https://dc.lft.to/lastmile_qr_scan"}, "lon": -77.03838533333334, "fusion_lat": 0.0}, {"name": "f7ee237fae8c3737503fb6665fb2b6a0", "fusion_lon": 0.0, "lat": 38.915231666666664, "is_reserved": 0, "type": "electric_scooter", "bike_id": "f7ee237fae8c3737503fb6665fb2b6a0", "is_disabled": 0, "rental_uris": {"android": "https://dc.lft.to/lastmile_qr_scan", "ios": "https://dc.lft.to/lastmile_qr_scan"}, "lon": -77.03177883333333, "fusion_lat": 0.0}, {"name": "71e0c104be7d1e37fa1fabe8f843450b", "fusion_lon": 0.0, "lat": 38.8806185, "is_reserved": 0, "type": "electric_bike", "bike_id": "71e0c104be7d1e37fa1fabe8f843450b", "is_disabled": 0, "rental_uris": {"android": "https://dc.lft.to/lastmile_qr_scan", "ios": "https://dc.lft.to/lastmile_qr_scan"}, "lon": -76.96234183333334, "fusion_lat": 0.0}, {"name": "b13fe73746bf938d57a82d992516dc79", "fusion_lon": 0.0, "lat": 38.90605766666667, "is_reserved": 0, "type": "electric_scooter", "bike_id": "b13fe73746bf938d57a82d992516dc79", "is_disabled": 0, "rental_uris": {"android": "https://dc.lft.to/lastmile_qr_scan", "ios": "https://dc.lft.to/lastmile_qr_scan"}, "lon": -77.05694216666667, "fusion_lat": 0.0}, {"name": "57794cc9209919b9152d82b44d14a406", "fusion_lon": 0.0, "lat": 38.8695475, "is_reserved": 0, "type": "electric_scooter", "bike_id": "57794cc9209919b9152d82b44d14a406", "is_disabled": 0, "rental_uris": {"android": "https://dc.lft.to/lastmile_qr_scan", "ios": "https://dc.lft.to/lastmile_qr_scan"}, "lon": -76.98171666666667, "fusion_lat": 0.0}, {"name": "b98f0166cc82dc93bc4b2f7629d68444", "fusion_lon": 0.0, "lat": 38.89322383333333, "is_reserved": 0, "type": "electric_scooter", "bike_id": "b98f0166cc82dc93bc4b2f7629d68444", "is_disabled": 0, "rental_uris": {"android": "https://dc.lft.to/lastmile_qr_scan", "ios": "https://dc.lft.to/lastmile_qr_scan"}, "lon": -77.048709, "fusion_lat": 0.0}, {"name": "61836f4785ea14f06fceb3bb2f457a6f", "fusion_lon": 0.0, "lat": 38.885037, "is_reserved": 0, "type": "electric_scooter", "bike_id": "61836f4785ea14f06fceb3bb2f457a6f", "is_disabled": 0, "rental_uris": {"android": "https://dc.lft.to/lastmile_qr_scan", "ios": "https://dc.lft.to/lastmile_qr_scan"}, "lon": -76.97710983333333, "fusion_lat": 0.0}, {"name": "254a3ff7fd54eb54a6be948b46cfbb3b", "fusion_lon": 0.0, "lat": 38.923241166666664, "is_reserved": 0, "type": "electric_scooter", "bike_id": "254a3ff7fd54eb54a6be948b46cfbb3b", "is_disabled": 0, "rental_uris": {"android": "https://dc.lft.to/lastmile_qr_scan", "ios": "https://dc.lft.to/lastmile_qr_scan"}, "lon": -77.0356945, "fusion_lat": 0.0}, {"name": "29bebc4ec4b2a88b3a3eaaafff705b4e", "fusion_lon": 0.0, "lat": 38.8956425, "is_reserved": 0, "type": "electric_bike", "bike_id": "29bebc4ec4b2a88b3a3eaaafff705b4e", "is_disabled": 0, "rental_uris": {"android": "https://dc.lft.to/lastmile_qr_scan", "ios": "https://dc.lft.to/lastmile_qr_scan"}, "lon": -77.12732016666666, "fusion_lat": 0.0}, {"name": "3e642b2de0e3f785d9d263f8ccd20a71", "fusion_lon": 0.0, "lat": 38.9204165, "is_reserved": 0, "type": "electric_scooter", "bike_id": "3e642b2de0e3f785d9d263f8ccd20a71", "is_disabled": 0, "rental_uris": {"android": "https://dc.lft.to/lastmile_qr_scan", "ios": "https://dc.lft.to/lastmile_qr_scan"}, "lon": -77.034021, "fusion_lat": 0.0}, {"name": "712198dba4929f6012154f9547a6c254", "fusion_lon": 0.0, "lat": 38.910253833333336, "is_reserved": 0, "type": "electric_scooter", "bike_id": "712198dba4929f6012154f9547a6c254", "is_disabled": 0, "rental_uris": {"android": "https://dc.lft.to/lastmile_qr_scan", "ios": "https://dc.lft.to/lastmile_qr_scan"}, "lon": -77.00757916666667, "fusion_lat": 0.0}, {"name": "96c129c9871fe42b4be434a2c1c2f060", "fusion_lon": 0.0, "lat": 38.907148, "is_reserved": 0, "type": "electric_scooter", "bike_id": "96c129c9871fe42b4be434a2c1c2f060", "is_disabled": 0, "rental_uris": {"android": "https://dc.lft.to/lastmile_qr_scan", "ios": "https://dc.lft.to/lastmile_qr_scan"}, "lon": -77.01473583333333, "fusion_lat": 0.0}, {"name": "674cdb5158f1e606f4292d32f9c8024f", "fusion_lon": 0.0, "lat": 38.90162633333333, "is_reserved": 0, "type": "electric_scooter", "bike_id": "674cdb5158f1e606f4292d32f9c8024f", "is_disabled": 0, "rental_uris": {"android": "https://dc.lft.to/lastmile_qr_scan", "ios": "https://dc.lft.to/lastmile_qr_scan"}, "lon": -77.01603466666667, "fusion_lat": 0.0}, {"name": "822252d592c9deef89704ab8b97a59ca", "fusion_lon": 0.0, "lat": 38.90263683333333, "is_reserved": 0, "type": "electric_scooter", "bike_id": "822252d592c9deef89704ab8b97a59ca", "is_disabled": 0, "rental_uris": {"android": "https://dc.lft.to/lastmile_qr_scan", "ios": "https://dc.lft.to/lastmile_qr_scan"}, "lon": -77.03400433333333, "fusion_lat": 0.0}, {"name": "c0e1a46796e69e52ba9a3c673070c0c8", "fusion_lon": 0.0, "lat": 38.86696966666667, "is_reserved": 0, "type": "electric_scooter", "bike_id": "c0e1a46796e69e52ba9a3c673070c0c8", "is_disabled": 0, "rental_uris": {"android": "https://dc.lft.to/lastmile_qr_scan", "ios": "https://dc.lft.to/lastmile_qr_scan"}, "lon": -76.9870785, "fusion_lat": 0.0}, {"name": "2f9de754f31cb5166c494170aa71377d", "fusion_lon": 0.0, "lat": 38.911347, "is_reserved": 0, "type": "electric_scooter", "bike_id": "2f9de754f31cb5166c494170aa71377d", "is_disabled": 0, "rental_uris": {"android": "https://dc.lft.to/lastmile_qr_scan", "ios": "https://dc.lft.to/lastmile_qr_scan"}, "lon": -77.0281125, "fusion_lat": 0.0}, {"name": "4ffc5361a56b13d4d12126951e801807", "fusion_lon": 0.0, "lat": 38.89222516666667, "is_reserved": 0, "type": "electric_scooter", "bike_id": "4ffc5361a56b13d4d12126951e801807", "is_disabled": 0, "rental_uris": {"android": "https://dc.lft.to/lastmile_qr_scan", "ios": "https://dc.lft.to/lastmile_qr_scan"}, "lon": -77.02225016666667, "fusion_lat": 0.0}, {"name": "fe17abe6ad8e8bc4ba4a8d4a4d5f339d", "fusion_lon": 0.0, "lat": 38.922422833333336, "is_reserved": 0, "type": "electric_scooter", "bike_id": "fe17abe6ad8e8bc4ba4a8d4a4d5f339d", "is_disabled": 0, "rental_uris": {"android": "https://dc.lft.to/lastmile_qr_scan", "ios": "https://dc.lft.to/lastmile_qr_scan"}, "lon": -77.03880083333334, "fusion_lat": 0.0}, {"name": "974ca24d9a9cb08e14cdb59d6720abdf", "fusion_lon": 0.0, "lat": 38.94156866666667, "is_reserved": 0, "type": "electric_bike", "bike_id": "974ca24d9a9cb08e14cdb59d6720abdf", "is_disabled": 0, "rental_uris": {"android": "https://dc.lft.to/lastmile_qr_scan", "ios": "https://dc.lft.to/lastmile_qr_scan"}, "lon": -77.00199816666667, "fusion_lat": 0.0}, {"name": "38ee5b8bd2d230aea236d6289b674659", "fusion_lon": 0.0, "lat": 38.8636645, "is_reserved": 0, "type": "electric_bike", "bike_id": "38ee5b8bd2d230aea236d6289b674659", "is_disabled": 0, "rental_uris": {"android": "https://dc.lft.to/lastmile_qr_scan", "ios": "https://dc.lft.to/lastmile_qr_scan"}, "lon": -76.9701255, "fusion_lat": 0.0}, {"name": "613cdc73ee56ef076615bfcb9535ba11", "fusion_lon": 0.0, "lat": 38.90826716666667, "is_reserved": 0, "type": "electric_bike", "bike_id": "613cdc73ee56ef076615bfcb9535ba11", "is_disabled": 0, "rental_uris": {"android": "https://dc.lft.to/lastmile_qr_scan", "ios": "https://dc.lft.to/lastmile_qr_scan"}, "lon": -76.94156816666667, "fusion_lat": 0.0}, {"name": "3ead413425c1b80d0d827f393a4ebba2", "fusion_lon": 0.0, "lat": 38.913643666666665, "is_reserved": 0, "type": "electric_scooter", "bike_id": "3ead413425c1b80d0d827f393a4ebba2", "is_disabled": 0, "rental_uris": {"android": "https://dc.lft.to/lastmile_qr_scan", "ios": "https://dc.lft.to/lastmile_qr_scan"}, "lon": -77.045543, "fusion_lat": 0.0}, {"name": "26ab8f6c7011508dd40710b5ed07f80c", "fusion_lon": 0.0, "lat": 38.897600833333335, "is_reserved": 0, "type": "electric_scooter", "bike_id": "26ab8f6c7011508dd40710b5ed07f80c", "is_disabled": 0, "rental_uris": {"android": "https://dc.lft.to/lastmile_qr_scan", "ios": "https://dc.lft.to/lastmile_qr_scan"}, "lon": -77.02691916666667, "fusion_lat": 0.0}, {"name": "d4123115f813925ea03d6a6757ad4d84", "fusion_lon": 0.0, "lat": 38.904073333333336, "is_reserved": 0, "type": "electric_scooter", "bike_id": "d4123115f813925ea03d6a6757ad4d84", "is_disabled": 0, "rental_uris": {"android": "https://dc.lft.to/lastmile_qr_scan", "ios": "https://dc.lft.to/lastmile_qr_scan"}, "lon": -77.03265816666666, "fusion_lat": 0.0}, {"name": "335369fd07f37ddc363f1a11c187b44f", "fusion_lon": 0.0, "lat": 38.914073, "is_reserved": 0, "type": "electric_scooter", "bike_id": "335369fd07f37ddc363f1a11c187b44f", "is_disabled": 0, "rental_uris": {"android": "https://dc.lft.to/lastmile_qr_scan", "ios": "https://dc.lft.to/lastmile_qr_scan"}, "lon": -77.04369883333334, "fusion_lat": 0.0}, {"name": "cf3a767d17d63e1ebfffca8489f91de5", "fusion_lon": 0.0, "lat": 38.920847, "is_reserved": 0, "type": "electric_scooter", "bike_id": "cf3a767d17d63e1ebfffca8489f91de5", "is_disabled": 0, "rental_uris": {"android": "https://dc.lft.to/lastmile_qr_scan", "ios": "https://dc.lft.to/lastmile_qr_scan"}, "lon": -77.0241415, "fusion_lat": 0.0}, {"name": "cbe2c67c0cb24082cd1be604fafa268a", "fusion_lon": 0.0, "lat": 38.91728783333333, "is_reserved": 0, "type": "electric_scooter", "bike_id": "cbe2c67c0cb24082cd1be604fafa268a", "is_disabled": 0, "rental_uris": {"android": "https://dc.lft.to/lastmile_qr_scan", "ios": "https://dc.lft.to/lastmile_qr_scan"}, "lon": -77.0251055, "fusion_lat": 0.0}, {"name": "292bcdc1aca1b8aec844748d4f41766a", "fusion_lon": 0.0, "lat": 38.917199333333336, "is_reserved": 0, "type": "electric_scooter", "bike_id": "292bcdc1aca1b8aec844748d4f41766a", "is_disabled": 0, "rental_uris": {"android": "https://dc.lft.to/lastmile_qr_scan", "ios": "https://dc.lft.to/lastmile_qr_scan"}, "lon": -77.03192333333334, "fusion_lat": 0.0}, {"name": "48f26a8b29ef9c0be6e78bc727d212da", "fusion_lon": 0.0, "lat": 38.921013, "is_reserved": 0, "type": "electric_scooter", "bike_id": "48f26a8b29ef9c0be6e78bc727d212da", "is_disabled": 0, "rental_uris": {"android": "https://dc.lft.to/lastmile_qr_scan", "ios": "https://dc.lft.to/lastmile_qr_scan"}, "lon": -77.0317475, "fusion_lat": 0.0}, {"name": "977372aac96bb5bbe43fc2dd9125a4e9", "fusion_lon": 0.0, "lat": 38.900679333333336, "is_reserved": 0, "type": "electric_scooter", "bike_id": "977372aac96bb5bbe43fc2dd9125a4e9", "is_disabled": 0, "rental_uris": {"android": "https://dc.lft.to/lastmile_qr_scan", "ios": "https://dc.lft.to/lastmile_qr_scan"}, "lon": -77.04899266666666, "fusion_lat": 0.0}, {"name": "01a2a200e71d0e05f4c67d3b1c6bc0c0", "fusion_lon": 0.0, "lat": 38.892256333333336, "is_reserved": 0, "type": "electric_scooter", "bike_id": "01a2a200e71d0e05f4c67d3b1c6bc0c0", "is_disabled": 0, "rental_uris": {"android": "https://dc.lft.to/lastmile_qr_scan", "ios": "https://dc.lft.to/lastmile_qr_scan"}, "lon": -77.0333955, "fusion_lat": 0.0}, {"name": "dc3e2e9c95e3338c03c88e02afe4570e", "fusion_lon": 0.0, "lat": 38.90049666666667, "is_reserved": 0, "type": "electric_scooter", "bike_id": "dc3e2e9c95e3338c03c88e02afe4570e", "is_disabled": 0, "rental_uris": {"android": "https://dc.lft.to/lastmile_qr_scan", "ios": "https://dc.lft.to/lastmile_qr_scan"}, "lon": -77.04832133333333, "fusion_lat": 0.0}, {"name": "5d6fc4d6b33e64cf1dd10630bc29fab3", "fusion_lon": 0.0, "lat": 38.92542566666667, "is_reserved": 0, "type": "electric_scooter", "bike_id": "5d6fc4d6b33e64cf1dd10630bc29fab3", "is_disabled": 0, "rental_uris": {"android": "https://dc.lft.to/lastmile_qr_scan", "ios": "https://dc.lft.to/lastmile_qr_scan"}, "lon": -77.0328295, "fusion_lat": 0.0}, {"name": "1113f3885f07b30d8119358d37c0c58c", "fusion_lon": 0.0, "lat": 38.9247865, "is_reserved": 0, "type": "electric_scooter", "bike_id": "1113f3885f07b30d8119358d37c0c58c", "is_disabled": 0, "rental_uris": {"android": "https://dc.lft.to/lastmile_qr_scan", "ios": "https://dc.lft.to/lastmile_qr_scan"}, "lon": -77.03500233333334, "fusion_lat": 0.0}, {"name": "058c573f94b32d085e2b1c51024455bc", "fusion_lon": 0.0, "lat": 38.865125166666665, "is_reserved": 0, "type": "electric_scooter", "bike_id": "058c573f94b32d085e2b1c51024455bc", "is_disabled": 0, "rental_uris": {"android": "https://dc.lft.to/lastmile_qr_scan", "ios": "https://dc.lft.to/lastmile_qr_scan"}, "lon": -76.973397, "fusion_lat": 0.0}, {"name": "c535b6dfdf06230edf5d2f9471abc1a9", "fusion_lon": 0.0, "lat": 38.849180833333335, "is_reserved": 0, "type": "electric_bike", "bike_id": "c535b6dfdf06230edf5d2f9471abc1a9", "is_disabled": 0, "rental_uris": {"android": "https://dc.lft.to/lastmile_qr_scan", "ios": "https://dc.lft.to/lastmile_qr_scan"}, "lon": -77.07791566666667, "fusion_lat": 0.0}, {"name": "d1992419702396a8af5a0a5669c7702e", "fusion_lon": 0.0, "lat": 38.89370916666667, "is_reserved": 0, "type": "electric_scooter", "bike_id": "d1992419702396a8af5a0a5669c7702e", "is_disabled": 0, "rental_uris": {"android": "https://dc.lft.to/lastmile_qr_scan", "ios": "https://dc.lft.to/lastmile_qr_scan"}, "lon": -77.01558866666667, "fusion_lat": 0.0}, {"name": "50c847b6c4ecfac48f74737da315b256", "fusion_lon": 0.0, "lat": 38.90506533333333, "is_reserved": 0, "type": "electric_scooter", "bike_id": "50c847b6c4ecfac48f74737da315b256", "is_disabled": 0, "rental_uris": {"android": "https://dc.lft.to/lastmile_qr_scan", "ios": "https://dc.lft.to/lastmile_qr_scan"}, "lon": -77.0012955, "fusion_lat": 0.0}, {"name": "75c30d7d81942aefedcaf5288fff7d88", "fusion_lon": 0.0, "lat": 38.91678516666666, "is_reserved": 0, "type": "electric_scooter", "bike_id": "75c30d7d81942aefedcaf5288fff7d88", "is_disabled": 0, "rental_uris": {"android": "https://dc.lft.to/lastmile_qr_scan", "ios": "https://dc.lft.to/lastmile_qr_scan"}, "lon": -77.04143133333334, "fusion_lat": 0.0}, {"name": "014aa15de73e3f2790605b2b3c659175", "fusion_lon": 0.0, "lat": 38.956491, "is_reserved": 0, "type": "electric_bike", "bike_id": "014aa15de73e3f2790605b2b3c659175", "is_disabled": 0, "rental_uris": {"android": "https://dc.lft.to/lastmile_qr_scan", "ios": "https://dc.lft.to/lastmile_qr_scan"}, "lon": -77.0127775, "fusion_lat": 0.0}, {"name": "4fe1e77a7f5e64a040a4aeec97959633", "fusion_lon": 0.0, "lat": 38.9066545, "is_reserved": 0, "type": "electric_scooter", "bike_id": "4fe1e77a7f5e64a040a4aeec97959633", "is_disabled": 0, "rental_uris": {"android": "https://dc.lft.to/lastmile_qr_scan", "ios": "https://dc.lft.to/lastmile_qr_scan"}, "lon": -77.0713395, "fusion_lat": 0.0}, {"name": "0e71137452a2d6c0512ec58deeb81b6a", "fusion_lon": 0.0, "lat": 38.90211216666667, "is_reserved": 0, "type": "electric_scooter", "bike_id": "0e71137452a2d6c0512ec58deeb81b6a", "is_disabled": 0, "rental_uris": {"android": "https://dc.lft.to/lastmile_qr_scan", "ios": "https://dc.lft.to/lastmile_qr_scan"}, "lon": -77.02181033333333, "fusion_lat": 0.0}, {"name": "ccb3f3c54de7a64f569406d81d2c214f", "fusion_lon": 0.0, "lat": 38.866582666666666, "is_reserved": 0, "type": "electric_scooter", "bike_id": "ccb3f3c54de7a64f569406d81d2c214f", "is_disabled": 0, "rental_uris": {"android": "https://dc.lft.to/lastmile_qr_scan", "ios": "https://dc.lft.to/lastmile_qr_scan"}, "lon": -76.98884466666667, "fusion_lat": 0.0}, {"name": "b20d77027b7576dd3ac6d3c872601d60", "fusion_lon": 0.0, "lat": 38.86236783333333, "is_reserved": 0, "type": "electric_scooter", "bike_id": "b20d77027b7576dd3ac6d3c872601d60", "is_disabled": 0, "rental_uris": {"android": "https://dc.lft.to/lastmile_qr_scan", "ios": "https://dc.lft.to/lastmile_qr_scan"}, "lon": -76.99489616666666, "fusion_lat": 0.0}, {"name": "2e7a0cb2e85ebd3d700dd2733b1a2e55", "fusion_lon": 0.0, "lat": 38.88612666666667, "is_reserved": 0, "type": "electric_scooter", "bike_id": "2e7a0cb2e85ebd3d700dd2733b1a2e55", "is_disabled": 0, "rental_uris": {"android": "https://dc.lft.to/lastmile_qr_scan", "ios": "https://dc.lft.to/lastmile_qr_scan"}, "lon": -76.9951065, "fusion_lat": 0.0}, {"name": "e17072ad4e06da38b392314c34ae1543", "fusion_lon": 0.0, "lat": 38.9650725, "is_reserved": 0, "type": "electric_bike", "bike_id": "e17072ad4e06da38b392314c34ae1543", "is_disabled": 0, "rental_uris": {"android": "https://dc.lft.to/lastmile_qr_scan", "ios": "https://dc.lft.to/lastmile_qr_scan"}, "lon": -77.02823366666667, "fusion_lat": 0.0}, {"name": "ab450b2d9d4e6cf8b9aae072eae9f93c", "fusion_lon": 0.0, "lat": 38.88457983333333, "is_reserved": 0, "type": "electric_scooter", "bike_id": "ab450b2d9d4e6cf8b9aae072eae9f93c", "is_disabled": 0, "rental_uris": {"android": "https://dc.lft.to/lastmile_qr_scan", "ios": "https://dc.lft.to/lastmile_qr_scan"}, "lon": -76.92621183333333, "fusion_lat": 0.0}, {"name": "0b97aea2bfa234dbf49e9e1f6d38015e", "fusion_lon": 0.0, "lat": 38.9065415, "is_reserved": 0, "type": "electric_scooter", "bike_id": "0b97aea2bfa234dbf49e9e1f6d38015e", "is_disabled": 0, "rental_uris": {"android": "https://dc.lft.to/lastmile_qr_scan", "ios": "https://dc.lft.to/lastmile_qr_scan"}, "lon": -77.03856016666667, "fusion_lat": 0.0}, {"name": "85c447de8c12df1389f6ab5430d3f2f7", "fusion_lon": 0.0, "lat": 38.96213566666667, "is_reserved": 0, "type": "electric_bike", "bike_id": "85c447de8c12df1389f6ab5430d3f2f7", "is_disabled": 0, "rental_uris": {"android": "https://dc.lft.to/lastmile_qr_scan", "ios": "https://dc.lft.to/lastmile_qr_scan"}, "lon": -77.02623583333333, "fusion_lat": 0.0}, {"name": "b309809d2bb04077199e5b5e3567c71b", "fusion_lon": 0.0, "lat": 38.92464316666667, "is_reserved": 0, "type": "electric_scooter", "bike_id": "b309809d2bb04077199e5b5e3567c71b", "is_disabled": 0, "rental_uris": {"android": "https://dc.lft.to/lastmile_qr_scan", "ios": "https://dc.lft.to/lastmile_qr_scan"}, "lon": -77.039117, "fusion_lat": 0.0}, {"name": "c0c8fe069e00b59e3eb14c18caed2612", "fusion_lon": 0.0, "lat": 38.870849, "is_reserved": 0, "type": "electric_scooter", "bike_id": "c0c8fe069e00b59e3eb14c18caed2612", "is_disabled": 0, "rental_uris": {"android": "https://dc.lft.to/lastmile_qr_scan", "ios": "https://dc.lft.to/lastmile_qr_scan"}, "lon": -77.01355616666666, "fusion_lat": 0.0}, {"name": "4afd911383e12791b641c9bae33fefd7", "fusion_lon": 0.0, "lat": 38.9132615, "is_reserved": 0, "type": "electric_scooter", "bike_id": "4afd911383e12791b641c9bae33fefd7", "is_disabled": 0, "rental_uris": {"android": "https://dc.lft.to/lastmile_qr_scan", "ios": "https://dc.lft.to/lastmile_qr_scan"}, "lon": -77.0367745, "fusion_lat": 0.0}, {"name": "919136f99b3004046ddd3ea8cbd8e971", "fusion_lon": 0.0, "lat": 38.905690166666666, "is_reserved": 0, "type": "electric_scooter", "bike_id": "919136f99b3004046ddd3ea8cbd8e971", "is_disabled": 0, "rental_uris": {"android": "https://dc.lft.to/lastmile_qr_scan", "ios": "https://dc.lft.to/lastmile_qr_scan"}, "lon": -77.04136033333333, "fusion_lat": 0.0}, {"name": "e473b06c48ea18984f50ba7377e4e06d", "fusion_lon": 0.0, "lat": 38.91414533333333, "is_reserved": 0, "type": "electric_scooter", "bike_id": "e473b06c48ea18984f50ba7377e4e06d", "is_disabled": 0, "rental_uris": {"android": "https://dc.lft.to/lastmile_qr_scan", "ios": "https://dc.lft.to/lastmile_qr_scan"}, "lon": -77.04178, "fusion_lat": 0.0}, {"name": "94a49b7788ce7b1405bbd4bc6303ad9d", "fusion_lon": 0.0, "lat": 38.89231483333333, "is_reserved": 0, "type": "electric_scooter", "bike_id": "94a49b7788ce7b1405bbd4bc6303ad9d", "is_disabled": 0, "rental_uris": {"android": "https://dc.lft.to/lastmile_qr_scan", "ios": "https://dc.lft.to/lastmile_qr_scan"}, "lon": -77.032056, "fusion_lat": 0.0}, {"name": "1e9eee5d7d25bfa69c16708a55bd223f", "fusion_lon": 0.0, "lat": 38.90241066666667, "is_reserved": 0, "type": "electric_scooter", "bike_id": "1e9eee5d7d25bfa69c16708a55bd223f", "is_disabled": 0, "rental_uris": {"android": "https://dc.lft.to/lastmile_qr_scan", "ios": "https://dc.lft.to/lastmile_qr_scan"}, "lon": -77.0019335, "fusion_lat": 0.0}, {"name": "080b7fa6762969f7179debeea890d118", "fusion_lon": 0.0, "lat": 38.9214495, "is_reserved": 0, "type": "electric_scooter", "bike_id": "080b7fa6762969f7179debeea890d118", "is_disabled": 0, "rental_uris": {"android": "https://dc.lft.to/lastmile_qr_scan", "ios": "https://dc.lft.to/lastmile_qr_scan"}, "lon": -77.03459766666667, "fusion_lat": 0.0}, {"name": "e47706ca25c18b16dc5f47a1823196d7", "fusion_lon": 0.0, "lat": 38.904976833333336, "is_reserved": 0, "type": "electric_bike", "bike_id": "e47706ca25c18b16dc5f47a1823196d7", "is_disabled": 0, "rental_uris": {"android": "https://dc.lft.to/lastmile_qr_scan", "ios": "https://dc.lft.to/lastmile_qr_scan"}, "lon": -76.97423933333333, "fusion_lat": 0.0}, {"name": "c139724fcffa24bd60487da4047464cd", "fusion_lon": 0.0, "lat": 38.934471, "is_reserved": 0, "type": "electric_scooter", "bike_id": "c139724fcffa24bd60487da4047464cd", "is_disabled": 0, "rental_uris": {"android": "https://dc.lft.to/lastmile_qr_scan", "ios": "https://dc.lft.to/lastmile_qr_scan"}, "lon": -77.02728366666666, "fusion_lat": 0.0}, {"name": "bd87a144b93a03d7a1de49e13cb67f82", "fusion_lon": 0.0, "lat": 38.905997666666664, "is_reserved": 0, "type": "electric_scooter", "bike_id": "bd87a144b93a03d7a1de49e13cb67f82", "is_disabled": 0, "rental_uris": {"android": "https://dc.lft.to/lastmile_qr_scan", "ios": "https://dc.lft.to/lastmile_qr_scan"}, "lon": -77.021087, "fusion_lat": 0.0}, {"name": "61a9600a55f25a1731031ac20adc2541", "fusion_lon": 0.0, "lat": 38.905523, "is_reserved": 0, "type": "electric_scooter", "bike_id": "61a9600a55f25a1731031ac20adc2541", "is_disabled": 0, "rental_uris": {"android": "https://dc.lft.to/lastmile_qr_scan", "ios": "https://dc.lft.to/lastmile_qr_scan"}, "lon": -77.02979566666667, "fusion_lat": 0.0}, {"name": "eaafb78a7ec15ff0c5284d5a7e8015f1", "fusion_lon": 0.0, "lat": 38.91813416666667, "is_reserved": 0, "type": "electric_scooter", "bike_id": "eaafb78a7ec15ff0c5284d5a7e8015f1", "is_disabled": 0, "rental_uris": {"android": "https://dc.lft.to/lastmile_qr_scan", "ios": "https://dc.lft.to/lastmile_qr_scan"}, "lon": -77.03667933333334, "fusion_lat": 0.0}, {"name": "9becde724e0f0fae28beb89d8e399c26", "fusion_lon": 0.0, "lat": 38.89863316666667, "is_reserved": 0, "type": "electric_scooter", "bike_id": "9becde724e0f0fae28beb89d8e399c26", "is_disabled": 0, "rental_uris": {"android": "https://dc.lft.to/lastmile_qr_scan", "ios": "https://dc.lft.to/lastmile_qr_scan"}, "lon": -76.927554, "fusion_lat": 0.0}, {"name": "abf190bde69a3dc59b18679ed829dd13", "fusion_lon": 0.0, "lat": 38.90535533333333, "is_reserved": 0, "type": "electric_scooter", "bike_id": "abf190bde69a3dc59b18679ed829dd13", "is_disabled": 0, "rental_uris": {"android": "https://dc.lft.to/lastmile_qr_scan", "ios": "https://dc.lft.to/lastmile_qr_scan"}, "lon": -77.0307505, "fusion_lat": 0.0}, {"name": "6860cdac5ff17e7f1375d09312c5d449", "fusion_lon": 0.0, "lat": 38.85537933333333, "is_reserved": 0, "type": "electric_scooter", "bike_id": "6860cdac5ff17e7f1375d09312c5d449", "is_disabled": 0, "rental_uris": {"android": "https://dc.lft.to/lastmile_qr_scan", "ios": "https://dc.lft.to/lastmile_qr_scan"}, "lon": -76.9841525, "fusion_lat": 0.0}, {"name": "4fb77cac0122f50162c083f94617c1f5", "fusion_lon": 0.0, "lat": 38.88017983333334, "is_reserved": 0, "type": "electric_scooter", "bike_id": "4fb77cac0122f50162c083f94617c1f5", "is_disabled": 0, "rental_uris": {"android": "https://dc.lft.to/lastmile_qr_scan", "ios": "https://dc.lft.to/lastmile_qr_scan"}, "lon": -76.93113516666666, "fusion_lat": 0.0}, {"name": "80ee75ad3c758e3a718da0c5a9d3b2c0", "fusion_lon": 0.0, "lat": 38.95941116666667, "is_reserved": 0, "type": "electric_scooter", "bike_id": "80ee75ad3c758e3a718da0c5a9d3b2c0", "is_disabled": 0, "rental_uris": {"android": "https://dc.lft.to/lastmile_qr_scan", "ios": "https://dc.lft.to/lastmile_qr_scan"}, "lon": -77.03044683333333, "fusion_lat": 0.0}, {"name": "6793622d500ba2492d1ce4005f8603a4", "fusion_lon": 0.0, "lat": 38.929697166666664, "is_reserved": 0, "type": "electric_scooter", "bike_id": "6793622d500ba2492d1ce4005f8603a4", "is_disabled": 0, "rental_uris": {"android": "https://dc.lft.to/lastmile_qr_scan", "ios": "https://dc.lft.to/lastmile_qr_scan"}, "lon": -77.01688133333333, "fusion_lat": 0.0}, {"name": "0e53bc03f733f2ac4ff87bdabfbaf8b3", "fusion_lon": 0.0, "lat": 38.9079235, "is_reserved": 0, "type": "electric_scooter", "bike_id": "0e53bc03f733f2ac4ff87bdabfbaf8b3", "is_disabled": 0, "rental_uris": {"android": "https://dc.lft.to/lastmile_qr_scan", "ios": "https://dc.lft.to/lastmile_qr_scan"}, "lon": -77.0019465, "fusion_lat": 0.0}, {"name": "6605ff4a01a54bbf3b114c90478c9536", "fusion_lon": 0.0, "lat": 38.900811833333336, "is_reserved": 0, "type": "electric_scooter", "bike_id": "6605ff4a01a54bbf3b114c90478c9536", "is_disabled": 0, "rental_uris": {"android": "https://dc.lft.to/lastmile_qr_scan", "ios": "https://dc.lft.to/lastmile_qr_scan"}, "lon": -76.930158, "fusion_lat": 0.0}, {"name": "07c29d209eb12b281a908c4cff6f1ff1", "fusion_lon": 0.0, "lat": 38.92649383333333, "is_reserved": 0, "type": "electric_scooter", "bike_id": "07c29d209eb12b281a908c4cff6f1ff1", "is_disabled": 0, "rental_uris": {"android": "https://dc.lft.to/lastmile_qr_scan", "ios": "https://dc.lft.to/lastmile_qr_scan"}, "lon": -77.03706933333333, "fusion_lat": 0.0}, {"name": "dd9db3f7ec20f6b3e896e9dc6ff26a44", "fusion_lon": 0.0, "lat": 38.95650933333334, "is_reserved": 0, "type": "electric_bike", "bike_id": "dd9db3f7ec20f6b3e896e9dc6ff26a44", "is_disabled": 0, "rental_uris": {"android": "https://dc.lft.to/lastmile_qr_scan", "ios": "https://dc.lft.to/lastmile_qr_scan"}, "lon": -77.01275033333333, "fusion_lat": 0.0}, {"name": "cc9b5ebe329d5ce24724c376551cdbb9", "fusion_lon": 0.0, "lat": 38.9155285, "is_reserved": 0, "type": "electric_scooter", "bike_id": "cc9b5ebe329d5ce24724c376551cdbb9", "is_disabled": 0, "rental_uris": {"android": "https://dc.lft.to/lastmile_qr_scan", "ios": "https://dc.lft.to/lastmile_qr_scan"}, "lon": -77.04177866666667, "fusion_lat": 0.0}, {"name": "afef25f6537daace7fc3483c7e95665f", "fusion_lon": 0.0, "lat": 38.916326166666664, "is_reserved": 0, "type": "electric_scooter", "bike_id": "afef25f6537daace7fc3483c7e95665f", "is_disabled": 0, "rental_uris": {"android": "https://dc.lft.to/lastmile_qr_scan", "ios": "https://dc.lft.to/lastmile_qr_scan"}, "lon": -77.023889, "fusion_lat": 0.0}, {"name": "147427861208c5249c8f63137eb04849", "fusion_lon": 0.0, "lat": 38.9199815, "is_reserved": 0, "type": "electric_scooter", "bike_id": "147427861208c5249c8f63137eb04849", "is_disabled": 0, "rental_uris": {"android": "https://dc.lft.to/lastmile_qr_scan", "ios": "https://dc.lft.to/lastmile_qr_scan"}, "lon": -77.03225033333334, "fusion_lat": 0.0}, {"name": "bdec895bf6ba2ccfd22c412a7c5d7b18", "fusion_lon": 0.0, "lat": 38.89704666666667, "is_reserved": 0, "type": "electric_scooter", "bike_id": "bdec895bf6ba2ccfd22c412a7c5d7b18", "is_disabled": 0, "rental_uris": {"android": "https://dc.lft.to/lastmile_qr_scan", "ios": "https://dc.lft.to/lastmile_qr_scan"}, "lon": -76.93003283333333, "fusion_lat": 0.0}, {"name": "fa004b7c4183f47e23787b83b39778f3", "fusion_lon": 0.0, "lat": 38.8995755, "is_reserved": 0, "type": "electric_bike", "bike_id": "fa004b7c4183f47e23787b83b39778f3", "is_disabled": 0, "rental_uris": {"android": "https://dc.lft.to/lastmile_qr_scan", "ios": "https://dc.lft.to/lastmile_qr_scan"}, "lon": -76.985598, "fusion_lat": 0.0}, {"name": "967fc76ea71727cd401158e68b265fab", "fusion_lon": 0.0, "lat": 38.866223166666664, "is_reserved": 0, "type": "electric_scooter", "bike_id": "967fc76ea71727cd401158e68b265fab", "is_disabled": 0, "rental_uris": {"android": "https://dc.lft.to/lastmile_qr_scan", "ios": "https://dc.lft.to/lastmile_qr_scan"}, "lon": -76.98898066666666, "fusion_lat": 0.0}, {"name": "5c4458834858fd55bfd0346e94fceebc", "fusion_lon": 0.0, "lat": 38.9035445, "is_reserved": 0, "type": "electric_scooter", "bike_id": "5c4458834858fd55bfd0346e94fceebc", "is_disabled": 0, "rental_uris": {"android": "https://dc.lft.to/lastmile_qr_scan", "ios": "https://dc.lft.to/lastmile_qr_scan"}, "lon": -77.04502866666667, "fusion_lat": 0.0}, {"name": "323371fe2dca2f7c85b25382cd6dd6dc", "fusion_lon": 0.0, "lat": 38.923715333333334, "is_reserved": 0, "type": "electric_scooter", "bike_id": "323371fe2dca2f7c85b25382cd6dd6dc", "is_disabled": 0, "rental_uris": {"android": "https://dc.lft.to/lastmile_qr_scan", "ios": "https://dc.lft.to/lastmile_qr_scan"}, "lon": -77.03098216666666, "fusion_lat": 0.0}, {"name": "b7410abe70e37be5664aaccc4b76acaa", "fusion_lon": 0.0, "lat": 38.92706066666667, "is_reserved": 0, "type": "electric_scooter", "bike_id": "b7410abe70e37be5664aaccc4b76acaa", "is_disabled": 0, "rental_uris": {"android": "https://dc.lft.to/lastmile_qr_scan", "ios": "https://dc.lft.to/lastmile_qr_scan"}, "lon": -77.014548, "fusion_lat": 0.0}, {"name": "593f58d202f868c585934bf2a3514f04", "fusion_lon": 0.0, "lat": 38.92672183333333, "is_reserved": 0, "type": "electric_scooter", "bike_id": "593f58d202f868c585934bf2a3514f04", "is_disabled": 0, "rental_uris": {"android": "https://dc.lft.to/lastmile_qr_scan", "ios": "https://dc.lft.to/lastmile_qr_scan"}, "lon": -77.03665383333333, "fusion_lat": 0.0}, {"name": "c77da3d58e0308f8c25547af7ea60b49", "fusion_lon": 0.0, "lat": 38.915678666666665, "is_reserved": 0, "type": "electric_scooter", "bike_id": "c77da3d58e0308f8c25547af7ea60b49", "is_disabled": 0, "rental_uris": {"android": "https://dc.lft.to/lastmile_qr_scan", "ios": "https://dc.lft.to/lastmile_qr_scan"}, "lon": -77.010358, "fusion_lat": 0.0}, {"name": "e380efe8a395f4a7b3ca9f9cc19c8949", "fusion_lon": 0.0, "lat": 38.900261666666665, "is_reserved": 0, "type": "electric_scooter", "bike_id": "e380efe8a395f4a7b3ca9f9cc19c8949", "is_disabled": 0, "rental_uris": {"android": "https://dc.lft.to/lastmile_qr_scan", "ios": "https://dc.lft.to/lastmile_qr_scan"}, "lon": -77.00212833333333, "fusion_lat": 0.0}, {"name": "75671351beada7447f8236983db52506", "fusion_lon": 0.0, "lat": 38.899257666666664, "is_reserved": 0, "type": "electric_scooter", "bike_id": "75671351beada7447f8236983db52506", "is_disabled": 0, "rental_uris": {"android": "https://dc.lft.to/lastmile_qr_scan", "ios": "https://dc.lft.to/lastmile_qr_scan"}, "lon": -77.070623, "fusion_lat": 0.0}, {"name": "8cfe7953a9dbef9f413a3bbaf2c97d7f", "fusion_lon": 0.0, "lat": 38.89837083333333, "is_reserved": 0, "type": "electric_scooter", "bike_id": "8cfe7953a9dbef9f413a3bbaf2c97d7f", "is_disabled": 0, "rental_uris": {"android": "https://dc.lft.to/lastmile_qr_scan", "ios": "https://dc.lft.to/lastmile_qr_scan"}, "lon": -77.02370433333333, "fusion_lat": 0.0}, {"name": "aee719ca0a806847f82be461aada2352", "fusion_lon": 0.0, "lat": 38.89764066666667, "is_reserved": 0, "type": "electric_scooter", "bike_id": "aee719ca0a806847f82be461aada2352", "is_disabled": 0, "rental_uris": {"android": "https://dc.lft.to/lastmile_qr_scan", "ios": "https://dc.lft.to/lastmile_qr_scan"}, "lon": -77.051241, "fusion_lat": 0.0}, {"name": "180b94e96342fd024bac2cf1bcd557c5", "fusion_lon": 0.0, "lat": 38.946273166666664, "is_reserved": 0, "type": "electric_scooter", "bike_id": "180b94e96342fd024bac2cf1bcd557c5", "is_disabled": 0, "rental_uris": {"android": "https://dc.lft.to/lastmile_qr_scan", "ios": "https://dc.lft.to/lastmile_qr_scan"}, "lon": -77.01842, "fusion_lat": 0.0}, {"name": "0029337d2f66f265bfe221b6e61f0cf5", "fusion_lon": 0.0, "lat": 38.9039235, "is_reserved": 0, "type": "electric_scooter", "bike_id": "0029337d2f66f265bfe221b6e61f0cf5", "is_disabled": 0, "rental_uris": {"android": "https://dc.lft.to/lastmile_qr_scan", "ios": "https://dc.lft.to/lastmile_qr_scan"}, "lon": -77.0250315, "fusion_lat": 0.0}, {"name": "4fe697d34612d82fae0838980105f94f", "fusion_lon": 0.0, "lat": 38.9169215, "is_reserved": 0, "type": "electric_scooter", "bike_id": "4fe697d34612d82fae0838980105f94f", "is_disabled": 0, "rental_uris": {"android": "https://dc.lft.to/lastmile_qr_scan", "ios": "https://dc.lft.to/lastmile_qr_scan"}, "lon": -77.031222, "fusion_lat": 0.0}, {"name": "942ef58f1527acf75d2aa2b55ac75e2e", "fusion_lon": 0.0, "lat": 38.90080366666667, "is_reserved": 0, "type": "electric_scooter", "bike_id": "942ef58f1527acf75d2aa2b55ac75e2e", "is_disabled": 0, "rental_uris": {"android": "https://dc.lft.to/lastmile_qr_scan", "ios": "https://dc.lft.to/lastmile_qr_scan"}, "lon": -77.04686666666667, "fusion_lat": 0.0}, {"name": "7a93ebd85dc4d395ad173381596b72ca", "fusion_lon": 0.0, "lat": 38.898708666666664, "is_reserved": 0, "type": "electric_scooter", "bike_id": "7a93ebd85dc4d395ad173381596b72ca", "is_disabled": 0, "rental_uris": {"android": "https://dc.lft.to/lastmile_qr_scan", "ios": "https://dc.lft.to/lastmile_qr_scan"}, "lon": -76.946642, "fusion_lat": 0.0}, {"name": "003b7c7cf229aade87633835c83b7a41", "fusion_lon": 0.0, "lat": 38.91900416666667, "is_reserved": 0, "type": "electric_scooter", "bike_id": "003b7c7cf229aade87633835c83b7a41", "is_disabled": 0, "rental_uris": {"android": "https://dc.lft.to/lastmile_qr_scan", "ios": "https://dc.lft.to/lastmile_qr_scan"}, "lon": -76.98745316666667, "fusion_lat": 0.0}, {"name": "42f7e9f0a21b502f7139ebf09540b941", "fusion_lon": 0.0, "lat": 38.89224016666667, "is_reserved": 0, "type": "electric_scooter", "bike_id": "42f7e9f0a21b502f7139ebf09540b941", "is_disabled": 0, "rental_uris": {"android": "https://dc.lft.to/lastmile_qr_scan", "ios": "https://dc.lft.to/lastmile_qr_scan"}, "lon": -77.02362183333334, "fusion_lat": 0.0}, {"name": "4526a90ddd0026937e755109af8e2814", "fusion_lon": 0.0, "lat": 38.918944, "is_reserved": 0, "type": "electric_scooter", "bike_id": "4526a90ddd0026937e755109af8e2814", "is_disabled": 0, "rental_uris": {"android": "https://dc.lft.to/lastmile_qr_scan", "ios": "https://dc.lft.to/lastmile_qr_scan"}, "lon": -77.02307233333333, "fusion_lat": 0.0}, {"name": "665b69fe4e55a2a87833c197ff3925e3", "fusion_lon": 0.0, "lat": 38.918422166666666, "is_reserved": 0, "type": "electric_scooter", "bike_id": "665b69fe4e55a2a87833c197ff3925e3", "is_disabled": 0, "rental_uris": {"android": "https://dc.lft.to/lastmile_qr_scan", "ios": "https://dc.lft.to/lastmile_qr_scan"}, "lon": -77.03869966666667, "fusion_lat": 0.0}, {"name": "c318d956bbd61463b63af8b22db7da2d", "fusion_lon": 0.0, "lat": 38.91317, "is_reserved": 0, "type": "electric_scooter", "bike_id": "c318d956bbd61463b63af8b22db7da2d", "is_disabled": 0, "rental_uris": {"android": "https://dc.lft.to/lastmile_qr_scan", "ios": "https://dc.lft.to/lastmile_qr_scan"}, "lon": -77.01433166666666, "fusion_lat": 0.0}, {"name": "1896c1c3384be23cbe14f0e1c3cecaea", "fusion_lon": 0.0, "lat": 38.90770166666667, "is_reserved": 0, "type": "electric_scooter", "bike_id": "1896c1c3384be23cbe14f0e1c3cecaea", "is_disabled": 0, "rental_uris": {"android": "https://dc.lft.to/lastmile_qr_scan", "ios": "https://dc.lft.to/lastmile_qr_scan"}, "lon": -76.9782925, "fusion_lat": 0.0}, {"name": "3539247bb69b427a564178d80c335979", "fusion_lon": 0.0, "lat": 38.91913383333333, "is_reserved": 0, "type": "electric_scooter", "bike_id": "3539247bb69b427a564178d80c335979", "is_disabled": 0, "rental_uris": {"android": "https://dc.lft.to/lastmile_qr_scan", "ios": "https://dc.lft.to/lastmile_qr_scan"}, "lon": -77.00214583333333, "fusion_lat": 0.0}, {"name": "8e799cd8fa48da88ffd1643e89152d4a", "fusion_lon": 0.0, "lat": 38.947858333333336, "is_reserved": 0, "type": "electric_scooter", "bike_id": "8e799cd8fa48da88ffd1643e89152d4a", "is_disabled": 0, "rental_uris": {"android": "https://dc.lft.to/lastmile_qr_scan", "ios": "https://dc.lft.to/lastmile_qr_scan"}, "lon": -77.0801645, "fusion_lat": 0.0}, {"name": "e978e08c7d0ec06b59e5a94fb2f75537", "fusion_lon": 0.0, "lat": 38.89958033333333, "is_reserved": 0, "type": "electric_scooter", "bike_id": "e978e08c7d0ec06b59e5a94fb2f75537", "is_disabled": 0, "rental_uris": {"android": "https://dc.lft.to/lastmile_qr_scan", "ios": "https://dc.lft.to/lastmile_qr_scan"}, "lon": -77.016257, "fusion_lat": 0.0}, {"name": "bd1711d3ea7720f9fd29147a973f0268", "fusion_lon": 0.0, "lat": 38.91598533333333, "is_reserved": 0, "type": "electric_scooter", "bike_id": "bd1711d3ea7720f9fd29147a973f0268", "is_disabled": 0, "rental_uris": {"android": "https://dc.lft.to/lastmile_qr_scan", "ios": "https://dc.lft.to/lastmile_qr_scan"}, "lon": -76.98376333333333, "fusion_lat": 0.0}, {"name": "6e7bee5a8bafdc9388ec2290595e45ac", "fusion_lon": 0.0, "lat": 38.869978833333334, "is_reserved": 0, "type": "electric_scooter", "bike_id": "6e7bee5a8bafdc9388ec2290595e45ac", "is_disabled": 0, "rental_uris": {"android": "https://dc.lft.to/lastmile_qr_scan", "ios": "https://dc.lft.to/lastmile_qr_scan"}, "lon": -76.97589483333333, "fusion_lat": 0.0}, {"name": "070e673af71140cfb54de67b25b94a4e", "fusion_lon": 0.0, "lat": 38.86657783333333, "is_reserved": 0, "type": "electric_scooter", "bike_id": "070e673af71140cfb54de67b25b94a4e", "is_disabled": 0, "rental_uris": {"android": "https://dc.lft.to/lastmile_qr_scan", "ios": "https://dc.lft.to/lastmile_qr_scan"}, "lon": -76.98887616666667, "fusion_lat": 0.0}, {"name": "ac67c627c3e7cd7a14a2384d94f45bb4", "fusion_lon": 0.0, "lat": 38.92964533333333, "is_reserved": 0, "type": "electric_scooter", "bike_id": "ac67c627c3e7cd7a14a2384d94f45bb4", "is_disabled": 0, "rental_uris": {"android": "https://dc.lft.to/lastmile_qr_scan", "ios": "https://dc.lft.to/lastmile_qr_scan"}, "lon": -77.02744866666667, "fusion_lat": 0.0}, {"name": "89848b746be8dc0770197d835a606db6", "fusion_lon": 0.0, "lat": 38.936053, "is_reserved": 0, "type": "electric_scooter", "bike_id": "89848b746be8dc0770197d835a606db6", "is_disabled": 0, "rental_uris": {"android": "https://dc.lft.to/lastmile_qr_scan", "ios": "https://dc.lft.to/lastmile_qr_scan"}, "lon": -77.03546183333333, "fusion_lat": 0.0}, {"name": "4e79280bea9b2ff86d1f1db0e8d218d2", "fusion_lon": 0.0, "lat": 39.05280316666666, "is_reserved": 0, "type": "electric_bike", "bike_id": "4e79280bea9b2ff86d1f1db0e8d218d2", "is_disabled": 0, "rental_uris": {"android": "https://dc.lft.to/lastmile_qr_scan", "ios": "https://dc.lft.to/lastmile_qr_scan"}, "lon": -77.08065033333334, "fusion_lat": 0.0}, {"name": "49dd4f30a81ae552f506852fca2d41ba", "fusion_lon": 0.0, "lat": 38.887280833333335, "is_reserved": 0, "type": "electric_scooter", "bike_id": "49dd4f30a81ae552f506852fca2d41ba", "is_disabled": 0, "rental_uris": {"android": "https://dc.lft.to/lastmile_qr_scan", "ios": "https://dc.lft.to/lastmile_qr_scan"}, "lon": -77.02821866666666, "fusion_lat": 0.0}, {"name": "d3792ef13da9f37ab2737824ccc448f3", "fusion_lon": 0.0, "lat": 38.92430733333333, "is_reserved": 0, "type": "electric_scooter", "bike_id": "d3792ef13da9f37ab2737824ccc448f3", "is_disabled": 0, "rental_uris": {"android": "https://dc.lft.to/lastmile_qr_scan", "ios": "https://dc.lft.to/lastmile_qr_scan"}, "lon": -77.04247033333333, "fusion_lat": 0.0}, {"name": "4571c8fcf5ce0eac48947f998ca71326", "fusion_lon": 0.0, "lat": 38.87102866666667, "is_reserved": 0, "type": "electric_scooter", "bike_id": "4571c8fcf5ce0eac48947f998ca71326", "is_disabled": 0, "rental_uris": {"android": "https://dc.lft.to/lastmile_qr_scan", "ios": "https://dc.lft.to/lastmile_qr_scan"}, "lon": -76.96569066666666, "fusion_lat": 0.0}, {"name": "0a741ff995c2729bcbd9e67f8dfb9f43", "fusion_lon": 0.0, "lat": 38.8669475, "is_reserved": 0, "type": "electric_scooter", "bike_id": "0a741ff995c2729bcbd9e67f8dfb9f43", "is_disabled": 0, "rental_uris": {"android": "https://dc.lft.to/lastmile_qr_scan", "ios": "https://dc.lft.to/lastmile_qr_scan"}, "lon": -76.98713216666667, "fusion_lat": 0.0}, {"name": "7ca60a61d4aa2385779279ac7e154b58", "fusion_lon": 0.0, "lat": 38.914647, "is_reserved": 0, "type": "electric_scooter", "bike_id": "7ca60a61d4aa2385779279ac7e154b58", "is_disabled": 0, "rental_uris": {"android": "https://dc.lft.to/lastmile_qr_scan", "ios": "https://dc.lft.to/lastmile_qr_scan"}, "lon": -76.9840855, "fusion_lat": 0.0}, {"name": "d657558ba4956a77376cde9c6200101c", "fusion_lon": 0.0, "lat": 38.91111, "is_reserved": 0, "type": "electric_scooter", "bike_id": "d657558ba4956a77376cde9c6200101c", "is_disabled": 0, "rental_uris": {"android": "https://dc.lft.to/lastmile_qr_scan", "ios": "https://dc.lft.to/lastmile_qr_scan"}, "lon": -77.00375666666666, "fusion_lat": 0.0}, {"name": "5ec8a1c2e2bc061fa6daa39e4da5bd3d", "fusion_lon": 0.0, "lat": 38.918225, "is_reserved": 0, "type": "electric_scooter", "bike_id": "5ec8a1c2e2bc061fa6daa39e4da5bd3d", "is_disabled": 0, "rental_uris": {"android": "https://dc.lft.to/lastmile_qr_scan", "ios": "https://dc.lft.to/lastmile_qr_scan"}, "lon": -77.03167016666667, "fusion_lat": 0.0}, {"name": "dd22ae758b593c29b385b95d6c80457a", "fusion_lon": 0.0, "lat": 38.919843166666666, "is_reserved": 0, "type": "electric_scooter", "bike_id": "dd22ae758b593c29b385b95d6c80457a", "is_disabled": 0, "rental_uris": {"android": "https://dc.lft.to/lastmile_qr_scan", "ios": "https://dc.lft.to/lastmile_qr_scan"}, "lon": -77.038073, "fusion_lat": 0.0}, {"name": "8eaca89295cb7ee9c004c6063282d365", "fusion_lon": 0.0, "lat": 38.8888445, "is_reserved": 0, "type": "electric_scooter", "bike_id": "8eaca89295cb7ee9c004c6063282d365", "is_disabled": 0, "rental_uris": {"android": "https://dc.lft.to/lastmile_qr_scan", "ios": "https://dc.lft.to/lastmile_qr_scan"}, "lon": -76.94776916666666, "fusion_lat": 0.0}, {"name": "c0ab644f734652d39380dd868cd59884", "fusion_lon": 0.0, "lat": 38.900866666666666, "is_reserved": 0, "type": "electric_scooter", "bike_id": "c0ab644f734652d39380dd868cd59884", "is_disabled": 0, "rental_uris": {"android": "https://dc.lft.to/lastmile_qr_scan", "ios": "https://dc.lft.to/lastmile_qr_scan"}, "lon": -76.9833125, "fusion_lat": 0.0}, {"name": "f36fcb8e6fca24662e028064b14a4ad8", "fusion_lon": 0.0, "lat": 38.910278, "is_reserved": 0, "type": "electric_scooter", "bike_id": "f36fcb8e6fca24662e028064b14a4ad8", "is_disabled": 0, "rental_uris": {"android": "https://dc.lft.to/lastmile_qr_scan", "ios": "https://dc.lft.to/lastmile_qr_scan"}, "lon": -77.00758766666667, "fusion_lat": 0.0}, {"name": "47466cb9c4cc37bf01f4ce0821c10b81", "fusion_lon": 0.0, "lat": 38.79607933333333, "is_reserved": 0, "type": "electric_bike", "bike_id": "47466cb9c4cc37bf01f4ce0821c10b81", "is_disabled": 0, "rental_uris": {"android": "https://dc.lft.to/lastmile_qr_scan", "ios": "https://dc.lft.to/lastmile_qr_scan"}, "lon": -76.99739233333334, "fusion_lat": 0.0}, {"name": "2bc4a18bc42886aa699cf1198a68c924", "fusion_lon": 0.0, "lat": 38.9054975, "is_reserved": 0, "type": "electric_scooter", "bike_id": "2bc4a18bc42886aa699cf1198a68c924", "is_disabled": 0, "rental_uris": {"android": "https://dc.lft.to/lastmile_qr_scan", "ios": "https://dc.lft.to/lastmile_qr_scan"}, "lon": -77.00572433333333, "fusion_lat": 0.0}, {"name": "61485646fccf44b0f4dcc12edbcc0f28", "fusion_lon": 0.0, "lat": 38.9426715, "is_reserved": 0, "type": "electric_bike", "bike_id": "61485646fccf44b0f4dcc12edbcc0f28", "is_disabled": 0, "rental_uris": {"android": "https://dc.lft.to/lastmile_qr_scan", "ios": "https://dc.lft.to/lastmile_qr_scan"}, "lon": -77.02839183333333, "fusion_lat": 0.0},