{"data": {"bikes": [{"name": "7025a5d220ae0b5ff21509a36f408606", "fusion_lon": 0.0, "lat": 38.93278183333334, "is_reserved": 0, "type": "electric_scooter", "bike_id": "7025a5d220ae0b5ff21509a36f408606", "is_disabled": 0, "rental_uris": {"android": "https://dc.lft.to/lastmile_qr_scan", "ios": "https://dc.lft.to/lastmile_qr_scan"}, "lon": -77.045324, "fusion_lat": 0.0}, {"name": "e4ef5e53460cc8bb494d1492694ec2f8", "fusion_lon": 0.0, "lat": 38.9063015, "is_reserved": 0, "type": "electric_scooter", "bike_id": "e4ef5e53460cc8bb494d1492694ec2f8", "is_disabled": 0, "rental_uris": {"android": "https://dc.lft.to/lastmile_qr_scan", "ios": "https://dc.lft.to/lastmile_qr_scan"}, "lon": -77.00170516666667, "fusion_lat": 0.0}, {"name": "c910104bd80fb0dec16f1301ea419409", "fusion_lon": 0.0, "lat": 38.91107183333333, "is_reserved": 0, "type": "electric_scooter", "bike_id": "c910104bd80fb0dec16f1301ea419409", "is_disabled": 0, "rental_uris": {"android": "https://dc.lft.to/lastmile_qr_scan", "ios": "https://dc.lft.to/lastmile_qr_scan"}, "lon": -77.04828916666666, "fusion_lat": 0.0}, {"name": "d943251185b4b56a281dd3484780b8c2", "fusion_lon": 0.0, "lat": 38.865043, "is_reserved": 0, "type": "electric_scooter", "bike_id": "d943251185b4b56a281dd3484780b8c2", "is_disabled": 0, "rental_uris": {"android": "https://dc.lft.to/lastmile_qr_scan", "ios": "https://dc.lft.to/lastmile_qr_scan"}, "lon": -76.99001316666667, "fusion_lat": 0.0}, {"name": "511d05d4a1edec80d2c00cb30a28e87c", "fusion_lon": 0.0, "lat": 38.938659333333334, "is_reserved": 0, "type": "electric_scooter", "bike_id": "511d05d4a1edec80d2c00cb30a28e87c", "is_disabled": 0, "rental_uris": {"android": "https://dc.lft.to/lastmile_qr_scan", "ios": "https://dc.lft.to/lastmile_qr_scan"}, "lon": -77.03080116666666, "fusion_lat": 0.0}, {"name": "e90160d36d21e5ff1256d6aa9ec591b8", "fusion_lon": 0.0, "lat": 38.863915166666665, "is_reserved": 0, "type": "electric_scooter", "bike_id": "e90160d36d21e5ff1256d6aa9ec591b8", "is_disabled": 0, "rental_uris": {"android": "https://dc.lft.to/lastmile_qr_scan", "ios": "https://dc.lft.to/lastmile_qr_scan"}, "lon": -76.99044483333333, "fusion_lat": 0.0}, {"name": "d008c274465e1a86a637bb855db8d509", "fusion_lon": 0.0, "lat": 38.903949833333336, "is_reserved": 0, "type": "electric_scooter", "bike_id": "d008c274465e1a86a637bb855db8d509", "is_disabled": 0, "rental_uris": {"android": "https://dc.lft.to/lastmile_qr_scan", "ios": "https://dc.lft.to/lastmile_qr_scan"}, "lon": -77.0677705, "fusion_lat": 0.0}, {"name": "9f989c33aebc39dc9ee653b7741ba65b", "fusion_lon": 0.0, "lat": 38.90244783333333, "is_reserved": 0, "type": "electric_scooter", "bike_id": "9f989c33aebc39dc9ee653b7741ba65b", "is_disabled": 0, "rental_uris": {"android": "https://dc.lft.to/lastmile_qr_scan", "ios": "https://dc.lft.to/lastmile_qr_scan"}, "lon": -77.00196066666666, "fusion_lat": 0.0}, {"name": "dec102862faaa29f6f36e5e92ae8fedc", "fusion_lon": 0.0, "lat": 38.913604, "is_reserved": 0, "type": "electric_scooter", "bike_id": "dec102862faaa29f6f36e5e92ae8fedc", "is_disabled": 0, "rental_uris": {"android": "https://dc.lft.to/lastmile_qr_scan", "ios": "https://dc.lft.to/lastmile_qr_scan"}, "lon": -77.06933433333333, "fusion_lat": 0.0}, {"name": "2b7696e07747e9efaa08fb7df2f21476", "fusion_lon": 0.0, "lat": 38.916573, "is_reserved": 0, "type": "electric_scooter", "bike_id": "2b7696e07747e9efaa08fb7df2f21476", "is_disabled": 0, "rental_uris": {"android": "https://dc.lft.to/lastmile_qr_scan", "ios": "https://dc.lft.to/lastmile_qr_scan"}, "lon": -77.02007483333334, "fusion_lat": 0.0}, {"name": "e7c8a2f8658769a04556950e3b64c0a5", "fusion_lon": 0.0, "lat": 38.91710716666667, "is_reserved": 0, "type": "electric_scooter", "bike_id": "e7c8a2f8658769a04556950e3b64c0a5", "is_disabled": 0, "rental_uris": {"android": "https://dc.lft.to/lastmile_qr_scan", "ios": "https://dc.lft.to/lastmile_qr_scan"}, "lon": -77.02202166666666, "fusion_lat": 0.0}, {"name": "25ad1ef3064b85d2fa4e2bc73e70616a", "fusion_lon": 0.0, "lat": 38.9310435, "is_reserved": 0, "type": "electric_scooter", "bike_id": "25ad1ef3064b85d2fa4e2bc73e70616a", "is_disabled": 0, "rental_uris": {"android": "https://dc.lft.to/lastmile_qr_scan", "ios": "https://dc.lft.to/lastmile_qr_scan"}, "lon": -77.0302795, "fusion_lat": 0.0}, {"name": "9bb4ae83f76ff9025da9cdbb52fd7a03", "fusion_lon": 0.0, "lat": 38.9283185, "is_reserved": 0, "type": "electric_scooter", "bike_id": "9bb4ae83f76ff9025da9cdbb52fd7a03", "is_disabled": 0, "rental_uris": {"android": "https://dc.lft.to/lastmile_qr_scan", "ios": "https://dc.lft.to/lastmile_qr_scan"}, "lon": -77.037308, "fusion_lat": 0.0}, {"name": "d1a1d52b93441060e44bb2ba4afcac7d", "fusion_lon": 0.0, "lat": 38.90054683333334, "is_reserved": 0, "type": "electric_scooter", "bike_id": "d1a1d52b93441060e44bb2ba4afcac7d", "is_disabled": 0, "rental_uris": {"android": "https://dc.lft.to/lastmile_qr_scan", "ios": "https://dc.lft.to/lastmile_qr_scan"}, "lon": -76.98827783333333, "fusion_lat": 0.0}, {"name": "df2b24382aedba8364678779295024f4", "fusion_lon": 0.0, "lat": 38.92377916666667, "is_reserved": 0, "type": "electric_scooter", "bike_id": "df2b24382aedba8364678779295024f4", "is_disabled": 0, "rental_uris": {"android": "https://dc.lft.to/lastmile_qr_scan", "ios": "https://dc.lft.to/lastmile_qr_scan"}, "lon": -77.03087716666667, "fusion_lat": 0.0}, {"name": "49ca5332f4810b39e5fa46125b7b7e2f", "fusion_lon": 0.0, "lat": 38.91172366666667, "is_reserved": 0, "type": "electric_scooter", "bike_id": "49ca5332f4810b39e5fa46125b7b7e2f", "is_disabled": 0, "rental_uris": {"android": "https://dc.lft.to/lastmile_qr_scan", "ios": "https://dc.lft.to/lastmile_qr_scan"}, "lon": -77.00453916666666, "fusion_lat": 0.0}, {"name": "a6e9b3f884ee1ebbefec6e5018ce001e", "fusion_lon": 0.0, "lat": 38.8992765, "is_reserved": 0, "type": "electric_scooter", "bike_id": "a6e9b3f884ee1ebbefec6e5018ce001e", "is_disabled": 0, "rental_uris": {"android": "https://dc.lft.to/lastmile_qr_scan", "ios": "https://dc.lft.to/lastmile_qr_scan"}, "lon": -77.07057783333333, "fusion_lat": 0.0}, {"name": "fd791c312b5a64e07dc7c19b2a3cce7a", "fusion_lon": 0.0, "lat": 38.898407, "is_reserved": 0, "type": "electric_scooter", "bike_id": "fd791c312b5a64e07dc7c19b2a3cce7a", "is_disabled": 0, "rental_uris": {"android": "https://dc.lft.to/lastmile_qr_scan", "ios": "https://dc.lft.to/lastmile_qr_scan"}, "lon": -77.02383416666666, "fusion_lat": 0.0}, {"name": "8bca6b409c8848a32516c87468776cf0", "fusion_lon": 0.0, "lat": 38.89959416666667, "is_reserved": 0, "type": "electric_bike", "bike_id": "8bca6b409c8848a32516c87468776cf0", "is_disabled": 0, "rental_uris": {"android": "https://dc.lft.to/lastmile_qr_scan", "ios": "https://dc.lft.to/lastmile_qr_scan"}, "lon": -76.98567433333334, "fusion_lat": 0.0}, {"name": "402c63bcafaa670552bcef1d3f1b4a7e", "fusion_lon": 0.0, "lat": 38.90385666666667, "is_reserved": 0, "type": "electric_scooter", "bike_id": "402c63bcafaa670552bcef1d3f1b4a7e", "is_disabled": 0, "rental_uris": {"android": "https://dc.lft.to/lastmile_qr_scan", "ios": "https://dc.lft.to/lastmile_qr_scan"}, "lon": -77.04502366666667, "fusion_lat": 0.0}, {"name": "2913f90b75897302b7a2b27325c89023", "fusion_lon": 0.0, "lat": 38.915624333333334, "is_reserved": 0, "type": "electric_scooter", "bike_id": "2913f90b75897302b7a2b27325c89023", "is_disabled": 0, "rental_uris": {"android": "https://dc.lft.to/lastmile_qr_scan", "ios": "https://dc.lft.to/lastmile_qr_scan"}, "lon": -77.0103935, "fusion_lat": 0.0}, {"name": "907bde1e89e69799af0f805c22a2777f", "fusion_lon": 0.0, "lat": 38.866336833333335, "is_reserved": 0, "type": "electric_scooter", "bike_id": "907bde1e89e69799af0f805c22a2777f", "is_disabled": 0, "rental_uris": {"android": "https://dc.lft.to/lastmile_qr_scan", "ios": "https://dc.lft.to/lastmile_qr_scan"}, "lon": -76.98906933333333, "fusion_lat": 0.0}, {"name": "682649f8262615f04f6dcee06ee64534", "fusion_lon": 0.0, "lat": 38.9224585, "is_reserved": 0, "type": "electric_scooter", "bike_id": "682649f8262615f04f6dcee06ee64534", "is_disabled": 0, "rental_uris": {"android": "https://dc.lft.to/lastmile_qr_scan", "ios": "https://dc.lft.to/lastmile_qr_scan"}, "lon": -77.03032716666667, "fusion_lat": 0.0}, {"name": "0466194634f842fc4b6cb316d8bab456", "fusion_lon": 0.0, "lat": 38.92729716666667, "is_reserved": 0, "type": "electric_scooter", "bike_id": "0466194634f842fc4b6cb316d8bab456", "is_disabled": 0, "rental_uris": {"android": "https://dc.lft.to/lastmile_qr_scan", "ios": "https://dc.lft.to/lastmile_qr_scan"}, "lon": -77.01498383333333, "fusion_lat": 0.0}, {"name": "8aa529a26f08bf50f753329bbb0189ff", "fusion_lon": 0.0, "lat": 38.91553966666667, "is_reserved": 0, "type": "electric_scooter", "bike_id": "8aa529a26f08bf50f753329bbb0189ff", "is_disabled": 0, "rental_uris": {"android": "https://dc.lft.to/lastmile_qr_scan", "ios": "https://dc.lft.to/lastmile_qr_scan"}, "lon": -77.041755, "fusion_lat": 0.0}, {"name": "47e709c352ed6cb1d93d1cb4663a005d", "fusion_lon": 0.0, "lat": 38.920083, "is_reserved": 0, "type": "electric_scooter", "bike_id": "47e709c352ed6cb1d93d1cb4663a005d", "is_disabled": 0, "rental_uris": {"android": "https://dc.lft.to/lastmile_qr_scan", "ios": "https://dc.lft.to/lastmile_qr_scan"}, "lon": -77.0322425, "fusion_lat": 0.0}, {"name": "bda28c8f2df9adfb8f1dea9694884c1d", "fusion_lon": 0.0, "lat": 38.8970995, "is_reserved": 0, "type": "electric_scooter", "bike_id": "bda28c8f2df9adfb8f1dea9694884c1d", "is_disabled": 0, "rental_uris": {"android": "https://dc.lft.to/lastmile_qr_scan", "ios": "https://dc.lft.to/lastmile_qr_scan"}, "lon": -76.93001616666666, "fusion_lat": 0.0}, {"name": "d8f98a287880df4144e39820e8768a7c", "fusion_lon": 0.0, "lat": 38.916463666666665, "is_reserved": 0, "type": "electric_scooter", "bike_id": "d8f98a287880df4144e39820e8768a7c", "is_disabled": 0, "rental_uris": {"android": "https://dc.lft.to/lastmile_qr_scan", "ios": "https://dc.lft.to/lastmile_qr_scan"}, "lon": -77.02397216666667, "fusion_lat": 0.0}, {"name": "c73117707fea38786afb3d0dbdbdb9e5", "fusion_lon": 0.0, "lat": 38.94996183333333, "is_reserved": 0, "type": "electric_scooter", "bike_id": "c73117707fea38786afb3d0dbdbdb9e5", "is_disabled": 0, "rental_uris": {"android": "https://dc.lft.to/lastmile_qr_scan", "ios": "https://dc.lft.to/lastmile_qr_scan"}, "lon": -77.03330366666667, "fusion_lat": 0.0}, {"name": "0538e741ba6144b5b8e442a00e8996f1", "fusion_lon": 0.0, "lat": 38.9237985, "is_reserved": 0, "type": "electric_scooter", "bike_id": "0538e741ba6144b5b8e442a00e8996f1", "is_disabled": 0, "rental_uris": {"android": "https://dc.lft.to/lastmile_qr_scan", "ios": "https://dc.lft.to/lastmile_qr_scan"}, "lon": -77.020579, "fusion_lat": 0.0}, {"name": "de10e2a0a89d20d4a4d3415878b69cc9", "fusion_lon": 0.0, "lat": 38.9018385, "is_reserved": 0, "type": "electric_scooter", "bike_id": "de10e2a0a89d20d4a4d3415878b69cc9", "is_disabled": 0, "rental_uris": {"android": "https://dc.lft.to/lastmile_qr_scan", "ios": "https://dc.lft.to/lastmile_qr_scan"}, "lon": -76.98815533333334, "fusion_lat": 0.0}, {"name": "86a66bd0ada54070bfb1845116c00969", "fusion_lon": 0.0, "lat": 38.866422666666665, "is_reserved": 0, "type": "electric_scooter", "bike_id": "86a66bd0ada54070bfb1845116c00969", "is_disabled": 0, "rental_uris": {"android": "https://dc.lft.to/lastmile_qr_scan", "ios": "https://dc.lft.to/lastmile_qr_scan"}, "lon": -76.982636, "fusion_lat": 0.0}, {"name": "315dd1c64a3e840d37978cbfdf4d90ab", "fusion_lon": 0.0, "lat": 38.92864983333333, "is_reserved": 0, "type": "electric_scooter", "bike_id": "315dd1c64a3e840d37978cbfdf4d90ab", "is_disabled": 0, "rental_uris": {"android": "https://dc.lft.to/lastmile_qr_scan", "ios": "https://dc.lft.to/lastmile_qr_scan"}, "lon": -77.0329225, "fusion_lat": 0.0}, {"name": "361befec6bccae73d3f30e78c0ceca92", "fusion_lon": 0.0, "lat": 38.90410966666666, "is_reserved": 0, "type": "electric_scooter", "bike_id": "361befec6bccae73d3f30e78c0ceca92", "is_disabled": 0, "rental_uris": {"android": "https://dc.lft.to/lastmile_qr_scan", "ios": "https://dc.lft.to/lastmile_qr_scan"}, "lon": -77.04349966666666, "fusion_lat": 0.0}, {"name": "9d9ce46857b555c56e500d8e43edfe7a", "fusion_lon": 0.0, "lat": 38.90589716666667, "is_reserved": 0, "type": "electric_scooter", "bike_id": "9d9ce46857b555c56e500d8e43edfe7a", "is_disabled": 0, "rental_uris": {"android": "https://dc.lft.to/lastmile_qr_scan", "ios": "https://dc.lft.to/lastmile_qr_scan"}, "lon": -77.04099366666667, "fusion_lat": 0.0}, {"name": "19f7000a11b5188d7f156e1ca22459d3", "fusion_lon": 0.0, "lat": 38.916572333333335, "is_reserved": 0, "type": "electric_scooter", "bike_id": "19f7000a11b5188d7f156e1ca22459d3", "is_disabled": 0, "rental_uris": {"android": "https://dc.lft.to/lastmile_qr_scan", "ios": "https://dc.lft.to/lastmile_qr_scan"}, "lon": -77.02283583333333, "fusion_lat": 0.0}, {"name": "86bbb4609ad74fc6b47c19fe2d3afd93", "fusion_lon": 0.0, "lat": 38.934383, "is_reserved": 0, "type": "electric_scooter", "bike_id": "86bbb4609ad74fc6b47c19fe2d3afd93", "is_disabled": 0, "rental_uris": {"android": "https://dc.lft.to/lastmile_qr_scan", "ios": "https://dc.lft.to/lastmile_qr_scan"}, "lon": -77.04541383333333, "fusion_lat": 0.0}, {"name": "4f77dfd41101e449d103a13c97fb99bb", "fusion_lon": 0.0, "lat": 38.94203683333333, "is_reserved": 0, "type": "electric_scooter", "bike_id": "4f77dfd41101e449d103a13c97fb99bb", "is_disabled": 0, "rental_uris": {"android": "https://dc.lft.to/lastmile_qr_scan", "ios": "https://dc.lft.to/lastmile_qr_scan"}, "lon": -77.02511316666667, "fusion_lat": 0.0}, {"name": "ce4287d27fe43333f4db35e91b26c984", "fusion_lon": 0.0, "lat": 38.903147833333335, "is_reserved": 0, "type": "electric_scooter", "bike_id": "ce4287d27fe43333f4db35e91b26c984", "is_disabled": 0, "rental_uris": {"android": "https://dc.lft.to/lastmile_qr_scan", "ios": "https://dc.lft.to/lastmile_qr_scan"}, "lon": -77.022238, "fusion_lat": 0.0}, {"name": "428f3b96cce41244033464112c07b448", "fusion_lon": 0.0, "lat": 38.9039475, "is_reserved": 0, "type": "electric_scooter", "bike_id": "428f3b96cce41244033464112c07b448", "is_disabled": 0, "rental_uris": {"android": "https://dc.lft.to/lastmile_qr_scan", "ios": "https://dc.lft.to/lastmile_qr_scan"}, "lon": -77.03823416666667, "fusion_lat": 0.0}, {"name": "6c2ba61ca9507e7ad0d3f89141461403", "fusion_lon": 0.0, "lat": 38.92029433333333, "is_reserved": 0, "type": "electric_scooter", "bike_id": "6c2ba61ca9507e7ad0d3f89141461403", "is_disabled": 0, "rental_uris": {"android": "https://dc.lft.to/lastmile_qr_scan", "ios": "https://dc.lft.to/lastmile_qr_scan"}, "lon": -77.011355, "fusion_lat": 0.0}, {"name": "cf3fd0a19093086c3979faf640910038", "fusion_lon": 0.0, "lat": 38.927235333333336, "is_reserved": 0, "type": "electric_scooter", "bike_id": "cf3fd0a19093086c3979faf640910038", "is_disabled": 0, "rental_uris": {"android": "https://dc.lft.to/lastmile_qr_scan", "ios": "https://dc.lft.to/lastmile_qr_scan"}, "lon": -77.039857, "fusion_lat": 0.0}, {"name": "cb7d02cb1a3cc4f9f3800274133c34de", "fusion_lon": 0.0, "lat": 38.89981816666667, "is_reserved": 0, "type": "electric_scooter", "bike_id": "cb7d02cb1a3cc4f9f3800274133c34de", "is_disabled": 0, "rental_uris": {"android": "https://dc.lft.to/lastmile_qr_scan", "ios": "https://dc.lft.to/lastmile_qr_scan"}, "lon": -77.00626416666667, "fusion_lat": 0.0}, {"name": "080a067bb6675cf4927746b31a8decf1", "fusion_lon": 0.0, "lat": 38.90576633333333, "is_reserved": 0, "type": "electric_scooter", "bike_id": "080a067bb6675cf4927746b31a8decf1", "is_disabled": 0, "rental_uris": {"android": "https://dc.lft.to/lastmile_qr_scan", "ios": "https://dc.lft.to/lastmile_qr_scan"}, "lon": -77.00713383333333, "fusion_lat": 0.0}, {"name": "716bacdcaaaca8e5ee8c0c59a21a8baf", "fusion_lon": 0.0, "lat": 38.92933583333333, "is_reserved": 0, "type": "electric_bike", "bike_id": "716bacdcaaaca8e5ee8c0c59a21a8baf", "is_disabled": 0, "rental_uris": {"android": "https://dc.lft.to/lastmile_qr_scan", "ios": "https://dc.lft.to/lastmile_qr_scan"}, "lon": -77.02777, "fusion_lat": 0.0}, {"name": "5adf625d05e900b70ad574fd0e7dce7f", "fusion_lon": 0.0, "lat": 38.9009215, "is_reserved": 0, "type": "electric_scooter", "bike_id": "5adf625d05e900b70ad574fd0e7dce7f", "is_disabled": 0, "rental_uris": {"android": "https://dc.lft.to/lastmile_qr_scan", "ios": "https://dc.lft.to/lastmile_qr_scan"}, "lon": -77.0475645, "fusion_lat": 0.0}, {"name": "05ad445d610b3708f15813acbd1bd05d", "fusion_lon": 0.0, "lat": 38.92878566666667, "is_reserved": 0, "type": "electric_scooter", "bike_id": "05ad445d610b3708f15813acbd1bd05d", "is_disabled": 0, "rental_uris": {"android": "https://dc.lft.to/lastmile_qr_scan", "ios": "https://dc.lft.to/lastmile_qr_scan"}, "lon": -77.03496816666667, "fusion_lat": 0.0}, {"name": "0825bbc534f5b090e86ea786ffcc693e", "fusion_lon": 0.0, "lat": 38.9063755, "is_reserved": 0, "type": "electric_scooter", "bike_id": "0825bbc534f5b090e86ea786ffcc693e", "is_disabled": 0, "rental_uris": {"android": "https://dc.lft.to/lastmile_qr_scan", "ios": "https://dc.lft.to/lastmile_qr_scan"}, "lon": -77.06904866666666, "fusion_lat": 0.0}, {"name": "dc5d7eecb4fd175ce027ed1825812dc0", "fusion_lon": 0.0, "lat": 38.872786166666664, "is_reserved": 0, "type": "electric_bike", "bike_id": "dc5d7eecb4fd175ce027ed1825812dc0", "is_disabled": 0, "rental_uris": {"android": "https://dc.lft.to/lastmile_qr_scan", "ios": "https://dc.lft.to/lastmile_qr_scan"}, "lon": -77.2332565, "fusion_lat": 0.0}, {"name": "0ad91a1cc5f33eb29997fb92cc1d6159", "fusion_lon": 0.0, "lat": 38.964644166666666, "is_reserved": 0, "type": "electric_bike", "bike_id": "0ad91a1cc5f33eb29997fb92cc1d6159", "is_disabled": 0, "rental_uris": {"android": "https://dc.lft.to/lastmile_qr_scan", "ios": "https://dc.lft.to/lastmile_qr_scan"}, "lon": -77.0357425, "fusion_lat": 0.0}, {"name": "576ad366d3ddcc772723f0439eb83b16", "fusion_lon": 0.0, "lat": 38.91379166666667, "is_reserved": 0, "type": "electric_scooter", "bike_id": "576ad366d3ddcc772723f0439eb83b16", "is_disabled": 0, "rental_uris": {"android": "https://dc.lft.to/lastmile_qr_scan", "ios": "https://dc.lft.to/lastmile_qr_scan"}, "lon": -77.04124916666666, "fusion_lat": 0.0}, {"name": "4897306f31ce50e744bf1697f10de4a5", "fusion_lon": 0.0, "lat": 38.908238, "is_reserved": 0, "type": "electric_scooter", "bike_id": "4897306f31ce50e744bf1697f10de4a5", "is_disabled": 0, "rental_uris": {"android": "https://dc.lft.to/lastmile_qr_scan", "ios": "https://dc.lft.to/lastmile_qr_scan"}, "lon": -76.94153583333333, "fusion_lat": 0.0}, {"name": "5f4dc5ce8d21923a7856c224973a01fc", "fusion_lon": 0.0, "lat": 38.90163416666667, "is_reserved": 0, "type": "electric_scooter", "bike_id": "5f4dc5ce8d21923a7856c224973a01fc", "is_disabled": 0, "rental_uris": {"android": "https://dc.lft.to/lastmile_qr_scan", "ios": "https://dc.lft.to/lastmile_qr_scan"}, "lon": -77.060067, "fusion_lat": 0.0}, {"name": "a86f211aef48fa58d2d549e91311cb55", "fusion_lon": 0.0, "lat": 38.888715833333336, "is_reserved": 0, "type": "electric_bike", "bike_id": "a86f211aef48fa58d2d549e91311cb55", "is_disabled": 0, "rental_uris": {"android": "https://dc.lft.to/lastmile_qr_scan", "ios": "https://dc.lft.to/lastmile_qr_scan"}, "lon": -76.97843966666667, "fusion_lat": 0.0}, {"name": "f87c5871ca2f6956af0e681fb694c807", "fusion_lon": 0.0, "lat": 38.95661416666667, "is_reserved": 0, "type": "electric_scooter", "bike_id": "f87c5871ca2f6956af0e681fb694c807", "is_disabled": 0, "rental_uris": {"android": "https://dc.lft.to/lastmile_qr_scan", "ios": "https://dc.lft.to/lastmile_qr_scan"}, "lon": -77.01033633333333, "fusion_lat": 0.0}, {"name": "8cdbc99a75c43d37b5433bc2088fd2c5", "fusion_lon": 0.0, "lat": 38.935336666666664, "is_reserved": 0, "type": "electric_scooter", "bike_id": "8cdbc99a75c43d37b5433bc2088fd2c5", "is_disabled": 0, "rental_uris": {"android": "https://dc.lft.to/lastmile_qr_scan", "ios": "https://dc.lft.to/lastmile_qr_scan"}, "lon": -77.034743, "fusion_lat": 0.0}, {"name": "c72fbf8b6dd88d91bc7a99fb302a8824", "fusion_lon": 0.0, "lat": 38.90754483333333, "is_reserved": 0, "type": "electric_scooter", "bike_id": "c72fbf8b6dd88d91bc7a99fb302a8824", "is_disabled": 0, "rental_uris": {"android": "https://dc.lft.to/lastmile_qr_scan", "ios": "https://dc.lft.to/lastmile_qr_scan"}, "lon": -76.99875133333333, "fusion_lat": 0.0}, {"name": "d84aa2cbac09d3dff24f61309f0cb06c", "fusion_lon": 0.0, "lat": 38.913860666666665, "is_reserved": 0, "type": "electric_bike", "bike_id": "d84aa2cbac09d3dff24f61309f0cb06c", "is_disabled": 0, "rental_uris": {"android": "https://dc.lft.to/lastmile_qr_scan", "ios": "https://dc.lft.to/lastmile_qr_scan"}, "lon": -77.08922133333333, "fusion_lat": 0.0}, {"name": "b92786778e336379c98e7e231eca0850", "fusion_lon": 0.0, "lat": 38.9083695, "is_reserved": 0, "type": "electric_scooter", "bike_id": "b92786778e336379c98e7e231eca0850", "is_disabled": 0, "rental_uris": {"android": "https://dc.lft.to/lastmile_qr_scan", "ios": "https://dc.lft.to/lastmile_qr_scan"}, "lon": -77.0444595, "fusion_lat": 0.0}, {"name": "5dcbb6d703743841f7c90cf98df64eef", "fusion_lon": 0.0, "lat": 38.91496033333333, "is_reserved": 0, "type": "electric_scooter", "bike_id": "5dcbb6d703743841f7c90cf98df64eef", "is_disabled": 0, "rental_uris": {"android": "https://dc.lft.to/lastmile_qr_scan", "ios": "https://dc.lft.to/lastmile_qr_scan"}, "lon": -77.01213933333334, "fusion_lat": 0.0}, {"name": "cacbf183daef29abf9c4c52c894a802d", "fusion_lon": 0.0, "lat": 38.8343095, "is_reserved": 0, "type": "electric_bike", "bike_id": "cacbf183daef29abf9c4c52c894a802d", "is_disabled": 0, "rental_uris": {"android": "https://dc.lft.to/lastmile_qr_scan", "ios": "https://dc.lft.to/lastmile_qr_scan"}, "lon": -77.1035655, "fusion_lat": 0.0}, {"name": "28d285a67c5a6f77a2925e1347914dca", "fusion_lon": 0.0, "lat": 38.91105066666667, "is_reserved": 0, "type": "electric_scooter", "bike_id": "28d285a67c5a6f77a2925e1347914dca", "is_disabled": 0, "rental_uris": {"android": "https://dc.lft.to/lastmile_qr_scan", "ios": "https://dc.lft.to/lastmile_qr_scan"}, "lon": -77.04203033333333, "fusion_lat": 0.0}, {"name": "4360db482fe0c36914036c3dbaed4f2d", "fusion_lon": 0.0, "lat": 38.92418283333333, "is_reserved": 0, "type": "electric_scooter", "bike_id": "4360db482fe0c36914036c3dbaed4f2d", "is_disabled": 0, "rental_uris": {"android": "https://dc.lft.to/lastmile_qr_scan", "ios": "https://dc.lft.to/lastmile_qr_scan"}, "lon": -77.0194435, "fusion_lat": 0.0}, {"name": "755a6c63522a1ef5998e3470ce22ef68", "fusion_lon": 0.0, "lat": 38.9250735, "is_reserved": 0, "type": "electric_scooter", "bike_id": "755a6c63522a1ef5998e3470ce22ef68", "is_disabled": 0, "rental_uris": {"android": "https://dc.lft.to/lastmile_qr_scan", "ios": "https://dc.lft.to/lastmile_qr_scan"}, "lon": -77.02702933333333, "fusion_lat": 0.0}, {"name": "2b1b372a41c2b6d8073004aca17a554f", "fusion_lon": 0.0, "lat": 38.84431683333333, "is_reserved": 0, "type": "electric_scooter", "bike_id": "2b1b372a41c2b6d8073004aca17a554f", "is_disabled": 0, "rental_uris": {"android": "https://dc.lft.to/lastmile_qr_scan", "ios": "https://dc.lft.to/lastmile_qr_scan"}, "lon": -76.99811833333334, "fusion_lat": 0.0}, {"name": "899da210313c9b3fe4af06e1193a88ec", "fusion_lon": 0.0, "lat": 38.9198815, "is_reserved": 0, "type": "electric_scooter", "bike_id": "899da210313c9b3fe4af06e1193a88ec", "is_disabled": 0, "rental_uris": {"android": "https://dc.lft.to/lastmile_qr_scan", "ios": "https://dc.lft.to/lastmile_qr_scan"}, "lon": -77.07695166666667, "fusion_lat": 0.0}, {"name": "541e1cd0418bd1f68e2f41affd18b810", "fusion_lon": 0.0, "lat": 38.92876783333333, "is_reserved": 0, "type": "electric_scooter", "bike_id": "541e1cd0418bd1f68e2f41affd18b810", "is_disabled": 0, "rental_uris": {"android": "https://dc.lft.to/lastmile_qr_scan", "ios": "https://dc.lft.to/lastmile_qr_scan"}, "lon": -77.0141595, "fusion_lat": 0.0}, {"name": "76cb713f7da7c195835994bd043927cf", "fusion_lon": 0.0, "lat": 38.91729083333333, "is_reserved": 0, "type": "electric_scooter", "bike_id": "76cb713f7da7c195835994bd043927cf", "is_disabled": 0, "rental_uris": {"android": "https://dc.lft.to/lastmile_qr_scan", "ios": "https://dc.lft.to/lastmile_qr_scan"}, "lon": -77.02506416666667, "fusion_lat": 0.0}, {"name": "a44dd39d33e5b5d07581aeb415403ea3", "fusion_lon": 0.0, "lat": 38.92454033333333, "is_reserved": 0, "type": "electric_scooter", "bike_id": "a44dd39d33e5b5d07581aeb415403ea3", "is_disabled": 0, "rental_uris": {"android": "https://dc.lft.to/lastmile_qr_scan", "ios": "https://dc.lft.to/lastmile_qr_scan"}, "lon": -77.03967216666666, "fusion_lat": 0.0}, {"name": "f1573cef57c764cdf232e0ae662d36db", "fusion_lon": 0.0, "lat": 38.87551883333333, "is_reserved": 0, "type": "electric_scooter", "bike_id": "f1573cef57c764cdf232e0ae662d36db", "is_disabled": 0, "rental_uris": {"android": "https://dc.lft.to/lastmile_qr_scan", "ios": "https://dc.lft.to/lastmile_qr_scan"}, "lon": -77.00571466666666, "fusion_lat": 0.0}, {"name": "9957e0c46b0c40e2c86b3cbf87b517d3", "fusion_lon": 0.0, "lat": 38.90383533333333, "is_reserved": 0, "type": "electric_scooter", "bike_id": "9957e0c46b0c40e2c86b3cbf87b517d3", "is_disabled": 0, "rental_uris": {"android": "https://dc.lft.to/lastmile_qr_scan", "ios": "https://dc.lft.to/lastmile_qr_scan"}, "lon": -77.03633766666667, "fusion_lat": 0.0}, {"name": "fe605b47e231c9763f8f8067f84fafd5", "fusion_lon": 0.0, "lat": 38.884053, "is_reserved": 0, "type": "electric_scooter", "bike_id": "fe605b47e231c9763f8f8067f84fafd5", "is_disabled": 0, "rental_uris": {"android": "https://dc.lft.to/lastmile_qr_scan", "ios": "https://dc.lft.to/lastmile_qr_scan"}, "lon": -76.9539495, "fusion_lat": 0.0}, {"name": "9fcd1d92880cdafcfa193d1401de3b3b", "fusion_lon": 0.0, "lat": 38.908359, "is_reserved": 0, "type": "electric_bike", "bike_id": "9fcd1d92880cdafcfa193d1401de3b3b", "is_disabled": 0, "rental_uris": {"android": "https://dc.lft.to/lastmile_qr_scan", "ios": "https://dc.lft.to/lastmile_qr_scan"}, "lon": -76.93306883333334, "fusion_lat": 0.0}, {"name": "6899776ffe18ae88a22ad9ba480636c9", "fusion_lon": 0.0, "lat": 38.94037316666667, "is_reserved": 0, "type": "electric_scooter", "bike_id": "6899776ffe18ae88a22ad9ba480636c9", "is_disabled": 0, "rental_uris": {"android": "https://dc.lft.to/lastmile_qr_scan", "ios": "https://dc.lft.to/lastmile_qr_scan"}, "lon": -77.02897066666667, "fusion_lat": 0.0}, {"name": "fec5d44a691279b28f3109536d0fa1c9", "fusion_lon": 0.0, "lat": 38.910741, "is_reserved": 0, "type": "electric_scooter", "bike_id": "fec5d44a691279b28f3109536d0fa1c9", "is_disabled": 0, "rental_uris": {"android": "https://dc.lft.to/lastmile_qr_scan", "ios": "https://dc.lft.to/lastmile_qr_scan"}, "lon": -77.03838866666666, "fusion_lat": 0.0}, {"name": "336f97505ca5c23c7d05fe85cf978c8a", "fusion_lon": 0.0, "lat": 38.838286, "is_reserved": 0, "type": "electric_bike", "bike_id": "336f97505ca5c23c7d05fe85cf978c8a", "is_disabled": 0, "rental_uris": {"android": "https://dc.lft.to/lastmile_qr_scan", "ios": "https://dc.lft.to/lastmile_qr_scan"}, "lon": -77.07905016666666, "fusion_lat": 0.0}, {"name": "419afde6b87848f56be8b448a3b2088e", "fusion_lon": 0.0, "lat": 38.88653866666667, "is_reserved": 0, "type": "electric_scooter", "bike_id": "419afde6b87848f56be8b448a3b2088e", "is_disabled": 0, "rental_uris": {"android": "https://dc.lft.to/lastmile_qr_scan", "ios": "https://dc.lft.to/lastmile_qr_scan"}, "lon": -76.99989, "fusion_lat": 0.0}, {"name": "0a5fc0d9328efff574858e1815dbccd5", "fusion_lon": 0.0, "lat": 38.907942166666665, "is_reserved": 0, "type": "electric_scooter", "bike_id": "0a5fc0d9328efff574858e1815dbccd5", "is_disabled": 0, "rental_uris": {"android": "https://dc.lft.to/lastmile_qr_scan", "ios": "https://dc.lft.to/lastmile_qr_scan"}, "lon": -77.03864333333334, "fusion_lat": 0.0}, {"name": "1d7b65af715b20712f3d8360aad53a89", "fusion_lon": 0.0, "lat": 38.924649, "is_reserved": 0, "type": "electric_scooter", "bike_id": "1d7b65af715b20712f3d8360aad53a89", "is_disabled": 0, "rental_uris": {"android": "https://dc.lft.to/lastmile_qr_scan", "ios": "https://dc.lft.to/lastmile_qr_scan"}, "lon": -77.027097, "fusion_lat": 0.0}, {"name": "1b358a6534a5af5802912dafb5ec5b32", "fusion_lon": 0.0, "lat": 38.9342065, "is_reserved": 0, "type": "electric_scooter", "bike_id": "1b358a6534a5af5802912dafb5ec5b32", "is_disabled": 0, "rental_uris": {"android": "https://dc.lft.to/lastmile_qr_scan", "ios": "https://dc.lft.to/lastmile_qr_scan"}, "lon": -77.04248533333333, "fusion_lat": 0.0}, {"name": "a5caa17f0977bd291365a2d8689a6da8", "fusion_lon": 0.0, "lat": 38.928514166666666, "is_reserved": 0, "type": "electric_scooter", "bike_id": "a5caa17f0977bd291365a2d8689a6da8", "is_disabled": 0, "rental_uris": {"android": "https://dc.lft.to/lastmile_qr_scan", "ios": "https://dc.lft.to/lastmile_qr_scan"}, "lon": -77.03293666666667, "fusion_lat": 0.0}, {"name": "482edc4419af1bd692ba4bc1c815bd26", "fusion_lon": 0.0, "lat": 38.901339, "is_reserved": 0, "type": "electric_scooter", "bike_id": "482edc4419af1bd692ba4bc1c815bd26", "is_disabled": 0, "rental_uris": {"android": "https://dc.lft.to/lastmile_qr_scan", "ios": "https://dc.lft.to/lastmile_qr_scan"}, "lon": -77.013077, "fusion_lat": 0.0}, {"name": "1fa97181f8a013df03317966c8d574b2", "fusion_lon": 0.0, "lat": 38.934118, "is_reserved": 0, "type": "electric_bike", "bike_id": "1fa97181f8a013df03317966c8d574b2", "is_disabled": 0, "rental_uris": {"android": "https://dc.lft.to/lastmile_qr_scan", "ios": "https://dc.lft.to/lastmile_qr_scan"}, "lon": -77.028913, "fusion_lat": 0.0}, {"name": "5691168167c63f8790006a7bbe67310e", "fusion_lon": 0.0, "lat": 38.92886516666667, "is_reserved": 0, "type": "electric_scooter", "bike_id": "5691168167c63f8790006a7bbe67310e", "is_disabled": 0, "rental_uris": {"android": "https://dc.lft.to/lastmile_qr_scan", "ios": "https://dc.lft.to/lastmile_qr_scan"}, "lon": -77.04053133333333, "fusion_lat": 0.0}, {"name": "bdc384ac88f6bf45347db9e9b890edb1", "fusion_lon": 0.0, "lat": 38.92866133333333, "is_reserved": 0, "type": "electric_scooter", "bike_id": "bdc384ac88f6bf45347db9e9b890edb1", "is_disabled": 0, "rental_uris": {"android": "https://dc.lft.to/lastmile_qr_scan", "ios": "https://dc.lft.to/lastmile_qr_scan"}, "lon": -77.031875, "fusion_lat": 0.0}, {"name": "096cb3592380d106adef5c6b5485b2aa", "fusion_lon": 0.0, "lat": 38.93455383333333, "is_reserved": 0, "type": "electric_scooter", "bike_id": "096cb3592380d106adef5c6b5485b2aa", "is_disabled": 0, "rental_uris": {"android": "https://dc.lft.to/lastmile_qr_scan", "ios": "https://dc.lft.to/lastmile_qr_scan"}, "lon": -77.02730783333334, "fusion_lat": 0.0}, {"name": "76ba7ea4a1c6afcc1f05c6b11ed7f0ae", "fusion_lon": 0.0, "lat": 38.85071766666667, "is_reserved": 0, "type": "electric_scooter", "bike_id": "76ba7ea4a1c6afcc1f05c6b11ed7f0ae", "is_disabled": 0, "rental_uris": {"android": "https://dc.lft.to/lastmile_qr_scan", "ios": "https://dc.lft.to/lastmile_qr_scan"}, "lon": -76.97016133333334, "fusion_lat": 0.0}, {"name": "72f250b70e442031b13237b1be0924b5", "fusion_lon": 0.0, "lat": 38.91595933333333, "is_reserved": 0, "type": "electric_scooter", "bike_id": "72f250b70e442031b13237b1be0924b5", "is_disabled": 0, "rental_uris": {"android": "https://dc.lft.to/lastmile_qr_scan", "ios": "https://dc.lft.to/lastmile_qr_scan"}, "lon": -76.98376466666667, "fusion_lat": 0.0}, {"name": "e21f927097409b95a8f5da57d3ce8a22", "fusion_lon": 0.0, "lat": 38.893102166666665, "is_reserved": 0, "type": "electric_scooter", "bike_id": "e21f927097409b95a8f5da57d3ce8a22", "is_disabled": 0, "rental_uris": {"android": "https://dc.lft.to/lastmile_qr_scan", "ios": "https://dc.lft.to/lastmile_qr_scan"}, "lon": -76.9397325, "fusion_lat": 0.0}, {"name": "8502cfd117b474ed653f79b18d2211c4", "fusion_lon": 0.0, "lat": 38.90444733333333, "is_reserved": 0, "type": "electric_scooter", "bike_id": "8502cfd117b474ed653f79b18d2211c4", "is_disabled": 0, "rental_uris": {"android": "https://dc.lft.to/lastmile_qr_scan", "ios": "https://dc.lft.to/lastmile_qr_scan"}, "lon": -77.06283283333333, "fusion_lat": 0.0}, {"name": "22d065043460f5e9519a166c6f8d1544", "fusion_lon": 0.0, "lat": 38.92235566666667, "is_reserved": 0, "type": "electric_scooter", "bike_id": "22d065043460f5e9519a166c6f8d1544", "is_disabled": 0, "rental_uris": {"android": "https://dc.lft.to/lastmile_qr_scan", "ios": "https://dc.lft.to/lastmile_qr_scan"}, "lon": -77.04718, "fusion_lat": 0.0}, {"name": "d4ff4a36b312e1e07e89d310ac376c2f", "fusion_lon": 0.0, "lat": 38.88612366666667, "is_reserved": 0, "type": "electric_scooter", "bike_id": "d4ff4a36b312e1e07e89d310ac376c2f", "is_disabled": 0, "rental_uris": {"android": "https://dc.lft.to/lastmile_qr_scan", "ios": "https://dc.lft.to/lastmile_qr_scan"}, "lon": -77.00139833333333, "fusion_lat": 0.0}, {"name": "a0c476da03ab88bf586cbebd29407f48", "fusion_lon": 0.0, "lat": 38.949926166666664, "is_reserved": 0, "type": "electric_scooter", "bike_id": "a0c476da03ab88bf586cbebd29407f48", "is_disabled": 0, "rental_uris": {"android": "https://dc.lft.to/lastmile_qr_scan", "ios": "https://dc.lft.to/lastmile_qr_scan"}, "lon": -77.026514, "fusion_lat": 0.0}, {"name": "b1baf912f901ac6b26c8341724c9a447", "fusion_lon": 0.0, "lat": 38.876707333333336, "is_reserved": 0, "type": "electric_scooter", "bike_id": "b1baf912f901ac6b26c8341724c9a447", "is_disabled": 0, "rental_uris": {"android": "https://dc.lft.to/lastmile_qr_scan", "ios": "https://dc.lft.to/lastmile_qr_scan"}, "lon": -77.00446666666667, "fusion_lat": 0.0}, {"name": "ef644f22c71568ef6811d35329759fee", "fusion_lon": 0.0, "lat": 38.823684, "is_reserved": 0, "type": "electric_bike", "bike_id": "ef644f22c71568ef6811d35329759fee", "is_disabled": 0, "rental_uris": {"android": "https://dc.lft.to/lastmile_qr_scan", "ios": "https://dc.lft.to/lastmile_qr_scan"}, "lon": -77.0021525, "fusion_lat": 0.0}, {"name": "1e1a6f724c4740283a1e0097a98d0026", "fusion_lon": 0.0, "lat": 38.91813366666667, "is_reserved": 0, "type": "electric_scooter", "bike_id": "1e1a6f724c4740283a1e0097a98d0026", "is_disabled": 0, "rental_uris": {"android": "https://dc.lft.to/lastmile_qr_scan", "ios": "https://dc.lft.to/lastmile_qr_scan"}, "lon": -77.03663116666667, "fusion_lat": 0.0}, {"name": "8028cd1b9cc29188347d065b99194aa5", "fusion_lon": 0.0, "lat": 38.95844316666667, "is_reserved": 0, "type": "electric_scooter", "bike_id": "8028cd1b9cc29188347d065b99194aa5", "is_disabled": 0, "rental_uris": {"android": "https://dc.lft.to/lastmile_qr_scan", "ios": "https://dc.lft.to/lastmile_qr_scan"}, "lon": -77.02736266666666, "fusion_lat": 0.0}, {"name": "7707b88ec758dcf64667bf2f8984e7c1", "fusion_lon": 0.0, "lat": 38.91879683333333, "is_reserved": 0, "type": "electric_scooter", "bike_id": "7707b88ec758dcf64667bf2f8984e7c1", "is_disabled": 0, "rental_uris": {"android": "https://dc.lft.to/lastmile_qr_scan", "ios": "https://dc.lft.to/lastmile_qr_scan"}, "lon": -77.04385866666667, "fusion_lat": 0.0}, {"name": "d5e3931010283386cdbdfcedb730a37f", "fusion_lon": 0.0, "lat": 39.052840833333335, "is_reserved": 0, "type": "electric_bike", "bike_id": "d5e3931010283386cdbdfcedb730a37f", "is_disabled": 0, "rental_uris": {"android": "https://dc.lft.to/lastmile_qr_scan", "ios": "https://dc.lft.to/lastmile_qr_scan"}, "lon": -77.08069033333334, "fusion_lat": 0.0}, {"name": "d96b90992be60056f01dd63ff6e9a572", "fusion_lon": 0.0, "lat": 38.935967, "is_reserved": 0, "type": "electric_scooter", "bike_id": "d96b90992be60056f01dd63ff6e9a572", "is_disabled": 0, "rental_uris": {"android": "https://dc.lft.to/lastmile_qr_scan", "ios": "https://dc.lft.to/lastmile_qr_scan"}, "lon": -77.03534783333333, "fusion_lat": 0.0}, {"name": "e263b2fb5ea7a3faf3a967927470ba0f", "fusion_lon": 0.0, "lat": 38.92432616666667, "is_reserved": 0, "type": "electric_scooter", "bike_id": "e263b2fb5ea7a3faf3a967927470ba0f", "is_disabled": 0, "rental_uris": {"android": "https://dc.lft.to/lastmile_qr_scan", "ios": "https://dc.lft.to/lastmile_qr_scan"}, "lon": -77.04243366666667, "fusion_lat": 0.0}, {"name": "069269c9be318f4e0706405b6fb9ece8", "fusion_lon": 0.0, "lat": 38.878285, "is_reserved": 0, "type": "electric_scooter", "bike_id": "069269c9be318f4e0706405b6fb9ece8", "is_disabled": 0, "rental_uris": {"android": "https://dc.lft.to/lastmile_qr_scan", "ios": "https://dc.lft.to/lastmile_qr_scan"}, "lon": -76.9630855, "fusion_lat": 0.0}, {"name": "761550a8f58355a1f3b1108763fbaf7f", "fusion_lon": 0.0, "lat": 38.887321166666666, "is_reserved": 0, "type": "electric_scooter", "bike_id": "761550a8f58355a1f3b1108763fbaf7f", "is_disabled": 0, "rental_uris": {"android": "https://dc.lft.to/lastmile_qr_scan", "ios": "https://dc.lft.to/lastmile_qr_scan"}, "lon": -77.0282265, "fusion_lat": 0.0}, {"name": "265be8cf8ac8661c8d7d33c0f1a2a010", "fusion_lon": 0.0, "lat": 38.87102266666667, "is_reserved": 0, "type": "electric_scooter", "bike_id": "265be8cf8ac8661c8d7d33c0f1a2a010", "is_disabled": 0, "rental_uris": {"android": "https://dc.lft.to/lastmile_qr_scan", "ios": "https://dc.lft.to/lastmile_qr_scan"}, "lon": -76.96576583333334, "fusion_lat": 0.0}, {"name": "af3bb99049b4c7be1ffb5215c18fb526", "fusion_lon": 0.0, "lat": 38.918245666666664, "is_reserved": 0, "type": "electric_scooter", "bike_id": "af3bb99049b4c7be1ffb5215c18fb526", "is_disabled": 0, "rental_uris": {"android": "https://dc.lft.to/lastmile_qr_scan", "ios": "https://dc.lft.to/lastmile_qr_scan"}, "lon": -77.031702, "fusion_lat": 0.0}, {"name": "871526c31495289956532ce91b753154", "fusion_lon": 0.0, "lat": 38.914767833333336, "is_reserved": 0, "type": "electric_scooter", "bike_id": "871526c31495289956532ce91b753154", "is_disabled": 0, "rental_uris": {"android": "https://dc.lft.to/lastmile_qr_scan", "ios": "https://dc.lft.to/lastmile_qr_scan"}, "lon": -76.984163, "fusion_lat": 0.0}, {"name": "6f29231b88e6de380e70ea80f0b08772", "fusion_lon": 0.0, "lat": 38.86702316666667, "is_reserved": 0, "type": "electric_scooter", "bike_id": "6f29231b88e6de380e70ea80f0b08772", "is_disabled": 0, "rental_uris": {"android": "https://dc.lft.to/lastmile_qr_scan", "ios": "https://dc.lft.to/lastmile_qr_scan"}, "lon": -76.98716783333333, "fusion_lat": 0.0}, {"name": "4ca5a752a51b20930dfac2693d7a4d3a", "fusion_lon": 0.0, "lat": 38.900218333333335, "is_reserved": 0, "type": "electric_scooter", "bike_id": "4ca5a752a51b20930dfac2693d7a4d3a", "is_disabled": 0, "rental_uris": {"android": "https://dc.lft.to/lastmile_qr_scan", "ios": "https://dc.lft.to/lastmile_qr_scan"}, "lon": -77.002119, "fusion_lat": 0.0}, {"name": "eaf7db662a035fda25fa40303e8f5cbe", "fusion_lon": 0.0, "lat": 38.947909, "is_reserved": 0, "type": "electric_scooter", "bike_id": "eaf7db662a035fda25fa40303e8f5cbe", "is_disabled": 0, "rental_uris": {"android": "https://dc.lft.to/lastmile_qr_scan", "ios": "https://dc.lft.to/lastmile_qr_scan"}, "lon": -77.08023016666667, "fusion_lat": 0.0}, {"name": "deb77f048c44d58835c8e4600120d9ef", "fusion_lon": 0.0, "lat": 38.91912933333333, "is_reserved": 0, "type": "electric_scooter", "bike_id": "deb77f048c44d58835c8e4600120d9ef", "is_disabled": 0, "rental_uris": {"android": "https://dc.lft.to/lastmile_qr_scan", "ios": "https://dc.lft.to/lastmile_qr_scan"}, "lon": -77.0021245, "fusion_lat": 0.0}, {"name": "8aee8582ba3942d0c593e629d9748a62", "fusion_lon": 0.0, "lat": 38.91598116666667, "is_reserved": 0, "type": "electric_scooter", "bike_id": "8aee8582ba3942d0c593e629d9748a62", "is_disabled": 0, "rental_uris": {"android": "https://dc.lft.to/lastmile_qr_scan", "ios": "https://dc.lft.to/lastmile_qr_scan"}, "lon": -76.9838005, "fusion_lat": 0.0}, {"name": "b6eb481e3a50d853cafb507f4961af8b", "fusion_lon": 0.0, "lat": 38.899584833333336, "is_reserved": 0, "type": "electric_scooter", "bike_id": "b6eb481e3a50d853cafb507f4961af8b", "is_disabled": 0, "rental_uris": {"android": "https://dc.lft.to/lastmile_qr_scan", "ios": "https://dc.lft.to/lastmile_qr_scan"}, "lon": -77.0161175, "fusion_lat": 0.0}, {"name": "be8802c32281aa23e3c9796b180ef3e4", "fusion_lon": 0.0, "lat": 38.869984, "is_reserved": 0, "type": "electric_scooter", "bike_id": "be8802c32281aa23e3c9796b180ef3e4", "is_disabled": 0, "rental_uris": {"android": "https://dc.lft.to/lastmile_qr_scan", "ios": "https://dc.lft.to/lastmile_qr_scan"}, "lon": -76.97588283333333, "fusion_lat": 0.0}, {"name": "e3e594d350dad8fc061e855ca026bf18", "fusion_lon": 0.0, "lat": 38.92966916666666, "is_reserved": 0, "type": "electric_scooter", "bike_id": "e3e594d350dad8fc061e855ca026bf18", "is_disabled": 0, "rental_uris": {"android": "https://dc.lft.to/lastmile_qr_scan", "ios": "https://dc.lft.to/lastmile_qr_scan"}, "lon": -77.0274745, "fusion_lat": 0.0}, {"name": "595492dc63775f0a93e37609e1bacfb9", "fusion_lon": 0.0, "lat": 38.8665065, "is_reserved": 0, "type": "electric_scooter", "bike_id": "595492dc63775f0a93e37609e1bacfb9", "is_disabled": 0, "rental_uris": {"android": "https://dc.lft.to/lastmile_qr_scan", "ios": "https://dc.lft.to/lastmile_qr_scan"}, "lon": -76.98898216666667, "fusion_lat": 0.0}, {"name": "de32a689043aa45d38f4e44d53de3d68", "fusion_lon": 0.0, "lat": 38.918429, "is_reserved": 0, "type": "electric_scooter", "bike_id": "de32a689043aa45d38f4e44d53de3d68", "is_disabled": 0, "rental_uris": {"android": "https://dc.lft.to/lastmile_qr_scan", "ios": "https://dc.lft.to/lastmile_qr_scan"}, "lon": -77.023061, "fusion_lat": 0.0}, {"name": "9f9bf5b95f50c703aa5a3b403fb0e710", "fusion_lon": 0.0, "lat": 38.92880183333333, "is_reserved": 0, "type": "electric_scooter", "bike_id": "9f9bf5b95f50c703aa5a3b403fb0e710", "is_disabled": 0, "rental_uris": {"android": "https://dc.lft.to/lastmile_qr_scan", "ios": "https://dc.lft.to/lastmile_qr_scan"}, "lon": -77.02644583333333, "fusion_lat": 0.0}, {"name": "66a6dbcc40cfa59a9e3b3c0b028963a7", "fusion_lon": 0.0, "lat": 38.9236275, "is_reserved": 0, "type": "electric_scooter", "bike_id": "66a6dbcc40cfa59a9e3b3c0b028963a7", "is_disabled": 0, "rental_uris": {"android": "https://dc.lft.to/lastmile_qr_scan", "ios": "https://dc.lft.to/lastmile_qr_scan"}, "lon": -77.03226283333333, "fusion_lat": 0.0}, {"name": "1453c8e735ac4e356e48ddc37640145d", "fusion_lon": 0.0, "lat": 38.900105833333335, "is_reserved": 0, "type": "electric_scooter", "bike_id": "1453c8e735ac4e356e48ddc37640145d", "is_disabled": 0, "rental_uris": {"android": "https://dc.lft.to/lastmile_qr_scan", "ios": "https://dc.lft.to/lastmile_qr_scan"}, "lon": -76.99297166666666, "fusion_lat": 0.0}, {"name": "8e363ff628d0c7003e98241d55dc0e7f", "fusion_lon": 0.0, "lat": 38.922337666666664, "is_reserved": 0, "type": "electric_scooter", "bike_id": "8e363ff628d0c7003e98241d55dc0e7f", "is_disabled": 0, "rental_uris": {"android": "https://dc.lft.to/lastmile_qr_scan", "ios": "https://dc.lft.to/lastmile_qr_scan"}, "lon": -77.03883666666667, "fusion_lat": 0.0}, {"name": "f9efd46589aa3919f5d8cf08cd805f81", "fusion_lon": 0.0, "lat": 38.91930716666667, "is_reserved": 0, "type": "electric_scooter", "bike_id": "f9efd46589aa3919f5d8cf08cd805f81", "is_disabled": 0, "rental_uris": {"android": "https://dc.lft.to/lastmile_qr_scan", "ios": "https://dc.lft.to/lastmile_qr_scan"}, "lon": -77.03422233333333, "fusion_lat": 0.0}, {"name": "dfc6db2224bf4584cebdb426661493c0", "fusion_lon": 0.0, "lat": 38.90629066666666, "is_reserved": 0, "type": "electric_scooter", "bike_id": "dfc6db2224bf4584cebdb426661493c0", "is_disabled": 0, "rental_uris": {"android": "https://dc.lft.to/lastmile_qr_scan", "ios": "https://dc.lft.to/lastmile_qr_scan"}, "lon": -77.0237865, "fusion_lat": 0.0}, {"name": "c19948d3b61939da8cc24fc5c6252789", "fusion_lon": 0.0, "lat": 38.903652, "is_reserved": 0, "type": "electric_scooter", "bike_id": "c19948d3b61939da8cc24fc5c6252789", "is_disabled": 0, "rental_uris": {"android": "https://dc.lft.to/lastmile_qr_scan", "ios": "https://dc.lft.to/lastmile_qr_scan"}, "lon": -77.0407025, "fusion_lat": 0.0}, {"name": "82eb2b22f835baf1a5183c2f8750c3e8", "fusion_lon": 0.0, "lat": 38.90267816666667, "is_reserved": 0, "type": "electric_scooter", "bike_id": "82eb2b22f835baf1a5183c2f8750c3e8", "is_disabled": 0, "rental_uris": {"android": "https://dc.lft.to/lastmile_qr_scan", "ios": "https://dc.lft.to/lastmile_qr_scan"}, "lon": -77.03402016666666, "fusion_lat": 0.0}, {"name": "64818acb419ddcca32e52b447037d9a1", "fusion_lon": 0.0, "lat": 38.92059416666667, "is_reserved": 0, "type": "electric_scooter", "bike_id": "64818acb419ddcca32e52b447037d9a1", "is_disabled": 0, "rental_uris": {"android": "https://dc.lft.to/lastmile_qr_scan", "ios": "https://dc.lft.to/lastmile_qr_scan"}, "lon": -77.02389183333334, "fusion_lat": 0.0}, {"name": "3c1db4f6f6a9430695f816bb45df0559", "fusion_lon": 0.0, "lat": 38.938864833333334, "is_reserved": 0, "type": "electric_scooter", "bike_id": "3c1db4f6f6a9430695f816bb45df0559", "is_disabled": 0, "rental_uris": {"android": "https://dc.lft.to/lastmile_qr_scan", "ios": "https://dc.lft.to/lastmile_qr_scan"}, "lon": -77.02483333333333, "fusion_lat": 0.0}, {"name": "4c42721a39a4c75d614c0d19c2d60744", "fusion_lon": 0.0, "lat": 39.014822833333334, "is_reserved": 0, "type": "electric_bike", "bike_id": "4c42721a39a4c75d614c0d19c2d60744", "is_disabled": 0, "rental_uris": {"android": "https://dc.lft.to/lastmile_qr_scan", "ios": "https://dc.lft.to/lastmile_qr_scan"}, "lon": -77.05489833333333, "fusion_lat": 0.0}, {"name": "5ac7496a9242097b6c05c559dd84e9d7", "fusion_lon": 0.0, "lat": 38.91124583333333, "is_reserved": 0, "type": "electric_scooter", "bike_id": "5ac7496a9242097b6c05c559dd84e9d7", "is_disabled": 0, "rental_uris": {"android": "https://dc.lft.to/lastmile_qr_scan", "ios": "https://dc.lft.to/lastmile_qr_scan"}, "lon": -77.02136183333333, "fusion_lat": 0.0}, {"name": "c2024192e3993e26922e1602e1c548a3", "fusion_lon": 0.0, "lat": 38.9126895, "is_reserved": 0, "type": "electric_scooter", "bike_id": "c2024192e3993e26922e1602e1c548a3", "is_disabled": 0, "rental_uris": {"android": "https://dc.lft.to/lastmile_qr_scan", "ios": "https://dc.lft.to/lastmile_qr_scan"}, "lon": -77.02227566666667, "fusion_lat": 0.0}, {"name": "b423edeecf698da28f9990c0963a3dbb", "fusion_lon": 0.0, "lat": 38.89638383333333, "is_reserved": 0, "type": "electric_scooter", "bike_id": "b423edeecf698da28f9990c0963a3dbb", "is_disabled": 0, "rental_uris": {"android": "https://dc.lft.to/lastmile_qr_scan", "ios": "https://dc.lft.to/lastmile_qr_scan"}, "lon": -77.02150633333333, "fusion_lat": 0.0}, {"name": "e4fcad14855c2bcc14556816ed3fda33", "fusion_lon": 0.0, "lat": 38.807546333333335, "is_reserved": 0, "type": "electric_bike", "bike_id": "e4fcad14855c2bcc14556816ed3fda33", "is_disabled": 0, "rental_uris": {"android": "https://dc.lft.to/lastmile_qr_scan", "ios": "https://dc.lft.to/lastmile_qr_scan"}, "lon": -77.09455716666666, "fusion_lat": 0.0}, {"name": "b84bca10cb43d4ca0e1d34586a7d6270", "fusion_lon": 0.0, "lat": 38.927723, "is_reserved": 0, "type": "electric_scooter", "bike_id": "b84bca10cb43d4ca0e1d34586a7d6270", "is_disabled": 0, "rental_uris": {"android": "https://dc.lft.to/lastmile_qr_scan", "ios": "https://dc.lft.to/lastmile_qr_scan"}, "lon": -77.026164, "fusion_lat": 0.0}, {"name": "0a470b26f96825ed89e280335b151989", "fusion_lon": 0.0, "lat": 38.907828, "is_reserved": 0, "type": "electric_scooter", "bike_id": "0a470b26f96825ed89e280335b151989", "is_disabled": 0, "rental_uris": {"android": "https://dc.lft.to/lastmile_qr_scan", "ios": "https://dc.lft.to/lastmile_qr_scan"}, "lon": -77.03826516666666, "fusion_lat": 0.0}, {"name": "488d81b24d0c750ef2356e4bf24d4bd4", "fusion_lon": 0.0, "lat": 38.91059, "is_reserved": 0, "type": "electric_scooter", "bike_id": "488d81b24d0c750ef2356e4bf24d4bd4", "is_disabled": 0, "rental_uris": {"android": "https://dc.lft.to/lastmile_qr_scan", "ios": "https://dc.lft.to/lastmile_qr_scan"}, "lon": -77.04482083333333, "fusion_lat": 0.0}, {"name": "b0f982f56cf8737b0d25f03eba81a398", "fusion_lon": 0.0, "lat": 38.9347475, "is_reserved": 0, "type": "electric_scooter", "bike_id": "b0f982f56cf8737b0d25f03eba81a398", "is_disabled": 0, "rental_uris": {"android": "https://dc.lft.to/lastmile_qr_scan", "ios": "https://dc.lft.to/lastmile_qr_scan"}, "lon": -77.03574216666667, "fusion_lat": 0.0}, {"name": "06bdc535c67dda3e8b8b6ab8f3d5107f", "fusion_lon": 0.0, "lat": 38.9188185, "is_reserved": 0, "type": "electric_scooter", "bike_id": "06bdc535c67dda3e8b8b6ab8f3d5107f", "is_disabled": 0, "rental_uris": {"android": "https://dc.lft.to/lastmile_qr_scan", "ios": "https://dc.lft.to/lastmile_qr_scan"}, "lon": -77.0351, "fusion_lat": 0.0}, {"name": "7b4f2fd90317653e74d3cd8d2d1654c1", "fusion_lon": 0.0, "lat": 38.92396866666667, "is_reserved": 0, "type": "electric_scooter", "bike_id": "7b4f2fd90317653e74d3cd8d2d1654c1", "is_disabled": 0, "rental_uris": {"android": "https://dc.lft.to/lastmile_qr_scan", "ios": "https://dc.lft.to/lastmile_qr_scan"}, "lon": -77.0405325, "fusion_lat": 0.0}, {"name": "32cc6ff617d7d50f1e72630d5a8910b7", "fusion_lon": 0.0, "lat": 38.9246135, "is_reserved": 0, "type": "electric_scooter", "bike_id": "32cc6ff617d7d50f1e72630d5a8910b7", "is_disabled": 0, "rental_uris": {"android": "https://dc.lft.to/lastmile_qr_scan", "ios": "https://dc.lft.to/lastmile_qr_scan"}, "lon": -77.027088, "fusion_lat": 0.0}, {"name": "09c901538bdcb65ce432b2932a04fc39", "fusion_lon": 0.0, "lat": 38.918406, "is_reserved": 0, "type": "electric_scooter", "bike_id": "09c901538bdcb65ce432b2932a04fc39", "is_disabled": 0, "rental_uris": {"android": "https://dc.lft.to/lastmile_qr_scan", "ios": "https://dc.lft.to/lastmile_qr_scan"}, "lon": -77.023032, "fusion_lat": 0.0}, {"name": "e35ddf9a7842a6fe15c76eac31cb930a", "fusion_lon": 0.0, "lat": 38.892250833333335, "is_reserved": 0, "type": "electric_scooter", "bike_id": "e35ddf9a7842a6fe15c76eac31cb930a", "is_disabled": 0, "rental_uris": {"android": "https://dc.lft.to/lastmile_qr_scan", "ios": "https://dc.lft.to/lastmile_qr_scan"}, "lon": -77.04858783333333, "fusion_lat": 0.0}, {"name": "eba67913642fcd747559bf53eacff83d", "fusion_lon": 0.0, "lat": 38.945126, "is_reserved": 0, "type": "electric_scooter", "bike_id": "eba67913642fcd747559bf53eacff83d", "is_disabled": 0, "rental_uris": {"android": "https://dc.lft.to/lastmile_qr_scan", "ios": "https://dc.lft.to/lastmile_qr_scan"}, "lon": -77.0335885, "fusion_lat": 0.0}, {"name": "b7ca85fc2d354f6ff139fa55d4853c04", "fusion_lon": 0.0, "lat": 38.870092166666666, "is_reserved": 0, "type": "electric_scooter", "bike_id": "b7ca85fc2d354f6ff139fa55d4853c04", "is_disabled": 0, "rental_uris": {"android": "https://dc.lft.to/lastmile_qr_scan", "ios": "https://dc.lft.to/lastmile_qr_scan"}, "lon": -76.98083216666667, "fusion_lat": 0.0}, {"name": "66a871147bea36818f988276c600f5c5", "fusion_lon": 0.0, "lat": 38.909835666666666, "is_reserved": 0, "type": "electric_scooter", "bike_id": "66a871147bea36818f988276c600f5c5", "is_disabled": 0, "rental_uris": {"android": "https://dc.lft.to/lastmile_qr_scan", "ios": "https://dc.lft.to/lastmile_qr_scan"}, "lon": -77.03840716666667, "fusion_lat": 0.0}, {"name": "cfeeabaf02ee14b98d169ab9404d0342", "fusion_lon": 0.0, "lat": 38.8764245, "is_reserved": 0, "type": "electric_scooter", "bike_id": "cfeeabaf02ee14b98d169ab9404d0342", "is_disabled": 0, "rental_uris": {"android": "https://dc.lft.to/lastmile_qr_scan", "ios": "https://dc.lft.to/lastmile_qr_scan"}, "lon": -77.003223, "fusion_lat": 0.0}, {"name": "fd6f957488f2540a0cdc520c1dc1af52", "fusion_lon": 0.0, "lat": 38.86523283333333, "is_reserved": 0, "type": "electric_scooter", "bike_id": "fd6f957488f2540a0cdc520c1dc1af52", "is_disabled": 0, "rental_uris": {"android": "https://dc.lft.to/lastmile_qr_scan", "ios": "https://dc.lft.to/lastmile_qr_scan"}, "lon": -76.96843666666666, "fusion_lat": 0.0}, {"name": "dcc83db89106b6d8c239cb7cfb53eeb2", "fusion_lon": 0.0, "lat": 38.92492716666667, "is_reserved": 0, "type": "electric_scooter", "bike_id": "dcc83db89106b6d8c239cb7cfb53eeb2", "is_disabled": 0, "rental_uris": {"android": "https://dc.lft.to/lastmile_qr_scan", "ios": "https://dc.lft.to/lastmile_qr_scan"}, "lon": -77.03177933333333, "fusion_lat": 0.0}, {"name": "79ae0dd5e4108cc2529c4efd4c452794", "fusion_lon": 0.0, "lat": 38.893512666666666, "is_reserved": 0, "type": "electric_scooter", "bike_id": "79ae0dd5e4108cc2529c4efd4c452794", "is_disabled": 0, "rental_uris": {"android": "https://dc.lft.to/lastmile_qr_scan", "ios": "https://dc.lft.to/lastmile_qr_scan"}, "lon": -77.00328516666667, "fusion_lat": 0.0}, {"name": "b50905ac759a8c9016675841e6efa946", "fusion_lon": 0.0, "lat": 38.9038755, "is_reserved": 0, "type": "electric_scooter", "bike_id": "b50905ac759a8c9016675841e6efa946", "is_disabled": 0, "rental_uris": {"android": "https://dc.lft.to/lastmile_qr_scan", "ios": "https://dc.lft.to/lastmile_qr_scan"}, "lon": -77.03825616666667, "fusion_lat": 0.0}, {"name": "f3dc3ed8431cf31523915170af587714", "fusion_lon": 0.0, "lat": 38.905623166666665, "is_reserved": 0, "type": "electric_scooter", "bike_id": "f3dc3ed8431cf31523915170af587714", "is_disabled": 0, "rental_uris": {"android": "https://dc.lft.to/lastmile_qr_scan", "ios": "https://dc.lft.to/lastmile_qr_scan"}, "lon": -77.00586183333333, "fusion_lat": 0.0}, {"name": "af84bdc455d87505ffc30951a037ad70", "fusion_lon": 0.0, "lat": 38.8878145, "is_reserved": 0, "type": "electric_scooter", "bike_id": "af84bdc455d87505ffc30951a037ad70", "is_disabled": 0, "rental_uris": {"android": "https://dc.lft.to/lastmile_qr_scan", "ios": "https://dc.lft.to/lastmile_qr_scan"}, "lon": -76.955317, "fusion_lat": 0.0}, {"name": "34da0870e6ebff06fd4072afc33e1a0c", "fusion_lon": 0.0, "lat": 38.8624235, "is_reserved": 0, "type": "electric_scooter", "bike_id": "34da0870e6ebff06fd4072afc33e1a0c", "is_disabled": 0, "rental_uris": {"android": "https://dc.lft.to/lastmile_qr_scan", "ios": "https://dc.lft.to/lastmile_qr_scan"}, "lon": -76.9949465, "fusion_lat": 0.0}, {"name": "46e8552941cee90d4c6db68172e035fb", "fusion_lon": 0.0, "lat": 38.9245785, "is_reserved": 0, "type": "electric_scooter", "bike_id": "46e8552941cee90d4c6db68172e035fb", "is_disabled": 0, "rental_uris": {"android": "https://dc.lft.to/lastmile_qr_scan", "ios": "https://dc.lft.to/lastmile_qr_scan"}, "lon": -77.04001183333334, "fusion_lat": 0.0}, {"name": "cb6f8502b034fb064314a4f28dd5df65", "fusion_lon": 0.0, "lat": 38.893891833333335, "is_reserved": 0, "type": "electric_scooter", "bike_id": "cb6f8502b034fb064314a4f28dd5df65", "is_disabled": 0, "rental_uris": {"android": "https://dc.lft.to/lastmile_qr_scan", "ios": "https://dc.lft.to/lastmile_qr_scan"}, "lon": -77.03177533333333, "fusion_lat": 0.0}, {"name": "7ea468c730e6a15bf3d5899866610056", "fusion_lon": 0.0, "lat": 38.89476633333334, "is_reserved": 0, "type": "electric_scooter", "bike_id": "7ea468c730e6a15bf3d5899866610056", "is_disabled": 0, "rental_uris": {"android": "https://dc.lft.to/lastmile_qr_scan", "ios": "https://dc.lft.to/lastmile_qr_scan"}, "lon": -77.02798783333333, "fusion_lat": 0.0}, {"name": "a05c8c7cb54febdfca42b2e826a7297f", "fusion_lon": 0.0, "lat": 38.90537416666667, "is_reserved": 0, "type": "electric_scooter", "bike_id": "a05c8c7cb54febdfca42b2e826a7297f", "is_disabled": 0, "rental_uris": {"android": "https://dc.lft.to/lastmile_qr_scan", "ios": "https://dc.lft.to/lastmile_qr_scan"}, "lon": -76.98112383333333, "fusion_lat": 0.0}, {"name": "e702ffb02181051425181fcdb11774a8", "fusion_lon": 0.0, "lat": 38.91891183333333, "is_reserved": 0, "type": "electric_scooter", "bike_id": "e702ffb02181051425181fcdb11774a8", "is_disabled": 0, "rental_uris": {"android": "https://dc.lft.to/lastmile_qr_scan", "ios": "https://dc.lft.to/lastmile_qr_scan"}, "lon": -77.03495983333333, "fusion_lat": 0.0}, {"name": "14fc139851e75d32397408de811395a5", "fusion_lon": 0.0, "lat": 38.860608166666665, "is_reserved": 0, "type": "electric_scooter", "bike_id": "14fc139851e75d32397408de811395a5", "is_disabled": 0, "rental_uris": {"android": "https://dc.lft.to/lastmile_qr_scan", "ios": "https://dc.lft.to/lastmile_qr_scan"}, "lon": -76.984187, "fusion_lat": 0.0}, {"name": "6bc0b532b87bcdcc08681105b09339ac", "fusion_lon": 0.0, "lat": 38.875755833333336, "is_reserved": 0, "type": "electric_scooter", "bike_id": "6bc0b532b87bcdcc08681105b09339ac", "is_disabled": 0, "rental_uris": {"android": "https://dc.lft.to/lastmile_qr_scan", "ios": "https://dc.lft.to/lastmile_qr_scan"}, "lon": -77.005969, "fusion_lat": 0.0}, {"name": "de73cc54858f176bee94eda148c6ab38", "fusion_lon": 0.0, "lat": 38.87636783333333, "is_reserved": 0, "type": "electric_scooter", "bike_id": "de73cc54858f176bee94eda148c6ab38", "is_disabled": 0, "rental_uris": {"android": "https://dc.lft.to/lastmile_qr_scan", "ios": "https://dc.lft.to/lastmile_qr_scan"}, "lon": -77.004557, "fusion_lat": 0.0}, {"name": "24d78f812e713d596fe7461fab7f7842", "fusion_lon": 0.0, "lat": 38.899596, "is_reserved": 0, "type": "electric_scooter", "bike_id": "24d78f812e713d596fe7461fab7f7842", "is_disabled": 0, "rental_uris": {"android": "https://dc.lft.to/lastmile_qr_scan", "ios": "https://dc.lft.to/lastmile_qr_scan"}, "lon": -77.01616316666667, "fusion_lat": 0.0}, {"name": "628feb509b3ce0ad5f872af58330cadd", "fusion_lon": 0.0, "lat": 38.930893833333336, "is_reserved": 0, "type": "electric_scooter", "bike_id": "628feb509b3ce0ad5f872af58330cadd", "is_disabled": 0, "rental_uris": {"android": "https://dc.lft.to/lastmile_qr_scan", "ios": "https://dc.lft.to/lastmile_qr_scan"}, "lon": -77.0345125, "fusion_lat": 0.0}, {"name": "e16e729006cc18ec84a31529ed6e28ff", "fusion_lon": 0.0, "lat": 38.9168905, "is_reserved": 0, "type": "electric_scooter", "bike_id": "e16e729006cc18ec84a31529ed6e28ff", "is_disabled": 0, "rental_uris": {"android": "https://dc.lft.to/lastmile_qr_scan", "ios": "https://dc.lft.to/lastmile_qr_scan"}, "lon": -77.02525983333334, "fusion_lat": 0.0}, {"name": "1c76e4e31a231c37141e7971615fb208", "fusion_lon": 0.0, "lat": 38.897881166666664, "is_reserved": 0, "type": "electric_scooter", "bike_id": "1c76e4e31a231c37141e7971615fb208", "is_disabled": 0, "rental_uris": {"android": "https://dc.lft.to/lastmile_qr_scan", "ios": "https://dc.lft.to/lastmile_qr_scan"}, "lon": -77.0091145, "fusion_lat": 0.0}, {"name": "0b1081fdf040c4aae47a8ed72a45a626", "fusion_lon": 0.0, "lat": 38.95303783333333, "is_reserved": 0, "type": "electric_bike", "bike_id": "0b1081fdf040c4aae47a8ed72a45a626", "is_disabled": 0, "rental_uris": {"android": "https://dc.lft.to/lastmile_qr_scan", "ios": "https://dc.lft.to/lastmile_qr_scan"}, "lon": -77.02400283333333, "fusion_lat": 0.0}, {"name": "557ba1eb54309e3c875c4dac361204aa", "fusion_lon": 0.0, "lat": 38.917702166666665, "is_reserved": 0, "type": "electric_scooter", "bike_id": "557ba1eb54309e3c875c4dac361204aa", "is_disabled": 0, "rental_uris": {"android": "https://dc.lft.to/lastmile_qr_scan", "ios": "https://dc.lft.to/lastmile_qr_scan"}, "lon": -77.04058016666667, "fusion_lat": 0.0}, {"name": "1a90cd431551fc1f0ec11b3dc633f4f0", "fusion_lon": 0.0, "lat": 38.915553833333334, "is_reserved": 0, "type": "electric_scooter", "bike_id": "1a90cd431551fc1f0ec11b3dc633f4f0", "is_disabled": 0, "rental_uris": {"android": "https://dc.lft.to/lastmile_qr_scan", "ios": "https://dc.lft.to/lastmile_qr_scan"}, "lon": -77.04177133333333, "fusion_lat": 0.0}, {"name": "3a680d0d947425611e132e3137c7d4e5", "fusion_lon": 0.0, "lat": 38.925049333333334, "is_reserved": 0, "type": "electric_scooter", "bike_id": "3a680d0d947425611e132e3137c7d4e5", "is_disabled": 0, "rental_uris": {"android": "https://dc.lft.to/lastmile_qr_scan", "ios": "https://dc.lft.to/lastmile_qr_scan"}, "lon": -77.0235455, "fusion_lat": 0.0}, {"name": "1c2b069a3fe1787e44fe82f271b930d7", "fusion_lon": 0.0, "lat": 38.878865, "is_reserved": 0, "type": "electric_bike", "bike_id": "1c2b069a3fe1787e44fe82f271b930d7", "is_disabled": 0, "rental_uris": {"android": "https://dc.lft.to/lastmile_qr_scan", "ios": "https://dc.lft.to/lastmile_qr_scan"}, "lon": -77.096086, "fusion_lat": 0.0}, {"name": "a31a76c9e432fadc78d93e146c21b908", "fusion_lon": 0.0, "lat": 38.91698366666667, "is_reserved": 0, "type": "electric_scooter", "bike_id": "a31a76c9e432fadc78d93e146c21b908", "is_disabled": 0, "rental_uris": {"android": "https://dc.lft.to/lastmile_qr_scan", "ios": "https://dc.lft.to/lastmile_qr_scan"}, "lon": -77.042583, "fusion_lat": 0.0}, {"name": "68ef650916ad6deb357f8786ebc4acfe", "fusion_lon": 0.0, "lat": 38.90320333333333, "is_reserved": 0, "type": "electric_scooter", "bike_id": "68ef650916ad6deb357f8786ebc4acfe", "is_disabled": 0, "rental_uris": {"android": "https://dc.lft.to/lastmile_qr_scan", "ios": "https://dc.lft.to/lastmile_qr_scan"}, "lon": -76.98146883333334, "fusion_lat": 0.0}, {"name": "f6115f3f16f1de2bf1815cbb7d3d3354", "fusion_lon": 0.0, "lat": 38.924609, "is_reserved": 0, "type": "electric_scooter", "bike_id": "f6115f3f16f1de2bf1815cbb7d3d3354", "is_disabled": 0, "rental_uris": {"android": "https://dc.lft.to/lastmile_qr_scan", "ios": "https://dc.lft.to/lastmile_qr_scan"}, "lon": -77.0409925, "fusion_lat": 0.0}, {"name": "1552a2f6536639b7619610172976a230", "fusion_lon": 0.0, "lat": 38.919226, "is_reserved": 0, "type": "electric_scooter", "bike_id": "1552a2f6536639b7619610172976a230", "is_disabled": 0, "rental_uris": {"android": "https://dc.lft.to/lastmile_qr_scan", "ios": "https://dc.lft.to/lastmile_qr_scan"}, "lon": -77.0249355, "fusion_lat": 0.0}, {"name": "0be7b0777ca1bc6dea5c2720aece2077", "fusion_lon": 0.0, "lat": 38.903447666666665, "is_reserved": 0, "type": "electric_scooter", "bike_id": "0be7b0777ca1bc6dea5c2720aece2077", "is_disabled": 0, "rental_uris": {"android": "https://dc.lft.to/lastmile_qr_scan", "ios": "https://dc.lft.to/lastmile_qr_scan"}, "lon": -77.0500235, "fusion_lat": 0.0}, {"name": "b40da67a6004c42f68867557edbf3e45", "fusion_lon": 0.0, "lat": 38.888178833333335, "is_reserved": 0, "type": "electric_scooter", "bike_id": "b40da67a6004c42f68867557edbf3e45", "is_disabled": 0, "rental_uris": {"android": "https://dc.lft.to/lastmile_qr_scan", "ios": "https://dc.lft.to/lastmile_qr_scan"}, "lon": -77.014911, "fusion_lat": 0.0}, {"name": "b0fce14d243bdd26d875ef466fd9178b", "fusion_lon": 0.0, "lat": 38.928685333333334, "is_reserved": 0, "type": "electric_scooter", "bike_id": "b0fce14d243bdd26d875ef466fd9178b", "is_disabled": 0, "rental_uris": {"android": "https://dc.lft.to/lastmile_qr_scan", "ios": "https://dc.lft.to/lastmile_qr_scan"}, "lon": -77.027279, "fusion_lat": 0.0}, {"name": "f71ccaa1b2c7337da1a7849c69c41bee", "fusion_lon": 0.0, "lat": 38.92959166666667, "is_reserved": 0, "type": "electric_scooter", "bike_id": "f71ccaa1b2c7337da1a7849c69c41bee", "is_disabled": 0, "rental_uris": {"android": "https://dc.lft.to/lastmile_qr_scan", "ios": "https://dc.lft.to/lastmile_qr_scan"}, "lon": -77.03268916666667, "fusion_lat": 0.0}, {"name": "9a1e559b79295ad11e6b5b18d19f9e3f", "fusion_lon": 0.0, "lat": 38.91658133333333, "is_reserved": 0, "type": "electric_scooter", "bike_id": "9a1e559b79295ad11e6b5b18d19f9e3f", "is_disabled": 0, "rental_uris": {"android": "https://dc.lft.to/lastmile_qr_scan", "ios": "https://dc.lft.to/lastmile_qr_scan"}, "lon": -77.02970916666666, "fusion_lat": 0.0}, {"name": "124af4385ae75176d4521c243a8441e2", "fusion_lon": 0.0, "lat": 38.855274333333334, "is_reserved": 0, "type": "electric_bike", "bike_id": "124af4385ae75176d4521c243a8441e2", "is_disabled": 0, "rental_uris": {"android": "https://dc.lft.to/lastmile_qr_scan", "ios": "https://dc.lft.to/lastmile_qr_scan"}, "lon": -77.120025, "fusion_lat": 0.0}, {"name": "769fbe1becea24ef6f0b46b0028e8b5b", "fusion_lon": 0.0, "lat": 38.90562383333334, "is_reserved": 0, "type": "electric_scooter", "bike_id": "769fbe1becea24ef6f0b46b0028e8b5b", "is_disabled": 0, "rental_uris": {"android": "https://dc.lft.to/lastmile_qr_scan", "ios": "https://dc.lft.to/lastmile_qr_scan"}, "lon": -77.00575833333333, "fusion_lat": 0.0}, {"name": "774e60258370e44e421e18a5cc1a3cfa", "fusion_lon": 0.0, "lat": 38.919134166666666, "is_reserved": 0, "type": "electric_scooter", "bike_id": "774e60258370e44e421e18a5cc1a3cfa", "is_disabled": 0, "rental_uris": {"android": "https://dc.lft.to/lastmile_qr_scan", "ios": "https://dc.lft.to/lastmile_qr_scan"}, "lon": -77.04458816666667, "fusion_lat": 0.0}, {"name": "598ab1e552d5633ab1847d3f460c4235", "fusion_lon": 0.0, "lat": 38.93935166666667, "is_reserved": 0, "type": "electric_scooter", "bike_id": "598ab1e552d5633ab1847d3f460c4235", "is_disabled": 0, "rental_uris": {"android": "https://dc.lft.to/lastmile_qr_scan", "ios": "https://dc.lft.to/lastmile_qr_scan"}, "lon": -77.0247875, "fusion_lat": 0.0}, {"name": "dcb51fcfdbb0e27a93eed49d2355f996", "fusion_lon": 0.0, "lat": 38.901947, "is_reserved": 0, "type": "electric_scooter", "bike_id": "dcb51fcfdbb0e27a93eed49d2355f996", "is_disabled": 0, "rental_uris": {"android": "https://dc.lft.to/lastmile_qr_scan", "ios": "https://dc.lft.to/lastmile_qr_scan"}, "lon": -77.02160833333333, "fusion_lat": 0.0}, {"name": "306aabdac86af9177522767ccbd22a23", "fusion_lon": 0.0, "lat": 38.886064166666664, "is_reserved": 0, "type": "electric_scooter", "bike_id": "306aabdac86af9177522767ccbd22a23", "is_disabled": 0, "rental_uris": {"android": "https://dc.lft.to/lastmile_qr_scan", "ios": "https://dc.lft.to/lastmile_qr_scan"}, "lon": -76.99510816666667, "fusion_lat": 0.0}, {"name": "eda61458306c51532285c56d6d0ed693", "fusion_lon": 0.0, "lat": 38.9087065, "is_reserved": 0, "type": "electric_scooter", "bike_id": "eda61458306c51532285c56d6d0ed693", "is_disabled": 0, "rental_uris": {"android": "https://dc.lft.to/lastmile_qr_scan", "ios": "https://dc.lft.to/lastmile_qr_scan"}, "lon": -77.02423083333333, "fusion_lat": 0.0}, {"name": "5fabb1f26e623b387b6d1935dedfa7b3", "fusion_lon": 0.0, "lat": 38.91794683333333, "is_reserved": 0, "type": "electric_scooter", "bike_id": "5fabb1f26e623b387b6d1935dedfa7b3", "is_disabled": 0, "rental_uris": {"android": "https://dc.lft.to/lastmile_qr_scan", "ios": "https://dc.lft.to/lastmile_qr_scan"}, "lon": -77.03440866666666, "fusion_lat": 0.0}, {"name": "fb7828774455ed18f02eb5254e78250e", "fusion_lon": 0.0, "lat": 38.993275, "is_reserved": 0, "type": "electric_bike", "bike_id": "fb7828774455ed18f02eb5254e78250e", "is_disabled": 0, "rental_uris": {"android": "https://dc.lft.to/lastmile_qr_scan", "ios": "https://dc.lft.to/lastmile_qr_scan"}, "lon": -76.94613383333333, "fusion_lat": 0.0}, {"name": "cbcc79b2019436720b1e3de8b24ca819", "fusion_lon": 0.0, "lat": 38.8960565, "is_reserved": 0, "type": "electric_scooter", "bike_id": "cbcc79b2019436720b1e3de8b24ca819", "is_disabled": 0, "rental_uris": {"android": "https://dc.lft.to/lastmile_qr_scan", "ios": "https://dc.lft.to/lastmile_qr_scan"}, "lon": -77.04471566666666, "fusion_lat": 0.0}, {"name": "392ef4f9d762634af96e1d6b0af70a4c", "fusion_lon": 0.0, "lat": 38.92037233333333, "is_reserved": 0, "type": "electric_scooter", "bike_id": "392ef4f9d762634af96e1d6b0af70a4c", "is_disabled": 0, "rental_uris": {"android": "https://dc.lft.to/lastmile_qr_scan", "ios": "https://dc.lft.to/lastmile_qr_scan"}, "lon": -77.025839, "fusion_lat": 0.0}, {"name": "7eebffa41c07a1a1ac2d587e8bf85535", "fusion_lon": 0.0, "lat": 38.915596666666666, "is_reserved": 0, "type": "electric_scooter", "bike_id": "7eebffa41c07a1a1ac2d587e8bf85535", "is_disabled": 0, "rental_uris": {"android": "https://dc.lft.to/lastmile_qr_scan", "ios": "https://dc.lft.to/lastmile_qr_scan"}, "lon": -77.0205205, "fusion_lat": 0.0}, {"name": "d07e3126062fd892af12077c720aea8b", "fusion_lon": 0.0, "lat": 38.93399766666667, "is_reserved": 0, "type": "electric_scooter", "bike_id": "d07e3126062fd892af12077c720aea8b", "is_disabled": 0, "rental_uris": {"android": "https://dc.lft.to/lastmile_qr_scan", "ios": "https://dc.lft.to/lastmile_qr_scan"}, "lon": -77.03985116666666, "fusion_lat": 0.0}, {"name": "44f91e644b8bcd58218af9b358a5fe14", "fusion_lon": 0.0, "lat": 38.927249833333335, "is_reserved": 0, "type": "electric_scooter", "bike_id": "44f91e644b8bcd58218af9b358a5fe14", "is_disabled": 0, "rental_uris": {"android": "https://dc.lft.to/lastmile_qr_scan", "ios": "https://dc.lft.to/lastmile_qr_scan"}, "lon": -77.02281116666667, "fusion_lat": 0.0}, {"name": "0c617a1c4bcbeb504b310712004e7725", "fusion_lon": 0.0, "lat": 38.924677333333335, "is_reserved": 0, "type": "electric_scooter", "bike_id": "0c617a1c4bcbeb504b310712004e7725", "is_disabled": 0, "rental_uris": {"android": "https://dc.lft.to/lastmile_qr_scan", "ios": "https://dc.lft.to/lastmile_qr_scan"}, "lon": -77.078282, "fusion_lat": 0.0}, {"name": "db6acac12d6c42861db145a1553119b5", "fusion_lon": 0.0, "lat": 38.929679166666666, "is_reserved": 0, "type": "electric_bike", "bike_id": "db6acac12d6c42861db145a1553119b5", "is_disabled": 0, "rental_uris": {"android": "https://dc.lft.to/lastmile_qr_scan", "ios": "https://dc.lft.to/lastmile_qr_scan"}, "lon": -77.18564333333333, "fusion_lat": 0.0}, {"name": "6a317be749fa45ef8c75b9ce7bb1c2a4", "fusion_lon": 0.0, "lat": 38.88611316666667, "is_reserved": 0, "type": "electric_scooter", "bike_id": "6a317be749fa45ef8c75b9ce7bb1c2a4", "is_disabled": 0, "rental_uris": {"android": "https://dc.lft.to/lastmile_qr_scan", "ios": "https://dc.lft.to/lastmile_qr_scan"}, "lon": -76.99510833333333, "fusion_lat": 0.0}, {"name": "52569d7f9a29657c00c05c29b7da100d", "fusion_lon": 0.0, "lat": 38.92412816666667, "is_reserved": 0, "type": "electric_scooter", "bike_id": "52569d7f9a29657c00c05c29b7da100d", "is_disabled": 0, "rental_uris": {"android": "https://dc.lft.to/lastmile_qr_scan", "ios": "https://dc.lft.to/lastmile_qr_scan"}, "lon": -77.03636516666667, "fusion_lat": 0.0}, {"name": "8d6aa0609a149b732158555a680dca8b", "fusion_lon": 0.0, "lat": 38.90266666666667, "is_reserved": 0, "type": "electric_scooter", "bike_id": "8d6aa0609a149b732158555a680dca8b", "is_disabled": 0, "rental_uris": {"android": "https://dc.lft.to/lastmile_qr_scan", "ios": "https://dc.lft.to/lastmile_qr_scan"}, "lon": -77.05797933333334, "fusion_lat": 0.0}, {"name": "0bf37d8eeaf929c5a967d2e48f02403b", "fusion_lon": 0.0, "lat": 38.94224166666667, "is_reserved": 0, "type": "electric_bike", "bike_id": "0bf37d8eeaf929c5a967d2e48f02403b", "is_disabled": 0, "rental_uris": {"android": "https://dc.lft.to/lastmile_qr_scan", "ios": "https://dc.lft.to/lastmile_qr_scan"}, "lon": -76.96614416666667, "fusion_lat": 0.0}, {"name": "5858d6dd6e918a35a1baf84758e94767", "fusion_lon": 0.0, "lat": 38.93187616666667, "is_reserved": 0, "type": "electric_scooter", "bike_id": "5858d6dd6e918a35a1baf84758e94767", "is_disabled": 0, "rental_uris": {"android": "https://dc.lft.to/lastmile_qr_scan", "ios": "https://dc.lft.to/lastmile_qr_scan"}, "lon": -77.0365605, "fusion_lat": 0.0}, {"name": "c778a592cb34057278acc8baa19ae75c", "fusion_lon": 0.0, "lat": 38.90498766666666, "is_reserved": 0, "type": "electric_scooter", "bike_id": "c778a592cb34057278acc8baa19ae75c", "is_disabled": 0, "rental_uris": {"android": "https://dc.lft.to/lastmile_qr_scan", "ios": "https://dc.lft.to/lastmile_qr_scan"}, "lon": -77.01998183333333, "fusion_lat": 0.0}, {"name": "5b62c37ff0931805202dcb0b799b87d0", "fusion_lon": 0.0, "lat": 39.05501316666667, "is_reserved": 0, "type": "electric_bike", "bike_id": "5b62c37ff0931805202dcb0b799b87d0", "is_disabled": 0, "rental_uris": {"android": "https://dc.lft.to/lastmile_qr_scan", "ios": "https://dc.lft.to/lastmile_qr_scan"}, "lon": -77.04652183333333, "fusion_lat": 0.0}, {"name": "479782e9fb384b11741631c7bdece7a5", "fusion_lon": 0.0, "lat": 38.93316983333333, "is_reserved": 0, "type": "electric_scooter", "bike_id": "479782e9fb384b11741631c7bdece7a5", "is_disabled": 0, "rental_uris": {"android": "https://dc.lft.to/lastmile_qr_scan", "ios": "https://dc.lft.to/lastmile_qr_scan"}, "lon": -77.03437983333333, "fusion_lat": 0.0}, {"name": "1300c1ce547c118139a72b8c5f5d7f41", "fusion_lon": 0.0, "lat": 38.914064, "is_reserved": 0, "type": "electric_scooter", "bike_id": "1300c1ce547c118139a72b8c5f5d7f41", "is_disabled": 0, "rental_uris": {"android": "https://dc.lft.to/lastmile_qr_scan", "ios": "https://dc.lft.to/lastmile_qr_scan"}, "lon": -77.03701933333333, "fusion_lat": 0.0}, {"name": "3e326af4a89f53ceb7e743e428e7fc36", "fusion_lon": 0.0, "lat": 39.05786333333333, "is_reserved": 0, "type": "electric_bike", "bike_id": "3e326af4a89f53ceb7e743e428e7fc36", "is_disabled": 0, "rental_uris": {"android": "https://dc.lft.to/lastmile_qr_scan", "ios": "https://dc.lft.to/lastmile_qr_scan"}, "lon": -77.15022016666667, "fusion_lat": 0.0}, {"name": "d678964d0061b39669eabe8539b743a1", "fusion_lon": 0.0, "lat": 38.844237166666666, "is_reserved": 0, "type": "electric_scooter", "bike_id": "d678964d0061b39669eabe8539b743a1", "is_disabled": 0, "rental_uris": {"android": "https://dc.lft.to/lastmile_qr_scan", "ios": "https://dc.lft.to/lastmile_qr_scan"}, "lon": -76.99779083333334, "fusion_lat": 0.0}, {"name": "5dc7283af43e9438fcdbaf70971fba35", "fusion_lon": 0.0, "lat": 38.90899483333333, "is_reserved": 0, "type": "electric_scooter", "bike_id": "5dc7283af43e9438fcdbaf70971fba35", "is_disabled": 0, "rental_uris": {"android": "https://dc.lft.to/lastmile_qr_scan", "ios": "https://dc.lft.to/lastmile_qr_scan"}, "lon": -77.07272866666666, "fusion_lat": 0.0}, {"name": "5503cb11e9cba65564e157386e76571b", "fusion_lon": 0.0, "lat": 38.837355333333335, "is_reserved": 0, "type": "electric_bike", "bike_id": "5503cb11e9cba65564e157386e76571b", "is_disabled": 0, "rental_uris": {"android": "https://dc.lft.to/lastmile_qr_scan", "ios": "https://dc.lft.to/lastmile_qr_scan"}, "lon": -77.09550033333333, "fusion_lat": 0.0}, {"name": "db62aea64942729798ac53586bea483a", "fusion_lon": 0.0, "lat": 38.90289583333333, "is_reserved": 0, "type": "electric_scooter", "bike_id": "db62aea64942729798ac53586bea483a", "is_disabled": 0, "rental_uris": {"android": "https://dc.lft.to/lastmile_qr_scan", "ios": "https://dc.lft.to/lastmile_qr_scan"}, "lon": -77.05811466666667, "fusion_lat": 0.0}, {"name": "f123cf0fba7c286f6e13605a9ba11675", "fusion_lon": 0.0, "lat": 38.9212135, "is_reserved": 0, "type": "electric_scooter", "bike_id": "f123cf0fba7c286f6e13605a9ba11675", "is_disabled": 0, "rental_uris": {"android": "https://dc.lft.to/lastmile_qr_scan", "ios": "https://dc.lft.to/lastmile_qr_scan"}, "lon": -77.04439866666667, "fusion_lat": 0.0}, {"name": "746c19710b9afd2327158fbe0fe1b3eb", "fusion_lon": 0.0, "lat": 38.90966933333333, "is_reserved": 0, "type": "electric_scooter", "bike_id": "746c19710b9afd2327158fbe0fe1b3eb", "is_disabled": 0, "rental_uris": {"android": "https://dc.lft.to/lastmile_qr_scan", "ios": "https://dc.lft.to/lastmile_qr_scan"}, "lon": -77.04805233333333, "fusion_lat": 0.0}, {"name": "c8b5148931d4bf83e854c4649e1bf466", "fusion_lon": 0.0, "lat": 38.9105425, "is_reserved": 0, "type": "electric_scooter", "bike_id": "c8b5148931d4bf83e854c4649e1bf466", "is_disabled": 0, "rental_uris": {"android": "https://dc.lft.to/lastmile_qr_scan", "ios": "https://dc.lft.to/lastmile_qr_scan"}, "lon": -77.0410115, "fusion_lat": 0.0}, {"name": "d40db1d9c5c218ccf4baaeaab656d901", "fusion_lon": 0.0, "lat": 38.92334183333333, "is_reserved": 0, "type": "electric_scooter", "bike_id": "d40db1d9c5c218ccf4baaeaab656d901", "is_disabled": 0, "rental_uris": {"android": "https://dc.lft.to/lastmile_qr_scan", "ios": "https://dc.lft.to/lastmile_qr_scan"}, "lon": -77.021235, "fusion_lat": 0.0}, {"name": "247786f3c3cbd2495e56399ca7e5b37c", "fusion_lon": 0.0, "lat": 38.93674866666667, "is_reserved": 0, "type": "electric_scooter", "bike_id": "247786f3c3cbd2495e56399ca7e5b37c", "is_disabled": 0, "rental_uris": {"android": "https://dc.lft.to/lastmile_qr_scan", "ios": "https://dc.lft.to/lastmile_qr_scan"}, "lon": -77.03277466666667, "fusion_lat": 0.0}, {"name": "e2b5c058623ce7e2bd4307036ed07686", "fusion_lon": 0.0, "lat": 38.900588166666665, "is_reserved": 0, "type": "electric_scooter", "bike_id": "e2b5c058623ce7e2bd4307036ed07686", "is_disabled": 0, "rental_uris": {"android": "https://dc.lft.to/lastmile_qr_scan", "ios": "https://dc.lft.to/lastmile_qr_scan"}, "lon": -76.93469533333334, "fusion_lat": 0.0}, {"name": "db754b68127a02d8c57ffb72cce845eb", "fusion_lon": 0.0, "lat": 38.856865, "is_reserved": 0, "type": "electric_scooter", "bike_id": "db754b68127a02d8c57ffb72cce845eb", "is_disabled": 0, "rental_uris": {"android": "https://dc.lft.to/lastmile_qr_scan", "ios": "https://dc.lft.to/lastmile_qr_scan"}, "lon": -76.98968566666667, "fusion_lat": 0.0}, {"name": "e253792a12bd560016f0f5346d45b57c", "fusion_lon": 0.0, "lat": 38.93012566666667, "is_reserved": 0, "type": "electric_scooter", "bike_id": "e253792a12bd560016f0f5346d45b57c", "is_disabled": 0, "rental_uris": {"android": "https://dc.lft.to/lastmile_qr_scan", "ios": "https://dc.lft.to/lastmile_qr_scan"}, "lon": -77.01433483333334, "fusion_lat": 0.0}, {"name": "13fbeef98b412bf448abc1871242ebb9", "fusion_lon": 0.0, "lat": 38.924538166666665, "is_reserved": 0, "type": "electric_scooter", "bike_id": "13fbeef98b412bf448abc1871242ebb9", "is_disabled": 0, "rental_uris": {"android": "https://dc.lft.to/lastmile_qr_scan", "ios": "https://dc.lft.to/lastmile_qr_scan"}, "lon": -77.040044, "fusion_lat": 0.0}, {"name": "df747e3a71c6a7433aee337f89630fdf", "fusion_lon": 0.0, "lat": 38.95943366666667, "is_reserved": 0, "type": "electric_scooter", "bike_id": "df747e3a71c6a7433aee337f89630fdf", "is_disabled": 0, "rental_uris": {"android": "https://dc.lft.to/lastmile_qr_scan", "ios": "https://dc.lft.to/lastmile_qr_scan"}, "lon": -77.0305005, "fusion_lat": 0.0}, {"name": "597adc74933d6ea7aa0ae21b1e760911", "fusion_lon": 0.0, "lat": 38.90758133333333, "is_reserved": 0, "type": "electric_scooter", "bike_id": "597adc74933d6ea7aa0ae21b1e760911", "is_disabled": 0, "rental_uris": {"android": "https://dc.lft.to/lastmile_qr_scan", "ios": "https://dc.lft.to/lastmile_qr_scan"}, "lon": -77.00236616666666, "fusion_lat": 0.0}, {"name": "bbb6ea53017a32d422b4bc99f34b5e08", "fusion_lon": 0.0, "lat": 38.905045333333334, "is_reserved": 0, "type": "electric_scooter", "bike_id": "bbb6ea53017a32d422b4bc99f34b5e08", "is_disabled": 0, "rental_uris": {"android": "https://dc.lft.to/lastmile_qr_scan", "ios": "https://dc.lft.to/lastmile_qr_scan"}, "lon": -77.0295355, "fusion_lat": 0.0}, {"name": "8f6230992e521a55090cb75fb755a1cb", "fusion_lon": 0.0, "lat": 38.956529, "is_reserved": 0, "type": "electric_bike", "bike_id": "8f6230992e521a55090cb75fb755a1cb", "is_disabled": 0, "rental_uris": {"android": "https://dc.lft.to/lastmile_qr_scan", "ios": "https://dc.lft.to/lastmile_qr_scan"}, "lon": -77.0127625, "fusion_lat": 0.0}, {"name": "20994aca6e07243f90d9b2880380bbcc", "fusion_lon": 0.0, "lat": 38.90085416666667, "is_reserved": 0, "type": "electric_scooter", "bike_id": "20994aca6e07243f90d9b2880380bbcc", "is_disabled": 0, "rental_uris": {"android": "https://dc.lft.to/lastmile_qr_scan", "ios": "https://dc.lft.to/lastmile_qr_scan"}, "lon": -76.93020233333333, "fusion_lat": 0.0}, {"name": "9f9ad6b16ae396adf296413d379c9b48", "fusion_lon": 0.0, "lat": 38.9297505, "is_reserved": 0, "type": "electric_scooter", "bike_id": "9f9ad6b16ae396adf296413d379c9b48", "is_disabled": 0, "rental_uris": {"android": "https://dc.lft.to/lastmile_qr_scan", "ios": "https://dc.lft.to/lastmile_qr_scan"}, "lon": -77.01308433333334, "fusion_lat": 0.0}, {"name": "6041665cff0ecb27c5475e7f123231e3", "fusion_lon": 0.0, "lat": 38.926523333333336, "is_reserved": 0, "type": "electric_scooter", "bike_id": "6041665cff0ecb27c5475e7f123231e3", "is_disabled": 0, "rental_uris": {"android": "https://dc.lft.to/lastmile_qr_scan", "ios": "https://dc.lft.to/lastmile_qr_scan"}, "lon": -77.03706716666667, "fusion_lat": 0.0}, {"name": "279ef99ead9d1f3167ebdabc4b69b615", "fusion_lon": 0.0, "lat": 38.9003585, "is_reserved": 0, "type": "electric_scooter", "bike_id": "279ef99ead9d1f3167ebdabc4b69b615", "is_disabled": 0, "rental_uris": {"android": "https://dc.lft.to/lastmile_qr_scan", "ios": "https://dc.lft.to/lastmile_qr_scan"}, "lon": -77.002175, "fusion_lat": 0.0}, {"name": "4cc53c37c1c6995f31b84ab4981f62fd", "fusion_lon": 0.0, "lat": 38.918162333333335, "is_reserved": 0, "type": "electric_scooter", "bike_id": "4cc53c37c1c6995f31b84ab4981f62fd", "is_disabled": 0, "rental_uris": {"android": "https://dc.lft.to/lastmile_qr_scan", "ios": "https://dc.lft.to/lastmile_qr_scan"}, "lon": -77.03662233333333, "fusion_lat": 0.0}, {"name": "8c3d58c0646fe6048177aa54f3db841e", "fusion_lon": 0.0, "lat": 38.89867516666666, "is_reserved": 0, "type": "electric_scooter", "bike_id": "8c3d58c0646fe6048177aa54f3db841e", "is_disabled": 0, "rental_uris": {"android": "https://dc.lft.to/lastmile_qr_scan", "ios": "https://dc.lft.to/lastmile_qr_scan"}, "lon": -76.92755383333333, "fusion_lat": 0.0}, {"name": "86287924c2468de394e5ad1f9cb88483", "fusion_lon": 0.0, "lat": 38.85538666666667, "is_reserved": 0, "type": "electric_scooter", "bike_id": "86287924c2468de394e5ad1f9cb88483", "is_disabled": 0, "rental_uris": {"android": "https://dc.lft.to/lastmile_qr_scan", "ios": "https://dc.lft.to/lastmile_qr_scan"}, "lon": -76.98419366666667, "fusion_lat": 0.0}, {"name": "71c9defaaee1af57f6762c8136505537", "fusion_lon": 0.0, "lat": 38.93116633333333, "is_reserved": 0, "type": "electric_scooter", "bike_id": "71c9defaaee1af57f6762c8136505537", "is_disabled": 0, "rental_uris": {"android": "https://dc.lft.to/lastmile_qr_scan", "ios": "https://dc.lft.to/lastmile_qr_scan"}, "lon": -77.02094533333333, "fusion_lat": 0.0}, {"name": "32c7df85b628e49a293258fcfb9d8424", "fusion_lon": 0.0, "lat": 38.8801975, "is_reserved": 0, "type": "electric_scooter", "bike_id": "32c7df85b628e49a293258fcfb9d8424", "is_disabled": 0, "rental_uris": {"android": "https://dc.lft.to/lastmile_qr_scan", "ios": "https://dc.lft.to/lastmile_qr_scan"}, "lon": -76.93113833333334, "fusion_lat": 0.0}, {"name": "ecb0b43225943ec120ef89edcc92f7f7", "fusion_lon": 0.0, "lat": 38.9109195, "is_reserved": 0, "type": "electric_scooter", "bike_id": "ecb0b43225943ec120ef89edcc92f7f7", "is_disabled": 0, "rental_uris": {"android": "https://dc.lft.to/lastmile_qr_scan", "ios": "https://dc.lft.to/lastmile_qr_scan"}, "lon": -77.073755, "fusion_lat": 0.0}, {"name": "ad1726fe080eba91a1fb4d5ffae0edab", "fusion_lon": 0.0, "lat": 38.902167666666664, "is_reserved": 0, "type": "electric_scooter", "bike_id": "ad1726fe080eba91a1fb4d5ffae0edab", "is_disabled": 0, "rental_uris": {"android": "https://dc.lft.to/lastmile_qr_scan", "ios": "https://dc.lft.to/lastmile_qr_scan"}, "lon": -77.02156266666667, "fusion_lat": 0.0}, {"name": "111ebfa74d818f6f8d22688fa4d25e86", "fusion_lon": 0.0, "lat": 38.90010566666667, "is_reserved": 0, "type": "electric_scooter", "bike_id": "111ebfa74d818f6f8d22688fa4d25e86", "is_disabled": 0, "rental_uris": {"android": "https://dc.lft.to/lastmile_qr_scan", "ios": "https://dc.lft.to/lastmile_qr_scan"}, "lon": -77.00139816666666, "fusion_lat": 0.0}, {"name": "63ab26a6bedbed85b23387d0abdb953c", "fusion_lon": 0.0, "lat": 38.86945683333333, "is_reserved": 0, "type": "electric_bike", "bike_id": "63ab26a6bedbed85b23387d0abdb953c", "is_disabled": 0, "rental_uris": {"android": "https://dc.lft.to/lastmile_qr_scan", "ios": "https://dc.lft.to/lastmile_qr_scan"}, "lon": -77.01230983333333, "fusion_lat": 0.0}, {"name": "1f043af25f01516fba2c2d866c361770", "fusion_lon": 0.0, "lat": 38.9208055, "is_reserved": 0, "type": "electric_scooter", "bike_id": "1f043af25f01516fba2c2d866c361770", "is_disabled": 0, "rental_uris": {"android": "https://dc.lft.to/lastmile_qr_scan", "ios": "https://dc.lft.to/lastmile_qr_scan"}, "lon": -77.03456766666666, "fusion_lat": 0.0}, {"name": "2e06fec2a4242c1bc7cb90684dda0ff9", "fusion_lon": 0.0, "lat": 38.908514833333335, "is_reserved": 0, "type": "electric_scooter", "bike_id": "2e06fec2a4242c1bc7cb90684dda0ff9", "is_disabled": 0, "rental_uris": {"android": "https://dc.lft.to/lastmile_qr_scan", "ios": "https://dc.lft.to/lastmile_qr_scan"}, "lon": -77.010141, "fusion_lat": 0.0}, {"name": "3eed6b58fe7f8929b18c3c203d33a162", "fusion_lon": 0.0, "lat": 38.900819166666665, "is_reserved": 0, "type": "electric_scooter", "bike_id": "3eed6b58fe7f8929b18c3c203d33a162", "is_disabled": 0, "rental_uris": {"android": "https://dc.lft.to/lastmile_qr_scan", "ios": "https://dc.lft.to/lastmile_qr_scan"}, "lon": -77.0502445, "fusion_lat": 0.0}, {"name": "23bc03e99b6289a5154506862c9f7bbd", "fusion_lon": 0.0, "lat": 38.9388975, "is_reserved": 0, "type": "electric_scooter", "bike_id": "23bc03e99b6289a5154506862c9f7bbd", "is_disabled": 0, "rental_uris": {"android": "https://dc.lft.to/lastmile_qr_scan", "ios": "https://dc.lft.to/lastmile_qr_scan"}, "lon": -77.024929, "fusion_lat": 0.0}, {"name": "b0f907801d2bc7ff741cd76753d436f1", "fusion_lon": 0.0, "lat": 38.895449666666664, "is_reserved": 0, "type": "electric_scooter", "bike_id": "b0f907801d2bc7ff741cd76753d436f1", "is_disabled": 0, "rental_uris": {"android": "https://dc.lft.to/lastmile_qr_scan", "ios": "https://dc.lft.to/lastmile_qr_scan"}, "lon": -77.056575, "fusion_lat": 0.0}, {"name": "842bbdac4ede725f969f7be7c294890d", "fusion_lon": 0.0, "lat": 38.903354, "is_reserved": 0, "type": "electric_scooter", "bike_id": "842bbdac4ede725f969f7be7c294890d", "is_disabled": 0, "rental_uris": {"android": "https://dc.lft.to/lastmile_qr_scan", "ios": "https://dc.lft.to/lastmile_qr_scan"}, "lon": -77.027137, "fusion_lat": 0.0}, {"name": "04a1837f21564bd5d94acd459635aaca", "fusion_lon": 0.0, "lat": 38.89593433333334, "is_reserved": 0, "type": "electric_scooter", "bike_id": "04a1837f21564bd5d94acd459635aaca", "is_disabled": 0, "rental_uris": {"android": "https://dc.lft.to/lastmile_qr_scan", "ios": "https://dc.lft.to/lastmile_qr_scan"}, "lon": -77.00770266666666, "fusion_lat": 0.0}, {"name": "1254511ad6240e169489dd9a4ced5e2e", "fusion_lon": 0.0, "lat": 38.93762233333333, "is_reserved": 0, "type": "electric_scooter", "bike_id": "1254511ad6240e169489dd9a4ced5e2e", "is_disabled": 0, "rental_uris": {"android": "https://dc.lft.to/lastmile_qr_scan", "ios": "https://dc.lft.to/lastmile_qr_scan"}, "lon": -77.02518116666667, "fusion_lat": 0.0}, {"name": "f3af8acdf3ee38d01f8977fb12d83c74", "fusion_lon": 0.0, "lat": 38.961467, "is_reserved": 0, "type": "electric_scooter", "bike_id": "f3af8acdf3ee38d01f8977fb12d83c74", "is_disabled": 0, "rental_uris": {"android": "https://dc.lft.to/lastmile_qr_scan", "ios": "https://dc.lft.to/lastmile_qr_scan"}, "lon": -77.0323085, "fusion_lat": 0.0}, {"name": "54ab4997121914d3b71cba16c38e98f1", "fusion_lon": 0.0, "lat": 38.905762333333335, "is_reserved": 0, "type": "electric_scooter", "bike_id": "54ab4997121914d3b71cba16c38e98f1", "is_disabled": 0, "rental_uris": {"android": "https://dc.lft.to/lastmile_qr_scan", "ios": "https://dc.lft.to/lastmile_qr_scan"}, "lon": -77.00711716666666, "fusion_lat": 0.0}, {"name": "b6a0eda18f455c60f1fcd38c1ab8562d", "fusion_lon": 0.0, "lat": 38.910386, "is_reserved": 0, "type": "electric_scooter", "bike_id": "b6a0eda18f455c60f1fcd38c1ab8562d", "is_disabled": 0, "rental_uris": {"android": "https://dc.lft.to/lastmile_qr_scan", "ios": "https://dc.lft.to/lastmile_qr_scan"}, "lon": -77.01334083333333, "fusion_lat": 0.0}, {"name": "d9d5d33959256a7ccee3451b31d9044c", "fusion_lon": 0.0, "lat": 38.90491433333333, "is_reserved": 0, "type": "electric_scooter", "bike_id": "d9d5d33959256a7ccee3451b31d9044c", "is_disabled": 0, "rental_uris": {"android": "https://dc.lft.to/lastmile_qr_scan", "ios": "https://dc.lft.to/lastmile_qr_scan"}, "lon": -77.025983, "fusion_lat": 0.0}, {"name": "e64976e629a9d4d5652b9476bfaeaf00", "fusion_lon": 0.0, "lat": 38.90512666666667, "is_reserved": 0, "type": "electric_scooter", "bike_id": "e64976e629a9d4d5652b9476bfaeaf00", "is_disabled": 0, "rental_uris": {"android": "https://dc.lft.to/lastmile_qr_scan", "ios": "https://dc.lft.to/lastmile_qr_scan"}, "lon": -77.0013405, "fusion_lat": 0.0}, {"name": "227ad389322a13f65ea41ed2b34c0f70", "fusion_lon": 0.0, "lat": 38.923575666666665, "is_reserved": 0, "type": "electric_scooter", "bike_id": "227ad389322a13f65ea41ed2b34c0f70", "is_disabled": 0, "rental_uris": {"android": "https://dc.lft.to/lastmile_qr_scan", "ios": "https://dc.lft.to/lastmile_qr_scan"}, "lon": -77.04159233333333, "fusion_lat": 0.0}, {"name": "63b95d84a04719212933e4b9d84e5a74", "fusion_lon": 0.0, "lat": 38.90373066666667, "is_reserved": 0, "type": "electric_scooter", "bike_id": "63b95d84a04719212933e4b9d84e5a74", "is_disabled": 0, "rental_uris": {"android": "https://dc.lft.to/lastmile_qr_scan", "ios": "https://dc.lft.to/lastmile_qr_scan"}, "lon": -77.025739, "fusion_lat": 0.0}, {"name": "6cb7a6ff8511e2b9ccf563970a956117", "fusion_lon": 0.0, "lat": 38.89774933333333, "is_reserved": 0, "type": "electric_scooter", "bike_id": "6cb7a6ff8511e2b9ccf563970a956117", "is_disabled": 0, "rental_uris": {"android": "https://dc.lft.to/lastmile_qr_scan", "ios": "https://dc.lft.to/lastmile_qr_scan"}, "lon": -77.051574, "fusion_lat": 0.0}, {"name": "31be89038edf4d7f247dc35acad8bdce", "fusion_lon": 0.0, "lat": 38.8768075, "is_reserved": 0, "type": "electric_scooter", "bike_id": "31be89038edf4d7f247dc35acad8bdce", "is_disabled": 0, "rental_uris": {"android": "https://dc.lft.to/lastmile_qr_scan", "ios": "https://dc.lft.to/lastmile_qr_scan"}, "lon": -76.99825066666666, "fusion_lat": 0.0}, {"name": "703a16a2bfeb13a32967c49006eeaf6d", "fusion_lon": 0.0, "lat": 39.03993466666667, "is_reserved": 0, "type": "electric_bike", "bike_id": "703a16a2bfeb13a32967c49006eeaf6d", "is_disabled": 0, "rental_uris": {"android": "https://dc.lft.to/lastmile_qr_scan", "ios": "https://dc.lft.to/lastmile_qr_scan"}, "lon": -76.99926233333333, "fusion_lat": 0.0}, {"name": "54bd3296b42f3b52bef671b805266551", "fusion_lon": 0.0, "lat": 38.9355215, "is_reserved": 0, "type": "electric_scooter", "bike_id": "54bd3296b42f3b52bef671b805266551", "is_disabled": 0, "rental_uris": {"android": "https://dc.lft.to/lastmile_qr_scan", "ios": "https://dc.lft.to/lastmile_qr_scan"}, "lon": -77.058563, "fusion_lat": 0.0}, {"name": "bfdeff2052ef60730f864e2410c5874d", "fusion_lon": 0.0, "lat": 38.924603166666664, "is_reserved": 0, "type": "electric_scooter", "bike_id": "bfdeff2052ef60730f864e2410c5874d", "is_disabled": 0, "rental_uris": {"android": "https://dc.lft.to/lastmile_qr_scan", "ios": "https://dc.lft.to/lastmile_qr_scan"}, "lon": -77.027104, "fusion_lat": 0.0}, {"name": "3f9dab4cc29d34fee770fd6cba56c801", "fusion_lon": 0.0, "lat": 38.88748833333333, "is_reserved": 0, "type": "electric_scooter", "bike_id": "3f9dab4cc29d34fee770fd6cba56c801", "is_disabled": 0, "rental_uris": {"android": "https://dc.lft.to/lastmile_qr_scan", "ios": "https://dc.lft.to/lastmile_qr_scan"}, "lon": -77.02842166666667, "fusion_lat": 0.0}, {"name": "3065c3f76e55761833117642460b444f", "fusion_lon": 0.0, "lat": 38.9222825, "is_reserved": 0, "type": "electric_scooter", "bike_id": "3065c3f76e55761833117642460b444f", "is_disabled": 0, "rental_uris": {"android": "https://dc.lft.to/lastmile_qr_scan", "ios": "https://dc.lft.to/lastmile_qr_scan"}, "lon": -77.0449105, "fusion_lat": 0.0}, {"name": "1e423026593f1493ab7c764530bb7105", "fusion_lon": 0.0, "lat": 38.92703816666667, "is_reserved": 0, "type": "electric_scooter", "bike_id": "1e423026593f1493ab7c764530bb7105", "is_disabled": 0, "rental_uris": {"android": "https://dc.lft.to/lastmile_qr_scan", "ios": "https://dc.lft.to/lastmile_qr_scan"}, "lon": -77.02105533333334, "fusion_lat": 0.0}, {"name": "7184a4d731ec26e5a9a8485fccee3ed7", "fusion_lon": 0.0, "lat": 38.91268766666666, "is_reserved": 0, "type": "electric_scooter", "bike_id": "7184a4d731ec26e5a9a8485fccee3ed7", "is_disabled": 0, "rental_uris": {"android": "https://dc.lft.to/lastmile_qr_scan", "ios": "https://dc.lft.to/lastmile_qr_scan"}, "lon": -77.03824933333334, "fusion_lat": 0.0}, {"name": "36d9b63fe2b9e9de8552532094936250", "fusion_lon": 0.0, "lat": 38.89720783333333, "is_reserved": 0, "type": "electric_scooter", "bike_id": "36d9b63fe2b9e9de8552532094936250", "is_disabled": 0, "rental_uris": {"android": "https://dc.lft.to/lastmile_qr_scan", "ios": "https://dc.lft.to/lastmile_qr_scan"}, "lon": -77.02157116666666, "fusion_lat": 0.0}, {"name": "a7482568e1c30c5e48dc2328cc9de15b", "fusion_lon": 0.0, "lat": 38.918063833333335, "is_reserved": 0, "type": "electric_scooter", "bike_id": "a7482568e1c30c5e48dc2328cc9de15b", "is_disabled": 0, "rental_uris": {"android": "https://dc.lft.to/lastmile_qr_scan", "ios": "https://dc.lft.to/lastmile_qr_scan"}, "lon": -77.03433183333334, "fusion_lat": 0.0}, {"name": "95cff1be0fcc29dafa8bf92671cf5347", "fusion_lon": 0.0, "lat": 38.9203365, "is_reserved": 0, "type": "electric_scooter", "bike_id": "95cff1be0fcc29dafa8bf92671cf5347", "is_disabled": 0, "rental_uris": {"android": "https://dc.lft.to/lastmile_qr_scan", "ios": "https://dc.lft.to/lastmile_qr_scan"}, "lon": -77.03145316666667, "fusion_lat": 0.0}, {"name": "a2d5bc475312368027de47f06d85f526", "fusion_lon": 0.0, "lat": 38.90108016666667, "is_reserved": 0, "type": "electric_scooter", "bike_id": "a2d5bc475312368027de47f06d85f526", "is_disabled": 0, "rental_uris": {"android": "https://dc.lft.to/lastmile_qr_scan", "ios": "https://dc.lft.to/lastmile_qr_scan"}, "lon": -77.04975166666667, "fusion_lat": 0.0}, {"name": "6431431810f3048bec06286072a6570c", "fusion_lon": 0.0, "lat": 38.91136433333333, "is_reserved": 0, "type": "electric_scooter", "bike_id": "6431431810f3048bec06286072a6570c", "is_disabled": 0, "rental_uris": {"android": "https://dc.lft.to/lastmile_qr_scan", "ios": "https://dc.lft.to/lastmile_qr_scan"}, "lon": -77.065333, "fusion_lat": 0.0}, {"name": "d8da9b29e232fdc69cb80d66afc3b1f9", "fusion_lon": 0.0, "lat": 38.91570466666667, "is_reserved": 0, "type": "electric_scooter", "bike_id": "d8da9b29e232fdc69cb80d66afc3b1f9", "is_disabled": 0, "rental_uris": {"android": "https://dc.lft.to/lastmile_qr_scan", "ios": "https://dc.lft.to/lastmile_qr_scan"}, "lon": -77.0428415, "fusion_lat": 0.0}, {"name": "45eb71261cd5a4693daf3d2cddae05aa", "fusion_lon": 0.0, "lat": 38.892886833333336, "is_reserved": 0, "type": "electric_bike", "bike_id": "45eb71261cd5a4693daf3d2cddae05aa", "is_disabled": 0, "rental_uris": {"android": "https://dc.lft.to/lastmile_qr_scan", "ios": "https://dc.lft.to/lastmile_qr_scan"}, "lon": -76.97619616666667, "fusion_lat": 0.0}, {"name": "6248853336201561e0c72d5c8dc11efe", "fusion_lon": 0.0, "lat": 38.90573033333333, "is_reserved": 0, "type": "electric_scooter", "bike_id": "6248853336201561e0c72d5c8dc11efe", "is_disabled": 0, "rental_uris": {"android": "https://dc.lft.to/lastmile_qr_scan", "ios": "https://dc.lft.to/lastmile_qr_scan"}, "lon": -77.034378, "fusion_lat": 0.0}, {"name": "a577c601b2a02ab6d57e73785e3cbdf6", "fusion_lon": 0.0, "lat": 38.91774366666667, "is_reserved": 0, "type": "electric_scooter", "bike_id": "a577c601b2a02ab6d57e73785e3cbdf6", "is_disabled": 0, "rental_uris": {"android": "https://dc.lft.to/lastmile_qr_scan", "ios": "https://dc.lft.to/lastmile_qr_scan"}, "lon": -77.01494016666666, "fusion_lat": 0.0}, {"name": "679ee730481a4050cf03767057991ac8", "fusion_lon": 0.0, "lat": 38.8849075, "is_reserved": 0, "type": "electric_scooter", "bike_id": "679ee730481a4050cf03767057991ac8", "is_disabled": 0, "rental_uris": {"android": "https://dc.lft.to/lastmile_qr_scan", "ios": "https://dc.lft.to/lastmile_qr_scan"}, "lon": -77.007073, "fusion_lat": 0.0}, {"name": "72b84840f367a747ca733b15143e2c24", "fusion_lon": 0.0, "lat": 38.9140375, "is_reserved": 0, "type": "electric_scooter", "bike_id": "72b84840f367a747ca733b15143e2c24", "is_disabled": 0, "rental_uris": {"android": "https://dc.lft.to/lastmile_qr_scan", "ios": "https://dc.lft.to/lastmile_qr_scan"}, "lon": -77.00190033333334, "fusion_lat": 0.0}, {"name": "53ffe876a432bfd54d6f10bb712a374e", "fusion_lon": 0.0, "lat": 38.903870166666664, "is_reserved": 0, "type": "electric_scooter", "bike_id": "53ffe876a432bfd54d6f10bb712a374e", "is_disabled": 0, "rental_uris": {"android": "https://dc.lft.to/lastmile_qr_scan", "ios": "https://dc.lft.to/lastmile_qr_scan"}, "lon": -77.03823283333334, "fusion_lat": 0.0}, {"name": "340b42e34461b1d4295e9ff3c26edbd1", "fusion_lon": 0.0, "lat": 38.863541833333336, "is_reserved": 0, "type": "electric_scooter", "bike_id": "340b42e34461b1d4295e9ff3c26edbd1", "is_disabled": 0, "rental_uris": {"android": "https://dc.lft.to/lastmile_qr_scan", "ios": "https://dc.lft.to/lastmile_qr_scan"}, "lon": -76.98702783333333, "fusion_lat": 0.0}, {"name": "0f4e07bd016a63163825a2af4bd262f2", "fusion_lon": 0.0, "lat": 38.900324833333336, "is_reserved": 0, "type": "electric_scooter", "bike_id": "0f4e07bd016a63163825a2af4bd262f2", "is_disabled": 0, "rental_uris": {"android": "https://dc.lft.to/lastmile_qr_scan", "ios": "https://dc.lft.to/lastmile_qr_scan"}, "lon": -77.01185283333334, "fusion_lat": 0.0}, {"name": "ce653ae378886128875a0c5c8e84c7c2", "fusion_lon": 0.0, "lat": 38.887283, "is_reserved": 0, "type": "electric_scooter", "bike_id": "ce653ae378886128875a0c5c8e84c7c2", "is_disabled": 0, "rental_uris": {"android": "https://dc.lft.to/lastmile_qr_scan", "ios": "https://dc.lft.to/lastmile_qr_scan"}, "lon": -77.0282075, "fusion_lat": 0.0}, {"name": "326fc3f5ab5a2cc43387ab8c0b4ecc87", "fusion_lon": 0.0, "lat": 38.91519983333333, "is_reserved": 0, "type": "electric_scooter", "bike_id": "326fc3f5ab5a2cc43387ab8c0b4ecc87", "is_disabled": 0, "rental_uris": {"android": "https://dc.lft.to/lastmile_qr_scan", "ios": "https://dc.lft.to/lastmile_qr_scan"}, "lon": -77.0318355, "fusion_lat": 0.0}, {"name": "cf78a63fd0da172457efb8d55025cf66", "fusion_lon": 0.0, "lat": 38.880591333333335, "is_reserved": 0, "type": "electric_bike", "bike_id": "cf78a63fd0da172457efb8d55025cf66", "is_disabled": 0, "rental_uris": {"android": "https://dc.lft.to/lastmile_qr_scan", "ios": "https://dc.lft.to/lastmile_qr_scan"}, "lon": -76.96234766666667, "fusion_lat": 0.0}, {"name": "0b54b895c0d6d270bde38720adf8f20e", "fusion_lon": 0.0, "lat": 38.906053166666666, "is_reserved": 0, "type": "electric_scooter", "bike_id": "0b54b895c0d6d270bde38720adf8f20e", "is_disabled": 0, "rental_uris": {"android": "https://dc.lft.to/lastmile_qr_scan", "ios": "https://dc.lft.to/lastmile_qr_scan"}, "lon": -77.05690783333333, "fusion_lat": 0.0}, {"name": "b69de70e35771b962299185b2c935123", "fusion_lon": 0.0, "lat": 38.885168666666665, "is_reserved": 0, "type": "electric_scooter", "bike_id": "b69de70e35771b962299185b2c935123", "is_disabled": 0, "rental_uris": {"android": "https://dc.lft.to/lastmile_qr_scan", "ios": "https://dc.lft.to/lastmile_qr_scan"}, "lon": -77.005643, "fusion_lat": 0.0}, {"name": "03dda1ebcd82546b2c169b2a81cb672c", "fusion_lon": 0.0, "lat": 38.869524, "is_reserved": 0, "type": "electric_scooter", "bike_id": "03dda1ebcd82546b2c169b2a81cb672c", "is_disabled": 0, "rental_uris": {"android": "https://dc.lft.to/lastmile_qr_scan", "ios": "https://dc.lft.to/lastmile_qr_scan"}, "lon": -76.98171283333333, "fusion_lat": 0.0}, {"name": "69cd48d48ee5a8c779852e5a97848a5b", "fusion_lon": 0.0, "lat": 38.8932665, "is_reserved": 0, "type": "electric_scooter", "bike_id": "69cd48d48ee5a8c779852e5a97848a5b", "is_disabled": 0, "rental_uris": {"android": "https://dc.lft.to/lastmile_qr_scan", "ios": "https://dc.lft.to/lastmile_qr_scan"}, "lon": -77.04875816666667, "fusion_lat": 0.0}, {"name": "25cab0c80fd9d72abe5fb4d9875a9262", "fusion_lon": 0.0, "lat": 38.92403816666667, "is_reserved": 0, "type": "electric_scooter", "bike_id": "25cab0c80fd9d72abe5fb4d9875a9262", "is_disabled": 0, "rental_uris": {"android": "https://dc.lft.to/lastmile_qr_scan", "ios": "https://dc.lft.to/lastmile_qr_scan"}, "lon": -77.02140116666666, "fusion_lat": 0.0}, {"name": "fc588e5ad3d6221ac193754d1f3ba8cb", "fusion_lon": 0.0, "lat": 38.9160985, "is_reserved": 0, "type": "electric_scooter", "bike_id": "fc588e5ad3d6221ac193754d1f3ba8cb", "is_disabled": 0, "rental_uris": {"android": "https://dc.lft.to/lastmile_qr_scan", "ios": "https://dc.lft.to/lastmile_qr_scan"}, "lon": -77.04844183333333, "fusion_lat": 0.0}, {"name": "c9625b3627f4615667b68e96c22f41ac", "fusion_lon": 0.0, "lat": 38.910162666666665, "is_reserved": 0, "type": "electric_bike", "bike_id": "c9625b3627f4615667b68e96c22f41ac", "is_disabled": 0, "rental_uris": {"android": "https://dc.lft.to/lastmile_qr_scan", "ios": "https://dc.lft.to/lastmile_qr_scan"}, "lon": -77.22796583333333, "fusion_lat": 0.0}, {"name": "ed056e52273f1d405d8b4b7378607c37", "fusion_lon": 0.0, "lat": 38.92310633333334, "is_reserved": 0, "type": "electric_scooter", "bike_id": "ed056e52273f1d405d8b4b7378607c37", "is_disabled": 0, "rental_uris": {"android": "https://dc.lft.to/lastmile_qr_scan", "ios": "https://dc.lft.to/lastmile_qr_scan"}, "lon": -77.02753466666667, "fusion_lat": 0.0},