{"data": {"bikes": [{"type": "electric_scooter", "fusion_lon": 0.0, "bike_id": "1bbf8d19b26ba0ebc04750761da351f9", "is_disabled": 0, "lat": 38.926473, "rental_uris": {"ios": "https://dc.lft.to/lastmile_qr_scan", "android": "https://dc.lft.to/lastmile_qr_scan"}, "is_reserved": 0, "lon": -77.037281, "fusion_lat": 0.0, "name": "1bbf8d19b26ba0ebc04750761da351f9"}, {"type": "electric_scooter", "fusion_lon": 0.0, "bike_id": "23906d3c915268d17239cdc1f3e82173", "is_disabled": 0, "lat": 38.874578666666665, "rental_uris": {"ios": "https://dc.lft.to/lastmile_qr_scan", "android": "https://dc.lft.to/lastmile_qr_scan"}, "is_reserved": 0, "lon": -77.005663, "fusion_lat": 0.0, "name": "23906d3c915268d17239cdc1f3e82173"}, {"type": "electric_scooter", "fusion_lon": 0.0, "bike_id": "26f6ffd448284fede1758d00c2dfdec6", "is_disabled": 0, "lat": 38.89225666666667, "rental_uris": {"ios": "https://dc.lft.to/lastmile_qr_scan", "android": "https://dc.lft.to/lastmile_qr_scan"}, "is_reserved": 0, "lon": -77.0447055, "fusion_lat": 0.0, "name": "26f6ffd448284fede1758d00c2dfdec6"}, {"type": "electric_scooter", "fusion_lon": 0.0, "bike_id": "31106fde8755438f2d707c8216fdf07a", "is_disabled": 0, "lat": 38.903108833333334, "rental_uris": {"ios": "https://dc.lft.to/lastmile_qr_scan", "android": "https://dc.lft.to/lastmile_qr_scan"}, "is_reserved": 0, "lon": -76.97801016666666, "fusion_lat": 0.0, "name": "31106fde8755438f2d707c8216fdf07a"}, {"type": "electric_scooter", "fusion_lon": 0.0, "bike_id": "5e503bd490c2c4148b8b1532ffbf6839", "is_disabled": 0, "lat": 38.92656566666667, "rental_uris": {"ios": "https://dc.lft.to/lastmile_qr_scan", "android": "https://dc.lft.to/lastmile_qr_scan"}, "is_reserved": 0, "lon": -77.0533595, "fusion_lat": 0.0, "name": "5e503bd490c2c4148b8b1532ffbf6839"}, {"type": "electric_scooter", "fusion_lon": 0.0, "bike_id": "6cecaf9ef2f0bb722a98b33dbef6ed5a", "is_disabled": 0, "lat": 38.923911833333335, "rental_uris": {"ios": "https://dc.lft.to/lastmile_qr_scan", "android": "https://dc.lft.to/lastmile_qr_scan"}, "is_reserved": 0, "lon": -77.03661416666667, "fusion_lat": 0.0, "name": "6cecaf9ef2f0bb722a98b33dbef6ed5a"}, {"type": "electric_scooter", "fusion_lon": 0.0, "bike_id": "64e37a93aa64ff9670f6c6741393a06e", "is_disabled": 0, "lat": 38.919492, "rental_uris": {"ios": "https://dc.lft.to/lastmile_qr_scan", "android": "https://dc.lft.to/lastmile_qr_scan"}, "is_reserved": 0, "lon": -77.0177965, "fusion_lat": 0.0, "name": "64e37a93aa64ff9670f6c6741393a06e"}, {"type": "electric_scooter", "fusion_lon": 0.0, "bike_id": "3fcbb94e6ff84e796791e8079f87d596", "is_disabled": 0, "lat": 38.91712033333334, "rental_uris": {"ios": "https://dc.lft.to/lastmile_qr_scan", "android": "https://dc.lft.to/lastmile_qr_scan"}, "is_reserved": 0, "lon": -77.03870333333333, "fusion_lat": 0.0, "name": "3fcbb94e6ff84e796791e8079f87d596"}, {"type": "electric_scooter", "fusion_lon": 0.0, "bike_id": "4d91357e579abbb80d37349c3b1e3e22", "is_disabled": 0, "lat": 38.910486166666665, "rental_uris": {"ios": "https://dc.lft.to/lastmile_qr_scan", "android": "https://dc.lft.to/lastmile_qr_scan"}, "is_reserved": 0, "lon": -77.01999916666666, "fusion_lat": 0.0, "name": "4d91357e579abbb80d37349c3b1e3e22"}, {"type": "electric_scooter", "fusion_lon": 0.0, "bike_id": "68df15a1e03d3b0a7cd81f4f038d3a9d", "is_disabled": 0, "lat": 38.90162866666667, "rental_uris": {"ios": "https://dc.lft.to/lastmile_qr_scan", "android": "https://dc.lft.to/lastmile_qr_scan"}, "is_reserved": 0, "lon": -77.04044366666666, "fusion_lat": 0.0, "name": "68df15a1e03d3b0a7cd81f4f038d3a9d"}, {"type": "electric_scooter", "fusion_lon": 0.0, "bike_id": "5a75c57d71d17c5e087f5529df178314", "is_disabled": 0, "lat": 38.911062666666666, "rental_uris": {"ios": "https://dc.lft.to/lastmile_qr_scan", "android": "https://dc.lft.to/lastmile_qr_scan"}, "is_reserved": 0, "lon": -77.03828166666666, "fusion_lat": 0.0, "name": "5a75c57d71d17c5e087f5529df178314"}, {"type": "electric_scooter", "fusion_lon": 0.0, "bike_id": "e8a89f906498b9bd4b076bdb982e4ff8", "is_disabled": 0, "lat": 38.9075865, "rental_uris": {"ios": "https://dc.lft.to/lastmile_qr_scan", "android": "https://dc.lft.to/lastmile_qr_scan"}, "is_reserved": 0, "lon": -77.023019, "fusion_lat": 0.0, "name": "e8a89f906498b9bd4b076bdb982e4ff8"}, {"type": "electric_scooter", "fusion_lon": 0.0, "bike_id": "a52d79ada078ef5ca550f4234a0748f4", "is_disabled": 0, "lat": 38.9099285, "rental_uris": {"ios": "https://dc.lft.to/lastmile_qr_scan", "android": "https://dc.lft.to/lastmile_qr_scan"}, "is_reserved": 0, "lon": -76.99451816666667, "fusion_lat": 0.0, "name": "a52d79ada078ef5ca550f4234a0748f4"}, {"type": "electric_scooter", "fusion_lon": 0.0, "bike_id": "d1d1cf11523755794b6a70c1f3968ba1", "is_disabled": 0, "lat": 38.902371333333335, "rental_uris": {"ios": "https://dc.lft.to/lastmile_qr_scan", "android": "https://dc.lft.to/lastmile_qr_scan"}, "is_reserved": 0, "lon": -77.00203716666667, "fusion_lat": 0.0, "name": "d1d1cf11523755794b6a70c1f3968ba1"}, {"type": "electric_scooter", "fusion_lon": 0.0, "bike_id": "384dfdb06022c5563052b4b2f916842c", "is_disabled": 0, "lat": 38.91193616666666, "rental_uris": {"ios": "https://dc.lft.to/lastmile_qr_scan", "android": "https://dc.lft.to/lastmile_qr_scan"}, "is_reserved": 0, "lon": -77.01083516666667, "fusion_lat": 0.0, "name": "384dfdb06022c5563052b4b2f916842c"}, {"type": "electric_scooter", "fusion_lon": 0.0, "bike_id": "1f1cd05050a13449ebd4c3f83dd65e5e", "is_disabled": 0, "lat": 38.94196216666667, "rental_uris": {"ios": "https://dc.lft.to/lastmile_qr_scan", "android": "https://dc.lft.to/lastmile_qr_scan"}, "is_reserved": 0, "lon": -77.02435016666666, "fusion_lat": 0.0, "name": "1f1cd05050a13449ebd4c3f83dd65e5e"}, {"type": "electric_bike", "fusion_lon": 0.0, "bike_id": "18ddf724d75e377274cf492819598540", "is_disabled": 0, "lat": 38.81334116666667, "rental_uris": {"ios": "https://dc.lft.to/lastmile_qr_scan", "android": "https://dc.lft.to/lastmile_qr_scan"}, "is_reserved": 0, "lon": -77.05112466666667, "fusion_lat": 0.0, "name": "18ddf724d75e377274cf492819598540"}, {"type": "electric_scooter", "fusion_lon": 0.0, "bike_id": "2d3ec8f0fbbb586d2b2e5891d048abdd", "is_disabled": 0, "lat": 38.960266, "rental_uris": {"ios": "https://dc.lft.to/lastmile_qr_scan", "android": "https://dc.lft.to/lastmile_qr_scan"}, "is_reserved": 0, "lon": -77.01984883333333, "fusion_lat": 0.0, "name": "2d3ec8f0fbbb586d2b2e5891d048abdd"}, {"type": "electric_scooter", "fusion_lon": 0.0, "bike_id": "2a0fd5eef8b8d50a658c52606bb8f2ee", "is_disabled": 0, "lat": 38.914692333333335, "rental_uris": {"ios": "https://dc.lft.to/lastmile_qr_scan", "android": "https://dc.lft.to/lastmile_qr_scan"}, "is_reserved": 0, "lon": -77.03842883333333, "fusion_lat": 0.0, "name": "2a0fd5eef8b8d50a658c52606bb8f2ee"}, {"type": "electric_scooter", "fusion_lon": 0.0, "bike_id": "bed9edcdc90b36bb17d470a87e9bb7dc", "is_disabled": 0, "lat": 38.918624666666666, "rental_uris": {"ios": "https://dc.lft.to/lastmile_qr_scan", "android": "https://dc.lft.to/lastmile_qr_scan"}, "is_reserved": 0, "lon": -77.02460033333334, "fusion_lat": 0.0, "name": "bed9edcdc90b36bb17d470a87e9bb7dc"}, {"type": "electric_scooter", "fusion_lon": 0.0, "bike_id": "59ffcf843924f645c06e0dbb41b43b5d", "is_disabled": 0, "lat": 38.89916633333333, "rental_uris": {"ios": "https://dc.lft.to/lastmile_qr_scan", "android": "https://dc.lft.to/lastmile_qr_scan"}, "is_reserved": 0, "lon": -76.93379016666667, "fusion_lat": 0.0, "name": "59ffcf843924f645c06e0dbb41b43b5d"}, {"type": "electric_scooter", "fusion_lon": 0.0, "bike_id": "d861030bf06231bef0bd262927714aa1", "is_disabled": 0, "lat": 38.876463666666666, "rental_uris": {"ios": "https://dc.lft.to/lastmile_qr_scan", "android": "https://dc.lft.to/lastmile_qr_scan"}, "is_reserved": 0, "lon": -76.96506416666666, "fusion_lat": 0.0, "name": "d861030bf06231bef0bd262927714aa1"}, {"type": "electric_scooter", "fusion_lon": 0.0, "bike_id": "3ae5a53005f73cc3f50f9841b02fdb64", "is_disabled": 0, "lat": 38.93825783333333, "rental_uris": {"ios": "https://dc.lft.to/lastmile_qr_scan", "android": "https://dc.lft.to/lastmile_qr_scan"}, "is_reserved": 0, "lon": -76.98926966666667, "fusion_lat": 0.0, "name": "3ae5a53005f73cc3f50f9841b02fdb64"}, {"type": "electric_scooter", "fusion_lon": 0.0, "bike_id": "520eb1cc51dba75834b3014c56fcb779", "is_disabled": 0, "lat": 38.89685333333333, "rental_uris": {"ios": "https://dc.lft.to/lastmile_qr_scan", "android": "https://dc.lft.to/lastmile_qr_scan"}, "is_reserved": 0, "lon": -77.0198035, "fusion_lat": 0.0, "name": "520eb1cc51dba75834b3014c56fcb779"}, {"type": "electric_scooter", "fusion_lon": 0.0, "bike_id": "b51725e94fa1315e738d90e67582d538", "is_disabled": 0, "lat": 38.8972785, "rental_uris": {"ios": "https://dc.lft.to/lastmile_qr_scan", "android": "https://dc.lft.to/lastmile_qr_scan"}, "is_reserved": 0, "lon": -76.98495066666666, "fusion_lat": 0.0, "name": "b51725e94fa1315e738d90e67582d538"}, {"type": "electric_scooter", "fusion_lon": 0.0, "bike_id": "3f01ed170602d1735751bb4503d26028", "is_disabled": 0, "lat": 38.90707783333333, "rental_uris": {"ios": "https://dc.lft.to/lastmile_qr_scan", "android": "https://dc.lft.to/lastmile_qr_scan"}, "is_reserved": 0, "lon": -76.98564116666667, "fusion_lat": 0.0, "name": "3f01ed170602d1735751bb4503d26028"}, {"type": "electric_scooter", "fusion_lon": 0.0, "bike_id": "ddcca344af972f44a7135147cbd466b4", "is_disabled": 0, "lat": 38.91912683333334, "rental_uris": {"ios": "https://dc.lft.to/lastmile_qr_scan", "android": "https://dc.lft.to/lastmile_qr_scan"}, "is_reserved": 0, "lon": -77.02506083333333, "fusion_lat": 0.0, "name": "ddcca344af972f44a7135147cbd466b4"}, {"type": "electric_scooter", "fusion_lon": 0.0, "bike_id": "586a3ee940e92d6f9b10e8fe4fbe463e", "is_disabled": 0, "lat": 38.90640616666666, "rental_uris": {"ios": "https://dc.lft.to/lastmile_qr_scan", "android": "https://dc.lft.to/lastmile_qr_scan"}, "is_reserved": 0, "lon": -77.04244866666667, "fusion_lat": 0.0, "name": "586a3ee940e92d6f9b10e8fe4fbe463e"}, {"type": "electric_scooter", "fusion_lon": 0.0, "bike_id": "4d5bbeaccb370653202452e2d6aff6ea", "is_disabled": 0, "lat": 38.90411066666667, "rental_uris": {"ios": "https://dc.lft.to/lastmile_qr_scan", "android": "https://dc.lft.to/lastmile_qr_scan"}, "is_reserved": 0, "lon": -77.025182, "fusion_lat": 0.0, "name": "4d5bbeaccb370653202452e2d6aff6ea"}, {"type": "electric_scooter", "fusion_lon": 0.0, "bike_id": "7268ddb696945a29c3bef480d88cb71a", "is_disabled": 0, "lat": 38.932787833333336, "rental_uris": {"ios": "https://dc.lft.to/lastmile_qr_scan", "android": "https://dc.lft.to/lastmile_qr_scan"}, "is_reserved": 0, "lon": -77.04086683333334, "fusion_lat": 0.0, "name": "7268ddb696945a29c3bef480d88cb71a"}, {"type": "electric_bike", "fusion_lon": 0.0, "bike_id": "729e930549785a593f7ccd429839b68d", "is_disabled": 0, "lat": 38.99195566666667, "rental_uris": {"ios": "https://dc.lft.to/lastmile_qr_scan", "android": "https://dc.lft.to/lastmile_qr_scan"}, "is_reserved": 0, "lon": -77.0320225, "fusion_lat": 0.0, "name": "729e930549785a593f7ccd429839b68d"}, {"type": "electric_scooter", "fusion_lon": 0.0, "bike_id": "791a737c5b77ac4130476acad18f8efb", "is_disabled": 0, "lat": 38.92336183333333, "rental_uris": {"ios": "https://dc.lft.to/lastmile_qr_scan", "android": "https://dc.lft.to/lastmile_qr_scan"}, "is_reserved": 0, "lon": -77.03552333333333, "fusion_lat": 0.0, "name": "791a737c5b77ac4130476acad18f8efb"}, {"type": "electric_scooter", "fusion_lon": 0.0, "bike_id": "d25312220ffb0cb30c042e01dc8134ae", "is_disabled": 0, "lat": 38.90737883333333, "rental_uris": {"ios": "https://dc.lft.to/lastmile_qr_scan", "android": "https://dc.lft.to/lastmile_qr_scan"}, "is_reserved": 0, "lon": -77.00773083333333, "fusion_lat": 0.0, "name": "d25312220ffb0cb30c042e01dc8134ae"}, {"type": "electric_scooter", "fusion_lon": 0.0, "bike_id": "0ca466e78aa94c8d7c6e47e55fc39063", "is_disabled": 0, "lat": 38.9202125, "rental_uris": {"ios": "https://dc.lft.to/lastmile_qr_scan", "android": "https://dc.lft.to/lastmile_qr_scan"}, "is_reserved": 0, "lon": -76.99596983333333, "fusion_lat": 0.0, "name": "0ca466e78aa94c8d7c6e47e55fc39063"}, {"type": "electric_scooter", "fusion_lon": 0.0, "bike_id": "1b4a2ad6b86881155dbadf7253bc9ba5", "is_disabled": 0, "lat": 38.90284716666667, "rental_uris": {"ios": "https://dc.lft.to/lastmile_qr_scan", "android": "https://dc.lft.to/lastmile_qr_scan"}, "is_reserved": 0, "lon": -77.01816216666667, "fusion_lat": 0.0, "name": "1b4a2ad6b86881155dbadf7253bc9ba5"}, {"type": "electric_scooter", "fusion_lon": 0.0, "bike_id": "a6480b6aa1a9c62fc5e2a91f109fc862", "is_disabled": 0, "lat": 38.87541216666666, "rental_uris": {"ios": "https://dc.lft.to/lastmile_qr_scan", "android": "https://dc.lft.to/lastmile_qr_scan"}, "is_reserved": 0, "lon": -77.00072966666667, "fusion_lat": 0.0, "name": "a6480b6aa1a9c62fc5e2a91f109fc862"}, {"type": "electric_scooter", "fusion_lon": 0.0, "bike_id": "92b01feee7e80aa4e5b6e6daa708f7e8", "is_disabled": 0, "lat": 38.89531783333334, "rental_uris": {"ios": "https://dc.lft.to/lastmile_qr_scan", "android": "https://dc.lft.to/lastmile_qr_scan"}, "is_reserved": 0, "lon": -76.9493405, "fusion_lat": 0.0, "name": "92b01feee7e80aa4e5b6e6daa708f7e8"}, {"type": "electric_scooter", "fusion_lon": 0.0, "bike_id": "257afe401becb5277d07018e98d2145c", "is_disabled": 0, "lat": 38.914194333333334, "rental_uris": {"ios": "https://dc.lft.to/lastmile_qr_scan", "android": "https://dc.lft.to/lastmile_qr_scan"}, "is_reserved": 0, "lon": -77.03816066666667, "fusion_lat": 0.0, "name": "257afe401becb5277d07018e98d2145c"}, {"type": "electric_scooter", "fusion_lon": 0.0, "bike_id": "cf76185fc369cc5f80e0f0b0f25188b9", "is_disabled": 0, "lat": 38.92127833333333, "rental_uris": {"ios": "https://dc.lft.to/lastmile_qr_scan", "android": "https://dc.lft.to/lastmile_qr_scan"}, "is_reserved": 0, "lon": -77.04579266666667, "fusion_lat": 0.0, "name": "cf76185fc369cc5f80e0f0b0f25188b9"}, {"type": "electric_scooter", "fusion_lon": 0.0, "bike_id": "0c81aabff483167f248adc79a6d080f2", "is_disabled": 0, "lat": 38.915643, "rental_uris": {"ios": "https://dc.lft.to/lastmile_qr_scan", "android": "https://dc.lft.to/lastmile_qr_scan"}, "is_reserved": 0, "lon": -77.031601, "fusion_lat": 0.0, "name": "0c81aabff483167f248adc79a6d080f2"}, {"type": "electric_scooter", "fusion_lon": 0.0, "bike_id": "7b41a9b01e5476b6472d4062d2f24390", "is_disabled": 0, "lat": 38.957305166666664, "rental_uris": {"ios": "https://dc.lft.to/lastmile_qr_scan", "android": "https://dc.lft.to/lastmile_qr_scan"}, "is_reserved": 0, "lon": -77.02400583333333, "fusion_lat": 0.0, "name": "7b41a9b01e5476b6472d4062d2f24390"}, {"type": "electric_scooter", "fusion_lon": 0.0, "bike_id": "85a741542322c239f23c78fb495cd01b", "is_disabled": 0, "lat": 38.892202833333336, "rental_uris": {"ios": "https://dc.lft.to/lastmile_qr_scan", "android": "https://dc.lft.to/lastmile_qr_scan"}, "is_reserved": 0, "lon": -77.02219183333334, "fusion_lat": 0.0, "name": "85a741542322c239f23c78fb495cd01b"}, {"type": "electric_scooter", "fusion_lon": 0.0, "bike_id": "79ce62f16c9517d19fb4a5435618cb31", "is_disabled": 0, "lat": 38.9002825, "rental_uris": {"ios": "https://dc.lft.to/lastmile_qr_scan", "android": "https://dc.lft.to/lastmile_qr_scan"}, "is_reserved": 0, "lon": -77.00201983333334, "fusion_lat": 0.0, "name": "79ce62f16c9517d19fb4a5435618cb31"}, {"type": "electric_scooter", "fusion_lon": 0.0, "bike_id": "06c14bf78c130115914af32c660d7f99", "is_disabled": 0, "lat": 38.89900433333333, "rental_uris": {"ios": "https://dc.lft.to/lastmile_qr_scan", "android": "https://dc.lft.to/lastmile_qr_scan"}, "is_reserved": 0, "lon": -77.04877466666667, "fusion_lat": 0.0, "name": "06c14bf78c130115914af32c660d7f99"}, {"type": "electric_scooter", "fusion_lon": 0.0, "bike_id": "b055ef53c3a50c737b83ec2fa758fff2", "is_disabled": 0, "lat": 38.93891083333333, "rental_uris": {"ios": "https://dc.lft.to/lastmile_qr_scan", "android": "https://dc.lft.to/lastmile_qr_scan"}, "is_reserved": 0, "lon": -76.98605133333334, "fusion_lat": 0.0, "name": "b055ef53c3a50c737b83ec2fa758fff2"}, {"type": "electric_bike", "fusion_lon": 0.0, "bike_id": "3de434244b8ca64b0231f00f1dd0676b", "is_disabled": 0, "lat": 38.8888855, "rental_uris": {"ios": "https://dc.lft.to/lastmile_qr_scan", "android": "https://dc.lft.to/lastmile_qr_scan"}, "is_reserved": 0, "lon": -77.079474, "fusion_lat": 0.0, "name": "3de434244b8ca64b0231f00f1dd0676b"}, {"type": "electric_scooter", "fusion_lon": 0.0, "bike_id": "f3f2a2de1326dfc1ad05b7d214b9240f", "is_disabled": 0, "lat": 38.923752, "rental_uris": {"ios": "https://dc.lft.to/lastmile_qr_scan", "android": "https://dc.lft.to/lastmile_qr_scan"}, "is_reserved": 0, "lon": -77.0224525, "fusion_lat": 0.0, "name": "f3f2a2de1326dfc1ad05b7d214b9240f"}, {"type": "electric_scooter", "fusion_lon": 0.0, "bike_id": "49d333e3e793076993b57210c2aea5f0", "is_disabled": 0, "lat": 38.9089835, "rental_uris": {"ios": "https://dc.lft.to/lastmile_qr_scan", "android": "https://dc.lft.to/lastmile_qr_scan"}, "is_reserved": 0, "lon": -77.02288116666666, "fusion_lat": 0.0, "name": "49d333e3e793076993b57210c2aea5f0"}, {"type": "electric_scooter", "fusion_lon": 0.0, "bike_id": "3bdf8cf41e1a1f2f63ea984f3c5098d3", "is_disabled": 0, "lat": 38.899444, "rental_uris": {"ios": "https://dc.lft.to/lastmile_qr_scan", "android": "https://dc.lft.to/lastmile_qr_scan"}, "is_reserved": 0, "lon": -77.044919, "fusion_lat": 0.0, "name": "3bdf8cf41e1a1f2f63ea984f3c5098d3"}, {"type": "electric_scooter", "fusion_lon": 0.0, "bike_id": "30880879769e025d5f81126e21d9d1ee", "is_disabled": 0, "lat": 38.89988916666667, "rental_uris": {"ios": "https://dc.lft.to/lastmile_qr_scan", "android": "https://dc.lft.to/lastmile_qr_scan"}, "is_reserved": 0, "lon": -77.01600866666666, "fusion_lat": 0.0, "name": "30880879769e025d5f81126e21d9d1ee"}, {"type": "electric_scooter", "fusion_lon": 0.0, "bike_id": "7cbd35ede03bf9488fe8c569f18e0b9b", "is_disabled": 0, "lat": 38.920624, "rental_uris": {"ios": "https://dc.lft.to/lastmile_qr_scan", "android": "https://dc.lft.to/lastmile_qr_scan"}, "is_reserved": 0, "lon": -77.04252283333334, "fusion_lat": 0.0, "name": "7cbd35ede03bf9488fe8c569f18e0b9b"}, {"type": "electric_scooter", "fusion_lon": 0.0, "bike_id": "84a77815ac7df185a8b67f7b08fd2cb4", "is_disabled": 0, "lat": 38.8922075, "rental_uris": {"ios": "https://dc.lft.to/lastmile_qr_scan", "android": "https://dc.lft.to/lastmile_qr_scan"}, "is_reserved": 0, "lon": -77.04465616666667, "fusion_lat": 0.0, "name": "84a77815ac7df185a8b67f7b08fd2cb4"}, {"type": "electric_bike", "fusion_lon": 0.0, "bike_id": "97604910f4df646d6d9f84fb93a83399", "is_disabled": 0, "lat": 38.966878666666666, "rental_uris": {"ios": "https://dc.lft.to/lastmile_qr_scan", "android": "https://dc.lft.to/lastmile_qr_scan"}, "is_reserved": 0, "lon": -77.02279333333334, "fusion_lat": 0.0, "name": "97604910f4df646d6d9f84fb93a83399"}, {"type": "electric_scooter", "fusion_lon": 0.0, "bike_id": "7aced318951d7eed456085b3eae3b8e5", "is_disabled": 0, "lat": 38.923852833333335, "rental_uris": {"ios": "https://dc.lft.to/lastmile_qr_scan", "android": "https://dc.lft.to/lastmile_qr_scan"}, "is_reserved": 0, "lon": -77.03657866666667, "fusion_lat": 0.0, "name": "7aced318951d7eed456085b3eae3b8e5"}, {"type": "electric_bike", "fusion_lon": 0.0, "bike_id": "909b5c8cc000223073f5d19d187b5e47", "is_disabled": 0, "lat": 38.94037083333333, "rental_uris": {"ios": "https://dc.lft.to/lastmile_qr_scan", "android": "https://dc.lft.to/lastmile_qr_scan"}, "is_reserved": 0, "lon": -76.99471433333333, "fusion_lat": 0.0, "name": "909b5c8cc000223073f5d19d187b5e47"}, {"type": "electric_scooter", "fusion_lon": 0.0, "bike_id": "af26ed803d36935d0f0a150fdcd5731b", "is_disabled": 0, "lat": 38.919376666666665, "rental_uris": {"ios": "https://dc.lft.to/lastmile_qr_scan", "android": "https://dc.lft.to/lastmile_qr_scan"}, "is_reserved": 0, "lon": -77.04889766666666, "fusion_lat": 0.0, "name": "af26ed803d36935d0f0a150fdcd5731b"}, {"type": "electric_scooter", "fusion_lon": 0.0, "bike_id": "5ba5778010ebcd108072d54716821b15", "is_disabled": 0, "lat": 38.925723166666664, "rental_uris": {"ios": "https://dc.lft.to/lastmile_qr_scan", "android": "https://dc.lft.to/lastmile_qr_scan"}, "is_reserved": 0, "lon": -77.078839, "fusion_lat": 0.0, "name": "5ba5778010ebcd108072d54716821b15"}, {"type": "electric_scooter", "fusion_lon": 0.0, "bike_id": "560c7894ba82607e05b180cce637aa73", "is_disabled": 0, "lat": 38.9193605, "rental_uris": {"ios": "https://dc.lft.to/lastmile_qr_scan", "android": "https://dc.lft.to/lastmile_qr_scan"}, "is_reserved": 0, "lon": -77.0249625, "fusion_lat": 0.0, "name": "560c7894ba82607e05b180cce637aa73"}, {"type": "electric_scooter", "fusion_lon": 0.0, "bike_id": "7ada294a4a715ef7b9b8623e2c2d9860", "is_disabled": 0, "lat": 38.93298866666667, "rental_uris": {"ios": "https://dc.lft.to/lastmile_qr_scan", "android": "https://dc.lft.to/lastmile_qr_scan"}, "is_reserved": 0, "lon": -77.07239683333333, "fusion_lat": 0.0, "name": "7ada294a4a715ef7b9b8623e2c2d9860"}, {"type": "electric_scooter", "fusion_lon": 0.0, "bike_id": "4d22d2f52f57947bcd02074f905555b2", "is_disabled": 0, "lat": 38.92042283333333, "rental_uris": {"ios": "https://dc.lft.to/lastmile_qr_scan", "android": "https://dc.lft.to/lastmile_qr_scan"}, "is_reserved": 0, "lon": -77.04392433333334, "fusion_lat": 0.0, "name": "4d22d2f52f57947bcd02074f905555b2"}, {"type": "electric_scooter", "fusion_lon": 0.0, "bike_id": "455ca0ad9c70c2523b53c12939656142", "is_disabled": 0, "lat": 38.8922355, "rental_uris": {"ios": "https://dc.lft.to/lastmile_qr_scan", "android": "https://dc.lft.to/lastmile_qr_scan"}, "is_reserved": 0, "lon": -77.048081, "fusion_lat": 0.0, "name": "455ca0ad9c70c2523b53c12939656142"}, {"type": "electric_scooter", "fusion_lon": 0.0, "bike_id": "f763bced44d9dd3ce91d3e2fbdcd615b", "is_disabled": 0, "lat": 38.923936833333336, "rental_uris": {"ios": "https://dc.lft.to/lastmile_qr_scan", "android": "https://dc.lft.to/lastmile_qr_scan"}, "is_reserved": 0, "lon": -77.02485866666666, "fusion_lat": 0.0, "name": "f763bced44d9dd3ce91d3e2fbdcd615b"}, {"type": "electric_bike", "fusion_lon": 0.0, "bike_id": "a0fa935a203f3ca4083fa982d5a82292", "is_disabled": 0, "lat": 38.822982833333334, "rental_uris": {"ios": "https://dc.lft.to/lastmile_qr_scan", "android": "https://dc.lft.to/lastmile_qr_scan"}, "is_reserved": 0, "lon": -77.08139333333334, "fusion_lat": 0.0, "name": "a0fa935a203f3ca4083fa982d5a82292"}, {"type": "electric_scooter", "fusion_lon": 0.0, "bike_id": "e455fd57f9742d4b1bc906e44fc20f52", "is_disabled": 0, "lat": 38.91041466666667, "rental_uris": {"ios": "https://dc.lft.to/lastmile_qr_scan", "android": "https://dc.lft.to/lastmile_qr_scan"}, "is_reserved": 0, "lon": -76.98569016666667, "fusion_lat": 0.0, "name": "e455fd57f9742d4b1bc906e44fc20f52"}, {"type": "electric_scooter", "fusion_lon": 0.0, "bike_id": "9b6d3f353e20176b049fb674f3a123ee", "is_disabled": 0, "lat": 38.91804966666667, "rental_uris": {"ios": "https://dc.lft.to/lastmile_qr_scan", "android": "https://dc.lft.to/lastmile_qr_scan"}, "is_reserved": 0, "lon": -77.03339083333333, "fusion_lat": 0.0, "name": "9b6d3f353e20176b049fb674f3a123ee"}, {"type": "electric_scooter", "fusion_lon": 0.0, "bike_id": "afc3d61109ea2b28fc46c3642ed7bb85", "is_disabled": 0, "lat": 38.94919633333333, "rental_uris": {"ios": "https://dc.lft.to/lastmile_qr_scan", "android": "https://dc.lft.to/lastmile_qr_scan"}, "is_reserved": 0, "lon": -77.02318516666666, "fusion_lat": 0.0, "name": "afc3d61109ea2b28fc46c3642ed7bb85"}, {"type": "electric_scooter", "fusion_lon": 0.0, "bike_id": "777982721cfbd1320845148a105c44ed", "is_disabled": 0, "lat": 38.897896833333334, "rental_uris": {"ios": "https://dc.lft.to/lastmile_qr_scan", "android": "https://dc.lft.to/lastmile_qr_scan"}, "is_reserved": 0, "lon": -77.0418425, "fusion_lat": 0.0, "name": "777982721cfbd1320845148a105c44ed"}, {"type": "electric_scooter", "fusion_lon": 0.0, "bike_id": "e47aa2208774bc7273ce1b8e445335f5", "is_disabled": 0, "lat": 38.926466, "rental_uris": {"ios": "https://dc.lft.to/lastmile_qr_scan", "android": "https://dc.lft.to/lastmile_qr_scan"}, "is_reserved": 0, "lon": -77.03474316666667, "fusion_lat": 0.0, "name": "e47aa2208774bc7273ce1b8e445335f5"}, {"type": "electric_scooter", "fusion_lon": 0.0, "bike_id": "ff147b6d5f6585b266a9a6eb6ebc2b8a", "is_disabled": 0, "lat": 38.90744483333334, "rental_uris": {"ios": "https://dc.lft.to/lastmile_qr_scan", "android": "https://dc.lft.to/lastmile_qr_scan"}, "is_reserved": 0, "lon": -77.03584333333333, "fusion_lat": 0.0, "name": "ff147b6d5f6585b266a9a6eb6ebc2b8a"}, {"type": "electric_scooter", "fusion_lon": 0.0, "bike_id": "2bd82a77e8eba237a95e862b6487059a", "is_disabled": 0, "lat": 38.96082716666667, "rental_uris": {"ios": "https://dc.lft.to/lastmile_qr_scan", "android": "https://dc.lft.to/lastmile_qr_scan"}, "is_reserved": 0, "lon": -77.02882916666667, "fusion_lat": 0.0, "name": "2bd82a77e8eba237a95e862b6487059a"}, {"type": "electric_scooter", "fusion_lon": 0.0, "bike_id": "022052c4076aef69a74eddb4af3f8426", "is_disabled": 0, "lat": 38.91566683333333, "rental_uris": {"ios": "https://dc.lft.to/lastmile_qr_scan", "android": "https://dc.lft.to/lastmile_qr_scan"}, "is_reserved": 0, "lon": -77.02005883333334, "fusion_lat": 0.0, "name": "022052c4076aef69a74eddb4af3f8426"}, {"type": "electric_scooter", "fusion_lon": 0.0, "bike_id": "f177378449cf30c908c97d3fd7e19028", "is_disabled": 0, "lat": 38.91827416666667, "rental_uris": {"ios": "https://dc.lft.to/lastmile_qr_scan", "android": "https://dc.lft.to/lastmile_qr_scan"}, "is_reserved": 0, "lon": -77.02714883333333, "fusion_lat": 0.0, "name": "f177378449cf30c908c97d3fd7e19028"}, {"type": "electric_scooter", "fusion_lon": 0.0, "bike_id": "09fc249c6f1150e33025cb8ade4f1239", "is_disabled": 0, "lat": 38.938981166666665, "rental_uris": {"ios": "https://dc.lft.to/lastmile_qr_scan", "android": "https://dc.lft.to/lastmile_qr_scan"}, "is_reserved": 0, "lon": -77.02491716666667, "fusion_lat": 0.0, "name": "09fc249c6f1150e33025cb8ade4f1239"}, {"type": "electric_bike", "fusion_lon": 0.0, "bike_id": "2df1e63600cde05abdd337cb4d177a71", "is_disabled": 0, "lat": 38.896192166666665, "rental_uris": {"ios": "https://dc.lft.to/lastmile_qr_scan", "android": "https://dc.lft.to/lastmile_qr_scan"}, "is_reserved": 0, "lon": -76.907389, "fusion_lat": 0.0, "name": "2df1e63600cde05abdd337cb4d177a71"}, {"type": "electric_scooter", "fusion_lon": 0.0, "bike_id": "08321683b3b4d8c33344997436381398", "is_disabled": 0, "lat": 38.92892716666667, "rental_uris": {"ios": "https://dc.lft.to/lastmile_qr_scan", "android": "https://dc.lft.to/lastmile_qr_scan"}, "is_reserved": 0, "lon": -77.03263366666667, "fusion_lat": 0.0, "name": "08321683b3b4d8c33344997436381398"}, {"type": "electric_scooter", "fusion_lon": 0.0, "bike_id": "e97e522c39dc128109c6bcb114a33b83", "is_disabled": 0, "lat": 38.9206995, "rental_uris": {"ios": "https://dc.lft.to/lastmile_qr_scan", "android": "https://dc.lft.to/lastmile_qr_scan"}, "is_reserved": 0, "lon": -77.03264333333334, "fusion_lat": 0.0, "name": "e97e522c39dc128109c6bcb114a33b83"}, {"type": "electric_scooter", "fusion_lon": 0.0, "bike_id": "8fcd340e03c13837030e32773be26086", "is_disabled": 0, "lat": 38.892222833333335, "rental_uris": {"ios": "https://dc.lft.to/lastmile_qr_scan", "android": "https://dc.lft.to/lastmile_qr_scan"}, "is_reserved": 0, "lon": -77.04336733333334, "fusion_lat": 0.0, "name": "8fcd340e03c13837030e32773be26086"}, {"type": "electric_scooter", "fusion_lon": 0.0, "bike_id": "873d47d56737b1c2aa01263aa76849cf", "is_disabled": 0, "lat": 38.923487, "rental_uris": {"ios": "https://dc.lft.to/lastmile_qr_scan", "android": "https://dc.lft.to/lastmile_qr_scan"}, "is_reserved": 0, "lon": -77.03641766666667, "fusion_lat": 0.0, "name": "873d47d56737b1c2aa01263aa76849cf"}, {"type": "electric_scooter", "fusion_lon": 0.0, "bike_id": "e7bd9d047f6bdca92c35d807f0502d5f", "is_disabled": 0, "lat": 38.92140766666667, "rental_uris": {"ios": "https://dc.lft.to/lastmile_qr_scan", "android": "https://dc.lft.to/lastmile_qr_scan"}, "is_reserved": 0, "lon": -77.035153, "fusion_lat": 0.0, "name": "e7bd9d047f6bdca92c35d807f0502d5f"}, {"type": "electric_scooter", "fusion_lon": 0.0, "bike_id": "450837adf906321612bd2aa8cf605bf7", "is_disabled": 0, "lat": 38.90578766666667, "rental_uris": {"ios": "https://dc.lft.to/lastmile_qr_scan", "android": "https://dc.lft.to/lastmile_qr_scan"}, "is_reserved": 0, "lon": -77.00716433333334, "fusion_lat": 0.0, "name": "450837adf906321612bd2aa8cf605bf7"}, {"type": "electric_scooter", "fusion_lon": 0.0, "bike_id": "b8378c37dd46adaec3bbeede435fd613", "is_disabled": 0, "lat": 38.92035033333333, "rental_uris": {"ios": "https://dc.lft.to/lastmile_qr_scan", "android": "https://dc.lft.to/lastmile_qr_scan"}, "is_reserved": 0, "lon": -77.01219916666666, "fusion_lat": 0.0, "name": "b8378c37dd46adaec3bbeede435fd613"}, {"type": "electric_scooter", "fusion_lon": 0.0, "bike_id": "0311536c3e89c355beb2ef79e5200571", "is_disabled": 0, "lat": 38.93535266666667, "rental_uris": {"ios": "https://dc.lft.to/lastmile_qr_scan", "android": "https://dc.lft.to/lastmile_qr_scan"}, "is_reserved": 0, "lon": -77.02352833333333, "fusion_lat": 0.0, "name": "0311536c3e89c355beb2ef79e5200571"}, {"type": "electric_scooter", "fusion_lon": 0.0, "bike_id": "75742547befe021f18d6f04a8eb45959", "is_disabled": 0, "lat": 38.9066435, "rental_uris": {"ios": "https://dc.lft.to/lastmile_qr_scan", "android": "https://dc.lft.to/lastmile_qr_scan"}, "is_reserved": 0, "lon": -77.02979916666666, "fusion_lat": 0.0, "name": "75742547befe021f18d6f04a8eb45959"}, {"type": "electric_scooter", "fusion_lon": 0.0, "bike_id": "9e741b3e7b3f194c60ca9d2630606c0c", "is_disabled": 0, "lat": 38.8922115, "rental_uris": {"ios": "https://dc.lft.to/lastmile_qr_scan", "android": "https://dc.lft.to/lastmile_qr_scan"}, "is_reserved": 0, "lon": -77.04808666666666, "fusion_lat": 0.0, "name": "9e741b3e7b3f194c60ca9d2630606c0c"}, {"type": "electric_bike", "fusion_lon": 0.0, "bike_id": "9c37661bb122058509b15e7e9fc49964", "is_disabled": 0, "lat": 38.876703166666665, "rental_uris": {"ios": "https://dc.lft.to/lastmile_qr_scan", "android": "https://dc.lft.to/lastmile_qr_scan"}, "is_reserved": 0, "lon": -77.01440733333334, "fusion_lat": 0.0, "name": "9c37661bb122058509b15e7e9fc49964"}, {"type": "electric_scooter", "fusion_lon": 0.0, "bike_id": "9dbcaf80450fb0935e3b52aecd605655", "is_disabled": 0, "lat": 38.905720333333335, "rental_uris": {"ios": "https://dc.lft.to/lastmile_qr_scan", "android": "https://dc.lft.to/lastmile_qr_scan"}, "is_reserved": 0, "lon": -77.03473333333334, "fusion_lat": 0.0, "name": "9dbcaf80450fb0935e3b52aecd605655"}, {"type": "electric_scooter", "fusion_lon": 0.0, "bike_id": "66c5b3d9cf8a1855832b91a62810a64a", "is_disabled": 0, "lat": 38.9343105, "rental_uris": {"ios": "https://dc.lft.to/lastmile_qr_scan", "android": "https://dc.lft.to/lastmile_qr_scan"}, "is_reserved": 0, "lon": -77.03998616666667, "fusion_lat": 0.0, "name": "66c5b3d9cf8a1855832b91a62810a64a"}, {"type": "electric_scooter", "fusion_lon": 0.0, "bike_id": "f596cb1ad8872189550d9001d15eeeed", "is_disabled": 0, "lat": 38.92415883333334, "rental_uris": {"ios": "https://dc.lft.to/lastmile_qr_scan", "android": "https://dc.lft.to/lastmile_qr_scan"}, "is_reserved": 0, "lon": -77.06527533333333, "fusion_lat": 0.0, "name": "f596cb1ad8872189550d9001d15eeeed"}, {"type": "electric_scooter", "fusion_lon": 0.0, "bike_id": "bff74277020033483aaaa63d75c0ab61", "is_disabled": 0, "lat": 38.911885833333336, "rental_uris": {"ios": "https://dc.lft.to/lastmile_qr_scan", "android": "https://dc.lft.to/lastmile_qr_scan"}, "is_reserved": 0, "lon": -77.0018195, "fusion_lat": 0.0, "name": "bff74277020033483aaaa63d75c0ab61"}, {"type": "electric_scooter", "fusion_lon": 0.0, "bike_id": "a44e8b256032afd355100ae9ee7f77c4", "is_disabled": 0, "lat": 38.90414216666667, "rental_uris": {"ios": "https://dc.lft.to/lastmile_qr_scan", "android": "https://dc.lft.to/lastmile_qr_scan"}, "is_reserved": 0, "lon": -76.97328566666667, "fusion_lat": 0.0, "name": "a44e8b256032afd355100ae9ee7f77c4"}, {"type": "electric_scooter", "fusion_lon": 0.0, "bike_id": "732726c80485f5d6124d727a39900d9a", "is_disabled": 0, "lat": 38.892292, "rental_uris": {"ios": "https://dc.lft.to/lastmile_qr_scan", "android": "https://dc.lft.to/lastmile_qr_scan"}, "is_reserved": 0, "lon": -77.0029215, "fusion_lat": 0.0, "name": "732726c80485f5d6124d727a39900d9a"}, {"type": "electric_scooter", "fusion_lon": 0.0, "bike_id": "4ae11816088be7beb0fd3bf420ad4e74", "is_disabled": 0, "lat": 38.92228466666667, "rental_uris": {"ios": "https://dc.lft.to/lastmile_qr_scan", "android": "https://dc.lft.to/lastmile_qr_scan"}, "is_reserved": 0, "lon": -77.04715016666667, "fusion_lat": 0.0, "name": "4ae11816088be7beb0fd3bf420ad4e74"}, {"type": "electric_scooter", "fusion_lon": 0.0, "bike_id": "ef8180c7c0aee616e9a9bd9491bffcfe", "is_disabled": 0, "lat": 38.92261283333333, "rental_uris": {"ios": "https://dc.lft.to/lastmile_qr_scan", "android": "https://dc.lft.to/lastmile_qr_scan"}, "is_reserved": 0, "lon": -77.0182655, "fusion_lat": 0.0, "name": "ef8180c7c0aee616e9a9bd9491bffcfe"}, {"type": "electric_bike", "fusion_lon": 0.0, "bike_id": "71a25f1def8faf9bb315d59ff86cbeae", "is_disabled": 0, "lat": 38.925657, "rental_uris": {"ios": "https://dc.lft.to/lastmile_qr_scan", "android": "https://dc.lft.to/lastmile_qr_scan"}, "is_reserved": 0, "lon": -76.959805, "fusion_lat": 0.0, "name": "71a25f1def8faf9bb315d59ff86cbeae"}, {"type": "electric_scooter", "fusion_lon": 0.0, "bike_id": "144cade5b0ea068e388c8de8934fee5f", "is_disabled": 0, "lat": 38.884432333333336, "rental_uris": {"ios": "https://dc.lft.to/lastmile_qr_scan", "android": "https://dc.lft.to/lastmile_qr_scan"}, "is_reserved": 0, "lon": -77.02979383333333, "fusion_lat": 0.0, "name": "144cade5b0ea068e388c8de8934fee5f"}, {"type": "electric_scooter", "fusion_lon": 0.0, "bike_id": "3b088524ed5cb96bb694942c0119e85d", "is_disabled": 0, "lat": 38.88735583333333, "rental_uris": {"ios": "https://dc.lft.to/lastmile_qr_scan", "android": "https://dc.lft.to/lastmile_qr_scan"}, "is_reserved": 0, "lon": -77.031784, "fusion_lat": 0.0, "name": "3b088524ed5cb96bb694942c0119e85d"}, {"type": "electric_scooter", "fusion_lon": 0.0, "bike_id": "a9482548a42dd4afb83eca53a680ad17", "is_disabled": 0, "lat": 38.88537916666667, "rental_uris": {"ios": "https://dc.lft.to/lastmile_qr_scan", "android": "https://dc.lft.to/lastmile_qr_scan"}, "is_reserved": 0, "lon": -77.0110295, "fusion_lat": 0.0, "name": "a9482548a42dd4afb83eca53a680ad17"}, {"type": "electric_scooter", "fusion_lon": 0.0, "bike_id": "0051237487493d6d43d43367a3034932", "is_disabled": 0, "lat": 38.9270255, "rental_uris": {"ios": "https://dc.lft.to/lastmile_qr_scan", "android": "https://dc.lft.to/lastmile_qr_scan"}, "is_reserved": 0, "lon": -77.03762883333333, "fusion_lat": 0.0, "name": "0051237487493d6d43d43367a3034932"}, {"type": "electric_scooter", "fusion_lon": 0.0, "bike_id": "a650451ea7d780caec787e617218fad5", "is_disabled": 0, "lat": 38.9073075, "rental_uris": {"ios": "https://dc.lft.to/lastmile_qr_scan", "android": "https://dc.lft.to/lastmile_qr_scan"}, "is_reserved": 0, "lon": -77.0321585, "fusion_lat": 0.0, "name": "a650451ea7d780caec787e617218fad5"}, {"type": "electric_scooter", "fusion_lon": 0.0, "bike_id": "05c84c75e4808c3afeedc44b37eba3b3", "is_disabled": 0, "lat": 38.91142133333334, "rental_uris": {"ios": "https://dc.lft.to/lastmile_qr_scan", "android": "https://dc.lft.to/lastmile_qr_scan"}, "is_reserved": 0, "lon": -77.00469366666667, "fusion_lat": 0.0, "name": "05c84c75e4808c3afeedc44b37eba3b3"}, {"type": "electric_scooter", "fusion_lon": 0.0, "bike_id": "f86a7ba629b8d62d2c61e784d1ee7eb6", "is_disabled": 0, "lat": 38.892222333333336, "rental_uris": {"ios": "https://dc.lft.to/lastmile_qr_scan", "android": "https://dc.lft.to/lastmile_qr_scan"}, "is_reserved": 0, "lon": -77.022302, "fusion_lat": 0.0, "name": "f86a7ba629b8d62d2c61e784d1ee7eb6"}, {"type": "electric_scooter", "fusion_lon": 0.0, "bike_id": "bf9ff333d7b7f62592e4faeb16851bda", "is_disabled": 0, "lat": 38.91761066666667, "rental_uris": {"ios": "https://dc.lft.to/lastmile_qr_scan", "android": "https://dc.lft.to/lastmile_qr_scan"}, "is_reserved": 0, "lon": -77.03211283333333, "fusion_lat": 0.0, "name": "bf9ff333d7b7f62592e4faeb16851bda"}, {"type": "electric_scooter", "fusion_lon": 0.0, "bike_id": "173a692f9f0c743f02b458b69fa9dabf", "is_disabled": 0, "lat": 38.94449383333333, "rental_uris": {"ios": "https://dc.lft.to/lastmile_qr_scan", "android": "https://dc.lft.to/lastmile_qr_scan"}, "is_reserved": 0, "lon": -77.0634635, "fusion_lat": 0.0, "name": "173a692f9f0c743f02b458b69fa9dabf"}, {"type": "electric_scooter", "fusion_lon": 0.0, "bike_id": "ea212a7f2650796077621096e29a9856", "is_disabled": 0, "lat": 38.90178683333333, "rental_uris": {"ios": "https://dc.lft.to/lastmile_qr_scan", "android": "https://dc.lft.to/lastmile_qr_scan"}, "is_reserved": 0, "lon": -76.98061183333333, "fusion_lat": 0.0, "name": "ea212a7f2650796077621096e29a9856"}, {"type": "electric_scooter", "fusion_lon": 0.0, "bike_id": "f36a5e0082814a1161e1ecd20f8052c0", "is_disabled": 0, "lat": 38.9335115, "rental_uris": {"ios": "https://dc.lft.to/lastmile_qr_scan", "android": "https://dc.lft.to/lastmile_qr_scan"}, "is_reserved": 0, "lon": -77.036593, "fusion_lat": 0.0, "name": "f36a5e0082814a1161e1ecd20f8052c0"}, {"type": "electric_scooter", "fusion_lon": 0.0, "bike_id": "94b1d1130ea7876a2f2493074fb8d4be", "is_disabled": 0, "lat": 38.9450145, "rental_uris": {"ios": "https://dc.lft.to/lastmile_qr_scan", "android": "https://dc.lft.to/lastmile_qr_scan"}, "is_reserved": 0, "lon": -77.03837783333333, "fusion_lat": 0.0, "name": "94b1d1130ea7876a2f2493074fb8d4be"}, {"type": "electric_scooter", "fusion_lon": 0.0, "bike_id": "ca4a7e9f68f44277fd45b82ed8284ac0", "is_disabled": 0, "lat": 38.90354, "rental_uris": {"ios": "https://dc.lft.to/lastmile_qr_scan", "android": "https://dc.lft.to/lastmile_qr_scan"}, "is_reserved": 0, "lon": -76.987254, "fusion_lat": 0.0, "name": "ca4a7e9f68f44277fd45b82ed8284ac0"}, {"type": "electric_scooter", "fusion_lon": 0.0, "bike_id": "54e342070b42aec941450c4ae9833e41", "is_disabled": 0, "lat": 38.903406833333335, "rental_uris": {"ios": "https://dc.lft.to/lastmile_qr_scan", "android": "https://dc.lft.to/lastmile_qr_scan"}, "is_reserved": 0, "lon": -76.98953883333333, "fusion_lat": 0.0, "name": "54e342070b42aec941450c4ae9833e41"}, {"type": "electric_scooter", "fusion_lon": 0.0, "bike_id": "4c118854ad16cfdeb83d2807624f02fe", "is_disabled": 0, "lat": 38.911161666666665, "rental_uris": {"ios": "https://dc.lft.to/lastmile_qr_scan", "android": "https://dc.lft.to/lastmile_qr_scan"}, "is_reserved": 0, "lon": -77.00747016666666, "fusion_lat": 0.0, "name": "4c118854ad16cfdeb83d2807624f02fe"}, {"type": "electric_scooter", "fusion_lon": 0.0, "bike_id": "609f36b791eb8f79cd1ad5a51dc5a1f2", "is_disabled": 0, "lat": 38.90955133333333, "rental_uris": {"ios": "https://dc.lft.to/lastmile_qr_scan", "android": "https://dc.lft.to/lastmile_qr_scan"}, "is_reserved": 0, "lon": -77.01850616666667, "fusion_lat": 0.0, "name": "609f36b791eb8f79cd1ad5a51dc5a1f2"}, {"type": "electric_scooter", "fusion_lon": 0.0, "bike_id": "937a5b834d3223042de6f28af47ecca7", "is_disabled": 0, "lat": 38.887239, "rental_uris": {"ios": "https://dc.lft.to/lastmile_qr_scan", "android": "https://dc.lft.to/lastmile_qr_scan"}, "is_reserved": 0, "lon": -77.028318, "fusion_lat": 0.0, "name": "937a5b834d3223042de6f28af47ecca7"}, {"type": "electric_scooter", "fusion_lon": 0.0, "bike_id": "486941f804d4d757eb0c78a182294b48", "is_disabled": 0, "lat": 38.97351283333333, "rental_uris": {"ios": "https://dc.lft.to/lastmile_qr_scan", "android": "https://dc.lft.to/lastmile_qr_scan"}, "is_reserved": 0, "lon": -77.0278465, "fusion_lat": 0.0, "name": "486941f804d4d757eb0c78a182294b48"}, {"type": "electric_scooter", "fusion_lon": 0.0, "bike_id": "271f9231373428c3bf1e2893b0ec6cfc", "is_disabled": 0, "lat": 38.918994166666664, "rental_uris": {"ios": "https://dc.lft.to/lastmile_qr_scan", "android": "https://dc.lft.to/lastmile_qr_scan"}, "is_reserved": 0, "lon": -77.01971983333334, "fusion_lat": 0.0, "name": "271f9231373428c3bf1e2893b0ec6cfc"}, {"type": "electric_scooter", "fusion_lon": 0.0, "bike_id": "3a8b6a9744d1b3d403b450c4128e276d", "is_disabled": 0, "lat": 38.9041005, "rental_uris": {"ios": "https://dc.lft.to/lastmile_qr_scan", "android": "https://dc.lft.to/lastmile_qr_scan"}, "is_reserved": 0, "lon": -76.99956466666667, "fusion_lat": 0.0, "name": "3a8b6a9744d1b3d403b450c4128e276d"}, {"type": "electric_scooter", "fusion_lon": 0.0, "bike_id": "66cf29ffe174bee914774bfae43d3f16", "is_disabled": 0, "lat": 38.90609833333333, "rental_uris": {"ios": "https://dc.lft.to/lastmile_qr_scan", "android": "https://dc.lft.to/lastmile_qr_scan"}, "is_reserved": 0, "lon": -77.05021083333334, "fusion_lat": 0.0, "name": "66cf29ffe174bee914774bfae43d3f16"}, {"type": "electric_scooter", "fusion_lon": 0.0, "bike_id": "b59864d322cd1ffacf0d40499fcd68b0", "is_disabled": 0, "lat": 38.85946083333333, "rental_uris": {"ios": "https://dc.lft.to/lastmile_qr_scan", "android": "https://dc.lft.to/lastmile_qr_scan"}, "is_reserved": 0, "lon": -76.95878316666666, "fusion_lat": 0.0, "name": "b59864d322cd1ffacf0d40499fcd68b0"}, {"type": "electric_scooter", "fusion_lon": 0.0, "bike_id": "1f368bedfeeae2e34486838e5c2b9230", "is_disabled": 0, "lat": 38.92109933333333, "rental_uris": {"ios": "https://dc.lft.to/lastmile_qr_scan", "android": "https://dc.lft.to/lastmile_qr_scan"}, "is_reserved": 0, "lon": -77.04826966666667, "fusion_lat": 0.0, "name": "1f368bedfeeae2e34486838e5c2b9230"}, {"type": "electric_bike", "fusion_lon": 0.0, "bike_id": "671da05b5f3bd01b807615671f2d33cc", "is_disabled": 0, "lat": 38.911108166666665, "rental_uris": {"ios": "https://dc.lft.to/lastmile_qr_scan", "android": "https://dc.lft.to/lastmile_qr_scan"}, "is_reserved": 0, "lon": -77.00248783333333, "fusion_lat": 0.0, "name": "671da05b5f3bd01b807615671f2d33cc"}, {"type": "electric_scooter", "fusion_lon": 0.0, "bike_id": "abf033f0c606d8a74428e194e0abf85b", "is_disabled": 0, "lat": 38.9322105, "rental_uris": {"ios": "https://dc.lft.to/lastmile_qr_scan", "android": "https://dc.lft.to/lastmile_qr_scan"}, "is_reserved": 0, "lon": -77.02384233333333, "fusion_lat": 0.0, "name": "abf033f0c606d8a74428e194e0abf85b"}, {"type": "electric_scooter", "fusion_lon": 0.0, "bike_id": "39ef3c9efac92da3e628214609a5c8df", "is_disabled": 0, "lat": 38.925064, "rental_uris": {"ios": "https://dc.lft.to/lastmile_qr_scan", "android": "https://dc.lft.to/lastmile_qr_scan"}, "is_reserved": 0, "lon": -77.02161866666667, "fusion_lat": 0.0, "name": "39ef3c9efac92da3e628214609a5c8df"}, {"type": "electric_scooter", "fusion_lon": 0.0, "bike_id": "b22682ca87762cc5509b9e2d6c277e80", "is_disabled": 0, "lat": 38.90649466666667, "rental_uris": {"ios": "https://dc.lft.to/lastmile_qr_scan", "android": "https://dc.lft.to/lastmile_qr_scan"}, "is_reserved": 0, "lon": -77.01136683333333, "fusion_lat": 0.0, "name": "b22682ca87762cc5509b9e2d6c277e80"}, {"type": "electric_scooter", "fusion_lon": 0.0, "bike_id": "5832afaee93959dd89ddcf9b919a2c62", "is_disabled": 0, "lat": 38.9146545, "rental_uris": {"ios": "https://dc.lft.to/lastmile_qr_scan", "android": "https://dc.lft.to/lastmile_qr_scan"}, "is_reserved": 0, "lon": -77.014958, "fusion_lat": 0.0, "name": "5832afaee93959dd89ddcf9b919a2c62"}, {"type": "electric_scooter", "fusion_lon": 0.0, "bike_id": "0747b77842a96059e2c13ab5d25fbd93", "is_disabled": 0, "lat": 38.94413266666667, "rental_uris": {"ios": "https://dc.lft.to/lastmile_qr_scan", "android": "https://dc.lft.to/lastmile_qr_scan"}, "is_reserved": 0, "lon": -77.00496383333333, "fusion_lat": 0.0, "name": "0747b77842a96059e2c13ab5d25fbd93"}, {"type": "electric_scooter", "fusion_lon": 0.0, "bike_id": "74eb8569f1ffeea5d737ef16eb0e9a1b", "is_disabled": 0, "lat": 38.93669766666667, "rental_uris": {"ios": "https://dc.lft.to/lastmile_qr_scan", "android": "https://dc.lft.to/lastmile_qr_scan"}, "is_reserved": 0, "lon": -77.03392983333333, "fusion_lat": 0.0, "name": "74eb8569f1ffeea5d737ef16eb0e9a1b"}, {"type": "electric_scooter", "fusion_lon": 0.0, "bike_id": "debea762c4d40eebc9451060619cd700", "is_disabled": 0, "lat": 38.87753683333333, "rental_uris": {"ios": "https://dc.lft.to/lastmile_qr_scan", "android": "https://dc.lft.to/lastmile_qr_scan"}, "is_reserved": 0, "lon": -77.007317, "fusion_lat": 0.0, "name": "debea762c4d40eebc9451060619cd700"}, {"type": "electric_bike", "fusion_lon": 0.0, "bike_id": "da01bc2dca3eb28a8af572b26ff45701", "is_disabled": 0, "lat": 38.883022, "rental_uris": {"ios": "https://dc.lft.to/lastmile_qr_scan", "android": "https://dc.lft.to/lastmile_qr_scan"}, "is_reserved": 0, "lon": -76.94975733333334, "fusion_lat": 0.0, "name": "da01bc2dca3eb28a8af572b26ff45701"}, {"type": "electric_scooter", "fusion_lon": 0.0, "bike_id": "651dbfa7ada6c59bd07c0fafbc6cc277", "is_disabled": 0, "lat": 38.91057133333333, "rental_uris": {"ios": "https://dc.lft.to/lastmile_qr_scan", "android": "https://dc.lft.to/lastmile_qr_scan"}, "is_reserved": 0, "lon": -77.02660683333333, "fusion_lat": 0.0, "name": "651dbfa7ada6c59bd07c0fafbc6cc277"}, {"type": "electric_scooter", "fusion_lon": 0.0, "bike_id": "c5d9368b700f60cbdfe7d95ee4a45322", "is_disabled": 0, "lat": 38.930656166666665, "rental_uris": {"ios": "https://dc.lft.to/lastmile_qr_scan", "android": "https://dc.lft.to/lastmile_qr_scan"}, "is_reserved": 0, "lon": -77.05842033333333, "fusion_lat": 0.0, "name": "c5d9368b700f60cbdfe7d95ee4a45322"}, {"type": "electric_scooter", "fusion_lon": 0.0, "bike_id": "aa35cb6089620ed030d3036360c305c4", "is_disabled": 0, "lat": 38.935234666666666, "rental_uris": {"ios": "https://dc.lft.to/lastmile_qr_scan", "android": "https://dc.lft.to/lastmile_qr_scan"}, "is_reserved": 0, "lon": -77.03263816666667, "fusion_lat": 0.0, "name": "aa35cb6089620ed030d3036360c305c4"}, {"type": "electric_bike", "fusion_lon": 0.0, "bike_id": "eed419d66329e0b46bb84f6ef9fa3c89", "is_disabled": 0, "lat": 38.9559385, "rental_uris": {"ios": "https://dc.lft.to/lastmile_qr_scan", "android": "https://dc.lft.to/lastmile_qr_scan"}, "is_reserved": 0, "lon": -76.94027566666666, "fusion_lat": 0.0, "name": "eed419d66329e0b46bb84f6ef9fa3c89"}, {"type": "electric_scooter", "fusion_lon": 0.0, "bike_id": "073ff8042bda4425fcec3b48bc5ac430", "is_disabled": 0, "lat": 38.9078895, "rental_uris": {"ios": "https://dc.lft.to/lastmile_qr_scan", "android": "https://dc.lft.to/lastmile_qr_scan"}, "is_reserved": 0, "lon": -77.03187283333334, "fusion_lat": 0.0, "name": "073ff8042bda4425fcec3b48bc5ac430"}, {"type": "electric_scooter", "fusion_lon": 0.0, "bike_id": "303dba934912809e57fb15f2e123394e", "is_disabled": 0, "lat": 38.917110666666666, "rental_uris": {"ios": "https://dc.lft.to/lastmile_qr_scan", "android": "https://dc.lft.to/lastmile_qr_scan"}, "is_reserved": 0, "lon": -77.028989, "fusion_lat": 0.0, "name": "303dba934912809e57fb15f2e123394e"}, {"type": "electric_scooter", "fusion_lon": 0.0, "bike_id": "681dd80dd42e6a3bb6e2192c6c3b30d2", "is_disabled": 0, "lat": 38.919382, "rental_uris": {"ios": "https://dc.lft.to/lastmile_qr_scan", "android": "https://dc.lft.to/lastmile_qr_scan"}, "is_reserved": 0, "lon": -77.0319825, "fusion_lat": 0.0, "name": "681dd80dd42e6a3bb6e2192c6c3b30d2"}, {"type": "electric_scooter", "fusion_lon": 0.0, "bike_id": "8adb78ac09f37ab2a7c46da7df916baf", "is_disabled": 0, "lat": 38.9298285, "rental_uris": {"ios": "https://dc.lft.to/lastmile_qr_scan", "android": "https://dc.lft.to/lastmile_qr_scan"}, "is_reserved": 0, "lon": -77.03658216666666, "fusion_lat": 0.0, "name": "8adb78ac09f37ab2a7c46da7df916baf"}, {"type": "electric_scooter", "fusion_lon": 0.0, "bike_id": "de8f1ba5cb60419a25b8d3d2b9105419", "is_disabled": 0, "lat": 38.899289333333336, "rental_uris": {"ios": "https://dc.lft.to/lastmile_qr_scan", "android": "https://dc.lft.to/lastmile_qr_scan"}, "is_reserved": 0, "lon": -77.052893, "fusion_lat": 0.0, "name": "de8f1ba5cb60419a25b8d3d2b9105419"}, {"type": "electric_scooter", "fusion_lon": 0.0, "bike_id": "742f5a23b62159b0b91c3b294058449f", "is_disabled": 0, "lat": 38.917082666666666, "rental_uris": {"ios": "https://dc.lft.to/lastmile_qr_scan", "android": "https://dc.lft.to/lastmile_qr_scan"}, "is_reserved": 0, "lon": -77.0386695, "fusion_lat": 0.0, "name": "742f5a23b62159b0b91c3b294058449f"}, {"type": "electric_scooter", "fusion_lon": 0.0, "bike_id": "e85b92f4e97d90f802e1ad6dbca9b832", "is_disabled": 0, "lat": 38.91556583333333, "rental_uris": {"ios": "https://dc.lft.to/lastmile_qr_scan", "android": "https://dc.lft.to/lastmile_qr_scan"}, "is_reserved": 0, "lon": -77.01182066666667, "fusion_lat": 0.0, "name": "e85b92f4e97d90f802e1ad6dbca9b832"}, {"type": "electric_scooter", "fusion_lon": 0.0, "bike_id": "82e5c4570a66273b36084fd86c61ae71", "is_disabled": 0, "lat": 38.930177666666665, "rental_uris": {"ios": "https://dc.lft.to/lastmile_qr_scan", "android": "https://dc.lft.to/lastmile_qr_scan"}, "is_reserved": 0, "lon": -77.0279475, "fusion_lat": 0.0, "name": "82e5c4570a66273b36084fd86c61ae71"}, {"type": "electric_scooter", "fusion_lon": 0.0, "bike_id": "d864828c1a2fa0f6fc61304d20de7c4f", "is_disabled": 0, "lat": 38.8922135, "rental_uris": {"ios": "https://dc.lft.to/lastmile_qr_scan", "android": "https://dc.lft.to/lastmile_qr_scan"}, "is_reserved": 0, "lon": -77.0450415, "fusion_lat": 0.0, "name": "d864828c1a2fa0f6fc61304d20de7c4f"}, {"type": "electric_scooter", "fusion_lon": 0.0, "bike_id": "ade823ea5654de2be12ff2fdbcf7d8db", "is_disabled": 0, "lat": 38.8954415, "rental_uris": {"ios": "https://dc.lft.to/lastmile_qr_scan", "android": "https://dc.lft.to/lastmile_qr_scan"}, "is_reserved": 0, "lon": -76.98338266666667, "fusion_lat": 0.0, "name": "ade823ea5654de2be12ff2fdbcf7d8db"}, {"type": "electric_scooter", "fusion_lon": 0.0, "bike_id": "59a4b38df35d7a2158bb89483a8f6205", "is_disabled": 0, "lat": 38.908734, "rental_uris": {"ios": "https://dc.lft.to/lastmile_qr_scan", "android": "https://dc.lft.to/lastmile_qr_scan"}, "is_reserved": 0, "lon": -77.0188655, "fusion_lat": 0.0, "name": "59a4b38df35d7a2158bb89483a8f6205"}, {"type": "electric_bike", "fusion_lon": 0.0, "bike_id": "5f19ed414b27ea973613e091c8b80e5b", "is_disabled": 0, "lat": 38.97256566666667, "rental_uris": {"ios": "https://dc.lft.to/lastmile_qr_scan", "android": "https://dc.lft.to/lastmile_qr_scan"}, "is_reserved": 0, "lon": -76.99275416666667, "fusion_lat": 0.0, "name": "5f19ed414b27ea973613e091c8b80e5b"}, {"type": "electric_scooter", "fusion_lon": 0.0, "bike_id": "0e60271ff4b29fd5dad095b09e006c02", "is_disabled": 0, "lat": 38.892211833333334, "rental_uris": {"ios": "https://dc.lft.to/lastmile_qr_scan", "android": "https://dc.lft.to/lastmile_qr_scan"}, "is_reserved": 0, "lon": -77.02626266666667, "fusion_lat": 0.0, "name": "0e60271ff4b29fd5dad095b09e006c02"}, {"type": "electric_scooter", "fusion_lon": 0.0, "bike_id": "4770079f9d4b18813f12f862f547af9e", "is_disabled": 0, "lat": 38.912559, "rental_uris": {"ios": "https://dc.lft.to/lastmile_qr_scan", "android": "https://dc.lft.to/lastmile_qr_scan"}, "is_reserved": 0, "lon": -77.03827333333334, "fusion_lat": 0.0, "name": "4770079f9d4b18813f12f862f547af9e"}, {"type": "electric_scooter", "fusion_lon": 0.0, "bike_id": "1f89592ffb015caafb66def167bd8b02", "is_disabled": 0, "lat": 38.87998366666667, "rental_uris": {"ios": "https://dc.lft.to/lastmile_qr_scan", "android": "https://dc.lft.to/lastmile_qr_scan"}, "is_reserved": 0, "lon": -76.98712483333334, "fusion_lat": 0.0, "name": "1f89592ffb015caafb66def167bd8b02"}, {"type": "electric_bike", "fusion_lon": 0.0, "bike_id": "4c259af9382e8642114a6e0e29b55384", "is_disabled": 0, "lat": 38.83848783333333, "rental_uris": {"ios": "https://dc.lft.to/lastmile_qr_scan", "android": "https://dc.lft.to/lastmile_qr_scan"}, "is_reserved": 0, "lon": -76.99723233333333, "fusion_lat": 0.0, "name": "4c259af9382e8642114a6e0e29b55384"}, {"type": "electric_scooter", "fusion_lon": 0.0, "bike_id": "fdb1fcd00f09fc14c7381b7493a8540f", "is_disabled": 0, "lat": 38.903664166666665, "rental_uris": {"ios": "https://dc.lft.to/lastmile_qr_scan", "android": "https://dc.lft.to/lastmile_qr_scan"}, "is_reserved": 0, "lon": -77.003471, "fusion_lat": 0.0, "name": "fdb1fcd00f09fc14c7381b7493a8540f"}, {"type": "electric_scooter", "fusion_lon": 0.0, "bike_id": "210ad58ab8ffcfa40650f03f45e51bce", "is_disabled": 0, "lat": 38.9046505, "rental_uris": {"ios": "https://dc.lft.to/lastmile_qr_scan", "android": "https://dc.lft.to/lastmile_qr_scan"}, "is_reserved": 0, "lon": -77.06599716666666, "fusion_lat": 0.0, "name": "210ad58ab8ffcfa40650f03f45e51bce"}, {"type": "electric_scooter", "fusion_lon": 0.0, "bike_id": "f57f6924cab8a056753b58714e6d7bbd", "is_disabled": 0, "lat": 38.892205833333335, "rental_uris": {"ios": "https://dc.lft.to/lastmile_qr_scan", "android": "https://dc.lft.to/lastmile_qr_scan"}, "is_reserved": 0, "lon": -77.0321785, "fusion_lat": 0.0, "name": "f57f6924cab8a056753b58714e6d7bbd"}, {"type": "electric_scooter", "fusion_lon": 0.0, "bike_id": "fa82b1e9cf6ea18cee76f60ac933b329", "is_disabled": 0, "lat": 38.911821, "rental_uris": {"ios": "https://dc.lft.to/lastmile_qr_scan", "android": "https://dc.lft.to/lastmile_qr_scan"}, "is_reserved": 0, "lon": -77.04295783333333, "fusion_lat": 0.0, "name": "fa82b1e9cf6ea18cee76f60ac933b329"}, {"type": "electric_scooter", "fusion_lon": 0.0, "bike_id": "8a0a319d1bc15cf12ae015d586a7a8af", "is_disabled": 0, "lat": 38.918173833333334, "rental_uris": {"ios": "https://dc.lft.to/lastmile_qr_scan", "android": "https://dc.lft.to/lastmile_qr_scan"}, "is_reserved": 0, "lon": -77.03128933333333, "fusion_lat": 0.0, "name": "8a0a319d1bc15cf12ae015d586a7a8af"}, {"type": "electric_scooter", "fusion_lon": 0.0, "bike_id": "9335d280d3663632adf301703767f1d2", "is_disabled": 0, "lat": 38.903978, "rental_uris": {"ios": "https://dc.lft.to/lastmile_qr_scan", "android": "https://dc.lft.to/lastmile_qr_scan"}, "is_reserved": 0, "lon": -77.0172425, "fusion_lat": 0.0, "name": "9335d280d3663632adf301703767f1d2"}, {"type": "electric_scooter", "fusion_lon": 0.0, "bike_id": "b755db2c160d1c3f794a40e60f07eeae", "is_disabled": 0, "lat": 38.90415683333333, "rental_uris": {"ios": "https://dc.lft.to/lastmile_qr_scan", "android": "https://dc.lft.to/lastmile_qr_scan"}, "is_reserved": 0, "lon": -77.018538, "fusion_lat": 0.0, "name": "b755db2c160d1c3f794a40e60f07eeae"}, {"type": "electric_scooter", "fusion_lon": 0.0, "bike_id": "0a3a6e4db242012012e51e904d520eb0", "is_disabled": 0, "lat": 38.90578983333333, "rental_uris": {"ios": "https://dc.lft.to/lastmile_qr_scan", "android": "https://dc.lft.to/lastmile_qr_scan"}, "is_reserved": 0, "lon": -77.043565, "fusion_lat": 0.0, "name": "0a3a6e4db242012012e51e904d520eb0"}, {"type": "electric_scooter", "fusion_lon": 0.0, "bike_id": "fc132abc9e44581577d4db7ddd7cf135", "is_disabled": 0, "lat": 38.87867816666667, "rental_uris": {"ios": "https://dc.lft.to/lastmile_qr_scan", "android": "https://dc.lft.to/lastmile_qr_scan"}, "is_reserved": 0, "lon": -76.96260933333333, "fusion_lat": 0.0, "name": "fc132abc9e44581577d4db7ddd7cf135"}, {"type": "electric_scooter", "fusion_lon": 0.0, "bike_id": "421e4ce3cc48d8b8d07b6dc7add3d4cf", "is_disabled": 0, "lat": 38.90787683333333, "rental_uris": {"ios": "https://dc.lft.to/lastmile_qr_scan", "android": "https://dc.lft.to/lastmile_qr_scan"}, "is_reserved": 0, "lon": -77.04511716666667, "fusion_lat": 0.0, "name": "421e4ce3cc48d8b8d07b6dc7add3d4cf"}, {"type": "electric_scooter", "fusion_lon": 0.0, "bike_id": "88ba89fac2c66a9baeb6148aae476fe8", "is_disabled": 0, "lat": 38.927958833333335, "rental_uris": {"ios": "https://dc.lft.to/lastmile_qr_scan", "android": "https://dc.lft.to/lastmile_qr_scan"}, "is_reserved": 0, "lon": -77.03698233333333, "fusion_lat": 0.0, "name": "88ba89fac2c66a9baeb6148aae476fe8"}, {"type": "electric_scooter", "fusion_lon": 0.0, "bike_id": "ebea8361e9da14cccd662aa0df301727", "is_disabled": 0, "lat": 38.920875833333334, "rental_uris": {"ios": "https://dc.lft.to/lastmile_qr_scan", "android": "https://dc.lft.to/lastmile_qr_scan"}, "is_reserved": 0, "lon": -77.0755605, "fusion_lat": 0.0, "name": "ebea8361e9da14cccd662aa0df301727"}, {"type": "electric_scooter", "fusion_lon": 0.0, "bike_id": "d9d8521c4b14305c593194decf5a63b8", "is_disabled": 0, "lat": 38.87588733333333, "rental_uris": {"ios": "https://dc.lft.to/lastmile_qr_scan", "android": "https://dc.lft.to/lastmile_qr_scan"}, "is_reserved": 0, "lon": -77.00071083333333, "fusion_lat": 0.0, "name": "d9d8521c4b14305c593194decf5a63b8"}, {"type": "electric_scooter", "fusion_lon": 0.0, "bike_id": "13159fbcd246fb05feb5768c3c120411", "is_disabled": 0, "lat": 38.902246833333336, "rental_uris": {"ios": "https://dc.lft.to/lastmile_qr_scan", "android": "https://dc.lft.to/lastmile_qr_scan"}, "is_reserved": 0, "lon": -76.9419665, "fusion_lat": 0.0, "name": "13159fbcd246fb05feb5768c3c120411"}, {"type": "electric_scooter", "fusion_lon": 0.0, "bike_id": "331426c100bfd1825c71def153aaaf50", "is_disabled": 0, "lat": 38.887247, "rental_uris": {"ios": "https://dc.lft.to/lastmile_qr_scan", "android": "https://dc.lft.to/lastmile_qr_scan"}, "is_reserved": 0, "lon": -76.98358483333334, "fusion_lat": 0.0, "name": "331426c100bfd1825c71def153aaaf50"}, {"type": "electric_scooter", "fusion_lon": 0.0, "bike_id": "71eae72c097adb1ff013915859a5ece7", "is_disabled": 0, "lat": 38.905488, "rental_uris": {"ios": "https://dc.lft.to/lastmile_qr_scan", "android": "https://dc.lft.to/lastmile_qr_scan"}, "is_reserved": 0, "lon": -76.99473266666666, "fusion_lat": 0.0, "name": "71eae72c097adb1ff013915859a5ece7"}, {"type": "electric_scooter", "fusion_lon": 0.0, "bike_id": "6e881ef1c710c589d1c41c3338ea3156", "is_disabled": 0, "lat": 38.915571166666666, "rental_uris": {"ios": "https://dc.lft.to/lastmile_qr_scan", "android": "https://dc.lft.to/lastmile_qr_scan"}, "is_reserved": 0, "lon": -77.03835233333334, "fusion_lat": 0.0, "name": "6e881ef1c710c589d1c41c3338ea3156"}, {"type": "electric_scooter", "fusion_lon": 0.0, "bike_id": "7736dae005476cd814a9cd7f3c3364c1", "is_disabled": 0, "lat": 38.91439183333333, "rental_uris": {"ios": "https://dc.lft.to/lastmile_qr_scan", "android": "https://dc.lft.to/lastmile_qr_scan"}, "is_reserved": 0, "lon": -77.041761, "fusion_lat": 0.0, "name": "7736dae005476cd814a9cd7f3c3364c1"}, {"type": "electric_scooter", "fusion_lon": 0.0, "bike_id": "4a4c2552dd2cc93790a76196f1bc73a1", "is_disabled": 0, "lat": 38.887348833333334, "rental_uris": {"ios": "https://dc.lft.to/lastmile_qr_scan", "android": "https://dc.lft.to/lastmile_qr_scan"}, "is_reserved": 0, "lon": -77.02388133333334, "fusion_lat": 0.0, "name": "4a4c2552dd2cc93790a76196f1bc73a1"}, {"type": "electric_scooter", "fusion_lon": 0.0, "bike_id": "2c8ac3cd78b99791206f7aeffcd8dd65", "is_disabled": 0, "lat": 38.94191716666667, "rental_uris": {"ios": "https://dc.lft.to/lastmile_qr_scan", "android": "https://dc.lft.to/lastmile_qr_scan"}, "is_reserved": 0, "lon": -77.03842233333333, "fusion_lat": 0.0, "name": "2c8ac3cd78b99791206f7aeffcd8dd65"}, {"type": "electric_scooter", "fusion_lon": 0.0, "bike_id": "09cb5b13551ed9e1a2c9d14f374b4319", "is_disabled": 0, "lat": 38.90692633333333, "rental_uris": {"ios": "https://dc.lft.to/lastmile_qr_scan", "android": "https://dc.lft.to/lastmile_qr_scan"}, "is_reserved": 0, "lon": -76.98510283333333, "fusion_lat": 0.0, "name": "09cb5b13551ed9e1a2c9d14f374b4319"}, {"type": "electric_scooter", "fusion_lon": 0.0, "bike_id": "13273c13523f0a8e543f0036cd7561bf", "is_disabled": 0, "lat": 38.93543566666666, "rental_uris": {"ios": "https://dc.lft.to/lastmile_qr_scan", "android": "https://dc.lft.to/lastmile_qr_scan"}, "is_reserved": 0, "lon": -77.03420616666666, "fusion_lat": 0.0, "name": "13273c13523f0a8e543f0036cd7561bf"}, {"type": "electric_scooter", "fusion_lon": 0.0, "bike_id": "df0181374f88f3666329adb3fe296484", "is_disabled": 0, "lat": 38.9118865, "rental_uris": {"ios": "https://dc.lft.to/lastmile_qr_scan", "android": "https://dc.lft.to/lastmile_qr_scan"}, "is_reserved": 0, "lon": -77.03801883333334, "fusion_lat": 0.0, "name": "df0181374f88f3666329adb3fe296484"}, {"type": "electric_scooter", "fusion_lon": 0.0, "bike_id": "83d0943280facfa84ae9c10d36227611", "is_disabled": 0, "lat": 38.88726033333333, "rental_uris": {"ios": "https://dc.lft.to/lastmile_qr_scan", "android": "https://dc.lft.to/lastmile_qr_scan"}, "is_reserved": 0, "lon": -76.9835825, "fusion_lat": 0.0, "name": "83d0943280facfa84ae9c10d36227611"}, {"type": "electric_scooter", "fusion_lon": 0.0, "bike_id": "a7c7eb9afa1f10d6c6451597a56f0636", "is_disabled": 0, "lat": 38.9098955, "rental_uris": {"ios": "https://dc.lft.to/lastmile_qr_scan", "android": "https://dc.lft.to/lastmile_qr_scan"}, "is_reserved": 0, "lon": -77.00881766666667, "fusion_lat": 0.0, "name": "a7c7eb9afa1f10d6c6451597a56f0636"}, {"type": "electric_scooter", "fusion_lon": 0.0, "bike_id": "79b20434dec722694763e20842adcbe2", "is_disabled": 0, "lat": 38.89442733333333, "rental_uris": {"ios": "https://dc.lft.to/lastmile_qr_scan", "android": "https://dc.lft.to/lastmile_qr_scan"}, "is_reserved": 0, "lon": -77.01070966666667, "fusion_lat": 0.0, "name": "79b20434dec722694763e20842adcbe2"}, {"type": "electric_bike", "fusion_lon": 0.0, "bike_id": "4ee13550dc8982f34734dcc1f6f2d47f", "is_disabled": 0, "lat": 38.972519166666665, "rental_uris": {"ios": "https://dc.lft.to/lastmile_qr_scan", "android": "https://dc.lft.to/lastmile_qr_scan"}, "is_reserved": 0, "lon": -76.98062033333333, "fusion_lat": 0.0, "name": "4ee13550dc8982f34734dcc1f6f2d47f"}, {"type": "electric_scooter", "fusion_lon": 0.0, "bike_id": "d6d59d25cb548f2c6ac9fce95409a7d0", "is_disabled": 0, "lat": 38.923404833333336, "rental_uris": {"ios": "https://dc.lft.to/lastmile_qr_scan", "android": "https://dc.lft.to/lastmile_qr_scan"}, "is_reserved": 0, "lon": -77.051756, "fusion_lat": 0.0, "name": "d6d59d25cb548f2c6ac9fce95409a7d0"}, {"type": "electric_scooter", "fusion_lon": 0.0, "bike_id": "939c614bb66e6e6d3fe978b373a08715", "is_disabled": 0, "lat": 38.878362833333334, "rental_uris": {"ios": "https://dc.lft.to/lastmile_qr_scan", "android": "https://dc.lft.to/lastmile_qr_scan"}, "is_reserved": 0, "lon": -77.00459966666666, "fusion_lat": 0.0, "name": "939c614bb66e6e6d3fe978b373a08715"}, {"type": "electric_scooter", "fusion_lon": 0.0, "bike_id": "1d0db9be567b0249d1bd6e9120ca3231", "is_disabled": 0, "lat": 38.922836333333336, "rental_uris": {"ios": "https://dc.lft.to/lastmile_qr_scan", "android": "https://dc.lft.to/lastmile_qr_scan"}, "is_reserved": 0, "lon": -77.03659816666666, "fusion_lat": 0.0, "name": "1d0db9be567b0249d1bd6e9120ca3231"}, {"type": "electric_scooter", "fusion_lon": 0.0, "bike_id": "69a9608b92db5abdad8c0e00e12bb483", "is_disabled": 0, "lat": 38.910694166666666, "rental_uris": {"ios": "https://dc.lft.to/lastmile_qr_scan", "android": "https://dc.lft.to/lastmile_qr_scan"}, "is_reserved": 0, "lon": -77.02714516666667, "fusion_lat": 0.0, "name": "69a9608b92db5abdad8c0e00e12bb483"}, {"type": "electric_scooter", "fusion_lon": 0.0, "bike_id": "f0ebc7465387d6f26a3078ae89139c74", "is_disabled": 0, "lat": 38.93863366666667, "rental_uris": {"ios": "https://dc.lft.to/lastmile_qr_scan", "android": "https://dc.lft.to/lastmile_qr_scan"}, "is_reserved": 0, "lon": -77.02660566666667, "fusion_lat": 0.0, "name": "f0ebc7465387d6f26a3078ae89139c74"}, {"type": "electric_scooter", "fusion_lon": 0.0, "bike_id": "3c4672679029edb18bbc3b54ea75b880", "is_disabled": 0, "lat": 38.89950566666667, "rental_uris": {"ios": "https://dc.lft.to/lastmile_qr_scan", "android": "https://dc.lft.to/lastmile_qr_scan"}, "is_reserved": 0, "lon": -77.04780866666667, "fusion_lat": 0.0, "name": "3c4672679029edb18bbc3b54ea75b880"}, {"type": "electric_scooter", "fusion_lon": 0.0, "bike_id": "450a09db4166288cae3dac6a2b7f9ddf", "is_disabled": 0, "lat": 38.883263166666666, "rental_uris": {"ios": "https://dc.lft.to/lastmile_qr_scan", "android": "https://dc.lft.to/lastmile_qr_scan"}, "is_reserved": 0, "lon": -77.0093915, "fusion_lat": 0.0, "name": "450a09db4166288cae3dac6a2b7f9ddf"}, {"type": "electric_scooter", "fusion_lon": 0.0, "bike_id": "e41c05a16babb92908ccea8f6af38900", "is_disabled": 0, "lat": 38.92336066666667, "rental_uris": {"ios": "https://dc.lft.to/lastmile_qr_scan", "android": "https://dc.lft.to/lastmile_qr_scan"}, "is_reserved": 0, "lon": -77.03550216666666, "fusion_lat": 0.0, "name": "e41c05a16babb92908ccea8f6af38900"}, {"type": "electric_scooter", "fusion_lon": 0.0, "bike_id": "658a090856a9b17d0882d95179755db1", "is_disabled": 0, "lat": 38.897003166666664, "rental_uris": {"ios": "https://dc.lft.to/lastmile_qr_scan", "android": "https://dc.lft.to/lastmile_qr_scan"}, "is_reserved": 0, "lon": -77.01979866666667, "fusion_lat": 0.0, "name": "658a090856a9b17d0882d95179755db1"}, {"type": "electric_scooter", "fusion_lon": 0.0, "bike_id": "47105fab472aede378fbffba169f2e78", "is_disabled": 0, "lat": 38.942126, "rental_uris": {"ios": "https://dc.lft.to/lastmile_qr_scan", "android": "https://dc.lft.to/lastmile_qr_scan"}, "is_reserved": 0, "lon": -77.01351416666667, "fusion_lat": 0.0, "name": "47105fab472aede378fbffba169f2e78"}, {"type": "electric_scooter", "fusion_lon": 0.0, "bike_id": "69101c0b04d9b30cb131d135d8d45c1d", "is_disabled": 0, "lat": 38.905141666666665, "rental_uris": {"ios": "https://dc.lft.to/lastmile_qr_scan", "android": "https://dc.lft.to/lastmile_qr_scan"}, "is_reserved": 0, "lon": -77.04769616666667, "fusion_lat": 0.0, "name": "69101c0b04d9b30cb131d135d8d45c1d"}, {"type": "electric_bike", "fusion_lon": 0.0, "bike_id": "bcaf04da2ba6dd1da7ae4ec13ea331e2", "is_disabled": 0, "lat": 38.89568333333333, "rental_uris": {"ios": "https://dc.lft.to/lastmile_qr_scan", "android": "https://dc.lft.to/lastmile_qr_scan"}, "is_reserved": 0, "lon": -77.0962055, "fusion_lat": 0.0, "name": "bcaf04da2ba6dd1da7ae4ec13ea331e2"}, {"type": "electric_scooter", "fusion_lon": 0.0, "bike_id": "e0301195f205858b4764894210109725", "is_disabled": 0, "lat": 38.91487433333333, "rental_uris": {"ios": "https://dc.lft.to/lastmile_qr_scan", "android": "https://dc.lft.to/lastmile_qr_scan"}, "is_reserved": 0, "lon": -77.0325145, "fusion_lat": 0.0, "name": "e0301195f205858b4764894210109725"}, {"type": "electric_scooter", "fusion_lon": 0.0, "bike_id": "a57acb1549cbf05dd3f9276218dcad19", "is_disabled": 0, "lat": 38.902463833333336, "rental_uris": {"ios": "https://dc.lft.to/lastmile_qr_scan", "android": "https://dc.lft.to/lastmile_qr_scan"}, "is_reserved": 0, "lon": -77.02664916666667, "fusion_lat": 0.0, "name": "a57acb1549cbf05dd3f9276218dcad19"}, {"type": "electric_scooter", "fusion_lon": 0.0, "bike_id": "04756a1f71cc7250f75282918f9fa155", "is_disabled": 0, "lat": 38.887682833333336, "rental_uris": {"ios": "https://dc.lft.to/lastmile_qr_scan", "android": "https://dc.lft.to/lastmile_qr_scan"}, "is_reserved": 0, "lon": -77.03353583333333, "fusion_lat": 0.0, "name": "04756a1f71cc7250f75282918f9fa155"}, {"type": "electric_scooter", "fusion_lon": 0.0, "bike_id": "afffbc848da9156480b358edbffad3c1", "is_disabled": 0, "lat": 38.951867166666666, "rental_uris": {"ios": "https://dc.lft.to/lastmile_qr_scan", "android": "https://dc.lft.to/lastmile_qr_scan"}, "is_reserved": 0, "lon": -77.02615566666667, "fusion_lat": 0.0, "name": "afffbc848da9156480b358edbffad3c1"}, {"type": "electric_scooter", "fusion_lon": 0.0, "bike_id": "8c53e72c54fac775d75aabc589425b7a", "is_disabled": 0, "lat": 38.9183725, "rental_uris": {"ios": "https://dc.lft.to/lastmile_qr_scan", "android": "https://dc.lft.to/lastmile_qr_scan"}, "is_reserved": 0, "lon": -77.04174683333333, "fusion_lat": 0.0, "name": "8c53e72c54fac775d75aabc589425b7a"}, {"type": "electric_scooter", "fusion_lon": 0.0, "bike_id": "35f66674ce893d5cfba139bc3a30a8b9", "is_disabled": 0, "lat": 38.905313166666666, "rental_uris": {"ios": "https://dc.lft.to/lastmile_qr_scan", "android": "https://dc.lft.to/lastmile_qr_scan"}, "is_reserved": 0, "lon": -77.02971766666667, "fusion_lat": 0.0, "name": "35f66674ce893d5cfba139bc3a30a8b9"}, {"type": "electric_scooter", "fusion_lon": 0.0, "bike_id": "111db379eac374027ecf39d2cdb5e8fc", "is_disabled": 0, "lat": 38.89223366666667, "rental_uris": {"ios": "https://dc.lft.to/lastmile_qr_scan", "android": "https://dc.lft.to/lastmile_qr_scan"}, "is_reserved": 0, "lon": -77.02420016666666, "fusion_lat": 0.0, "name": "111db379eac374027ecf39d2cdb5e8fc"}, {"type": "electric_scooter", "fusion_lon": 0.0, "bike_id": "7edbe312a551c9c0c66dc95a19ac9200", "is_disabled": 0, "lat": 38.931050166666665, "rental_uris": {"ios": "https://dc.lft.to/lastmile_qr_scan", "android": "https://dc.lft.to/lastmile_qr_scan"}, "is_reserved": 0, "lon": -77.02472883333333, "fusion_lat": 0.0, "name": "7edbe312a551c9c0c66dc95a19ac9200"}, {"type": "electric_scooter", "fusion_lon": 0.0, "bike_id": "bc15a790ccfa1eb393997bc26afaf0ae", "is_disabled": 0, "lat": 38.908787, "rental_uris": {"ios": "https://dc.lft.to/lastmile_qr_scan", "android": "https://dc.lft.to/lastmile_qr_scan"}, "is_reserved": 0, "lon": -77.06780116666667, "fusion_lat": 0.0, "name": "bc15a790ccfa1eb393997bc26afaf0ae"}, {"type": "electric_scooter", "fusion_lon": 0.0, "bike_id": "eb160a756842be3080f1ffbd2318adfa", "is_disabled": 0, "lat": 38.920318, "rental_uris": {"ios": "https://dc.lft.to/lastmile_qr_scan", "android": "https://dc.lft.to/lastmile_qr_scan"}, "is_reserved": 0, "lon": -77.01433116666666, "fusion_lat": 0.0, "name": "eb160a756842be3080f1ffbd2318adfa"}, {"type": "electric_scooter", "fusion_lon": 0.0, "bike_id": "2b6806913cfcded10588ab52b48bf983", "is_disabled": 0, "lat": 38.91098916666667, "rental_uris": {"ios": "https://dc.lft.to/lastmile_qr_scan", "android": "https://dc.lft.to/lastmile_qr_scan"}, "is_reserved": 0, "lon": -77.0045135, "fusion_lat": 0.0, "name": "2b6806913cfcded10588ab52b48bf983"}, {"type": "electric_bike", "fusion_lon": 0.0, "bike_id": "839da59caa89e40d2f5ef3894d5c744f", "is_disabled": 0, "lat": 38.914865, "rental_uris": {"ios": "https://dc.lft.to/lastmile_qr_scan", "android": "https://dc.lft.to/lastmile_qr_scan"}, "is_reserved": 0, "lon": -76.98577183333333, "fusion_lat": 0.0, "name": "839da59caa89e40d2f5ef3894d5c744f"}, {"type": "electric_scooter", "fusion_lon": 0.0, "bike_id": "0647a2982436f250d5259011abc9296a", "is_disabled": 0, "lat": 38.9369965, "rental_uris": {"ios": "https://dc.lft.to/lastmile_qr_scan", "android": "https://dc.lft.to/lastmile_qr_scan"}, "is_reserved": 0, "lon": -77.05600816666667, "fusion_lat": 0.0, "name": "0647a2982436f250d5259011abc9296a"}, {"type": "electric_scooter", "fusion_lon": 0.0, "bike_id": "575ef43d685667592d4da882252e937f", "is_disabled": 0, "lat": 38.89252833333333, "rental_uris": {"ios": "https://dc.lft.to/lastmile_qr_scan", "android": "https://dc.lft.to/lastmile_qr_scan"}, "is_reserved": 0, "lon": -77.04502216666667, "fusion_lat": 0.0, "name": "575ef43d685667592d4da882252e937f"}, {"type": "electric_scooter", "fusion_lon": 0.0, "bike_id": "d029c7dbcb7c9e7e5ee166dbc7eb17a7", "is_disabled": 0, "lat": 38.916526, "rental_uris": {"ios": "https://dc.lft.to/lastmile_qr_scan", "android": "https://dc.lft.to/lastmile_qr_scan"}, "is_reserved": 0, "lon": -77.02276016666667, "fusion_lat": 0.0, "name": "d029c7dbcb7c9e7e5ee166dbc7eb17a7"}, {"type": "electric_scooter", "fusion_lon": 0.0, "bike_id": "b72077ec3febde53b0548aadc28d8c5d", "is_disabled": 0, "lat": 38.905604333333336, "rental_uris": {"ios": "https://dc.lft.to/lastmile_qr_scan", "android": "https://dc.lft.to/lastmile_qr_scan"}, "is_reserved": 0, "lon": -77.02207183333333, "fusion_lat": 0.0, "name": "b72077ec3febde53b0548aadc28d8c5d"}, {"type": "electric_scooter", "fusion_lon": 0.0, "bike_id": "9e1894115580906249126ff5e21d0b5a", "is_disabled": 0, "lat": 38.88770016666667, "rental_uris": {"ios": "https://dc.lft.to/lastmile_qr_scan", "android": "https://dc.lft.to/lastmile_qr_scan"}, "is_reserved": 0, "lon": -77.03317516666667, "fusion_lat": 0.0, "name": "9e1894115580906249126ff5e21d0b5a"}, {"type": "electric_bike", "fusion_lon": 0.0, "bike_id": "110b2f6e134a7cb8b1e3caeb82d78ddb", "is_disabled": 0, "lat": 38.956423, "rental_uris": {"ios": "https://dc.lft.to/lastmile_qr_scan", "android": "https://dc.lft.to/lastmile_qr_scan"}, "is_reserved": 0, "lon": -76.99748283333334, "fusion_lat": 0.0, "name": "110b2f6e134a7cb8b1e3caeb82d78ddb"}, {"type": "electric_scooter", "fusion_lon": 0.0, "bike_id": "79aeb8be884aa37ad901e49cd6c5d68a", "is_disabled": 0, "lat": 38.905644, "rental_uris": {"ios": "https://dc.lft.to/lastmile_qr_scan", "android": "https://dc.lft.to/lastmile_qr_scan"}, "is_reserved": 0, "lon": -77.0220585, "fusion_lat": 0.0, "name": "79aeb8be884aa37ad901e49cd6c5d68a"}, {"type": "electric_scooter", "fusion_lon": 0.0, "bike_id": "fd22cf2967d31bc3df07bf6bf24d514d", "is_disabled": 0, "lat": 38.90994766666667, "rental_uris": {"ios": "https://dc.lft.to/lastmile_qr_scan", "android": "https://dc.lft.to/lastmile_qr_scan"}, "is_reserved": 0, "lon": -77.04005516666666, "fusion_lat": 0.0, "name": "fd22cf2967d31bc3df07bf6bf24d514d"}, {"type": "electric_scooter", "fusion_lon": 0.0, "bike_id": "aacc512ae504653fd3941113c13376f0", "is_disabled": 0, "lat": 38.93152033333333, "rental_uris": {"ios": "https://dc.lft.to/lastmile_qr_scan", "android": "https://dc.lft.to/lastmile_qr_scan"}, "is_reserved": 0, "lon": -77.056062, "fusion_lat": 0.0, "name": "aacc512ae504653fd3941113c13376f0"}, {"type": "electric_scooter", "fusion_lon": 0.0, "bike_id": "0bad6cae32174a38186840d46960be12", "is_disabled": 0, "lat": 38.957621, "rental_uris": {"ios": "https://dc.lft.to/lastmile_qr_scan", "android": "https://dc.lft.to/lastmile_qr_scan"}, "is_reserved": 0, "lon": -77.01493983333333, "fusion_lat": 0.0, "name": "0bad6cae32174a38186840d46960be12"}, {"type": "electric_bike", "fusion_lon": 0.0, "bike_id": "9d41300bd6c0cb6ee8b5e7657824fe13", "is_disabled": 0, "lat": 38.88125816666667, "rental_uris": {"ios": "https://dc.lft.to/lastmile_qr_scan", "android": "https://dc.lft.to/lastmile_qr_scan"}, "is_reserved": 0, "lon": -76.9979905, "fusion_lat": 0.0, "name": "9d41300bd6c0cb6ee8b5e7657824fe13"}, {"type": "electric_scooter", "fusion_lon": 0.0, "bike_id": "5b0ef2c90259e66e0c59d5c006e62043", "is_disabled": 0, "lat": 38.921146666666665, "rental_uris": {"ios": "https://dc.lft.to/lastmile_qr_scan", "android": "https://dc.lft.to/lastmile_qr_scan"}, "is_reserved": 0, "lon": -77.0439425, "fusion_lat": 0.0, "name": "5b0ef2c90259e66e0c59d5c006e62043"}, {"type": "electric_scooter", "fusion_lon": 0.0, "bike_id": "952ad5851065ed780080da0571b81cdc", "is_disabled": 0, "lat": 38.88486316666667, "rental_uris": {"ios": "https://dc.lft.to/lastmile_qr_scan", "android": "https://dc.lft.to/lastmile_qr_scan"}, "is_reserved": 0, "lon": -77.03473516666666, "fusion_lat": 0.0, "name": "952ad5851065ed780080da0571b81cdc"}, {"type": "electric_scooter", "fusion_lon": 0.0, "bike_id": "484d7e59d37cb141f0edc395738d0218", "is_disabled": 0, "lat": 38.94179233333333, "rental_uris": {"ios": "https://dc.lft.to/lastmile_qr_scan", "android": "https://dc.lft.to/lastmile_qr_scan"}, "is_reserved": 0, "lon": -76.99435633333333, "fusion_lat": 0.0, "name": "484d7e59d37cb141f0edc395738d0218"}, {"type": "electric_scooter", "fusion_lon": 0.0, "bike_id": "3c4f1ca68717871b36c2a970a9852f3e", "is_disabled": 0, "lat": 38.894865833333334, "rental_uris": {"ios": "https://dc.lft.to/lastmile_qr_scan", "android": "https://dc.lft.to/lastmile_qr_scan"}, "is_reserved": 0, "lon": -77.02329766666666, "fusion_lat": 0.0, "name": "3c4f1ca68717871b36c2a970a9852f3e"}, {"type": "electric_scooter", "fusion_lon": 0.0, "bike_id": "3ac208f8f0e93f6c91a7a7ca51324ea5", "is_disabled": 0, "lat": 38.9248975, "rental_uris": {"ios": "https://dc.lft.to/lastmile_qr_scan", "android": "https://dc.lft.to/lastmile_qr_scan"}, "is_reserved": 0, "lon": -77.03182166666667, "fusion_lat": 0.0, "name": "3ac208f8f0e93f6c91a7a7ca51324ea5"}, {"type": "electric_scooter", "fusion_lon": 0.0, "bike_id": "ba5703973b6b3f895d359c4b8cdc62b7", "is_disabled": 0, "lat": 38.91024016666667, "rental_uris": {"ios": "https://dc.lft.to/lastmile_qr_scan", "android": "https://dc.lft.to/lastmile_qr_scan"}, "is_reserved": 0, "lon": -77.04336633333334, "fusion_lat": 0.0, "name": "ba5703973b6b3f895d359c4b8cdc62b7"}, {"type": "electric_scooter", "fusion_lon": 0.0, "bike_id": "a8e865e1fd664a9efd2309a66d9654f7", "is_disabled": 0, "lat": 38.8729385, "rental_uris": {"ios": "https://dc.lft.to/lastmile_qr_scan", "android": "https://dc.lft.to/lastmile_qr_scan"}, "is_reserved": 0, "lon": -77.0098715, "fusion_lat": 0.0, "name": "a8e865e1fd664a9efd2309a66d9654f7"}, {"type": "electric_scooter", "fusion_lon": 0.0, "bike_id": "d5d2f57fa222aa6d06ac6cad13c130c0", "is_disabled": 0, "lat": 38.88751, "rental_uris": {"ios": "https://dc.lft.to/lastmile_qr_scan", "android": "https://dc.lft.to/lastmile_qr_scan"}, "is_reserved": 0, "lon": -76.98346466666666, "fusion_lat": 0.0, "name": "d5d2f57fa222aa6d06ac6cad13c130c0"}, {"type": "electric_scooter", "fusion_lon": 0.0, "bike_id": "941f013359b267b29c0737fd58b24967", "is_disabled": 0, "lat": 38.91568816666667, "rental_uris": {"ios": "https://dc.lft.to/lastmile_qr_scan", "android": "https://dc.lft.to/lastmile_qr_scan"}, "is_reserved": 0, "lon": -77.04436533333333, "fusion_lat": 0.0, "name": "941f013359b267b29c0737fd58b24967"}, {"type": "electric_bike", "fusion_lon": 0.0, "bike_id": "373455ff25c911382465b9c51ff953f6", "is_disabled": 0, "lat": 38.85616066666667, "rental_uris": {"ios": "https://dc.lft.to/lastmile_qr_scan", "android": "https://dc.lft.to/lastmile_qr_scan"}, "is_reserved": 0, "lon": -76.96144783333334, "fusion_lat": 0.0, "name": "373455ff25c911382465b9c51ff953f6"}, {"type": "electric_scooter", "fusion_lon": 0.0, "bike_id": "b60f745a48470ad0095ef1af06267398", "is_disabled": 0, "lat": 38.9207675, "rental_uris": {"ios": "https://dc.lft.to/lastmile_qr_scan", "android": "https://dc.lft.to/lastmile_qr_scan"}, "is_reserved": 0, "lon": -77.02532966666666, "fusion_lat": 0.0, "name": "b60f745a48470ad0095ef1af06267398"}, {"type": "electric_scooter", "fusion_lon": 0.0, "bike_id": "59c284e0aeb6631ddc500c6b12bc4a3c", "is_disabled": 0, "lat": 38.878597, "rental_uris": {"ios": "https://dc.lft.to/lastmile_qr_scan", "android": "https://dc.lft.to/lastmile_qr_scan"}, "is_reserved": 0, "lon": -77.00600116666666, "fusion_lat": 0.0, "name": "59c284e0aeb6631ddc500c6b12bc4a3c"}, {"type": "electric_scooter", "fusion_lon": 0.0, "bike_id": "1ecadafa21ff3d2d109c77c5878abc50", "is_disabled": 0, "lat": 38.92260133333333, "rental_uris": {"ios": "https://dc.lft.to/lastmile_qr_scan", "android": "https://dc.lft.to/lastmile_qr_scan"}, "is_reserved": 0, "lon": -77.03663166666666, "fusion_lat": 0.0, "name": "1ecadafa21ff3d2d109c77c5878abc50"}, {"type": "electric_scooter", "fusion_lon": 0.0, "bike_id": "c279afb95e67117c044839d6b25409fa", "is_disabled": 0, "lat": 38.92416866666667, "rental_uris": {"ios": "https://dc.lft.to/lastmile_qr_scan", "android": "https://dc.lft.to/lastmile_qr_scan"}, "is_reserved": 0, "lon": -77.05760516666666, "fusion_lat": 0.0, "name": "c279afb95e67117c044839d6b25409fa"}, {"type": "electric_scooter", "fusion_lon": 0.0, "bike_id": "179981e3f594e7c6bdc09805a544b575", "is_disabled": 0, "lat": 38.917082, "rental_uris": {"ios": "https://dc.lft.to/lastmile_qr_scan", "android": "https://dc.lft.to/lastmile_qr_scan"}, "is_reserved": 0, "lon": -77.01139733333333, "fusion_lat": 0.0, "name": "179981e3f594e7c6bdc09805a544b575"}, {"type": "electric_scooter", "fusion_lon": 0.0, "bike_id": "a8a3edbaefb0074f8b2112715dfb3b76", "is_disabled": 0, "lat": 38.902581833333336, "rental_uris": {"ios": "https://dc.lft.to/lastmile_qr_scan", "android": "https://dc.lft.to/lastmile_qr_scan"}, "is_reserved": 0, "lon": -77.05411416666666, "fusion_lat": 0.0, "name": "a8a3edbaefb0074f8b2112715dfb3b76"}, {"type": "electric_bike", "fusion_lon": 0.0, "bike_id": "5c991dff28990c6da1011d07ac3a70ff", "is_disabled": 0, "lat": 38.84106466666667, "rental_uris": {"ios": "https://dc.lft.to/lastmile_qr_scan", "android": "https://dc.lft.to/lastmile_qr_scan"}, "is_reserved": 0, "lon": -77.0893955, "fusion_lat": 0.0, "name": "5c991dff28990c6da1011d07ac3a70ff"}, {"type": "electric_scooter", "fusion_lon": 0.0, "bike_id": "98c29cc9fb27e40a09ddee5e75f7be7c", "is_disabled": 0, "lat": 38.9218405, "rental_uris": {"ios": "https://dc.lft.to/lastmile_qr_scan", "android": "https://dc.lft.to/lastmile_qr_scan"}, "is_reserved": 0, "lon": -77.04192833333333, "fusion_lat": 0.0, "name": "98c29cc9fb27e40a09ddee5e75f7be7c"}, {"type": "electric_scooter", "fusion_lon": 0.0, "bike_id": "62d4e87d07665206c6d206eb27d482e3", "is_disabled": 0, "lat": 38.916815166666666, "rental_uris": {"ios": "https://dc.lft.to/lastmile_qr_scan", "android": "https://dc.lft.to/lastmile_qr_scan"}, "is_reserved": 0, "lon": -76.9802985, "fusion_lat": 0.0, "name": "62d4e87d07665206c6d206eb27d482e3"}, {"type": "electric_scooter", "fusion_lon": 0.0, "bike_id": "b4a77a8db11d729fe0128150e647aa32", "is_disabled": 0, "lat": 38.92255016666667, "rental_uris": {"ios": "https://dc.lft.to/lastmile_qr_scan", "android": "https://dc.lft.to/lastmile_qr_scan"}, "is_reserved": 0, "lon": -77.034065, "fusion_lat": 0.0, "name": "b4a77a8db11d729fe0128150e647aa32"}, {"type": "electric_scooter", "fusion_lon": 0.0, "bike_id": "db197cf29b095da81c1b3e487ea6860a", "is_disabled": 0, "lat": 38.92121016666667, "rental_uris": {"ios": "https://dc.lft.to/lastmile_qr_scan", "android": "https://dc.lft.to/lastmile_qr_scan"}, "is_reserved": 0, "lon": -77.01779683333334, "fusion_lat": 0.0, "name": "db197cf29b095da81c1b3e487ea6860a"}, {"type": "electric_scooter", "fusion_lon": 0.0, "bike_id": "9087ac8e380faacdadfacf7da4aed5c8", "is_disabled": 0, "lat": 38.934686166666665, "rental_uris": {"ios": "https://dc.lft.to/lastmile_qr_scan", "android": "https://dc.lft.to/lastmile_qr_scan"}, "is_reserved": 0, "lon": -77.04111633333333, "fusion_lat": 0.0, "name": "9087ac8e380faacdadfacf7da4aed5c8"}, {"type": "electric_scooter", "fusion_lon": 0.0, "bike_id": "df38a00743600c880e8adf0a9c48c782", "is_disabled": 0, "lat": 38.9176795, "rental_uris": {"ios": "https://dc.lft.to/lastmile_qr_scan", "android": "https://dc.lft.to/lastmile_qr_scan"}, "is_reserved": 0, "lon": -77.04770166666667, "fusion_lat": 0.0, "name": "df38a00743600c880e8adf0a9c48c782"}, {"type": "electric_scooter", "fusion_lon": 0.0, "bike_id": "a30f7d7d37dd5fe6ca45f14b022b2a53", "is_disabled": 0, "lat": 38.912637333333336, "rental_uris": {"ios": "https://dc.lft.to/lastmile_qr_scan", "android": "https://dc.lft.to/lastmile_qr_scan"}, "is_reserved": 0, "lon": -77.0083025, "fusion_lat": 0.0, "name": "a30f7d7d37dd5fe6ca45f14b022b2a53"}, {"type": "electric_scooter", "fusion_lon": 0.0, "bike_id": "43a226e6ee8f5111239fed9a4078ba54", "is_disabled": 0, "lat": 38.950928, "rental_uris": {"ios": "https://dc.lft.to/lastmile_qr_scan", "android": "https://dc.lft.to/lastmile_qr_scan"}, "is_reserved": 0, "lon": -77.0280095, "fusion_lat": 0.0, "name": "43a226e6ee8f5111239fed9a4078ba54"}, {"type": "electric_scooter", "fusion_lon": 0.0, "bike_id": "283c99002b767ec18da6fc51552ed856", "is_disabled": 0, "lat": 38.918071, "rental_uris": {"ios": "https://dc.lft.to/lastmile_qr_scan", "android": "https://dc.lft.to/lastmile_qr_scan"}, "is_reserved": 0, "lon": -77.03927733333333, "fusion_lat": 0.0, "name": "283c99002b767ec18da6fc51552ed856"}, {"type": "electric_scooter", "fusion_lon": 0.0, "bike_id": "3c56999bc03657364aecdf4c8683be1f", "is_disabled": 0, "lat": 38.905004166666664, "rental_uris": {"ios": "https://dc.lft.to/lastmile_qr_scan", "android": "https://dc.lft.to/lastmile_qr_scan"}, "is_reserved": 0, "lon": -77.0200155, "fusion_lat": 0.0, "name": "3c56999bc03657364aecdf4c8683be1f"}, {"type": "electric_scooter", "fusion_lon": 0.0, "bike_id": "0a2d349f1079fea38f46d439e1f09315", "is_disabled": 0, "lat": 38.8922065, "rental_uris": {"ios": "https://dc.lft.to/lastmile_qr_scan", "android": "https://dc.lft.to/lastmile_qr_scan"}, "is_reserved": 0, "lon": -77.04500366666667, "fusion_lat": 0.0, "name": "0a2d349f1079fea38f46d439e1f09315"}, {"type": "electric_bike", "fusion_lon": 0.0, "bike_id": "a3f54cdc5695bff6e9716cc10dd2b8cb", "is_disabled": 0, "lat": 38.857215, "rental_uris": {"ios": "https://dc.lft.to/lastmile_qr_scan", "android": "https://dc.lft.to/lastmile_qr_scan"}, "is_reserved": 0, "lon": -76.9777395, "fusion_lat": 0.0, "name": "a3f54cdc5695bff6e9716cc10dd2b8cb"}, {"type": "electric_scooter", "fusion_lon": 0.0, "bike_id": "262b8688bb93e56e2fbb1c7d020daa09", "is_disabled": 0, "lat": 38.91188916666667, "rental_uris": {"ios": "https://dc.lft.to/lastmile_qr_scan", "android": "https://dc.lft.to/lastmile_qr_scan"}, "is_reserved": 0, "lon": -77.042231, "fusion_lat": 0.0, "name": "262b8688bb93e56e2fbb1c7d020daa09"}, {"type": "electric_scooter", "fusion_lon": 0.0, "bike_id": "d37636731efe517dcbbd1aedcefc4316", "is_disabled": 0, "lat": 38.93202566666667, "rental_uris": {"ios": "https://dc.lft.to/lastmile_qr_scan", "android": "https://dc.lft.to/lastmile_qr_scan"}, "is_reserved": 0, "lon": -77.07276133333333, "fusion_lat": 0.0, "name": "d37636731efe517dcbbd1aedcefc4316"}, {"type": "electric_scooter", "fusion_lon": 0.0, "bike_id": "08f6acc79164ed85d91deb7f55294310", "is_disabled": 0, "lat": 38.91819733333333, "rental_uris": {"ios": "https://dc.lft.to/lastmile_qr_scan", "android": "https://dc.lft.to/lastmile_qr_scan"}, "is_reserved": 0, "lon": -77.0271215, "fusion_lat": 0.0, "name": "08f6acc79164ed85d91deb7f55294310"}, {"type": "electric_scooter", "fusion_lon": 0.0, "bike_id": "32db9e4e752b4dca577e21d291335511", "is_disabled": 0, "lat": 38.900461666666665, "rental_uris": {"ios": "https://dc.lft.to/lastmile_qr_scan", "android": "https://dc.lft.to/lastmile_qr_scan"}, "is_reserved": 0, "lon": -77.04184833333333, "fusion_lat": 0.0, "name": "32db9e4e752b4dca577e21d291335511"}, {"type": "electric_scooter", "fusion_lon": 0.0, "bike_id": "1cff9ec514480509e69549ffec299309", "is_disabled": 0, "lat": 38.91417116666667, "rental_uris": {"ios": "https://dc.lft.to/lastmile_qr_scan", "android": "https://dc.lft.to/lastmile_qr_scan"}, "is_reserved": 0, "lon": -77.04503116666666, "fusion_lat": 0.0, "name": "1cff9ec514480509e69549ffec299309"}, {"type": "electric_scooter", "fusion_lon": 0.0, "bike_id": "ca43cb3fb92d9f11f28d95bd4714406a", "is_disabled": 0, "lat": 38.93364966666667, "rental_uris": {"ios": "https://dc.lft.to/lastmile_qr_scan", "android": "https://dc.lft.to/lastmile_qr_scan"}, "is_reserved": 0, "lon": -77.02648366666666, "fusion_lat": 0.0, "name": "ca43cb3fb92d9f11f28d95bd4714406a"}, {"type": "electric_scooter", "fusion_lon": 0.0, "bike_id": "6bec421b33fe59ca9962a1bcc5277645", "is_disabled": 0, "lat": 38.9335045, "rental_uris": {"ios": "https://dc.lft.to/lastmile_qr_scan", "android": "https://dc.lft.to/lastmile_qr_scan"}, "is_reserved": 0, "lon": -77.036592, "fusion_lat": 0.0, "name": "6bec421b33fe59ca9962a1bcc5277645"}, {"type": "electric_scooter", "fusion_lon": 0.0, "bike_id": "ea1a1513189a9e98fccc10d948b8db0c", "is_disabled": 0, "lat": 38.91710833333333, "rental_uris": {"ios": "https://dc.lft.to/lastmile_qr_scan", "android": "https://dc.lft.to/lastmile_qr_scan"}, "is_reserved": 0, "lon": -77.034798, "fusion_lat": 0.0, "name": "ea1a1513189a9e98fccc10d948b8db0c"}, {"type": "electric_scooter", "fusion_lon": 0.0, "bike_id": "e79986215b7ebcd928aa1e216ac0009a", "is_disabled": 0, "lat": 38.87085833333333, "rental_uris": {"ios": "https://dc.lft.to/lastmile_qr_scan", "android": "https://dc.lft.to/lastmile_qr_scan"}, "is_reserved": 0, "lon": -76.96565866666667, "fusion_lat": 0.0, "name": "e79986215b7ebcd928aa1e216ac0009a"}, {"type": "electric_scooter", "fusion_lon": 0.0, "bike_id": "cb7d7d538efab2f2bce01ca9c594e324", "is_disabled": 0, "lat": 38.89730733333333, "rental_uris": {"ios": "https://dc.lft.to/lastmile_qr_scan", "android": "https://dc.lft.to/lastmile_qr_scan"}, "is_reserved": 0, "lon": -77.02476783333333, "fusion_lat": 0.0, "name": "cb7d7d538efab2f2bce01ca9c594e324"}, {"type": "electric_scooter", "fusion_lon": 0.0, "bike_id": "5097ef92b8149e19e97164881de8cd68", "is_disabled": 0, "lat": 38.9251215, "rental_uris": {"ios": "https://dc.lft.to/lastmile_qr_scan", "android": "https://dc.lft.to/lastmile_qr_scan"}, "is_reserved": 0, "lon": -77.022541, "fusion_lat": 0.0, "name": "5097ef92b8149e19e97164881de8cd68"}, {"type": "electric_scooter", "fusion_lon": 0.0, "bike_id": "a8bad995640db3cac73d597158ea61bd", "is_disabled": 0, "lat": 38.9156335, "rental_uris": {"ios": "https://dc.lft.to/lastmile_qr_scan", "android": "https://dc.lft.to/lastmile_qr_scan"}, "is_reserved": 0, "lon": -77.0331565, "fusion_lat": 0.0, "name": "a8bad995640db3cac73d597158ea61bd"}, {"type": "electric_bike", "fusion_lon": 0.0, "bike_id": "992724f8e7f98c1a7a4c1ddd60e01846", "is_disabled": 0, "lat": 38.945093166666666, "rental_uris": {"ios": "https://dc.lft.to/lastmile_qr_scan", "android": "https://dc.lft.to/lastmile_qr_scan"}, "is_reserved": 0, "lon": -77.0066875, "fusion_lat": 0.0, "name": "992724f8e7f98c1a7a4c1ddd60e01846"}, {"type": "electric_scooter", "fusion_lon": 0.0, "bike_id": "4423481a8b69bb3cb9c5592486836d7c", "is_disabled": 0, "lat": 38.8922415, "rental_uris": {"ios": "https://dc.lft.to/lastmile_qr_scan", "android": "https://dc.lft.to/lastmile_qr_scan"}, "is_reserved": 0, "lon": -77.048659, "fusion_lat": 0.0, "name": "4423481a8b69bb3cb9c5592486836d7c"}, {"type": "electric_scooter", "fusion_lon": 0.0, "bike_id": "d6f084d8cd4bacb737cfa221f3f921c2", "is_disabled": 0, "lat": 38.892681, "rental_uris": {"ios": "https://dc.lft.to/lastmile_qr_scan", "android": "https://dc.lft.to/lastmile_qr_scan"}, "is_reserved": 0, "lon": -77.04204933333334, "fusion_lat": 0.0, "name": "d6f084d8cd4bacb737cfa221f3f921c2"}, {"type": "electric_scooter", "fusion_lon": 0.0, "bike_id": "ed5c3d8a2cd95578d5648ae9db583264", "is_disabled": 0, "lat": 38.9142275, "rental_uris": {"ios": "https://dc.lft.to/lastmile_qr_scan", "android": "https://dc.lft.to/lastmile_qr_scan"}, "is_reserved": 0, "lon": -77.03811666666667, "fusion_lat": 0.0, "name": "ed5c3d8a2cd95578d5648ae9db583264"}, {"type": "electric_scooter", "fusion_lon": 0.0, "bike_id": "26266ec2b6651a5a0c65d414f1c6ce19", "is_disabled": 0, "lat": 38.8754925, "rental_uris": {"ios": "https://dc.lft.to/lastmile_qr_scan", "android": "https://dc.lft.to/lastmile_qr_scan"}, "is_reserved": 0, "lon": -76.964919, "fusion_lat": 0.0, "name": "26266ec2b6651a5a0c65d414f1c6ce19"}, {"type": "electric_scooter", "fusion_lon": 0.0, "bike_id": "521c9ac8dabee933c2979330ddbc203a", "is_disabled": 0, "lat": 38.918118, "rental_uris": {"ios": "https://dc.lft.to/lastmile_qr_scan", "android": "https://dc.lft.to/lastmile_qr_scan"}, "is_reserved": 0, "lon": -77.034479, "fusion_lat": 0.0, "name": "521c9ac8dabee933c2979330ddbc203a"}, {"type": "electric_scooter", "fusion_lon": 0.0, "bike_id": "d84bddb398ab2364f58b75bf84e77576", "is_disabled": 0, "lat": 38.914432166666664, "rental_uris": {"ios": "https://dc.lft.to/lastmile_qr_scan", "android": "https://dc.lft.to/lastmile_qr_scan"}, "is_reserved": 0, "lon": -77.04177183333333, "fusion_lat": 0.0, "name": "d84bddb398ab2364f58b75bf84e77576"}, {"type": "electric_scooter", "fusion_lon": 0.0, "bike_id": "4573691389b3f09f85e57f229cb1dcc3", "is_disabled": 0, "lat": 38.91158733333333, "rental_uris": {"ios": "https://dc.lft.to/lastmile_qr_scan", "android": "https://dc.lft.to/lastmile_qr_scan"}, "is_reserved": 0, "lon": -77.0467115, "fusion_lat": 0.0, "name": "4573691389b3f09f85e57f229cb1dcc3"}, {"type": "electric_scooter", "fusion_lon": 0.0, "bike_id": "776413398a8c06b0e2be2c1e7ed9653d", "is_disabled": 0, "lat": 38.918292666666666, "rental_uris": {"ios": "https://dc.lft.to/lastmile_qr_scan", "android": "https://dc.lft.to/lastmile_qr_scan"}, "is_reserved": 0, "lon": -77.02313266666667, "fusion_lat": 0.0, "name": "776413398a8c06b0e2be2c1e7ed9653d"}, {"type": "electric_scooter", "fusion_lon": 0.0, "bike_id": "371f1b911efa54ccf5bf577d293ea68d", "is_disabled": 0, "lat": 38.895031833333334, "rental_uris": {"ios": "https://dc.lft.to/lastmile_qr_scan", "android": "https://dc.lft.to/lastmile_qr_scan"}, "is_reserved": 0, "lon": -76.93476216666667, "fusion_lat": 0.0, "name": "371f1b911efa54ccf5bf577d293ea68d"}, {"type": "electric_scooter", "fusion_lon": 0.0, "bike_id": "27ee86991160c50519a63d07f9af4986", "is_disabled": 0, "lat": 38.92739433333333, "rental_uris": {"ios": "https://dc.lft.to/lastmile_qr_scan", "android": "https://dc.lft.to/lastmile_qr_scan"}, "is_reserved": 0, "lon": -77.034299, "fusion_lat": 0.0, "name": "27ee86991160c50519a63d07f9af4986"}, {"type": "electric_bike", "fusion_lon": 0.0, "bike_id": "058950bf0c7ea871e6e9509d2db7ea98", "is_disabled": 0, "lat": 38.92731233333333, "rental_uris": {"ios": "https://dc.lft.to/lastmile_qr_scan", "android": "https://dc.lft.to/lastmile_qr_scan"}, "is_reserved": 0, "lon": -76.99363266666667, "fusion_lat": 0.0, "name": "058950bf0c7ea871e6e9509d2db7ea98"}, {"type": "electric_scooter", "fusion_lon": 0.0, "bike_id": "cdd35e24139939baf4b990c4583e7b22", "is_disabled": 0, "lat": 38.90268366666667, "rental_uris": {"ios": "https://dc.lft.to/lastmile_qr_scan", "android": "https://dc.lft.to/lastmile_qr_scan"}, "is_reserved": 0, "lon": -77.01758966666667, "fusion_lat": 0.0, "name": "cdd35e24139939baf4b990c4583e7b22"}, {"type": "electric_scooter", "fusion_lon": 0.0, "bike_id": "82a143db0e41408a16adf2b6f56b2dd0", "is_disabled": 0, "lat": 38.907186833333334, "rental_uris": {"ios": "https://dc.lft.to/lastmile_qr_scan", "android": "https://dc.lft.to/lastmile_qr_scan"}, "is_reserved": 0, "lon": -77.02935616666667, "fusion_lat": 0.0, "name": "82a143db0e41408a16adf2b6f56b2dd0"}, {"type": "electric_scooter", "fusion_lon": 0.0, "bike_id": "188014be3942e6c6a7764beb03b62148", "is_disabled": 0, "lat": 38.9392335, "rental_uris": {"ios": "https://dc.lft.to/lastmile_qr_scan", "android": "https://dc.lft.to/lastmile_qr_scan"}, "is_reserved": 0, "lon": -77.03674183333334, "fusion_lat": 0.0, "name": "188014be3942e6c6a7764beb03b62148"}, {"type": "electric_scooter", "fusion_lon": 0.0, "bike_id": "6e00352685175cb0cb9f48c7734956eb", "is_disabled": 0, "lat": 38.900131, "rental_uris": {"ios": "https://dc.lft.to/lastmile_qr_scan", "android": "https://dc.lft.to/lastmile_qr_scan"}, "is_reserved": 0, "lon": -76.988973, "fusion_lat": 0.0, "name": "6e00352685175cb0cb9f48c7734956eb"}, {"type": "electric_scooter", "fusion_lon": 0.0, "bike_id": "85372798aaa83b3d987017b97342c391", "is_disabled": 0, "lat": 38.905724666666664, "rental_uris": {"ios": "https://dc.lft.to/lastmile_qr_scan", "android": "https://dc.lft.to/lastmile_qr_scan"}, "is_reserved": 0, "lon": -77.00781116666667, "fusion_lat": 0.0, "name": "85372798aaa83b3d987017b97342c391"}, {"type": "electric_scooter", "fusion_lon": 0.0, "bike_id": "2fc9168f5312e4f6ef8d072ffef26424", "is_disabled": 0, "lat": 38.908422, "rental_uris": {"ios": "https://dc.lft.to/lastmile_qr_scan", "android": "https://dc.lft.to/lastmile_qr_scan"}, "is_reserved": 0, "lon": -77.026935, "fusion_lat": 0.0, "name": "2fc9168f5312e4f6ef8d072ffef26424"}, {"type": "electric_scooter", "fusion_lon": 0.0, "bike_id": "2e6513e075eb075c13974bd79b16c240", "is_disabled": 0, "lat": 38.93096, "rental_uris": {"ios": "https://dc.lft.to/lastmile_qr_scan", "android": "https://dc.lft.to/lastmile_qr_scan"}, "is_reserved": 0, "lon": -77.0347915, "fusion_lat": 0.0, "name": "2e6513e075eb075c13974bd79b16c240"}, {"type": "electric_scooter", "fusion_lon": 0.0, "bike_id": "549892f03f3e15890849a6834bae2378", "is_disabled": 0, "lat": 38.9171235, "rental_uris": {"ios": "https://dc.lft.to/lastmile_qr_scan", "android": "https://dc.lft.to/lastmile_qr_scan"}, "is_reserved": 0, "lon": -77.03869666666667, "fusion_lat": 0.0, "name": "549892f03f3e15890849a6834bae2378"}, {"type": "electric_scooter", "fusion_lon": 0.0, "bike_id": "4abbcfe6c8365c65432e798d6e59d8c0", "is_disabled": 0, "lat": 38.912712166666665, "rental_uris": {"ios": "https://dc.lft.to/lastmile_qr_scan", "android": "https://dc.lft.to/lastmile_qr_scan"}, "is_reserved": 0, "lon": -77.04705266666667, "fusion_lat": 0.0, "name": "4abbcfe6c8365c65432e798d6e59d8c0"}, {"type": "electric_scooter", "fusion_lon": 0.0, "bike_id": "851985ce00e41042ab807da611ab10d3", "is_disabled": 0, "lat": 38.94832983333333, "rental_uris": {"ios": "https://dc.lft.to/lastmile_qr_scan", "android": "https://dc.lft.to/lastmile_qr_scan"}, "is_reserved": 0, "lon": -77.02562216666666, "fusion_lat": 0.0, "name": "851985ce00e41042ab807da611ab10d3"}, {"type": "electric_scooter", "fusion_lon": 0.0, "bike_id": "4259267dffd153e77d0e949eef18fe98", "is_disabled": 0, "lat": 38.91790066666667, "rental_uris": {"ios": "https://dc.lft.to/lastmile_qr_scan", "android": "https://dc.lft.to/lastmile_qr_scan"}, "is_reserved": 0, "lon": -77.026902, "fusion_lat": 0.0, "name": "4259267dffd153e77d0e949eef18fe98"}, {"type": "electric_scooter", "fusion_lon": 0.0, "bike_id": "c6540846968b215f83adc357f153e1e2", "is_disabled": 0, "lat": 38.8833585, "rental_uris": {"ios": "https://dc.lft.to/lastmile_qr_scan", "android": "https://dc.lft.to/lastmile_qr_scan"}, "is_reserved": 0, "lon": -77.01748583333334, "fusion_lat": 0.0, "name": "c6540846968b215f83adc357f153e1e2"}, {"type": "electric_scooter", "fusion_lon": 0.0, "bike_id": "f2eb0cb660c98b90b78d7be9dd1e1e5e", "is_disabled": 0, "lat": 38.89552316666666, "rental_uris": {"ios": "https://dc.lft.to/lastmile_qr_scan", "android": "https://dc.lft.to/lastmile_qr_scan"}, "is_reserved": 0, "lon": -76.98189483333333, "fusion_lat": 0.0, "name": "f2eb0cb660c98b90b78d7be9dd1e1e5e"}, {"type": "electric_scooter", "fusion_lon": 0.0, "bike_id": "f22e32eab1b159221a0a2c4c76eddc1f", "is_disabled": 0, "lat": 38.928943833333335, "rental_uris": {"ios": "https://dc.lft.to/lastmile_qr_scan", "android": "https://dc.lft.to/lastmile_qr_scan"}, "is_reserved": 0, "lon": -77.02661033333334, "fusion_lat": 0.0, "name": "f22e32eab1b159221a0a2c4c76eddc1f"}, {"type": "electric_scooter", "fusion_lon": 0.0, "bike_id": "8904924b1f1131894ebbaa11efdcba01", "is_disabled": 0, "lat": 38.914181666666664, "rental_uris": {"ios": "https://dc.lft.to/lastmile_qr_scan", "android": "https://dc.lft.to/lastmile_qr_scan"}, "is_reserved": 0, "lon": -77.03555983333334, "fusion_lat": 0.0, "name": "8904924b1f1131894ebbaa11efdcba01"}, {"type": "electric_scooter", "fusion_lon": 0.0, "bike_id": "9421d0736143e2b316b24cda19ddf9bc", "is_disabled": 0, "lat": 38.90459966666667, "rental_uris": {"ios": "https://dc.lft.to/lastmile_qr_scan", "android": "https://dc.lft.to/lastmile_qr_scan"}, "is_reserved": 0, "lon": -77.05334216666667, "fusion_lat": 0.0, "name": "9421d0736143e2b316b24cda19ddf9bc"}, {"type": "electric_scooter", "fusion_lon": 0.0, "bike_id": "7991d916bc78b25bf34448337d0b0c1d", "is_disabled": 0, "lat": 38.905637, "rental_uris": {"ios": "https://dc.lft.to/lastmile_qr_scan", "android": "https://dc.lft.to/lastmile_qr_scan"}, "is_reserved": 0, "lon": -77.01764566666667, "fusion_lat": 0.0, "name": "7991d916bc78b25bf34448337d0b0c1d"}, {"type": "electric_scooter", "fusion_lon": 0.0, "bike_id": "dded3b30a9135b1fe0dbe5d1b745456a", "is_disabled": 0, "lat": 38.892214333333335, "rental_uris": {"ios": "https://dc.lft.to/lastmile_qr_scan", "android": "https://dc.lft.to/lastmile_qr_scan"}, "is_reserved": 0, "lon": -77.0262965, "fusion_lat": 0.0, "name": "dded3b30a9135b1fe0dbe5d1b745456a"}, {"type": "electric_scooter", "fusion_lon": 0.0, "bike_id": "d87a0db1ee3a7adb46ddb8d28fabf90c", "is_disabled": 0, "lat": 38.90403083333333, "rental_uris": {"ios": "https://dc.lft.to/lastmile_qr_scan", "android": "https://dc.lft.to/lastmile_qr_scan"}, "is_reserved": 0, "lon": -77.02002916666666, "fusion_lat": 0.0, "name": "d87a0db1ee3a7adb46ddb8d28fabf90c"}, {"type": "electric_bike", "fusion_lon": 0.0, "bike_id": "b3a356189f42c69b8e199a0489a6166e", "is_disabled": 0, "lat": 38.83521183333333, "rental_uris": {"ios": "https://dc.lft.to/lastmile_qr_scan", "android": "https://dc.lft.to/lastmile_qr_scan"}, "is_reserved": 0, "lon": -76.98705283333334, "fusion_lat": 0.0, "name": "b3a356189f42c69b8e199a0489a6166e"}, {"type": "electric_scooter", "fusion_lon": 0.0, "bike_id": "750aae5990ec11648369c0cc6b10f06f", "is_disabled": 0, "lat": 38.889996833333335, "rental_uris": {"ios": "https://dc.lft.to/lastmile_qr_scan", "android": "https://dc.lft.to/lastmile_qr_scan"}, "is_reserved": 0, "lon": -76.95433133333333, "fusion_lat": 0.0, "name": "750aae5990ec11648369c0cc6b10f06f"},