{"data": {"bikes": [{"lat": 38.897302833333335, "is_disabled": 0, "lon": -76.92591516666667, "is_reserved": 0, "fusion_lon": 0.0, "fusion_lat": 0.0, "name": "a1aaf2329b84d563dedaf9c55a1fd3bd", "type": "electric_scooter", "rental_uris": {"ios": "https://dc.lft.to/lastmile_qr_scan", "android": "https://dc.lft.to/lastmile_qr_scan"}, "bike_id": "a1aaf2329b84d563dedaf9c55a1fd3bd"}, {"lat": 38.9236565, "is_disabled": 0, "lon": -77.0503845, "is_reserved": 0, "fusion_lon": 0.0, "fusion_lat": 0.0, "name": "ba795a5cc299ef1074b4db91888332fe", "type": "electric_scooter", "rental_uris": {"ios": "https://dc.lft.to/lastmile_qr_scan", "android": "https://dc.lft.to/lastmile_qr_scan"}, "bike_id": "ba795a5cc299ef1074b4db91888332fe"}, {"lat": 38.895491, "is_disabled": 0, "lon": -77.009114, "is_reserved": 0, "fusion_lon": 0.0, "fusion_lat": 0.0, "name": "152092edc48886335c58f9c3851dbd2e", "type": "electric_scooter", "rental_uris": {"ios": "https://dc.lft.to/lastmile_qr_scan", "android": "https://dc.lft.to/lastmile_qr_scan"}, "bike_id": "152092edc48886335c58f9c3851dbd2e"}, {"lat": 38.91374416666667, "is_disabled": 0, "lon": -77.00915483333333, "is_reserved": 0, "fusion_lon": 0.0, "fusion_lat": 0.0, "name": "063885eb07b84968ef8820460bca3611", "type": "electric_scooter", "rental_uris": {"ios": "https://dc.lft.to/lastmile_qr_scan", "android": "https://dc.lft.to/lastmile_qr_scan"}, "bike_id": "063885eb07b84968ef8820460bca3611"}, {"lat": 38.911907166666666, "is_disabled": 0, "lon": -77.03216633333334, "is_reserved": 0, "fusion_lon": 0.0, "fusion_lat": 0.0, "name": "d42fcf797d18fe5935e1ec329c3a1b1b", "type": "electric_scooter", "rental_uris": {"ios": "https://dc.lft.to/lastmile_qr_scan", "android": "https://dc.lft.to/lastmile_qr_scan"}, "bike_id": "d42fcf797d18fe5935e1ec329c3a1b1b"}, {"lat": 38.85514666666667, "is_disabled": 0, "lon": -76.9863525, "is_reserved": 0, "fusion_lon": 0.0, "fusion_lat": 0.0, "name": "19d537e7f294f84c5db0df2ca31ffebe", "type": "electric_scooter", "rental_uris": {"ios": "https://dc.lft.to/lastmile_qr_scan", "android": "https://dc.lft.to/lastmile_qr_scan"}, "bike_id": "19d537e7f294f84c5db0df2ca31ffebe"}, {"lat": 38.918204, "is_disabled": 0, "lon": -77.031662, "is_reserved": 0, "fusion_lon": 0.0, "fusion_lat": 0.0, "name": "75ba41b54af928d6ae9811a8a60ce4de", "type": "electric_scooter", "rental_uris": {"ios": "https://dc.lft.to/lastmile_qr_scan", "android": "https://dc.lft.to/lastmile_qr_scan"}, "bike_id": "75ba41b54af928d6ae9811a8a60ce4de"}, {"lat": 38.907677, "is_disabled": 0, "lon": -77.02428083333334, "is_reserved": 0, "fusion_lon": 0.0, "fusion_lat": 0.0, "name": "81f4ff6c21a8406c364ca993924e5f5f", "type": "electric_scooter", "rental_uris": {"ios": "https://dc.lft.to/lastmile_qr_scan", "android": "https://dc.lft.to/lastmile_qr_scan"}, "bike_id": "81f4ff6c21a8406c364ca993924e5f5f"}, {"lat": 38.907724, "is_disabled": 0, "lon": -76.99854383333333, "is_reserved": 0, "fusion_lon": 0.0, "fusion_lat": 0.0, "name": "cbe8aadc2e7a90ac3b44e0001bd9fbcf", "type": "electric_scooter", "rental_uris": {"ios": "https://dc.lft.to/lastmile_qr_scan", "android": "https://dc.lft.to/lastmile_qr_scan"}, "bike_id": "cbe8aadc2e7a90ac3b44e0001bd9fbcf"}, {"lat": 38.91894966666667, "is_disabled": 0, "lon": -77.0345515, "is_reserved": 0, "fusion_lon": 0.0, "fusion_lat": 0.0, "name": "d44239f497dd47326b3ddc5533847978", "type": "electric_scooter", "rental_uris": {"ios": "https://dc.lft.to/lastmile_qr_scan", "android": "https://dc.lft.to/lastmile_qr_scan"}, "bike_id": "d44239f497dd47326b3ddc5533847978"}, {"lat": 38.903172, "is_disabled": 0, "lon": -77.0188405, "is_reserved": 0, "fusion_lon": 0.0, "fusion_lat": 0.0, "name": "3de766ab909cae46f978207e82feeda3", "type": "electric_scooter", "rental_uris": {"ios": "https://dc.lft.to/lastmile_qr_scan", "android": "https://dc.lft.to/lastmile_qr_scan"}, "bike_id": "3de766ab909cae46f978207e82feeda3"}, {"lat": 38.877220666666666, "is_disabled": 0, "lon": -77.01760483333334, "is_reserved": 0, "fusion_lon": 0.0, "fusion_lat": 0.0, "name": "f50a322921f15e62542a5941a4c62e01", "type": "electric_scooter", "rental_uris": {"ios": "https://dc.lft.to/lastmile_qr_scan", "android": "https://dc.lft.to/lastmile_qr_scan"}, "bike_id": "f50a322921f15e62542a5941a4c62e01"}, {"lat": 38.92232633333333, "is_disabled": 0, "lon": -77.03354216666666, "is_reserved": 0, "fusion_lon": 0.0, "fusion_lat": 0.0, "name": "590ff993839f16c8338cfc7c2d5f5c76", "type": "electric_scooter", "rental_uris": {"ios": "https://dc.lft.to/lastmile_qr_scan", "android": "https://dc.lft.to/lastmile_qr_scan"}, "bike_id": "590ff993839f16c8338cfc7c2d5f5c76"}, {"lat": 38.926839, "is_disabled": 0, "lon": -77.02849866666666, "is_reserved": 0, "fusion_lon": 0.0, "fusion_lat": 0.0, "name": "db6fc7c7b3f7e46f2e5a83d594cdd0e4", "type": "electric_bike", "rental_uris": {"ios": "https://dc.lft.to/lastmile_qr_scan", "android": "https://dc.lft.to/lastmile_qr_scan"}, "bike_id": "db6fc7c7b3f7e46f2e5a83d594cdd0e4"}, {"lat": 38.9268495, "is_disabled": 0, "lon": -77.015723, "is_reserved": 0, "fusion_lon": 0.0, "fusion_lat": 0.0, "name": "5a371fa74571931c615c1abc5481bcab", "type": "electric_scooter", "rental_uris": {"ios": "https://dc.lft.to/lastmile_qr_scan", "android": "https://dc.lft.to/lastmile_qr_scan"}, "bike_id": "5a371fa74571931c615c1abc5481bcab"}, {"lat": 38.9072745, "is_disabled": 0, "lon": -77.04526566666667, "is_reserved": 0, "fusion_lon": 0.0, "fusion_lat": 0.0, "name": "0dd0bde4de9a6b0a634eff2207b05cd4", "type": "electric_scooter", "rental_uris": {"ios": "https://dc.lft.to/lastmile_qr_scan", "android": "https://dc.lft.to/lastmile_qr_scan"}, "bike_id": "0dd0bde4de9a6b0a634eff2207b05cd4"}, {"lat": 38.895416833333336, "is_disabled": 0, "lon": -76.98245983333334, "is_reserved": 0, "fusion_lon": 0.0, "fusion_lat": 0.0, "name": "241b1621c0c32ea613e926539f3283e6", "type": "electric_scooter", "rental_uris": {"ios": "https://dc.lft.to/lastmile_qr_scan", "android": "https://dc.lft.to/lastmile_qr_scan"}, "bike_id": "241b1621c0c32ea613e926539f3283e6"}, {"lat": 38.90395483333333, "is_disabled": 0, "lon": -77.06292983333333, "is_reserved": 0, "fusion_lon": 0.0, "fusion_lat": 0.0, "name": "8b71e4aefff2d169aae2460303e5d71f", "type": "electric_scooter", "rental_uris": {"ios": "https://dc.lft.to/lastmile_qr_scan", "android": "https://dc.lft.to/lastmile_qr_scan"}, "bike_id": "8b71e4aefff2d169aae2460303e5d71f"}, {"lat": 38.906941, "is_disabled": 0, "lon": -76.9525485, "is_reserved": 0, "fusion_lon": 0.0, "fusion_lat": 0.0, "name": "bb9b8e0669437bec3a41526be6437ced", "type": "electric_bike", "rental_uris": {"ios": "https://dc.lft.to/lastmile_qr_scan", "android": "https://dc.lft.to/lastmile_qr_scan"}, "bike_id": "bb9b8e0669437bec3a41526be6437ced"}, {"lat": 38.91870883333333, "is_disabled": 0, "lon": -77.0419785, "is_reserved": 0, "fusion_lon": 0.0, "fusion_lat": 0.0, "name": "df952c7ae6998699772f903f1bb2edae", "type": "electric_scooter", "rental_uris": {"ios": "https://dc.lft.to/lastmile_qr_scan", "android": "https://dc.lft.to/lastmile_qr_scan"}, "bike_id": "df952c7ae6998699772f903f1bb2edae"}, {"lat": 38.8874175, "is_disabled": 0, "lon": -77.01628516666666, "is_reserved": 0, "fusion_lon": 0.0, "fusion_lat": 0.0, "name": "8fbbbe8deff0d722956e230fe9d4ee7f", "type": "electric_scooter", "rental_uris": {"ios": "https://dc.lft.to/lastmile_qr_scan", "android": "https://dc.lft.to/lastmile_qr_scan"}, "bike_id": "8fbbbe8deff0d722956e230fe9d4ee7f"}, {"lat": 38.8955, "is_disabled": 0, "lon": -77.00913766666666, "is_reserved": 0, "fusion_lon": 0.0, "fusion_lat": 0.0, "name": "00808f7cb396ee64c27ce4489406bef5", "type": "electric_scooter", "rental_uris": {"ios": "https://dc.lft.to/lastmile_qr_scan", "android": "https://dc.lft.to/lastmile_qr_scan"}, "bike_id": "00808f7cb396ee64c27ce4489406bef5"}, {"lat": 38.89722283333333, "is_disabled": 0, "lon": -76.98358083333333, "is_reserved": 0, "fusion_lon": 0.0, "fusion_lat": 0.0, "name": "b7de14c3dff8700f4df8fb38bb0c942f", "type": "electric_scooter", "rental_uris": {"ios": "https://dc.lft.to/lastmile_qr_scan", "android": "https://dc.lft.to/lastmile_qr_scan"}, "bike_id": "b7de14c3dff8700f4df8fb38bb0c942f"}, {"lat": 38.893575, "is_disabled": 0, "lon": -77.0033655, "is_reserved": 0, "fusion_lon": 0.0, "fusion_lat": 0.0, "name": "cc073ee30b0e86ff8ec4128e1075d0db", "type": "electric_scooter", "rental_uris": {"ios": "https://dc.lft.to/lastmile_qr_scan", "android": "https://dc.lft.to/lastmile_qr_scan"}, "bike_id": "cc073ee30b0e86ff8ec4128e1075d0db"}, {"lat": 38.92168383333333, "is_disabled": 0, "lon": -77.03321483333333, "is_reserved": 0, "fusion_lon": 0.0, "fusion_lat": 0.0, "name": "7ce1d897734f79584358ece5dcda771b", "type": "electric_scooter", "rental_uris": {"ios": "https://dc.lft.to/lastmile_qr_scan", "android": "https://dc.lft.to/lastmile_qr_scan"}, "bike_id": "7ce1d897734f79584358ece5dcda771b"}, {"lat": 38.92044766666667, "is_disabled": 0, "lon": -77.01676783333333, "is_reserved": 0, "fusion_lon": 0.0, "fusion_lat": 0.0, "name": "504f2e6e6887faec1985e0836dc16cca", "type": "electric_scooter", "rental_uris": {"ios": "https://dc.lft.to/lastmile_qr_scan", "android": "https://dc.lft.to/lastmile_qr_scan"}, "bike_id": "504f2e6e6887faec1985e0836dc16cca"}, {"lat": 38.889571333333336, "is_disabled": 0, "lon": -76.9535905, "is_reserved": 0, "fusion_lon": 0.0, "fusion_lat": 0.0, "name": "ce07846447ad6348300035f5bb64453b", "type": "electric_scooter", "rental_uris": {"ios": "https://dc.lft.to/lastmile_qr_scan", "android": "https://dc.lft.to/lastmile_qr_scan"}, "bike_id": "ce07846447ad6348300035f5bb64453b"}, {"lat": 38.876990166666666, "is_disabled": 0, "lon": -77.01770683333334, "is_reserved": 0, "fusion_lon": 0.0, "fusion_lat": 0.0, "name": "75c37086ebe987a2bea05b6acc52bd8b", "type": "electric_scooter", "rental_uris": {"ios": "https://dc.lft.to/lastmile_qr_scan", "android": "https://dc.lft.to/lastmile_qr_scan"}, "bike_id": "75c37086ebe987a2bea05b6acc52bd8b"}, {"lat": 38.9015135, "is_disabled": 0, "lon": -77.05916066666667, "is_reserved": 0, "fusion_lon": 0.0, "fusion_lat": 0.0, "name": "d1ec1b4299879a347607dc6a571f1ec0", "type": "electric_scooter", "rental_uris": {"ios": "https://dc.lft.to/lastmile_qr_scan", "android": "https://dc.lft.to/lastmile_qr_scan"}, "bike_id": "d1ec1b4299879a347607dc6a571f1ec0"}, {"lat": 38.92301466666667, "is_disabled": 0, "lon": -76.98851833333333, "is_reserved": 0, "fusion_lon": 0.0, "fusion_lat": 0.0, "name": "f6934e3de52f56bf87f3b2e8771203fa", "type": "electric_scooter", "rental_uris": {"ios": "https://dc.lft.to/lastmile_qr_scan", "android": "https://dc.lft.to/lastmile_qr_scan"}, "bike_id": "f6934e3de52f56bf87f3b2e8771203fa"}, {"lat": 38.903234833333336, "is_disabled": 0, "lon": -77.03853683333334, "is_reserved": 0, "fusion_lon": 0.0, "fusion_lat": 0.0, "name": "8f72ed8762c072f3cd22a6638ce7be21", "type": "electric_scooter", "rental_uris": {"ios": "https://dc.lft.to/lastmile_qr_scan", "android": "https://dc.lft.to/lastmile_qr_scan"}, "bike_id": "8f72ed8762c072f3cd22a6638ce7be21"}, {"lat": 38.911906, "is_disabled": 0, "lon": -77.00730933333334, "is_reserved": 0, "fusion_lon": 0.0, "fusion_lat": 0.0, "name": "0625b47d771e7171f4567001631e9460", "type": "electric_scooter", "rental_uris": {"ios": "https://dc.lft.to/lastmile_qr_scan", "android": "https://dc.lft.to/lastmile_qr_scan"}, "bike_id": "0625b47d771e7171f4567001631e9460"}, {"lat": 38.910011833333336, "is_disabled": 0, "lon": -77.04003, "is_reserved": 0, "fusion_lon": 0.0, "fusion_lat": 0.0, "name": "d4f32501cb21442f4b5566dabf6d8372", "type": "electric_scooter", "rental_uris": {"ios": "https://dc.lft.to/lastmile_qr_scan", "android": "https://dc.lft.to/lastmile_qr_scan"}, "bike_id": "d4f32501cb21442f4b5566dabf6d8372"}, {"lat": 38.8873135, "is_disabled": 0, "lon": -77.0138895, "is_reserved": 0, "fusion_lon": 0.0, "fusion_lat": 0.0, "name": "db5349ab6fc2320d771eee27de88ab71", "type": "electric_scooter", "rental_uris": {"ios": "https://dc.lft.to/lastmile_qr_scan", "android": "https://dc.lft.to/lastmile_qr_scan"}, "bike_id": "db5349ab6fc2320d771eee27de88ab71"}, {"lat": 38.917599, "is_disabled": 0, "lon": -77.02521633333333, "is_reserved": 0, "fusion_lon": 0.0, "fusion_lat": 0.0, "name": "db319ceff925d3582f6dbf31e107abb8", "type": "electric_scooter", "rental_uris": {"ios": "https://dc.lft.to/lastmile_qr_scan", "android": "https://dc.lft.to/lastmile_qr_scan"}, "bike_id": "db319ceff925d3582f6dbf31e107abb8"}, {"lat": 38.903708333333334, "is_disabled": 0, "lon": -77.0444205, "is_reserved": 0, "fusion_lon": 0.0, "fusion_lat": 0.0, "name": "f6d08e44d4a7ce720196f15d5eda33d4", "type": "electric_scooter", "rental_uris": {"ios": "https://dc.lft.to/lastmile_qr_scan", "android": "https://dc.lft.to/lastmile_qr_scan"}, "bike_id": "f6d08e44d4a7ce720196f15d5eda33d4"}, {"lat": 38.902655333333335, "is_disabled": 0, "lon": -77.017617, "is_reserved": 0, "fusion_lon": 0.0, "fusion_lat": 0.0, "name": "d87d814ce8b6be872c73a242c205940f", "type": "electric_scooter", "rental_uris": {"ios": "https://dc.lft.to/lastmile_qr_scan", "android": "https://dc.lft.to/lastmile_qr_scan"}, "bike_id": "d87d814ce8b6be872c73a242c205940f"}, {"lat": 38.90328516666667, "is_disabled": 0, "lon": -77.03066516666667, "is_reserved": 0, "fusion_lon": 0.0, "fusion_lat": 0.0, "name": "1da0af5778d7abdf9cef67221c891d40", "type": "electric_scooter", "rental_uris": {"ios": "https://dc.lft.to/lastmile_qr_scan", "android": "https://dc.lft.to/lastmile_qr_scan"}, "bike_id": "1da0af5778d7abdf9cef67221c891d40"}, {"lat": 38.89610883333334, "is_disabled": 0, "lon": -77.04974816666666, "is_reserved": 0, "fusion_lon": 0.0, "fusion_lat": 0.0, "name": "f51252f9491aa101230cd837acc80372", "type": "electric_bike", "rental_uris": {"ios": "https://dc.lft.to/lastmile_qr_scan", "android": "https://dc.lft.to/lastmile_qr_scan"}, "bike_id": "f51252f9491aa101230cd837acc80372"}, {"lat": 38.937265833333335, "is_disabled": 0, "lon": -77.01907983333334, "is_reserved": 0, "fusion_lon": 0.0, "fusion_lat": 0.0, "name": "f4428a68d4198aee1cc483093b72bed4", "type": "electric_scooter", "rental_uris": {"ios": "https://dc.lft.to/lastmile_qr_scan", "android": "https://dc.lft.to/lastmile_qr_scan"}, "bike_id": "f4428a68d4198aee1cc483093b72bed4"}, {"lat": 38.91634366666667, "is_disabled": 0, "lon": -77.02239866666666, "is_reserved": 0, "fusion_lon": 0.0, "fusion_lat": 0.0, "name": "508a39072d262750cf098336d7c3bae6", "type": "electric_scooter", "rental_uris": {"ios": "https://dc.lft.to/lastmile_qr_scan", "android": "https://dc.lft.to/lastmile_qr_scan"}, "bike_id": "508a39072d262750cf098336d7c3bae6"}, {"lat": 38.8952815, "is_disabled": 0, "lon": -77.03347266666667, "is_reserved": 0, "fusion_lon": 0.0, "fusion_lat": 0.0, "name": "9fb537788cebc9186a2ad7e01f13765d", "type": "electric_scooter", "rental_uris": {"ios": "https://dc.lft.to/lastmile_qr_scan", "android": "https://dc.lft.to/lastmile_qr_scan"}, "bike_id": "9fb537788cebc9186a2ad7e01f13765d"}, {"lat": 38.9205575, "is_disabled": 0, "lon": -77.04193033333334, "is_reserved": 0, "fusion_lon": 0.0, "fusion_lat": 0.0, "name": "0a6467f747a701e53b656145ead6284f", "type": "electric_scooter", "rental_uris": {"ios": "https://dc.lft.to/lastmile_qr_scan", "android": "https://dc.lft.to/lastmile_qr_scan"}, "bike_id": "0a6467f747a701e53b656145ead6284f"}, {"lat": 38.907205, "is_disabled": 0, "lon": -77.0339765, "is_reserved": 0, "fusion_lon": 0.0, "fusion_lat": 0.0, "name": "a1ddc4c708a63773047a0659362c9ef6", "type": "electric_scooter", "rental_uris": {"ios": "https://dc.lft.to/lastmile_qr_scan", "android": "https://dc.lft.to/lastmile_qr_scan"}, "bike_id": "a1ddc4c708a63773047a0659362c9ef6"}, {"lat": 38.933107666666665, "is_disabled": 0, "lon": -77.03100216666667, "is_reserved": 0, "fusion_lon": 0.0, "fusion_lat": 0.0, "name": "50e992d64f536b858a19eb9512c7e9a0", "type": "electric_scooter", "rental_uris": {"ios": "https://dc.lft.to/lastmile_qr_scan", "android": "https://dc.lft.to/lastmile_qr_scan"}, "bike_id": "50e992d64f536b858a19eb9512c7e9a0"}, {"lat": 38.92289233333333, "is_disabled": 0, "lon": -77.0429215, "is_reserved": 0, "fusion_lon": 0.0, "fusion_lat": 0.0, "name": "461e4fed05f46cb831bdc2e16f04e665", "type": "electric_scooter", "rental_uris": {"ios": "https://dc.lft.to/lastmile_qr_scan", "android": "https://dc.lft.to/lastmile_qr_scan"}, "bike_id": "461e4fed05f46cb831bdc2e16f04e665"}, {"lat": 38.9233465, "is_disabled": 0, "lon": -77.04299883333333, "is_reserved": 0, "fusion_lon": 0.0, "fusion_lat": 0.0, "name": "b6727f6ac26f6bbac3c8713328d00ccb", "type": "electric_scooter", "rental_uris": {"ios": "https://dc.lft.to/lastmile_qr_scan", "android": "https://dc.lft.to/lastmile_qr_scan"}, "bike_id": "b6727f6ac26f6bbac3c8713328d00ccb"}, {"lat": 38.914170166666665, "is_disabled": 0, "lon": -77.03177833333334, "is_reserved": 0, "fusion_lon": 0.0, "fusion_lat": 0.0, "name": "14eae111d84091c60994ec9e694b31b3", "type": "electric_scooter", "rental_uris": {"ios": "https://dc.lft.to/lastmile_qr_scan", "android": "https://dc.lft.to/lastmile_qr_scan"}, "bike_id": "14eae111d84091c60994ec9e694b31b3"}, {"lat": 38.9021725, "is_disabled": 0, "lon": -77.02317116666667, "is_reserved": 0, "fusion_lon": 0.0, "fusion_lat": 0.0, "name": "0e125eb6668bbe6f814caa864228a65e", "type": "electric_scooter", "rental_uris": {"ios": "https://dc.lft.to/lastmile_qr_scan", "android": "https://dc.lft.to/lastmile_qr_scan"}, "bike_id": "0e125eb6668bbe6f814caa864228a65e"}, {"lat": 38.89994266666667, "is_disabled": 0, "lon": -77.03318516666667, "is_reserved": 0, "fusion_lon": 0.0, "fusion_lat": 0.0, "name": "493a773c40280df92423621e1986348b", "type": "electric_scooter", "rental_uris": {"ios": "https://dc.lft.to/lastmile_qr_scan", "android": "https://dc.lft.to/lastmile_qr_scan"}, "bike_id": "493a773c40280df92423621e1986348b"}, {"lat": 38.92408416666667, "is_disabled": 0, "lon": -77.0298215, "is_reserved": 0, "fusion_lon": 0.0, "fusion_lat": 0.0, "name": "2f55e3c5b90f4010d1b52361070b54a3", "type": "electric_scooter", "rental_uris": {"ios": "https://dc.lft.to/lastmile_qr_scan", "android": "https://dc.lft.to/lastmile_qr_scan"}, "bike_id": "2f55e3c5b90f4010d1b52361070b54a3"}, {"lat": 38.902672333333335, "is_disabled": 0, "lon": -77.04606566666666, "is_reserved": 0, "fusion_lon": 0.0, "fusion_lat": 0.0, "name": "b03f774522f79e0f856a666ccd310fe2", "type": "electric_scooter", "rental_uris": {"ios": "https://dc.lft.to/lastmile_qr_scan", "android": "https://dc.lft.to/lastmile_qr_scan"}, "bike_id": "b03f774522f79e0f856a666ccd310fe2"}, {"lat": 38.9055515, "is_disabled": 0, "lon": -77.042826, "is_reserved": 0, "fusion_lon": 0.0, "fusion_lat": 0.0, "name": "e78bd85f72d23ea4edf2800cb9482eb2", "type": "electric_scooter", "rental_uris": {"ios": "https://dc.lft.to/lastmile_qr_scan", "android": "https://dc.lft.to/lastmile_qr_scan"}, "bike_id": "e78bd85f72d23ea4edf2800cb9482eb2"}, {"lat": 38.895701333333335, "is_disabled": 0, "lon": -77.02725766666667, "is_reserved": 0, "fusion_lon": 0.0, "fusion_lat": 0.0, "name": "cf6ead1a83931042d4657d5a083521bd", "type": "electric_scooter", "rental_uris": {"ios": "https://dc.lft.to/lastmile_qr_scan", "android": "https://dc.lft.to/lastmile_qr_scan"}, "bike_id": "cf6ead1a83931042d4657d5a083521bd"}, {"lat": 38.893856666666665, "is_disabled": 0, "lon": -77.019874, "is_reserved": 0, "fusion_lon": 0.0, "fusion_lat": 0.0, "name": "5e72be71f1cee7041a0912beb15d9bdf", "type": "electric_scooter", "rental_uris": {"ios": "https://dc.lft.to/lastmile_qr_scan", "android": "https://dc.lft.to/lastmile_qr_scan"}, "bike_id": "5e72be71f1cee7041a0912beb15d9bdf"}, {"lat": 38.8532395, "is_disabled": 0, "lon": -76.9799945, "is_reserved": 0, "fusion_lon": 0.0, "fusion_lat": 0.0, "name": "a421913b05c8651fe08f7cb5357b4c8a", "type": "electric_bike", "rental_uris": {"ios": "https://dc.lft.to/lastmile_qr_scan", "android": "https://dc.lft.to/lastmile_qr_scan"}, "bike_id": "a421913b05c8651fe08f7cb5357b4c8a"}, {"lat": 38.89225533333333, "is_disabled": 0, "lon": -77.04501466666666, "is_reserved": 0, "fusion_lon": 0.0, "fusion_lat": 0.0, "name": "1532c40d6ef74d5f42dddb3534fedae6", "type": "electric_scooter", "rental_uris": {"ios": "https://dc.lft.to/lastmile_qr_scan", "android": "https://dc.lft.to/lastmile_qr_scan"}, "bike_id": "1532c40d6ef74d5f42dddb3534fedae6"}, {"lat": 38.89982166666667, "is_disabled": 0, "lon": -77.02281016666667, "is_reserved": 0, "fusion_lon": 0.0, "fusion_lat": 0.0, "name": "a447b5cbcfb33c485c939ec37b3c4141", "type": "electric_scooter", "rental_uris": {"ios": "https://dc.lft.to/lastmile_qr_scan", "android": "https://dc.lft.to/lastmile_qr_scan"}, "bike_id": "a447b5cbcfb33c485c939ec37b3c4141"}, {"lat": 38.94503233333333, "is_disabled": 0, "lon": -77.02331266666667, "is_reserved": 0, "fusion_lon": 0.0, "fusion_lat": 0.0, "name": "30e5e5e8d8567d09619d8a2b857f325d", "type": "electric_scooter", "rental_uris": {"ios": "https://dc.lft.to/lastmile_qr_scan", "android": "https://dc.lft.to/lastmile_qr_scan"}, "bike_id": "30e5e5e8d8567d09619d8a2b857f325d"}, {"lat": 38.9064235, "is_disabled": 0, "lon": -77.06904016666667, "is_reserved": 0, "fusion_lon": 0.0, "fusion_lat": 0.0, "name": "fdae5dcbfbaf7b1f6816e6b67a75fcd6", "type": "electric_scooter", "rental_uris": {"ios": "https://dc.lft.to/lastmile_qr_scan", "android": "https://dc.lft.to/lastmile_qr_scan"}, "bike_id": "fdae5dcbfbaf7b1f6816e6b67a75fcd6"}, {"lat": 38.8936735, "is_disabled": 0, "lon": -77.04772083333333, "is_reserved": 0, "fusion_lon": 0.0, "fusion_lat": 0.0, "name": "6b33d1d8bff1982040c146c89a3b2c7c", "type": "electric_scooter", "rental_uris": {"ios": "https://dc.lft.to/lastmile_qr_scan", "android": "https://dc.lft.to/lastmile_qr_scan"}, "bike_id": "6b33d1d8bff1982040c146c89a3b2c7c"}, {"lat": 38.90252666666667, "is_disabled": 0, "lon": -77.03953233333333, "is_reserved": 0, "fusion_lon": 0.0, "fusion_lat": 0.0, "name": "78ff293de80bc14e10aaf507a07aea65", "type": "electric_scooter", "rental_uris": {"ios": "https://dc.lft.to/lastmile_qr_scan", "android": "https://dc.lft.to/lastmile_qr_scan"}, "bike_id": "78ff293de80bc14e10aaf507a07aea65"}, {"lat": 38.8954935, "is_disabled": 0, "lon": -77.009138, "is_reserved": 0, "fusion_lon": 0.0, "fusion_lat": 0.0, "name": "6f0289933328041594cb09e53f2f8f4b", "type": "electric_scooter", "rental_uris": {"ios": "https://dc.lft.to/lastmile_qr_scan", "android": "https://dc.lft.to/lastmile_qr_scan"}, "bike_id": "6f0289933328041594cb09e53f2f8f4b"}, {"lat": 38.95185816666667, "is_disabled": 0, "lon": -77.026383, "is_reserved": 0, "fusion_lon": 0.0, "fusion_lat": 0.0, "name": "accb94fce9e3b6ae1face705d9e2b69c", "type": "electric_scooter", "rental_uris": {"ios": "https://dc.lft.to/lastmile_qr_scan", "android": "https://dc.lft.to/lastmile_qr_scan"}, "bike_id": "accb94fce9e3b6ae1face705d9e2b69c"}, {"lat": 38.91858883333333, "is_disabled": 0, "lon": -76.9608905, "is_reserved": 0, "fusion_lon": 0.0, "fusion_lat": 0.0, "name": "8e1870634f138752d08c0370ae869273", "type": "electric_bike", "rental_uris": {"ios": "https://dc.lft.to/lastmile_qr_scan", "android": "https://dc.lft.to/lastmile_qr_scan"}, "bike_id": "8e1870634f138752d08c0370ae869273"}, {"lat": 38.87692716666667, "is_disabled": 0, "lon": -77.00584866666667, "is_reserved": 0, "fusion_lon": 0.0, "fusion_lat": 0.0, "name": "0c4190a082646597e89ef1a841267491", "type": "electric_scooter", "rental_uris": {"ios": "https://dc.lft.to/lastmile_qr_scan", "android": "https://dc.lft.to/lastmile_qr_scan"}, "bike_id": "0c4190a082646597e89ef1a841267491"}, {"lat": 38.9224935, "is_disabled": 0, "lon": -77.03071433333334, "is_reserved": 0, "fusion_lon": 0.0, "fusion_lat": 0.0, "name": "a4ac7ffb4dd2159589f9bc8d6416aa05", "type": "electric_scooter", "rental_uris": {"ios": "https://dc.lft.to/lastmile_qr_scan", "android": "https://dc.lft.to/lastmile_qr_scan"}, "bike_id": "a4ac7ffb4dd2159589f9bc8d6416aa05"}, {"lat": 38.896081, "is_disabled": 0, "lon": -77.04685883333333, "is_reserved": 0, "fusion_lon": 0.0, "fusion_lat": 0.0, "name": "7e364a183c79b00a18faebcbf80b9aa6", "type": "electric_scooter", "rental_uris": {"ios": "https://dc.lft.to/lastmile_qr_scan", "android": "https://dc.lft.to/lastmile_qr_scan"}, "bike_id": "7e364a183c79b00a18faebcbf80b9aa6"}, {"lat": 38.898344, "is_disabled": 0, "lon": -77.026925, "is_reserved": 0, "fusion_lon": 0.0, "fusion_lat": 0.0, "name": "1e9c9c1a7d18c3a2d1587f0d4f8187dd", "type": "electric_scooter", "rental_uris": {"ios": "https://dc.lft.to/lastmile_qr_scan", "android": "https://dc.lft.to/lastmile_qr_scan"}, "bike_id": "1e9c9c1a7d18c3a2d1587f0d4f8187dd"}, {"lat": 38.81943166666667, "is_disabled": 0, "lon": -77.0020465, "is_reserved": 0, "fusion_lon": 0.0, "fusion_lat": 0.0, "name": "07f8bc9dcb705b335fa26e07a8687dcc", "type": "electric_bike", "rental_uris": {"ios": "https://dc.lft.to/lastmile_qr_scan", "android": "https://dc.lft.to/lastmile_qr_scan"}, "bike_id": "07f8bc9dcb705b335fa26e07a8687dcc"}, {"lat": 38.90231466666667, "is_disabled": 0, "lon": -77.03732083333334, "is_reserved": 0, "fusion_lon": 0.0, "fusion_lat": 0.0, "name": "8cc0917764fd7c4f4fc6f215b3b18449", "type": "electric_scooter", "rental_uris": {"ios": "https://dc.lft.to/lastmile_qr_scan", "android": "https://dc.lft.to/lastmile_qr_scan"}, "bike_id": "8cc0917764fd7c4f4fc6f215b3b18449"}, {"lat": 38.90004116666667, "is_disabled": 0, "lon": -77.00690066666667, "is_reserved": 0, "fusion_lon": 0.0, "fusion_lat": 0.0, "name": "d04293b67f1a9ac68c69471c52bad0a0", "type": "electric_scooter", "rental_uris": {"ios": "https://dc.lft.to/lastmile_qr_scan", "android": "https://dc.lft.to/lastmile_qr_scan"}, "bike_id": "d04293b67f1a9ac68c69471c52bad0a0"}, {"lat": 39.02295133333333, "is_disabled": 0, "lon": -77.02104566666667, "is_reserved": 0, "fusion_lon": 0.0, "fusion_lat": 0.0, "name": "30cfa8954ac63a7115b2068e7ab09fb0", "type": "electric_bike", "rental_uris": {"ios": "https://dc.lft.to/lastmile_qr_scan", "android": "https://dc.lft.to/lastmile_qr_scan"}, "bike_id": "30cfa8954ac63a7115b2068e7ab09fb0"}, {"lat": 38.9199675, "is_disabled": 0, "lon": -77.10213733333333, "is_reserved": 0, "fusion_lon": 0.0, "fusion_lat": 0.0, "name": "6dcc2f2123fa875273b7aa127752cbf4", "type": "electric_bike", "rental_uris": {"ios": "https://dc.lft.to/lastmile_qr_scan", "android": "https://dc.lft.to/lastmile_qr_scan"}, "bike_id": "6dcc2f2123fa875273b7aa127752cbf4"}, {"lat": 38.9447645, "is_disabled": 0, "lon": -76.98686566666666, "is_reserved": 0, "fusion_lon": 0.0, "fusion_lat": 0.0, "name": "4e9fd28d0182d707b3defbfaa158d106", "type": "electric_bike", "rental_uris": {"ios": "https://dc.lft.to/lastmile_qr_scan", "android": "https://dc.lft.to/lastmile_qr_scan"}, "bike_id": "4e9fd28d0182d707b3defbfaa158d106"}, {"lat": 38.921381833333335, "is_disabled": 0, "lon": -77.02877683333334, "is_reserved": 0, "fusion_lon": 0.0, "fusion_lat": 0.0, "name": "b48a6ce1ae329cc8f0443b4fac78b2f5", "type": "electric_bike", "rental_uris": {"ios": "https://dc.lft.to/lastmile_qr_scan", "android": "https://dc.lft.to/lastmile_qr_scan"}, "bike_id": "b48a6ce1ae329cc8f0443b4fac78b2f5"}, {"lat": 38.904879333333334, "is_disabled": 0, "lon": -77.03557366666666, "is_reserved": 0, "fusion_lon": 0.0, "fusion_lat": 0.0, "name": "44132dfc6772d56c690021a1ca00157c", "type": "electric_scooter", "rental_uris": {"ios": "https://dc.lft.to/lastmile_qr_scan", "android": "https://dc.lft.to/lastmile_qr_scan"}, "bike_id": "44132dfc6772d56c690021a1ca00157c"}, {"lat": 38.898764166666666, "is_disabled": 0, "lon": -76.93183016666667, "is_reserved": 0, "fusion_lon": 0.0, "fusion_lat": 0.0, "name": "330fb69b68e1baf22e4cfc0418674d09", "type": "electric_scooter", "rental_uris": {"ios": "https://dc.lft.to/lastmile_qr_scan", "android": "https://dc.lft.to/lastmile_qr_scan"}, "bike_id": "330fb69b68e1baf22e4cfc0418674d09"}, {"lat": 38.865316, "is_disabled": 0, "lon": -76.97330316666667, "is_reserved": 0, "fusion_lon": 0.0, "fusion_lat": 0.0, "name": "e049de84a466625d2076358f4d69ad24", "type": "electric_scooter", "rental_uris": {"ios": "https://dc.lft.to/lastmile_qr_scan", "android": "https://dc.lft.to/lastmile_qr_scan"}, "bike_id": "e049de84a466625d2076358f4d69ad24"}, {"lat": 38.92754583333333, "is_disabled": 0, "lon": -77.03270116666667, "is_reserved": 0, "fusion_lon": 0.0, "fusion_lat": 0.0, "name": "ca409df9e85b341506b1095e18209b46", "type": "electric_scooter", "rental_uris": {"ios": "https://dc.lft.to/lastmile_qr_scan", "android": "https://dc.lft.to/lastmile_qr_scan"}, "bike_id": "ca409df9e85b341506b1095e18209b46"}, {"lat": 38.89236183333333, "is_disabled": 0, "lon": -77.0153855, "is_reserved": 0, "fusion_lon": 0.0, "fusion_lat": 0.0, "name": "3cfa4728a12c48d4fb4647d01cf7691c", "type": "electric_scooter", "rental_uris": {"ios": "https://dc.lft.to/lastmile_qr_scan", "android": "https://dc.lft.to/lastmile_qr_scan"}, "bike_id": "3cfa4728a12c48d4fb4647d01cf7691c"}, {"lat": 38.905110666666666, "is_disabled": 0, "lon": -77.05146, "is_reserved": 0, "fusion_lon": 0.0, "fusion_lat": 0.0, "name": "1efaec643718c13be52e9581a542fd40", "type": "electric_scooter", "rental_uris": {"ios": "https://dc.lft.to/lastmile_qr_scan", "android": "https://dc.lft.to/lastmile_qr_scan"}, "bike_id": "1efaec643718c13be52e9581a542fd40"}, {"lat": 38.92471833333333, "is_disabled": 0, "lon": -77.03915683333334, "is_reserved": 0, "fusion_lon": 0.0, "fusion_lat": 0.0, "name": "fbbe8f6721b91fc6f1dcc24244538a96", "type": "electric_scooter", "rental_uris": {"ios": "https://dc.lft.to/lastmile_qr_scan", "android": "https://dc.lft.to/lastmile_qr_scan"}, "bike_id": "fbbe8f6721b91fc6f1dcc24244538a96"}, {"lat": 38.96779183333334, "is_disabled": 0, "lon": -76.99657433333333, "is_reserved": 0, "fusion_lon": 0.0, "fusion_lat": 0.0, "name": "1772536811fcf48f13c87f13356c6423", "type": "electric_bike", "rental_uris": {"ios": "https://dc.lft.to/lastmile_qr_scan", "android": "https://dc.lft.to/lastmile_qr_scan"}, "bike_id": "1772536811fcf48f13c87f13356c6423"}, {"lat": 38.9158475, "is_disabled": 0, "lon": -76.9839135, "is_reserved": 0, "fusion_lon": 0.0, "fusion_lat": 0.0, "name": "a0c2277b9d81984e66b2ac340eb258f8", "type": "electric_scooter", "rental_uris": {"ios": "https://dc.lft.to/lastmile_qr_scan", "android": "https://dc.lft.to/lastmile_qr_scan"}, "bike_id": "a0c2277b9d81984e66b2ac340eb258f8"}, {"lat": 38.89472883333333, "is_disabled": 0, "lon": -77.00138783333334, "is_reserved": 0, "fusion_lon": 0.0, "fusion_lat": 0.0, "name": "f2cffaae4b8d065418074d35a2cc9627", "type": "electric_scooter", "rental_uris": {"ios": "https://dc.lft.to/lastmile_qr_scan", "android": "https://dc.lft.to/lastmile_qr_scan"}, "bike_id": "f2cffaae4b8d065418074d35a2cc9627"}, {"lat": 38.91833166666667, "is_disabled": 0, "lon": -77.0346515, "is_reserved": 0, "fusion_lon": 0.0, "fusion_lat": 0.0, "name": "3db87c5d09689a48990ab2c58aa1ed61", "type": "electric_scooter", "rental_uris": {"ios": "https://dc.lft.to/lastmile_qr_scan", "android": "https://dc.lft.to/lastmile_qr_scan"}, "bike_id": "3db87c5d09689a48990ab2c58aa1ed61"}, {"lat": 38.8419285, "is_disabled": 0, "lon": -77.07756333333333, "is_reserved": 0, "fusion_lon": 0.0, "fusion_lat": 0.0, "name": "96c550140ac3f722e28ce72ea3fd4836", "type": "electric_bike", "rental_uris": {"ios": "https://dc.lft.to/lastmile_qr_scan", "android": "https://dc.lft.to/lastmile_qr_scan"}, "bike_id": "96c550140ac3f722e28ce72ea3fd4836"}, {"lat": 38.926649833333336, "is_disabled": 0, "lon": -77.04063916666667, "is_reserved": 0, "fusion_lon": 0.0, "fusion_lat": 0.0, "name": "25afd487179cd7a8609ca8547c62d329", "type": "electric_scooter", "rental_uris": {"ios": "https://dc.lft.to/lastmile_qr_scan", "android": "https://dc.lft.to/lastmile_qr_scan"}, "bike_id": "25afd487179cd7a8609ca8547c62d329"}, {"lat": 38.930582666666666, "is_disabled": 0, "lon": -77.039449, "is_reserved": 0, "fusion_lon": 0.0, "fusion_lat": 0.0, "name": "bd4ec112b76f468ebd52b5409a94318b", "type": "electric_scooter", "rental_uris": {"ios": "https://dc.lft.to/lastmile_qr_scan", "android": "https://dc.lft.to/lastmile_qr_scan"}, "bike_id": "bd4ec112b76f468ebd52b5409a94318b"}, {"lat": 38.89265183333333, "is_disabled": 0, "lon": -76.983737, "is_reserved": 0, "fusion_lon": 0.0, "fusion_lat": 0.0, "name": "dd3170da3bc3a9e9ad691034941677be", "type": "electric_scooter", "rental_uris": {"ios": "https://dc.lft.to/lastmile_qr_scan", "android": "https://dc.lft.to/lastmile_qr_scan"}, "bike_id": "dd3170da3bc3a9e9ad691034941677be"}, {"lat": 38.89733783333333, "is_disabled": 0, "lon": -77.02171283333334, "is_reserved": 0, "fusion_lon": 0.0, "fusion_lat": 0.0, "name": "b8272fbd94e3ddf2ae823a7db1415386", "type": "electric_scooter", "rental_uris": {"ios": "https://dc.lft.to/lastmile_qr_scan", "android": "https://dc.lft.to/lastmile_qr_scan"}, "bike_id": "b8272fbd94e3ddf2ae823a7db1415386"}, {"lat": 38.8839315, "is_disabled": 0, "lon": -76.95739116666667, "is_reserved": 0, "fusion_lon": 0.0, "fusion_lat": 0.0, "name": "d087ee693a80e706a02e14eadde5d8b6", "type": "electric_scooter", "rental_uris": {"ios": "https://dc.lft.to/lastmile_qr_scan", "android": "https://dc.lft.to/lastmile_qr_scan"}, "bike_id": "d087ee693a80e706a02e14eadde5d8b6"}, {"lat": 38.91632466666667, "is_disabled": 0, "lon": -77.03501483333334, "is_reserved": 0, "fusion_lon": 0.0, "fusion_lat": 0.0, "name": "556fcc19b9bd4d5268c16af8d01ca7e9", "type": "electric_scooter", "rental_uris": {"ios": "https://dc.lft.to/lastmile_qr_scan", "android": "https://dc.lft.to/lastmile_qr_scan"}, "bike_id": "556fcc19b9bd4d5268c16af8d01ca7e9"}, {"lat": 38.92468383333333, "is_disabled": 0, "lon": -77.03381516666667, "is_reserved": 0, "fusion_lon": 0.0, "fusion_lat": 0.0, "name": "89a1ee8ae38ddd009af8e13e691bb077", "type": "electric_scooter", "rental_uris": {"ios": "https://dc.lft.to/lastmile_qr_scan", "android": "https://dc.lft.to/lastmile_qr_scan"}, "bike_id": "89a1ee8ae38ddd009af8e13e691bb077"}, {"lat": 38.908599333333335, "is_disabled": 0, "lon": -77.02429566666666, "is_reserved": 0, "fusion_lon": 0.0, "fusion_lat": 0.0, "name": "07f2f7df76f82b18e27e73fe3d58f7d9", "type": "electric_scooter", "rental_uris": {"ios": "https://dc.lft.to/lastmile_qr_scan", "android": "https://dc.lft.to/lastmile_qr_scan"}, "bike_id": "07f2f7df76f82b18e27e73fe3d58f7d9"}, {"lat": 38.89427233333333, "is_disabled": 0, "lon": -77.02205766666667, "is_reserved": 0, "fusion_lon": 0.0, "fusion_lat": 0.0, "name": "9bd4820e924e3f56abe8148988b28309", "type": "electric_scooter", "rental_uris": {"ios": "https://dc.lft.to/lastmile_qr_scan", "android": "https://dc.lft.to/lastmile_qr_scan"}, "bike_id": "9bd4820e924e3f56abe8148988b28309"}, {"lat": 38.89907383333333, "is_disabled": 0, "lon": -77.05013, "is_reserved": 0, "fusion_lon": 0.0, "fusion_lat": 0.0, "name": "203a76acb5e8d72540e8dd5cd6973828", "type": "electric_scooter", "rental_uris": {"ios": "https://dc.lft.to/lastmile_qr_scan", "android": "https://dc.lft.to/lastmile_qr_scan"}, "bike_id": "203a76acb5e8d72540e8dd5cd6973828"}, {"lat": 38.920725166666664, "is_disabled": 0, "lon": -77.02539016666667, "is_reserved": 0, "fusion_lon": 0.0, "fusion_lat": 0.0, "name": "b81fcd5bb431e3b349aaf9ca94db6f6f", "type": "electric_scooter", "rental_uris": {"ios": "https://dc.lft.to/lastmile_qr_scan", "android": "https://dc.lft.to/lastmile_qr_scan"}, "bike_id": "b81fcd5bb431e3b349aaf9ca94db6f6f"}, {"lat": 38.897568, "is_disabled": 0, "lon": -76.94182916666666, "is_reserved": 0, "fusion_lon": 0.0, "fusion_lat": 0.0, "name": "b5911656f11c9aff5c18afe1cee62833", "type": "electric_scooter", "rental_uris": {"ios": "https://dc.lft.to/lastmile_qr_scan", "android": "https://dc.lft.to/lastmile_qr_scan"}, "bike_id": "b5911656f11c9aff5c18afe1cee62833"}, {"lat": 38.901384666666665, "is_disabled": 0, "lon": -77.03383716666667, "is_reserved": 0, "fusion_lon": 0.0, "fusion_lat": 0.0, "name": "ac320f9bf67aca3330d80b14cc53c934", "type": "electric_scooter", "rental_uris": {"ios": "https://dc.lft.to/lastmile_qr_scan", "android": "https://dc.lft.to/lastmile_qr_scan"}, "bike_id": "ac320f9bf67aca3330d80b14cc53c934"}, {"lat": 38.912682833333335, "is_disabled": 0, "lon": -77.02402, "is_reserved": 0, "fusion_lon": 0.0, "fusion_lat": 0.0, "name": "bed0bf0ceaa6e935652c1f0423d2559e", "type": "electric_scooter", "rental_uris": {"ios": "https://dc.lft.to/lastmile_qr_scan", "android": "https://dc.lft.to/lastmile_qr_scan"}, "bike_id": "bed0bf0ceaa6e935652c1f0423d2559e"}, {"lat": 38.919298833333336, "is_disabled": 0, "lon": -77.01968066666667, "is_reserved": 0, "fusion_lon": 0.0, "fusion_lat": 0.0, "name": "ee757667995702d4aee783b2a3acfe80", "type": "electric_scooter", "rental_uris": {"ios": "https://dc.lft.to/lastmile_qr_scan", "android": "https://dc.lft.to/lastmile_qr_scan"}, "bike_id": "ee757667995702d4aee783b2a3acfe80"}, {"lat": 38.9249225, "is_disabled": 0, "lon": -77.02178016666667, "is_reserved": 0, "fusion_lon": 0.0, "fusion_lat": 0.0, "name": "415312fb61c8563f94c1ae7bd53e4754", "type": "electric_scooter", "rental_uris": {"ios": "https://dc.lft.to/lastmile_qr_scan", "android": "https://dc.lft.to/lastmile_qr_scan"}, "bike_id": "415312fb61c8563f94c1ae7bd53e4754"}, {"lat": 38.89395116666667, "is_disabled": 0, "lon": -76.9781965, "is_reserved": 0, "fusion_lon": 0.0, "fusion_lat": 0.0, "name": "fc368030396c2eb6518b9854690285fd", "type": "electric_scooter", "rental_uris": {"ios": "https://dc.lft.to/lastmile_qr_scan", "android": "https://dc.lft.to/lastmile_qr_scan"}, "bike_id": "fc368030396c2eb6518b9854690285fd"}, {"lat": 38.881213833333334, "is_disabled": 0, "lon": -77.01652383333334, "is_reserved": 0, "fusion_lon": 0.0, "fusion_lat": 0.0, "name": "3df13582258ef1b2287211d3da9f0cd0", "type": "electric_scooter", "rental_uris": {"ios": "https://dc.lft.to/lastmile_qr_scan", "android": "https://dc.lft.to/lastmile_qr_scan"}, "bike_id": "3df13582258ef1b2287211d3da9f0cd0"}, {"lat": 38.90472, "is_disabled": 0, "lon": -77.04881583333334, "is_reserved": 0, "fusion_lon": 0.0, "fusion_lat": 0.0, "name": "217fad6ef088879f26f786204b3c9092", "type": "electric_scooter", "rental_uris": {"ios": "https://dc.lft.to/lastmile_qr_scan", "android": "https://dc.lft.to/lastmile_qr_scan"}, "bike_id": "217fad6ef088879f26f786204b3c9092"}, {"lat": 38.903271833333335, "is_disabled": 0, "lon": -77.02978483333334, "is_reserved": 0, "fusion_lon": 0.0, "fusion_lat": 0.0, "name": "f35fdcde8a7563094717efed91b629cd", "type": "electric_scooter", "rental_uris": {"ios": "https://dc.lft.to/lastmile_qr_scan", "android": "https://dc.lft.to/lastmile_qr_scan"}, "bike_id": "f35fdcde8a7563094717efed91b629cd"}, {"lat": 38.924674833333334, "is_disabled": 0, "lon": -77.03003066666666, "is_reserved": 0, "fusion_lon": 0.0, "fusion_lat": 0.0, "name": "1173656efd3a01df407b4d5c63a25864", "type": "electric_scooter", "rental_uris": {"ios": "https://dc.lft.to/lastmile_qr_scan", "android": "https://dc.lft.to/lastmile_qr_scan"}, "bike_id": "1173656efd3a01df407b4d5c63a25864"}, {"lat": 38.92633933333333, "is_disabled": 0, "lon": -77.03706066666666, "is_reserved": 0, "fusion_lon": 0.0, "fusion_lat": 0.0, "name": "561cebd988b8e202ffdf7b7ccb952452", "type": "electric_scooter", "rental_uris": {"ios": "https://dc.lft.to/lastmile_qr_scan", "android": "https://dc.lft.to/lastmile_qr_scan"}, "bike_id": "561cebd988b8e202ffdf7b7ccb952452"}, {"lat": 38.878819666666665, "is_disabled": 0, "lon": -77.00054866666666, "is_reserved": 0, "fusion_lon": 0.0, "fusion_lat": 0.0, "name": "fc3f07f523719250f302b3332ac070f8", "type": "electric_scooter", "rental_uris": {"ios": "https://dc.lft.to/lastmile_qr_scan", "android": "https://dc.lft.to/lastmile_qr_scan"}, "bike_id": "fc3f07f523719250f302b3332ac070f8"}, {"lat": 38.924185666666666, "is_disabled": 0, "lon": -77.02297116666666, "is_reserved": 0, "fusion_lon": 0.0, "fusion_lat": 0.0, "name": "4d59459455a78a4acac715f16f7a7bfc", "type": "electric_scooter", "rental_uris": {"ios": "https://dc.lft.to/lastmile_qr_scan", "android": "https://dc.lft.to/lastmile_qr_scan"}, "bike_id": "4d59459455a78a4acac715f16f7a7bfc"}, {"lat": 38.92485116666667, "is_disabled": 0, "lon": -77.03552666666667, "is_reserved": 0, "fusion_lon": 0.0, "fusion_lat": 0.0, "name": "794b7aacf9cf5cde6e52391d7c023f6b", "type": "electric_scooter", "rental_uris": {"ios": "https://dc.lft.to/lastmile_qr_scan", "android": "https://dc.lft.to/lastmile_qr_scan"}, "bike_id": "794b7aacf9cf5cde6e52391d7c023f6b"}, {"lat": 38.919275999999996, "is_disabled": 0, "lon": -77.03425033333333, "is_reserved": 0, "fusion_lon": 0.0, "fusion_lat": 0.0, "name": "7ccf021efe461bb666cf1597abd7e880", "type": "electric_scooter", "rental_uris": {"ios": "https://dc.lft.to/lastmile_qr_scan", "android": "https://dc.lft.to/lastmile_qr_scan"}, "bike_id": "7ccf021efe461bb666cf1597abd7e880"}, {"lat": 38.89246766666667, "is_disabled": 0, "lon": -77.04875166666666, "is_reserved": 0, "fusion_lon": 0.0, "fusion_lat": 0.0, "name": "20da2eb7a3a0271c0b2784f671ce0a04", "type": "electric_scooter", "rental_uris": {"ios": "https://dc.lft.to/lastmile_qr_scan", "android": "https://dc.lft.to/lastmile_qr_scan"}, "bike_id": "20da2eb7a3a0271c0b2784f671ce0a04"}, {"lat": 38.8764415, "is_disabled": 0, "lon": -77.00112683333333, "is_reserved": 0, "fusion_lon": 0.0, "fusion_lat": 0.0, "name": "2bf7a0cdc0a255756cb1430e44f556a9", "type": "electric_scooter", "rental_uris": {"ios": "https://dc.lft.to/lastmile_qr_scan", "android": "https://dc.lft.to/lastmile_qr_scan"}, "bike_id": "2bf7a0cdc0a255756cb1430e44f556a9"}, {"lat": 38.9049335, "is_disabled": 0, "lon": -77.02978866666666, "is_reserved": 0, "fusion_lon": 0.0, "fusion_lat": 0.0, "name": "73ee0d951f886c5394a65f72d40d3d69", "type": "electric_scooter", "rental_uris": {"ios": "https://dc.lft.to/lastmile_qr_scan", "android": "https://dc.lft.to/lastmile_qr_scan"}, "bike_id": "73ee0d951f886c5394a65f72d40d3d69"}, {"lat": 38.92559766666667, "is_disabled": 0, "lon": -77.03774316666667, "is_reserved": 0, "fusion_lon": 0.0, "fusion_lat": 0.0, "name": "c78b380b4556d0f5558a6c74eed77f41", "type": "electric_scooter", "rental_uris": {"ios": "https://dc.lft.to/lastmile_qr_scan", "android": "https://dc.lft.to/lastmile_qr_scan"}, "bike_id": "c78b380b4556d0f5558a6c74eed77f41"}, {"lat": 38.809797333333336, "is_disabled": 0, "lon": -77.0765955, "is_reserved": 0, "fusion_lon": 0.0, "fusion_lat": 0.0, "name": "609af6659d056e6f6e87747c77937444", "type": "electric_bike", "rental_uris": {"ios": "https://dc.lft.to/lastmile_qr_scan", "android": "https://dc.lft.to/lastmile_qr_scan"}, "bike_id": "609af6659d056e6f6e87747c77937444"}, {"lat": 38.98945583333333, "is_disabled": 0, "lon": -77.1009975, "is_reserved": 0, "fusion_lon": 0.0, "fusion_lat": 0.0, "name": "360ccd6b5131a5110fa152ae045b7555", "type": "electric_bike", "rental_uris": {"ios": "https://dc.lft.to/lastmile_qr_scan", "android": "https://dc.lft.to/lastmile_qr_scan"}, "bike_id": "360ccd6b5131a5110fa152ae045b7555"}, {"lat": 38.90226766666667, "is_disabled": 0, "lon": -77.03734333333334, "is_reserved": 0, "fusion_lon": 0.0, "fusion_lat": 0.0, "name": "91c097703164b5f3805178a1ed792af9", "type": "electric_scooter", "rental_uris": {"ios": "https://dc.lft.to/lastmile_qr_scan", "android": "https://dc.lft.to/lastmile_qr_scan"}, "bike_id": "91c097703164b5f3805178a1ed792af9"}, {"lat": 38.91977683333333, "is_disabled": 0, "lon": -77.000216, "is_reserved": 0, "fusion_lon": 0.0, "fusion_lat": 0.0, "name": "38ea6e4a833d18a92a0e1695c1620906", "type": "electric_scooter", "rental_uris": {"ios": "https://dc.lft.to/lastmile_qr_scan", "android": "https://dc.lft.to/lastmile_qr_scan"}, "bike_id": "38ea6e4a833d18a92a0e1695c1620906"}, {"lat": 38.9038975, "is_disabled": 0, "lon": -77.04756166666667, "is_reserved": 0, "fusion_lon": 0.0, "fusion_lat": 0.0, "name": "b268bda332ec576a9c3959930fa8b334", "type": "electric_scooter", "rental_uris": {"ios": "https://dc.lft.to/lastmile_qr_scan", "android": "https://dc.lft.to/lastmile_qr_scan"}, "bike_id": "b268bda332ec576a9c3959930fa8b334"}, {"lat": 38.935285, "is_disabled": 0, "lon": -77.05819133333334, "is_reserved": 0, "fusion_lon": 0.0, "fusion_lat": 0.0, "name": "d5d3393a3e1efc19b3042cc8cf1559a0", "type": "electric_scooter", "rental_uris": {"ios": "https://dc.lft.to/lastmile_qr_scan", "android": "https://dc.lft.to/lastmile_qr_scan"}, "bike_id": "d5d3393a3e1efc19b3042cc8cf1559a0"}, {"lat": 38.8998765, "is_disabled": 0, "lon": -76.97745966666666, "is_reserved": 0, "fusion_lon": 0.0, "fusion_lat": 0.0, "name": "0a0bfe937a0c635af3cacf093e701afa", "type": "electric_scooter", "rental_uris": {"ios": "https://dc.lft.to/lastmile_qr_scan", "android": "https://dc.lft.to/lastmile_qr_scan"}, "bike_id": "0a0bfe937a0c635af3cacf093e701afa"}, {"lat": 38.83300766666667, "is_disabled": 0, "lon": -77.08408883333334, "is_reserved": 0, "fusion_lon": 0.0, "fusion_lat": 0.0, "name": "44453ff4e2c60dbba0b5df15886d518c", "type": "electric_bike", "rental_uris": {"ios": "https://dc.lft.to/lastmile_qr_scan", "android": "https://dc.lft.to/lastmile_qr_scan"}, "bike_id": "44453ff4e2c60dbba0b5df15886d518c"}, {"lat": 38.9004705, "is_disabled": 0, "lon": -77.03379666666666, "is_reserved": 0, "fusion_lon": 0.0, "fusion_lat": 0.0, "name": "7c45903f34c79f4a7fda7063de2c5ab4", "type": "electric_scooter", "rental_uris": {"ios": "https://dc.lft.to/lastmile_qr_scan", "android": "https://dc.lft.to/lastmile_qr_scan"}, "bike_id": "7c45903f34c79f4a7fda7063de2c5ab4"}, {"lat": 38.902471166666665, "is_disabled": 0, "lon": -77.02152666666667, "is_reserved": 0, "fusion_lon": 0.0, "fusion_lat": 0.0, "name": "d9d5b86ad42c19479c7dd97d6c06c158", "type": "electric_scooter", "rental_uris": {"ios": "https://dc.lft.to/lastmile_qr_scan", "android": "https://dc.lft.to/lastmile_qr_scan"}, "bike_id": "d9d5b86ad42c19479c7dd97d6c06c158"}, {"lat": 38.92245333333334, "is_disabled": 0, "lon": -77.0303385, "is_reserved": 0, "fusion_lon": 0.0, "fusion_lat": 0.0, "name": "fda4f22f904779259d90c0799e860ebd", "type": "electric_scooter", "rental_uris": {"ios": "https://dc.lft.to/lastmile_qr_scan", "android": "https://dc.lft.to/lastmile_qr_scan"}, "bike_id": "fda4f22f904779259d90c0799e860ebd"}, {"lat": 38.93577716666667, "is_disabled": 0, "lon": -77.036546, "is_reserved": 0, "fusion_lon": 0.0, "fusion_lat": 0.0, "name": "60c506a203d2d832169bcd9bea996ce7", "type": "electric_bike", "rental_uris": {"ios": "https://dc.lft.to/lastmile_qr_scan", "android": "https://dc.lft.to/lastmile_qr_scan"}, "bike_id": "60c506a203d2d832169bcd9bea996ce7"}, {"lat": 38.88052966666667, "is_disabled": 0, "lon": -76.93216433333333, "is_reserved": 0, "fusion_lon": 0.0, "fusion_lat": 0.0, "name": "5924aa15473e160eb3e2dd29373adb36", "type": "electric_scooter", "rental_uris": {"ios": "https://dc.lft.to/lastmile_qr_scan", "android": "https://dc.lft.to/lastmile_qr_scan"}, "bike_id": "5924aa15473e160eb3e2dd29373adb36"}, {"lat": 38.9096445, "is_disabled": 0, "lon": -77.04028733333334, "is_reserved": 0, "fusion_lon": 0.0, "fusion_lat": 0.0, "name": "785dae596eca6871874bc28e309670af", "type": "electric_scooter", "rental_uris": {"ios": "https://dc.lft.to/lastmile_qr_scan", "android": "https://dc.lft.to/lastmile_qr_scan"}, "bike_id": "785dae596eca6871874bc28e309670af"}, {"lat": 38.91415216666667, "is_disabled": 0, "lon": -77.04504216666666, "is_reserved": 0, "fusion_lon": 0.0, "fusion_lat": 0.0, "name": "29796f9c7e71dda12c5541c1aef2ff4d", "type": "electric_scooter", "rental_uris": {"ios": "https://dc.lft.to/lastmile_qr_scan", "android": "https://dc.lft.to/lastmile_qr_scan"}, "bike_id": "29796f9c7e71dda12c5541c1aef2ff4d"}, {"lat": 38.9208385, "is_disabled": 0, "lon": -77.0251445, "is_reserved": 0, "fusion_lon": 0.0, "fusion_lat": 0.0, "name": "9e06cb4aed818eb357ce15fb5a847d77", "type": "electric_scooter", "rental_uris": {"ios": "https://dc.lft.to/lastmile_qr_scan", "android": "https://dc.lft.to/lastmile_qr_scan"}, "bike_id": "9e06cb4aed818eb357ce15fb5a847d77"}, {"lat": 38.9024085, "is_disabled": 0, "lon": -77.00206566666667, "is_reserved": 0, "fusion_lon": 0.0, "fusion_lat": 0.0, "name": "f4d97458a814db5bdb739696b6d31580", "type": "electric_scooter", "rental_uris": {"ios": "https://dc.lft.to/lastmile_qr_scan", "android": "https://dc.lft.to/lastmile_qr_scan"}, "bike_id": "f4d97458a814db5bdb739696b6d31580"}, {"lat": 38.91801566666667, "is_disabled": 0, "lon": -77.04012183333333, "is_reserved": 0, "fusion_lon": 0.0, "fusion_lat": 0.0, "name": "be7d3bab6073ee3023e93d801e693d8e", "type": "electric_scooter", "rental_uris": {"ios": "https://dc.lft.to/lastmile_qr_scan", "android": "https://dc.lft.to/lastmile_qr_scan"}, "bike_id": "be7d3bab6073ee3023e93d801e693d8e"}, {"lat": 38.9174075, "is_disabled": 0, "lon": -77.021148, "is_reserved": 0, "fusion_lon": 0.0, "fusion_lat": 0.0, "name": "d59e8f78c4fc9763a111453cdcb14f62", "type": "electric_scooter", "rental_uris": {"ios": "https://dc.lft.to/lastmile_qr_scan", "android": "https://dc.lft.to/lastmile_qr_scan"}, "bike_id": "d59e8f78c4fc9763a111453cdcb14f62"}, {"lat": 38.8811475, "is_disabled": 0, "lon": -77.01652716666666, "is_reserved": 0, "fusion_lon": 0.0, "fusion_lat": 0.0, "name": "22126db22dc9832c64f2cfcddf662c50", "type": "electric_bike", "rental_uris": {"ios": "https://dc.lft.to/lastmile_qr_scan", "android": "https://dc.lft.to/lastmile_qr_scan"}, "bike_id": "22126db22dc9832c64f2cfcddf662c50"}, {"lat": 38.908893666666664, "is_disabled": 0, "lon": -76.98237316666666, "is_reserved": 0, "fusion_lon": 0.0, "fusion_lat": 0.0, "name": "a8efc2d302c476d49c2c67e1d158f08c", "type": "electric_scooter", "rental_uris": {"ios": "https://dc.lft.to/lastmile_qr_scan", "android": "https://dc.lft.to/lastmile_qr_scan"}, "bike_id": "a8efc2d302c476d49c2c67e1d158f08c"}, {"lat": 38.89202183333333, "is_disabled": 0, "lon": -76.99013116666667, "is_reserved": 0, "fusion_lon": 0.0, "fusion_lat": 0.0, "name": "e39ec528dad3e0c14c68b9ce4f23fb1b", "type": "electric_scooter", "rental_uris": {"ios": "https://dc.lft.to/lastmile_qr_scan", "android": "https://dc.lft.to/lastmile_qr_scan"}, "bike_id": "e39ec528dad3e0c14c68b9ce4f23fb1b"}, {"lat": 38.925667, "is_disabled": 0, "lon": -77.02961933333333, "is_reserved": 0, "fusion_lon": 0.0, "fusion_lat": 0.0, "name": "0548af40570d42d4c6ccab0b11e4f5ed", "type": "electric_scooter", "rental_uris": {"ios": "https://dc.lft.to/lastmile_qr_scan", "android": "https://dc.lft.to/lastmile_qr_scan"}, "bike_id": "0548af40570d42d4c6ccab0b11e4f5ed"}, {"lat": 38.90744816666667, "is_disabled": 0, "lon": -77.00371883333334, "is_reserved": 0, "fusion_lon": 0.0, "fusion_lat": 0.0, "name": "25965b3d13bcd1cb84c7b54c1ec6cda5", "type": "electric_scooter", "rental_uris": {"ios": "https://dc.lft.to/lastmile_qr_scan", "android": "https://dc.lft.to/lastmile_qr_scan"}, "bike_id": "25965b3d13bcd1cb84c7b54c1ec6cda5"}, {"lat": 38.900399, "is_disabled": 0, "lon": -76.998467, "is_reserved": 0, "fusion_lon": 0.0, "fusion_lat": 0.0, "name": "83a72a6ecc6966239956774c56e6ac8e", "type": "electric_scooter", "rental_uris": {"ios": "https://dc.lft.to/lastmile_qr_scan", "android": "https://dc.lft.to/lastmile_qr_scan"}, "bike_id": "83a72a6ecc6966239956774c56e6ac8e"}, {"lat": 38.87394233333333, "is_disabled": 0, "lon": -77.00029533333333, "is_reserved": 0, "fusion_lon": 0.0, "fusion_lat": 0.0, "name": "0537a39cc3b0232de89dc59715b9f302", "type": "electric_scooter", "rental_uris": {"ios": "https://dc.lft.to/lastmile_qr_scan", "android": "https://dc.lft.to/lastmile_qr_scan"}, "bike_id": "0537a39cc3b0232de89dc59715b9f302"}, {"lat": 38.893700833333334, "is_disabled": 0, "lon": -77.01544016666666, "is_reserved": 0, "fusion_lon": 0.0, "fusion_lat": 0.0, "name": "9740156c129cdf22de3f63c501354333", "type": "electric_scooter", "rental_uris": {"ios": "https://dc.lft.to/lastmile_qr_scan", "android": "https://dc.lft.to/lastmile_qr_scan"}, "bike_id": "9740156c129cdf22de3f63c501354333"}, {"lat": 38.920418166666664, "is_disabled": 0, "lon": -77.016755, "is_reserved": 0, "fusion_lon": 0.0, "fusion_lat": 0.0, "name": "0fed37c71572df865d57501e3ea80936", "type": "electric_scooter", "rental_uris": {"ios": "https://dc.lft.to/lastmile_qr_scan", "android": "https://dc.lft.to/lastmile_qr_scan"}, "bike_id": "0fed37c71572df865d57501e3ea80936"}, {"lat": 38.92261033333333, "is_disabled": 0, "lon": -77.02040033333333, "is_reserved": 0, "fusion_lon": 0.0, "fusion_lat": 0.0, "name": "f75d280c9484d13e64ca16c453c283cb", "type": "electric_scooter", "rental_uris": {"ios": "https://dc.lft.to/lastmile_qr_scan", "android": "https://dc.lft.to/lastmile_qr_scan"}, "bike_id": "f75d280c9484d13e64ca16c453c283cb"}, {"lat": 38.903672, "is_disabled": 0, "lon": -77.03216416666666, "is_reserved": 0, "fusion_lon": 0.0, "fusion_lat": 0.0, "name": "7be6d0f0a7d0a4e55835d619d6889705", "type": "electric_scooter", "rental_uris": {"ios": "https://dc.lft.to/lastmile_qr_scan", "android": "https://dc.lft.to/lastmile_qr_scan"}, "bike_id": "7be6d0f0a7d0a4e55835d619d6889705"}, {"lat": 38.9156175, "is_disabled": 0, "lon": -77.03170333333334, "is_reserved": 0, "fusion_lon": 0.0, "fusion_lat": 0.0, "name": "6ff8f08929a38447fa64e9ecacd79995", "type": "electric_scooter", "rental_uris": {"ios": "https://dc.lft.to/lastmile_qr_scan", "android": "https://dc.lft.to/lastmile_qr_scan"}, "bike_id": "6ff8f08929a38447fa64e9ecacd79995"}, {"lat": 38.9208875, "is_disabled": 0, "lon": -77.024215, "is_reserved": 0, "fusion_lon": 0.0, "fusion_lat": 0.0, "name": "b99c17ec8406213a8fa70e22556d0cad", "type": "electric_scooter", "rental_uris": {"ios": "https://dc.lft.to/lastmile_qr_scan", "android": "https://dc.lft.to/lastmile_qr_scan"}, "bike_id": "b99c17ec8406213a8fa70e22556d0cad"}, {"lat": 38.91188866666667, "is_disabled": 0, "lon": -77.00727633333334, "is_reserved": 0, "fusion_lon": 0.0, "fusion_lat": 0.0, "name": "c8c1bfb2cb558e0fa3ee92e74c999778", "type": "electric_scooter", "rental_uris": {"ios": "https://dc.lft.to/lastmile_qr_scan", "android": "https://dc.lft.to/lastmile_qr_scan"}, "bike_id": "c8c1bfb2cb558e0fa3ee92e74c999778"}, {"lat": 38.902336, "is_disabled": 0, "lon": -77.02807466666667, "is_reserved": 0, "fusion_lon": 0.0, "fusion_lat": 0.0, "name": "d5181be9086707ce0e87a245f402731c", "type": "electric_scooter", "rental_uris": {"ios": "https://dc.lft.to/lastmile_qr_scan", "android": "https://dc.lft.to/lastmile_qr_scan"}, "bike_id": "d5181be9086707ce0e87a245f402731c"}, {"lat": 38.93270666666667, "is_disabled": 0, "lon": -77.0208925, "is_reserved": 0, "fusion_lon": 0.0, "fusion_lat": 0.0, "name": "1922539b8e5c840cb72d5e3239546545", "type": "electric_scooter", "rental_uris": {"ios": "https://dc.lft.to/lastmile_qr_scan", "android": "https://dc.lft.to/lastmile_qr_scan"}, "bike_id": "1922539b8e5c840cb72d5e3239546545"}, {"lat": 38.934698166666664, "is_disabled": 0, "lon": -76.98869666666667, "is_reserved": 0, "fusion_lon": 0.0, "fusion_lat": 0.0, "name": "1f6e9050d0b91aaab948b6613f1a44e9", "type": "electric_scooter", "rental_uris": {"ios": "https://dc.lft.to/lastmile_qr_scan", "android": "https://dc.lft.to/lastmile_qr_scan"}, "bike_id": "1f6e9050d0b91aaab948b6613f1a44e9"}, {"lat": 38.9211785, "is_disabled": 0, "lon": -77.0121145, "is_reserved": 0, "fusion_lon": 0.0, "fusion_lat": 0.0, "name": "ddb94f77d5cf255d6213e4fd4e9d3c61", "type": "electric_scooter", "rental_uris": {"ios": "https://dc.lft.to/lastmile_qr_scan", "android": "https://dc.lft.to/lastmile_qr_scan"}, "bike_id": "ddb94f77d5cf255d6213e4fd4e9d3c61"}, {"lat": 38.90588783333333, "is_disabled": 0, "lon": -77.04231933333334, "is_reserved": 0, "fusion_lon": 0.0, "fusion_lat": 0.0, "name": "814d0ec59880b16052b89d3935e329fc", "type": "electric_scooter", "rental_uris": {"ios": "https://dc.lft.to/lastmile_qr_scan", "android": "https://dc.lft.to/lastmile_qr_scan"}, "bike_id": "814d0ec59880b16052b89d3935e329fc"}, {"lat": 38.9216925, "is_disabled": 0, "lon": -77.02675183333334, "is_reserved": 0, "fusion_lon": 0.0, "fusion_lat": 0.0, "name": "7e078713c401c8b529dd7934a3287f8c", "type": "electric_scooter", "rental_uris": {"ios": "https://dc.lft.to/lastmile_qr_scan", "android": "https://dc.lft.to/lastmile_qr_scan"}, "bike_id": "7e078713c401c8b529dd7934a3287f8c"}, {"lat": 38.90854433333333, "is_disabled": 0, "lon": -76.99947366666666, "is_reserved": 0, "fusion_lon": 0.0, "fusion_lat": 0.0, "name": "f27c64ebb26fe09d6ed8eef18996af84", "type": "electric_scooter", "rental_uris": {"ios": "https://dc.lft.to/lastmile_qr_scan", "android": "https://dc.lft.to/lastmile_qr_scan"}, "bike_id": "f27c64ebb26fe09d6ed8eef18996af84"}, {"lat": 38.901514, "is_disabled": 0, "lon": -77.03972166666667, "is_reserved": 0, "fusion_lon": 0.0, "fusion_lat": 0.0, "name": "39d4d4bb275be63c8a158d8b81899010", "type": "electric_scooter", "rental_uris": {"ios": "https://dc.lft.to/lastmile_qr_scan", "android": "https://dc.lft.to/lastmile_qr_scan"}, "bike_id": "39d4d4bb275be63c8a158d8b81899010"}, {"lat": 38.881140333333335, "is_disabled": 0, "lon": -77.02655433333334, "is_reserved": 0, "fusion_lon": 0.0, "fusion_lat": 0.0, "name": "878c19db77ed66d08b5f21fd33a49a71", "type": "electric_scooter", "rental_uris": {"ios": "https://dc.lft.to/lastmile_qr_scan", "android": "https://dc.lft.to/lastmile_qr_scan"}, "bike_id": "878c19db77ed66d08b5f21fd33a49a71"}, {"lat": 38.896128833333336, "is_disabled": 0, "lon": -77.022568, "is_reserved": 0, "fusion_lon": 0.0, "fusion_lat": 0.0, "name": "7111420ce722d466314921f17957469b", "type": "electric_scooter", "rental_uris": {"ios": "https://dc.lft.to/lastmile_qr_scan", "android": "https://dc.lft.to/lastmile_qr_scan"}, "bike_id": "7111420ce722d466314921f17957469b"}, {"lat": 38.895214, "is_disabled": 0, "lon": -77.02420016666666, "is_reserved": 0, "fusion_lon": 0.0, "fusion_lat": 0.0, "name": "62f5159988e488e18a57e38bc65d27df", "type": "electric_scooter", "rental_uris": {"ios": "https://dc.lft.to/lastmile_qr_scan", "android": "https://dc.lft.to/lastmile_qr_scan"}, "bike_id": "62f5159988e488e18a57e38bc65d27df"}, {"lat": 38.91602683333333, "is_disabled": 0, "lon": -77.03216283333333, "is_reserved": 0, "fusion_lon": 0.0, "fusion_lat": 0.0, "name": "04f415fbfd526c9179d69d0c289f17c3", "type": "electric_scooter", "rental_uris": {"ios": "https://dc.lft.to/lastmile_qr_scan", "android": "https://dc.lft.to/lastmile_qr_scan"}, "bike_id": "04f415fbfd526c9179d69d0c289f17c3"}, {"lat": 38.89226133333333, "is_disabled": 0, "lon": -77.04508, "is_reserved": 0, "fusion_lon": 0.0, "fusion_lat": 0.0, "name": "e81370668eaf5bc3fb72d9a981bf1f2a", "type": "electric_scooter", "rental_uris": {"ios": "https://dc.lft.to/lastmile_qr_scan", "android": "https://dc.lft.to/lastmile_qr_scan"}, "bike_id": "e81370668eaf5bc3fb72d9a981bf1f2a"}, {"lat": 38.9226675, "is_disabled": 0, "lon": -77.019547, "is_reserved": 0, "fusion_lon": 0.0, "fusion_lat": 0.0, "name": "b994ab76f06722960065b246d9377f78", "type": "electric_scooter", "rental_uris": {"ios": "https://dc.lft.to/lastmile_qr_scan", "android": "https://dc.lft.to/lastmile_qr_scan"}, "bike_id": "b994ab76f06722960065b246d9377f78"}, {"lat": 38.897435333333334, "is_disabled": 0, "lon": -77.0416255, "is_reserved": 0, "fusion_lon": 0.0, "fusion_lat": 0.0, "name": "96568365d3fcf93a4cf3aa182faa880b", "type": "electric_scooter", "rental_uris": {"ios": "https://dc.lft.to/lastmile_qr_scan", "android": "https://dc.lft.to/lastmile_qr_scan"}, "bike_id": "96568365d3fcf93a4cf3aa182faa880b"}, {"lat": 38.913450833333336, "is_disabled": 0, "lon": -77.0092405, "is_reserved": 0, "fusion_lon": 0.0, "fusion_lat": 0.0, "name": "fd260c84204a1910dd5b6e9146d73fa9", "type": "electric_scooter", "rental_uris": {"ios": "https://dc.lft.to/lastmile_qr_scan", "android": "https://dc.lft.to/lastmile_qr_scan"}, "bike_id": "fd260c84204a1910dd5b6e9146d73fa9"}, {"lat": 38.93321816666667, "is_disabled": 0, "lon": -77.03793416666667, "is_reserved": 0, "fusion_lon": 0.0, "fusion_lat": 0.0, "name": "b09c4b81e1378c4c11ccec2ed3d1f03b", "type": "electric_scooter", "rental_uris": {"ios": "https://dc.lft.to/lastmile_qr_scan", "android": "https://dc.lft.to/lastmile_qr_scan"}, "bike_id": "b09c4b81e1378c4c11ccec2ed3d1f03b"}, {"lat": 38.91734016666667, "is_disabled": 0, "lon": -77.03208833333333, "is_reserved": 0, "fusion_lon": 0.0, "fusion_lat": 0.0, "name": "83dcd846bfd4b1ef2b03c2b3fde3a03f", "type": "electric_scooter", "rental_uris": {"ios": "https://dc.lft.to/lastmile_qr_scan", "android": "https://dc.lft.to/lastmile_qr_scan"}, "bike_id": "83dcd846bfd4b1ef2b03c2b3fde3a03f"}, {"lat": 38.950132833333335, "is_disabled": 0, "lon": -77.06711583333333, "is_reserved": 0, "fusion_lon": 0.0, "fusion_lat": 0.0, "name": "93af9a53bbf1adc6f943b433d1712473", "type": "electric_scooter", "rental_uris": {"ios": "https://dc.lft.to/lastmile_qr_scan", "android": "https://dc.lft.to/lastmile_qr_scan"}, "bike_id": "93af9a53bbf1adc6f943b433d1712473"}, {"lat": 38.89913816666667, "is_disabled": 0, "lon": -77.013768, "is_reserved": 0, "fusion_lon": 0.0, "fusion_lat": 0.0, "name": "d25958c74c9a9bbbbe6ce0d183c8716e", "type": "electric_scooter", "rental_uris": {"ios": "https://dc.lft.to/lastmile_qr_scan", "android": "https://dc.lft.to/lastmile_qr_scan"}, "bike_id": "d25958c74c9a9bbbbe6ce0d183c8716e"}, {"lat": 38.89544683333333, "is_disabled": 0, "lon": -76.98335883333333, "is_reserved": 0, "fusion_lon": 0.0, "fusion_lat": 0.0, "name": "dc5631b29bb168512364ce09660e3e0c", "type": "electric_scooter", "rental_uris": {"ios": "https://dc.lft.to/lastmile_qr_scan", "android": "https://dc.lft.to/lastmile_qr_scan"}, "bike_id": "dc5631b29bb168512364ce09660e3e0c"}, {"lat": 38.90519416666667, "is_disabled": 0, "lon": -77.0513115, "is_reserved": 0, "fusion_lon": 0.0, "fusion_lat": 0.0, "name": "f8dc11a5439d5d5c585ec02e8e0e5fc6", "type": "electric_scooter", "rental_uris": {"ios": "https://dc.lft.to/lastmile_qr_scan", "android": "https://dc.lft.to/lastmile_qr_scan"}, "bike_id": "f8dc11a5439d5d5c585ec02e8e0e5fc6"}, {"lat": 38.885009, "is_disabled": 0, "lon": -77.02086533333333, "is_reserved": 0, "fusion_lon": 0.0, "fusion_lat": 0.0, "name": "678370567fb813978f1773a70d0ea75d", "type": "electric_scooter", "rental_uris": {"ios": "https://dc.lft.to/lastmile_qr_scan", "android": "https://dc.lft.to/lastmile_qr_scan"}, "bike_id": "678370567fb813978f1773a70d0ea75d"}, {"lat": 38.923656666666666, "is_disabled": 0, "lon": -77.0413355, "is_reserved": 0, "fusion_lon": 0.0, "fusion_lat": 0.0, "name": "f880a76a26277bc987820e2f7b37618d", "type": "electric_scooter", "rental_uris": {"ios": "https://dc.lft.to/lastmile_qr_scan", "android": "https://dc.lft.to/lastmile_qr_scan"}, "bike_id": "f880a76a26277bc987820e2f7b37618d"}, {"lat": 38.87319516666667, "is_disabled": 0, "lon": -77.11412666666666, "is_reserved": 0, "fusion_lon": 0.0, "fusion_lat": 0.0, "name": "2dbf97669f4d2391955b96912d4780d9", "type": "electric_bike", "rental_uris": {"ios": "https://dc.lft.to/lastmile_qr_scan", "android": "https://dc.lft.to/lastmile_qr_scan"}, "bike_id": "2dbf97669f4d2391955b96912d4780d9"}, {"lat": 38.8740135, "is_disabled": 0, "lon": -77.00021266666667, "is_reserved": 0, "fusion_lon": 0.0, "fusion_lat": 0.0, "name": "6c58d8bc886516a676096b40a5b0106d", "type": "electric_scooter", "rental_uris": {"ios": "https://dc.lft.to/lastmile_qr_scan", "android": "https://dc.lft.to/lastmile_qr_scan"}, "bike_id": "6c58d8bc886516a676096b40a5b0106d"}, {"lat": 38.92147816666667, "is_disabled": 0, "lon": -77.008906, "is_reserved": 0, "fusion_lon": 0.0, "fusion_lat": 0.0, "name": "0d0a8b768809bc164340c395bad63a2b", "type": "electric_bike", "rental_uris": {"ios": "https://dc.lft.to/lastmile_qr_scan", "android": "https://dc.lft.to/lastmile_qr_scan"}, "bike_id": "0d0a8b768809bc164340c395bad63a2b"}, {"lat": 38.902998, "is_disabled": 0, "lon": -77.04671916666666, "is_reserved": 0, "fusion_lon": 0.0, "fusion_lat": 0.0, "name": "9fa34c511555b96f984b5e7c84d6b8dc", "type": "electric_scooter", "rental_uris": {"ios": "https://dc.lft.to/lastmile_qr_scan", "android": "https://dc.lft.to/lastmile_qr_scan"}, "bike_id": "9fa34c511555b96f984b5e7c84d6b8dc"}, {"lat": 38.89882383333333, "is_disabled": 0, "lon": -77.005408, "is_reserved": 0, "fusion_lon": 0.0, "fusion_lat": 0.0, "name": "ac07dfec05eb963d2cd8ab49ea874dda", "type": "electric_scooter", "rental_uris": {"ios": "https://dc.lft.to/lastmile_qr_scan", "android": "https://dc.lft.to/lastmile_qr_scan"}, "bike_id": "ac07dfec05eb963d2cd8ab49ea874dda"}, {"lat": 38.92321616666667, "is_disabled": 0, "lon": -77.0433605, "is_reserved": 0, "fusion_lon": 0.0, "fusion_lat": 0.0, "name": "a1183f0ac8af30183a1fd74fb3149b99", "type": "electric_scooter", "rental_uris": {"ios": "https://dc.lft.to/lastmile_qr_scan", "android": "https://dc.lft.to/lastmile_qr_scan"}, "bike_id": "a1183f0ac8af30183a1fd74fb3149b99"}, {"lat": 38.9140405, "is_disabled": 0, "lon": -77.028937, "is_reserved": 0, "fusion_lon": 0.0, "fusion_lat": 0.0, "name": "b64fc87b167ab6f33f293dc5c967f896", "type": "electric_scooter", "rental_uris": {"ios": "https://dc.lft.to/lastmile_qr_scan", "android": "https://dc.lft.to/lastmile_qr_scan"}, "bike_id": "b64fc87b167ab6f33f293dc5c967f896"}, {"lat": 38.902611, "is_disabled": 0, "lon": -77.01869283333333, "is_reserved": 0, "fusion_lon": 0.0, "fusion_lat": 0.0, "name": "e00911104dcc395f4d39154ffb9e3fdb", "type": "electric_scooter", "rental_uris": {"ios": "https://dc.lft.to/lastmile_qr_scan", "android": "https://dc.lft.to/lastmile_qr_scan"}, "bike_id": "e00911104dcc395f4d39154ffb9e3fdb"}, {"lat": 38.9213365, "is_disabled": 0, "lon": -77.0287425, "is_reserved": 0, "fusion_lon": 0.0, "fusion_lat": 0.0, "name": "aa0bae5689be458584397e48709555e1", "type": "electric_bike", "rental_uris": {"ios": "https://dc.lft.to/lastmile_qr_scan", "android": "https://dc.lft.to/lastmile_qr_scan"}, "bike_id": "aa0bae5689be458584397e48709555e1"}, {"lat": 38.99783933333333, "is_disabled": 0, "lon": -77.00758116666667, "is_reserved": 0, "fusion_lon": 0.0, "fusion_lat": 0.0, "name": "2c3dd3e6291bc8fd28acfff3b29a4bc5", "type": "electric_bike", "rental_uris": {"ios": "https://dc.lft.to/lastmile_qr_scan", "android": "https://dc.lft.to/lastmile_qr_scan"}, "bike_id": "2c3dd3e6291bc8fd28acfff3b29a4bc5"}, {"lat": 38.87713183333334, "is_disabled": 0, "lon": -77.0165895, "is_reserved": 0, "fusion_lon": 0.0, "fusion_lat": 0.0, "name": "f5e1fac2702ee6c5ecef7859d48d5743", "type": "electric_scooter", "rental_uris": {"ios": "https://dc.lft.to/lastmile_qr_scan", "android": "https://dc.lft.to/lastmile_qr_scan"}, "bike_id": "f5e1fac2702ee6c5ecef7859d48d5743"}, {"lat": 38.8963975, "is_disabled": 0, "lon": -77.02656066666667, "is_reserved": 0, "fusion_lon": 0.0, "fusion_lat": 0.0, "name": "12a276f9c4c699125d68264cd6d939f2", "type": "electric_scooter", "rental_uris": {"ios": "https://dc.lft.to/lastmile_qr_scan", "android": "https://dc.lft.to/lastmile_qr_scan"}, "bike_id": "12a276f9c4c699125d68264cd6d939f2"}, {"lat": 38.96124433333333, "is_disabled": 0, "lon": -77.032794, "is_reserved": 0, "fusion_lon": 0.0, "fusion_lat": 0.0, "name": "68b62391f77e0894290a03d835657f37", "type": "electric_bike", "rental_uris": {"ios": "https://dc.lft.to/lastmile_qr_scan", "android": "https://dc.lft.to/lastmile_qr_scan"}, "bike_id": "68b62391f77e0894290a03d835657f37"}, {"lat": 38.91730183333333, "is_disabled": 0, "lon": -77.03213316666667, "is_reserved": 0, "fusion_lon": 0.0, "fusion_lat": 0.0, "name": "6c06af854a16d412cc5f1aece4c11ba9", "type": "electric_scooter", "rental_uris": {"ios": "https://dc.lft.to/lastmile_qr_scan", "android": "https://dc.lft.to/lastmile_qr_scan"}, "bike_id": "6c06af854a16d412cc5f1aece4c11ba9"}, {"lat": 38.929711166666664, "is_disabled": 0, "lon": -77.02823816666667, "is_reserved": 0, "fusion_lon": 0.0, "fusion_lat": 0.0, "name": "632bc746f61a1d21b78ee66a3c0b8f66", "type": "electric_scooter", "rental_uris": {"ios": "https://dc.lft.to/lastmile_qr_scan", "android": "https://dc.lft.to/lastmile_qr_scan"}, "bike_id": "632bc746f61a1d21b78ee66a3c0b8f66"}, {"lat": 38.901127, "is_disabled": 0, "lon": -77.0499055, "is_reserved": 0, "fusion_lon": 0.0, "fusion_lat": 0.0, "name": "f90895e064b75e60a0c4e71d0c51ba35", "type": "electric_scooter", "rental_uris": {"ios": "https://dc.lft.to/lastmile_qr_scan", "android": "https://dc.lft.to/lastmile_qr_scan"}, "bike_id": "f90895e064b75e60a0c4e71d0c51ba35"}, {"lat": 38.885093833333336, "is_disabled": 0, "lon": -77.01115666666666, "is_reserved": 0, "fusion_lon": 0.0, "fusion_lat": 0.0, "name": "f7732622c0e157e574c8051f4e8936ba", "type": "electric_scooter", "rental_uris": {"ios": "https://dc.lft.to/lastmile_qr_scan", "android": "https://dc.lft.to/lastmile_qr_scan"}, "bike_id": "f7732622c0e157e574c8051f4e8936ba"}, {"lat": 38.79986066666667, "is_disabled": 0, "lon": -77.1298195, "is_reserved": 0, "fusion_lon": 0.0, "fusion_lat": 0.0, "name": "8fa9fe7d87758aa3ab6a898a9506a340", "type": "electric_bike", "rental_uris": {"ios": "https://dc.lft.to/lastmile_qr_scan", "android": "https://dc.lft.to/lastmile_qr_scan"}, "bike_id": "8fa9fe7d87758aa3ab6a898a9506a340"}, {"lat": 38.92190516666667, "is_disabled": 0, "lon": -77.04252566666666, "is_reserved": 0, "fusion_lon": 0.0, "fusion_lat": 0.0, "name": "3975dfc25ff46aaa95e3b3e942e46b87", "type": "electric_scooter", "rental_uris": {"ios": "https://dc.lft.to/lastmile_qr_scan", "android": "https://dc.lft.to/lastmile_qr_scan"}, "bike_id": "3975dfc25ff46aaa95e3b3e942e46b87"}, {"lat": 38.92041616666667, "is_disabled": 0, "lon": -77.016775, "is_reserved": 0, "fusion_lon": 0.0, "fusion_lat": 0.0, "name": "7732a92557d80de8ef60d4f8db7d5479", "type": "electric_scooter", "rental_uris": {"ios": "https://dc.lft.to/lastmile_qr_scan", "android": "https://dc.lft.to/lastmile_qr_scan"}, "bike_id": "7732a92557d80de8ef60d4f8db7d5479"}, {"lat": 38.921592833333335, "is_disabled": 0, "lon": -77.02105416666667, "is_reserved": 0, "fusion_lon": 0.0, "fusion_lat": 0.0, "name": "40a0eeba2fb9f301622007b79b6e3dfb", "type": "electric_scooter", "rental_uris": {"ios": "https://dc.lft.to/lastmile_qr_scan", "android": "https://dc.lft.to/lastmile_qr_scan"}, "bike_id": "40a0eeba2fb9f301622007b79b6e3dfb"}, {"lat": 38.91704633333333, "is_disabled": 0, "lon": -77.03907716666667, "is_reserved": 0, "fusion_lon": 0.0, "fusion_lat": 0.0, "name": "5c58115d5a430eca90726b2c8105dd31", "type": "electric_scooter", "rental_uris": {"ios": "https://dc.lft.to/lastmile_qr_scan", "android": "https://dc.lft.to/lastmile_qr_scan"}, "bike_id": "5c58115d5a430eca90726b2c8105dd31"}, {"lat": 38.92440466666667, "is_disabled": 0, "lon": -77.02030716666667, "is_reserved": 0, "fusion_lon": 0.0, "fusion_lat": 0.0, "name": "a75e5d4cdf20696a84a9f60995b259bb", "type": "electric_scooter", "rental_uris": {"ios": "https://dc.lft.to/lastmile_qr_scan", "android": "https://dc.lft.to/lastmile_qr_scan"}, "bike_id": "a75e5d4cdf20696a84a9f60995b259bb"}, {"lat": 38.88421116666667, "is_disabled": 0, "lon": -77.02794183333333, "is_reserved": 0, "fusion_lon": 0.0, "fusion_lat": 0.0, "name": "3b9ec6eecc5e69a6d52f1da23c3e88fb", "type": "electric_scooter", "rental_uris": {"ios": "https://dc.lft.to/lastmile_qr_scan", "android": "https://dc.lft.to/lastmile_qr_scan"}, "bike_id": "3b9ec6eecc5e69a6d52f1da23c3e88fb"}, {"lat": 38.904073, "is_disabled": 0, "lon": -76.97332766666666, "is_reserved": 0, "fusion_lon": 0.0, "fusion_lat": 0.0, "name": "9a5ab31fae2b0506e40923edd9da5f3f", "type": "electric_scooter", "rental_uris": {"ios": "https://dc.lft.to/lastmile_qr_scan", "android": "https://dc.lft.to/lastmile_qr_scan"}, "bike_id": "9a5ab31fae2b0506e40923edd9da5f3f"}, {"lat": 38.943068, "is_disabled": 0, "lon": -77.0593155, "is_reserved": 0, "fusion_lon": 0.0, "fusion_lat": 0.0, "name": "fde18b71451c6a8395b1a216bbd1bf89", "type": "electric_scooter", "rental_uris": {"ios": "https://dc.lft.to/lastmile_qr_scan", "android": "https://dc.lft.to/lastmile_qr_scan"}, "bike_id": "fde18b71451c6a8395b1a216bbd1bf89"}, {"lat": 38.948367, "is_disabled": 0, "lon": -77.078805, "is_reserved": 0, "fusion_lon": 0.0, "fusion_lat": 0.0, "name": "59dd5c9c3b54c13bd2f810151109e932", "type": "electric_scooter", "rental_uris": {"ios": "https://dc.lft.to/lastmile_qr_scan", "android": "https://dc.lft.to/lastmile_qr_scan"}, "bike_id": "59dd5c9c3b54c13bd2f810151109e932"}, {"lat": 38.92033033333333, "is_disabled": 0, "lon": -76.97803, "is_reserved": 0, "fusion_lon": 0.0, "fusion_lat": 0.0, "name": "029852bcab23256f58d420ac4e584a9c", "type": "electric_scooter", "rental_uris": {"ios": "https://dc.lft.to/lastmile_qr_scan", "android": "https://dc.lft.to/lastmile_qr_scan"}, "bike_id": "029852bcab23256f58d420ac4e584a9c"}, {"lat": 38.90826083333333, "is_disabled": 0, "lon": -77.03184116666667, "is_reserved": 0, "fusion_lon": 0.0, "fusion_lat": 0.0, "name": "546a9d9f118379ea0ec8d83a38533d2a", "type": "electric_scooter", "rental_uris": {"ios": "https://dc.lft.to/lastmile_qr_scan", "android": "https://dc.lft.to/lastmile_qr_scan"}, "bike_id": "546a9d9f118379ea0ec8d83a38533d2a"}, {"lat": 38.857654833333335, "is_disabled": 0, "lon": -76.98761616666667, "is_reserved": 0, "fusion_lon": 0.0, "fusion_lat": 0.0, "name": "3589ac9d4396ba80bb593c659a3174c3", "type": "electric_bike", "rental_uris": {"ios": "https://dc.lft.to/lastmile_qr_scan", "android": "https://dc.lft.to/lastmile_qr_scan"}, "bike_id": "3589ac9d4396ba80bb593c659a3174c3"}, {"lat": 38.92612783333333, "is_disabled": 0, "lon": -77.02162633333333, "is_reserved": 0, "fusion_lon": 0.0, "fusion_lat": 0.0, "name": "c1a5226891450bbe8dd1b26f462e051a", "type": "electric_scooter", "rental_uris": {"ios": "https://dc.lft.to/lastmile_qr_scan", "android": "https://dc.lft.to/lastmile_qr_scan"}, "bike_id": "c1a5226891450bbe8dd1b26f462e051a"}, {"lat": 38.96160883333334, "is_disabled": 0, "lon": -77.03228983333334, "is_reserved": 0, "fusion_lon": 0.0, "fusion_lat": 0.0, "name": "acc678bcfda81742581bf42f750e27ee", "type": "electric_bike", "rental_uris": {"ios": "https://dc.lft.to/lastmile_qr_scan", "android": "https://dc.lft.to/lastmile_qr_scan"}, "bike_id": "acc678bcfda81742581bf42f750e27ee"}, {"lat": 38.93698333333333, "is_disabled": 0, "lon": -77.05603283333333, "is_reserved": 0, "fusion_lon": 0.0, "fusion_lat": 0.0, "name": "175844130fcfd4772bd34fb56d0bb782", "type": "electric_scooter", "rental_uris": {"ios": "https://dc.lft.to/lastmile_qr_scan", "android": "https://dc.lft.to/lastmile_qr_scan"}, "bike_id": "175844130fcfd4772bd34fb56d0bb782"}, {"lat": 38.8765545, "is_disabled": 0, "lon": -77.0010965, "is_reserved": 0, "fusion_lon": 0.0, "fusion_lat": 0.0, "name": "051ea639636266796527fc09c39665d3", "type": "electric_scooter", "rental_uris": {"ios": "https://dc.lft.to/lastmile_qr_scan", "android": "https://dc.lft.to/lastmile_qr_scan"}, "bike_id": "051ea639636266796527fc09c39665d3"}, {"lat": 38.9002995, "is_disabled": 0, "lon": -76.98796316666666, "is_reserved": 0, "fusion_lon": 0.0, "fusion_lat": 0.0, "name": "5a118993917b2f5597e2de6f6f9f0b9f", "type": "electric_scooter", "rental_uris": {"ios": "https://dc.lft.to/lastmile_qr_scan", "android": "https://dc.lft.to/lastmile_qr_scan"}, "bike_id": "5a118993917b2f5597e2de6f6f9f0b9f"}, {"lat": 38.921584, "is_disabled": 0, "lon": -77.02537266666667, "is_reserved": 0, "fusion_lon": 0.0, "fusion_lat": 0.0, "name": "bd88cb9c4c9d7ecaecdae029d634b146", "type": "electric_scooter", "rental_uris": {"ios": "https://dc.lft.to/lastmile_qr_scan", "android": "https://dc.lft.to/lastmile_qr_scan"}, "bike_id": "bd88cb9c4c9d7ecaecdae029d634b146"}, {"lat": 38.94194816666667, "is_disabled": 0, "lon": -77.03102733333333, "is_reserved": 0, "fusion_lon": 0.0, "fusion_lat": 0.0, "name": "84ef7b502db81699f2dacabd9717ccae", "type": "electric_scooter", "rental_uris": {"ios": "https://dc.lft.to/lastmile_qr_scan", "android": "https://dc.lft.to/lastmile_qr_scan"}, "bike_id": "84ef7b502db81699f2dacabd9717ccae"}, {"lat": 38.994989833333335, "is_disabled": 0, "lon": -77.0013905, "is_reserved": 0, "fusion_lon": 0.0, "fusion_lat": 0.0, "name": "cc5e9be0bb2b0b3f6f25bd4453ba8068", "type": "electric_bike", "rental_uris": {"ios": "https://dc.lft.to/lastmile_qr_scan", "android": "https://dc.lft.to/lastmile_qr_scan"}, "bike_id": "cc5e9be0bb2b0b3f6f25bd4453ba8068"}, {"lat": 38.91233183333333, "is_disabled": 0, "lon": -77.04488633333334, "is_reserved": 0, "fusion_lon": 0.0, "fusion_lat": 0.0, "name": "4bbc70fe7e12fd0f8cb649eaf767f034", "type": "electric_scooter", "rental_uris": {"ios": "https://dc.lft.to/lastmile_qr_scan", "android": "https://dc.lft.to/lastmile_qr_scan"}, "bike_id": "4bbc70fe7e12fd0f8cb649eaf767f034"}, {"lat": 38.96091233333333, "is_disabled": 0, "lon": -77.073373, "is_reserved": 0, "fusion_lon": 0.0, "fusion_lat": 0.0, "name": "1b42e0762a57d2922600edaf713f63d4", "type": "electric_scooter", "rental_uris": {"ios": "https://dc.lft.to/lastmile_qr_scan", "android": "https://dc.lft.to/lastmile_qr_scan"}, "bike_id": "1b42e0762a57d2922600edaf713f63d4"}, {"lat": 38.92344533333333, "is_disabled": 0, "lon": -77.05182516666666, "is_reserved": 0, "fusion_lon": 0.0, "fusion_lat": 0.0, "name": "0b464d907d08b1a7a76b17de88a5461f", "type": "electric_scooter", "rental_uris": {"ios": "https://dc.lft.to/lastmile_qr_scan", "android": "https://dc.lft.to/lastmile_qr_scan"}, "bike_id": "0b464d907d08b1a7a76b17de88a5461f"}, {"lat": 38.902371, "is_disabled": 0, "lon": -77.0377335, "is_reserved": 0, "fusion_lon": 0.0, "fusion_lat": 0.0, "name": "8fc80f10fe2b528a5291998684607c6f", "type": "electric_scooter", "rental_uris": {"ios": "https://dc.lft.to/lastmile_qr_scan", "android": "https://dc.lft.to/lastmile_qr_scan"}, "bike_id": "8fc80f10fe2b528a5291998684607c6f"}, {"lat": 38.95418083333333, "is_disabled": 0, "lon": -77.0825035, "is_reserved": 0, "fusion_lon": 0.0, "fusion_lat": 0.0, "name": "770349d9d4f5b0866b9f40f9d6d3101b", "type": "electric_bike", "rental_uris": {"ios": "https://dc.lft.to/lastmile_qr_scan", "android": "https://dc.lft.to/lastmile_qr_scan"}, "bike_id": "770349d9d4f5b0866b9f40f9d6d3101b"}, {"lat": 38.89204433333333, "is_disabled": 0, "lon": -76.95701166666667, "is_reserved": 0, "fusion_lon": 0.0, "fusion_lat": 0.0, "name": "42da107ecf8a5a47a19c0eb7b2013133", "type": "electric_scooter", "rental_uris": {"ios": "https://dc.lft.to/lastmile_qr_scan", "android": "https://dc.lft.to/lastmile_qr_scan"}, "bike_id": "42da107ecf8a5a47a19c0eb7b2013133"}, {"lat": 38.896047833333334, "is_disabled": 0, "lon": -77.04690233333334, "is_reserved": 0, "fusion_lon": 0.0, "fusion_lat": 0.0, "name": "b4849870bfc86eeef0af07f8b0caaa10", "type": "electric_scooter", "rental_uris": {"ios": "https://dc.lft.to/lastmile_qr_scan", "android": "https://dc.lft.to/lastmile_qr_scan"}, "bike_id": "b4849870bfc86eeef0af07f8b0caaa10"}, {"lat": 38.923500833333335, "is_disabled": 0, "lon": -77.041451, "is_reserved": 0, "fusion_lon": 0.0, "fusion_lat": 0.0, "name": "38f34752a743842b751ec5ab0990969b", "type": "electric_scooter", "rental_uris": {"ios": "https://dc.lft.to/lastmile_qr_scan", "android": "https://dc.lft.to/lastmile_qr_scan"}, "bike_id": "38f34752a743842b751ec5ab0990969b"}, {"lat": 38.8973835, "is_disabled": 0, "lon": -77.00756366666667, "is_reserved": 0, "fusion_lon": 0.0, "fusion_lat": 0.0, "name": "562e20ddbbec0d2ae228c21b7db3e6c8", "type": "electric_scooter", "rental_uris": {"ios": "https://dc.lft.to/lastmile_qr_scan", "android": "https://dc.lft.to/lastmile_qr_scan"}, "bike_id": "562e20ddbbec0d2ae228c21b7db3e6c8"}, {"lat": 38.894316333333336, "is_disabled": 0, "lon": -77.024069, "is_reserved": 0, "fusion_lon": 0.0, "fusion_lat": 0.0, "name": "f400da1757ad653ff54b5050b4f03b83", "type": "electric_scooter", "rental_uris": {"ios": "https://dc.lft.to/lastmile_qr_scan", "android": "https://dc.lft.to/lastmile_qr_scan"}, "bike_id": "f400da1757ad653ff54b5050b4f03b83"}, {"lat": 38.9170955, "is_disabled": 0, "lon": -77.02871933333333, "is_reserved": 0, "fusion_lon": 0.0, "fusion_lat": 0.0, "name": "de9441aa67290035f597e9b48c3f6c20", "type": "electric_scooter", "rental_uris": {"ios": "https://dc.lft.to/lastmile_qr_scan", "android": "https://dc.lft.to/lastmile_qr_scan"}, "bike_id": "de9441aa67290035f597e9b48c3f6c20"}, {"lat": 38.90838316666667, "is_disabled": 0, "lon": -77.03206183333333, "is_reserved": 0, "fusion_lon": 0.0, "fusion_lat": 0.0, "name": "ba14eea89d1016be7711bad3659ef363", "type": "electric_scooter", "rental_uris": {"ios": "https://dc.lft.to/lastmile_qr_scan", "android": "https://dc.lft.to/lastmile_qr_scan"}, "bike_id": "ba14eea89d1016be7711bad3659ef363"}, {"lat": 38.897832333333334, "is_disabled": 0, "lon": -77.0075495, "is_reserved": 0, "fusion_lon": 0.0, "fusion_lat": 0.0, "name": "1dbfc6c9fe843edf68279961a14203ee", "type": "electric_scooter", "rental_uris": {"ios": "https://dc.lft.to/lastmile_qr_scan", "android": "https://dc.lft.to/lastmile_qr_scan"}, "bike_id": "1dbfc6c9fe843edf68279961a14203ee"}, {"lat": 38.9217395, "is_disabled": 0, "lon": -77.01906416666667, "is_reserved": 0, "fusion_lon": 0.0, "fusion_lat": 0.0, "name": "a272d1ceb684376a74b6a876fd932a87", "type": "electric_scooter", "rental_uris": {"ios": "https://dc.lft.to/lastmile_qr_scan", "android": "https://dc.lft.to/lastmile_qr_scan"}, "bike_id": "a272d1ceb684376a74b6a876fd932a87"}, {"lat": 38.8746095, "is_disabled": 0, "lon": -77.00483466666667, "is_reserved": 0, "fusion_lon": 0.0, "fusion_lat": 0.0, "name": "fa84912849b497589f95d0f6c000c082", "type": "electric_scooter", "rental_uris": {"ios": "https://dc.lft.to/lastmile_qr_scan", "android": "https://dc.lft.to/lastmile_qr_scan"}, "bike_id": "fa84912849b497589f95d0f6c000c082"}, {"lat": 38.898293833333334, "is_disabled": 0, "lon": -77.04993166666667, "is_reserved": 0, "fusion_lon": 0.0, "fusion_lat": 0.0, "name": "512fb7e0b68e1cae5b8c9cd81cfac48d", "type": "electric_scooter", "rental_uris": {"ios": "https://dc.lft.to/lastmile_qr_scan", "android": "https://dc.lft.to/lastmile_qr_scan"}, "bike_id": "512fb7e0b68e1cae5b8c9cd81cfac48d"}, {"lat": 38.89514366666667, "is_disabled": 0, "lon": -77.04357483333334, "is_reserved": 0, "fusion_lon": 0.0, "fusion_lat": 0.0, "name": "46f555a903be2b556ee21f4865999dc1", "type": "electric_bike", "rental_uris": {"ios": "https://dc.lft.to/lastmile_qr_scan", "android": "https://dc.lft.to/lastmile_qr_scan"}, "bike_id": "46f555a903be2b556ee21f4865999dc1"}, {"lat": 38.90940783333333, "is_disabled": 0, "lon": -77.046725, "is_reserved": 0, "fusion_lon": 0.0, "fusion_lat": 0.0, "name": "be43b4fe345c7eef9c097802ce256e27", "type": "electric_scooter", "rental_uris": {"ios": "https://dc.lft.to/lastmile_qr_scan", "android": "https://dc.lft.to/lastmile_qr_scan"}, "bike_id": "be43b4fe345c7eef9c097802ce256e27"}, {"lat": 38.9006075, "is_disabled": 0, "lon": -77.04565366666667, "is_reserved": 0, "fusion_lon": 0.0, "fusion_lat": 0.0, "name": "bf6e48906ab5024bba02900da1f36e83", "type": "electric_scooter", "rental_uris": {"ios": "https://dc.lft.to/lastmile_qr_scan", "android": "https://dc.lft.to/lastmile_qr_scan"}, "bike_id": "bf6e48906ab5024bba02900da1f36e83"}, {"lat": 38.90727716666667, "is_disabled": 0, "lon": -77.02724833333333, "is_reserved": 0, "fusion_lon": 0.0, "fusion_lat": 0.0, "name": "9a7d3940d77dd00755dff4cf6b0ccb49", "type": "electric_scooter", "rental_uris": {"ios": "https://dc.lft.to/lastmile_qr_scan", "android": "https://dc.lft.to/lastmile_qr_scan"}, "bike_id": "9a7d3940d77dd00755dff4cf6b0ccb49"}, {"lat": 38.88132983333333, "is_disabled": 0, "lon": -77.023414, "is_reserved": 0, "fusion_lon": 0.0, "fusion_lat": 0.0, "name": "0d3a23c92748fd380c660d887b43dc28", "type": "electric_scooter", "rental_uris": {"ios": "https://dc.lft.to/lastmile_qr_scan", "android": "https://dc.lft.to/lastmile_qr_scan"}, "bike_id": "0d3a23c92748fd380c660d887b43dc28"}, {"lat": 38.898852, "is_disabled": 0, "lon": -77.04343883333334, "is_reserved": 0, "fusion_lon": 0.0, "fusion_lat": 0.0, "name": "0f0876a8d435531d9992bf568b6f43aa", "type": "electric_scooter", "rental_uris": {"ios": "https://dc.lft.to/lastmile_qr_scan", "android": "https://dc.lft.to/lastmile_qr_scan"}, "bike_id": "0f0876a8d435531d9992bf568b6f43aa"}, {"lat": 38.9023775, "is_disabled": 0, "lon": -77.00201483333333, "is_reserved": 0, "fusion_lon": 0.0, "fusion_lat": 0.0, "name": "291292f498078adba6d4133d6963f23b", "type": "electric_scooter", "rental_uris": {"ios": "https://dc.lft.to/lastmile_qr_scan", "android": "https://dc.lft.to/lastmile_qr_scan"}, "bike_id": "291292f498078adba6d4133d6963f23b"}, {"lat": 38.92951, "is_disabled": 0, "lon": -77.04406266666666, "is_reserved": 0, "fusion_lon": 0.0, "fusion_lat": 0.0, "name": "cb567f63482c4abc3653b59fe88e66da", "type": "electric_scooter", "rental_uris": {"ios": "https://dc.lft.to/lastmile_qr_scan", "android": "https://dc.lft.to/lastmile_qr_scan"}, "bike_id": "cb567f63482c4abc3653b59fe88e66da"}, {"lat": 38.90492233333333, "is_disabled": 0, "lon": -77.04824166666667, "is_reserved": 0, "fusion_lon": 0.0, "fusion_lat": 0.0, "name": "f7a5d05e2fea6c3b91907708824eae03", "type": "electric_scooter", "rental_uris": {"ios": "https://dc.lft.to/lastmile_qr_scan", "android": "https://dc.lft.to/lastmile_qr_scan"}, "bike_id": "f7a5d05e2fea6c3b91907708824eae03"}, {"lat": 38.892387666666664, "is_disabled": 0, "lon": -76.98451666666666, "is_reserved": 0, "fusion_lon": 0.0, "fusion_lat": 0.0, "name": "d348393956c904e82c49f2daac33b973", "type": "electric_scooter", "rental_uris": {"ios": "https://dc.lft.to/lastmile_qr_scan", "android": "https://dc.lft.to/lastmile_qr_scan"}, "bike_id": "d348393956c904e82c49f2daac33b973"}, {"lat": 38.90026816666666, "is_disabled": 0, "lon": -77.00223116666666, "is_reserved": 0, "fusion_lon": 0.0, "fusion_lat": 0.0, "name": "e5fb22994f62768737ede5458295c278", "type": "electric_scooter", "rental_uris": {"ios": "https://dc.lft.to/lastmile_qr_scan", "android": "https://dc.lft.to/lastmile_qr_scan"}, "bike_id": "e5fb22994f62768737ede5458295c278"}, {"lat": 38.90619733333333, "is_disabled": 0, "lon": -77.056807, "is_reserved": 0, "fusion_lon": 0.0, "fusion_lat": 0.0, "name": "09ae5e9b08aea70bfb997714889f351d", "type": "electric_scooter", "rental_uris": {"ios": "https://dc.lft.to/lastmile_qr_scan", "android": "https://dc.lft.to/lastmile_qr_scan"}, "bike_id": "09ae5e9b08aea70bfb997714889f351d"}, {"lat": 38.887340333333334, "is_disabled": 0, "lon": -76.98357566666667, "is_reserved": 0, "fusion_lon": 0.0, "fusion_lat": 0.0, "name": "8f39b2b846e382cc9a563a829912c644", "type": "electric_scooter", "rental_uris": {"ios": "https://dc.lft.to/lastmile_qr_scan", "android": "https://dc.lft.to/lastmile_qr_scan"}, "bike_id": "8f39b2b846e382cc9a563a829912c644"}, {"lat": 38.92810433333333, "is_disabled": 0, "lon": -77.01425366666666, "is_reserved": 0, "fusion_lon": 0.0, "fusion_lat": 0.0, "name": "fccf28df254469126d0021b44d6135ec", "type": "electric_scooter", "rental_uris": {"ios": "https://dc.lft.to/lastmile_qr_scan", "android": "https://dc.lft.to/lastmile_qr_scan"}, "bike_id": "fccf28df254469126d0021b44d6135ec"}, {"lat": 38.91258633333333, "is_disabled": 0, "lon": -77.030538, "is_reserved": 0, "fusion_lon": 0.0, "fusion_lat": 0.0, "name": "90fe17deb6477f2b3855961ace0fd55d", "type": "electric_scooter", "rental_uris": {"ios": "https://dc.lft.to/lastmile_qr_scan", "android": "https://dc.lft.to/lastmile_qr_scan"}, "bike_id": "90fe17deb6477f2b3855961ace0fd55d"}, {"lat": 38.93811866666667, "is_disabled": 0, "lon": -76.992325, "is_reserved": 0, "fusion_lon": 0.0, "fusion_lat": 0.0, "name": "562e149ead5564969c7adb6e537c2b57", "type": "electric_scooter", "rental_uris": {"ios": "https://dc.lft.to/lastmile_qr_scan", "android": "https://dc.lft.to/lastmile_qr_scan"}, "bike_id": "562e149ead5564969c7adb6e537c2b57"}, {"lat": 38.916494, "is_disabled": 0, "lon": -77.02881783333333, "is_reserved": 0, "fusion_lon": 0.0, "fusion_lat": 0.0, "name": "8de81280bdd487d7cdac19ec81c2569f", "type": "electric_scooter", "rental_uris": {"ios": "https://dc.lft.to/lastmile_qr_scan", "android": "https://dc.lft.to/lastmile_qr_scan"}, "bike_id": "8de81280bdd487d7cdac19ec81c2569f"}, {"lat": 38.9095625, "is_disabled": 0, "lon": -77.01278483333333, "is_reserved": 0, "fusion_lon": 0.0, "fusion_lat": 0.0, "name": "d033a2bfe0040126ef75043d6ec78c49", "type": "electric_scooter", "rental_uris": {"ios": "https://dc.lft.to/lastmile_qr_scan", "android": "https://dc.lft.to/lastmile_qr_scan"}, "bike_id": "d033a2bfe0040126ef75043d6ec78c49"}, {"lat": 38.91859083333333, "is_disabled": 0, "lon": -76.96546566666666, "is_reserved": 0, "fusion_lon": 0.0, "fusion_lat": 0.0, "name": "dbf532865f4df10e6b5cb9d3672fd5ef", "type": "electric_scooter", "rental_uris": {"ios": "https://dc.lft.to/lastmile_qr_scan", "android": "https://dc.lft.to/lastmile_qr_scan"}, "bike_id": "dbf532865f4df10e6b5cb9d3672fd5ef"}, {"lat": 38.922591, "is_disabled": 0, "lon": -77.041435, "is_reserved": 0, "fusion_lon": 0.0, "fusion_lat": 0.0, "name": "b16ca9e342b9a5a32590ae333d8d0009", "type": "electric_scooter", "rental_uris": {"ios": "https://dc.lft.to/lastmile_qr_scan", "android": "https://dc.lft.to/lastmile_qr_scan"}, "bike_id": "b16ca9e342b9a5a32590ae333d8d0009"}, {"lat": 38.8859495, "is_disabled": 0, "lon": -77.01734, "is_reserved": 0, "fusion_lon": 0.0, "fusion_lat": 0.0, "name": "08decff65e5c274d44ad68d70dd0f57b", "type": "electric_scooter", "rental_uris": {"ios": "https://dc.lft.to/lastmile_qr_scan", "android": "https://dc.lft.to/lastmile_qr_scan"}, "bike_id": "08decff65e5c274d44ad68d70dd0f57b"}, {"lat": 38.905570166666664, "is_disabled": 0, "lon": -77.01981983333333, "is_reserved": 0, "fusion_lon": 0.0, "fusion_lat": 0.0, "name": "fb9a55281f55c7443def95b43ce02da0", "type": "electric_scooter", "rental_uris": {"ios": "https://dc.lft.to/lastmile_qr_scan", "android": "https://dc.lft.to/lastmile_qr_scan"}, "bike_id": "fb9a55281f55c7443def95b43ce02da0"}, {"lat": 38.92472766666667, "is_disabled": 0, "lon": -77.026728, "is_reserved": 0, "fusion_lon": 0.0, "fusion_lat": 0.0, "name": "779281e71100f423b10d620bae3634e4", "type": "electric_scooter", "rental_uris": {"ios": "https://dc.lft.to/lastmile_qr_scan", "android": "https://dc.lft.to/lastmile_qr_scan"}, "bike_id": "779281e71100f423b10d620bae3634e4"}, {"lat": 38.97492883333334, "is_disabled": 0, "lon": -77.01717733333334, "is_reserved": 0, "fusion_lon": 0.0, "fusion_lat": 0.0, "name": "c6af414b94668f236e6c60e9f52c1ad7", "type": "electric_scooter", "rental_uris": {"ios": "https://dc.lft.to/lastmile_qr_scan", "android": "https://dc.lft.to/lastmile_qr_scan"}, "bike_id": "c6af414b94668f236e6c60e9f52c1ad7"}, {"lat": 38.9169725, "is_disabled": 0, "lon": -77.03567016666666, "is_reserved": 0, "fusion_lon": 0.0, "fusion_lat": 0.0, "name": "47631606b348b4fca18416f3e01c8b6f", "type": "electric_scooter", "rental_uris": {"ios": "https://dc.lft.to/lastmile_qr_scan", "android": "https://dc.lft.to/lastmile_qr_scan"}, "bike_id": "47631606b348b4fca18416f3e01c8b6f"}, {"lat": 38.9183995, "is_disabled": 0, "lon": -77.02303166666667, "is_reserved": 0, "fusion_lon": 0.0, "fusion_lat": 0.0, "name": "4c1aac11b124494b8e4d956553b53bab", "type": "electric_scooter", "rental_uris": {"ios": "https://dc.lft.to/lastmile_qr_scan", "android": "https://dc.lft.to/lastmile_qr_scan"}, "bike_id": "4c1aac11b124494b8e4d956553b53bab"}, {"lat": 38.899007166666664, "is_disabled": 0, "lon": -77.03277433333334, "is_reserved": 0, "fusion_lon": 0.0, "fusion_lat": 0.0, "name": "91afa224a9eed053f050d39819c17a4d", "type": "electric_scooter", "rental_uris": {"ios": "https://dc.lft.to/lastmile_qr_scan", "android": "https://dc.lft.to/lastmile_qr_scan"}, "bike_id": "91afa224a9eed053f050d39819c17a4d"}, {"lat": 38.9743865, "is_disabled": 0, "lon": -77.0961875, "is_reserved": 0, "fusion_lon": 0.0, "fusion_lat": 0.0, "name": "21c5d4c5985f69baa76c94f75836e0d2", "type": "electric_bike", "rental_uris": {"ios": "https://dc.lft.to/lastmile_qr_scan", "android": "https://dc.lft.to/lastmile_qr_scan"}, "bike_id": "21c5d4c5985f69baa76c94f75836e0d2"}, {"lat": 38.916403833333334, "is_disabled": 0, "lon": -77.009816, "is_reserved": 0, "fusion_lon": 0.0, "fusion_lat": 0.0, "name": "f49a751df97e2aa1523843a5c01ba44e", "type": "electric_scooter", "rental_uris": {"ios": "https://dc.lft.to/lastmile_qr_scan", "android": "https://dc.lft.to/lastmile_qr_scan"}, "bike_id": "f49a751df97e2aa1523843a5c01ba44e"}, {"lat": 38.9417025, "is_disabled": 0, "lon": -76.95351083333334, "is_reserved": 0, "fusion_lon": 0.0, "fusion_lat": 0.0, "name": "89dc487ab8f4816813239d752c25cc92", "type": "electric_bike", "rental_uris": {"ios": "https://dc.lft.to/lastmile_qr_scan", "android": "https://dc.lft.to/lastmile_qr_scan"}, "bike_id": "89dc487ab8f4816813239d752c25cc92"}, {"lat": 38.92152216666667, "is_disabled": 0, "lon": -77.03872616666666, "is_reserved": 0, "fusion_lon": 0.0, "fusion_lat": 0.0, "name": "4c33d71602f1bbdfe0c58622818d6859", "type": "electric_scooter", "rental_uris": {"ios": "https://dc.lft.to/lastmile_qr_scan", "android": "https://dc.lft.to/lastmile_qr_scan"}, "bike_id": "4c33d71602f1bbdfe0c58622818d6859"}, {"lat": 38.930104, "is_disabled": 0, "lon": -77.020805, "is_reserved": 0, "fusion_lon": 0.0, "fusion_lat": 0.0, "name": "4c1ff5d9048f3f296d38d97327ce4e20", "type": "electric_scooter", "rental_uris": {"ios": "https://dc.lft.to/lastmile_qr_scan", "android": "https://dc.lft.to/lastmile_qr_scan"}, "bike_id": "4c1ff5d9048f3f296d38d97327ce4e20"}, {"lat": 38.92077333333334, "is_disabled": 0, "lon": -77.02316983333333, "is_reserved": 0, "fusion_lon": 0.0, "fusion_lat": 0.0, "name": "0120d9150230f53a2fde959bf29a50f7", "type": "electric_scooter", "rental_uris": {"ios": "https://dc.lft.to/lastmile_qr_scan", "android": "https://dc.lft.to/lastmile_qr_scan"}, "bike_id": "0120d9150230f53a2fde959bf29a50f7"}, {"lat": 38.887106, "is_disabled": 0, "lon": -77.00349083333333, "is_reserved": 0, "fusion_lon": 0.0, "fusion_lat": 0.0, "name": "ab91dad5a80c47221710b658d3e2c97c", "type": "electric_scooter", "rental_uris": {"ios": "https://dc.lft.to/lastmile_qr_scan", "android": "https://dc.lft.to/lastmile_qr_scan"}, "bike_id": "ab91dad5a80c47221710b658d3e2c97c"}, {"lat": 38.96131066666667, "is_disabled": 0, "lon": -77.02789216666666, "is_reserved": 0, "fusion_lon": 0.0, "fusion_lat": 0.0, "name": "8482758bc6f5b03abb8096db14b65cb6", "type": "electric_scooter", "rental_uris": {"ios": "https://dc.lft.to/lastmile_qr_scan", "android": "https://dc.lft.to/lastmile_qr_scan"}, "bike_id": "8482758bc6f5b03abb8096db14b65cb6"}, {"lat": 38.92109033333333, "is_disabled": 0, "lon": -77.04363916666667, "is_reserved": 0, "fusion_lon": 0.0, "fusion_lat": 0.0, "name": "ff990b8cd6d0f7b1d24c231fbc8d5c2d", "type": "electric_scooter", "rental_uris": {"ios": "https://dc.lft.to/lastmile_qr_scan", "android": "https://dc.lft.to/lastmile_qr_scan"}, "bike_id": "ff990b8cd6d0f7b1d24c231fbc8d5c2d"}, {"lat": 38.822071, "is_disabled": 0, "lon": -76.97704733333333, "is_reserved": 0, "fusion_lon": 0.0, "fusion_lat": 0.0, "name": "f1be94bad900056c63fd7d4c496a0f34", "type": "electric_bike", "rental_uris": {"ios": "https://dc.lft.to/lastmile_qr_scan", "android": "https://dc.lft.to/lastmile_qr_scan"}, "bike_id": "f1be94bad900056c63fd7d4c496a0f34"}, {"lat": 38.915685333333336, "is_disabled": 0, "lon": -77.03188733333333, "is_reserved": 0, "fusion_lon": 0.0, "fusion_lat": 0.0, "name": "b98ee82336eb94e4246786cb9d204b11", "type": "electric_scooter", "rental_uris": {"ios": "https://dc.lft.to/lastmile_qr_scan", "android": "https://dc.lft.to/lastmile_qr_scan"}, "bike_id": "b98ee82336eb94e4246786cb9d204b11"}, {"lat": 38.92365016666667, "is_disabled": 0, "lon": -77.07232616666667, "is_reserved": 0, "fusion_lon": 0.0, "fusion_lat": 0.0, "name": "d7932fe42a03bfeabbde112523e84964", "type": "electric_scooter", "rental_uris": {"ios": "https://dc.lft.to/lastmile_qr_scan", "android": "https://dc.lft.to/lastmile_qr_scan"}, "bike_id": "d7932fe42a03bfeabbde112523e84964"}, {"lat": 38.89224166666666, "is_disabled": 0, "lon": -77.045062, "is_reserved": 0, "fusion_lon": 0.0, "fusion_lat": 0.0, "name": "6a6670ad3d21a38582b59fbec3c6b253", "type": "electric_scooter", "rental_uris": {"ios": "https://dc.lft.to/lastmile_qr_scan", "android": "https://dc.lft.to/lastmile_qr_scan"}, "bike_id": "6a6670ad3d21a38582b59fbec3c6b253"}, {"lat": 38.92914016666667, "is_disabled": 0, "lon": -77.0348905, "is_reserved": 0, "fusion_lon": 0.0, "fusion_lat": 0.0, "name": "28cd994bef2df2cbbdad51077ccda5af", "type": "electric_scooter", "rental_uris": {"ios": "https://dc.lft.to/lastmile_qr_scan", "android": "https://dc.lft.to/lastmile_qr_scan"}, "bike_id": "28cd994bef2df2cbbdad51077ccda5af"}, {"lat": 38.878977, "is_disabled": 0, "lon": -76.93521183333333, "is_reserved": 0, "fusion_lon": 0.0, "fusion_lat": 0.0, "name": "be3b60f4413bf14e06a16343d3a6d0fb", "type": "electric_scooter", "rental_uris": {"ios": "https://dc.lft.to/lastmile_qr_scan", "android": "https://dc.lft.to/lastmile_qr_scan"}, "bike_id": "be3b60f4413bf14e06a16343d3a6d0fb"}, {"lat": 38.917096666666666, "is_disabled": 0, "lon": -77.02411683333334, "is_reserved": 0, "fusion_lon": 0.0, "fusion_lat": 0.0, "name": "4d414d91f9b9b9cbaa6b86cf9138320d", "type": "electric_scooter", "rental_uris": {"ios": "https://dc.lft.to/lastmile_qr_scan", "android": "https://dc.lft.to/lastmile_qr_scan"}, "bike_id": "4d414d91f9b9b9cbaa6b86cf9138320d"}, {"lat": 38.9059075, "is_disabled": 0, "lon": -76.98544583333333, "is_reserved": 0, "fusion_lon": 0.0, "fusion_lat": 0.0, "name": "d1bd445438b00361b176a430e1efc232", "type": "electric_scooter", "rental_uris": {"ios": "https://dc.lft.to/lastmile_qr_scan", "android": "https://dc.lft.to/lastmile_qr_scan"}, "bike_id": "d1bd445438b00361b176a430e1efc232"}, {"lat": 38.908121333333334, "is_disabled": 0, "lon": -77.03577083333333, "is_reserved": 0, "fusion_lon": 0.0, "fusion_lat": 0.0, "name": "dfd45268d393dc53e5d302713174f694", "type": "electric_scooter", "rental_uris": {"ios": "https://dc.lft.to/lastmile_qr_scan", "android": "https://dc.lft.to/lastmile_qr_scan"}, "bike_id": "dfd45268d393dc53e5d302713174f694"}, {"lat": 38.89977866666667, "is_disabled": 0, "lon": -76.9914835, "is_reserved": 0, "fusion_lon": 0.0, "fusion_lat": 0.0, "name": "057e9ec21cc03ed54348117f7102a826", "type": "electric_scooter", "rental_uris": {"ios": "https://dc.lft.to/lastmile_qr_scan", "android": "https://dc.lft.to/lastmile_qr_scan"}, "bike_id": "057e9ec21cc03ed54348117f7102a826"}, {"lat": 38.924399, "is_disabled": 0, "lon": -77.05205583333333, "is_reserved": 0, "fusion_lon": 0.0, "fusion_lat": 0.0, "name": "8014c669b534db6c20e7b2552d52b5f3", "type": "electric_scooter", "rental_uris": {"ios": "https://dc.lft.to/lastmile_qr_scan", "android": "https://dc.lft.to/lastmile_qr_scan"}, "bike_id": "8014c669b534db6c20e7b2552d52b5f3"}, {"lat": 38.920606666666664, "is_disabled": 0, "lon": -77.04240583333333, "is_reserved": 0, "fusion_lon": 0.0, "fusion_lat": 0.0, "name": "937df9beb7ea15395313f6ef0a48bc59", "type": "electric_scooter", "rental_uris": {"ios": "https://dc.lft.to/lastmile_qr_scan", "android": "https://dc.lft.to/lastmile_qr_scan"}, "bike_id": "937df9beb7ea15395313f6ef0a48bc59"}, {"lat": 38.871730166666666, "is_disabled": 0, "lon": -77.2339165, "is_reserved": 0, "fusion_lon": 0.0, "fusion_lat": 0.0, "name": "01483b2d252d00ec04ff30ed1811282c", "type": "electric_bike", "rental_uris": {"ios": "https://dc.lft.to/lastmile_qr_scan", "android": "https://dc.lft.to/lastmile_qr_scan"}, "bike_id": "01483b2d252d00ec04ff30ed1811282c"}, {"lat": 38.898156666666665, "is_disabled": 0, "lon": -77.05026316666667, "is_reserved": 0, "fusion_lon": 0.0, "fusion_lat": 0.0, "name": "e8c7cf66a0bf012db3c1329588e66c76", "type": "electric_scooter", "rental_uris": {"ios": "https://dc.lft.to/lastmile_qr_scan", "android": "https://dc.lft.to/lastmile_qr_scan"}, "bike_id": "e8c7cf66a0bf012db3c1329588e66c76"}, {"lat": 38.90313916666667, "is_disabled": 0, "lon": -76.99267733333333, "is_reserved": 0, "fusion_lon": 0.0, "fusion_lat": 0.0, "name": "615a3a3ad2f2ab215360c9f2ee622abd", "type": "electric_scooter", "rental_uris": {"ios": "https://dc.lft.to/lastmile_qr_scan", "android": "https://dc.lft.to/lastmile_qr_scan"}, "bike_id": "615a3a3ad2f2ab215360c9f2ee622abd"}, {"lat": 38.902720333333335, "is_disabled": 0, "lon": -77.03441383333333, "is_reserved": 0, "fusion_lon": 0.0, "fusion_lat": 0.0, "name": "f8761e39d223971b108154cc3214946d", "type": "electric_scooter", "rental_uris": {"ios": "https://dc.lft.to/lastmile_qr_scan", "android": "https://dc.lft.to/lastmile_qr_scan"}, "bike_id": "f8761e39d223971b108154cc3214946d"}, {"lat": 38.807385333333336, "is_disabled": 0, "lon": -77.09685566666667, "is_reserved": 0, "fusion_lon": 0.0, "fusion_lat": 0.0, "name": "441b20067dabd5b3f1e37f5435b52f78", "type": "electric_bike", "rental_uris": {"ios": "https://dc.lft.to/lastmile_qr_scan", "android": "https://dc.lft.to/lastmile_qr_scan"}, "bike_id": "441b20067dabd5b3f1e37f5435b52f78"},