{"data": {"bikes": [{"fusion_lat": 0.0, "lon": -77.0346625, "is_reserved": 0, "bike_id": "5aba8c4972a85f9ddb6287f86a9a601f", "fusion_lon": 0.0, "rental_uris": {"android": "https://dc.lft.to/lastmile_qr_scan", "ios": "https://dc.lft.to/lastmile_qr_scan"}, "name": "5aba8c4972a85f9ddb6287f86a9a601f", "type": "electric_scooter", "lat": 38.91873916666667, "is_disabled": 0}, {"fusion_lat": 0.0, "lon": -77.01770483333334, "is_reserved": 0, "bike_id": "133ea9af6ccabad124563fc793ed9874", "fusion_lon": 0.0, "rental_uris": {"android": "https://dc.lft.to/lastmile_qr_scan", "ios": "https://dc.lft.to/lastmile_qr_scan"}, "name": "133ea9af6ccabad124563fc793ed9874", "type": "electric_scooter", "lat": 38.887139833333336, "is_disabled": 0}, {"fusion_lat": 0.0, "lon": -77.02411766666667, "is_reserved": 0, "bike_id": "9ff87dffe24ad4d6bd3aeaee0354aa65", "fusion_lon": 0.0, "rental_uris": {"android": "https://dc.lft.to/lastmile_qr_scan", "ios": "https://dc.lft.to/lastmile_qr_scan"}, "name": "9ff87dffe24ad4d6bd3aeaee0354aa65", "type": "electric_scooter", "lat": 38.920593, "is_disabled": 0}, {"fusion_lat": 0.0, "lon": -77.06741, "is_reserved": 0, "bike_id": "c3852df0d3994922953ed0a698948fad", "fusion_lon": 0.0, "rental_uris": {"android": "https://dc.lft.to/lastmile_qr_scan", "ios": "https://dc.lft.to/lastmile_qr_scan"}, "name": "c3852df0d3994922953ed0a698948fad", "type": "electric_scooter", "lat": 38.90684866666667, "is_disabled": 0}, {"fusion_lat": 0.0, "lon": -77.03861466666666, "is_reserved": 0, "bike_id": "2f765822be746e067c005611a2f0cbca", "fusion_lon": 0.0, "rental_uris": {"android": "https://dc.lft.to/lastmile_qr_scan", "ios": "https://dc.lft.to/lastmile_qr_scan"}, "name": "2f765822be746e067c005611a2f0cbca", "type": "electric_scooter", "lat": 38.907875, "is_disabled": 0}, {"fusion_lat": 0.0, "lon": -76.9964795, "is_reserved": 0, "bike_id": "63be4ba55540adda0839439c3a3cef9b", "fusion_lon": 0.0, "rental_uris": {"android": "https://dc.lft.to/lastmile_qr_scan", "ios": "https://dc.lft.to/lastmile_qr_scan"}, "name": "63be4ba55540adda0839439c3a3cef9b", "type": "electric_bike", "lat": 38.98830783333333, "is_disabled": 0}, {"fusion_lat": 0.0, "lon": -77.02308916666667, "is_reserved": 0, "bike_id": "fffc474d3c4c2e6134b082859f1264ae", "fusion_lon": 0.0, "rental_uris": {"android": "https://dc.lft.to/lastmile_qr_scan", "ios": "https://dc.lft.to/lastmile_qr_scan"}, "name": "fffc474d3c4c2e6134b082859f1264ae", "type": "electric_scooter", "lat": 38.917803166666666, "is_disabled": 0}, {"fusion_lat": 0.0, "lon": -77.04797583333334, "is_reserved": 0, "bike_id": "e46d58025a90df3a9b56d857876b86e0", "fusion_lon": 0.0, "rental_uris": {"android": "https://dc.lft.to/lastmile_qr_scan", "ios": "https://dc.lft.to/lastmile_qr_scan"}, "name": "e46d58025a90df3a9b56d857876b86e0", "type": "electric_scooter", "lat": 38.90466283333333, "is_disabled": 0}, {"fusion_lat": 0.0, "lon": -77.03388483333333, "is_reserved": 0, "bike_id": "07896ce82775692a3042b8e21326051b", "fusion_lon": 0.0, "rental_uris": {"android": "https://dc.lft.to/lastmile_qr_scan", "ios": "https://dc.lft.to/lastmile_qr_scan"}, "name": "07896ce82775692a3042b8e21326051b", "type": "electric_scooter", "lat": 38.923578166666665, "is_disabled": 0}, {"fusion_lat": 0.0, "lon": -77.03680416666667, "is_reserved": 0, "bike_id": "d2375276f67bcab673ef3f1c71b1ff5d", "fusion_lon": 0.0, "rental_uris": {"android": "https://dc.lft.to/lastmile_qr_scan", "ios": "https://dc.lft.to/lastmile_qr_scan"}, "name": "d2375276f67bcab673ef3f1c71b1ff5d", "type": "electric_scooter", "lat": 38.910352, "is_disabled": 0}, {"fusion_lat": 0.0, "lon": -76.98830066666666, "is_reserved": 0, "bike_id": "74e4294149f2c396267f0e994d82bc09", "fusion_lon": 0.0, "rental_uris": {"android": "https://dc.lft.to/lastmile_qr_scan", "ios": "https://dc.lft.to/lastmile_qr_scan"}, "name": "74e4294149f2c396267f0e994d82bc09", "type": "electric_scooter", "lat": 38.90039183333333, "is_disabled": 0}, {"fusion_lat": 0.0, "lon": -77.025918, "is_reserved": 0, "bike_id": "f25fd987fae2b8430bb91b1c20ca7fff", "fusion_lon": 0.0, "rental_uris": {"android": "https://dc.lft.to/lastmile_qr_scan", "ios": "https://dc.lft.to/lastmile_qr_scan"}, "name": "f25fd987fae2b8430bb91b1c20ca7fff", "type": "electric_scooter", "lat": 38.92579516666667, "is_disabled": 0}, {"fusion_lat": 0.0, "lon": -77.0215765, "is_reserved": 0, "bike_id": "255d9562215a2ab85e36e1de1e76f2db", "fusion_lon": 0.0, "rental_uris": {"android": "https://dc.lft.to/lastmile_qr_scan", "ios": "https://dc.lft.to/lastmile_qr_scan"}, "name": "255d9562215a2ab85e36e1de1e76f2db", "type": "electric_scooter", "lat": 38.929030833333336, "is_disabled": 0}, {"fusion_lat": 0.0, "lon": -77.02212433333334, "is_reserved": 0, "bike_id": "7f29f658ee882934661b6fe5727031e4", "fusion_lon": 0.0, "rental_uris": {"android": "https://dc.lft.to/lastmile_qr_scan", "ios": "https://dc.lft.to/lastmile_qr_scan"}, "name": "7f29f658ee882934661b6fe5727031e4", "type": "electric_scooter", "lat": 38.905641, "is_disabled": 0}, {"fusion_lat": 0.0, "lon": -77.047192, "is_reserved": 0, "bike_id": "ed0ccd52f99fae0ad59f22d0e3b57d02", "fusion_lon": 0.0, "rental_uris": {"android": "https://dc.lft.to/lastmile_qr_scan", "ios": "https://dc.lft.to/lastmile_qr_scan"}, "name": "ed0ccd52f99fae0ad59f22d0e3b57d02", "type": "electric_scooter", "lat": 38.9026, "is_disabled": 0}, {"fusion_lat": 0.0, "lon": -76.9927145, "is_reserved": 0, "bike_id": "cd3249cfa64dfb68c8aa49c6c3b3d9a1", "fusion_lon": 0.0, "rental_uris": {"android": "https://dc.lft.to/lastmile_qr_scan", "ios": "https://dc.lft.to/lastmile_qr_scan"}, "name": "cd3249cfa64dfb68c8aa49c6c3b3d9a1", "type": "electric_scooter", "lat": 38.89768816666667, "is_disabled": 0}, {"fusion_lat": 0.0, "lon": -76.9768825, "is_reserved": 0, "bike_id": "32905d04df3846e89df8d00a6d9c4460", "fusion_lon": 0.0, "rental_uris": {"android": "https://dc.lft.to/lastmile_qr_scan", "ios": "https://dc.lft.to/lastmile_qr_scan"}, "name": "32905d04df3846e89df8d00a6d9c4460", "type": "electric_scooter", "lat": 38.89893766666667, "is_disabled": 0}, {"fusion_lat": 0.0, "lon": -77.00776766666667, "is_reserved": 0, "bike_id": "0de39d66a708cbd88a5a4c82e16c6aab", "fusion_lon": 0.0, "rental_uris": {"android": "https://dc.lft.to/lastmile_qr_scan", "ios": "https://dc.lft.to/lastmile_qr_scan"}, "name": "0de39d66a708cbd88a5a4c82e16c6aab", "type": "electric_scooter", "lat": 38.89735483333333, "is_disabled": 0}, {"fusion_lat": 0.0, "lon": -77.0221295, "is_reserved": 0, "bike_id": "11a99e80cb32f1e1db7208e6aff70730", "fusion_lon": 0.0, "rental_uris": {"android": "https://dc.lft.to/lastmile_qr_scan", "ios": "https://dc.lft.to/lastmile_qr_scan"}, "name": "11a99e80cb32f1e1db7208e6aff70730", "type": "electric_scooter", "lat": 38.9019895, "is_disabled": 0}, {"fusion_lat": 0.0, "lon": -77.03457966666667, "is_reserved": 0, "bike_id": "2cefb7e8b56b8f76356ac14cc2598b9c", "fusion_lon": 0.0, "rental_uris": {"android": "https://dc.lft.to/lastmile_qr_scan", "ios": "https://dc.lft.to/lastmile_qr_scan"}, "name": "2cefb7e8b56b8f76356ac14cc2598b9c", "type": "electric_scooter", "lat": 38.92922983333333, "is_disabled": 0}, {"fusion_lat": 0.0, "lon": -77.00438383333334, "is_reserved": 0, "bike_id": "50f8184d139ad3d031e39fe170bc5479", "fusion_lon": 0.0, "rental_uris": {"android": "https://dc.lft.to/lastmile_qr_scan", "ios": "https://dc.lft.to/lastmile_qr_scan"}, "name": "50f8184d139ad3d031e39fe170bc5479", "type": "electric_scooter", "lat": 38.876714166666666, "is_disabled": 0}, {"fusion_lat": 0.0, "lon": -77.0264875, "is_reserved": 0, "bike_id": "6d2ef7b8d069abcf8de3d9725855c2dc", "fusion_lon": 0.0, "rental_uris": {"android": "https://dc.lft.to/lastmile_qr_scan", "ios": "https://dc.lft.to/lastmile_qr_scan"}, "name": "6d2ef7b8d069abcf8de3d9725855c2dc", "type": "electric_bike", "lat": 38.98818383333333, "is_disabled": 0}, {"fusion_lat": 0.0, "lon": -77.04328816666667, "is_reserved": 0, "bike_id": "07881fc0f0db011cd7671e3155c6ee07", "fusion_lon": 0.0, "rental_uris": {"android": "https://dc.lft.to/lastmile_qr_scan", "ios": "https://dc.lft.to/lastmile_qr_scan"}, "name": "07881fc0f0db011cd7671e3155c6ee07", "type": "electric_scooter", "lat": 38.902205, "is_disabled": 0}, {"fusion_lat": 0.0, "lon": -76.99031083333334, "is_reserved": 0, "bike_id": "e1b85016318c2c20667d09eab962fe65", "fusion_lon": 0.0, "rental_uris": {"android": "https://dc.lft.to/lastmile_qr_scan", "ios": "https://dc.lft.to/lastmile_qr_scan"}, "name": "e1b85016318c2c20667d09eab962fe65", "type": "electric_bike", "lat": 38.86568066666667, "is_disabled": 0}, {"fusion_lat": 0.0, "lon": -77.02215283333334, "is_reserved": 0, "bike_id": "702d1a11d2d42147f1c9ed500b00d369", "fusion_lon": 0.0, "rental_uris": {"android": "https://dc.lft.to/lastmile_qr_scan", "ios": "https://dc.lft.to/lastmile_qr_scan"}, "name": "702d1a11d2d42147f1c9ed500b00d369", "type": "electric_scooter", "lat": 38.9056215, "is_disabled": 0}, {"fusion_lat": 0.0, "lon": -77.04474016666667, "is_reserved": 0, "bike_id": "1a464771486815fa515e4298841f74e6", "fusion_lon": 0.0, "rental_uris": {"android": "https://dc.lft.to/lastmile_qr_scan", "ios": "https://dc.lft.to/lastmile_qr_scan"}, "name": "1a464771486815fa515e4298841f74e6", "type": "electric_scooter", "lat": 38.92140066666666, "is_disabled": 0}, {"fusion_lat": 0.0, "lon": -77.02687466666667, "is_reserved": 0, "bike_id": "8fb32c1bff97917420e46c7b119276a6", "fusion_lon": 0.0, "rental_uris": {"android": "https://dc.lft.to/lastmile_qr_scan", "ios": "https://dc.lft.to/lastmile_qr_scan"}, "name": "8fb32c1bff97917420e46c7b119276a6", "type": "electric_scooter", "lat": 38.91132566666667, "is_disabled": 0}, {"fusion_lat": 0.0, "lon": -77.0268585, "is_reserved": 0, "bike_id": "fe5d486abfc43f3e07d56bc57d2bdedf", "fusion_lon": 0.0, "rental_uris": {"android": "https://dc.lft.to/lastmile_qr_scan", "ios": "https://dc.lft.to/lastmile_qr_scan"}, "name": "fe5d486abfc43f3e07d56bc57d2bdedf", "type": "electric_scooter", "lat": 38.902390833333335, "is_disabled": 0}, {"fusion_lat": 0.0, "lon": -77.0395195, "is_reserved": 0, "bike_id": "be6ee06135f17f6429da91a23179d2cb", "fusion_lon": 0.0, "rental_uris": {"android": "https://dc.lft.to/lastmile_qr_scan", "ios": "https://dc.lft.to/lastmile_qr_scan"}, "name": "be6ee06135f17f6429da91a23179d2cb", "type": "electric_scooter", "lat": 38.9314995, "is_disabled": 0}, {"fusion_lat": 0.0, "lon": -76.92942283333333, "is_reserved": 0, "bike_id": "fc1504e7965ca7f0dd245dbc5928bf13", "fusion_lon": 0.0, "rental_uris": {"android": "https://dc.lft.to/lastmile_qr_scan", "ios": "https://dc.lft.to/lastmile_qr_scan"}, "name": "fc1504e7965ca7f0dd245dbc5928bf13", "type": "electric_scooter", "lat": 38.88383066666667, "is_disabled": 0}, {"fusion_lat": 0.0, "lon": -77.03521833333333, "is_reserved": 0, "bike_id": "580a364e832dbe511ed63254c3203bdc", "fusion_lon": 0.0, "rental_uris": {"android": "https://dc.lft.to/lastmile_qr_scan", "ios": "https://dc.lft.to/lastmile_qr_scan"}, "name": "580a364e832dbe511ed63254c3203bdc", "type": "electric_scooter", "lat": 38.93478066666667, "is_disabled": 0}, {"fusion_lat": 0.0, "lon": -77.03280333333333, "is_reserved": 0, "bike_id": "1f78d560e828ced0731b11b743225653", "fusion_lon": 0.0, "rental_uris": {"android": "https://dc.lft.to/lastmile_qr_scan", "ios": "https://dc.lft.to/lastmile_qr_scan"}, "name": "1f78d560e828ced0731b11b743225653", "type": "electric_scooter", "lat": 38.898497666666664, "is_disabled": 0}, {"fusion_lat": 0.0, "lon": -77.03812933333333, "is_reserved": 0, "bike_id": "369b7c0144e30d489670022b97385dd3", "fusion_lon": 0.0, "rental_uris": {"android": "https://dc.lft.to/lastmile_qr_scan", "ios": "https://dc.lft.to/lastmile_qr_scan"}, "name": "369b7c0144e30d489670022b97385dd3", "type": "electric_scooter", "lat": 38.9157425, "is_disabled": 0}, {"fusion_lat": 0.0, "lon": -76.99452316666667, "is_reserved": 0, "bike_id": "c7c20ed1f20bac0251020d4bd2b0cda2", "fusion_lon": 0.0, "rental_uris": {"android": "https://dc.lft.to/lastmile_qr_scan", "ios": "https://dc.lft.to/lastmile_qr_scan"}, "name": "c7c20ed1f20bac0251020d4bd2b0cda2", "type": "electric_scooter", "lat": 38.86219583333333, "is_disabled": 0}, {"fusion_lat": 0.0, "lon": -77.0092585, "is_reserved": 0, "bike_id": "cd5aa6936aab8aef9c6a48e22174909b", "fusion_lon": 0.0, "rental_uris": {"android": "https://dc.lft.to/lastmile_qr_scan", "ios": "https://dc.lft.to/lastmile_qr_scan"}, "name": "cd5aa6936aab8aef9c6a48e22174909b", "type": "electric_scooter", "lat": 38.89606583333333, "is_disabled": 0}, {"fusion_lat": 0.0, "lon": -77.03344083333333, "is_reserved": 0, "bike_id": "29e40cf360ef0230462a98032c3862bf", "fusion_lon": 0.0, "rental_uris": {"android": "https://dc.lft.to/lastmile_qr_scan", "ios": "https://dc.lft.to/lastmile_qr_scan"}, "name": "29e40cf360ef0230462a98032c3862bf", "type": "electric_scooter", "lat": 38.91706883333333, "is_disabled": 0}, {"fusion_lat": 0.0, "lon": -77.01064466666666, "is_reserved": 0, "bike_id": "a032e97c70935d5313aee9a71282c389", "fusion_lon": 0.0, "rental_uris": {"android": "https://dc.lft.to/lastmile_qr_scan", "ios": "https://dc.lft.to/lastmile_qr_scan"}, "name": "a032e97c70935d5313aee9a71282c389", "type": "electric_scooter", "lat": 38.91263333333333, "is_disabled": 0}, {"fusion_lat": 0.0, "lon": -77.0287285, "is_reserved": 0, "bike_id": "f598f4a4db33c349a06886370cc32767", "fusion_lon": 0.0, "rental_uris": {"android": "https://dc.lft.to/lastmile_qr_scan", "ios": "https://dc.lft.to/lastmile_qr_scan"}, "name": "f598f4a4db33c349a06886370cc32767", "type": "electric_scooter", "lat": 38.92819183333334, "is_disabled": 0}, {"fusion_lat": 0.0, "lon": -77.04539133333333, "is_reserved": 0, "bike_id": "11107b278936f6d9ebf7f7bb5e3f70d8", "fusion_lon": 0.0, "rental_uris": {"android": "https://dc.lft.to/lastmile_qr_scan", "ios": "https://dc.lft.to/lastmile_qr_scan"}, "name": "11107b278936f6d9ebf7f7bb5e3f70d8", "type": "electric_scooter", "lat": 38.896053, "is_disabled": 0}, {"fusion_lat": 0.0, "lon": -77.0077425, "is_reserved": 0, "bike_id": "7737ad84ad6a2e84508a1ecbca9caacf", "fusion_lon": 0.0, "rental_uris": {"android": "https://dc.lft.to/lastmile_qr_scan", "ios": "https://dc.lft.to/lastmile_qr_scan"}, "name": "7737ad84ad6a2e84508a1ecbca9caacf", "type": "electric_bike", "lat": 38.98387566666667, "is_disabled": 0}, {"fusion_lat": 0.0, "lon": -77.02088233333333, "is_reserved": 0, "bike_id": "b5c0a831175eef101e71c5712681682e", "fusion_lon": 0.0, "rental_uris": {"android": "https://dc.lft.to/lastmile_qr_scan", "ios": "https://dc.lft.to/lastmile_qr_scan"}, "name": "b5c0a831175eef101e71c5712681682e", "type": "electric_bike", "lat": 38.876676833333335, "is_disabled": 0}, {"fusion_lat": 0.0, "lon": -77.02274216666666, "is_reserved": 0, "bike_id": "dda0f82134b27799e321d2daadb636d4", "fusion_lon": 0.0, "rental_uris": {"android": "https://dc.lft.to/lastmile_qr_scan", "ios": "https://dc.lft.to/lastmile_qr_scan"}, "name": "dda0f82134b27799e321d2daadb636d4", "type": "electric_scooter", "lat": 38.90221616666667, "is_disabled": 0}, {"fusion_lat": 0.0, "lon": -77.026961, "is_reserved": 0, "bike_id": "5f3c34cee89b9b63d8dd7167c1ef07e9", "fusion_lon": 0.0, "rental_uris": {"android": "https://dc.lft.to/lastmile_qr_scan", "ios": "https://dc.lft.to/lastmile_qr_scan"}, "name": "5f3c34cee89b9b63d8dd7167c1ef07e9", "type": "electric_scooter", "lat": 38.926635166666664, "is_disabled": 0}, {"fusion_lat": 0.0, "lon": -76.93525233333334, "is_reserved": 0, "bike_id": "8e6e9edebcca132e8f838963e6ac6016", "fusion_lon": 0.0, "rental_uris": {"android": "https://dc.lft.to/lastmile_qr_scan", "ios": "https://dc.lft.to/lastmile_qr_scan"}, "name": "8e6e9edebcca132e8f838963e6ac6016", "type": "electric_bike", "lat": 38.95539216666667, "is_disabled": 0}, {"fusion_lat": 0.0, "lon": -76.98504466666667, "is_reserved": 0, "bike_id": "e44685acb072a15e804c20cb8d2806f2", "fusion_lon": 0.0, "rental_uris": {"android": "https://dc.lft.to/lastmile_qr_scan", "ios": "https://dc.lft.to/lastmile_qr_scan"}, "name": "e44685acb072a15e804c20cb8d2806f2", "type": "electric_scooter", "lat": 38.866551333333334, "is_disabled": 0}, {"fusion_lat": 0.0, "lon": -77.03658316666667, "is_reserved": 0, "bike_id": "307e710081e647905cc4f3091f29d479", "fusion_lon": 0.0, "rental_uris": {"android": "https://dc.lft.to/lastmile_qr_scan", "ios": "https://dc.lft.to/lastmile_qr_scan"}, "name": "307e710081e647905cc4f3091f29d479", "type": "electric_bike", "lat": 38.9231935, "is_disabled": 0}, {"fusion_lat": 0.0, "lon": -77.05140833333333, "is_reserved": 0, "bike_id": "8b397253da44deab3648e26ecde9fa5f", "fusion_lon": 0.0, "rental_uris": {"android": "https://dc.lft.to/lastmile_qr_scan", "ios": "https://dc.lft.to/lastmile_qr_scan"}, "name": "8b397253da44deab3648e26ecde9fa5f", "type": "electric_scooter", "lat": 38.90541, "is_disabled": 0}, {"fusion_lat": 0.0, "lon": -76.985538, "is_reserved": 0, "bike_id": "854e9591e10594612ac2ea36cb26ad4b", "fusion_lon": 0.0, "rental_uris": {"android": "https://dc.lft.to/lastmile_qr_scan", "ios": "https://dc.lft.to/lastmile_qr_scan"}, "name": "854e9591e10594612ac2ea36cb26ad4b", "type": "electric_scooter", "lat": 38.910326, "is_disabled": 0}, {"fusion_lat": 0.0, "lon": -77.039563, "is_reserved": 0, "bike_id": "0ca9f29a267f051479ab7d953bd8f3f0", "fusion_lon": 0.0, "rental_uris": {"android": "https://dc.lft.to/lastmile_qr_scan", "ios": "https://dc.lft.to/lastmile_qr_scan"}, "name": "0ca9f29a267f051479ab7d953bd8f3f0", "type": "electric_scooter", "lat": 38.8971675, "is_disabled": 0}, {"fusion_lat": 0.0, "lon": -77.04475116666667, "is_reserved": 0, "bike_id": "b8d6e6810dd6d210e31521f681cd61c3", "fusion_lon": 0.0, "rental_uris": {"android": "https://dc.lft.to/lastmile_qr_scan", "ios": "https://dc.lft.to/lastmile_qr_scan"}, "name": "b8d6e6810dd6d210e31521f681cd61c3", "type": "electric_scooter", "lat": 38.91869283333333, "is_disabled": 0}, {"fusion_lat": 0.0, "lon": -77.03472183333334, "is_reserved": 0, "bike_id": "bef0ac0684c18858831696a2374b86e3", "fusion_lon": 0.0, "rental_uris": {"android": "https://dc.lft.to/lastmile_qr_scan", "ios": "https://dc.lft.to/lastmile_qr_scan"}, "name": "bef0ac0684c18858831696a2374b86e3", "type": "electric_scooter", "lat": 38.90814183333333, "is_disabled": 0}, {"fusion_lat": 0.0, "lon": -76.923695, "is_reserved": 0, "bike_id": "facb9621af36780438a915c2380748a6", "fusion_lon": 0.0, "rental_uris": {"android": "https://dc.lft.to/lastmile_qr_scan", "ios": "https://dc.lft.to/lastmile_qr_scan"}, "name": "facb9621af36780438a915c2380748a6", "type": "electric_bike", "lat": 38.883745166666664, "is_disabled": 0}, {"fusion_lat": 0.0, "lon": -76.93194666666666, "is_reserved": 0, "bike_id": "2a3f10d774a76cc87d79f864d888df72", "fusion_lon": 0.0, "rental_uris": {"android": "https://dc.lft.to/lastmile_qr_scan", "ios": "https://dc.lft.to/lastmile_qr_scan"}, "name": "2a3f10d774a76cc87d79f864d888df72", "type": "electric_scooter", "lat": 38.8988, "is_disabled": 0}, {"fusion_lat": 0.0, "lon": -77.042915, "is_reserved": 0, "bike_id": "5c097b67a780920107d7714bdaef3127", "fusion_lon": 0.0, "rental_uris": {"android": "https://dc.lft.to/lastmile_qr_scan", "ios": "https://dc.lft.to/lastmile_qr_scan"}, "name": "5c097b67a780920107d7714bdaef3127", "type": "electric_scooter", "lat": 38.92314416666667, "is_disabled": 0}, {"fusion_lat": 0.0, "lon": -76.929946, "is_reserved": 0, "bike_id": "dcb74d8a91342e945d56519781858b56", "fusion_lon": 0.0, "rental_uris": {"android": "https://dc.lft.to/lastmile_qr_scan", "ios": "https://dc.lft.to/lastmile_qr_scan"}, "name": "dcb74d8a91342e945d56519781858b56", "type": "electric_scooter", "lat": 38.9018615, "is_disabled": 0}, {"fusion_lat": 0.0, "lon": -77.03192666666666, "is_reserved": 0, "bike_id": "c04dd6e6e1b1923005fc7af9f3cba4c4", "fusion_lon": 0.0, "rental_uris": {"android": "https://dc.lft.to/lastmile_qr_scan", "ios": "https://dc.lft.to/lastmile_qr_scan"}, "name": "c04dd6e6e1b1923005fc7af9f3cba4c4", "type": "electric_scooter", "lat": 38.91963716666667, "is_disabled": 0}, {"fusion_lat": 0.0, "lon": -77.05807483333334, "is_reserved": 0, "bike_id": "a5ebab911b1b9ce72d239f0f18e33041", "fusion_lon": 0.0, "rental_uris": {"android": "https://dc.lft.to/lastmile_qr_scan", "ios": "https://dc.lft.to/lastmile_qr_scan"}, "name": "a5ebab911b1b9ce72d239f0f18e33041", "type": "electric_scooter", "lat": 38.93528166666667, "is_disabled": 0}, {"fusion_lat": 0.0, "lon": -77.0011485, "is_reserved": 0, "bike_id": "45dc271a69785a082b10bbb1f8222069", "fusion_lon": 0.0, "rental_uris": {"android": "https://dc.lft.to/lastmile_qr_scan", "ios": "https://dc.lft.to/lastmile_qr_scan"}, "name": "45dc271a69785a082b10bbb1f8222069", "type": "electric_scooter", "lat": 38.9170545, "is_disabled": 0}, {"fusion_lat": 0.0, "lon": -77.02834533333333, "is_reserved": 0, "bike_id": "a5bd6713c52337e17bacd2314877e34e", "fusion_lon": 0.0, "rental_uris": {"android": "https://dc.lft.to/lastmile_qr_scan", "ios": "https://dc.lft.to/lastmile_qr_scan"}, "name": "a5bd6713c52337e17bacd2314877e34e", "type": "electric_scooter", "lat": 38.924734666666666, "is_disabled": 0}, {"fusion_lat": 0.0, "lon": -77.10906033333333, "is_reserved": 0, "bike_id": "f6c80d8711148c02f52f17f0b413615f", "fusion_lon": 0.0, "rental_uris": {"android": "https://dc.lft.to/lastmile_qr_scan", "ios": "https://dc.lft.to/lastmile_qr_scan"}, "name": "f6c80d8711148c02f52f17f0b413615f", "type": "electric_bike", "lat": 39.0520325, "is_disabled": 0}, {"fusion_lat": 0.0, "lon": -77.03655783333333, "is_reserved": 0, "bike_id": "9a6773bb350c60d50c7c0d1146453d24", "fusion_lon": 0.0, "rental_uris": {"android": "https://dc.lft.to/lastmile_qr_scan", "ios": "https://dc.lft.to/lastmile_qr_scan"}, "name": "9a6773bb350c60d50c7c0d1146453d24", "type": "electric_scooter", "lat": 38.9229595, "is_disabled": 0}, {"fusion_lat": 0.0, "lon": -77.01419933333334, "is_reserved": 0, "bike_id": "0924b486d5fbb19056b874b4db38092e", "fusion_lon": 0.0, "rental_uris": {"android": "https://dc.lft.to/lastmile_qr_scan", "ios": "https://dc.lft.to/lastmile_qr_scan"}, "name": "0924b486d5fbb19056b874b4db38092e", "type": "electric_scooter", "lat": 38.928593166666666, "is_disabled": 0}, {"fusion_lat": 0.0, "lon": -77.02778133333334, "is_reserved": 0, "bike_id": "624d459c85e37d0cca332b2b6a19bed0", "fusion_lon": 0.0, "rental_uris": {"android": "https://dc.lft.to/lastmile_qr_scan", "ios": "https://dc.lft.to/lastmile_qr_scan"}, "name": "624d459c85e37d0cca332b2b6a19bed0", "type": "electric_scooter", "lat": 38.927646333333335, "is_disabled": 0}, {"fusion_lat": 0.0, "lon": -77.00205066666666, "is_reserved": 0, "bike_id": "e4a15452e9f185e556cc8c08947f7a8d", "fusion_lon": 0.0, "rental_uris": {"android": "https://dc.lft.to/lastmile_qr_scan", "ios": "https://dc.lft.to/lastmile_qr_scan"}, "name": "e4a15452e9f185e556cc8c08947f7a8d", "type": "electric_scooter", "lat": 38.900494333333334, "is_disabled": 0}, {"fusion_lat": 0.0, "lon": -77.04657166666667, "is_reserved": 0, "bike_id": "ac1e7e39d4f2234f7ce62c17c66350d2", "fusion_lon": 0.0, "rental_uris": {"android": "https://dc.lft.to/lastmile_qr_scan", "ios": "https://dc.lft.to/lastmile_qr_scan"}, "name": "ac1e7e39d4f2234f7ce62c17c66350d2", "type": "electric_scooter", "lat": 38.9127805, "is_disabled": 0}, {"fusion_lat": 0.0, "lon": -77.04642766666667, "is_reserved": 0, "bike_id": "98ca9f52f4f01b45235456726a2cc2b4", "fusion_lon": 0.0, "rental_uris": {"android": "https://dc.lft.to/lastmile_qr_scan", "ios": "https://dc.lft.to/lastmile_qr_scan"}, "name": "98ca9f52f4f01b45235456726a2cc2b4", "type": "electric_scooter", "lat": 38.903422, "is_disabled": 0}, {"fusion_lat": 0.0, "lon": -77.004319, "is_reserved": 0, "bike_id": "0e9815dbda1a7686fc1d1b8f578ab158", "fusion_lon": 0.0, "rental_uris": {"android": "https://dc.lft.to/lastmile_qr_scan", "ios": "https://dc.lft.to/lastmile_qr_scan"}, "name": "0e9815dbda1a7686fc1d1b8f578ab158", "type": "electric_scooter", "lat": 38.87675933333333, "is_disabled": 0}, {"fusion_lat": 0.0, "lon": -77.04983316666667, "is_reserved": 0, "bike_id": "c9d8fa66b64857063a436ec5a1e08b61", "fusion_lon": 0.0, "rental_uris": {"android": "https://dc.lft.to/lastmile_qr_scan", "ios": "https://dc.lft.to/lastmile_qr_scan"}, "name": "c9d8fa66b64857063a436ec5a1e08b61", "type": "electric_scooter", "lat": 38.89729916666667, "is_disabled": 0}, {"fusion_lat": 0.0, "lon": -77.02861383333334, "is_reserved": 0, "bike_id": "f31747def1a215fee0c5e98cb7c52135", "fusion_lon": 0.0, "rental_uris": {"android": "https://dc.lft.to/lastmile_qr_scan", "ios": "https://dc.lft.to/lastmile_qr_scan"}, "name": "f31747def1a215fee0c5e98cb7c52135", "type": "electric_scooter", "lat": 38.92567783333333, "is_disabled": 0}, {"fusion_lat": 0.0, "lon": -77.03589766666667, "is_reserved": 0, "bike_id": "1dc80692ee746d8ac79d235392c43393", "fusion_lon": 0.0, "rental_uris": {"android": "https://dc.lft.to/lastmile_qr_scan", "ios": "https://dc.lft.to/lastmile_qr_scan"}, "name": "1dc80692ee746d8ac79d235392c43393", "type": "electric_scooter", "lat": 38.9069835, "is_disabled": 0}, {"fusion_lat": 0.0, "lon": -77.08399, "is_reserved": 0, "bike_id": "690ec8d6bbd75313905e49df6ff00308", "fusion_lon": 0.0, "rental_uris": {"android": "https://dc.lft.to/lastmile_qr_scan", "ios": "https://dc.lft.to/lastmile_qr_scan"}, "name": "690ec8d6bbd75313905e49df6ff00308", "type": "electric_scooter", "lat": 38.90803733333333, "is_disabled": 0}, {"fusion_lat": 0.0, "lon": -77.05684733333334, "is_reserved": 0, "bike_id": "a0ce99064e93977133affd3760748efc", "fusion_lon": 0.0, "rental_uris": {"android": "https://dc.lft.to/lastmile_qr_scan", "ios": "https://dc.lft.to/lastmile_qr_scan"}, "name": "a0ce99064e93977133affd3760748efc", "type": "electric_scooter", "lat": 38.906025, "is_disabled": 0}, {"fusion_lat": 0.0, "lon": -77.03688716666667, "is_reserved": 0, "bike_id": "8b0ad163ce312b562e691160cc0cccf0", "fusion_lon": 0.0, "rental_uris": {"android": "https://dc.lft.to/lastmile_qr_scan", "ios": "https://dc.lft.to/lastmile_qr_scan"}, "name": "8b0ad163ce312b562e691160cc0cccf0", "type": "electric_scooter", "lat": 38.91676366666667, "is_disabled": 0}, {"fusion_lat": 0.0, "lon": -77.02605416666667, "is_reserved": 0, "bike_id": "dd078df0c0ed7a2a06fb8e0aec594273", "fusion_lon": 0.0, "rental_uris": {"android": "https://dc.lft.to/lastmile_qr_scan", "ios": "https://dc.lft.to/lastmile_qr_scan"}, "name": "dd078df0c0ed7a2a06fb8e0aec594273", "type": "electric_scooter", "lat": 38.92978683333333, "is_disabled": 0}, {"fusion_lat": 0.0, "lon": -77.03260016666667, "is_reserved": 0, "bike_id": "5e3ebbf1e1202a34b034df78854a7d07", "fusion_lon": 0.0, "rental_uris": {"android": "https://dc.lft.to/lastmile_qr_scan", "ios": "https://dc.lft.to/lastmile_qr_scan"}, "name": "5e3ebbf1e1202a34b034df78854a7d07", "type": "electric_scooter", "lat": 38.94155666666666, "is_disabled": 0}, {"fusion_lat": 0.0, "lon": -77.04508783333333, "is_reserved": 0, "bike_id": "255f5168f9e8c568785a694295e283f0", "fusion_lon": 0.0, "rental_uris": {"android": "https://dc.lft.to/lastmile_qr_scan", "ios": "https://dc.lft.to/lastmile_qr_scan"}, "name": "255f5168f9e8c568785a694295e283f0", "type": "electric_scooter", "lat": 38.9078, "is_disabled": 0}, {"fusion_lat": 0.0, "lon": -77.06071966666667, "is_reserved": 0, "bike_id": "648a70f4a907232f84ea78cd3424ff82", "fusion_lon": 0.0, "rental_uris": {"android": "https://dc.lft.to/lastmile_qr_scan", "ios": "https://dc.lft.to/lastmile_qr_scan"}, "name": "648a70f4a907232f84ea78cd3424ff82", "type": "electric_bike", "lat": 38.88583783333333, "is_disabled": 0}, {"fusion_lat": 0.0, "lon": -77.03529166666667, "is_reserved": 0, "bike_id": "999d1042c653b5c0f2d3086aaaf50542", "fusion_lon": 0.0, "rental_uris": {"android": "https://dc.lft.to/lastmile_qr_scan", "ios": "https://dc.lft.to/lastmile_qr_scan"}, "name": "999d1042c653b5c0f2d3086aaaf50542", "type": "electric_scooter", "lat": 38.92424466666667, "is_disabled": 0}, {"fusion_lat": 0.0, "lon": -76.99525666666666, "is_reserved": 0, "bike_id": "74875606e1b98bd80ea985352f36d3f3", "fusion_lon": 0.0, "rental_uris": {"android": "https://dc.lft.to/lastmile_qr_scan", "ios": "https://dc.lft.to/lastmile_qr_scan"}, "name": "74875606e1b98bd80ea985352f36d3f3", "type": "electric_scooter", "lat": 38.8776305, "is_disabled": 0}, {"fusion_lat": 0.0, "lon": -77.00628633333334, "is_reserved": 0, "bike_id": "0914b79c852ecaeb28ecddace9096c23", "fusion_lon": 0.0, "rental_uris": {"android": "https://dc.lft.to/lastmile_qr_scan", "ios": "https://dc.lft.to/lastmile_qr_scan"}, "name": "0914b79c852ecaeb28ecddace9096c23", "type": "electric_scooter", "lat": 38.90820383333333, "is_disabled": 0}, {"fusion_lat": 0.0, "lon": -77.02991883333333, "is_reserved": 0, "bike_id": "7b9d6075110f634c8e030a9d996d29a9", "fusion_lon": 0.0, "rental_uris": {"android": "https://dc.lft.to/lastmile_qr_scan", "ios": "https://dc.lft.to/lastmile_qr_scan"}, "name": "7b9d6075110f634c8e030a9d996d29a9", "type": "electric_scooter", "lat": 38.90577533333333, "is_disabled": 0}, {"fusion_lat": 0.0, "lon": -77.13100266666666, "is_reserved": 0, "bike_id": "ff2c27edff61ddd4de2feae0e238371c", "fusion_lon": 0.0, "rental_uris": {"android": "https://dc.lft.to/lastmile_qr_scan", "ios": "https://dc.lft.to/lastmile_qr_scan"}, "name": "ff2c27edff61ddd4de2feae0e238371c", "type": "electric_bike", "lat": 39.024310666666665, "is_disabled": 0}, {"fusion_lat": 0.0, "lon": -76.999534, "is_reserved": 0, "bike_id": "0b80d1b801b6418aee0717ce25538454", "fusion_lon": 0.0, "rental_uris": {"android": "https://dc.lft.to/lastmile_qr_scan", "ios": "https://dc.lft.to/lastmile_qr_scan"}, "name": "0b80d1b801b6418aee0717ce25538454", "type": "electric_scooter", "lat": 38.923527666666665, "is_disabled": 0}, {"fusion_lat": 0.0, "lon": -77.01933416666667, "is_reserved": 0, "bike_id": "d2a6458a3f1787a04ddba9a279edaa52", "fusion_lon": 0.0, "rental_uris": {"android": "https://dc.lft.to/lastmile_qr_scan", "ios": "https://dc.lft.to/lastmile_qr_scan"}, "name": "d2a6458a3f1787a04ddba9a279edaa52", "type": "electric_scooter", "lat": 38.94929833333333, "is_disabled": 0}, {"fusion_lat": 0.0, "lon": -77.0562375, "is_reserved": 0, "bike_id": "77f6772fccb0e447041dbfc1ef5f6a8a", "fusion_lon": 0.0, "rental_uris": {"android": "https://dc.lft.to/lastmile_qr_scan", "ios": "https://dc.lft.to/lastmile_qr_scan"}, "name": "77f6772fccb0e447041dbfc1ef5f6a8a", "type": "electric_scooter", "lat": 38.960717333333335, "is_disabled": 0}, {"fusion_lat": 0.0, "lon": -77.03863333333334, "is_reserved": 0, "bike_id": "9538024553263b58d9c9aa4c98a28ca5", "fusion_lon": 0.0, "rental_uris": {"android": "https://dc.lft.to/lastmile_qr_scan", "ios": "https://dc.lft.to/lastmile_qr_scan"}, "name": "9538024553263b58d9c9aa4c98a28ca5", "type": "electric_scooter", "lat": 38.91557316666667, "is_disabled": 0}, {"fusion_lat": 0.0, "lon": -77.0308815, "is_reserved": 0, "bike_id": "ec72f825be10bba4df4945ef4b6b687d", "fusion_lon": 0.0, "rental_uris": {"android": "https://dc.lft.to/lastmile_qr_scan", "ios": "https://dc.lft.to/lastmile_qr_scan"}, "name": "ec72f825be10bba4df4945ef4b6b687d", "type": "electric_scooter", "lat": 38.92236716666667, "is_disabled": 0}, {"fusion_lat": 0.0, "lon": -77.09593416666667, "is_reserved": 0, "bike_id": "9fd7299dcc53d47f853236d115117b0f", "fusion_lon": 0.0, "rental_uris": {"android": "https://dc.lft.to/lastmile_qr_scan", "ios": "https://dc.lft.to/lastmile_qr_scan"}, "name": "9fd7299dcc53d47f853236d115117b0f", "type": "electric_bike", "lat": 39.028884166666664, "is_disabled": 0}, {"fusion_lat": 0.0, "lon": -77.01842066666667, "is_reserved": 0, "bike_id": "abf89e77929274ad11a91487a77a1284", "fusion_lon": 0.0, "rental_uris": {"android": "https://dc.lft.to/lastmile_qr_scan", "ios": "https://dc.lft.to/lastmile_qr_scan"}, "name": "abf89e77929274ad11a91487a77a1284", "type": "electric_scooter", "lat": 38.94995433333333, "is_disabled": 0}, {"fusion_lat": 0.0, "lon": -77.00201716666666, "is_reserved": 0, "bike_id": "f4a8aee9dd648ed36c3161bc1825db7a", "fusion_lon": 0.0, "rental_uris": {"android": "https://dc.lft.to/lastmile_qr_scan", "ios": "https://dc.lft.to/lastmile_qr_scan"}, "name": "f4a8aee9dd648ed36c3161bc1825db7a", "type": "electric_scooter", "lat": 38.900480333333334, "is_disabled": 0}, {"fusion_lat": 0.0, "lon": -77.04515233333333, "is_reserved": 0, "bike_id": "f0613522b5fbd7caef6fb58071ef17b0", "fusion_lon": 0.0, "rental_uris": {"android": "https://dc.lft.to/lastmile_qr_scan", "ios": "https://dc.lft.to/lastmile_qr_scan"}, "name": "f0613522b5fbd7caef6fb58071ef17b0", "type": "electric_scooter", "lat": 38.9231535, "is_disabled": 0}, {"fusion_lat": 0.0, "lon": -77.04480816666667, "is_reserved": 0, "bike_id": "f43edd9de768b0fdfd9bfb3c216731cf", "fusion_lon": 0.0, "rental_uris": {"android": "https://dc.lft.to/lastmile_qr_scan", "ios": "https://dc.lft.to/lastmile_qr_scan"}, "name": "f43edd9de768b0fdfd9bfb3c216731cf", "type": "electric_scooter", "lat": 38.9051405, "is_disabled": 0}, {"fusion_lat": 0.0, "lon": -77.11578216666666, "is_reserved": 0, "bike_id": "acc2a1fe84dc560f38f9f066809267bd", "fusion_lon": 0.0, "rental_uris": {"android": "https://dc.lft.to/lastmile_qr_scan", "ios": "https://dc.lft.to/lastmile_qr_scan"}, "name": "acc2a1fe84dc560f38f9f066809267bd", "type": "electric_bike", "lat": 38.993462666666666, "is_disabled": 0}, {"fusion_lat": 0.0, "lon": -77.0385025, "is_reserved": 0, "bike_id": "d05591bddc9f25525beecd639a63c9d9", "fusion_lon": 0.0, "rental_uris": {"android": "https://dc.lft.to/lastmile_qr_scan", "ios": "https://dc.lft.to/lastmile_qr_scan"}, "name": "d05591bddc9f25525beecd639a63c9d9", "type": "electric_scooter", "lat": 38.9135085, "is_disabled": 0}, {"fusion_lat": 0.0, "lon": -77.04185216666667, "is_reserved": 0, "bike_id": "7e5cbcdb7a18202250b2d6d94834904c", "fusion_lon": 0.0, "rental_uris": {"android": "https://dc.lft.to/lastmile_qr_scan", "ios": "https://dc.lft.to/lastmile_qr_scan"}, "name": "7e5cbcdb7a18202250b2d6d94834904c", "type": "electric_scooter", "lat": 38.91267466666667, "is_disabled": 0}, {"fusion_lat": 0.0, "lon": -77.01967233333333, "is_reserved": 0, "bike_id": "05f9711c6c2ef1418fc9f1821b401d5f", "fusion_lon": 0.0, "rental_uris": {"android": "https://dc.lft.to/lastmile_qr_scan", "ios": "https://dc.lft.to/lastmile_qr_scan"}, "name": "05f9711c6c2ef1418fc9f1821b401d5f", "type": "electric_scooter", "lat": 38.9565505, "is_disabled": 0}, {"fusion_lat": 0.0, "lon": -77.04411833333333, "is_reserved": 0, "bike_id": "688a8f8251a486b376378a8bc8d8c095", "fusion_lon": 0.0, "rental_uris": {"android": "https://dc.lft.to/lastmile_qr_scan", "ios": "https://dc.lft.to/lastmile_qr_scan"}, "name": "688a8f8251a486b376378a8bc8d8c095", "type": "electric_scooter", "lat": 38.921225, "is_disabled": 0}, {"fusion_lat": 0.0, "lon": -77.02080083333334, "is_reserved": 0, "bike_id": "73fc69d23f3d735bcde298e079e5009c", "fusion_lon": 0.0, "rental_uris": {"android": "https://dc.lft.to/lastmile_qr_scan", "ios": "https://dc.lft.to/lastmile_qr_scan"}, "name": "73fc69d23f3d735bcde298e079e5009c", "type": "electric_scooter", "lat": 38.9301305, "is_disabled": 0}, {"fusion_lat": 0.0, "lon": -77.013726, "is_reserved": 0, "bike_id": "d906515855144416cc06ae9c0c7de661", "fusion_lon": 0.0, "rental_uris": {"android": "https://dc.lft.to/lastmile_qr_scan", "ios": "https://dc.lft.to/lastmile_qr_scan"}, "name": "d906515855144416cc06ae9c0c7de661", "type": "electric_scooter", "lat": 38.89220016666667, "is_disabled": 0}, {"fusion_lat": 0.0, "lon": -76.98020383333333, "is_reserved": 0, "bike_id": "0728bc032f76f0b18dfa6e3dffaef60a", "fusion_lon": 0.0, "rental_uris": {"android": "https://dc.lft.to/lastmile_qr_scan", "ios": "https://dc.lft.to/lastmile_qr_scan"}, "name": "0728bc032f76f0b18dfa6e3dffaef60a", "type": "electric_scooter", "lat": 38.888684, "is_disabled": 0}, {"fusion_lat": 0.0, "lon": -77.0089105, "is_reserved": 0, "bike_id": "5adc7b8e06fc904ea9a87d9184478510", "fusion_lon": 0.0, "rental_uris": {"android": "https://dc.lft.to/lastmile_qr_scan", "ios": "https://dc.lft.to/lastmile_qr_scan"}, "name": "5adc7b8e06fc904ea9a87d9184478510", "type": "electric_scooter", "lat": 38.968166333333336, "is_disabled": 0}, {"fusion_lat": 0.0, "lon": -77.01288883333334, "is_reserved": 0, "bike_id": "f86c83874d250ef2e61583a70b16558a", "fusion_lon": 0.0, "rental_uris": {"android": "https://dc.lft.to/lastmile_qr_scan", "ios": "https://dc.lft.to/lastmile_qr_scan"}, "name": "f86c83874d250ef2e61583a70b16558a", "type": "electric_scooter", "lat": 38.894699333333335, "is_disabled": 0}, {"fusion_lat": 0.0, "lon": -77.139053, "is_reserved": 0, "bike_id": "e65ea6f394ce5b996c250beb5d5b7f94", "fusion_lon": 0.0, "rental_uris": {"android": "https://dc.lft.to/lastmile_qr_scan", "ios": "https://dc.lft.to/lastmile_qr_scan"}, "name": "e65ea6f394ce5b996c250beb5d5b7f94", "type": "electric_bike", "lat": 38.89678833333333, "is_disabled": 0}, {"fusion_lat": 0.0, "lon": -76.98879416666666, "is_reserved": 0, "bike_id": "d68a56239bf9a5bbf582c145ac911dbf", "fusion_lon": 0.0, "rental_uris": {"android": "https://dc.lft.to/lastmile_qr_scan", "ios": "https://dc.lft.to/lastmile_qr_scan"}, "name": "d68a56239bf9a5bbf582c145ac911dbf", "type": "electric_scooter", "lat": 38.866533833333335, "is_disabled": 0}, {"fusion_lat": 0.0, "lon": -76.941906, "is_reserved": 0, "bike_id": "d998c1f32da53d9bfad684b19d17bb34", "fusion_lon": 0.0, "rental_uris": {"android": "https://dc.lft.to/lastmile_qr_scan", "ios": "https://dc.lft.to/lastmile_qr_scan"}, "name": "d998c1f32da53d9bfad684b19d17bb34", "type": "electric_scooter", "lat": 38.893741, "is_disabled": 0}, {"fusion_lat": 0.0, "lon": -77.07879166666666, "is_reserved": 0, "bike_id": "ca045fe6a0c99496f582f61802b740bc", "fusion_lon": 0.0, "rental_uris": {"android": "https://dc.lft.to/lastmile_qr_scan", "ios": "https://dc.lft.to/lastmile_qr_scan"}, "name": "ca045fe6a0c99496f582f61802b740bc", "type": "electric_bike", "lat": 38.950252666666664, "is_disabled": 0}, {"fusion_lat": 0.0, "lon": -76.99757233333334, "is_reserved": 0, "bike_id": "822497cee53ccfcc030f2447c60c1d7d", "fusion_lon": 0.0, "rental_uris": {"android": "https://dc.lft.to/lastmile_qr_scan", "ios": "https://dc.lft.to/lastmile_qr_scan"}, "name": "822497cee53ccfcc030f2447c60c1d7d", "type": "electric_scooter", "lat": 38.8876745, "is_disabled": 0}, {"fusion_lat": 0.0, "lon": -77.0374775, "is_reserved": 0, "bike_id": "43e7f515fa808f59e1cbe70a0366be9c", "fusion_lon": 0.0, "rental_uris": {"android": "https://dc.lft.to/lastmile_qr_scan", "ios": "https://dc.lft.to/lastmile_qr_scan"}, "name": "43e7f515fa808f59e1cbe70a0366be9c", "type": "electric_scooter", "lat": 38.911138, "is_disabled": 0}, {"fusion_lat": 0.0, "lon": -77.0314985, "is_reserved": 0, "bike_id": "f33ac988b67da32587d679c94a9fe815", "fusion_lon": 0.0, "rental_uris": {"android": "https://dc.lft.to/lastmile_qr_scan", "ios": "https://dc.lft.to/lastmile_qr_scan"}, "name": "f33ac988b67da32587d679c94a9fe815", "type": "electric_scooter", "lat": 38.92794383333333, "is_disabled": 0}, {"fusion_lat": 0.0, "lon": -76.9468155, "is_reserved": 0, "bike_id": "729730cb073a45168c23b4ed6b8fc05b", "fusion_lon": 0.0, "rental_uris": {"android": "https://dc.lft.to/lastmile_qr_scan", "ios": "https://dc.lft.to/lastmile_qr_scan"}, "name": "729730cb073a45168c23b4ed6b8fc05b", "type": "electric_scooter", "lat": 38.8863215, "is_disabled": 0}, {"fusion_lat": 0.0, "lon": -77.04352483333334, "is_reserved": 0, "bike_id": "6a36ec37fa967927d08f35e623dba92c", "fusion_lon": 0.0, "rental_uris": {"android": "https://dc.lft.to/lastmile_qr_scan", "ios": "https://dc.lft.to/lastmile_qr_scan"}, "name": "6a36ec37fa967927d08f35e623dba92c", "type": "electric_scooter", "lat": 38.892293, "is_disabled": 0}, {"fusion_lat": 0.0, "lon": -77.03847233333333, "is_reserved": 0, "bike_id": "a0700f8189a02057a36704d7cbfdea8c", "fusion_lon": 0.0, "rental_uris": {"android": "https://dc.lft.to/lastmile_qr_scan", "ios": "https://dc.lft.to/lastmile_qr_scan"}, "name": "a0700f8189a02057a36704d7cbfdea8c", "type": "electric_scooter", "lat": 38.92529066666667, "is_disabled": 0}, {"fusion_lat": 0.0, "lon": -77.00380633333333, "is_reserved": 0, "bike_id": "f04d83d52681d8bb0c64a532df8da23f", "fusion_lon": 0.0, "rental_uris": {"android": "https://dc.lft.to/lastmile_qr_scan", "ios": "https://dc.lft.to/lastmile_qr_scan"}, "name": "f04d83d52681d8bb0c64a532df8da23f", "type": "electric_scooter", "lat": 38.87636116666667, "is_disabled": 0}, {"fusion_lat": 0.0, "lon": -77.045051, "is_reserved": 0, "bike_id": "d91680f689df0c78c222dc359cd308c8", "fusion_lon": 0.0, "rental_uris": {"android": "https://dc.lft.to/lastmile_qr_scan", "ios": "https://dc.lft.to/lastmile_qr_scan"}, "name": "d91680f689df0c78c222dc359cd308c8", "type": "electric_scooter", "lat": 38.911131166666664, "is_disabled": 0}, {"fusion_lat": 0.0, "lon": -77.0034115, "is_reserved": 0, "bike_id": "f2043487367b2b6bf71d2ef19934b3b7", "fusion_lon": 0.0, "rental_uris": {"android": "https://dc.lft.to/lastmile_qr_scan", "ios": "https://dc.lft.to/lastmile_qr_scan"}, "name": "f2043487367b2b6bf71d2ef19934b3b7", "type": "electric_scooter", "lat": 38.903625166666664, "is_disabled": 0}, {"fusion_lat": 0.0, "lon": -77.0446955, "is_reserved": 0, "bike_id": "1549b708e1f6f5530634482a447c5eee", "fusion_lon": 0.0, "rental_uris": {"android": "https://dc.lft.to/lastmile_qr_scan", "ios": "https://dc.lft.to/lastmile_qr_scan"}, "name": "1549b708e1f6f5530634482a447c5eee", "type": "electric_scooter", "lat": 38.905112833333334, "is_disabled": 0}, {"fusion_lat": 0.0, "lon": -77.024148, "is_reserved": 0, "bike_id": "3707c0c5c6547ec2eb45c684922659a0", "fusion_lon": 0.0, "rental_uris": {"android": "https://dc.lft.to/lastmile_qr_scan", "ios": "https://dc.lft.to/lastmile_qr_scan"}, "name": "3707c0c5c6547ec2eb45c684922659a0", "type": "electric_scooter", "lat": 38.93104566666667, "is_disabled": 0}, {"fusion_lat": 0.0, "lon": -77.052664, "is_reserved": 0, "bike_id": "c15a0d186cc1229ed52701adc8bce1e7", "fusion_lon": 0.0, "rental_uris": {"android": "https://dc.lft.to/lastmile_qr_scan", "ios": "https://dc.lft.to/lastmile_qr_scan"}, "name": "c15a0d186cc1229ed52701adc8bce1e7", "type": "electric_scooter", "lat": 38.92774466666667, "is_disabled": 0}, {"fusion_lat": 0.0, "lon": -77.02549333333333, "is_reserved": 0, "bike_id": "a87a2acdbec857da1cf953662d35e009", "fusion_lon": 0.0, "rental_uris": {"android": "https://dc.lft.to/lastmile_qr_scan", "ios": "https://dc.lft.to/lastmile_qr_scan"}, "name": "a87a2acdbec857da1cf953662d35e009", "type": "electric_scooter", "lat": 38.924736333333335, "is_disabled": 0}, {"fusion_lat": 0.0, "lon": -77.04011033333333, "is_reserved": 0, "bike_id": "50b593f502e8311f931d05eb5608adc9", "fusion_lon": 0.0, "rental_uris": {"android": "https://dc.lft.to/lastmile_qr_scan", "ios": "https://dc.lft.to/lastmile_qr_scan"}, "name": "50b593f502e8311f931d05eb5608adc9", "type": "electric_bike", "lat": 38.931432, "is_disabled": 0}, {"fusion_lat": 0.0, "lon": -76.94395216666666, "is_reserved": 0, "bike_id": "958fc87726d52c661df8f8d1492660f5", "fusion_lon": 0.0, "rental_uris": {"android": "https://dc.lft.to/lastmile_qr_scan", "ios": "https://dc.lft.to/lastmile_qr_scan"}, "name": "958fc87726d52c661df8f8d1492660f5", "type": "electric_scooter", "lat": 38.881412, "is_disabled": 0}, {"fusion_lat": 0.0, "lon": -77.0515095, "is_reserved": 0, "bike_id": "12bf3525256687a7f2718a30e1f66012", "fusion_lon": 0.0, "rental_uris": {"android": "https://dc.lft.to/lastmile_qr_scan", "ios": "https://dc.lft.to/lastmile_qr_scan"}, "name": "12bf3525256687a7f2718a30e1f66012", "type": "electric_scooter", "lat": 38.90646433333333, "is_disabled": 0}, {"fusion_lat": 0.0, "lon": -77.04270283333334, "is_reserved": 0, "bike_id": "10f7ab19d09fe58901ad2e9dc4e25191", "fusion_lon": 0.0, "rental_uris": {"android": "https://dc.lft.to/lastmile_qr_scan", "ios": "https://dc.lft.to/lastmile_qr_scan"}, "name": "10f7ab19d09fe58901ad2e9dc4e25191", "type": "electric_scooter", "lat": 38.9133805, "is_disabled": 0}, {"fusion_lat": 0.0, "lon": -77.006576, "is_reserved": 0, "bike_id": "bbbd72ed6c006be8f7869158ac705207", "fusion_lon": 0.0, "rental_uris": {"android": "https://dc.lft.to/lastmile_qr_scan", "ios": "https://dc.lft.to/lastmile_qr_scan"}, "name": "bbbd72ed6c006be8f7869158ac705207", "type": "electric_scooter", "lat": 38.900356333333335, "is_disabled": 0}, {"fusion_lat": 0.0, "lon": -77.01530616666666, "is_reserved": 0, "bike_id": "7c1b90cf6e9b53b39f384fc6c45a5e27", "fusion_lon": 0.0, "rental_uris": {"android": "https://dc.lft.to/lastmile_qr_scan", "ios": "https://dc.lft.to/lastmile_qr_scan"}, "name": "7c1b90cf6e9b53b39f384fc6c45a5e27", "type": "electric_scooter", "lat": 38.88737416666667, "is_disabled": 0}, {"fusion_lat": 0.0, "lon": -77.03860966666667, "is_reserved": 0, "bike_id": "0ce18bc6f137b460ab40d8dbdac2d63d", "fusion_lon": 0.0, "rental_uris": {"android": "https://dc.lft.to/lastmile_qr_scan", "ios": "https://dc.lft.to/lastmile_qr_scan"}, "name": "0ce18bc6f137b460ab40d8dbdac2d63d", "type": "electric_scooter", "lat": 38.915542, "is_disabled": 0}, {"fusion_lat": 0.0, "lon": -77.045857, "is_reserved": 0, "bike_id": "c90b3f2324c965f550c6900ebdcd89b8", "fusion_lon": 0.0, "rental_uris": {"android": "https://dc.lft.to/lastmile_qr_scan", "ios": "https://dc.lft.to/lastmile_qr_scan"}, "name": "c90b3f2324c965f550c6900ebdcd89b8", "type": "electric_scooter", "lat": 38.92128683333333, "is_disabled": 0}, {"fusion_lat": 0.0, "lon": -76.99819316666667, "is_reserved": 0, "bike_id": "cb750111cd17f8a8292532a8fe071dc3", "fusion_lon": 0.0, "rental_uris": {"android": "https://dc.lft.to/lastmile_qr_scan", "ios": "https://dc.lft.to/lastmile_qr_scan"}, "name": "cb750111cd17f8a8292532a8fe071dc3", "type": "electric_scooter", "lat": 38.90057216666666, "is_disabled": 0}, {"fusion_lat": 0.0, "lon": -76.99833116666667, "is_reserved": 0, "bike_id": "ef23a5d237cbde4568b02cb486a51bbf", "fusion_lon": 0.0, "rental_uris": {"android": "https://dc.lft.to/lastmile_qr_scan", "ios": "https://dc.lft.to/lastmile_qr_scan"}, "name": "ef23a5d237cbde4568b02cb486a51bbf", "type": "electric_scooter", "lat": 38.8832035, "is_disabled": 0}, {"fusion_lat": 0.0, "lon": -76.97727083333334, "is_reserved": 0, "bike_id": "d2045d5ce935e9ae6772738fa89c6548", "fusion_lon": 0.0, "rental_uris": {"android": "https://dc.lft.to/lastmile_qr_scan", "ios": "https://dc.lft.to/lastmile_qr_scan"}, "name": "d2045d5ce935e9ae6772738fa89c6548", "type": "electric_scooter", "lat": 38.872867, "is_disabled": 0}, {"fusion_lat": 0.0, "lon": -76.99529583333333, "is_reserved": 0, "bike_id": "67453dda0fb71397deaea1105fa90205", "fusion_lon": 0.0, "rental_uris": {"android": "https://dc.lft.to/lastmile_qr_scan", "ios": "https://dc.lft.to/lastmile_qr_scan"}, "name": "67453dda0fb71397deaea1105fa90205", "type": "electric_scooter", "lat": 38.861999833333336, "is_disabled": 0}, {"fusion_lat": 0.0, "lon": -77.03865433333333, "is_reserved": 0, "bike_id": "8f0d3601cfd5fde1615125c97df4ccb6", "fusion_lon": 0.0, "rental_uris": {"android": "https://dc.lft.to/lastmile_qr_scan", "ios": "https://dc.lft.to/lastmile_qr_scan"}, "name": "8f0d3601cfd5fde1615125c97df4ccb6", "type": "electric_scooter", "lat": 38.91255783333333, "is_disabled": 0}, {"fusion_lat": 0.0, "lon": -76.9916185, "is_reserved": 0, "bike_id": "7901293a58f3d97ea923a1e1554327de", "fusion_lon": 0.0, "rental_uris": {"android": "https://dc.lft.to/lastmile_qr_scan", "ios": "https://dc.lft.to/lastmile_qr_scan"}, "name": "7901293a58f3d97ea923a1e1554327de", "type": "electric_scooter", "lat": 38.88339366666666, "is_disabled": 0}, {"fusion_lat": 0.0, "lon": -77.01125133333333, "is_reserved": 0, "bike_id": "bce3000baa9576d6ec89efdd8f939079", "fusion_lon": 0.0, "rental_uris": {"android": "https://dc.lft.to/lastmile_qr_scan", "ios": "https://dc.lft.to/lastmile_qr_scan"}, "name": "bce3000baa9576d6ec89efdd8f939079", "type": "electric_scooter", "lat": 38.91594333333333, "is_disabled": 0}, {"fusion_lat": 0.0, "lon": -77.03442083333333, "is_reserved": 0, "bike_id": "ba3a63f0de1da26198a11d17f7316ce6", "fusion_lon": 0.0, "rental_uris": {"android": "https://dc.lft.to/lastmile_qr_scan", "ios": "https://dc.lft.to/lastmile_qr_scan"}, "name": "ba3a63f0de1da26198a11d17f7316ce6", "type": "electric_scooter", "lat": 38.925427666666664, "is_disabled": 0}, {"fusion_lat": 0.0, "lon": -77.0403815, "is_reserved": 0, "bike_id": "0abc94d2d968ec7277f1d7a6daa66e96", "fusion_lon": 0.0, "rental_uris": {"android": "https://dc.lft.to/lastmile_qr_scan", "ios": "https://dc.lft.to/lastmile_qr_scan"}, "name": "0abc94d2d968ec7277f1d7a6daa66e96", "type": "electric_scooter", "lat": 38.91112283333333, "is_disabled": 0}, {"fusion_lat": 0.0, "lon": -77.02934316666666, "is_reserved": 0, "bike_id": "ecd32a5dc0159eb2689d042d78bc9408", "fusion_lon": 0.0, "rental_uris": {"android": "https://dc.lft.to/lastmile_qr_scan", "ios": "https://dc.lft.to/lastmile_qr_scan"}, "name": "ecd32a5dc0159eb2689d042d78bc9408", "type": "electric_scooter", "lat": 38.900026833333335, "is_disabled": 0}, {"fusion_lat": 0.0, "lon": -77.07789233333334, "is_reserved": 0, "bike_id": "8920a4686699d44122d45facbc5c3260", "fusion_lon": 0.0, "rental_uris": {"android": "https://dc.lft.to/lastmile_qr_scan", "ios": "https://dc.lft.to/lastmile_qr_scan"}, "name": "8920a4686699d44122d45facbc5c3260", "type": "electric_bike", "lat": 38.996015666666665, "is_disabled": 0}, {"fusion_lat": 0.0, "lon": -76.97008733333334, "is_reserved": 0, "bike_id": "25193a46957e4b5564338ab39db3a951", "fusion_lon": 0.0, "rental_uris": {"android": "https://dc.lft.to/lastmile_qr_scan", "ios": "https://dc.lft.to/lastmile_qr_scan"}, "name": "25193a46957e4b5564338ab39db3a951", "type": "electric_bike", "lat": 38.863663, "is_disabled": 0}, {"fusion_lat": 0.0, "lon": -77.05855633333333, "is_reserved": 0, "bike_id": "6b6c8871b833248d41d759ee8cc66e8d", "fusion_lon": 0.0, "rental_uris": {"android": "https://dc.lft.to/lastmile_qr_scan", "ios": "https://dc.lft.to/lastmile_qr_scan"}, "name": "6b6c8871b833248d41d759ee8cc66e8d", "type": "electric_bike", "lat": 38.936082166666665, "is_disabled": 0}, {"fusion_lat": 0.0, "lon": -77.001974, "is_reserved": 0, "bike_id": "9bced7579d1b3fabf6e9e4ea66c18f2c", "fusion_lon": 0.0, "rental_uris": {"android": "https://dc.lft.to/lastmile_qr_scan", "ios": "https://dc.lft.to/lastmile_qr_scan"}, "name": "9bced7579d1b3fabf6e9e4ea66c18f2c", "type": "electric_scooter", "lat": 38.9023415, "is_disabled": 0}, {"fusion_lat": 0.0, "lon": -77.0443705, "is_reserved": 0, "bike_id": "72a433a184a7a74dfe09b61b421dc747", "fusion_lon": 0.0, "rental_uris": {"android": "https://dc.lft.to/lastmile_qr_scan", "ios": "https://dc.lft.to/lastmile_qr_scan"}, "name": "72a433a184a7a74dfe09b61b421dc747", "type": "electric_scooter", "lat": 38.92133783333333, "is_disabled": 0}, {"fusion_lat": 0.0, "lon": -76.997871, "is_reserved": 0, "bike_id": "46289940dae8ae20cec49f3bd1cda5b9", "fusion_lon": 0.0, "rental_uris": {"android": "https://dc.lft.to/lastmile_qr_scan", "ios": "https://dc.lft.to/lastmile_qr_scan"}, "name": "46289940dae8ae20cec49f3bd1cda5b9", "type": "electric_scooter", "lat": 38.910549833333334, "is_disabled": 0}, {"fusion_lat": 0.0, "lon": -76.9373505, "is_reserved": 0, "bike_id": "16b61bd6ea2021c55733915408d31ff8", "fusion_lon": 0.0, "rental_uris": {"android": "https://dc.lft.to/lastmile_qr_scan", "ios": "https://dc.lft.to/lastmile_qr_scan"}, "name": "16b61bd6ea2021c55733915408d31ff8", "type": "electric_scooter", "lat": 38.89015716666667, "is_disabled": 0}, {"fusion_lat": 0.0, "lon": -77.01195583333333, "is_reserved": 0, "bike_id": "1231ff769f8be8bfae359f8aeab2ad03", "fusion_lon": 0.0, "rental_uris": {"android": "https://dc.lft.to/lastmile_qr_scan", "ios": "https://dc.lft.to/lastmile_qr_scan"}, "name": "1231ff769f8be8bfae359f8aeab2ad03", "type": "electric_scooter", "lat": 38.893153166666664, "is_disabled": 0}, {"fusion_lat": 0.0, "lon": -77.01807733333334, "is_reserved": 0, "bike_id": "76d6d5a4478bdb248a9518b298e8ba05", "fusion_lon": 0.0, "rental_uris": {"android": "https://dc.lft.to/lastmile_qr_scan", "ios": "https://dc.lft.to/lastmile_qr_scan"}, "name": "76d6d5a4478bdb248a9518b298e8ba05", "type": "electric_scooter", "lat": 38.90969916666667, "is_disabled": 0}, {"fusion_lat": 0.0, "lon": -77.03342633333334, "is_reserved": 0, "bike_id": "34fd820d03e024eae38357e51f9c029a", "fusion_lon": 0.0, "rental_uris": {"android": "https://dc.lft.to/lastmile_qr_scan", "ios": "https://dc.lft.to/lastmile_qr_scan"}, "name": "34fd820d03e024eae38357e51f9c029a", "type": "electric_scooter", "lat": 38.89900183333334, "is_disabled": 0}, {"fusion_lat": 0.0, "lon": -77.02692616666667, "is_reserved": 0, "bike_id": "0bf094cb7531881c279382fc58f7df4e", "fusion_lon": 0.0, "rental_uris": {"android": "https://dc.lft.to/lastmile_qr_scan", "ios": "https://dc.lft.to/lastmile_qr_scan"}, "name": "0bf094cb7531881c279382fc58f7df4e", "type": "electric_scooter", "lat": 38.912533833333335, "is_disabled": 0}, {"fusion_lat": 0.0, "lon": -76.98033866666667, "is_reserved": 0, "bike_id": "8a26526b246336c426abe34658efb877", "fusion_lon": 0.0, "rental_uris": {"android": "https://dc.lft.to/lastmile_qr_scan", "ios": "https://dc.lft.to/lastmile_qr_scan"}, "name": "8a26526b246336c426abe34658efb877", "type": "electric_bike", "lat": 38.889656, "is_disabled": 0}, {"fusion_lat": 0.0, "lon": -77.04804833333333, "is_reserved": 0, "bike_id": "76277024b66455e08166b31927296888", "fusion_lon": 0.0, "rental_uris": {"android": "https://dc.lft.to/lastmile_qr_scan", "ios": "https://dc.lft.to/lastmile_qr_scan"}, "name": "76277024b66455e08166b31927296888", "type": "electric_scooter", "lat": 38.919160833333336, "is_disabled": 0}, {"fusion_lat": 0.0, "lon": -76.93613266666667, "is_reserved": 0, "bike_id": "eca272e39cb58915a5acc19c88c16930", "fusion_lon": 0.0, "rental_uris": {"android": "https://dc.lft.to/lastmile_qr_scan", "ios": "https://dc.lft.to/lastmile_qr_scan"}, "name": "eca272e39cb58915a5acc19c88c16930", "type": "electric_bike", "lat": 38.970524, "is_disabled": 0}, {"fusion_lat": 0.0, "lon": -77.0070675, "is_reserved": 0, "bike_id": "3ef7a5d04a7af823db088c4b6e1ee1ff", "fusion_lon": 0.0, "rental_uris": {"android": "https://dc.lft.to/lastmile_qr_scan", "ios": "https://dc.lft.to/lastmile_qr_scan"}, "name": "3ef7a5d04a7af823db088c4b6e1ee1ff", "type": "electric_scooter", "lat": 38.90569683333333, "is_disabled": 0}, {"fusion_lat": 0.0, "lon": -77.00984116666666, "is_reserved": 0, "bike_id": "784587d2a8a235096414141da1342a29", "fusion_lon": 0.0, "rental_uris": {"android": "https://dc.lft.to/lastmile_qr_scan", "ios": "https://dc.lft.to/lastmile_qr_scan"}, "name": "784587d2a8a235096414141da1342a29", "type": "electric_scooter", "lat": 38.872877, "is_disabled": 0}, {"fusion_lat": 0.0, "lon": -77.02381433333333, "is_reserved": 0, "bike_id": "e927ba1e7f8b57905fefced87d8a8ed4", "fusion_lon": 0.0, "rental_uris": {"android": "https://dc.lft.to/lastmile_qr_scan", "ios": "https://dc.lft.to/lastmile_qr_scan"}, "name": "e927ba1e7f8b57905fefced87d8a8ed4", "type": "electric_scooter", "lat": 38.9160145, "is_disabled": 0}, {"fusion_lat": 0.0, "lon": -76.9942115, "is_reserved": 0, "bike_id": "039d579bb8da33cdc11f742eaf8cb946", "fusion_lon": 0.0, "rental_uris": {"android": "https://dc.lft.to/lastmile_qr_scan", "ios": "https://dc.lft.to/lastmile_qr_scan"}, "name": "039d579bb8da33cdc11f742eaf8cb946", "type": "electric_scooter", "lat": 38.95056116666667, "is_disabled": 0}, {"fusion_lat": 0.0, "lon": -76.99760833333333, "is_reserved": 0, "bike_id": "e659f2bf4b1639c5d6e1ae009e0f5e25", "fusion_lon": 0.0, "rental_uris": {"android": "https://dc.lft.to/lastmile_qr_scan", "ios": "https://dc.lft.to/lastmile_qr_scan"}, "name": "e659f2bf4b1639c5d6e1ae009e0f5e25", "type": "electric_scooter", "lat": 38.9111685, "is_disabled": 0}, {"fusion_lat": 0.0, "lon": -77.04507233333334, "is_reserved": 0, "bike_id": "af3f20810ac3f4d242a6b98dc2f8e158", "fusion_lon": 0.0, "rental_uris": {"android": "https://dc.lft.to/lastmile_qr_scan", "ios": "https://dc.lft.to/lastmile_qr_scan"}, "name": "af3f20810ac3f4d242a6b98dc2f8e158", "type": "electric_scooter", "lat": 38.907767, "is_disabled": 0}, {"fusion_lat": 0.0, "lon": -77.00373366666666, "is_reserved": 0, "bike_id": "57b424dcad0a76411b29d6159dca18b8", "fusion_lon": 0.0, "rental_uris": {"android": "https://dc.lft.to/lastmile_qr_scan", "ios": "https://dc.lft.to/lastmile_qr_scan"}, "name": "57b424dcad0a76411b29d6159dca18b8", "type": "electric_scooter", "lat": 38.89735183333333, "is_disabled": 0}, {"fusion_lat": 0.0, "lon": -77.0214765, "is_reserved": 0, "bike_id": "e56fb422327a0f63ef9c5114c5530cf4", "fusion_lon": 0.0, "rental_uris": {"android": "https://dc.lft.to/lastmile_qr_scan", "ios": "https://dc.lft.to/lastmile_qr_scan"}, "name": "e56fb422327a0f63ef9c5114c5530cf4", "type": "electric_scooter", "lat": 38.87916516666667, "is_disabled": 0}, {"fusion_lat": 0.0, "lon": -77.02690266666667, "is_reserved": 0, "bike_id": "2c20b262b9a0f1fdb19b6193a075a723", "fusion_lon": 0.0, "rental_uris": {"android": "https://dc.lft.to/lastmile_qr_scan", "ios": "https://dc.lft.to/lastmile_qr_scan"}, "name": "2c20b262b9a0f1fdb19b6193a075a723", "type": "electric_scooter", "lat": 38.923319, "is_disabled": 0}, {"fusion_lat": 0.0, "lon": -77.03987933333333, "is_reserved": 0, "bike_id": "de1d415162f2b7418a3d831d6eea3c5a", "fusion_lon": 0.0, "rental_uris": {"android": "https://dc.lft.to/lastmile_qr_scan", "ios": "https://dc.lft.to/lastmile_qr_scan"}, "name": "de1d415162f2b7418a3d831d6eea3c5a", "type": "electric_scooter", "lat": 38.9175925, "is_disabled": 0}, {"fusion_lat": 0.0, "lon": -77.0113255, "is_reserved": 0, "bike_id": "3c0b86f14249d9e2285770724501e8e7", "fusion_lon": 0.0, "rental_uris": {"android": "https://dc.lft.to/lastmile_qr_scan", "ios": "https://dc.lft.to/lastmile_qr_scan"}, "name": "3c0b86f14249d9e2285770724501e8e7", "type": "electric_scooter", "lat": 38.88039783333333, "is_disabled": 0}, {"fusion_lat": 0.0, "lon": -77.03258683333334, "is_reserved": 0, "bike_id": "f7811373fe061286749db9c2d9b9645d", "fusion_lon": 0.0, "rental_uris": {"android": "https://dc.lft.to/lastmile_qr_scan", "ios": "https://dc.lft.to/lastmile_qr_scan"}, "name": "f7811373fe061286749db9c2d9b9645d", "type": "electric_scooter", "lat": 38.946264, "is_disabled": 0}, {"fusion_lat": 0.0, "lon": -77.043202, "is_reserved": 0, "bike_id": "6a263c57f9315881667e9613fa956c4a", "fusion_lon": 0.0, "rental_uris": {"android": "https://dc.lft.to/lastmile_qr_scan", "ios": "https://dc.lft.to/lastmile_qr_scan"}, "name": "6a263c57f9315881667e9613fa956c4a", "type": "electric_scooter", "lat": 38.892228833333334, "is_disabled": 0}, {"fusion_lat": 0.0, "lon": -77.00477666666667, "is_reserved": 0, "bike_id": "1e98048a5c41d6917420b9af1e26fdba", "fusion_lon": 0.0, "rental_uris": {"android": "https://dc.lft.to/lastmile_qr_scan", "ios": "https://dc.lft.to/lastmile_qr_scan"}, "name": "1e98048a5c41d6917420b9af1e26fdba", "type": "electric_scooter", "lat": 38.87474433333333, "is_disabled": 0}, {"fusion_lat": 0.0, "lon": -77.0492655, "is_reserved": 0, "bike_id": "6dd91bd4540e6cbf15f206acda5c1f4b", "fusion_lon": 0.0, "rental_uris": {"android": "https://dc.lft.to/lastmile_qr_scan", "ios": "https://dc.lft.to/lastmile_qr_scan"}, "name": "6dd91bd4540e6cbf15f206acda5c1f4b", "type": "electric_scooter", "lat": 38.895325166666666, "is_disabled": 0}, {"fusion_lat": 0.0, "lon": -77.0329545, "is_reserved": 0, "bike_id": "407e733d62cd5f61181aaaec329b72ee", "fusion_lon": 0.0, "rental_uris": {"android": "https://dc.lft.to/lastmile_qr_scan", "ios": "https://dc.lft.to/lastmile_qr_scan"}, "name": "407e733d62cd5f61181aaaec329b72ee", "type": "electric_scooter", "lat": 38.892262, "is_disabled": 0}, {"fusion_lat": 0.0, "lon": -76.99791133333333, "is_reserved": 0, "bike_id": "22dde4e7ee36ccccd404fac687b2f749", "fusion_lon": 0.0, "rental_uris": {"android": "https://dc.lft.to/lastmile_qr_scan", "ios": "https://dc.lft.to/lastmile_qr_scan"}, "name": "22dde4e7ee36ccccd404fac687b2f749", "type": "electric_bike", "lat": 38.956459833333334, "is_disabled": 0}, {"fusion_lat": 0.0, "lon": -76.93359533333333, "is_reserved": 0, "bike_id": "01f602562685437745b4b2161b3bea90", "fusion_lon": 0.0, "rental_uris": {"android": "https://dc.lft.to/lastmile_qr_scan", "ios": "https://dc.lft.to/lastmile_qr_scan"}, "name": "01f602562685437745b4b2161b3bea90", "type": "electric_scooter", "lat": 38.89914316666667, "is_disabled": 0}, {"fusion_lat": 0.0, "lon": -77.04732783333333, "is_reserved": 0, "bike_id": "c97d2a748d3247724f47f5f8a9dbc7d4", "fusion_lon": 0.0, "rental_uris": {"android": "https://dc.lft.to/lastmile_qr_scan", "ios": "https://dc.lft.to/lastmile_qr_scan"}, "name": "c97d2a748d3247724f47f5f8a9dbc7d4", "type": "electric_scooter", "lat": 38.90964916666667, "is_disabled": 0}, {"fusion_lat": 0.0, "lon": -76.98089483333334, "is_reserved": 0, "bike_id": "de9e437c1b78cb5e4444e0d01db217d2", "fusion_lon": 0.0, "rental_uris": {"android": "https://dc.lft.to/lastmile_qr_scan", "ios": "https://dc.lft.to/lastmile_qr_scan"}, "name": "de9e437c1b78cb5e4444e0d01db217d2", "type": "electric_bike", "lat": 38.92109883333333, "is_disabled": 0}, {"fusion_lat": 0.0, "lon": -77.05358366666667, "is_reserved": 0, "bike_id": "a00513c353e7d208b6a9b4e5177756a6", "fusion_lon": 0.0, "rental_uris": {"android": "https://dc.lft.to/lastmile_qr_scan", "ios": "https://dc.lft.to/lastmile_qr_scan"}, "name": "a00513c353e7d208b6a9b4e5177756a6", "type": "electric_scooter", "lat": 38.9272395, "is_disabled": 0}, {"fusion_lat": 0.0, "lon": -77.0033925, "is_reserved": 0, "bike_id": "590037e520dd3e6ee30c16152ad5b253", "fusion_lon": 0.0, "rental_uris": {"android": "https://dc.lft.to/lastmile_qr_scan", "ios": "https://dc.lft.to/lastmile_qr_scan"}, "name": "590037e520dd3e6ee30c16152ad5b253", "type": "electric_scooter", "lat": 38.8861925, "is_disabled": 0}, {"fusion_lat": 0.0, "lon": -76.995268, "is_reserved": 0, "bike_id": "8be53349a9b327e3ab73da06f3e8ec4b", "fusion_lon": 0.0, "rental_uris": {"android": "https://dc.lft.to/lastmile_qr_scan", "ios": "https://dc.lft.to/lastmile_qr_scan"}, "name": "8be53349a9b327e3ab73da06f3e8ec4b", "type": "electric_scooter", "lat": 38.883708166666665, "is_disabled": 0}, {"fusion_lat": 0.0, "lon": -77.037731, "is_reserved": 0, "bike_id": "288b0af1c47ff71eeff122f5f0e3cb6b", "fusion_lon": 0.0, "rental_uris": {"android": "https://dc.lft.to/lastmile_qr_scan", "ios": "https://dc.lft.to/lastmile_qr_scan"}, "name": "288b0af1c47ff71eeff122f5f0e3cb6b", "type": "electric_scooter", "lat": 38.92207333333333, "is_disabled": 0}, {"fusion_lat": 0.0, "lon": -76.99577533333333, "is_reserved": 0, "bike_id": "9bfc1215e24f5ec818c494931e7d37c4", "fusion_lon": 0.0, "rental_uris": {"android": "https://dc.lft.to/lastmile_qr_scan", "ios": "https://dc.lft.to/lastmile_qr_scan"}, "name": "9bfc1215e24f5ec818c494931e7d37c4", "type": "electric_bike", "lat": 38.8529235, "is_disabled": 0}, {"fusion_lat": 0.0, "lon": -77.018517, "is_reserved": 0, "bike_id": "28de89629de8ae39c4b45edee197c7c5", "fusion_lon": 0.0, "rental_uris": {"android": "https://dc.lft.to/lastmile_qr_scan", "ios": "https://dc.lft.to/lastmile_qr_scan"}, "name": "28de89629de8ae39c4b45edee197c7c5", "type": "electric_scooter", "lat": 38.97372, "is_disabled": 0}, {"fusion_lat": 0.0, "lon": -77.0354475, "is_reserved": 0, "bike_id": "21a7c3581ec967fc54e572ea5618ac33", "fusion_lon": 0.0, "rental_uris": {"android": "https://dc.lft.to/lastmile_qr_scan", "ios": "https://dc.lft.to/lastmile_qr_scan"}, "name": "21a7c3581ec967fc54e572ea5618ac33", "type": "electric_bike", "lat": 38.935947166666665, "is_disabled": 0}, {"fusion_lat": 0.0, "lon": -77.02651616666667, "is_reserved": 0, "bike_id": "c54db701fedbbc7ab14fcbf4e4cd1b70", "fusion_lon": 0.0, "rental_uris": {"android": "https://dc.lft.to/lastmile_qr_scan", "ios": "https://dc.lft.to/lastmile_qr_scan"}, "name": "c54db701fedbbc7ab14fcbf4e4cd1b70", "type": "electric_scooter", "lat": 38.89217766666667, "is_disabled": 0}, {"fusion_lat": 0.0, "lon": -76.9985595, "is_reserved": 0, "bike_id": "f3dd998e1164c9d1a45773c065a3b36f", "fusion_lon": 0.0, "rental_uris": {"android": "https://dc.lft.to/lastmile_qr_scan", "ios": "https://dc.lft.to/lastmile_qr_scan"}, "name": "f3dd998e1164c9d1a45773c065a3b36f", "type": "electric_scooter", "lat": 38.90019233333334, "is_disabled": 0}, {"fusion_lat": 0.0, "lon": -77.05492566666666, "is_reserved": 0, "bike_id": "b6c6cf84d6770bb879b2f3bbdba076b2", "fusion_lon": 0.0, "rental_uris": {"android": "https://dc.lft.to/lastmile_qr_scan", "ios": "https://dc.lft.to/lastmile_qr_scan"}, "name": "b6c6cf84d6770bb879b2f3bbdba076b2", "type": "electric_scooter", "lat": 38.899868166666664, "is_disabled": 0}, {"fusion_lat": 0.0, "lon": -76.98656283333334, "is_reserved": 0, "bike_id": "cd978f26d48049ebc3cf1bf3e161d89f", "fusion_lon": 0.0, "rental_uris": {"android": "https://dc.lft.to/lastmile_qr_scan", "ios": "https://dc.lft.to/lastmile_qr_scan"}, "name": "cd978f26d48049ebc3cf1bf3e161d89f", "type": "electric_scooter", "lat": 38.898190666666665, "is_disabled": 0}, {"fusion_lat": 0.0, "lon": -77.02826183333333, "is_reserved": 0, "bike_id": "5a95064961ed1280fe46cfe6f614b6bd", "fusion_lon": 0.0, "rental_uris": {"android": "https://dc.lft.to/lastmile_qr_scan", "ios": "https://dc.lft.to/lastmile_qr_scan"}, "name": "5a95064961ed1280fe46cfe6f614b6bd", "type": "electric_bike", "lat": 38.96508266666667, "is_disabled": 0}, {"fusion_lat": 0.0, "lon": -77.03465083333333, "is_reserved": 0, "bike_id": "f3fa196af6b2eec9f97d4ccd62bfcfcf", "fusion_lon": 0.0, "rental_uris": {"android": "https://dc.lft.to/lastmile_qr_scan", "ios": "https://dc.lft.to/lastmile_qr_scan"}, "name": "f3fa196af6b2eec9f97d4ccd62bfcfcf", "type": "electric_scooter", "lat": 38.90819716666667, "is_disabled": 0}, {"fusion_lat": 0.0, "lon": -76.98723133333333, "is_reserved": 0, "bike_id": "738d5304d063cb12a7f7b9862eb7aab1", "fusion_lon": 0.0, "rental_uris": {"android": "https://dc.lft.to/lastmile_qr_scan", "ios": "https://dc.lft.to/lastmile_qr_scan"}, "name": "738d5304d063cb12a7f7b9862eb7aab1", "type": "electric_scooter", "lat": 38.86709183333333, "is_disabled": 0}, {"fusion_lat": 0.0, "lon": -77.03954916666666, "is_reserved": 0, "bike_id": "d5a66da67465020ca7b8b50cacd466c4", "fusion_lon": 0.0, "rental_uris": {"android": "https://dc.lft.to/lastmile_qr_scan", "ios": "https://dc.lft.to/lastmile_qr_scan"}, "name": "d5a66da67465020ca7b8b50cacd466c4", "type": "electric_scooter", "lat": 38.91620666666667, "is_disabled": 0}, {"fusion_lat": 0.0, "lon": -76.97895683333333, "is_reserved": 0, "bike_id": "4db9fbccdbb13f67c389c444068aad60", "fusion_lon": 0.0, "rental_uris": {"android": "https://dc.lft.to/lastmile_qr_scan", "ios": "https://dc.lft.to/lastmile_qr_scan"}, "name": "4db9fbccdbb13f67c389c444068aad60", "type": "electric_bike", "lat": 38.87038916666667, "is_disabled": 0}, {"fusion_lat": 0.0, "lon": -77.03301516666667, "is_reserved": 0, "bike_id": "c98b354de04f7c668e854a5a7efbcd28", "fusion_lon": 0.0, "rental_uris": {"android": "https://dc.lft.to/lastmile_qr_scan", "ios": "https://dc.lft.to/lastmile_qr_scan"}, "name": "c98b354de04f7c668e854a5a7efbcd28", "type": "electric_scooter", "lat": 38.93026483333333, "is_disabled": 0}, {"fusion_lat": 0.0, "lon": -76.99455816666666, "is_reserved": 0, "bike_id": "fe2845fa988f1742fb516a1036fcb03d", "fusion_lon": 0.0, "rental_uris": {"android": "https://dc.lft.to/lastmile_qr_scan", "ios": "https://dc.lft.to/lastmile_qr_scan"}, "name": "fe2845fa988f1742fb516a1036fcb03d", "type": "electric_scooter", "lat": 38.862188833333335, "is_disabled": 0}, {"fusion_lat": 0.0, "lon": -76.93749966666667, "is_reserved": 0, "bike_id": "d02db72ebae9f9ec4899f867e81be0f2", "fusion_lon": 0.0, "rental_uris": {"android": "https://dc.lft.to/lastmile_qr_scan", "ios": "https://dc.lft.to/lastmile_qr_scan"}, "name": "d02db72ebae9f9ec4899f867e81be0f2", "type": "electric_scooter", "lat": 38.89048316666667, "is_disabled": 0}, {"fusion_lat": 0.0, "lon": -76.96056133333333, "is_reserved": 0, "bike_id": "f994fd1bafc33233fcc294656093e612", "fusion_lon": 0.0, "rental_uris": {"android": "https://dc.lft.to/lastmile_qr_scan", "ios": "https://dc.lft.to/lastmile_qr_scan"}, "name": "f994fd1bafc33233fcc294656093e612", "type": "electric_bike", "lat": 38.884049, "is_disabled": 0}, {"fusion_lat": 0.0, "lon": -76.99332816666667, "is_reserved": 0, "bike_id": "88f80dcd9d4d9267f638b2fa423b5a4f", "fusion_lon": 0.0, "rental_uris": {"android": "https://dc.lft.to/lastmile_qr_scan", "ios": "https://dc.lft.to/lastmile_qr_scan"}, "name": "88f80dcd9d4d9267f638b2fa423b5a4f", "type": "electric_scooter", "lat": 38.87141866666666, "is_disabled": 0}, {"fusion_lat": 0.0, "lon": -76.988648, "is_reserved": 0, "bike_id": "71e1b2ae2de272e2df5b18e33e43a56d", "fusion_lon": 0.0, "rental_uris": {"android": "https://dc.lft.to/lastmile_qr_scan", "ios": "https://dc.lft.to/lastmile_qr_scan"}, "name": "71e1b2ae2de272e2df5b18e33e43a56d", "type": "electric_bike", "lat": 38.954844666666666, "is_disabled": 0}, {"fusion_lat": 0.0, "lon": -77.044835, "is_reserved": 0, "bike_id": "895b70bf9999359e1417a111eb954e80", "fusion_lon": 0.0, "rental_uris": {"android": "https://dc.lft.to/lastmile_qr_scan", "ios": "https://dc.lft.to/lastmile_qr_scan"}, "name": "895b70bf9999359e1417a111eb954e80", "type": "electric_scooter", "lat": 38.90386433333333, "is_disabled": 0}, {"fusion_lat": 0.0, "lon": -77.00590966666667, "is_reserved": 0, "bike_id": "5de62fa64c15606634e1270a2532221c", "fusion_lon": 0.0, "rental_uris": {"android": "https://dc.lft.to/lastmile_qr_scan", "ios": "https://dc.lft.to/lastmile_qr_scan"}, "name": "5de62fa64c15606634e1270a2532221c", "type": "electric_scooter", "lat": 38.90558683333333, "is_disabled": 0}, {"fusion_lat": 0.0, "lon": -77.03722733333333, "is_reserved": 0, "bike_id": "e708808b1d2e23d4e19c65cb1b5edc88", "fusion_lon": 0.0, "rental_uris": {"android": "https://dc.lft.to/lastmile_qr_scan", "ios": "https://dc.lft.to/lastmile_qr_scan"}, "name": "e708808b1d2e23d4e19c65cb1b5edc88", "type": "electric_scooter", "lat": 38.903729, "is_disabled": 0}, {"fusion_lat": 0.0, "lon": -77.00292266666666, "is_reserved": 0, "bike_id": "81861d3f3beaceec2f1fdc4a2454d573", "fusion_lon": 0.0, "rental_uris": {"android": "https://dc.lft.to/lastmile_qr_scan", "ios": "https://dc.lft.to/lastmile_qr_scan"}, "name": "81861d3f3beaceec2f1fdc4a2454d573", "type": "electric_scooter", "lat": 38.89503783333333, "is_disabled": 0}, {"fusion_lat": 0.0, "lon": -77.07580033333333, "is_reserved": 0, "bike_id": "e8f3dc171996d0837eedcc90cdd46723", "fusion_lon": 0.0, "rental_uris": {"android": "https://dc.lft.to/lastmile_qr_scan", "ios": "https://dc.lft.to/lastmile_qr_scan"}, "name": "e8f3dc171996d0837eedcc90cdd46723", "type": "electric_scooter", "lat": 38.9126105, "is_disabled": 0}, {"fusion_lat": 0.0, "lon": -76.91968083333333, "is_reserved": 0, "bike_id": "f638b3507f289adb0654a1e0e5897379", "fusion_lon": 0.0, "rental_uris": {"android": "https://dc.lft.to/lastmile_qr_scan", "ios": "https://dc.lft.to/lastmile_qr_scan"}, "name": "f638b3507f289adb0654a1e0e5897379", "type": "electric_scooter", "lat": 38.900296166666664, "is_disabled": 0}, {"fusion_lat": 0.0, "lon": -77.0391065, "is_reserved": 0, "bike_id": "8bae9b2ffee4b1ddc5640d9574e190d9", "fusion_lon": 0.0, "rental_uris": {"android": "https://dc.lft.to/lastmile_qr_scan", "ios": "https://dc.lft.to/lastmile_qr_scan"}, "name": "8bae9b2ffee4b1ddc5640d9574e190d9", "type": "electric_scooter", "lat": 38.92419733333333, "is_disabled": 0}, {"fusion_lat": 0.0, "lon": -77.03084316666667, "is_reserved": 0, "bike_id": "fa72777489e471f609d30e219a58348e", "fusion_lon": 0.0, "rental_uris": {"android": "https://dc.lft.to/lastmile_qr_scan", "ios": "https://dc.lft.to/lastmile_qr_scan"}, "name": "fa72777489e471f609d30e219a58348e", "type": "electric_scooter", "lat": 38.8996345, "is_disabled": 0}, {"fusion_lat": 0.0, "lon": -77.00623733333333, "is_reserved": 0, "bike_id": "3f65ee71273932b10c68679b80e41e01", "fusion_lon": 0.0, "rental_uris": {"android": "https://dc.lft.to/lastmile_qr_scan", "ios": "https://dc.lft.to/lastmile_qr_scan"}, "name": "3f65ee71273932b10c68679b80e41e01", "type": "electric_scooter", "lat": 38.83266533333333, "is_disabled": 0}, {"fusion_lat": 0.0, "lon": -77.03230916666666, "is_reserved": 0, "bike_id": "aeb063a89acce961eac84dff14ff1c77", "fusion_lon": 0.0, "rental_uris": {"android": "https://dc.lft.to/lastmile_qr_scan", "ios": "https://dc.lft.to/lastmile_qr_scan"}, "name": "aeb063a89acce961eac84dff14ff1c77", "type": "electric_scooter", "lat": 38.92867016666667, "is_disabled": 0}, {"fusion_lat": 0.0, "lon": -77.03176566666667, "is_reserved": 0, "bike_id": "379bfb76c6d065cc8094869cc6313367", "fusion_lon": 0.0, "rental_uris": {"android": "https://dc.lft.to/lastmile_qr_scan", "ios": "https://dc.lft.to/lastmile_qr_scan"}, "name": "379bfb76c6d065cc8094869cc6313367", "type": "electric_scooter", "lat": 38.91809833333333, "is_disabled": 0}, {"fusion_lat": 0.0, "lon": -77.03482466666667, "is_reserved": 0, "bike_id": "cbaabe46d4e971cde934ad4fe6f0e7b7", "fusion_lon": 0.0, "rental_uris": {"android": "https://dc.lft.to/lastmile_qr_scan", "ios": "https://dc.lft.to/lastmile_qr_scan"}, "name": "cbaabe46d4e971cde934ad4fe6f0e7b7", "type": "electric_scooter", "lat": 38.90664016666667, "is_disabled": 0}, {"fusion_lat": 0.0, "lon": -77.0453265, "is_reserved": 0, "bike_id": "2c584b5f0fcaf13a0c7dc134bf650f31", "fusion_lon": 0.0, "rental_uris": {"android": "https://dc.lft.to/lastmile_qr_scan", "ios": "https://dc.lft.to/lastmile_qr_scan"}, "name": "2c584b5f0fcaf13a0c7dc134bf650f31", "type": "electric_scooter", "lat": 38.8960975, "is_disabled": 0}, {"fusion_lat": 0.0, "lon": -76.983933, "is_reserved": 0, "bike_id": "c8e0901ebf1c3b531dc300910f92a818", "fusion_lon": 0.0, "rental_uris": {"android": "https://dc.lft.to/lastmile_qr_scan", "ios": "https://dc.lft.to/lastmile_qr_scan"}, "name": "c8e0901ebf1c3b531dc300910f92a818", "type": "electric_scooter", "lat": 38.86696383333334, "is_disabled": 0}, {"fusion_lat": 0.0, "lon": -77.002066, "is_reserved": 0, "bike_id": "2e693aed9a5db3988aeec1fe732d8fb0", "fusion_lon": 0.0, "rental_uris": {"android": "https://dc.lft.to/lastmile_qr_scan", "ios": "https://dc.lft.to/lastmile_qr_scan"}, "name": "2e693aed9a5db3988aeec1fe732d8fb0", "type": "electric_scooter", "lat": 38.90047066666666, "is_disabled": 0}, {"fusion_lat": 0.0, "lon": -76.99122883333334, "is_reserved": 0, "bike_id": "7925ce6325c127dec31e55e050ee4a52", "fusion_lon": 0.0, "rental_uris": {"android": "https://dc.lft.to/lastmile_qr_scan", "ios": "https://dc.lft.to/lastmile_qr_scan"}, "name": "7925ce6325c127dec31e55e050ee4a52", "type": "electric_scooter", "lat": 38.8620495, "is_disabled": 0}, {"fusion_lat": 0.0, "lon": -77.04316066666667, "is_reserved": 0, "bike_id": "7beeee31c92da2845d5c2e7e1aeea3c3", "fusion_lon": 0.0, "rental_uris": {"android": "https://dc.lft.to/lastmile_qr_scan", "ios": "https://dc.lft.to/lastmile_qr_scan"}, "name": "7beeee31c92da2845d5c2e7e1aeea3c3", "type": "electric_scooter", "lat": 38.9043205, "is_disabled": 0}, {"fusion_lat": 0.0, "lon": -77.03650316666666, "is_reserved": 0, "bike_id": "10c4f9ebb704a63bcb620d85a5c9916f", "fusion_lon": 0.0, "rental_uris": {"android": "https://dc.lft.to/lastmile_qr_scan", "ios": "https://dc.lft.to/lastmile_qr_scan"}, "name": "10c4f9ebb704a63bcb620d85a5c9916f", "type": "electric_scooter", "lat": 38.93216116666667, "is_disabled": 0}, {"fusion_lat": 0.0, "lon": -77.03820416666667, "is_reserved": 0, "bike_id": "92aa79898ba10720bc9856b4c6aa85a6", "fusion_lon": 0.0, "rental_uris": {"android": "https://dc.lft.to/lastmile_qr_scan", "ios": "https://dc.lft.to/lastmile_qr_scan"}, "name": "92aa79898ba10720bc9856b4c6aa85a6", "type": "electric_scooter", "lat": 38.916858833333336, "is_disabled": 0}, {"fusion_lat": 0.0, "lon": -77.00335466666667, "is_reserved": 0, "bike_id": "742c03fad966ab8e7f2a3c00a084bdf2", "fusion_lon": 0.0, "rental_uris": {"android": "https://dc.lft.to/lastmile_qr_scan", "ios": "https://dc.lft.to/lastmile_qr_scan"}, "name": "742c03fad966ab8e7f2a3c00a084bdf2", "type": "electric_scooter", "lat": 38.89527733333333, "is_disabled": 0}, {"fusion_lat": 0.0, "lon": -77.026689, "is_reserved": 0, "bike_id": "dd01f9302ecbed0831ed81ff95bca7ae", "fusion_lon": 0.0, "rental_uris": {"android": "https://dc.lft.to/lastmile_qr_scan", "ios": "https://dc.lft.to/lastmile_qr_scan"}, "name": "dd01f9302ecbed0831ed81ff95bca7ae", "type": "electric_scooter", "lat": 38.9843265, "is_disabled": 0}, {"fusion_lat": 0.0, "lon": -77.0649075, "is_reserved": 0, "bike_id": "b58f0388a4c1350bc9e29f477886d284", "fusion_lon": 0.0, "rental_uris": {"android": "https://dc.lft.to/lastmile_qr_scan", "ios": "https://dc.lft.to/lastmile_qr_scan"}, "name": "b58f0388a4c1350bc9e29f477886d284", "type": "electric_scooter", "lat": 38.92905016666667, "is_disabled": 0}, {"fusion_lat": 0.0, "lon": -77.00885233333334, "is_reserved": 0, "bike_id": "3b63f40178233cac33dec55b6f2ced8f", "fusion_lon": 0.0, "rental_uris": {"android": "https://dc.lft.to/lastmile_qr_scan", "ios": "https://dc.lft.to/lastmile_qr_scan"}, "name": "3b63f40178233cac33dec55b6f2ced8f", "type": "electric_scooter", "lat": 38.9171495, "is_disabled": 0}, {"fusion_lat": 0.0, "lon": -77.0120355, "is_reserved": 0, "bike_id": "960408ef94588402e4b74696a2caf31e", "fusion_lon": 0.0, "rental_uris": {"android": "https://dc.lft.to/lastmile_qr_scan", "ios": "https://dc.lft.to/lastmile_qr_scan"}, "name": "960408ef94588402e4b74696a2caf31e", "type": "electric_scooter", "lat": 38.91836383333333, "is_disabled": 0}, {"fusion_lat": 0.0, "lon": -76.99459183333333, "is_reserved": 0, "bike_id": "411b5535e6496b769323d8124f547236", "fusion_lon": 0.0, "rental_uris": {"android": "https://dc.lft.to/lastmile_qr_scan", "ios": "https://dc.lft.to/lastmile_qr_scan"}, "name": "411b5535e6496b769323d8124f547236", "type": "electric_scooter", "lat": 38.862217666666666, "is_disabled": 0}, {"fusion_lat": 0.0, "lon": -77.02835666666667, "is_reserved": 0, "bike_id": "534695008f100ddef79467157ded6784", "fusion_lon": 0.0, "rental_uris": {"android": "https://dc.lft.to/lastmile_qr_scan", "ios": "https://dc.lft.to/lastmile_qr_scan"}, "name": "534695008f100ddef79467157ded6784", "type": "electric_scooter", "lat": 38.928610666666664, "is_disabled": 0}, {"fusion_lat": 0.0, "lon": -77.02607766666667, "is_reserved": 0, "bike_id": "e91c7ecfb15adaa54fa6394c22fc56af", "fusion_lon": 0.0, "rental_uris": {"android": "https://dc.lft.to/lastmile_qr_scan", "ios": "https://dc.lft.to/lastmile_qr_scan"}, "name": "e91c7ecfb15adaa54fa6394c22fc56af", "type": "electric_scooter", "lat": 38.892465333333334, "is_disabled": 0}, {"fusion_lat": 0.0, "lon": -77.051287, "is_reserved": 0, "bike_id": "047c3ef6ea750893df5a59adc4f64661", "fusion_lon": 0.0, "rental_uris": {"android": "https://dc.lft.to/lastmile_qr_scan", "ios": "https://dc.lft.to/lastmile_qr_scan"}, "name": "047c3ef6ea750893df5a59adc4f64661", "type": "electric_scooter", "lat": 38.90565683333333, "is_disabled": 0}, {"fusion_lat": 0.0, "lon": -77.03389266666667, "is_reserved": 0, "bike_id": "02a28d33a940b769b7a907fd02a4b06a", "fusion_lon": 0.0, "rental_uris": {"android": "https://dc.lft.to/lastmile_qr_scan", "ios": "https://dc.lft.to/lastmile_qr_scan"}, "name": "02a28d33a940b769b7a907fd02a4b06a", "type": "electric_scooter", "lat": 38.923517, "is_disabled": 0}, {"fusion_lat": 0.0, "lon": -77.0307505, "is_reserved": 0, "bike_id": "be4dd57b746c7cf7377124b31aac22ca", "fusion_lon": 0.0, "rental_uris": {"android": "https://dc.lft.to/lastmile_qr_scan", "ios": "https://dc.lft.to/lastmile_qr_scan"}, "name": "be4dd57b746c7cf7377124b31aac22ca", "type": "electric_scooter", "lat": 38.92245616666666, "is_disabled": 0}, {"fusion_lat": 0.0, "lon": -77.003854, "is_reserved": 0, "bike_id": "ca9be0ff13217fe31e807ee8817a9eeb", "fusion_lon": 0.0, "rental_uris": {"android": "https://dc.lft.to/lastmile_qr_scan", "ios": "https://dc.lft.to/lastmile_qr_scan"}, "name": "ca9be0ff13217fe31e807ee8817a9eeb", "type": "electric_scooter", "lat": 38.923631, "is_disabled": 0}, {"fusion_lat": 0.0, "lon": -77.0559655, "is_reserved": 0, "bike_id": "23e60befe41e5fd129902bf29d4d7218", "fusion_lon": 0.0, "rental_uris": {"android": "https://dc.lft.to/lastmile_qr_scan", "ios": "https://dc.lft.to/lastmile_qr_scan"}, "name": "23e60befe41e5fd129902bf29d4d7218", "type": "electric_scooter", "lat": 38.90770366666667, "is_disabled": 0}, {"fusion_lat": 0.0, "lon": -77.0236785, "is_reserved": 0, "bike_id": "ab3e292bac667728c177766226a8d5f8", "fusion_lon": 0.0, "rental_uris": {"android": "https://dc.lft.to/lastmile_qr_scan", "ios": "https://dc.lft.to/lastmile_qr_scan"}, "name": "ab3e292bac667728c177766226a8d5f8", "type": "electric_scooter", "lat": 38.901931833333336, "is_disabled": 0}, {"fusion_lat": 0.0, "lon": -77.02366183333334, "is_reserved": 0, "bike_id": "9ef71a53b3600fa1acc11ea9a371723e", "fusion_lon": 0.0, "rental_uris": {"android": "https://dc.lft.to/lastmile_qr_scan", "ios": "https://dc.lft.to/lastmile_qr_scan"}, "name": "9ef71a53b3600fa1acc11ea9a371723e", "type": "electric_scooter", "lat": 38.8922075, "is_disabled": 0}, {"fusion_lat": 0.0, "lon": -76.97328483333334, "is_reserved": 0, "bike_id": "6455bc649519820aabde53d24e1e5daa", "fusion_lon": 0.0, "rental_uris": {"android": "https://dc.lft.to/lastmile_qr_scan", "ios": "https://dc.lft.to/lastmile_qr_scan"}, "name": "6455bc649519820aabde53d24e1e5daa", "type": "electric_scooter", "lat": 38.904110833333334, "is_disabled": 0}, {"fusion_lat": 0.0, "lon": -77.02730183333334, "is_reserved": 0, "bike_id": "8550da59a68b8c4774696c7840378d2d", "fusion_lon": 0.0, "rental_uris": {"android": "https://dc.lft.to/lastmile_qr_scan", "ios": "https://dc.lft.to/lastmile_qr_scan"}, "name": "8550da59a68b8c4774696c7840378d2d", "type": "electric_scooter", "lat": 38.950045, "is_disabled": 0}, {"fusion_lat": 0.0, "lon": -77.02386316666667, "is_reserved": 0, "bike_id": "213e22104893e9e5a62fe9b561f20ec8", "fusion_lon": 0.0, "rental_uris": {"android": "https://dc.lft.to/lastmile_qr_scan", "ios": "https://dc.lft.to/lastmile_qr_scan"}, "name": "213e22104893e9e5a62fe9b561f20ec8", "type": "electric_scooter", "lat": 38.90956, "is_disabled": 0}, {"fusion_lat": 0.0, "lon": -77.023881, "is_reserved": 0, "bike_id": "24954f5a898425a0cb8a257b87ab1edb", "fusion_lon": 0.0, "rental_uris": {"android": "https://dc.lft.to/lastmile_qr_scan", "ios": "https://dc.lft.to/lastmile_qr_scan"}, "name": "24954f5a898425a0cb8a257b87ab1edb", "type": "electric_scooter", "lat": 38.919926833333335, "is_disabled": 0}, {"fusion_lat": 0.0, "lon": -77.02523666666667, "is_reserved": 0, "bike_id": "cab40ac31c8224e2a6e83fa18d755bd3", "fusion_lon": 0.0, "rental_uris": {"android": "https://dc.lft.to/lastmile_qr_scan", "ios": "https://dc.lft.to/lastmile_qr_scan"}, "name": "cab40ac31c8224e2a6e83fa18d755bd3", "type": "electric_scooter", "lat": 38.92981966666667, "is_disabled": 0}, {"fusion_lat": 0.0, "lon": -77.03148466666667, "is_reserved": 0, "bike_id": "bfd221492e6f6568db298bcfbecbe2e2", "fusion_lon": 0.0, "rental_uris": {"android": "https://dc.lft.to/lastmile_qr_scan", "ios": "https://dc.lft.to/lastmile_qr_scan"}, "name": "bfd221492e6f6568db298bcfbecbe2e2", "type": "electric_scooter", "lat": 38.89941683333333, "is_disabled": 0}, {"fusion_lat": 0.0, "lon": -76.99518, "is_reserved": 0, "bike_id": "96eff736e91a5b91cd3381c0b91906a8", "fusion_lon": 0.0, "rental_uris": {"android": "https://dc.lft.to/lastmile_qr_scan", "ios": "https://dc.lft.to/lastmile_qr_scan"}, "name": "96eff736e91a5b91cd3381c0b91906a8", "type": "electric_scooter", "lat": 38.89608166666667, "is_disabled": 0}, {"fusion_lat": 0.0, "lon": -77.0298345, "is_reserved": 0, "bike_id": "764b2e316ac5ffa5bd255fea03e5b1ba", "fusion_lon": 0.0, "rental_uris": {"android": "https://dc.lft.to/lastmile_qr_scan", "ios": "https://dc.lft.to/lastmile_qr_scan"}, "name": "764b2e316ac5ffa5bd255fea03e5b1ba", "type": "electric_scooter", "lat": 38.907188166666664, "is_disabled": 0}, {"fusion_lat": 0.0, "lon": -77.03541066666666, "is_reserved": 0, "bike_id": "b23281b7f701c061f2a5844c7285d9c7", "fusion_lon": 0.0, "rental_uris": {"android": "https://dc.lft.to/lastmile_qr_scan", "ios": "https://dc.lft.to/lastmile_qr_scan"}, "name": "b23281b7f701c061f2a5844c7285d9c7", "type": "electric_scooter", "lat": 38.92419866666667, "is_disabled": 0}, {"fusion_lat": 0.0, "lon": -77.03386166666667, "is_reserved": 0, "bike_id": "011425c7f8a9e61816f17e59aeb13561", "fusion_lon": 0.0, "rental_uris": {"android": "https://dc.lft.to/lastmile_qr_scan", "ios": "https://dc.lft.to/lastmile_qr_scan"}, "name": "011425c7f8a9e61816f17e59aeb13561", "type": "electric_scooter", "lat": 38.93879183333333, "is_disabled": 0}, {"fusion_lat": 0.0, "lon": -77.03420716666666, "is_reserved": 0, "bike_id": "59a3f2db37cdc9b46f6750038ca07b66", "fusion_lon": 0.0, "rental_uris": {"android": "https://dc.lft.to/lastmile_qr_scan", "ios": "https://dc.lft.to/lastmile_qr_scan"}, "name": "59a3f2db37cdc9b46f6750038ca07b66", "type": "electric_scooter", "lat": 38.9095735, "is_disabled": 0}, {"fusion_lat": 0.0, "lon": -76.99777966666667, "is_reserved": 0, "bike_id": "d1a079a4d500ec8da308b2fe17bb7a21", "fusion_lon": 0.0, "rental_uris": {"android": "https://dc.lft.to/lastmile_qr_scan", "ios": "https://dc.lft.to/lastmile_qr_scan"}, "name": "d1a079a4d500ec8da308b2fe17bb7a21", "type": "electric_scooter", "lat": 38.844318666666666, "is_disabled": 0}, {"fusion_lat": 0.0, "lon": -77.0383985, "is_reserved": 0, "bike_id": "3a278f3c223b9931063f130988bb2de6", "fusion_lon": 0.0, "rental_uris": {"android": "https://dc.lft.to/lastmile_qr_scan", "ios": "https://dc.lft.to/lastmile_qr_scan"}, "name": "3a278f3c223b9931063f130988bb2de6", "type": "electric_scooter", "lat": 38.917333166666666, "is_disabled": 0}, {"fusion_lat": 0.0, "lon": -77.02510433333333, "is_reserved": 0, "bike_id": "e97ed299aff8ff331d24cb28d38dbdea", "fusion_lon": 0.0, "rental_uris": {"android": "https://dc.lft.to/lastmile_qr_scan", "ios": "https://dc.lft.to/lastmile_qr_scan"}, "name": "e97ed299aff8ff331d24cb28d38dbdea", "type": "electric_scooter", "lat": 38.92074516666667, "is_disabled": 0}, {"fusion_lat": 0.0, "lon": -77.01742166666666, "is_reserved": 0, "bike_id": "b029157dade77eb4663cc3fc51221b15", "fusion_lon": 0.0, "rental_uris": {"android": "https://dc.lft.to/lastmile_qr_scan", "ios": "https://dc.lft.to/lastmile_qr_scan"}, "name": "b029157dade77eb4663cc3fc51221b15", "type": "electric_scooter", "lat": 38.88581333333333, "is_disabled": 0}, {"fusion_lat": 0.0, "lon": -77.0469325, "is_reserved": 0, "bike_id": "29116978e2d2a6583ff88578f76ba04c", "fusion_lon": 0.0, "rental_uris": {"android": "https://dc.lft.to/lastmile_qr_scan", "ios": "https://dc.lft.to/lastmile_qr_scan"}, "name": "29116978e2d2a6583ff88578f76ba04c", "type": "electric_scooter", "lat": 38.9158005, "is_disabled": 0}, {"fusion_lat": 0.0, "lon": -77.04330283333333, "is_reserved": 0, "bike_id": "afbc912cd0255730d2a45237d9b9e8e1", "fusion_lon": 0.0, "rental_uris": {"android": "https://dc.lft.to/lastmile_qr_scan", "ios": "https://dc.lft.to/lastmile_qr_scan"}, "name": "afbc912cd0255730d2a45237d9b9e8e1", "type": "electric_scooter", "lat": 38.90422483333333, "is_disabled": 0}, {"fusion_lat": 0.0, "lon": -76.93749333333334, "is_reserved": 0, "bike_id": "bb70c5e4ae762f92a7c304c35e963916", "fusion_lon": 0.0, "rental_uris": {"android": "https://dc.lft.to/lastmile_qr_scan", "ios": "https://dc.lft.to/lastmile_qr_scan"}, "name": "bb70c5e4ae762f92a7c304c35e963916", "type": "electric_scooter", "lat": 38.8905015, "is_disabled": 0}, {"fusion_lat": 0.0, "lon": -77.00428933333333, "is_reserved": 0, "bike_id": "4585a3ba14aec8c905da55962b31c9df", "fusion_lon": 0.0, "rental_uris": {"android": "https://dc.lft.to/lastmile_qr_scan", "ios": "https://dc.lft.to/lastmile_qr_scan"}, "name": "4585a3ba14aec8c905da55962b31c9df", "type": "electric_scooter", "lat": 38.905613, "is_disabled": 0}, {"fusion_lat": 0.0, "lon": -76.94803216666666, "is_reserved": 0, "bike_id": "b08e1bcc65c50d15c944b29ac01dd5bf", "fusion_lon": 0.0, "rental_uris": {"android": "https://dc.lft.to/lastmile_qr_scan", "ios": "https://dc.lft.to/lastmile_qr_scan"}, "name": "b08e1bcc65c50d15c944b29ac01dd5bf", "type": "electric_bike", "lat": 38.86194116666667, "is_disabled": 0}, {"fusion_lat": 0.0, "lon": -77.01148216666667, "is_reserved": 0, "bike_id": "e618c970d9b161e8822ca9149d30194f", "fusion_lon": 0.0, "rental_uris": {"android": "https://dc.lft.to/lastmile_qr_scan", "ios": "https://dc.lft.to/lastmile_qr_scan"}, "name": "e618c970d9b161e8822ca9149d30194f", "type": "electric_scooter", "lat": 38.911072833333336, "is_disabled": 0}, {"fusion_lat": 0.0, "lon": -77.02943616666667, "is_reserved": 0, "bike_id": "73af35bbdfb8942bb32eafed21505bbb", "fusion_lon": 0.0, "rental_uris": {"android": "https://dc.lft.to/lastmile_qr_scan", "ios": "https://dc.lft.to/lastmile_qr_scan"}, "name": "73af35bbdfb8942bb32eafed21505bbb", "type": "electric_scooter", "lat": 38.92077616666667, "is_disabled": 0}, {"fusion_lat": 0.0, "lon": -77.04517216666666, "is_reserved": 0, "bike_id": "1db726d90ed95b9fdf68c680f6cbf755", "fusion_lon": 0.0, "rental_uris": {"android": "https://dc.lft.to/lastmile_qr_scan", "ios": "https://dc.lft.to/lastmile_qr_scan"}, "name": "1db726d90ed95b9fdf68c680f6cbf755", "type": "electric_bike", "lat": 38.942002, "is_disabled": 0}, {"fusion_lat": 0.0, "lon": -77.0470745, "is_reserved": 0, "bike_id": "d6acb6e51ac164e02fffed7acd2f59ee", "fusion_lon": 0.0, "rental_uris": {"android": "https://dc.lft.to/lastmile_qr_scan", "ios": "https://dc.lft.to/lastmile_qr_scan"}, "name": "d6acb6e51ac164e02fffed7acd2f59ee", "type": "electric_scooter", "lat": 38.921984, "is_disabled": 0}, {"fusion_lat": 0.0, "lon": -77.00329066666667, "is_reserved": 0, "bike_id": "4a3fa06672103b10dcabb15a2566cbd4", "fusion_lon": 0.0, "rental_uris": {"android": "https://dc.lft.to/lastmile_qr_scan", "ios": "https://dc.lft.to/lastmile_qr_scan"}, "name": "4a3fa06672103b10dcabb15a2566cbd4", "type": "electric_scooter", "lat": 38.88987816666667, "is_disabled": 0}, {"fusion_lat": 0.0, "lon": -77.05016733333333, "is_reserved": 0, "bike_id": "379561d1ab0d0ddd3e2c09dc76c8e75c", "fusion_lon": 0.0, "rental_uris": {"android": "https://dc.lft.to/lastmile_qr_scan", "ios": "https://dc.lft.to/lastmile_qr_scan"}, "name": "379561d1ab0d0ddd3e2c09dc76c8e75c", "type": "electric_scooter", "lat": 38.92352616666667, "is_disabled": 0}, {"fusion_lat": 0.0, "lon": -77.0486645, "is_reserved": 0, "bike_id": "297eaeae0a1c8ec54cb0d03179572cd5", "fusion_lon": 0.0, "rental_uris": {"android": "https://dc.lft.to/lastmile_qr_scan", "ios": "https://dc.lft.to/lastmile_qr_scan"}, "name": "297eaeae0a1c8ec54cb0d03179572cd5", "type": "electric_scooter", "lat": 38.9012315, "is_disabled": 0}, {"fusion_lat": 0.0, "lon": -77.019762, "is_reserved": 0, "bike_id": "bda856f0bf00094be149667b70e03380", "fusion_lon": 0.0, "rental_uris": {"android": "https://dc.lft.to/lastmile_qr_scan", "ios": "https://dc.lft.to/lastmile_qr_scan"}, "name": "bda856f0bf00094be149667b70e03380", "type": "electric_scooter", "lat": 38.912729666666664, "is_disabled": 0}, {"fusion_lat": 0.0, "lon": -77.0197845, "is_reserved": 0, "bike_id": "e1cf0ca2c5d42c7467d35d90068c01f0", "fusion_lon": 0.0, "rental_uris": {"android": "https://dc.lft.to/lastmile_qr_scan", "ios": "https://dc.lft.to/lastmile_qr_scan"}, "name": "e1cf0ca2c5d42c7467d35d90068c01f0", "type": "electric_scooter", "lat": 38.9109855, "is_disabled": 0}, {"fusion_lat": 0.0, "lon": -77.01022033333334, "is_reserved": 0, "bike_id": "1fc9846f4069735d300c506200219505", "fusion_lon": 0.0, "rental_uris": {"android": "https://dc.lft.to/lastmile_qr_scan", "ios": "https://dc.lft.to/lastmile_qr_scan"}, "name": "1fc9846f4069735d300c506200219505", "type": "electric_scooter", "lat": 38.9191175, "is_disabled": 0}, {"fusion_lat": 0.0, "lon": -76.98090583333334, "is_reserved": 0, "bike_id": "bfec1fbb13bdc6f88ad9c8fcc2fa8b2f", "fusion_lon": 0.0, "rental_uris": {"android": "https://dc.lft.to/lastmile_qr_scan", "ios": "https://dc.lft.to/lastmile_qr_scan"}, "name": "bfec1fbb13bdc6f88ad9c8fcc2fa8b2f", "type": "electric_bike", "lat": 38.9535575, "is_disabled": 0}, {"fusion_lat": 0.0, "lon": -77.023958, "is_reserved": 0, "bike_id": "234df175c02fecef2e5310e9355d0617", "fusion_lon": 0.0, "rental_uris": {"android": "https://dc.lft.to/lastmile_qr_scan", "ios": "https://dc.lft.to/lastmile_qr_scan"}, "name": "234df175c02fecef2e5310e9355d0617", "type": "electric_scooter", "lat": 38.919934833333336, "is_disabled": 0}, {"fusion_lat": 0.0, "lon": -77.02614366666667, "is_reserved": 0, "bike_id": "b8a57b130b140d7957fdff8e4b3698a2", "fusion_lon": 0.0, "rental_uris": {"android": "https://dc.lft.to/lastmile_qr_scan", "ios": "https://dc.lft.to/lastmile_qr_scan"}, "name": "b8a57b130b140d7957fdff8e4b3698a2", "type": "electric_scooter", "lat": 38.908636333333334, "is_disabled": 0}, {"fusion_lat": 0.0, "lon": -77.03133, "is_reserved": 0, "bike_id": "1c4ebf0a764e99a961e325af644fb17c", "fusion_lon": 0.0, "rental_uris": {"android": "https://dc.lft.to/lastmile_qr_scan", "ios": "https://dc.lft.to/lastmile_qr_scan"}, "name": "1c4ebf0a764e99a961e325af644fb17c", "type": "electric_scooter", "lat": 38.9256905, "is_disabled": 0}, {"fusion_lat": 0.0, "lon": -77.03512816666667, "is_reserved": 0, "bike_id": "fe281ad59d1bab666b117ab65024a12f", "fusion_lon": 0.0, "rental_uris": {"android": "https://dc.lft.to/lastmile_qr_scan", "ios": "https://dc.lft.to/lastmile_qr_scan"}, "name": "fe281ad59d1bab666b117ab65024a12f", "type": "electric_scooter", "lat": 38.92154933333333, "is_disabled": 0}, {"fusion_lat": 0.0, "lon": -77.01354466666666, "is_reserved": 0, "bike_id": "fedfdfd42fa46fd668404de9e456439d", "fusion_lon": 0.0, "rental_uris": {"android": "https://dc.lft.to/lastmile_qr_scan", "ios": "https://dc.lft.to/lastmile_qr_scan"}, "name": "fedfdfd42fa46fd668404de9e456439d", "type": "electric_scooter", "lat": 38.869732666666664, "is_disabled": 0}, {"fusion_lat": 0.0, "lon": -77.02154316666666, "is_reserved": 0, "bike_id": "c1952a8ecf0466cc8c966d39af8af786", "fusion_lon": 0.0, "rental_uris": {"android": "https://dc.lft.to/lastmile_qr_scan", "ios": "https://dc.lft.to/lastmile_qr_scan"}, "name": "c1952a8ecf0466cc8c966d39af8af786", "type": "electric_scooter", "lat": 38.926137, "is_disabled": 0}, {"fusion_lat": 0.0, "lon": -77.04876916666667, "is_reserved": 0, "bike_id": "b7de4930f1635d0c3db946106142e02e", "fusion_lon": 0.0, "rental_uris": {"android": "https://dc.lft.to/lastmile_qr_scan", "ios": "https://dc.lft.to/lastmile_qr_scan"}, "name": "b7de4930f1635d0c3db946106142e02e", "type": "electric_scooter", "lat": 38.909780833333336, "is_disabled": 0}, {"fusion_lat": 0.0, "lon": -77.02543233333333, "is_reserved": 0, "bike_id": "72b518b2bbdfe3fe611e91de3db63412", "fusion_lon": 0.0, "rental_uris": {"android": "https://dc.lft.to/lastmile_qr_scan", "ios": "https://dc.lft.to/lastmile_qr_scan"}, "name": "72b518b2bbdfe3fe611e91de3db63412", "type": "electric_scooter", "lat": 38.907189833333334, "is_disabled": 0}, {"fusion_lat": 0.0, "lon": -76.93126633333333, "is_reserved": 0, "bike_id": "63f1dad94a82cc558bcbccaf73218ea4", "fusion_lon": 0.0, "rental_uris": {"android": "https://dc.lft.to/lastmile_qr_scan", "ios": "https://dc.lft.to/lastmile_qr_scan"}, "name": "63f1dad94a82cc558bcbccaf73218ea4", "type": "electric_scooter", "lat": 38.87610633333333, "is_disabled": 0}, {"fusion_lat": 0.0, "lon": -76.99545283333333, "is_reserved": 0, "bike_id": "1a51d0a8dfe68003515dadc1a0cffc30", "fusion_lon": 0.0, "rental_uris": {"android": "https://dc.lft.to/lastmile_qr_scan", "ios": "https://dc.lft.to/lastmile_qr_scan"}, "name": "1a51d0a8dfe68003515dadc1a0cffc30", "type": "electric_scooter", "lat": 38.86260683333333, "is_disabled": 0}, {"fusion_lat": 0.0, "lon": -77.02361583333334, "is_reserved": 0, "bike_id": "79dd17e1527f7068bcf21bdffc9df828", "fusion_lon": 0.0, "rental_uris": {"android": "https://dc.lft.to/lastmile_qr_scan", "ios": "https://dc.lft.to/lastmile_qr_scan"}, "name": "79dd17e1527f7068bcf21bdffc9df828", "type": "electric_scooter", "lat": 38.89218916666667, "is_disabled": 0}, {"fusion_lat": 0.0, "lon": -77.03912783333334, "is_reserved": 0, "bike_id": "bfd2c50cbff2a0e1a46690a4da79c36e", "fusion_lon": 0.0, "rental_uris": {"android": "https://dc.lft.to/lastmile_qr_scan", "ios": "https://dc.lft.to/lastmile_qr_scan"}, "name": "bfd2c50cbff2a0e1a46690a4da79c36e", "type": "electric_scooter", "lat": 38.9231415, "is_disabled": 0}, {"fusion_lat": 0.0, "lon": -76.99533033333333, "is_reserved": 0, "bike_id": "3d6a04964e259f0deae7aaea42a4b664", "fusion_lon": 0.0, "rental_uris": {"android": "https://dc.lft.to/lastmile_qr_scan", "ios": "https://dc.lft.to/lastmile_qr_scan"}, "name": "3d6a04964e259f0deae7aaea42a4b664", "type": "electric_scooter", "lat": 38.92669766666667, "is_disabled": 0}, {"fusion_lat": 0.0, "lon": -76.939807, "is_reserved": 0, "bike_id": "75f649d701cc473d6d0325b8efa57292", "fusion_lon": 0.0, "rental_uris": {"android": "https://dc.lft.to/lastmile_qr_scan", "ios": "https://dc.lft.to/lastmile_qr_scan"}, "name": "75f649d701cc473d6d0325b8efa57292", "type": "electric_scooter", "lat": 38.899770333333336, "is_disabled": 0}, {"fusion_lat": 0.0, "lon": -76.9452975, "is_reserved": 0, "bike_id": "f15cfdac35fd6eaaef676b253d1c7376", "fusion_lon": 0.0, "rental_uris": {"android": "https://dc.lft.to/lastmile_qr_scan", "ios": "https://dc.lft.to/lastmile_qr_scan"}, "name": "f15cfdac35fd6eaaef676b253d1c7376", "type": "electric_bike", "lat": 38.8675575, "is_disabled": 0}, {"fusion_lat": 0.0, "lon": -77.03665483333333, "is_reserved": 0, "bike_id": "d4f4bea44b56f28da9a574fc6ff538a6", "fusion_lon": 0.0, "rental_uris": {"android": "https://dc.lft.to/lastmile_qr_scan", "ios": "https://dc.lft.to/lastmile_qr_scan"}, "name": "d4f4bea44b56f28da9a574fc6ff538a6", "type": "electric_scooter", "lat": 38.923207166666664, "is_disabled": 0}, {"fusion_lat": 0.0, "lon": -77.03840983333333, "is_reserved": 0, "bike_id": "c1160f652a452d939b6960e0852fa3e4", "fusion_lon": 0.0, "rental_uris": {"android": "https://dc.lft.to/lastmile_qr_scan", "ios": "https://dc.lft.to/lastmile_qr_scan"}, "name": "c1160f652a452d939b6960e0852fa3e4", "type": "electric_scooter", "lat": 38.9164185, "is_disabled": 0}, {"fusion_lat": 0.0, "lon": -77.03633983333333, "is_reserved": 0, "bike_id": "0a6a8ae9f78cd8188980dda23678202b", "fusion_lon": 0.0, "rental_uris": {"android": "https://dc.lft.to/lastmile_qr_scan", "ios": "https://dc.lft.to/lastmile_qr_scan"}, "name": "0a6a8ae9f78cd8188980dda23678202b", "type": "electric_scooter", "lat": 38.93674983333333, "is_disabled": 0}, {"fusion_lat": 0.0, "lon": -77.00033733333333, "is_reserved": 0, "bike_id": "a729262f18f9b7a5e2c9019b7094bef7", "fusion_lon": 0.0, "rental_uris": {"android": "https://dc.lft.to/lastmile_qr_scan", "ios": "https://dc.lft.to/lastmile_qr_scan"}, "name": "a729262f18f9b7a5e2c9019b7094bef7", "type": "electric_scooter", "lat": 38.89742433333333, "is_disabled": 0}, {"fusion_lat": 0.0, "lon": -77.0367055, "is_reserved": 0, "bike_id": "fd76d27c2baf0fb674afd57a83c3d4d0", "fusion_lon": 0.0, "rental_uris": {"android": "https://dc.lft.to/lastmile_qr_scan", "ios": "https://dc.lft.to/lastmile_qr_scan"}, "name": "fd76d27c2baf0fb674afd57a83c3d4d0", "type": "electric_scooter", "lat": 38.92029866666667, "is_disabled": 0}, {"fusion_lat": 0.0, "lon": -77.1831475, "is_reserved": 0, "bike_id": "c41012c41b02f9d07a5a5a0bb1f00a8f", "fusion_lon": 0.0, "rental_uris": {"android": "https://dc.lft.to/lastmile_qr_scan", "ios": "https://dc.lft.to/lastmile_qr_scan"}, "name": "c41012c41b02f9d07a5a5a0bb1f00a8f", "type": "electric_bike", "lat": 38.890873166666665, "is_disabled": 0}, {"fusion_lat": 0.0, "lon": -77.02368283333334, "is_reserved": 0, "bike_id": "9d821e3d9968452ac63a9afee4c701ac", "fusion_lon": 0.0, "rental_uris": {"android": "https://dc.lft.to/lastmile_qr_scan", "ios": "https://dc.lft.to/lastmile_qr_scan"}, "name": "9d821e3d9968452ac63a9afee4c701ac", "type": "electric_scooter", "lat": 38.897683666666666, "is_disabled": 0}, {"fusion_lat": 0.0, "lon": -76.98660416666667, "is_reserved": 0, "bike_id": "8816309f35f5599e2e2eef685052d325", "fusion_lon": 0.0, "rental_uris": {"android": "https://dc.lft.to/lastmile_qr_scan", "ios": "https://dc.lft.to/lastmile_qr_scan"}, "name": "8816309f35f5599e2e2eef685052d325", "type": "electric_scooter", "lat": 38.86735983333333, "is_disabled": 0}, {"fusion_lat": 0.0, "lon": -76.95468466666667, "is_reserved": 0, "bike_id": "4225ab77ee333188d24a01058e897ebf", "fusion_lon": 0.0, "rental_uris": {"android": "https://dc.lft.to/lastmile_qr_scan", "ios": "https://dc.lft.to/lastmile_qr_scan"}, "name": "4225ab77ee333188d24a01058e897ebf", "type": "electric_scooter", "lat": 38.88641766666667, "is_disabled": 0},