{"data": {"bikes": [{"type": "electric_scooter", "name": "0d0b2066bd9359d942d260a01dc86d9e", "fusion_lon": 0.0, "is_reserved": 0, "lon": -77.03185066666667, "fusion_lat": 0.0, "is_disabled": 0, "bike_id": "0d0b2066bd9359d942d260a01dc86d9e", "lat": 38.92028366666667, "rental_uris": {"ios": "https://dc.lft.to/lastmile_qr_scan", "android": "https://dc.lft.to/lastmile_qr_scan"}}, {"type": "electric_scooter", "name": "5425c9050ae0ab2239b0ee8e86c21954", "fusion_lon": 0.0, "is_reserved": 0, "lon": -77.04208583333333, "fusion_lat": 0.0, "is_disabled": 0, "bike_id": "5425c9050ae0ab2239b0ee8e86c21954", "lat": 38.920602833333334, "rental_uris": {"ios": "https://dc.lft.to/lastmile_qr_scan", "android": "https://dc.lft.to/lastmile_qr_scan"}}, {"type": "electric_scooter", "name": "0241650cb125844d67ac89a64a49c572", "fusion_lon": 0.0, "is_reserved": 0, "lon": -76.9863, "fusion_lat": 0.0, "is_disabled": 0, "bike_id": "0241650cb125844d67ac89a64a49c572", "lat": 38.90737333333333, "rental_uris": {"ios": "https://dc.lft.to/lastmile_qr_scan", "android": "https://dc.lft.to/lastmile_qr_scan"}}, {"type": "electric_scooter", "name": "03295adf7f433bfa6f3d37e6330db91a", "fusion_lon": 0.0, "is_reserved": 0, "lon": -77.002437, "fusion_lat": 0.0, "is_disabled": 0, "bike_id": "03295adf7f433bfa6f3d37e6330db91a", "lat": 38.87611666666667, "rental_uris": {"ios": "https://dc.lft.to/lastmile_qr_scan", "android": "https://dc.lft.to/lastmile_qr_scan"}}, {"type": "electric_scooter", "name": "9b9bf042daa17a7813705f71e25434fd", "fusion_lon": 0.0, "is_reserved": 0, "lon": -77.04252616666666, "fusion_lat": 0.0, "is_disabled": 0, "bike_id": "9b9bf042daa17a7813705f71e25434fd", "lat": 38.922367333333334, "rental_uris": {"ios": "https://dc.lft.to/lastmile_qr_scan", "android": "https://dc.lft.to/lastmile_qr_scan"}}, {"type": "electric_scooter", "name": "da44775a6032ff7cf12012f14db726ff", "fusion_lon": 0.0, "is_reserved": 0, "lon": -77.05053666666667, "fusion_lat": 0.0, "is_disabled": 0, "bike_id": "da44775a6032ff7cf12012f14db726ff", "lat": 38.90304966666667, "rental_uris": {"ios": "https://dc.lft.to/lastmile_qr_scan", "android": "https://dc.lft.to/lastmile_qr_scan"}}, {"type": "electric_scooter", "name": "6d3ce1bd2d787b5254174f73d85f5087", "fusion_lon": 0.0, "is_reserved": 0, "lon": -77.0251295, "fusion_lat": 0.0, "is_disabled": 0, "bike_id": "6d3ce1bd2d787b5254174f73d85f5087", "lat": 38.921394666666664, "rental_uris": {"ios": "https://dc.lft.to/lastmile_qr_scan", "android": "https://dc.lft.to/lastmile_qr_scan"}}, {"type": "electric_scooter", "name": "63b97ee5fcb99d1018ae671591b21c42", "fusion_lon": 0.0, "is_reserved": 0, "lon": -77.04256783333334, "fusion_lat": 0.0, "is_disabled": 0, "bike_id": "63b97ee5fcb99d1018ae671591b21c42", "lat": 38.903868833333334, "rental_uris": {"ios": "https://dc.lft.to/lastmile_qr_scan", "android": "https://dc.lft.to/lastmile_qr_scan"}}, {"type": "electric_scooter", "name": "d586fd0661e81c92fa5eecf1891e5d96", "fusion_lon": 0.0, "is_reserved": 0, "lon": -76.9764145, "fusion_lat": 0.0, "is_disabled": 0, "bike_id": "d586fd0661e81c92fa5eecf1891e5d96", "lat": 38.90094066666666, "rental_uris": {"ios": "https://dc.lft.to/lastmile_qr_scan", "android": "https://dc.lft.to/lastmile_qr_scan"}}, {"type": "electric_scooter", "name": "10d0ba3cadcc1069fb2e35c5eeef4b25", "fusion_lon": 0.0, "is_reserved": 0, "lon": -77.00337233333333, "fusion_lat": 0.0, "is_disabled": 0, "bike_id": "10d0ba3cadcc1069fb2e35c5eeef4b25", "lat": 38.89524133333333, "rental_uris": {"ios": "https://dc.lft.to/lastmile_qr_scan", "android": "https://dc.lft.to/lastmile_qr_scan"}}, {"type": "electric_scooter", "name": "9a724cc9a029330c3daf75e0ae0bb982", "fusion_lon": 0.0, "is_reserved": 0, "lon": -77.026992, "fusion_lat": 0.0, "is_disabled": 0, "bike_id": "9a724cc9a029330c3daf75e0ae0bb982", "lat": 38.92404066666667, "rental_uris": {"ios": "https://dc.lft.to/lastmile_qr_scan", "android": "https://dc.lft.to/lastmile_qr_scan"}}, {"type": "electric_scooter", "name": "51ea8e23c97f2e7eda3ae725f0bcb843", "fusion_lon": 0.0, "is_reserved": 0, "lon": -77.01227116666666, "fusion_lat": 0.0, "is_disabled": 0, "bike_id": "51ea8e23c97f2e7eda3ae725f0bcb843", "lat": 38.89343133333333, "rental_uris": {"ios": "https://dc.lft.to/lastmile_qr_scan", "android": "https://dc.lft.to/lastmile_qr_scan"}}, {"type": "electric_scooter", "name": "eefc21b8bd5a68d070a6a3c9429b05f4", "fusion_lon": 0.0, "is_reserved": 0, "lon": -76.93365083333333, "fusion_lat": 0.0, "is_disabled": 0, "bike_id": "eefc21b8bd5a68d070a6a3c9429b05f4", "lat": 38.899146333333334, "rental_uris": {"ios": "https://dc.lft.to/lastmile_qr_scan", "android": "https://dc.lft.to/lastmile_qr_scan"}}, {"type": "electric_scooter", "name": "b062c537a36a2eeada780abedfc4c442", "fusion_lon": 0.0, "is_reserved": 0, "lon": -77.02387383333334, "fusion_lat": 0.0, "is_disabled": 0, "bike_id": "b062c537a36a2eeada780abedfc4c442", "lat": 38.91569783333333, "rental_uris": {"ios": "https://dc.lft.to/lastmile_qr_scan", "android": "https://dc.lft.to/lastmile_qr_scan"}}, {"type": "electric_scooter", "name": "47bd6f202e7abd2151f50b5be013e4f9", "fusion_lon": 0.0, "is_reserved": 0, "lon": -77.00319666666667, "fusion_lat": 0.0, "is_disabled": 0, "bike_id": "47bd6f202e7abd2151f50b5be013e4f9", "lat": 38.90933533333333, "rental_uris": {"ios": "https://dc.lft.to/lastmile_qr_scan", "android": "https://dc.lft.to/lastmile_qr_scan"}}, {"type": "electric_bike", "name": "5dc88ff047bd269f956cafed720467ea", "fusion_lon": 0.0, "is_reserved": 0, "lon": -77.0128025, "fusion_lat": 0.0, "is_disabled": 0, "bike_id": "5dc88ff047bd269f956cafed720467ea", "lat": 38.9565165, "rental_uris": {"ios": "https://dc.lft.to/lastmile_qr_scan", "android": "https://dc.lft.to/lastmile_qr_scan"}}, {"type": "electric_scooter", "name": "7793128b7b445c5bfb2efe5011df12bd", "fusion_lon": 0.0, "is_reserved": 0, "lon": -76.98886683333333, "fusion_lat": 0.0, "is_disabled": 0, "bike_id": "7793128b7b445c5bfb2efe5011df12bd", "lat": 38.86653166666667, "rental_uris": {"ios": "https://dc.lft.to/lastmile_qr_scan", "android": "https://dc.lft.to/lastmile_qr_scan"}}, {"type": "electric_scooter", "name": "be53b5ce7b2fd63ace5a387db089a6e1", "fusion_lon": 0.0, "is_reserved": 0, "lon": -77.02489483333333, "fusion_lat": 0.0, "is_disabled": 0, "bike_id": "be53b5ce7b2fd63ace5a387db089a6e1", "lat": 38.91945, "rental_uris": {"ios": "https://dc.lft.to/lastmile_qr_scan", "android": "https://dc.lft.to/lastmile_qr_scan"}}, {"type": "electric_scooter", "name": "611117398171cd4f72ae95051741b757", "fusion_lon": 0.0, "is_reserved": 0, "lon": -77.03095316666666, "fusion_lat": 0.0, "is_disabled": 0, "bike_id": "611117398171cd4f72ae95051741b757", "lat": 38.90760366666667, "rental_uris": {"ios": "https://dc.lft.to/lastmile_qr_scan", "android": "https://dc.lft.to/lastmile_qr_scan"}}, {"type": "electric_scooter", "name": "aff33b2c879a236dc22c11b1163917de", "fusion_lon": 0.0, "is_reserved": 0, "lon": -77.02671183333334, "fusion_lat": 0.0, "is_disabled": 0, "bike_id": "aff33b2c879a236dc22c11b1163917de", "lat": 38.9023705, "rental_uris": {"ios": "https://dc.lft.to/lastmile_qr_scan", "android": "https://dc.lft.to/lastmile_qr_scan"}}, {"type": "electric_scooter", "name": "52a23db905c93d0b55a7fc8f72b9eaf3", "fusion_lon": 0.0, "is_reserved": 0, "lon": -77.03691583333334, "fusion_lat": 0.0, "is_disabled": 0, "bike_id": "52a23db905c93d0b55a7fc8f72b9eaf3", "lat": 38.91811366666667, "rental_uris": {"ios": "https://dc.lft.to/lastmile_qr_scan", "android": "https://dc.lft.to/lastmile_qr_scan"}}, {"type": "electric_scooter", "name": "4ba0b910e64980a9873fa74ec91242df", "fusion_lon": 0.0, "is_reserved": 0, "lon": -77.0156015, "fusion_lat": 0.0, "is_disabled": 0, "bike_id": "4ba0b910e64980a9873fa74ec91242df", "lat": 38.8935975, "rental_uris": {"ios": "https://dc.lft.to/lastmile_qr_scan", "android": "https://dc.lft.to/lastmile_qr_scan"}}, {"type": "electric_scooter", "name": "92d176fdf97f43f86e5b3fc034d2e2ab", "fusion_lon": 0.0, "is_reserved": 0, "lon": -77.03777566666666, "fusion_lat": 0.0, "is_disabled": 0, "bike_id": "92d176fdf97f43f86e5b3fc034d2e2ab", "lat": 38.90451683333333, "rental_uris": {"ios": "https://dc.lft.to/lastmile_qr_scan", "android": "https://dc.lft.to/lastmile_qr_scan"}}, {"type": "electric_scooter", "name": "d289e336897f37378dc99f4c0e224af5", "fusion_lon": 0.0, "is_reserved": 0, "lon": -77.04007633333333, "fusion_lat": 0.0, "is_disabled": 0, "bike_id": "d289e336897f37378dc99f4c0e224af5", "lat": 38.901348666666664, "rental_uris": {"ios": "https://dc.lft.to/lastmile_qr_scan", "android": "https://dc.lft.to/lastmile_qr_scan"}}, {"type": "electric_bike", "name": "ededce9fce3fba2f6417036269023cdc", "fusion_lon": 0.0, "is_reserved": 0, "lon": -77.04387933333334, "fusion_lat": 0.0, "is_disabled": 0, "bike_id": "ededce9fce3fba2f6417036269023cdc", "lat": 39.04717516666667, "rental_uris": {"ios": "https://dc.lft.to/lastmile_qr_scan", "android": "https://dc.lft.to/lastmile_qr_scan"}}, {"type": "electric_scooter", "name": "244dd6b1b3c1e796bc7bfd7a1fb1b190", "fusion_lon": 0.0, "is_reserved": 0, "lon": -77.01527433333334, "fusion_lat": 0.0, "is_disabled": 0, "bike_id": "244dd6b1b3c1e796bc7bfd7a1fb1b190", "lat": 38.90053366666667, "rental_uris": {"ios": "https://dc.lft.to/lastmile_qr_scan", "android": "https://dc.lft.to/lastmile_qr_scan"}}, {"type": "electric_scooter", "name": "0ea6c2731f309fd794883f7dbd85aeef", "fusion_lon": 0.0, "is_reserved": 0, "lon": -77.005419, "fusion_lat": 0.0, "is_disabled": 0, "bike_id": "0ea6c2731f309fd794883f7dbd85aeef", "lat": 38.87459166666667, "rental_uris": {"ios": "https://dc.lft.to/lastmile_qr_scan", "android": "https://dc.lft.to/lastmile_qr_scan"}}, {"type": "electric_scooter", "name": "b9af01cfaeb632055704c12f75ed2279", "fusion_lon": 0.0, "is_reserved": 0, "lon": -77.032122, "fusion_lat": 0.0, "is_disabled": 0, "bike_id": "b9af01cfaeb632055704c12f75ed2279", "lat": 38.9199495, "rental_uris": {"ios": "https://dc.lft.to/lastmile_qr_scan", "android": "https://dc.lft.to/lastmile_qr_scan"}}, {"type": "electric_scooter", "name": "eedaed8ff61d48769c26c7265eb9befd", "fusion_lon": 0.0, "is_reserved": 0, "lon": -77.00880166666667, "fusion_lat": 0.0, "is_disabled": 0, "bike_id": "eedaed8ff61d48769c26c7265eb9befd", "lat": 38.92241716666667, "rental_uris": {"ios": "https://dc.lft.to/lastmile_qr_scan", "android": "https://dc.lft.to/lastmile_qr_scan"}}, {"type": "electric_scooter", "name": "3884e12f2fe04ca00b8618b9a181b6a3", "fusion_lon": 0.0, "is_reserved": 0, "lon": -77.03823083333333, "fusion_lat": 0.0, "is_disabled": 0, "bike_id": "3884e12f2fe04ca00b8618b9a181b6a3", "lat": 38.90775583333333, "rental_uris": {"ios": "https://dc.lft.to/lastmile_qr_scan", "android": "https://dc.lft.to/lastmile_qr_scan"}}, {"type": "electric_scooter", "name": "160106670f521b482e20055ce95da454", "fusion_lon": 0.0, "is_reserved": 0, "lon": -77.0428195, "fusion_lat": 0.0, "is_disabled": 0, "bike_id": "160106670f521b482e20055ce95da454", "lat": 38.92291316666667, "rental_uris": {"ios": "https://dc.lft.to/lastmile_qr_scan", "android": "https://dc.lft.to/lastmile_qr_scan"}}, {"type": "electric_scooter", "name": "f39e08cd4bdcc68b66baa2a851641ef0", "fusion_lon": 0.0, "is_reserved": 0, "lon": -77.03206133333333, "fusion_lat": 0.0, "is_disabled": 0, "bike_id": "f39e08cd4bdcc68b66baa2a851641ef0", "lat": 38.921730833333335, "rental_uris": {"ios": "https://dc.lft.to/lastmile_qr_scan", "android": "https://dc.lft.to/lastmile_qr_scan"}}, {"type": "electric_scooter", "name": "5ed731856b180f76d305c6434ee12c52", "fusion_lon": 0.0, "is_reserved": 0, "lon": -77.0046255, "fusion_lat": 0.0, "is_disabled": 0, "bike_id": "5ed731856b180f76d305c6434ee12c52", "lat": 38.91200583333333, "rental_uris": {"ios": "https://dc.lft.to/lastmile_qr_scan", "android": "https://dc.lft.to/lastmile_qr_scan"}}, {"type": "electric_scooter", "name": "c2bde96709039da1300963fc43796e61", "fusion_lon": 0.0, "is_reserved": 0, "lon": -77.04040783333333, "fusion_lat": 0.0, "is_disabled": 0, "bike_id": "c2bde96709039da1300963fc43796e61", "lat": 38.903721833333336, "rental_uris": {"ios": "https://dc.lft.to/lastmile_qr_scan", "android": "https://dc.lft.to/lastmile_qr_scan"}}, {"type": "electric_scooter", "name": "3a7216f0b2378813a1ad4ddc3a2a0562", "fusion_lon": 0.0, "is_reserved": 0, "lon": -77.03336766666666, "fusion_lat": 0.0, "is_disabled": 0, "bike_id": "3a7216f0b2378813a1ad4ddc3a2a0562", "lat": 38.921145833333334, "rental_uris": {"ios": "https://dc.lft.to/lastmile_qr_scan", "android": "https://dc.lft.to/lastmile_qr_scan"}}, {"type": "electric_scooter", "name": "c4f1cb6b9d5ad91a2d21c775715da72d", "fusion_lon": 0.0, "is_reserved": 0, "lon": -77.01299166666666, "fusion_lat": 0.0, "is_disabled": 0, "bike_id": "c4f1cb6b9d5ad91a2d21c775715da72d", "lat": 38.929978, "rental_uris": {"ios": "https://dc.lft.to/lastmile_qr_scan", "android": "https://dc.lft.to/lastmile_qr_scan"}}, {"type": "electric_scooter", "name": "6e9a704e8b094b06f7f6398c2552b6c9", "fusion_lon": 0.0, "is_reserved": 0, "lon": -77.05076016666666, "fusion_lat": 0.0, "is_disabled": 0, "bike_id": "6e9a704e8b094b06f7f6398c2552b6c9", "lat": 38.923606666666664, "rental_uris": {"ios": "https://dc.lft.to/lastmile_qr_scan", "android": "https://dc.lft.to/lastmile_qr_scan"}}, {"type": "electric_scooter", "name": "d288f3f10ed1828a4d66173038b0e491", "fusion_lon": 0.0, "is_reserved": 0, "lon": -77.032158, "fusion_lat": 0.0, "is_disabled": 0, "bike_id": "d288f3f10ed1828a4d66173038b0e491", "lat": 38.91795916666667, "rental_uris": {"ios": "https://dc.lft.to/lastmile_qr_scan", "android": "https://dc.lft.to/lastmile_qr_scan"}}, {"type": "electric_scooter", "name": "847f0e0decf43aead3112e7bb071b676", "fusion_lon": 0.0, "is_reserved": 0, "lon": -77.03761183333333, "fusion_lat": 0.0, "is_disabled": 0, "bike_id": "847f0e0decf43aead3112e7bb071b676", "lat": 38.908581166666664, "rental_uris": {"ios": "https://dc.lft.to/lastmile_qr_scan", "android": "https://dc.lft.to/lastmile_qr_scan"}}, {"type": "electric_scooter", "name": "98b5c34cdee0b195fdffb3e3aa7dc9ca", "fusion_lon": 0.0, "is_reserved": 0, "lon": -77.02404583333333, "fusion_lat": 0.0, "is_disabled": 0, "bike_id": "98b5c34cdee0b195fdffb3e3aa7dc9ca", "lat": 38.893723666666666, "rental_uris": {"ios": "https://dc.lft.to/lastmile_qr_scan", "android": "https://dc.lft.to/lastmile_qr_scan"}}, {"type": "electric_scooter", "name": "3e58230187c1a818e5edd840428cd1f5", "fusion_lon": 0.0, "is_reserved": 0, "lon": -77.04372783333334, "fusion_lat": 0.0, "is_disabled": 0, "bike_id": "3e58230187c1a818e5edd840428cd1f5", "lat": 38.89224333333333, "rental_uris": {"ios": "https://dc.lft.to/lastmile_qr_scan", "android": "https://dc.lft.to/lastmile_qr_scan"}}, {"type": "electric_scooter", "name": "227e0c3614cedd525af9976bfe1689bd", "fusion_lon": 0.0, "is_reserved": 0, "lon": -77.02384766666667, "fusion_lat": 0.0, "is_disabled": 0, "bike_id": "227e0c3614cedd525af9976bfe1689bd", "lat": 38.917527, "rental_uris": {"ios": "https://dc.lft.to/lastmile_qr_scan", "android": "https://dc.lft.to/lastmile_qr_scan"}}, {"type": "electric_bike", "name": "31d4b51e4d22888e52509045380ef757", "fusion_lon": 0.0, "is_reserved": 0, "lon": -77.095239, "fusion_lat": 0.0, "is_disabled": 0, "bike_id": "31d4b51e4d22888e52509045380ef757", "lat": 38.83811466666667, "rental_uris": {"ios": "https://dc.lft.to/lastmile_qr_scan", "android": "https://dc.lft.to/lastmile_qr_scan"}}, {"type": "electric_scooter", "name": "ad16c053ada187d920ced25964899e48", "fusion_lon": 0.0, "is_reserved": 0, "lon": -77.02777933333333, "fusion_lat": 0.0, "is_disabled": 0, "bike_id": "ad16c053ada187d920ced25964899e48", "lat": 38.95529233333333, "rental_uris": {"ios": "https://dc.lft.to/lastmile_qr_scan", "android": "https://dc.lft.to/lastmile_qr_scan"}}, {"type": "electric_scooter", "name": "0faf157ab25a0a058d99672a89d44813", "fusion_lon": 0.0, "is_reserved": 0, "lon": -77.01684016666667, "fusion_lat": 0.0, "is_disabled": 0, "bike_id": "0faf157ab25a0a058d99672a89d44813", "lat": 38.97121933333333, "rental_uris": {"ios": "https://dc.lft.to/lastmile_qr_scan", "android": "https://dc.lft.to/lastmile_qr_scan"}}, {"type": "electric_scooter", "name": "ccb7fd7b03d1a4ae6e112fb48e08e319", "fusion_lon": 0.0, "is_reserved": 0, "lon": -77.0326105, "fusion_lat": 0.0, "is_disabled": 0, "bike_id": "ccb7fd7b03d1a4ae6e112fb48e08e319", "lat": 38.9377245, "rental_uris": {"ios": "https://dc.lft.to/lastmile_qr_scan", "android": "https://dc.lft.to/lastmile_qr_scan"}}, {"type": "electric_scooter", "name": "6067a99aaed6427241cd0bfc2a805e37", "fusion_lon": 0.0, "is_reserved": 0, "lon": -77.03054833333333, "fusion_lat": 0.0, "is_disabled": 0, "bike_id": "6067a99aaed6427241cd0bfc2a805e37", "lat": 38.9277605, "rental_uris": {"ios": "https://dc.lft.to/lastmile_qr_scan", "android": "https://dc.lft.to/lastmile_qr_scan"}}, {"type": "electric_scooter", "name": "ef20ff0b8086c126273a1ee046b8f8b2", "fusion_lon": 0.0, "is_reserved": 0, "lon": -77.01718666666666, "fusion_lat": 0.0, "is_disabled": 0, "bike_id": "ef20ff0b8086c126273a1ee046b8f8b2", "lat": 38.8934535, "rental_uris": {"ios": "https://dc.lft.to/lastmile_qr_scan", "android": "https://dc.lft.to/lastmile_qr_scan"}}, {"type": "electric_scooter", "name": "13774792ace9806b2035407fccf2be64", "fusion_lon": 0.0, "is_reserved": 0, "lon": -76.97716333333334, "fusion_lat": 0.0, "is_disabled": 0, "bike_id": "13774792ace9806b2035407fccf2be64", "lat": 38.89888066666666, "rental_uris": {"ios": "https://dc.lft.to/lastmile_qr_scan", "android": "https://dc.lft.to/lastmile_qr_scan"}}, {"type": "electric_scooter", "name": "05e4de33dd9fb2447ff6b07f4efea094", "fusion_lon": 0.0, "is_reserved": 0, "lon": -77.06088066666666, "fusion_lat": 0.0, "is_disabled": 0, "bike_id": "05e4de33dd9fb2447ff6b07f4efea094", "lat": 38.930197, "rental_uris": {"ios": "https://dc.lft.to/lastmile_qr_scan", "android": "https://dc.lft.to/lastmile_qr_scan"}}, {"type": "electric_bike", "name": "1037c96852c057ab777eceef3680c9b2", "fusion_lon": 0.0, "is_reserved": 0, "lon": -76.98755033333333, "fusion_lat": 0.0, "is_disabled": 0, "bike_id": "1037c96852c057ab777eceef3680c9b2", "lat": 38.857682, "rental_uris": {"ios": "https://dc.lft.to/lastmile_qr_scan", "android": "https://dc.lft.to/lastmile_qr_scan"}}, {"type": "electric_scooter", "name": "f6dda3e6f28e1761c7d643f5cd6111e6", "fusion_lon": 0.0, "is_reserved": 0, "lon": -77.027286, "fusion_lat": 0.0, "is_disabled": 0, "bike_id": "f6dda3e6f28e1761c7d643f5cd6111e6", "lat": 38.9518025, "rental_uris": {"ios": "https://dc.lft.to/lastmile_qr_scan", "android": "https://dc.lft.to/lastmile_qr_scan"}}, {"type": "electric_scooter", "name": "d3ca36ff9ceb740043e31d3eee504f37", "fusion_lon": 0.0, "is_reserved": 0, "lon": -77.038437, "fusion_lat": 0.0, "is_disabled": 0, "bike_id": "d3ca36ff9ceb740043e31d3eee504f37", "lat": 38.906289666666666, "rental_uris": {"ios": "https://dc.lft.to/lastmile_qr_scan", "android": "https://dc.lft.to/lastmile_qr_scan"}}, {"type": "electric_bike", "name": "9338242c05e12be182066edf2622d0f5", "fusion_lon": 0.0, "is_reserved": 0, "lon": -77.11864166666666, "fusion_lat": 0.0, "is_disabled": 0, "bike_id": "9338242c05e12be182066edf2622d0f5", "lat": 38.858956, "rental_uris": {"ios": "https://dc.lft.to/lastmile_qr_scan", "android": "https://dc.lft.to/lastmile_qr_scan"}}, {"type": "electric_scooter", "name": "ef82c0e7ef95e2ea009692b378e4d126", "fusion_lon": 0.0, "is_reserved": 0, "lon": -77.03154683333334, "fusion_lat": 0.0, "is_disabled": 0, "bike_id": "ef82c0e7ef95e2ea009692b378e4d126", "lat": 38.911190833333336, "rental_uris": {"ios": "https://dc.lft.to/lastmile_qr_scan", "android": "https://dc.lft.to/lastmile_qr_scan"}}, {"type": "electric_scooter", "name": "45caf0a7b8b010341fd96c364e5cd2e0", "fusion_lon": 0.0, "is_reserved": 0, "lon": -77.03864533333333, "fusion_lat": 0.0, "is_disabled": 0, "bike_id": "45caf0a7b8b010341fd96c364e5cd2e0", "lat": 38.90793383333333, "rental_uris": {"ios": "https://dc.lft.to/lastmile_qr_scan", "android": "https://dc.lft.to/lastmile_qr_scan"}}, {"type": "electric_scooter", "name": "6187c3d09e63bcd322ce4f8de8bf33bb", "fusion_lon": 0.0, "is_reserved": 0, "lon": -76.99266683333333, "fusion_lat": 0.0, "is_disabled": 0, "bike_id": "6187c3d09e63bcd322ce4f8de8bf33bb", "lat": 38.90601616666667, "rental_uris": {"ios": "https://dc.lft.to/lastmile_qr_scan", "android": "https://dc.lft.to/lastmile_qr_scan"}}, {"type": "electric_scooter", "name": "5143d88ea8cc2e263530ece6a9b094cd", "fusion_lon": 0.0, "is_reserved": 0, "lon": -77.04190016666666, "fusion_lat": 0.0, "is_disabled": 0, "bike_id": "5143d88ea8cc2e263530ece6a9b094cd", "lat": 38.902799333333334, "rental_uris": {"ios": "https://dc.lft.to/lastmile_qr_scan", "android": "https://dc.lft.to/lastmile_qr_scan"}}, {"type": "electric_scooter", "name": "1675a32261e2d3f9c4eb82342a8674ec", "fusion_lon": 0.0, "is_reserved": 0, "lon": -77.03184133333333, "fusion_lat": 0.0, "is_disabled": 0, "bike_id": "1675a32261e2d3f9c4eb82342a8674ec", "lat": 38.892363833333334, "rental_uris": {"ios": "https://dc.lft.to/lastmile_qr_scan", "android": "https://dc.lft.to/lastmile_qr_scan"}}, {"type": "electric_scooter", "name": "8e7449eef5d903690b39cdcbece00a83", "fusion_lon": 0.0, "is_reserved": 0, "lon": -77.038174, "fusion_lat": 0.0, "is_disabled": 0, "bike_id": "8e7449eef5d903690b39cdcbece00a83", "lat": 38.907219, "rental_uris": {"ios": "https://dc.lft.to/lastmile_qr_scan", "android": "https://dc.lft.to/lastmile_qr_scan"}}, {"type": "electric_scooter", "name": "35c8360032ed40b6f19478497fd4d3f1", "fusion_lon": 0.0, "is_reserved": 0, "lon": -77.03320483333333, "fusion_lat": 0.0, "is_disabled": 0, "bike_id": "35c8360032ed40b6f19478497fd4d3f1", "lat": 38.945138666666665, "rental_uris": {"ios": "https://dc.lft.to/lastmile_qr_scan", "android": "https://dc.lft.to/lastmile_qr_scan"}}, {"type": "electric_bike", "name": "a91051821d90f9e27d854fbee5a3ffba", "fusion_lon": 0.0, "is_reserved": 0, "lon": -76.98750783333334, "fusion_lat": 0.0, "is_disabled": 0, "bike_id": "a91051821d90f9e27d854fbee5a3ffba", "lat": 38.94556733333334, "rental_uris": {"ios": "https://dc.lft.to/lastmile_qr_scan", "android": "https://dc.lft.to/lastmile_qr_scan"}}, {"type": "electric_scooter", "name": "619194908ff491cb2903b81758a7001b", "fusion_lon": 0.0, "is_reserved": 0, "lon": -77.03337966666666, "fusion_lat": 0.0, "is_disabled": 0, "bike_id": "619194908ff491cb2903b81758a7001b", "lat": 38.921609333333336, "rental_uris": {"ios": "https://dc.lft.to/lastmile_qr_scan", "android": "https://dc.lft.to/lastmile_qr_scan"}}, {"type": "electric_scooter", "name": "74c52e36d34dbc00fcd2be49cd9b6e20", "fusion_lon": 0.0, "is_reserved": 0, "lon": -77.03447633333333, "fusion_lat": 0.0, "is_disabled": 0, "bike_id": "74c52e36d34dbc00fcd2be49cd9b6e20", "lat": 38.90348816666667, "rental_uris": {"ios": "https://dc.lft.to/lastmile_qr_scan", "android": "https://dc.lft.to/lastmile_qr_scan"}}, {"type": "electric_scooter", "name": "31a66f6e1d0a0a054cfabc02ed35e01c", "fusion_lon": 0.0, "is_reserved": 0, "lon": -77.02062183333334, "fusion_lat": 0.0, "is_disabled": 0, "bike_id": "31a66f6e1d0a0a054cfabc02ed35e01c", "lat": 38.935346, "rental_uris": {"ios": "https://dc.lft.to/lastmile_qr_scan", "android": "https://dc.lft.to/lastmile_qr_scan"}}, {"type": "electric_scooter", "name": "aa5cca8faa3d93d90e3263f219242f00", "fusion_lon": 0.0, "is_reserved": 0, "lon": -76.98006166666667, "fusion_lat": 0.0, "is_disabled": 0, "bike_id": "aa5cca8faa3d93d90e3263f219242f00", "lat": 38.9044745, "rental_uris": {"ios": "https://dc.lft.to/lastmile_qr_scan", "android": "https://dc.lft.to/lastmile_qr_scan"}}, {"type": "electric_scooter", "name": "a5650224a3d1331fc754cc6d586e3e1d", "fusion_lon": 0.0, "is_reserved": 0, "lon": -77.03858983333333, "fusion_lat": 0.0, "is_disabled": 0, "bike_id": "a5650224a3d1331fc754cc6d586e3e1d", "lat": 38.90335433333333, "rental_uris": {"ios": "https://dc.lft.to/lastmile_qr_scan", "android": "https://dc.lft.to/lastmile_qr_scan"}}, {"type": "electric_scooter", "name": "9d2fcb8572ba98d545a8c3651e904b80", "fusion_lon": 0.0, "is_reserved": 0, "lon": -77.04251016666667, "fusion_lat": 0.0, "is_disabled": 0, "bike_id": "9d2fcb8572ba98d545a8c3651e904b80", "lat": 38.9218375, "rental_uris": {"ios": "https://dc.lft.to/lastmile_qr_scan", "android": "https://dc.lft.to/lastmile_qr_scan"}}, {"type": "electric_scooter", "name": "cbe4e99c7b7d3205b8583c5858f00d45", "fusion_lon": 0.0, "is_reserved": 0, "lon": -77.03185766666667, "fusion_lat": 0.0, "is_disabled": 0, "bike_id": "cbe4e99c7b7d3205b8583c5858f00d45", "lat": 38.91015316666667, "rental_uris": {"ios": "https://dc.lft.to/lastmile_qr_scan", "android": "https://dc.lft.to/lastmile_qr_scan"}}, {"type": "electric_scooter", "name": "1943369c28fec056ad9a689d3ac9e275", "fusion_lon": 0.0, "is_reserved": 0, "lon": -77.04362166666667, "fusion_lat": 0.0, "is_disabled": 0, "bike_id": "1943369c28fec056ad9a689d3ac9e275", "lat": 38.90580166666667, "rental_uris": {"ios": "https://dc.lft.to/lastmile_qr_scan", "android": "https://dc.lft.to/lastmile_qr_scan"}}, {"type": "electric_scooter", "name": "030d794f97892e40c9c772805eeb8d30", "fusion_lon": 0.0, "is_reserved": 0, "lon": -77.03591, "fusion_lat": 0.0, "is_disabled": 0, "bike_id": "030d794f97892e40c9c772805eeb8d30", "lat": 38.909702, "rental_uris": {"ios": "https://dc.lft.to/lastmile_qr_scan", "android": "https://dc.lft.to/lastmile_qr_scan"}}, {"type": "electric_bike", "name": "c13d1a333e8f8b9eeb49ac206b4e558e", "fusion_lon": 0.0, "is_reserved": 0, "lon": -77.00037166666667, "fusion_lat": 0.0, "is_disabled": 0, "bike_id": "c13d1a333e8f8b9eeb49ac206b4e558e", "lat": 38.968114, "rental_uris": {"ios": "https://dc.lft.to/lastmile_qr_scan", "android": "https://dc.lft.to/lastmile_qr_scan"}}, {"type": "electric_bike", "name": "7479b382a5cb408923b2bc37b9834863", "fusion_lon": 0.0, "is_reserved": 0, "lon": -77.0131775, "fusion_lat": 0.0, "is_disabled": 0, "bike_id": "7479b382a5cb408923b2bc37b9834863", "lat": 38.92961316666667, "rental_uris": {"ios": "https://dc.lft.to/lastmile_qr_scan", "android": "https://dc.lft.to/lastmile_qr_scan"}}, {"type": "electric_scooter", "name": "3a0f960ea89397b9aca37e5347be1e91", "fusion_lon": 0.0, "is_reserved": 0, "lon": -77.04945216666667, "fusion_lat": 0.0, "is_disabled": 0, "bike_id": "3a0f960ea89397b9aca37e5347be1e91", "lat": 38.89742566666666, "rental_uris": {"ios": "https://dc.lft.to/lastmile_qr_scan", "android": "https://dc.lft.to/lastmile_qr_scan"}}, {"type": "electric_scooter", "name": "5b908b06774acc6cbefe5ab2e4ac047c", "fusion_lon": 0.0, "is_reserved": 0, "lon": -77.00334433333333, "fusion_lat": 0.0, "is_disabled": 0, "bike_id": "5b908b06774acc6cbefe5ab2e4ac047c", "lat": 38.89524383333333, "rental_uris": {"ios": "https://dc.lft.to/lastmile_qr_scan", "android": "https://dc.lft.to/lastmile_qr_scan"}}, {"type": "electric_scooter", "name": "83e8244ae15dbd7c31bf11ec847ebd9a", "fusion_lon": 0.0, "is_reserved": 0, "lon": -77.04351466666667, "fusion_lat": 0.0, "is_disabled": 0, "bike_id": "83e8244ae15dbd7c31bf11ec847ebd9a", "lat": 38.900466, "rental_uris": {"ios": "https://dc.lft.to/lastmile_qr_scan", "android": "https://dc.lft.to/lastmile_qr_scan"}}, {"type": "electric_scooter", "name": "f976256bc0c671417dd5f7b341a27dac", "fusion_lon": 0.0, "is_reserved": 0, "lon": -77.02975316666667, "fusion_lat": 0.0, "is_disabled": 0, "bike_id": "f976256bc0c671417dd5f7b341a27dac", "lat": 38.916807666666664, "rental_uris": {"ios": "https://dc.lft.to/lastmile_qr_scan", "android": "https://dc.lft.to/lastmile_qr_scan"}}, {"type": "electric_scooter", "name": "fe01b7c09651aa1753f7c4d702b662ce", "fusion_lon": 0.0, "is_reserved": 0, "lon": -77.04005566666666, "fusion_lat": 0.0, "is_disabled": 0, "bike_id": "fe01b7c09651aa1753f7c4d702b662ce", "lat": 38.93429316666667, "rental_uris": {"ios": "https://dc.lft.to/lastmile_qr_scan", "android": "https://dc.lft.to/lastmile_qr_scan"}}, {"type": "electric_scooter", "name": "f29e712bf8489598344d809781f16893", "fusion_lon": 0.0, "is_reserved": 0, "lon": -77.00341816666666, "fusion_lat": 0.0, "is_disabled": 0, "bike_id": "f29e712bf8489598344d809781f16893", "lat": 38.8860155, "rental_uris": {"ios": "https://dc.lft.to/lastmile_qr_scan", "android": "https://dc.lft.to/lastmile_qr_scan"}}, {"type": "electric_scooter", "name": "cf9a9be2a888bde49d8142787e466ce2", "fusion_lon": 0.0, "is_reserved": 0, "lon": -77.032897, "fusion_lat": 0.0, "is_disabled": 0, "bike_id": "cf9a9be2a888bde49d8142787e466ce2", "lat": 38.90969366666667, "rental_uris": {"ios": "https://dc.lft.to/lastmile_qr_scan", "android": "https://dc.lft.to/lastmile_qr_scan"}}, {"type": "electric_scooter", "name": "f24dc2f02c9c6eadf1b9f43bef286f1d", "fusion_lon": 0.0, "is_reserved": 0, "lon": -76.99695533333333, "fusion_lat": 0.0, "is_disabled": 0, "bike_id": "f24dc2f02c9c6eadf1b9f43bef286f1d", "lat": 38.884265666666664, "rental_uris": {"ios": "https://dc.lft.to/lastmile_qr_scan", "android": "https://dc.lft.to/lastmile_qr_scan"}}, {"type": "electric_scooter", "name": "bb19fa93603e040f9865fc5a9c5dc896", "fusion_lon": 0.0, "is_reserved": 0, "lon": -77.02805316666667, "fusion_lat": 0.0, "is_disabled": 0, "bike_id": "bb19fa93603e040f9865fc5a9c5dc896", "lat": 38.9175935, "rental_uris": {"ios": "https://dc.lft.to/lastmile_qr_scan", "android": "https://dc.lft.to/lastmile_qr_scan"}}, {"type": "electric_scooter", "name": "6e89c63ff2499ffe9fade142e1b75856", "fusion_lon": 0.0, "is_reserved": 0, "lon": -77.03862716666667, "fusion_lat": 0.0, "is_disabled": 0, "bike_id": "6e89c63ff2499ffe9fade142e1b75856", "lat": 38.90387233333333, "rental_uris": {"ios": "https://dc.lft.to/lastmile_qr_scan", "android": "https://dc.lft.to/lastmile_qr_scan"}}, {"type": "electric_scooter", "name": "c79cd7405c2d9e207fcfc825d457fccd", "fusion_lon": 0.0, "is_reserved": 0, "lon": -77.03822816666667, "fusion_lat": 0.0, "is_disabled": 0, "bike_id": "c79cd7405c2d9e207fcfc825d457fccd", "lat": 38.907234333333335, "rental_uris": {"ios": "https://dc.lft.to/lastmile_qr_scan", "android": "https://dc.lft.to/lastmile_qr_scan"}}, {"type": "electric_scooter", "name": "24abc5f3ff39f33628a909f0168a13e7", "fusion_lon": 0.0, "is_reserved": 0, "lon": -77.0094495, "fusion_lat": 0.0, "is_disabled": 0, "bike_id": "24abc5f3ff39f33628a909f0168a13e7", "lat": 38.874703833333335, "rental_uris": {"ios": "https://dc.lft.to/lastmile_qr_scan", "android": "https://dc.lft.to/lastmile_qr_scan"}}, {"type": "electric_scooter", "name": "35e8fae3fa115ae7b1b79024123d36cc", "fusion_lon": 0.0, "is_reserved": 0, "lon": -77.04156083333334, "fusion_lat": 0.0, "is_disabled": 0, "bike_id": "35e8fae3fa115ae7b1b79024123d36cc", "lat": 38.8924505, "rental_uris": {"ios": "https://dc.lft.to/lastmile_qr_scan", "android": "https://dc.lft.to/lastmile_qr_scan"}}, {"type": "electric_scooter", "name": "3012d778bd98d25afbc2f607fdb30301", "fusion_lon": 0.0, "is_reserved": 0, "lon": -77.0208215, "fusion_lat": 0.0, "is_disabled": 0, "bike_id": "3012d778bd98d25afbc2f607fdb30301", "lat": 38.9031455, "rental_uris": {"ios": "https://dc.lft.to/lastmile_qr_scan", "android": "https://dc.lft.to/lastmile_qr_scan"}}, {"type": "electric_scooter", "name": "14ede01c5f1f86b6758aaac707169e2f", "fusion_lon": 0.0, "is_reserved": 0, "lon": -77.0503975, "fusion_lat": 0.0, "is_disabled": 0, "bike_id": "14ede01c5f1f86b6758aaac707169e2f", "lat": 38.925213166666666, "rental_uris": {"ios": "https://dc.lft.to/lastmile_qr_scan", "android": "https://dc.lft.to/lastmile_qr_scan"}}, {"type": "electric_scooter", "name": "7ff9fafd95d92c533bfbb4cf2a043243", "fusion_lon": 0.0, "is_reserved": 0, "lon": -76.94662366666667, "fusion_lat": 0.0, "is_disabled": 0, "bike_id": "7ff9fafd95d92c533bfbb4cf2a043243", "lat": 38.89868466666667, "rental_uris": {"ios": "https://dc.lft.to/lastmile_qr_scan", "android": "https://dc.lft.to/lastmile_qr_scan"}}, {"type": "electric_scooter", "name": "1467c860500eea6687563be188ff93d1", "fusion_lon": 0.0, "is_reserved": 0, "lon": -77.03145966666666, "fusion_lat": 0.0, "is_disabled": 0, "bike_id": "1467c860500eea6687563be188ff93d1", "lat": 38.91265333333333, "rental_uris": {"ios": "https://dc.lft.to/lastmile_qr_scan", "android": "https://dc.lft.to/lastmile_qr_scan"}}, {"type": "electric_scooter", "name": "bac8e81028c95103575e08d373149773", "fusion_lon": 0.0, "is_reserved": 0, "lon": -76.98523966666667, "fusion_lat": 0.0, "is_disabled": 0, "bike_id": "bac8e81028c95103575e08d373149773", "lat": 38.8808105, "rental_uris": {"ios": "https://dc.lft.to/lastmile_qr_scan", "android": "https://dc.lft.to/lastmile_qr_scan"}}, {"type": "electric_scooter", "name": "572fe3bdb83f3023d49d72149985ac6d", "fusion_lon": 0.0, "is_reserved": 0, "lon": -77.04476616666666, "fusion_lat": 0.0, "is_disabled": 0, "bike_id": "572fe3bdb83f3023d49d72149985ac6d", "lat": 38.89942166666667, "rental_uris": {"ios": "https://dc.lft.to/lastmile_qr_scan", "android": "https://dc.lft.to/lastmile_qr_scan"}}, {"type": "electric_scooter", "name": "a970fc58a4c0a69a18ef141052a638cf", "fusion_lon": 0.0, "is_reserved": 0, "lon": -77.02421933333333, "fusion_lat": 0.0, "is_disabled": 0, "bike_id": "a970fc58a4c0a69a18ef141052a638cf", "lat": 38.927501, "rental_uris": {"ios": "https://dc.lft.to/lastmile_qr_scan", "android": "https://dc.lft.to/lastmile_qr_scan"}}, {"type": "electric_scooter", "name": "1455b51fab12c9012df0333ce14d9b4b", "fusion_lon": 0.0, "is_reserved": 0, "lon": -76.94879666666667, "fusion_lat": 0.0, "is_disabled": 0, "bike_id": "1455b51fab12c9012df0333ce14d9b4b", "lat": 38.8955155, "rental_uris": {"ios": "https://dc.lft.to/lastmile_qr_scan", "android": "https://dc.lft.to/lastmile_qr_scan"}}, {"type": "electric_scooter", "name": "682d33c8c73dc7aa962c22c651c06d42", "fusion_lon": 0.0, "is_reserved": 0, "lon": -77.01942183333334, "fusion_lat": 0.0, "is_disabled": 0, "bike_id": "682d33c8c73dc7aa962c22c651c06d42", "lat": 38.9236605, "rental_uris": {"ios": "https://dc.lft.to/lastmile_qr_scan", "android": "https://dc.lft.to/lastmile_qr_scan"}}, {"type": "electric_scooter", "name": "dbe3579f97fff464667c4b3b0e66c737", "fusion_lon": 0.0, "is_reserved": 0, "lon": -76.9983865, "fusion_lat": 0.0, "is_disabled": 0, "bike_id": "dbe3579f97fff464667c4b3b0e66c737", "lat": 38.88506916666667, "rental_uris": {"ios": "https://dc.lft.to/lastmile_qr_scan", "android": "https://dc.lft.to/lastmile_qr_scan"}}, {"type": "electric_scooter", "name": "04b9d6c65aef197c15a593a957674c98", "fusion_lon": 0.0, "is_reserved": 0, "lon": -77.0258335, "fusion_lat": 0.0, "is_disabled": 0, "bike_id": "04b9d6c65aef197c15a593a957674c98", "lat": 38.884056, "rental_uris": {"ios": "https://dc.lft.to/lastmile_qr_scan", "android": "https://dc.lft.to/lastmile_qr_scan"}}, {"type": "electric_scooter", "name": "7f5133972f242e0a56e22bb23040741a", "fusion_lon": 0.0, "is_reserved": 0, "lon": -77.02678466666667, "fusion_lat": 0.0, "is_disabled": 0, "bike_id": "7f5133972f242e0a56e22bb23040741a", "lat": 38.971766833333334, "rental_uris": {"ios": "https://dc.lft.to/lastmile_qr_scan", "android": "https://dc.lft.to/lastmile_qr_scan"}}, {"type": "electric_scooter", "name": "271aca655f68cb672d4f53c1a6ac00ac", "fusion_lon": 0.0, "is_reserved": 0, "lon": -77.03160366666667, "fusion_lat": 0.0, "is_disabled": 0, "bike_id": "271aca655f68cb672d4f53c1a6ac00ac", "lat": 38.89222, "rental_uris": {"ios": "https://dc.lft.to/lastmile_qr_scan", "android": "https://dc.lft.to/lastmile_qr_scan"}}, {"type": "electric_scooter", "name": "66dd89e601ec4aebfa41c2895c8c8e1f", "fusion_lon": 0.0, "is_reserved": 0, "lon": -77.02274783333333, "fusion_lat": 0.0, "is_disabled": 0, "bike_id": "66dd89e601ec4aebfa41c2895c8c8e1f", "lat": 38.916633166666664, "rental_uris": {"ios": "https://dc.lft.to/lastmile_qr_scan", "android": "https://dc.lft.to/lastmile_qr_scan"}}, {"type": "electric_scooter", "name": "d693c854f9788b651c5fb45eb7282442", "fusion_lon": 0.0, "is_reserved": 0, "lon": -77.02309533333333, "fusion_lat": 0.0, "is_disabled": 0, "bike_id": "d693c854f9788b651c5fb45eb7282442", "lat": 38.89485066666667, "rental_uris": {"ios": "https://dc.lft.to/lastmile_qr_scan", "android": "https://dc.lft.to/lastmile_qr_scan"}}, {"type": "electric_scooter", "name": "f03bdf85c96d915c5eb2bba24da73224", "fusion_lon": 0.0, "is_reserved": 0, "lon": -77.05950966666667, "fusion_lat": 0.0, "is_disabled": 0, "bike_id": "f03bdf85c96d915c5eb2bba24da73224", "lat": 38.91839266666667, "rental_uris": {"ios": "https://dc.lft.to/lastmile_qr_scan", "android": "https://dc.lft.to/lastmile_qr_scan"}}, {"type": "electric_bike", "name": "212e9a2d82b6751d97423fc2ec580fc8", "fusion_lon": 0.0, "is_reserved": 0, "lon": -77.023732, "fusion_lat": 0.0, "is_disabled": 0, "bike_id": "212e9a2d82b6751d97423fc2ec580fc8", "lat": 38.961341833333336, "rental_uris": {"ios": "https://dc.lft.to/lastmile_qr_scan", "android": "https://dc.lft.to/lastmile_qr_scan"}}, {"type": "electric_scooter", "name": "61583222a6f26ce83fbd7653b91739ce", "fusion_lon": 0.0, "is_reserved": 0, "lon": -76.9370655, "fusion_lat": 0.0, "is_disabled": 0, "bike_id": "61583222a6f26ce83fbd7653b91739ce", "lat": 38.889614, "rental_uris": {"ios": "https://dc.lft.to/lastmile_qr_scan", "android": "https://dc.lft.to/lastmile_qr_scan"}}, {"type": "electric_scooter", "name": "b93cdddce83af67800f80de6914eec3e", "fusion_lon": 0.0, "is_reserved": 0, "lon": -77.04539383333334, "fusion_lat": 0.0, "is_disabled": 0, "bike_id": "b93cdddce83af67800f80de6914eec3e", "lat": 38.92030883333334, "rental_uris": {"ios": "https://dc.lft.to/lastmile_qr_scan", "android": "https://dc.lft.to/lastmile_qr_scan"}}, {"type": "electric_scooter", "name": "b95c04d8eab31cb5c08e8af352d3993b", "fusion_lon": 0.0, "is_reserved": 0, "lon": -77.027032, "fusion_lat": 0.0, "is_disabled": 0, "bike_id": "b95c04d8eab31cb5c08e8af352d3993b", "lat": 38.94988516666667, "rental_uris": {"ios": "https://dc.lft.to/lastmile_qr_scan", "android": "https://dc.lft.to/lastmile_qr_scan"}}, {"type": "electric_scooter", "name": "97084f9bd5798fb101ac8d0a7a05ae99", "fusion_lon": 0.0, "is_reserved": 0, "lon": -76.97331433333333, "fusion_lat": 0.0, "is_disabled": 0, "bike_id": "97084f9bd5798fb101ac8d0a7a05ae99", "lat": 38.90409966666667, "rental_uris": {"ios": "https://dc.lft.to/lastmile_qr_scan", "android": "https://dc.lft.to/lastmile_qr_scan"}}, {"type": "electric_scooter", "name": "743cb3fa92e43f9996d12ddc77354b63", "fusion_lon": 0.0, "is_reserved": 0, "lon": -77.02935766666667, "fusion_lat": 0.0, "is_disabled": 0, "bike_id": "743cb3fa92e43f9996d12ddc77354b63", "lat": 38.90553666666667, "rental_uris": {"ios": "https://dc.lft.to/lastmile_qr_scan", "android": "https://dc.lft.to/lastmile_qr_scan"}}, {"type": "electric_scooter", "name": "78406d65b453b8be91776e94387c81cc", "fusion_lon": 0.0, "is_reserved": 0, "lon": -77.03660166666667, "fusion_lat": 0.0, "is_disabled": 0, "bike_id": "78406d65b453b8be91776e94387c81cc", "lat": 38.92239766666667, "rental_uris": {"ios": "https://dc.lft.to/lastmile_qr_scan", "android": "https://dc.lft.to/lastmile_qr_scan"}}, {"type": "electric_scooter", "name": "8be9f02823ff796439721ba715b46638", "fusion_lon": 0.0, "is_reserved": 0, "lon": -77.03882766666666, "fusion_lat": 0.0, "is_disabled": 0, "bike_id": "8be9f02823ff796439721ba715b46638", "lat": 38.902433, "rental_uris": {"ios": "https://dc.lft.to/lastmile_qr_scan", "android": "https://dc.lft.to/lastmile_qr_scan"}}, {"type": "electric_scooter", "name": "6f28b56754c15299af1d7b99c90b2f72", "fusion_lon": 0.0, "is_reserved": 0, "lon": -77.00710916666667, "fusion_lat": 0.0, "is_disabled": 0, "bike_id": "6f28b56754c15299af1d7b99c90b2f72", "lat": 38.8848925, "rental_uris": {"ios": "https://dc.lft.to/lastmile_qr_scan", "android": "https://dc.lft.to/lastmile_qr_scan"}}, {"type": "electric_scooter", "name": "89496422bf30986eb15fc1adb664e9e2", "fusion_lon": 0.0, "is_reserved": 0, "lon": -77.0430745, "fusion_lat": 0.0, "is_disabled": 0, "bike_id": "89496422bf30986eb15fc1adb664e9e2", "lat": 38.89221416666667, "rental_uris": {"ios": "https://dc.lft.to/lastmile_qr_scan", "android": "https://dc.lft.to/lastmile_qr_scan"}}, {"type": "electric_bike", "name": "9a5c2d211bc20dc265875420cefdb2b4", "fusion_lon": 0.0, "is_reserved": 0, "lon": -76.9751185, "fusion_lat": 0.0, "is_disabled": 0, "bike_id": "9a5c2d211bc20dc265875420cefdb2b4", "lat": 38.90340916666667, "rental_uris": {"ios": "https://dc.lft.to/lastmile_qr_scan", "android": "https://dc.lft.to/lastmile_qr_scan"}}, {"type": "electric_scooter", "name": "eb8738c975bc89c40fec82d204891b9f", "fusion_lon": 0.0, "is_reserved": 0, "lon": -77.045047, "fusion_lat": 0.0, "is_disabled": 0, "bike_id": "eb8738c975bc89c40fec82d204891b9f", "lat": 38.892280166666666, "rental_uris": {"ios": "https://dc.lft.to/lastmile_qr_scan", "android": "https://dc.lft.to/lastmile_qr_scan"}}, {"type": "electric_scooter", "name": "dbbbd800323694d16d878208c16f581f", "fusion_lon": 0.0, "is_reserved": 0, "lon": -77.00026733333333, "fusion_lat": 0.0, "is_disabled": 0, "bike_id": "dbbbd800323694d16d878208c16f581f", "lat": 38.873780333333336, "rental_uris": {"ios": "https://dc.lft.to/lastmile_qr_scan", "android": "https://dc.lft.to/lastmile_qr_scan"}}, {"type": "electric_scooter", "name": "bb0f2345e6283edb63cbbef277b6e727", "fusion_lon": 0.0, "is_reserved": 0, "lon": -77.04547316666667, "fusion_lat": 0.0, "is_disabled": 0, "bike_id": "bb0f2345e6283edb63cbbef277b6e727", "lat": 38.9075315, "rental_uris": {"ios": "https://dc.lft.to/lastmile_qr_scan", "android": "https://dc.lft.to/lastmile_qr_scan"}}, {"type": "electric_scooter", "name": "2cfe692521c2a37b56e2ae994d5418a4", "fusion_lon": 0.0, "is_reserved": 0, "lon": -76.989305, "fusion_lat": 0.0, "is_disabled": 0, "bike_id": "2cfe692521c2a37b56e2ae994d5418a4", "lat": 38.902423166666665, "rental_uris": {"ios": "https://dc.lft.to/lastmile_qr_scan", "android": "https://dc.lft.to/lastmile_qr_scan"}}, {"type": "electric_scooter", "name": "ca231305f37575b9b96e1a7541a9c18c", "fusion_lon": 0.0, "is_reserved": 0, "lon": -77.0399895, "fusion_lat": 0.0, "is_disabled": 0, "bike_id": "ca231305f37575b9b96e1a7541a9c18c", "lat": 38.93429283333333, "rental_uris": {"ios": "https://dc.lft.to/lastmile_qr_scan", "android": "https://dc.lft.to/lastmile_qr_scan"}}, {"type": "electric_scooter", "name": "0cb3e2f88337b4f7ece8b3c75b58cefa", "fusion_lon": 0.0, "is_reserved": 0, "lon": -77.03633783333333, "fusion_lat": 0.0, "is_disabled": 0, "bike_id": "0cb3e2f88337b4f7ece8b3c75b58cefa", "lat": 38.9150905, "rental_uris": {"ios": "https://dc.lft.to/lastmile_qr_scan", "android": "https://dc.lft.to/lastmile_qr_scan"}}, {"type": "electric_scooter", "name": "59149d8efcd3616f4bbfe52f17f0b415", "fusion_lon": 0.0, "is_reserved": 0, "lon": -77.03562483333333, "fusion_lat": 0.0, "is_disabled": 0, "bike_id": "59149d8efcd3616f4bbfe52f17f0b415", "lat": 38.904722, "rental_uris": {"ios": "https://dc.lft.to/lastmile_qr_scan", "android": "https://dc.lft.to/lastmile_qr_scan"}}, {"type": "electric_scooter", "name": "b07deb51ffd7fc61f8d51b6f2e282dd0", "fusion_lon": 0.0, "is_reserved": 0, "lon": -77.02221366666667, "fusion_lat": 0.0, "is_disabled": 0, "bike_id": "b07deb51ffd7fc61f8d51b6f2e282dd0", "lat": 38.95525416666667, "rental_uris": {"ios": "https://dc.lft.to/lastmile_qr_scan", "android": "https://dc.lft.to/lastmile_qr_scan"}}, {"type": "electric_scooter", "name": "0541251bf72c15f6ae9024c402d4848f", "fusion_lon": 0.0, "is_reserved": 0, "lon": -77.0383045, "fusion_lat": 0.0, "is_disabled": 0, "bike_id": "0541251bf72c15f6ae9024c402d4848f", "lat": 38.903820333333336, "rental_uris": {"ios": "https://dc.lft.to/lastmile_qr_scan", "android": "https://dc.lft.to/lastmile_qr_scan"}}, {"type": "electric_scooter", "name": "3882687d7a31ff13de79a2b2e82ed9d6", "fusion_lon": 0.0, "is_reserved": 0, "lon": -77.00299366666667, "fusion_lat": 0.0, "is_disabled": 0, "bike_id": "3882687d7a31ff13de79a2b2e82ed9d6", "lat": 38.900442, "rental_uris": {"ios": "https://dc.lft.to/lastmile_qr_scan", "android": "https://dc.lft.to/lastmile_qr_scan"}}, {"type": "electric_scooter", "name": "368c12c6a442ffa1d40b11fcf1e41f84", "fusion_lon": 0.0, "is_reserved": 0, "lon": -77.034619, "fusion_lat": 0.0, "is_disabled": 0, "bike_id": "368c12c6a442ffa1d40b11fcf1e41f84", "lat": 38.903924333333336, "rental_uris": {"ios": "https://dc.lft.to/lastmile_qr_scan", "android": "https://dc.lft.to/lastmile_qr_scan"}}, {"type": "electric_scooter", "name": "1ee72e328da83f4a5a1b663a8ea32453", "fusion_lon": 0.0, "is_reserved": 0, "lon": -77.036916, "fusion_lat": 0.0, "is_disabled": 0, "bike_id": "1ee72e328da83f4a5a1b663a8ea32453", "lat": 38.920336, "rental_uris": {"ios": "https://dc.lft.to/lastmile_qr_scan", "android": "https://dc.lft.to/lastmile_qr_scan"}}, {"type": "electric_scooter", "name": "9b1eaa0bc1d4705ff2d157924fc29e17", "fusion_lon": 0.0, "is_reserved": 0, "lon": -77.04227483333334, "fusion_lat": 0.0, "is_disabled": 0, "bike_id": "9b1eaa0bc1d4705ff2d157924fc29e17", "lat": 38.907132833333335, "rental_uris": {"ios": "https://dc.lft.to/lastmile_qr_scan", "android": "https://dc.lft.to/lastmile_qr_scan"}}, {"type": "electric_scooter", "name": "f60c5b3af2dae7d4349f0195097e1884", "fusion_lon": 0.0, "is_reserved": 0, "lon": -77.038453, "fusion_lat": 0.0, "is_disabled": 0, "bike_id": "f60c5b3af2dae7d4349f0195097e1884", "lat": 38.908018166666665, "rental_uris": {"ios": "https://dc.lft.to/lastmile_qr_scan", "android": "https://dc.lft.to/lastmile_qr_scan"}}, {"type": "electric_scooter", "name": "0860cde93e9e009d9934c34026d26281", "fusion_lon": 0.0, "is_reserved": 0, "lon": -76.937317, "fusion_lat": 0.0, "is_disabled": 0, "bike_id": "0860cde93e9e009d9934c34026d26281", "lat": 38.8901785, "rental_uris": {"ios": "https://dc.lft.to/lastmile_qr_scan", "android": "https://dc.lft.to/lastmile_qr_scan"}}, {"type": "electric_scooter", "name": "0c85f26d36e3db0b06f530c543e2c1ec", "fusion_lon": 0.0, "is_reserved": 0, "lon": -77.04034083333333, "fusion_lat": 0.0, "is_disabled": 0, "bike_id": "0c85f26d36e3db0b06f530c543e2c1ec", "lat": 38.89800783333333, "rental_uris": {"ios": "https://dc.lft.to/lastmile_qr_scan", "android": "https://dc.lft.to/lastmile_qr_scan"}}, {"type": "electric_scooter", "name": "e175e209da730830976e6e51f8bb0755", "fusion_lon": 0.0, "is_reserved": 0, "lon": -77.04812916666667, "fusion_lat": 0.0, "is_disabled": 0, "bike_id": "e175e209da730830976e6e51f8bb0755", "lat": 38.907186833333334, "rental_uris": {"ios": "https://dc.lft.to/lastmile_qr_scan", "android": "https://dc.lft.to/lastmile_qr_scan"}}, {"type": "electric_scooter", "name": "69557ab8c88626bc87e8bfe79438326a", "fusion_lon": 0.0, "is_reserved": 0, "lon": -77.04251333333333, "fusion_lat": 0.0, "is_disabled": 0, "bike_id": "69557ab8c88626bc87e8bfe79438326a", "lat": 38.92268766666667, "rental_uris": {"ios": "https://dc.lft.to/lastmile_qr_scan", "android": "https://dc.lft.to/lastmile_qr_scan"}}, {"type": "electric_scooter", "name": "39188c73b61a2717b6be9eabfe7e2bc4", "fusion_lon": 0.0, "is_reserved": 0, "lon": -77.00852633333334, "fusion_lat": 0.0, "is_disabled": 0, "bike_id": "39188c73b61a2717b6be9eabfe7e2bc4", "lat": 38.90138666666667, "rental_uris": {"ios": "https://dc.lft.to/lastmile_qr_scan", "android": "https://dc.lft.to/lastmile_qr_scan"}}, {"type": "electric_bike", "name": "5eefcc3b5cdf98680546e5386577d442", "fusion_lon": 0.0, "is_reserved": 0, "lon": -77.04557216666667, "fusion_lat": 0.0, "is_disabled": 0, "bike_id": "5eefcc3b5cdf98680546e5386577d442", "lat": 38.90737083333333, "rental_uris": {"ios": "https://dc.lft.to/lastmile_qr_scan", "android": "https://dc.lft.to/lastmile_qr_scan"}}, {"type": "electric_scooter", "name": "ef3c2fd1279b8231a131c6b1b259d41f", "fusion_lon": 0.0, "is_reserved": 0, "lon": -77.06480766666667, "fusion_lat": 0.0, "is_disabled": 0, "bike_id": "ef3c2fd1279b8231a131c6b1b259d41f", "lat": 38.934836833333335, "rental_uris": {"ios": "https://dc.lft.to/lastmile_qr_scan", "android": "https://dc.lft.to/lastmile_qr_scan"}}, {"type": "electric_scooter", "name": "177f7b4c99959f87a4619d4d8849c94e", "fusion_lon": 0.0, "is_reserved": 0, "lon": -77.02736633333333, "fusion_lat": 0.0, "is_disabled": 0, "bike_id": "177f7b4c99959f87a4619d4d8849c94e", "lat": 38.952065166666664, "rental_uris": {"ios": "https://dc.lft.to/lastmile_qr_scan", "android": "https://dc.lft.to/lastmile_qr_scan"}}, {"type": "electric_scooter", "name": "db129977ccab4cca9673bcd99e3b35a5", "fusion_lon": 0.0, "is_reserved": 0, "lon": -77.04203483333333, "fusion_lat": 0.0, "is_disabled": 0, "bike_id": "db129977ccab4cca9673bcd99e3b35a5", "lat": 38.905224, "rental_uris": {"ios": "https://dc.lft.to/lastmile_qr_scan", "android": "https://dc.lft.to/lastmile_qr_scan"}}, {"type": "electric_bike", "name": "0dbb93233cbe9adac116f75ad16e64a0", "fusion_lon": 0.0, "is_reserved": 0, "lon": -77.07160283333333, "fusion_lat": 0.0, "is_disabled": 0, "bike_id": "0dbb93233cbe9adac116f75ad16e64a0", "lat": 38.907783333333334, "rental_uris": {"ios": "https://dc.lft.to/lastmile_qr_scan", "android": "https://dc.lft.to/lastmile_qr_scan"}}, {"type": "electric_scooter", "name": "826db0c3948a0714fa186a3c03ceb967", "fusion_lon": 0.0, "is_reserved": 0, "lon": -77.032004, "fusion_lat": 0.0, "is_disabled": 0, "bike_id": "826db0c3948a0714fa186a3c03ceb967", "lat": 38.91800533333333, "rental_uris": {"ios": "https://dc.lft.to/lastmile_qr_scan", "android": "https://dc.lft.to/lastmile_qr_scan"}}, {"type": "electric_scooter", "name": "e66bc720c0e064af2e098290dc5846a1", "fusion_lon": 0.0, "is_reserved": 0, "lon": -77.00610666666667, "fusion_lat": 0.0, "is_disabled": 0, "bike_id": "e66bc720c0e064af2e098290dc5846a1", "lat": 38.8754425, "rental_uris": {"ios": "https://dc.lft.to/lastmile_qr_scan", "android": "https://dc.lft.to/lastmile_qr_scan"}}, {"type": "electric_scooter", "name": "4bf27ea4b9cf38ed223e5cc1b3e3f91c", "fusion_lon": 0.0, "is_reserved": 0, "lon": -77.03457133333333, "fusion_lat": 0.0, "is_disabled": 0, "bike_id": "4bf27ea4b9cf38ed223e5cc1b3e3f91c", "lat": 38.902698, "rental_uris": {"ios": "https://dc.lft.to/lastmile_qr_scan", "android": "https://dc.lft.to/lastmile_qr_scan"}}, {"type": "electric_bike", "name": "cea7cbcd0b390908b3b07d3847606acc", "fusion_lon": 0.0, "is_reserved": 0, "lon": -77.032738, "fusion_lat": 0.0, "is_disabled": 0, "bike_id": "cea7cbcd0b390908b3b07d3847606acc", "lat": 38.934477333333334, "rental_uris": {"ios": "https://dc.lft.to/lastmile_qr_scan", "android": "https://dc.lft.to/lastmile_qr_scan"}}, {"type": "electric_bike", "name": "ae44b67a3bc2974451f8ae3f18fa2988", "fusion_lon": 0.0, "is_reserved": 0, "lon": -77.01453216666667, "fusion_lat": 0.0, "is_disabled": 0, "bike_id": "ae44b67a3bc2974451f8ae3f18fa2988", "lat": 38.962774833333334, "rental_uris": {"ios": "https://dc.lft.to/lastmile_qr_scan", "android": "https://dc.lft.to/lastmile_qr_scan"}}, {"type": "electric_scooter", "name": "b6eb755a58a80b154dd45d9457fad909", "fusion_lon": 0.0, "is_reserved": 0, "lon": -77.042494, "fusion_lat": 0.0, "is_disabled": 0, "bike_id": "b6eb755a58a80b154dd45d9457fad909", "lat": 38.92270966666667, "rental_uris": {"ios": "https://dc.lft.to/lastmile_qr_scan", "android": "https://dc.lft.to/lastmile_qr_scan"}}, {"type": "electric_bike", "name": "251adaa4685703a8d7049d54bf9fcbfc", "fusion_lon": 0.0, "is_reserved": 0, "lon": -76.9772495, "fusion_lat": 0.0, "is_disabled": 0, "bike_id": "251adaa4685703a8d7049d54bf9fcbfc", "lat": 38.95176566666667, "rental_uris": {"ios": "https://dc.lft.to/lastmile_qr_scan", "android": "https://dc.lft.to/lastmile_qr_scan"}}, {"type": "electric_scooter", "name": "33215321f83000393bd29a5b1c9d34f5", "fusion_lon": 0.0, "is_reserved": 0, "lon": -77.04060416666667, "fusion_lat": 0.0, "is_disabled": 0, "bike_id": "33215321f83000393bd29a5b1c9d34f5", "lat": 38.92397616666667, "rental_uris": {"ios": "https://dc.lft.to/lastmile_qr_scan", "android": "https://dc.lft.to/lastmile_qr_scan"}}, {"type": "electric_scooter", "name": "6cd0b5366a32c78e96676c1eb8234ef6", "fusion_lon": 0.0, "is_reserved": 0, "lon": -77.0452695, "fusion_lat": 0.0, "is_disabled": 0, "bike_id": "6cd0b5366a32c78e96676c1eb8234ef6", "lat": 38.900712166666665, "rental_uris": {"ios": "https://dc.lft.to/lastmile_qr_scan", "android": "https://dc.lft.to/lastmile_qr_scan"}}, {"type": "electric_bike", "name": "9469e565dd84415b12db0066c3a85779", "fusion_lon": 0.0, "is_reserved": 0, "lon": -77.01941833333333, "fusion_lat": 0.0, "is_disabled": 0, "bike_id": "9469e565dd84415b12db0066c3a85779", "lat": 38.90473433333333, "rental_uris": {"ios": "https://dc.lft.to/lastmile_qr_scan", "android": "https://dc.lft.to/lastmile_qr_scan"}}, {"type": "electric_scooter", "name": "b0964b4ff91ef6935019562c21e8b35a", "fusion_lon": 0.0, "is_reserved": 0, "lon": -77.0607075, "fusion_lat": 0.0, "is_disabled": 0, "bike_id": "b0964b4ff91ef6935019562c21e8b35a", "lat": 38.9076525, "rental_uris": {"ios": "https://dc.lft.to/lastmile_qr_scan", "android": "https://dc.lft.to/lastmile_qr_scan"}}, {"type": "electric_scooter", "name": "a67bfe4bf7b4b9e99a5451eba9aff4e2", "fusion_lon": 0.0, "is_reserved": 0, "lon": -77.03314516666667, "fusion_lat": 0.0, "is_disabled": 0, "bike_id": "a67bfe4bf7b4b9e99a5451eba9aff4e2", "lat": 38.917066, "rental_uris": {"ios": "https://dc.lft.to/lastmile_qr_scan", "android": "https://dc.lft.to/lastmile_qr_scan"}}, {"type": "electric_scooter", "name": "16fd4662b532c91b8f319e80602fdca6", "fusion_lon": 0.0, "is_reserved": 0, "lon": -77.04394866666667, "fusion_lat": 0.0, "is_disabled": 0, "bike_id": "16fd4662b532c91b8f319e80602fdca6", "lat": 38.91661766666667, "rental_uris": {"ios": "https://dc.lft.to/lastmile_qr_scan", "android": "https://dc.lft.to/lastmile_qr_scan"}}, {"type": "electric_scooter", "name": "fbd4754954cc84108f11cae00ea513eb", "fusion_lon": 0.0, "is_reserved": 0, "lon": -77.043494, "fusion_lat": 0.0, "is_disabled": 0, "bike_id": "fbd4754954cc84108f11cae00ea513eb", "lat": 38.904399166666664, "rental_uris": {"ios": "https://dc.lft.to/lastmile_qr_scan", "android": "https://dc.lft.to/lastmile_qr_scan"}}, {"type": "electric_scooter", "name": "7aee7ab57b0aadbb50dddb49c6d5e432", "fusion_lon": 0.0, "is_reserved": 0, "lon": -77.0296295, "fusion_lat": 0.0, "is_disabled": 0, "bike_id": "7aee7ab57b0aadbb50dddb49c6d5e432", "lat": 38.955009833333335, "rental_uris": {"ios": "https://dc.lft.to/lastmile_qr_scan", "android": "https://dc.lft.to/lastmile_qr_scan"}}, {"type": "electric_scooter", "name": "3aeb33f3ada076889038156f72cfbdee", "fusion_lon": 0.0, "is_reserved": 0, "lon": -77.02205833333333, "fusion_lat": 0.0, "is_disabled": 0, "bike_id": "3aeb33f3ada076889038156f72cfbdee", "lat": 38.892343333333336, "rental_uris": {"ios": "https://dc.lft.to/lastmile_qr_scan", "android": "https://dc.lft.to/lastmile_qr_scan"}}, {"type": "electric_scooter", "name": "361612f191b3ad568b00c0b00465d2e0", "fusion_lon": 0.0, "is_reserved": 0, "lon": -77.03381683333333, "fusion_lat": 0.0, "is_disabled": 0, "bike_id": "361612f191b3ad568b00c0b00465d2e0", "lat": 38.92159016666667, "rental_uris": {"ios": "https://dc.lft.to/lastmile_qr_scan", "android": "https://dc.lft.to/lastmile_qr_scan"}}, {"type": "electric_scooter", "name": "b1c5aba0a06f32220712c3332de2ccc2", "fusion_lon": 0.0, "is_reserved": 0, "lon": -77.04277433333333, "fusion_lat": 0.0, "is_disabled": 0, "bike_id": "b1c5aba0a06f32220712c3332de2ccc2", "lat": 38.907301833333335, "rental_uris": {"ios": "https://dc.lft.to/lastmile_qr_scan", "android": "https://dc.lft.to/lastmile_qr_scan"}}, {"type": "electric_scooter", "name": "b12fca8949c503f6db71d7822d868372", "fusion_lon": 0.0, "is_reserved": 0, "lon": -77.02555466666666, "fusion_lat": 0.0, "is_disabled": 0, "bike_id": "b12fca8949c503f6db71d7822d868372", "lat": 38.915529166666666, "rental_uris": {"ios": "https://dc.lft.to/lastmile_qr_scan", "android": "https://dc.lft.to/lastmile_qr_scan"}}, {"type": "electric_scooter", "name": "b75aaf086d2f60e7bf00ed08b39e92a3", "fusion_lon": 0.0, "is_reserved": 0, "lon": -77.03067433333334, "fusion_lat": 0.0, "is_disabled": 0, "bike_id": "b75aaf086d2f60e7bf00ed08b39e92a3", "lat": 38.922448833333334, "rental_uris": {"ios": "https://dc.lft.to/lastmile_qr_scan", "android": "https://dc.lft.to/lastmile_qr_scan"}}, {"type": "electric_scooter", "name": "0c80b54abb91e082b7bd6cfabeee445e", "fusion_lon": 0.0, "is_reserved": 0, "lon": -77.06295566666667, "fusion_lat": 0.0, "is_disabled": 0, "bike_id": "0c80b54abb91e082b7bd6cfabeee445e", "lat": 38.9060375, "rental_uris": {"ios": "https://dc.lft.to/lastmile_qr_scan", "android": "https://dc.lft.to/lastmile_qr_scan"}}, {"type": "electric_scooter", "name": "b9fee10cd08ca9ff59d0562b744027c7", "fusion_lon": 0.0, "is_reserved": 0, "lon": -77.04744166666667, "fusion_lat": 0.0, "is_disabled": 0, "bike_id": "b9fee10cd08ca9ff59d0562b744027c7", "lat": 38.90089733333333, "rental_uris": {"ios": "https://dc.lft.to/lastmile_qr_scan", "android": "https://dc.lft.to/lastmile_qr_scan"}}, {"type": "electric_scooter", "name": "b91c5989743848b0dcf4750d399c7ad3", "fusion_lon": 0.0, "is_reserved": 0, "lon": -77.04467683333333, "fusion_lat": 0.0, "is_disabled": 0, "bike_id": "b91c5989743848b0dcf4750d399c7ad3", "lat": 38.911074166666666, "rental_uris": {"ios": "https://dc.lft.to/lastmile_qr_scan", "android": "https://dc.lft.to/lastmile_qr_scan"}}, {"type": "electric_scooter", "name": "7c73129a4c02e1b7e01a48bbc15fa644", "fusion_lon": 0.0, "is_reserved": 0, "lon": -77.04501, "fusion_lat": 0.0, "is_disabled": 0, "bike_id": "7c73129a4c02e1b7e01a48bbc15fa644", "lat": 38.907313, "rental_uris": {"ios": "https://dc.lft.to/lastmile_qr_scan", "android": "https://dc.lft.to/lastmile_qr_scan"}}, {"type": "electric_scooter", "name": "f38cf41be6ee61cc65d6d0db3bee859c", "fusion_lon": 0.0, "is_reserved": 0, "lon": -76.9948755, "fusion_lat": 0.0, "is_disabled": 0, "bike_id": "f38cf41be6ee61cc65d6d0db3bee859c", "lat": 38.8357735, "rental_uris": {"ios": "https://dc.lft.to/lastmile_qr_scan", "android": "https://dc.lft.to/lastmile_qr_scan"}}, {"type": "electric_scooter", "name": "6610519e2c637cead55a796a8a67657a", "fusion_lon": 0.0, "is_reserved": 0, "lon": -77.02681816666667, "fusion_lat": 0.0, "is_disabled": 0, "bike_id": "6610519e2c637cead55a796a8a67657a", "lat": 38.90371566666666, "rental_uris": {"ios": "https://dc.lft.to/lastmile_qr_scan", "android": "https://dc.lft.to/lastmile_qr_scan"}}, {"type": "electric_scooter", "name": "0dd831fbf97ef8cd5fbaaed87a6066de", "fusion_lon": 0.0, "is_reserved": 0, "lon": -77.00262816666667, "fusion_lat": 0.0, "is_disabled": 0, "bike_id": "0dd831fbf97ef8cd5fbaaed87a6066de", "lat": 38.885126, "rental_uris": {"ios": "https://dc.lft.to/lastmile_qr_scan", "android": "https://dc.lft.to/lastmile_qr_scan"}}, {"type": "electric_scooter", "name": "df44b3f60150422e80f180740cd42128", "fusion_lon": 0.0, "is_reserved": 0, "lon": -77.03293816666667, "fusion_lat": 0.0, "is_disabled": 0, "bike_id": "df44b3f60150422e80f180740cd42128", "lat": 38.937869166666665, "rental_uris": {"ios": "https://dc.lft.to/lastmile_qr_scan", "android": "https://dc.lft.to/lastmile_qr_scan"}}, {"type": "electric_scooter", "name": "1cf0b9e126c31f113095636f59cd40e0", "fusion_lon": 0.0, "is_reserved": 0, "lon": -76.9733395, "fusion_lat": 0.0, "is_disabled": 0, "bike_id": "1cf0b9e126c31f113095636f59cd40e0", "lat": 38.904090333333336, "rental_uris": {"ios": "https://dc.lft.to/lastmile_qr_scan", "android": "https://dc.lft.to/lastmile_qr_scan"}}, {"type": "electric_scooter", "name": "8f87d714866fe043393b8f865ea658de", "fusion_lon": 0.0, "is_reserved": 0, "lon": -77.043479, "fusion_lat": 0.0, "is_disabled": 0, "bike_id": "8f87d714866fe043393b8f865ea658de", "lat": 38.921886, "rental_uris": {"ios": "https://dc.lft.to/lastmile_qr_scan", "android": "https://dc.lft.to/lastmile_qr_scan"}}, {"type": "electric_scooter", "name": "8983e7cd44163b23a55a03b318809062", "fusion_lon": 0.0, "is_reserved": 0, "lon": -77.03848433333333, "fusion_lat": 0.0, "is_disabled": 0, "bike_id": "8983e7cd44163b23a55a03b318809062", "lat": 38.9063125, "rental_uris": {"ios": "https://dc.lft.to/lastmile_qr_scan", "android": "https://dc.lft.to/lastmile_qr_scan"}}, {"type": "electric_scooter", "name": "2a25e4149e5e63bdba4d14e81bb02387", "fusion_lon": 0.0, "is_reserved": 0, "lon": -77.04401366666667, "fusion_lat": 0.0, "is_disabled": 0, "bike_id": "2a25e4149e5e63bdba4d14e81bb02387", "lat": 38.90566316666666, "rental_uris": {"ios": "https://dc.lft.to/lastmile_qr_scan", "android": "https://dc.lft.to/lastmile_qr_scan"}}, {"type": "electric_scooter", "name": "ea8c28adbbe956c858cea075a53eca14", "fusion_lon": 0.0, "is_reserved": 0, "lon": -77.02976316666667, "fusion_lat": 0.0, "is_disabled": 0, "bike_id": "ea8c28adbbe956c858cea075a53eca14", "lat": 38.90626266666666, "rental_uris": {"ios": "https://dc.lft.to/lastmile_qr_scan", "android": "https://dc.lft.to/lastmile_qr_scan"}}, {"type": "electric_scooter", "name": "35bced038a6a2e71e03c42aff4bce225", "fusion_lon": 0.0, "is_reserved": 0, "lon": -77.03687, "fusion_lat": 0.0, "is_disabled": 0, "bike_id": "35bced038a6a2e71e03c42aff4bce225", "lat": 38.916903, "rental_uris": {"ios": "https://dc.lft.to/lastmile_qr_scan", "android": "https://dc.lft.to/lastmile_qr_scan"}}, {"type": "electric_scooter", "name": "6b573f732dd99006bc78e1fa66ccc603", "fusion_lon": 0.0, "is_reserved": 0, "lon": -77.00427766666667, "fusion_lat": 0.0, "is_disabled": 0, "bike_id": "6b573f732dd99006bc78e1fa66ccc603", "lat": 38.87659033333333, "rental_uris": {"ios": "https://dc.lft.to/lastmile_qr_scan", "android": "https://dc.lft.to/lastmile_qr_scan"}}, {"type": "electric_scooter", "name": "1afbdf144cd54e1b205ca34b1408dc4a", "fusion_lon": 0.0, "is_reserved": 0, "lon": -77.03340916666667, "fusion_lat": 0.0, "is_disabled": 0, "bike_id": "1afbdf144cd54e1b205ca34b1408dc4a", "lat": 38.90240466666667, "rental_uris": {"ios": "https://dc.lft.to/lastmile_qr_scan", "android": "https://dc.lft.to/lastmile_qr_scan"}}, {"type": "electric_scooter", "name": "57ba2098a7d450c59a4eb3178eeb06ab", "fusion_lon": 0.0, "is_reserved": 0, "lon": -77.06309466666667, "fusion_lat": 0.0, "is_disabled": 0, "bike_id": "57ba2098a7d450c59a4eb3178eeb06ab", "lat": 38.930259666666664, "rental_uris": {"ios": "https://dc.lft.to/lastmile_qr_scan", "android": "https://dc.lft.to/lastmile_qr_scan"}}, {"type": "electric_scooter", "name": "62d5b2db1f59490ffb99d5f1c56b1cd1", "fusion_lon": 0.0, "is_reserved": 0, "lon": -77.0056285, "fusion_lat": 0.0, "is_disabled": 0, "bike_id": "62d5b2db1f59490ffb99d5f1c56b1cd1", "lat": 38.885041666666666, "rental_uris": {"ios": "https://dc.lft.to/lastmile_qr_scan", "android": "https://dc.lft.to/lastmile_qr_scan"}}, {"type": "electric_bike", "name": "d499140ea78d03cbbeaa619e238e9c70", "fusion_lon": 0.0, "is_reserved": 0, "lon": -77.05142233333333, "fusion_lat": 0.0, "is_disabled": 0, "bike_id": "d499140ea78d03cbbeaa619e238e9c70", "lat": 39.050510333333335, "rental_uris": {"ios": "https://dc.lft.to/lastmile_qr_scan", "android": "https://dc.lft.to/lastmile_qr_scan"}}, {"type": "electric_scooter", "name": "7cfc76a5b99b1893c41470ea1efea2b1", "fusion_lon": 0.0, "is_reserved": 0, "lon": -77.02791383333333, "fusion_lat": 0.0, "is_disabled": 0, "bike_id": "7cfc76a5b99b1893c41470ea1efea2b1", "lat": 38.8938975, "rental_uris": {"ios": "https://dc.lft.to/lastmile_qr_scan", "android": "https://dc.lft.to/lastmile_qr_scan"}}, {"type": "electric_scooter", "name": "d48cb4d6f0e77456db220602c6cea9d9", "fusion_lon": 0.0, "is_reserved": 0, "lon": -77.03190533333333, "fusion_lat": 0.0, "is_disabled": 0, "bike_id": "d48cb4d6f0e77456db220602c6cea9d9", "lat": 38.911634, "rental_uris": {"ios": "https://dc.lft.to/lastmile_qr_scan", "android": "https://dc.lft.to/lastmile_qr_scan"}}, {"type": "electric_bike", "name": "6f5e58afde40d942e7b949ec0ca8edd9", "fusion_lon": 0.0, "is_reserved": 0, "lon": -76.946117, "fusion_lat": 0.0, "is_disabled": 0, "bike_id": "6f5e58afde40d942e7b949ec0ca8edd9", "lat": 38.83237466666667, "rental_uris": {"ios": "https://dc.lft.to/lastmile_qr_scan", "android": "https://dc.lft.to/lastmile_qr_scan"}}, {"type": "electric_scooter", "name": "445923cce65d72f63b7328c5aa02c615", "fusion_lon": 0.0, "is_reserved": 0, "lon": -77.04676466666666, "fusion_lat": 0.0, "is_disabled": 0, "bike_id": "445923cce65d72f63b7328c5aa02c615", "lat": 38.906435333333334, "rental_uris": {"ios": "https://dc.lft.to/lastmile_qr_scan", "android": "https://dc.lft.to/lastmile_qr_scan"}}, {"type": "electric_scooter", "name": "76b2c5e2d0267155fbb58f80a958a3d9", "fusion_lon": 0.0, "is_reserved": 0, "lon": -77.0323605, "fusion_lat": 0.0, "is_disabled": 0, "bike_id": "76b2c5e2d0267155fbb58f80a958a3d9", "lat": 38.904488, "rental_uris": {"ios": "https://dc.lft.to/lastmile_qr_scan", "android": "https://dc.lft.to/lastmile_qr_scan"}}, {"type": "electric_scooter", "name": "047c9c8ff1d0a59afcdf71e5fe65fa6f", "fusion_lon": 0.0, "is_reserved": 0, "lon": -77.04462, "fusion_lat": 0.0, "is_disabled": 0, "bike_id": "047c9c8ff1d0a59afcdf71e5fe65fa6f", "lat": 38.9117365, "rental_uris": {"ios": "https://dc.lft.to/lastmile_qr_scan", "android": "https://dc.lft.to/lastmile_qr_scan"}}, {"type": "electric_scooter", "name": "e61c3fc5714bcf1f3091769e3ec07f92", "fusion_lon": 0.0, "is_reserved": 0, "lon": -77.0373095, "fusion_lat": 0.0, "is_disabled": 0, "bike_id": "e61c3fc5714bcf1f3091769e3ec07f92", "lat": 38.910985333333336, "rental_uris": {"ios": "https://dc.lft.to/lastmile_qr_scan", "android": "https://dc.lft.to/lastmile_qr_scan"}}, {"type": "electric_scooter", "name": "0ef400a042e25ae9f49be8c650f7a9bb", "fusion_lon": 0.0, "is_reserved": 0, "lon": -77.02598033333334, "fusion_lat": 0.0, "is_disabled": 0, "bike_id": "0ef400a042e25ae9f49be8c650f7a9bb", "lat": 38.916926833333335, "rental_uris": {"ios": "https://dc.lft.to/lastmile_qr_scan", "android": "https://dc.lft.to/lastmile_qr_scan"}}, {"type": "electric_scooter", "name": "8789d69359e3cb4e386151cde44c6bfc", "fusion_lon": 0.0, "is_reserved": 0, "lon": -77.04584283333334, "fusion_lat": 0.0, "is_disabled": 0, "bike_id": "8789d69359e3cb4e386151cde44c6bfc", "lat": 38.913614, "rental_uris": {"ios": "https://dc.lft.to/lastmile_qr_scan", "android": "https://dc.lft.to/lastmile_qr_scan"}}, {"type": "electric_scooter", "name": "163b70260e53eb670005d19f9edc4285", "fusion_lon": 0.0, "is_reserved": 0, "lon": -76.9990595, "fusion_lat": 0.0, "is_disabled": 0, "bike_id": "163b70260e53eb670005d19f9edc4285", "lat": 38.923204166666665, "rental_uris": {"ios": "https://dc.lft.to/lastmile_qr_scan", "android": "https://dc.lft.to/lastmile_qr_scan"}}, {"type": "electric_scooter", "name": "e03fda2ddd9dc116f5993cd500957444", "fusion_lon": 0.0, "is_reserved": 0, "lon": -77.04331633333334, "fusion_lat": 0.0, "is_disabled": 0, "bike_id": "e03fda2ddd9dc116f5993cd500957444", "lat": 38.9069845, "rental_uris": {"ios": "https://dc.lft.to/lastmile_qr_scan", "android": "https://dc.lft.to/lastmile_qr_scan"}}, {"type": "electric_scooter", "name": "77d3c2f8eb3f4fdc797fdaca1b11a9ee", "fusion_lon": 0.0, "is_reserved": 0, "lon": -76.985004, "fusion_lat": 0.0, "is_disabled": 0, "bike_id": "77d3c2f8eb3f4fdc797fdaca1b11a9ee", "lat": 38.88029316666667, "rental_uris": {"ios": "https://dc.lft.to/lastmile_qr_scan", "android": "https://dc.lft.to/lastmile_qr_scan"}}, {"type": "electric_scooter", "name": "5f388f85b38a0bc1b3f498d9d0d58c67", "fusion_lon": 0.0, "is_reserved": 0, "lon": -77.03434633333333, "fusion_lat": 0.0, "is_disabled": 0, "bike_id": "5f388f85b38a0bc1b3f498d9d0d58c67", "lat": 38.909739333333334, "rental_uris": {"ios": "https://dc.lft.to/lastmile_qr_scan", "android": "https://dc.lft.to/lastmile_qr_scan"}}, {"type": "electric_scooter", "name": "a79ba9a107b4d45ed736c18f3b5e86e8", "fusion_lon": 0.0, "is_reserved": 0, "lon": -77.04828533333334, "fusion_lat": 0.0, "is_disabled": 0, "bike_id": "a79ba9a107b4d45ed736c18f3b5e86e8", "lat": 38.90059, "rental_uris": {"ios": "https://dc.lft.to/lastmile_qr_scan", "android": "https://dc.lft.to/lastmile_qr_scan"}}, {"type": "electric_scooter", "name": "10bebc9e21ce2405781ba0a281feb914", "fusion_lon": 0.0, "is_reserved": 0, "lon": -77.0046115, "fusion_lat": 0.0, "is_disabled": 0, "bike_id": "10bebc9e21ce2405781ba0a281feb914", "lat": 38.91145083333333, "rental_uris": {"ios": "https://dc.lft.to/lastmile_qr_scan", "android": "https://dc.lft.to/lastmile_qr_scan"}}, {"type": "electric_scooter", "name": "3eea7b19b28892a6f9e503e7f9580fe4", "fusion_lon": 0.0, "is_reserved": 0, "lon": -77.008942, "fusion_lat": 0.0, "is_disabled": 0, "bike_id": "3eea7b19b28892a6f9e503e7f9580fe4", "lat": 38.90580533333333, "rental_uris": {"ios": "https://dc.lft.to/lastmile_qr_scan", "android": "https://dc.lft.to/lastmile_qr_scan"}}, {"type": "electric_scooter", "name": "18caafe6510b9ceb5cd77322af823683", "fusion_lon": 0.0, "is_reserved": 0, "lon": -77.04053833333333, "fusion_lat": 0.0, "is_disabled": 0, "bike_id": "18caafe6510b9ceb5cd77322af823683", "lat": 38.9085605, "rental_uris": {"ios": "https://dc.lft.to/lastmile_qr_scan", "android": "https://dc.lft.to/lastmile_qr_scan"}}, {"type": "electric_scooter", "name": "70ac780a77a895d788c8c804e88f90fa", "fusion_lon": 0.0, "is_reserved": 0, "lon": -77.02211533333333, "fusion_lat": 0.0, "is_disabled": 0, "bike_id": "70ac780a77a895d788c8c804e88f90fa", "lat": 38.91002116666667, "rental_uris": {"ios": "https://dc.lft.to/lastmile_qr_scan", "android": "https://dc.lft.to/lastmile_qr_scan"}}, {"type": "electric_scooter", "name": "8fad105d94d39322871b3b0b018cf778", "fusion_lon": 0.0, "is_reserved": 0, "lon": -77.005593, "fusion_lat": 0.0, "is_disabled": 0, "bike_id": "8fad105d94d39322871b3b0b018cf778", "lat": 38.8809235, "rental_uris": {"ios": "https://dc.lft.to/lastmile_qr_scan", "android": "https://dc.lft.to/lastmile_qr_scan"}}, {"type": "electric_scooter", "name": "07e63bee8413e7ca71c1a37ead3d0ac7", "fusion_lon": 0.0, "is_reserved": 0, "lon": -77.03133666666666, "fusion_lat": 0.0, "is_disabled": 0, "bike_id": "07e63bee8413e7ca71c1a37ead3d0ac7", "lat": 38.89231933333333, "rental_uris": {"ios": "https://dc.lft.to/lastmile_qr_scan", "android": "https://dc.lft.to/lastmile_qr_scan"}}, {"type": "electric_scooter", "name": "29303b2469aeceb91a797ca4450afd1e", "fusion_lon": 0.0, "is_reserved": 0, "lon": -77.046699, "fusion_lat": 0.0, "is_disabled": 0, "bike_id": "29303b2469aeceb91a797ca4450afd1e", "lat": 38.920390166666664, "rental_uris": {"ios": "https://dc.lft.to/lastmile_qr_scan", "android": "https://dc.lft.to/lastmile_qr_scan"}}, {"type": "electric_scooter", "name": "3a76d72cdecb8b77e145fdaf4a4e1327", "fusion_lon": 0.0, "is_reserved": 0, "lon": -77.0272175, "fusion_lat": 0.0, "is_disabled": 0, "bike_id": "3a76d72cdecb8b77e145fdaf4a4e1327", "lat": 38.88737833333333, "rental_uris": {"ios": "https://dc.lft.to/lastmile_qr_scan", "android": "https://dc.lft.to/lastmile_qr_scan"}}, {"type": "electric_scooter", "name": "584e8a352f5ead63dabebb4db1ba1f09", "fusion_lon": 0.0, "is_reserved": 0, "lon": -77.02279783333333, "fusion_lat": 0.0, "is_disabled": 0, "bike_id": "584e8a352f5ead63dabebb4db1ba1f09", "lat": 38.92659033333333, "rental_uris": {"ios": "https://dc.lft.to/lastmile_qr_scan", "android": "https://dc.lft.to/lastmile_qr_scan"}}, {"type": "electric_scooter", "name": "b15f151e2cfd865f1e4b63de8968ddd8", "fusion_lon": 0.0, "is_reserved": 0, "lon": -77.02987266666666, "fusion_lat": 0.0, "is_disabled": 0, "bike_id": "b15f151e2cfd865f1e4b63de8968ddd8", "lat": 38.920417, "rental_uris": {"ios": "https://dc.lft.to/lastmile_qr_scan", "android": "https://dc.lft.to/lastmile_qr_scan"}}, {"type": "electric_scooter", "name": "bf14202c6824995c3171e88d0c13301c", "fusion_lon": 0.0, "is_reserved": 0, "lon": -76.9853775, "fusion_lat": 0.0, "is_disabled": 0, "bike_id": "bf14202c6824995c3171e88d0c13301c", "lat": 38.908853, "rental_uris": {"ios": "https://dc.lft.to/lastmile_qr_scan", "android": "https://dc.lft.to/lastmile_qr_scan"}}, {"type": "electric_scooter", "name": "c73d971086c2f9a1434cc1adbfab9170", "fusion_lon": 0.0, "is_reserved": 0, "lon": -76.95467433333333, "fusion_lat": 0.0, "is_disabled": 0, "bike_id": "c73d971086c2f9a1434cc1adbfab9170", "lat": 38.8867805, "rental_uris": {"ios": "https://dc.lft.to/lastmile_qr_scan", "android": "https://dc.lft.to/lastmile_qr_scan"}}, {"type": "electric_scooter", "name": "cc91ab16b69b9f11f933f4bd9d2ccaed", "fusion_lon": 0.0, "is_reserved": 0, "lon": -77.01687916666667, "fusion_lat": 0.0, "is_disabled": 0, "bike_id": "cc91ab16b69b9f11f933f4bd9d2ccaed", "lat": 38.920974, "rental_uris": {"ios": "https://dc.lft.to/lastmile_qr_scan", "android": "https://dc.lft.to/lastmile_qr_scan"}}, {"type": "electric_scooter", "name": "6dab135a2bcbfb38b20471a8b65aa7c9", "fusion_lon": 0.0, "is_reserved": 0, "lon": -77.02210633333333, "fusion_lat": 0.0, "is_disabled": 0, "bike_id": "6dab135a2bcbfb38b20471a8b65aa7c9", "lat": 38.9155415, "rental_uris": {"ios": "https://dc.lft.to/lastmile_qr_scan", "android": "https://dc.lft.to/lastmile_qr_scan"}}, {"type": "electric_scooter", "name": "d8d056b8b44bc74fdab71733ce228be3", "fusion_lon": 0.0, "is_reserved": 0, "lon": -76.99586633333334, "fusion_lat": 0.0, "is_disabled": 0, "bike_id": "d8d056b8b44bc74fdab71733ce228be3", "lat": 38.90014766666667, "rental_uris": {"ios": "https://dc.lft.to/lastmile_qr_scan", "android": "https://dc.lft.to/lastmile_qr_scan"}}, {"type": "electric_scooter", "name": "08ce6e99e85656fac07ffcd4896450e1", "fusion_lon": 0.0, "is_reserved": 0, "lon": -77.0341185, "fusion_lat": 0.0, "is_disabled": 0, "bike_id": "08ce6e99e85656fac07ffcd4896450e1", "lat": 38.91925083333334, "rental_uris": {"ios": "https://dc.lft.to/lastmile_qr_scan", "android": "https://dc.lft.to/lastmile_qr_scan"}}, {"type": "electric_scooter", "name": "3d76b445558ceb91a726b1b7034bcb24", "fusion_lon": 0.0, "is_reserved": 0, "lon": -77.04649883333333, "fusion_lat": 0.0, "is_disabled": 0, "bike_id": "3d76b445558ceb91a726b1b7034bcb24", "lat": 38.913635166666666, "rental_uris": {"ios": "https://dc.lft.to/lastmile_qr_scan", "android": "https://dc.lft.to/lastmile_qr_scan"}}, {"type": "electric_scooter", "name": "119cae76c4a0568997390efe18769162", "fusion_lon": 0.0, "is_reserved": 0, "lon": -76.94154766666666, "fusion_lat": 0.0, "is_disabled": 0, "bike_id": "119cae76c4a0568997390efe18769162", "lat": 38.88363983333333, "rental_uris": {"ios": "https://dc.lft.to/lastmile_qr_scan", "android": "https://dc.lft.to/lastmile_qr_scan"}}, {"type": "electric_scooter", "name": "c5776176d9a67a761631084e86e0c0fa", "fusion_lon": 0.0, "is_reserved": 0, "lon": -77.000403, "fusion_lat": 0.0, "is_disabled": 0, "bike_id": "c5776176d9a67a761631084e86e0c0fa", "lat": 38.8812535, "rental_uris": {"ios": "https://dc.lft.to/lastmile_qr_scan", "android": "https://dc.lft.to/lastmile_qr_scan"}}, {"type": "electric_scooter", "name": "8ffa4792d2106b60092efe2715ed0a4f", "fusion_lon": 0.0, "is_reserved": 0, "lon": -77.0395755, "fusion_lat": 0.0, "is_disabled": 0, "bike_id": "8ffa4792d2106b60092efe2715ed0a4f", "lat": 38.9019715, "rental_uris": {"ios": "https://dc.lft.to/lastmile_qr_scan", "android": "https://dc.lft.to/lastmile_qr_scan"}}, {"type": "electric_scooter", "name": "4860f7f902df4996eab952e4a9138d8e", "fusion_lon": 0.0, "is_reserved": 0, "lon": -77.03299033333333, "fusion_lat": 0.0, "is_disabled": 0, "bike_id": "4860f7f902df4996eab952e4a9138d8e", "lat": 38.90035, "rental_uris": {"ios": "https://dc.lft.to/lastmile_qr_scan", "android": "https://dc.lft.to/lastmile_qr_scan"}}, {"type": "electric_scooter", "name": "fe9a1a0af51b099b481e2addc711ed06", "fusion_lon": 0.0, "is_reserved": 0, "lon": -77.0448765, "fusion_lat": 0.0, "is_disabled": 0, "bike_id": "fe9a1a0af51b099b481e2addc711ed06", "lat": 38.92230166666667, "rental_uris": {"ios": "https://dc.lft.to/lastmile_qr_scan", "android": "https://dc.lft.to/lastmile_qr_scan"}}, {"type": "electric_scooter", "name": "072af9e2ba948c0bea7fa63c1806564b", "fusion_lon": 0.0, "is_reserved": 0, "lon": -77.04437816666666, "fusion_lat": 0.0, "is_disabled": 0, "bike_id": "072af9e2ba948c0bea7fa63c1806564b", "lat": 38.91091766666667, "rental_uris": {"ios": "https://dc.lft.to/lastmile_qr_scan", "android": "https://dc.lft.to/lastmile_qr_scan"}}, {"type": "electric_scooter", "name": "82f253e1a557bdacecdf51280b154649", "fusion_lon": 0.0, "is_reserved": 0, "lon": -77.07891116666667, "fusion_lat": 0.0, "is_disabled": 0, "bike_id": "82f253e1a557bdacecdf51280b154649", "lat": 38.919233, "rental_uris": {"ios": "https://dc.lft.to/lastmile_qr_scan", "android": "https://dc.lft.to/lastmile_qr_scan"}}, {"type": "electric_scooter", "name": "6b29ff38c9eff4036b06357f66ce6ff4", "fusion_lon": 0.0, "is_reserved": 0, "lon": -77.04689666666667, "fusion_lat": 0.0, "is_disabled": 0, "bike_id": "6b29ff38c9eff4036b06357f66ce6ff4", "lat": 38.905377, "rental_uris": {"ios": "https://dc.lft.to/lastmile_qr_scan", "android": "https://dc.lft.to/lastmile_qr_scan"}}, {"type": "electric_scooter", "name": "8041b9f73b8366171640a25d24defbf5", "fusion_lon": 0.0, "is_reserved": 0, "lon": -76.98136566666666, "fusion_lat": 0.0, "is_disabled": 0, "bike_id": "8041b9f73b8366171640a25d24defbf5", "lat": 38.90315416666667, "rental_uris": {"ios": "https://dc.lft.to/lastmile_qr_scan", "android": "https://dc.lft.to/lastmile_qr_scan"}}, {"type": "electric_scooter", "name": "94a1ef2af36af5db0d2ae3163f3ec6d8", "fusion_lon": 0.0, "is_reserved": 0, "lon": -77.040333, "fusion_lat": 0.0, "is_disabled": 0, "bike_id": "94a1ef2af36af5db0d2ae3163f3ec6d8", "lat": 38.924537, "rental_uris": {"ios": "https://dc.lft.to/lastmile_qr_scan", "android": "https://dc.lft.to/lastmile_qr_scan"}}, {"type": "electric_bike", "name": "07db11c55e3f1cc2140ca8c79b99bf22", "fusion_lon": 0.0, "is_reserved": 0, "lon": -77.09614483333333, "fusion_lat": 0.0, "is_disabled": 0, "bike_id": "07db11c55e3f1cc2140ca8c79b99bf22", "lat": 38.8788305, "rental_uris": {"ios": "https://dc.lft.to/lastmile_qr_scan", "android": "https://dc.lft.to/lastmile_qr_scan"}}, {"type": "electric_scooter", "name": "3841370974fab1affc86eb5907f26e87", "fusion_lon": 0.0, "is_reserved": 0, "lon": -77.03459216666667, "fusion_lat": 0.0, "is_disabled": 0, "bike_id": "3841370974fab1affc86eb5907f26e87", "lat": 38.905145833333336, "rental_uris": {"ios": "https://dc.lft.to/lastmile_qr_scan", "android": "https://dc.lft.to/lastmile_qr_scan"}}, {"type": "electric_scooter", "name": "f829863ebbccff94becbeca3c20d9b80", "fusion_lon": 0.0, "is_reserved": 0, "lon": -77.04190833333334, "fusion_lat": 0.0, "is_disabled": 0, "bike_id": "f829863ebbccff94becbeca3c20d9b80", "lat": 38.92052666666667, "rental_uris": {"ios": "https://dc.lft.to/lastmile_qr_scan", "android": "https://dc.lft.to/lastmile_qr_scan"}}, {"type": "electric_bike", "name": "4c5a8993ef6679a039bf5a074decac52", "fusion_lon": 0.0, "is_reserved": 0, "lon": -77.02480616666666, "fusion_lat": 0.0, "is_disabled": 0, "bike_id": "4c5a8993ef6679a039bf5a074decac52", "lat": 38.89825283333333, "rental_uris": {"ios": "https://dc.lft.to/lastmile_qr_scan", "android": "https://dc.lft.to/lastmile_qr_scan"}}, {"type": "electric_bike", "name": "084f5b6275895e3fed17733441b3642d", "fusion_lon": 0.0, "is_reserved": 0, "lon": -77.11828, "fusion_lat": 0.0, "is_disabled": 0, "bike_id": "084f5b6275895e3fed17733441b3642d", "lat": 38.859378666666665, "rental_uris": {"ios": "https://dc.lft.to/lastmile_qr_scan", "android": "https://dc.lft.to/lastmile_qr_scan"}}, {"type": "electric_scooter", "name": "49eec64d3c72a44f16ed56fff4f3a16a", "fusion_lon": 0.0, "is_reserved": 0, "lon": -77.02651833333333, "fusion_lat": 0.0, "is_disabled": 0, "bike_id": "49eec64d3c72a44f16ed56fff4f3a16a", "lat": 38.94980416666667, "rental_uris": {"ios": "https://dc.lft.to/lastmile_qr_scan", "android": "https://dc.lft.to/lastmile_qr_scan"}}, {"type": "electric_scooter", "name": "043ba69e2f26b7d00dd2ce83d9e15074", "fusion_lon": 0.0, "is_reserved": 0, "lon": -77.03842, "fusion_lat": 0.0, "is_disabled": 0, "bike_id": "043ba69e2f26b7d00dd2ce83d9e15074", "lat": 38.91220416666667, "rental_uris": {"ios": "https://dc.lft.to/lastmile_qr_scan", "android": "https://dc.lft.to/lastmile_qr_scan"}}, {"type": "electric_scooter", "name": "391e890582066542aad6d6286b4cf3b5", "fusion_lon": 0.0, "is_reserved": 0, "lon": -77.0716215, "fusion_lat": 0.0, "is_disabled": 0, "bike_id": "391e890582066542aad6d6286b4cf3b5", "lat": 38.907768833333336, "rental_uris": {"ios": "https://dc.lft.to/lastmile_qr_scan", "android": "https://dc.lft.to/lastmile_qr_scan"}}, {"type": "electric_bike", "name": "4a1171d0930e95d1b402b0f3fa14b71f", "fusion_lon": 0.0, "is_reserved": 0, "lon": -77.00213283333333, "fusion_lat": 0.0, "is_disabled": 0, "bike_id": "4a1171d0930e95d1b402b0f3fa14b71f", "lat": 38.8237005, "rental_uris": {"ios": "https://dc.lft.to/lastmile_qr_scan", "android": "https://dc.lft.to/lastmile_qr_scan"}}, {"type": "electric_scooter", "name": "810d3476c03fe011d6b72dde160ba4ee", "fusion_lon": 0.0, "is_reserved": 0, "lon": -77.04213483333334, "fusion_lat": 0.0, "is_disabled": 0, "bike_id": "810d3476c03fe011d6b72dde160ba4ee", "lat": 38.923096, "rental_uris": {"ios": "https://dc.lft.to/lastmile_qr_scan", "android": "https://dc.lft.to/lastmile_qr_scan"}}, {"type": "electric_scooter", "name": "8ca6adc057305cdcb1f327c09cc978d6", "fusion_lon": 0.0, "is_reserved": 0, "lon": -77.00133683333334, "fusion_lat": 0.0, "is_disabled": 0, "bike_id": "8ca6adc057305cdcb1f327c09cc978d6", "lat": 38.8861255, "rental_uris": {"ios": "https://dc.lft.to/lastmile_qr_scan", "android": "https://dc.lft.to/lastmile_qr_scan"}}, {"type": "electric_scooter", "name": "d77302269f7bb0a19d0f35d98ac6ed48", "fusion_lon": 0.0, "is_reserved": 0, "lon": -77.02778783333333, "fusion_lat": 0.0, "is_disabled": 0, "bike_id": "d77302269f7bb0a19d0f35d98ac6ed48", "lat": 38.95618666666667, "rental_uris": {"ios": "https://dc.lft.to/lastmile_qr_scan", "android": "https://dc.lft.to/lastmile_qr_scan"}}, {"type": "electric_scooter", "name": "a0715eadfba45b302466d28426a79026", "fusion_lon": 0.0, "is_reserved": 0, "lon": -76.98233283333333, "fusion_lat": 0.0, "is_disabled": 0, "bike_id": "a0715eadfba45b302466d28426a79026", "lat": 38.864726166666664, "rental_uris": {"ios": "https://dc.lft.to/lastmile_qr_scan", "android": "https://dc.lft.to/lastmile_qr_scan"}}, {"type": "electric_scooter", "name": "61b50857f9314eff6ed0ec1c39e15407", "fusion_lon": 0.0, "is_reserved": 0, "lon": -77.01824133333334, "fusion_lat": 0.0, "is_disabled": 0, "bike_id": "61b50857f9314eff6ed0ec1c39e15407", "lat": 38.92268383333333, "rental_uris": {"ios": "https://dc.lft.to/lastmile_qr_scan", "android": "https://dc.lft.to/lastmile_qr_scan"}}, {"type": "electric_scooter", "name": "8ad29154101079d919c1f272eae96971", "fusion_lon": 0.0, "is_reserved": 0, "lon": -77.03309633333333, "fusion_lat": 0.0, "is_disabled": 0, "bike_id": "8ad29154101079d919c1f272eae96971", "lat": 38.897539, "rental_uris": {"ios": "https://dc.lft.to/lastmile_qr_scan", "android": "https://dc.lft.to/lastmile_qr_scan"}}, {"type": "electric_scooter", "name": "f474c9e54ce01b95e82aa53bb3816ef9", "fusion_lon": 0.0, "is_reserved": 0, "lon": -77.023493, "fusion_lat": 0.0, "is_disabled": 0, "bike_id": "f474c9e54ce01b95e82aa53bb3816ef9", "lat": 38.89220666666667, "rental_uris": {"ios": "https://dc.lft.to/lastmile_qr_scan", "android": "https://dc.lft.to/lastmile_qr_scan"}}, {"type": "electric_scooter", "name": "f2bc76dbec5ea77f64474b9256fc8329", "fusion_lon": 0.0, "is_reserved": 0, "lon": -77.00710066666667, "fusion_lat": 0.0, "is_disabled": 0, "bike_id": "f2bc76dbec5ea77f64474b9256fc8329", "lat": 38.884915166666666, "rental_uris": {"ios": "https://dc.lft.to/lastmile_qr_scan", "android": "https://dc.lft.to/lastmile_qr_scan"}}, {"type": "electric_scooter", "name": "bf51b30fa4413e458b03610b66fc87b0", "fusion_lon": 0.0, "is_reserved": 0, "lon": -77.03382233333333, "fusion_lat": 0.0, "is_disabled": 0, "bike_id": "bf51b30fa4413e458b03610b66fc87b0", "lat": 38.938287, "rental_uris": {"ios": "https://dc.lft.to/lastmile_qr_scan", "android": "https://dc.lft.to/lastmile_qr_scan"}}, {"type": "electric_scooter", "name": "708bd7166f3fdf56229194442f948d64", "fusion_lon": 0.0, "is_reserved": 0, "lon": -77.04781016666666, "fusion_lat": 0.0, "is_disabled": 0, "bike_id": "708bd7166f3fdf56229194442f948d64", "lat": 38.89365016666667, "rental_uris": {"ios": "https://dc.lft.to/lastmile_qr_scan", "android": "https://dc.lft.to/lastmile_qr_scan"}}, {"type": "electric_scooter", "name": "3e390ae2a0c07944539db744db6f1068", "fusion_lon": 0.0, "is_reserved": 0, "lon": -77.05245233333333, "fusion_lat": 0.0, "is_disabled": 0, "bike_id": "3e390ae2a0c07944539db744db6f1068", "lat": 38.92517316666667, "rental_uris": {"ios": "https://dc.lft.to/lastmile_qr_scan", "android": "https://dc.lft.to/lastmile_qr_scan"}}, {"type": "electric_scooter", "name": "064d0619fa55052522baf0065b01a46a", "fusion_lon": 0.0, "is_reserved": 0, "lon": -77.01472833333334, "fusion_lat": 0.0, "is_disabled": 0, "bike_id": "064d0619fa55052522baf0065b01a46a", "lat": 38.920648166666666, "rental_uris": {"ios": "https://dc.lft.to/lastmile_qr_scan", "android": "https://dc.lft.to/lastmile_qr_scan"}}, {"type": "electric_scooter", "name": "8fac9d9312df19d08696847dd8a3da00", "fusion_lon": 0.0, "is_reserved": 0, "lon": -77.044969, "fusion_lat": 0.0, "is_disabled": 0, "bike_id": "8fac9d9312df19d08696847dd8a3da00", "lat": 38.92229433333333, "rental_uris": {"ios": "https://dc.lft.to/lastmile_qr_scan", "android": "https://dc.lft.to/lastmile_qr_scan"}}, {"type": "electric_scooter", "name": "70f1df1e8192a977b6a7036ca6edaaac", "fusion_lon": 0.0, "is_reserved": 0, "lon": -77.0314135, "fusion_lat": 0.0, "is_disabled": 0, "bike_id": "70f1df1e8192a977b6a7036ca6edaaac", "lat": 38.88301083333333, "rental_uris": {"ios": "https://dc.lft.to/lastmile_qr_scan", "android": "https://dc.lft.to/lastmile_qr_scan"}}, {"type": "electric_scooter", "name": "ef8809aacffc4995ab2f6c10b225ca65", "fusion_lon": 0.0, "is_reserved": 0, "lon": -76.9849415, "fusion_lat": 0.0, "is_disabled": 0, "bike_id": "ef8809aacffc4995ab2f6c10b225ca65", "lat": 38.92036433333333, "rental_uris": {"ios": "https://dc.lft.to/lastmile_qr_scan", "android": "https://dc.lft.to/lastmile_qr_scan"}}, {"type": "electric_scooter", "name": "6d1bc0a680188c4abdbb9761630f3adc", "fusion_lon": 0.0, "is_reserved": 0, "lon": -77.03321583333333, "fusion_lat": 0.0, "is_disabled": 0, "bike_id": "6d1bc0a680188c4abdbb9761630f3adc", "lat": 38.903122, "rental_uris": {"ios": "https://dc.lft.to/lastmile_qr_scan", "android": "https://dc.lft.to/lastmile_qr_scan"}}, {"type": "electric_scooter", "name": "7b71fdd91d71f19fdf7fc447d02ab36d", "fusion_lon": 0.0, "is_reserved": 0, "lon": -77.030061, "fusion_lat": 0.0, "is_disabled": 0, "bike_id": "7b71fdd91d71f19fdf7fc447d02ab36d", "lat": 38.89603016666667, "rental_uris": {"ios": "https://dc.lft.to/lastmile_qr_scan", "android": "https://dc.lft.to/lastmile_qr_scan"}}, {"type": "electric_bike", "name": "85a718f13e6ae238abf0add6d5a9e031", "fusion_lon": 0.0, "is_reserved": 0, "lon": -76.97617233333334, "fusion_lat": 0.0, "is_disabled": 0, "bike_id": "85a718f13e6ae238abf0add6d5a9e031", "lat": 38.892900166666664, "rental_uris": {"ios": "https://dc.lft.to/lastmile_qr_scan", "android": "https://dc.lft.to/lastmile_qr_scan"}}, {"type": "electric_scooter", "name": "437320458390b7ba9a89d3b180ca0c62", "fusion_lon": 0.0, "is_reserved": 0, "lon": -77.02584933333333, "fusion_lat": 0.0, "is_disabled": 0, "bike_id": "437320458390b7ba9a89d3b180ca0c62", "lat": 38.91814083333333, "rental_uris": {"ios": "https://dc.lft.to/lastmile_qr_scan", "android": "https://dc.lft.to/lastmile_qr_scan"}}, {"type": "electric_scooter", "name": "efef862d47e8f0f494d1a83af7c6e9ae", "fusion_lon": 0.0, "is_reserved": 0, "lon": -77.02010816666666, "fusion_lat": 0.0, "is_disabled": 0, "bike_id": "efef862d47e8f0f494d1a83af7c6e9ae", "lat": 38.899547, "rental_uris": {"ios": "https://dc.lft.to/lastmile_qr_scan", "android": "https://dc.lft.to/lastmile_qr_scan"}}, {"type": "electric_scooter", "name": "f8d8a20bf13f85ce21eae90f6237d5cd", "fusion_lon": 0.0, "is_reserved": 0, "lon": -77.02285266666667, "fusion_lat": 0.0, "is_disabled": 0, "bike_id": "f8d8a20bf13f85ce21eae90f6237d5cd", "lat": 38.91703066666667, "rental_uris": {"ios": "https://dc.lft.to/lastmile_qr_scan", "android": "https://dc.lft.to/lastmile_qr_scan"}}, {"type": "electric_scooter", "name": "d2979ee594aa3086751720a9b50d9355", "fusion_lon": 0.0, "is_reserved": 0, "lon": -77.036409, "fusion_lat": 0.0, "is_disabled": 0, "bike_id": "d2979ee594aa3086751720a9b50d9355", "lat": 38.91751033333333, "rental_uris": {"ios": "https://dc.lft.to/lastmile_qr_scan", "android": "https://dc.lft.to/lastmile_qr_scan"}}, {"type": "electric_scooter", "name": "8b76d60aedb7c024b4b3296548b101e0", "fusion_lon": 0.0, "is_reserved": 0, "lon": -77.0449675, "fusion_lat": 0.0, "is_disabled": 0, "bike_id": "8b76d60aedb7c024b4b3296548b101e0", "lat": 38.9103065, "rental_uris": {"ios": "https://dc.lft.to/lastmile_qr_scan", "android": "https://dc.lft.to/lastmile_qr_scan"}}, {"type": "electric_scooter", "name": "d5176e4e14b7edb847475d22f7fe9f46", "fusion_lon": 0.0, "is_reserved": 0, "lon": -77.039558, "fusion_lat": 0.0, "is_disabled": 0, "bike_id": "d5176e4e14b7edb847475d22f7fe9f46", "lat": 38.90244116666667, "rental_uris": {"ios": "https://dc.lft.to/lastmile_qr_scan", "android": "https://dc.lft.to/lastmile_qr_scan"}}, {"type": "electric_scooter", "name": "771e743fc125e146e41e36fb6ec08f61", "fusion_lon": 0.0, "is_reserved": 0, "lon": -77.042948, "fusion_lat": 0.0, "is_disabled": 0, "bike_id": "771e743fc125e146e41e36fb6ec08f61", "lat": 38.9037645, "rental_uris": {"ios": "https://dc.lft.to/lastmile_qr_scan", "android": "https://dc.lft.to/lastmile_qr_scan"}}, {"type": "electric_scooter", "name": "5db6d52bc887387918980af3c6121c2b", "fusion_lon": 0.0, "is_reserved": 0, "lon": -76.99307483333334, "fusion_lat": 0.0, "is_disabled": 0, "bike_id": "5db6d52bc887387918980af3c6121c2b", "lat": 38.90013883333334, "rental_uris": {"ios": "https://dc.lft.to/lastmile_qr_scan", "android": "https://dc.lft.to/lastmile_qr_scan"}}, {"type": "electric_bike", "name": "58b15489703259244624f9a99554a832", "fusion_lon": 0.0, "is_reserved": 0, "lon": -77.02604883333333, "fusion_lat": 0.0, "is_disabled": 0, "bike_id": "58b15489703259244624f9a99554a832", "lat": 38.892839333333335, "rental_uris": {"ios": "https://dc.lft.to/lastmile_qr_scan", "android": "https://dc.lft.to/lastmile_qr_scan"}}, {"type": "electric_scooter", "name": "d1a00e196c2ed44fbec00fdd6b1812aa", "fusion_lon": 0.0, "is_reserved": 0, "lon": -77.04101266666666, "fusion_lat": 0.0, "is_disabled": 0, "bike_id": "d1a00e196c2ed44fbec00fdd6b1812aa", "lat": 38.915691833333334, "rental_uris": {"ios": "https://dc.lft.to/lastmile_qr_scan", "android": "https://dc.lft.to/lastmile_qr_scan"}}, {"type": "electric_scooter", "name": "1d5bdc7cbb9b546f9c12ef114f392709", "fusion_lon": 0.0, "is_reserved": 0, "lon": -77.046896, "fusion_lat": 0.0, "is_disabled": 0, "bike_id": "1d5bdc7cbb9b546f9c12ef114f392709", "lat": 38.892215, "rental_uris": {"ios": "https://dc.lft.to/lastmile_qr_scan", "android": "https://dc.lft.to/lastmile_qr_scan"}}, {"type": "electric_bike", "name": "77d4a7bb218421c313eb28aea2e00608", "fusion_lon": 0.0, "is_reserved": 0, "lon": -77.0549385, "fusion_lat": 0.0, "is_disabled": 0, "bike_id": "77d4a7bb218421c313eb28aea2e00608", "lat": 39.014799, "rental_uris": {"ios": "https://dc.lft.to/lastmile_qr_scan", "android": "https://dc.lft.to/lastmile_qr_scan"}}, {"type": "electric_scooter", "name": "34dd1b86eea3d8deec0d2c7fb124142f", "fusion_lon": 0.0, "is_reserved": 0, "lon": -77.0319035, "fusion_lat": 0.0, "is_disabled": 0, "bike_id": "34dd1b86eea3d8deec0d2c7fb124142f", "lat": 38.91029133333333, "rental_uris": {"ios": "https://dc.lft.to/lastmile_qr_scan", "android": "https://dc.lft.to/lastmile_qr_scan"}}, {"type": "electric_scooter", "name": "2daa3bdec6944fb1ed485f2c134c6686", "fusion_lon": 0.0, "is_reserved": 0, "lon": -77.02386, "fusion_lat": 0.0, "is_disabled": 0, "bike_id": "2daa3bdec6944fb1ed485f2c134c6686", "lat": 38.906467, "rental_uris": {"ios": "https://dc.lft.to/lastmile_qr_scan", "android": "https://dc.lft.to/lastmile_qr_scan"}}, {"type": "electric_scooter", "name": "7f30810f4dca3987ad42701e98ff2030", "fusion_lon": 0.0, "is_reserved": 0, "lon": -77.05935933333333, "fusion_lat": 0.0, "is_disabled": 0, "bike_id": "7f30810f4dca3987ad42701e98ff2030", "lat": 38.905195166666665, "rental_uris": {"ios": "https://dc.lft.to/lastmile_qr_scan", "android": "https://dc.lft.to/lastmile_qr_scan"}}, {"type": "electric_scooter", "name": "9f60b0de87671451aaa263c02af7ddcd", "fusion_lon": 0.0, "is_reserved": 0, "lon": -77.07312366666666, "fusion_lat": 0.0, "is_disabled": 0, "bike_id": "9f60b0de87671451aaa263c02af7ddcd", "lat": 38.93565533333334, "rental_uris": {"ios": "https://dc.lft.to/lastmile_qr_scan", "android": "https://dc.lft.to/lastmile_qr_scan"}}, {"type": "electric_scooter", "name": "06347d762504fa6917c66f676c0b45e6", "fusion_lon": 0.0, "is_reserved": 0, "lon": -77.0450265, "fusion_lat": 0.0, "is_disabled": 0, "bike_id": "06347d762504fa6917c66f676c0b45e6", "lat": 38.914797666666665, "rental_uris": {"ios": "https://dc.lft.to/lastmile_qr_scan", "android": "https://dc.lft.to/lastmile_qr_scan"}}, {"type": "electric_scooter", "name": "0061cae273b4a5a745a433f17172cad6", "fusion_lon": 0.0, "is_reserved": 0, "lon": -77.01361366666667, "fusion_lat": 0.0, "is_disabled": 0, "bike_id": "0061cae273b4a5a745a433f17172cad6", "lat": 38.951265166666666, "rental_uris": {"ios": "https://dc.lft.to/lastmile_qr_scan", "android": "https://dc.lft.to/lastmile_qr_scan"}}, {"type": "electric_scooter", "name": "ad99cbed0971173f86a062e5ec394abd", "fusion_lon": 0.0, "is_reserved": 0, "lon": -77.02879433333334, "fusion_lat": 0.0, "is_disabled": 0, "bike_id": "ad99cbed0971173f86a062e5ec394abd", "lat": 38.89495383333333, "rental_uris": {"ios": "https://dc.lft.to/lastmile_qr_scan", "android": "https://dc.lft.to/lastmile_qr_scan"}}, {"type": "electric_scooter", "name": "1ea286927fafb5779962b0284798466c", "fusion_lon": 0.0, "is_reserved": 0, "lon": -77.0314785, "fusion_lat": 0.0, "is_disabled": 0, "bike_id": "1ea286927fafb5779962b0284798466c", "lat": 38.911147, "rental_uris": {"ios": "https://dc.lft.to/lastmile_qr_scan", "android": "https://dc.lft.to/lastmile_qr_scan"}}, {"type": "electric_scooter", "name": "031df8e79a088e87ef86fb84c43afd59", "fusion_lon": 0.0, "is_reserved": 0, "lon": -77.01874466666666, "fusion_lat": 0.0, "is_disabled": 0, "bike_id": "031df8e79a088e87ef86fb84c43afd59", "lat": 38.92124183333333, "rental_uris": {"ios": "https://dc.lft.to/lastmile_qr_scan", "android": "https://dc.lft.to/lastmile_qr_scan"}}, {"type": "electric_scooter", "name": "fe0f94b697d7c00d0a8790bb245fbb7e", "fusion_lon": 0.0, "is_reserved": 0, "lon": -76.995638, "fusion_lat": 0.0, "is_disabled": 0, "bike_id": "fe0f94b697d7c00d0a8790bb245fbb7e", "lat": 38.950726833333334, "rental_uris": {"ios": "https://dc.lft.to/lastmile_qr_scan", "android": "https://dc.lft.to/lastmile_qr_scan"}}, {"type": "electric_scooter", "name": "ef487fa842e9e89cd8c1f164c1c121e1", "fusion_lon": 0.0, "is_reserved": 0, "lon": -77.04355083333333, "fusion_lat": 0.0, "is_disabled": 0, "bike_id": "ef487fa842e9e89cd8c1f164c1c121e1", "lat": 38.90403766666667, "rental_uris": {"ios": "https://dc.lft.to/lastmile_qr_scan", "android": "https://dc.lft.to/lastmile_qr_scan"}}, {"type": "electric_scooter", "name": "aad95928f200a5e9548b00441f20144e", "fusion_lon": 0.0, "is_reserved": 0, "lon": -77.03904266666666, "fusion_lat": 0.0, "is_disabled": 0, "bike_id": "aad95928f200a5e9548b00441f20144e", "lat": 38.90342916666667, "rental_uris": {"ios": "https://dc.lft.to/lastmile_qr_scan", "android": "https://dc.lft.to/lastmile_qr_scan"}}, {"type": "electric_bike", "name": "73655e05adbcb8e4f0f64a7e2cbaed2f", "fusion_lon": 0.0, "is_reserved": 0, "lon": -77.2255355, "fusion_lat": 0.0, "is_disabled": 0, "bike_id": "73655e05adbcb8e4f0f64a7e2cbaed2f", "lat": 38.92962933333333, "rental_uris": {"ios": "https://dc.lft.to/lastmile_qr_scan", "android": "https://dc.lft.to/lastmile_qr_scan"}}, {"type": "electric_scooter", "name": "5ca31c6688b5e1d2e5700f96f78b18e0", "fusion_lon": 0.0, "is_reserved": 0, "lon": -77.03313483333334, "fusion_lat": 0.0, "is_disabled": 0, "bike_id": "5ca31c6688b5e1d2e5700f96f78b18e0", "lat": 38.90839366666667, "rental_uris": {"ios": "https://dc.lft.to/lastmile_qr_scan", "android": "https://dc.lft.to/lastmile_qr_scan"}}, {"type": "electric_scooter", "name": "2bbc7b7eac454e86bcafa295db7f2e2a", "fusion_lon": 0.0, "is_reserved": 0, "lon": -77.05656916666666, "fusion_lat": 0.0, "is_disabled": 0, "bike_id": "2bbc7b7eac454e86bcafa295db7f2e2a", "lat": 38.895457666666665, "rental_uris": {"ios": "https://dc.lft.to/lastmile_qr_scan", "android": "https://dc.lft.to/lastmile_qr_scan"}}, {"type": "electric_scooter", "name": "bcc5809a30a9b4fc32c55ca9d6ce7d7d", "fusion_lon": 0.0, "is_reserved": 0, "lon": -77.02112016666666, "fusion_lat": 0.0, "is_disabled": 0, "bike_id": "bcc5809a30a9b4fc32c55ca9d6ce7d7d", "lat": 38.91114016666667, "rental_uris": {"ios": "https://dc.lft.to/lastmile_qr_scan", "android": "https://dc.lft.to/lastmile_qr_scan"}}, {"type": "electric_scooter", "name": "f9acbeae758e502a3f8282affd0ca8d8", "fusion_lon": 0.0, "is_reserved": 0, "lon": -77.04198766666667, "fusion_lat": 0.0, "is_disabled": 0, "bike_id": "f9acbeae758e502a3f8282affd0ca8d8", "lat": 38.9054545, "rental_uris": {"ios": "https://dc.lft.to/lastmile_qr_scan", "android": "https://dc.lft.to/lastmile_qr_scan"}}, {"type": "electric_bike", "name": "a280bd8702514745aa5f1cbb1f0837b8", "fusion_lon": 0.0, "is_reserved": 0, "lon": -77.0402075, "fusion_lat": 0.0, "is_disabled": 0, "bike_id": "a280bd8702514745aa5f1cbb1f0837b8", "lat": 38.908448666666665, "rental_uris": {"ios": "https://dc.lft.to/lastmile_qr_scan", "android": "https://dc.lft.to/lastmile_qr_scan"}}, {"type": "electric_scooter", "name": "1df929d0fd374dd2355d75b738294e8c", "fusion_lon": 0.0, "is_reserved": 0, "lon": -77.07410783333333, "fusion_lat": 0.0, "is_disabled": 0, "bike_id": "1df929d0fd374dd2355d75b738294e8c", "lat": 38.908307, "rental_uris": {"ios": "https://dc.lft.to/lastmile_qr_scan", "android": "https://dc.lft.to/lastmile_qr_scan"}}, {"type": "electric_scooter", "name": "9eb6bb8483e98f2f5984d6702aefde5e", "fusion_lon": 0.0, "is_reserved": 0, "lon": -77.04660283333334, "fusion_lat": 0.0, "is_disabled": 0, "bike_id": "9eb6bb8483e98f2f5984d6702aefde5e", "lat": 38.90646616666667, "rental_uris": {"ios": "https://dc.lft.to/lastmile_qr_scan", "android": "https://dc.lft.to/lastmile_qr_scan"}}, {"type": "electric_scooter", "name": "a8c1a9f2fa2ed231a16153ab6f130a10", "fusion_lon": 0.0, "is_reserved": 0, "lon": -77.043197, "fusion_lat": 0.0, "is_disabled": 0, "bike_id": "a8c1a9f2fa2ed231a16153ab6f130a10", "lat": 38.905546666666666, "rental_uris": {"ios": "https://dc.lft.to/lastmile_qr_scan", "android": "https://dc.lft.to/lastmile_qr_scan"}}, {"type": "electric_scooter", "name": "c273d0c8d055a55c36800c5f6d433f79", "fusion_lon": 0.0, "is_reserved": 0, "lon": -77.0487695, "fusion_lat": 0.0, "is_disabled": 0, "bike_id": "c273d0c8d055a55c36800c5f6d433f79", "lat": 38.900794833333336, "rental_uris": {"ios": "https://dc.lft.to/lastmile_qr_scan", "android": "https://dc.lft.to/lastmile_qr_scan"}}, {"type": "electric_scooter", "name": "2e85df940ae3a9f6932ae4a8bf731d64", "fusion_lon": 0.0, "is_reserved": 0, "lon": -77.03147983333334, "fusion_lat": 0.0, "is_disabled": 0, "bike_id": "2e85df940ae3a9f6932ae4a8bf731d64", "lat": 38.91117466666667, "rental_uris": {"ios": "https://dc.lft.to/lastmile_qr_scan", "android": "https://dc.lft.to/lastmile_qr_scan"}}, {"type": "electric_scooter", "name": "6869ec3a8f20b117937b876f8dea12fc", "fusion_lon": 0.0, "is_reserved": 0, "lon": -77.02262683333333, "fusion_lat": 0.0, "is_disabled": 0, "bike_id": "6869ec3a8f20b117937b876f8dea12fc", "lat": 38.92096316666667, "rental_uris": {"ios": "https://dc.lft.to/lastmile_qr_scan", "android": "https://dc.lft.to/lastmile_qr_scan"}}, {"type": "electric_scooter", "name": "e8ceb355a0b9f91a8212e253a7e96c50", "fusion_lon": 0.0, "is_reserved": 0, "lon": -76.93917116666667, "fusion_lat": 0.0, "is_disabled": 0, "bike_id": "e8ceb355a0b9f91a8212e253a7e96c50", "lat": 38.891439166666665, "rental_uris": {"ios": "https://dc.lft.to/lastmile_qr_scan", "android": "https://dc.lft.to/lastmile_qr_scan"}}, {"type": "electric_scooter", "name": "c1763e0fae2ee375af481d403c8f6f15", "fusion_lon": 0.0, "is_reserved": 0, "lon": -77.02504166666667, "fusion_lat": 0.0, "is_disabled": 0, "bike_id": "c1763e0fae2ee375af481d403c8f6f15", "lat": 38.905676666666665, "rental_uris": {"ios": "https://dc.lft.to/lastmile_qr_scan", "android": "https://dc.lft.to/lastmile_qr_scan"}},