{"data": {"bikes": [{"is_disabled": 0, "fusion_lon": 0.0, "fusion_lat": 0.0, "lat": 38.90707783333333, "type": "electric_scooter", "lon": -77.046615, "bike_id": "9f942e43267c9575a2cc4c50e369da83", "rental_uris": {"android": "https://dc.lft.to/lastmile_qr_scan", "ios": "https://dc.lft.to/lastmile_qr_scan"}, "name": "9f942e43267c9575a2cc4c50e369da83", "is_reserved": 0}, {"is_disabled": 0, "fusion_lon": 0.0, "fusion_lat": 0.0, "lat": 38.923393833333336, "type": "electric_scooter", "lon": -77.04195216666666, "bike_id": "ef689af2051eeb868100b4ffcec44932", "rental_uris": {"android": "https://dc.lft.to/lastmile_qr_scan", "ios": "https://dc.lft.to/lastmile_qr_scan"}, "name": "ef689af2051eeb868100b4ffcec44932", "is_reserved": 0}, {"is_disabled": 0, "fusion_lon": 0.0, "fusion_lat": 0.0, "lat": 38.871616, "type": "electric_scooter", "lon": -77.01352416666667, "bike_id": "da28629850acaafbaf6476787f7f3173", "rental_uris": {"android": "https://dc.lft.to/lastmile_qr_scan", "ios": "https://dc.lft.to/lastmile_qr_scan"}, "name": "da28629850acaafbaf6476787f7f3173", "is_reserved": 0}, {"is_disabled": 0, "fusion_lon": 0.0, "fusion_lat": 0.0, "lat": 38.900627166666666, "type": "electric_scooter", "lon": -76.9338465, "bike_id": "67c1879320afc6cf86413c72515f9e7e", "rental_uris": {"android": "https://dc.lft.to/lastmile_qr_scan", "ios": "https://dc.lft.to/lastmile_qr_scan"}, "name": "67c1879320afc6cf86413c72515f9e7e", "is_reserved": 0}, {"is_disabled": 0, "fusion_lon": 0.0, "fusion_lat": 0.0, "lat": 38.8770055, "type": "electric_scooter", "lon": -77.0050575, "bike_id": "d939667245ba72ef2e7ed1b330249257", "rental_uris": {"android": "https://dc.lft.to/lastmile_qr_scan", "ios": "https://dc.lft.to/lastmile_qr_scan"}, "name": "d939667245ba72ef2e7ed1b330249257", "is_reserved": 0}, {"is_disabled": 0, "fusion_lon": 0.0, "fusion_lat": 0.0, "lat": 38.878937666666666, "type": "electric_scooter", "lon": -76.935249, "bike_id": "b7886a6c5f2d14809d5281f26522577f", "rental_uris": {"android": "https://dc.lft.to/lastmile_qr_scan", "ios": "https://dc.lft.to/lastmile_qr_scan"}, "name": "b7886a6c5f2d14809d5281f26522577f", "is_reserved": 0}, {"is_disabled": 0, "fusion_lon": 0.0, "fusion_lat": 0.0, "lat": 38.899722, "type": "electric_scooter", "lon": -77.05141666666667, "bike_id": "a517f68e2fb42f3ffa0bf217391048b4", "rental_uris": {"android": "https://dc.lft.to/lastmile_qr_scan", "ios": "https://dc.lft.to/lastmile_qr_scan"}, "name": "a517f68e2fb42f3ffa0bf217391048b4", "is_reserved": 0}, {"is_disabled": 0, "fusion_lon": 0.0, "fusion_lat": 0.0, "lat": 38.913030666666664, "type": "electric_scooter", "lon": -77.03838216666666, "bike_id": "b8e110299d950166e89c021f95293962", "rental_uris": {"android": "https://dc.lft.to/lastmile_qr_scan", "ios": "https://dc.lft.to/lastmile_qr_scan"}, "name": "b8e110299d950166e89c021f95293962", "is_reserved": 0}, {"is_disabled": 0, "fusion_lon": 0.0, "fusion_lat": 0.0, "lat": 38.9360655, "type": "electric_scooter", "lon": -77.05856916666667, "bike_id": "de56535f2a025ef33af6fee15e91ee35", "rental_uris": {"android": "https://dc.lft.to/lastmile_qr_scan", "ios": "https://dc.lft.to/lastmile_qr_scan"}, "name": "de56535f2a025ef33af6fee15e91ee35", "is_reserved": 0}, {"is_disabled": 0, "fusion_lon": 0.0, "fusion_lat": 0.0, "lat": 38.924161833333336, "type": "electric_scooter", "lon": -77.041596, "bike_id": "aa81f10951d3e82fddde91ff56f5b53a", "rental_uris": {"android": "https://dc.lft.to/lastmile_qr_scan", "ios": "https://dc.lft.to/lastmile_qr_scan"}, "name": "aa81f10951d3e82fddde91ff56f5b53a", "is_reserved": 0}, {"is_disabled": 0, "fusion_lon": 0.0, "fusion_lat": 0.0, "lat": 38.9117405, "type": "electric_scooter", "lon": -77.0044885, "bike_id": "66c147f9efbc57e040167da9cc1a9b03", "rental_uris": {"android": "https://dc.lft.to/lastmile_qr_scan", "ios": "https://dc.lft.to/lastmile_qr_scan"}, "name": "66c147f9efbc57e040167da9cc1a9b03", "is_reserved": 0}, {"is_disabled": 0, "fusion_lon": 0.0, "fusion_lat": 0.0, "lat": 38.933661, "type": "electric_scooter", "lon": -77.05730583333333, "bike_id": "24d9b65f8402ba726e9a5e5ee7dc82d5", "rental_uris": {"android": "https://dc.lft.to/lastmile_qr_scan", "ios": "https://dc.lft.to/lastmile_qr_scan"}, "name": "24d9b65f8402ba726e9a5e5ee7dc82d5", "is_reserved": 0}, {"is_disabled": 0, "fusion_lon": 0.0, "fusion_lat": 0.0, "lat": 38.916216666666664, "type": "electric_bike", "lon": -77.01356133333333, "bike_id": "ee71a13444746d8e89802ed4cc72b975", "rental_uris": {"android": "https://dc.lft.to/lastmile_qr_scan", "ios": "https://dc.lft.to/lastmile_qr_scan"}, "name": "ee71a13444746d8e89802ed4cc72b975", "is_reserved": 0}, {"is_disabled": 0, "fusion_lon": 0.0, "fusion_lat": 0.0, "lat": 38.902746666666665, "type": "electric_scooter", "lon": -77.03834466666666, "bike_id": "952f127d97c15118ade005aaf5ae1721", "rental_uris": {"android": "https://dc.lft.to/lastmile_qr_scan", "ios": "https://dc.lft.to/lastmile_qr_scan"}, "name": "952f127d97c15118ade005aaf5ae1721", "is_reserved": 0}, {"is_disabled": 0, "fusion_lon": 0.0, "fusion_lat": 0.0, "lat": 38.879811833333335, "type": "electric_bike", "lon": -76.91595533333333, "bike_id": "33b133b6b0784dad23172b13b4681748", "rental_uris": {"android": "https://dc.lft.to/lastmile_qr_scan", "ios": "https://dc.lft.to/lastmile_qr_scan"}, "name": "33b133b6b0784dad23172b13b4681748", "is_reserved": 0}, {"is_disabled": 0, "fusion_lon": 0.0, "fusion_lat": 0.0, "lat": 38.89221166666667, "type": "electric_scooter", "lon": -77.03340383333334, "bike_id": "38ec7ae54fe81f57f57475597d843324", "rental_uris": {"android": "https://dc.lft.to/lastmile_qr_scan", "ios": "https://dc.lft.to/lastmile_qr_scan"}, "name": "38ec7ae54fe81f57f57475597d843324", "is_reserved": 0}, {"is_disabled": 0, "fusion_lon": 0.0, "fusion_lat": 0.0, "lat": 38.903619, "type": "electric_scooter", "lon": -77.0502015, "bike_id": "1abdfe880ab64fedb85488f2ad567958", "rental_uris": {"android": "https://dc.lft.to/lastmile_qr_scan", "ios": "https://dc.lft.to/lastmile_qr_scan"}, "name": "1abdfe880ab64fedb85488f2ad567958", "is_reserved": 0}, {"is_disabled": 0, "fusion_lon": 0.0, "fusion_lat": 0.0, "lat": 38.90272066666667, "type": "electric_scooter", "lon": -77.03453116666667, "bike_id": "c71ac769fc24713c166c41a154496cb9", "rental_uris": {"android": "https://dc.lft.to/lastmile_qr_scan", "ios": "https://dc.lft.to/lastmile_qr_scan"}, "name": "c71ac769fc24713c166c41a154496cb9", "is_reserved": 0}, {"is_disabled": 0, "fusion_lon": 0.0, "fusion_lat": 0.0, "lat": 38.919079333333336, "type": "electric_scooter", "lon": -77.02389833333334, "bike_id": "0cf8c71c4fc97c09e509c25be451c3ac", "rental_uris": {"android": "https://dc.lft.to/lastmile_qr_scan", "ios": "https://dc.lft.to/lastmile_qr_scan"}, "name": "0cf8c71c4fc97c09e509c25be451c3ac", "is_reserved": 0}, {"is_disabled": 0, "fusion_lon": 0.0, "fusion_lat": 0.0, "lat": 38.90723366666667, "type": "electric_scooter", "lon": -77.03837583333333, "bike_id": "d898c7c74581c58a28c19da1cc9e257c", "rental_uris": {"android": "https://dc.lft.to/lastmile_qr_scan", "ios": "https://dc.lft.to/lastmile_qr_scan"}, "name": "d898c7c74581c58a28c19da1cc9e257c", "is_reserved": 0}, {"is_disabled": 0, "fusion_lon": 0.0, "fusion_lat": 0.0, "lat": 38.9115245, "type": "electric_scooter", "lon": -77.0879125, "bike_id": "54e8b4768aa42842c6e288fe2e1de44a", "rental_uris": {"android": "https://dc.lft.to/lastmile_qr_scan", "ios": "https://dc.lft.to/lastmile_qr_scan"}, "name": "54e8b4768aa42842c6e288fe2e1de44a", "is_reserved": 0}, {"is_disabled": 0, "fusion_lon": 0.0, "fusion_lat": 0.0, "lat": 38.85834416666667, "type": "electric_bike", "lon": -76.99283566666666, "bike_id": "463c9d33a5d8eaa3257bc9f4157f7937", "rental_uris": {"android": "https://dc.lft.to/lastmile_qr_scan", "ios": "https://dc.lft.to/lastmile_qr_scan"}, "name": "463c9d33a5d8eaa3257bc9f4157f7937", "is_reserved": 0}, {"is_disabled": 0, "fusion_lon": 0.0, "fusion_lat": 0.0, "lat": 38.8808385, "type": "electric_scooter", "lon": -77.01654983333333, "bike_id": "a8771f2e865ea5c31fd4a972d38739a4", "rental_uris": {"android": "https://dc.lft.to/lastmile_qr_scan", "ios": "https://dc.lft.to/lastmile_qr_scan"}, "name": "a8771f2e865ea5c31fd4a972d38739a4", "is_reserved": 0}, {"is_disabled": 0, "fusion_lon": 0.0, "fusion_lat": 0.0, "lat": 38.9065245, "type": "electric_scooter", "lon": -77.0270115, "bike_id": "9937bda903ce6a9caca7737d3ec171d1", "rental_uris": {"android": "https://dc.lft.to/lastmile_qr_scan", "ios": "https://dc.lft.to/lastmile_qr_scan"}, "name": "9937bda903ce6a9caca7737d3ec171d1", "is_reserved": 0}, {"is_disabled": 0, "fusion_lon": 0.0, "fusion_lat": 0.0, "lat": 38.91850316666667, "type": "electric_scooter", "lon": -77.044981, "bike_id": "50d97a34031b49af8ddda237232df1ad", "rental_uris": {"android": "https://dc.lft.to/lastmile_qr_scan", "ios": "https://dc.lft.to/lastmile_qr_scan"}, "name": "50d97a34031b49af8ddda237232df1ad", "is_reserved": 0}, {"is_disabled": 0, "fusion_lon": 0.0, "fusion_lat": 0.0, "lat": 38.87308766666666, "type": "electric_bike", "lon": -76.97105583333334, "bike_id": "f6e73dc92343574f5e6869e5223dfed3", "rental_uris": {"android": "https://dc.lft.to/lastmile_qr_scan", "ios": "https://dc.lft.to/lastmile_qr_scan"}, "name": "f6e73dc92343574f5e6869e5223dfed3", "is_reserved": 0}, {"is_disabled": 0, "fusion_lon": 0.0, "fusion_lat": 0.0, "lat": 38.89739633333333, "type": "electric_scooter", "lon": -77.04808416666667, "bike_id": "4ee2cdaadbb0ea8f7954eac843c7e2dd", "rental_uris": {"android": "https://dc.lft.to/lastmile_qr_scan", "ios": "https://dc.lft.to/lastmile_qr_scan"}, "name": "4ee2cdaadbb0ea8f7954eac843c7e2dd", "is_reserved": 0}, {"is_disabled": 0, "fusion_lon": 0.0, "fusion_lat": 0.0, "lat": 38.96642716666667, "type": "electric_bike", "lon": -76.93022766666667, "bike_id": "e7a5242849abe43060f791460713bf2d", "rental_uris": {"android": "https://dc.lft.to/lastmile_qr_scan", "ios": "https://dc.lft.to/lastmile_qr_scan"}, "name": "e7a5242849abe43060f791460713bf2d", "is_reserved": 0}, {"is_disabled": 0, "fusion_lon": 0.0, "fusion_lat": 0.0, "lat": 38.903578, "type": "electric_scooter", "lon": -77.037203, "bike_id": "239be9472b654d06f0892a9e02870ce5", "rental_uris": {"android": "https://dc.lft.to/lastmile_qr_scan", "ios": "https://dc.lft.to/lastmile_qr_scan"}, "name": "239be9472b654d06f0892a9e02870ce5", "is_reserved": 0}, {"is_disabled": 0, "fusion_lon": 0.0, "fusion_lat": 0.0, "lat": 38.95373933333333, "type": "electric_scooter", "lon": -77.02560033333333, "bike_id": "7735e2840431496785768d30ba5f17b5", "rental_uris": {"android": "https://dc.lft.to/lastmile_qr_scan", "ios": "https://dc.lft.to/lastmile_qr_scan"}, "name": "7735e2840431496785768d30ba5f17b5", "is_reserved": 0}, {"is_disabled": 0, "fusion_lon": 0.0, "fusion_lat": 0.0, "lat": 38.922458, "type": "electric_scooter", "lon": -77.03085566666667, "bike_id": "255bb3d5eecb617dd691e28b5d437986", "rental_uris": {"android": "https://dc.lft.to/lastmile_qr_scan", "ios": "https://dc.lft.to/lastmile_qr_scan"}, "name": "255bb3d5eecb617dd691e28b5d437986", "is_reserved": 0}, {"is_disabled": 0, "fusion_lon": 0.0, "fusion_lat": 0.0, "lat": 38.9650255, "type": "electric_scooter", "lon": -77.02480716666666, "bike_id": "6fec7be97c111f078b07a2cdc4cb3262", "rental_uris": {"android": "https://dc.lft.to/lastmile_qr_scan", "ios": "https://dc.lft.to/lastmile_qr_scan"}, "name": "6fec7be97c111f078b07a2cdc4cb3262", "is_reserved": 0}, {"is_disabled": 0, "fusion_lon": 0.0, "fusion_lat": 0.0, "lat": 38.93012433333333, "type": "electric_scooter", "lon": -77.07850233333333, "bike_id": "a694ad800d194232839757ad2460a874", "rental_uris": {"android": "https://dc.lft.to/lastmile_qr_scan", "ios": "https://dc.lft.to/lastmile_qr_scan"}, "name": "a694ad800d194232839757ad2460a874", "is_reserved": 0}, {"is_disabled": 0, "fusion_lon": 0.0, "fusion_lat": 0.0, "lat": 38.90818433333333, "type": "electric_scooter", "lon": -77.033442, "bike_id": "ec5e76a88a70ff6c1c7fd9221d6a7daf", "rental_uris": {"android": "https://dc.lft.to/lastmile_qr_scan", "ios": "https://dc.lft.to/lastmile_qr_scan"}, "name": "ec5e76a88a70ff6c1c7fd9221d6a7daf", "is_reserved": 0}, {"is_disabled": 0, "fusion_lon": 0.0, "fusion_lat": 0.0, "lat": 38.903488, "type": "electric_scooter", "lon": -77.037949, "bike_id": "5d86e6c44c8672c964fb47a57a8f54e8", "rental_uris": {"android": "https://dc.lft.to/lastmile_qr_scan", "ios": "https://dc.lft.to/lastmile_qr_scan"}, "name": "5d86e6c44c8672c964fb47a57a8f54e8", "is_reserved": 0}, {"is_disabled": 0, "fusion_lon": 0.0, "fusion_lat": 0.0, "lat": 38.90653266666666, "type": "electric_scooter", "lon": -77.0253055, "bike_id": "6ef8a2726e50fd19c39dcc9b5fa883a3", "rental_uris": {"android": "https://dc.lft.to/lastmile_qr_scan", "ios": "https://dc.lft.to/lastmile_qr_scan"}, "name": "6ef8a2726e50fd19c39dcc9b5fa883a3", "is_reserved": 0}, {"is_disabled": 0, "fusion_lon": 0.0, "fusion_lat": 0.0, "lat": 38.908570833333336, "type": "electric_scooter", "lon": -76.99827716666667, "bike_id": "72afb95c96a1113209970e0f4a8e78be", "rental_uris": {"android": "https://dc.lft.to/lastmile_qr_scan", "ios": "https://dc.lft.to/lastmile_qr_scan"}, "name": "72afb95c96a1113209970e0f4a8e78be", "is_reserved": 0}, {"is_disabled": 0, "fusion_lon": 0.0, "fusion_lat": 0.0, "lat": 38.831698, "type": "electric_bike", "lon": -76.99754983333334, "bike_id": "3475f37c0f8962cbabe9e030f8cd42fb", "rental_uris": {"android": "https://dc.lft.to/lastmile_qr_scan", "ios": "https://dc.lft.to/lastmile_qr_scan"}, "name": "3475f37c0f8962cbabe9e030f8cd42fb", "is_reserved": 0}, {"is_disabled": 0, "fusion_lon": 0.0, "fusion_lat": 0.0, "lat": 38.9138285, "type": "electric_scooter", "lon": -77.029686, "bike_id": "b1772b3470426f3e0cb9d0d3daab5769", "rental_uris": {"android": "https://dc.lft.to/lastmile_qr_scan", "ios": "https://dc.lft.to/lastmile_qr_scan"}, "name": "b1772b3470426f3e0cb9d0d3daab5769", "is_reserved": 0}, {"is_disabled": 0, "fusion_lon": 0.0, "fusion_lat": 0.0, "lat": 38.909434, "type": "electric_scooter", "lon": -77.01529916666667, "bike_id": "a2a9b9e036717a162c9d70f6985c7f55", "rental_uris": {"android": "https://dc.lft.to/lastmile_qr_scan", "ios": "https://dc.lft.to/lastmile_qr_scan"}, "name": "a2a9b9e036717a162c9d70f6985c7f55", "is_reserved": 0}, {"is_disabled": 0, "fusion_lon": 0.0, "fusion_lat": 0.0, "lat": 38.883499666666665, "type": "electric_scooter", "lon": -76.92788183333333, "bike_id": "42e989dc06e0aba42c262aaed5d5b2c7", "rental_uris": {"android": "https://dc.lft.to/lastmile_qr_scan", "ios": "https://dc.lft.to/lastmile_qr_scan"}, "name": "42e989dc06e0aba42c262aaed5d5b2c7", "is_reserved": 0}, {"is_disabled": 0, "fusion_lon": 0.0, "fusion_lat": 0.0, "lat": 38.96262816666667, "type": "electric_scooter", "lon": -77.02770366666667, "bike_id": "5c1bbea5919c8bfa768368cd420b735d", "rental_uris": {"android": "https://dc.lft.to/lastmile_qr_scan", "ios": "https://dc.lft.to/lastmile_qr_scan"}, "name": "5c1bbea5919c8bfa768368cd420b735d", "is_reserved": 0}, {"is_disabled": 0, "fusion_lon": 0.0, "fusion_lat": 0.0, "lat": 38.92384166666667, "type": "electric_scooter", "lon": -77.02761333333333, "bike_id": "1209bbd737536edd13b940744a172eec", "rental_uris": {"android": "https://dc.lft.to/lastmile_qr_scan", "ios": "https://dc.lft.to/lastmile_qr_scan"}, "name": "1209bbd737536edd13b940744a172eec", "is_reserved": 0}, {"is_disabled": 0, "fusion_lon": 0.0, "fusion_lat": 0.0, "lat": 38.892575, "type": "electric_scooter", "lon": -76.94155933333333, "bike_id": "a40e310c6b5470c41cdf41c8e84e0f80", "rental_uris": {"android": "https://dc.lft.to/lastmile_qr_scan", "ios": "https://dc.lft.to/lastmile_qr_scan"}, "name": "a40e310c6b5470c41cdf41c8e84e0f80", "is_reserved": 0}, {"is_disabled": 0, "fusion_lon": 0.0, "fusion_lat": 0.0, "lat": 38.905525833333336, "type": "electric_scooter", "lon": -77.01998683333333, "bike_id": "1b918c24a255ecd4c5acaf364011d53f", "rental_uris": {"android": "https://dc.lft.to/lastmile_qr_scan", "ios": "https://dc.lft.to/lastmile_qr_scan"}, "name": "1b918c24a255ecd4c5acaf364011d53f", "is_reserved": 0}, {"is_disabled": 0, "fusion_lon": 0.0, "fusion_lat": 0.0, "lat": 38.9128195, "type": "electric_scooter", "lon": -76.9869325, "bike_id": "ed3edf8a105538abcfa16032c5dd958e", "rental_uris": {"android": "https://dc.lft.to/lastmile_qr_scan", "ios": "https://dc.lft.to/lastmile_qr_scan"}, "name": "ed3edf8a105538abcfa16032c5dd958e", "is_reserved": 0}, {"is_disabled": 0, "fusion_lon": 0.0, "fusion_lat": 0.0, "lat": 38.91690033333333, "type": "electric_scooter", "lon": -77.021819, "bike_id": "1c8c4b81f63a35d248d70ccb1213a626", "rental_uris": {"android": "https://dc.lft.to/lastmile_qr_scan", "ios": "https://dc.lft.to/lastmile_qr_scan"}, "name": "1c8c4b81f63a35d248d70ccb1213a626", "is_reserved": 0}, {"is_disabled": 0, "fusion_lon": 0.0, "fusion_lat": 0.0, "lat": 38.902792166666664, "type": "electric_scooter", "lon": -77.03457166666666, "bike_id": "c451c6258f824da80c9fdc9ece34ee07", "rental_uris": {"android": "https://dc.lft.to/lastmile_qr_scan", "ios": "https://dc.lft.to/lastmile_qr_scan"}, "name": "c451c6258f824da80c9fdc9ece34ee07", "is_reserved": 0}, {"is_disabled": 0, "fusion_lon": 0.0, "fusion_lat": 0.0, "lat": 38.9691995, "type": "electric_bike", "lon": -77.02625883333333, "bike_id": "f7b1405b38c7b194c73adbef884b1335", "rental_uris": {"android": "https://dc.lft.to/lastmile_qr_scan", "ios": "https://dc.lft.to/lastmile_qr_scan"}, "name": "f7b1405b38c7b194c73adbef884b1335", "is_reserved": 0}, {"is_disabled": 0, "fusion_lon": 0.0, "fusion_lat": 0.0, "lat": 38.89910316666667, "type": "electric_scooter", "lon": -76.9338175, "bike_id": "0aed41255577c6758336e2e7b5af04fc", "rental_uris": {"android": "https://dc.lft.to/lastmile_qr_scan", "ios": "https://dc.lft.to/lastmile_qr_scan"}, "name": "0aed41255577c6758336e2e7b5af04fc", "is_reserved": 0}, {"is_disabled": 0, "fusion_lon": 0.0, "fusion_lat": 0.0, "lat": 38.91691216666667, "type": "electric_scooter", "lon": -77.02514883333333, "bike_id": "5152641774cc4497f1c99e1c32838648", "rental_uris": {"android": "https://dc.lft.to/lastmile_qr_scan", "ios": "https://dc.lft.to/lastmile_qr_scan"}, "name": "5152641774cc4497f1c99e1c32838648", "is_reserved": 0}, {"is_disabled": 0, "fusion_lon": 0.0, "fusion_lat": 0.0, "lat": 38.9242475, "type": "electric_scooter", "lon": -77.05620116666667, "bike_id": "c861f01dfa348f63c94b5cb022a29395", "rental_uris": {"android": "https://dc.lft.to/lastmile_qr_scan", "ios": "https://dc.lft.to/lastmile_qr_scan"}, "name": "c861f01dfa348f63c94b5cb022a29395", "is_reserved": 0}, {"is_disabled": 0, "fusion_lon": 0.0, "fusion_lat": 0.0, "lat": 38.91851916666667, "type": "electric_scooter", "lon": -77.02949116666667, "bike_id": "9a5a7685d27debfc5f5b14dee3001db5", "rental_uris": {"android": "https://dc.lft.to/lastmile_qr_scan", "ios": "https://dc.lft.to/lastmile_qr_scan"}, "name": "9a5a7685d27debfc5f5b14dee3001db5", "is_reserved": 0}, {"is_disabled": 0, "fusion_lon": 0.0, "fusion_lat": 0.0, "lat": 38.8920555, "type": "electric_scooter", "lon": -76.98810483333334, "bike_id": "a0d691c864ccb45e9622ae4cbf3f3b47", "rental_uris": {"android": "https://dc.lft.to/lastmile_qr_scan", "ios": "https://dc.lft.to/lastmile_qr_scan"}, "name": "a0d691c864ccb45e9622ae4cbf3f3b47", "is_reserved": 0}, {"is_disabled": 0, "fusion_lon": 0.0, "fusion_lat": 0.0, "lat": 38.88878166666667, "type": "electric_scooter", "lon": -77.02855516666666, "bike_id": "ad501ec1bf908f1eeced15e876d4b117", "rental_uris": {"android": "https://dc.lft.to/lastmile_qr_scan", "ios": "https://dc.lft.to/lastmile_qr_scan"}, "name": "ad501ec1bf908f1eeced15e876d4b117", "is_reserved": 0}, {"is_disabled": 0, "fusion_lon": 0.0, "fusion_lat": 0.0, "lat": 38.8360865, "type": "electric_bike", "lon": -77.00383266666667, "bike_id": "84e9d6ef9c7f6293c907df84bbe0faf7", "rental_uris": {"android": "https://dc.lft.to/lastmile_qr_scan", "ios": "https://dc.lft.to/lastmile_qr_scan"}, "name": "84e9d6ef9c7f6293c907df84bbe0faf7", "is_reserved": 0}, {"is_disabled": 0, "fusion_lon": 0.0, "fusion_lat": 0.0, "lat": 38.9148285, "type": "electric_scooter", "lon": -77.04404916666667, "bike_id": "982298c91e55429bed59fa3d76e886ce", "rental_uris": {"android": "https://dc.lft.to/lastmile_qr_scan", "ios": "https://dc.lft.to/lastmile_qr_scan"}, "name": "982298c91e55429bed59fa3d76e886ce", "is_reserved": 0}, {"is_disabled": 0, "fusion_lon": 0.0, "fusion_lat": 0.0, "lat": 38.911842166666666, "type": "electric_scooter", "lon": -77.03921183333334, "bike_id": "105ec228847c338e2124af215227d1e3", "rental_uris": {"android": "https://dc.lft.to/lastmile_qr_scan", "ios": "https://dc.lft.to/lastmile_qr_scan"}, "name": "105ec228847c338e2124af215227d1e3", "is_reserved": 0}, {"is_disabled": 0, "fusion_lon": 0.0, "fusion_lat": 0.0, "lat": 38.986521833333335, "type": "electric_scooter", "lon": -77.026476, "bike_id": "c11f1b98c47c6a6ab3f76efcefa055bf", "rental_uris": {"android": "https://dc.lft.to/lastmile_qr_scan", "ios": "https://dc.lft.to/lastmile_qr_scan"}, "name": "c11f1b98c47c6a6ab3f76efcefa055bf", "is_reserved": 0}, {"is_disabled": 0, "fusion_lon": 0.0, "fusion_lat": 0.0, "lat": 38.89809266666666, "type": "electric_scooter", "lon": -77.0313315, "bike_id": "de765ce70be48a3071dc00f35dd75974", "rental_uris": {"android": "https://dc.lft.to/lastmile_qr_scan", "ios": "https://dc.lft.to/lastmile_qr_scan"}, "name": "de765ce70be48a3071dc00f35dd75974", "is_reserved": 0}, {"is_disabled": 0, "fusion_lon": 0.0, "fusion_lat": 0.0, "lat": 38.90579416666667, "type": "electric_scooter", "lon": -77.0465855, "bike_id": "827958c8105f86956cd4b162bc18d5ac", "rental_uris": {"android": "https://dc.lft.to/lastmile_qr_scan", "ios": "https://dc.lft.to/lastmile_qr_scan"}, "name": "827958c8105f86956cd4b162bc18d5ac", "is_reserved": 0}, {"is_disabled": 0, "fusion_lon": 0.0, "fusion_lat": 0.0, "lat": 38.9338775, "type": "electric_scooter", "lon": -77.039964, "bike_id": "796cedb2d536ccf6390c96cc21436848", "rental_uris": {"android": "https://dc.lft.to/lastmile_qr_scan", "ios": "https://dc.lft.to/lastmile_qr_scan"}, "name": "796cedb2d536ccf6390c96cc21436848", "is_reserved": 0}, {"is_disabled": 0, "fusion_lon": 0.0, "fusion_lat": 0.0, "lat": 38.9066825, "type": "electric_scooter", "lon": -77.027113, "bike_id": "2b228a52942e87774ae04a9b1c19d279", "rental_uris": {"android": "https://dc.lft.to/lastmile_qr_scan", "ios": "https://dc.lft.to/lastmile_qr_scan"}, "name": "2b228a52942e87774ae04a9b1c19d279", "is_reserved": 0}, {"is_disabled": 0, "fusion_lon": 0.0, "fusion_lat": 0.0, "lat": 38.94918166666667, "type": "electric_scooter", "lon": -77.02303516666667, "bike_id": "eef8b16d24a3db39a48e04d17295663b", "rental_uris": {"android": "https://dc.lft.to/lastmile_qr_scan", "ios": "https://dc.lft.to/lastmile_qr_scan"}, "name": "eef8b16d24a3db39a48e04d17295663b", "is_reserved": 0}, {"is_disabled": 0, "fusion_lon": 0.0, "fusion_lat": 0.0, "lat": 38.880441, "type": "electric_scooter", "lon": -77.00370916666667, "bike_id": "064be69c92346fbd96c250cdd0bbbd31", "rental_uris": {"android": "https://dc.lft.to/lastmile_qr_scan", "ios": "https://dc.lft.to/lastmile_qr_scan"}, "name": "064be69c92346fbd96c250cdd0bbbd31", "is_reserved": 0}, {"is_disabled": 0, "fusion_lon": 0.0, "fusion_lat": 0.0, "lat": 38.9307475, "type": "electric_scooter", "lon": -77.058192, "bike_id": "f40be9a53ce9a0e7c66c80ac517c003e", "rental_uris": {"android": "https://dc.lft.to/lastmile_qr_scan", "ios": "https://dc.lft.to/lastmile_qr_scan"}, "name": "f40be9a53ce9a0e7c66c80ac517c003e", "is_reserved": 0}, {"is_disabled": 0, "fusion_lon": 0.0, "fusion_lat": 0.0, "lat": 38.899966166666665, "type": "electric_scooter", "lon": -77.0395695, "bike_id": "80fdccf34406c534ce6b6df2bc1e7bb3", "rental_uris": {"android": "https://dc.lft.to/lastmile_qr_scan", "ios": "https://dc.lft.to/lastmile_qr_scan"}, "name": "80fdccf34406c534ce6b6df2bc1e7bb3", "is_reserved": 0}, {"is_disabled": 0, "fusion_lon": 0.0, "fusion_lat": 0.0, "lat": 38.9067055, "type": "electric_scooter", "lon": -77.02397216666667, "bike_id": "ab4f8a24a5c1edd801ca5ddf359076cd", "rental_uris": {"android": "https://dc.lft.to/lastmile_qr_scan", "ios": "https://dc.lft.to/lastmile_qr_scan"}, "name": "ab4f8a24a5c1edd801ca5ddf359076cd", "is_reserved": 0}, {"is_disabled": 0, "fusion_lon": 0.0, "fusion_lat": 0.0, "lat": 38.912659, "type": "electric_scooter", "lon": -77.010687, "bike_id": "94c7195e056220ebbc9bdc18247a2bd8", "rental_uris": {"android": "https://dc.lft.to/lastmile_qr_scan", "ios": "https://dc.lft.to/lastmile_qr_scan"}, "name": "94c7195e056220ebbc9bdc18247a2bd8", "is_reserved": 0}, {"is_disabled": 0, "fusion_lon": 0.0, "fusion_lat": 0.0, "lat": 38.887390833333335, "type": "electric_scooter", "lon": -77.015329, "bike_id": "89f18327d753c89a42f521fd798ed648", "rental_uris": {"android": "https://dc.lft.to/lastmile_qr_scan", "ios": "https://dc.lft.to/lastmile_qr_scan"}, "name": "89f18327d753c89a42f521fd798ed648", "is_reserved": 0}, {"is_disabled": 0, "fusion_lon": 0.0, "fusion_lat": 0.0, "lat": 38.91950683333334, "type": "electric_scooter", "lon": -77.01384766666666, "bike_id": "8e145a62d8f641de3fe3ba2ad83ea78b", "rental_uris": {"android": "https://dc.lft.to/lastmile_qr_scan", "ios": "https://dc.lft.to/lastmile_qr_scan"}, "name": "8e145a62d8f641de3fe3ba2ad83ea78b", "is_reserved": 0}, {"is_disabled": 0, "fusion_lon": 0.0, "fusion_lat": 0.0, "lat": 38.883843666666664, "type": "electric_scooter", "lon": -77.02506533333333, "bike_id": "6b96631d0e2988622b22619cc97fc4e1", "rental_uris": {"android": "https://dc.lft.to/lastmile_qr_scan", "ios": "https://dc.lft.to/lastmile_qr_scan"}, "name": "6b96631d0e2988622b22619cc97fc4e1", "is_reserved": 0}, {"is_disabled": 0, "fusion_lon": 0.0, "fusion_lat": 0.0, "lat": 38.93473816666667, "type": "electric_scooter", "lon": -77.02406533333334, "bike_id": "de40ebba78bacd72d1cbbe787dbac817", "rental_uris": {"android": "https://dc.lft.to/lastmile_qr_scan", "ios": "https://dc.lft.to/lastmile_qr_scan"}, "name": "de40ebba78bacd72d1cbbe787dbac817", "is_reserved": 0}, {"is_disabled": 0, "fusion_lon": 0.0, "fusion_lat": 0.0, "lat": 38.91711216666667, "type": "electric_scooter", "lon": -77.02540733333333, "bike_id": "9048a1e8df7a5ca1060cc87959e5279c", "rental_uris": {"android": "https://dc.lft.to/lastmile_qr_scan", "ios": "https://dc.lft.to/lastmile_qr_scan"}, "name": "9048a1e8df7a5ca1060cc87959e5279c", "is_reserved": 0}, {"is_disabled": 0, "fusion_lon": 0.0, "fusion_lat": 0.0, "lat": 38.90664116666667, "type": "electric_scooter", "lon": -77.0345365, "bike_id": "aefc028faa8a9c7ea53955b8a4b08484", "rental_uris": {"android": "https://dc.lft.to/lastmile_qr_scan", "ios": "https://dc.lft.to/lastmile_qr_scan"}, "name": "aefc028faa8a9c7ea53955b8a4b08484", "is_reserved": 0}, {"is_disabled": 0, "fusion_lon": 0.0, "fusion_lat": 0.0, "lat": 38.8955295, "type": "electric_bike", "lon": -76.98370800000001, "bike_id": "c4c8d5da1a7822d92cbb0e1d5d4a9746", "rental_uris": {"android": "https://dc.lft.to/lastmile_qr_scan", "ios": "https://dc.lft.to/lastmile_qr_scan"}, "name": "c4c8d5da1a7822d92cbb0e1d5d4a9746", "is_reserved": 0}, {"is_disabled": 0, "fusion_lon": 0.0, "fusion_lat": 0.0, "lat": 38.91711983333333, "type": "electric_scooter", "lon": -77.0288555, "bike_id": "346dcafb40ca4f01417690139000ab08", "rental_uris": {"android": "https://dc.lft.to/lastmile_qr_scan", "ios": "https://dc.lft.to/lastmile_qr_scan"}, "name": "346dcafb40ca4f01417690139000ab08", "is_reserved": 0}, {"is_disabled": 0, "fusion_lon": 0.0, "fusion_lat": 0.0, "lat": 38.93598016666667, "type": "electric_scooter", "lon": -77.05594233333333, "bike_id": "6713339fec764498cbf2ef6088a7bd92", "rental_uris": {"android": "https://dc.lft.to/lastmile_qr_scan", "ios": "https://dc.lft.to/lastmile_qr_scan"}, "name": "6713339fec764498cbf2ef6088a7bd92", "is_reserved": 0}, {"is_disabled": 0, "fusion_lon": 0.0, "fusion_lat": 0.0, "lat": 38.9220345, "type": "electric_scooter", "lon": -77.0424635, "bike_id": "fe992ad46fac5f76d5e1ad0d42cda886", "rental_uris": {"android": "https://dc.lft.to/lastmile_qr_scan", "ios": "https://dc.lft.to/lastmile_qr_scan"}, "name": "fe992ad46fac5f76d5e1ad0d42cda886", "is_reserved": 0}, {"is_disabled": 0, "fusion_lon": 0.0, "fusion_lat": 0.0, "lat": 38.91538516666667, "type": "electric_scooter", "lon": -77.03794383333333, "bike_id": "aebabd39b978cf687d5d83bdf987e093", "rental_uris": {"android": "https://dc.lft.to/lastmile_qr_scan", "ios": "https://dc.lft.to/lastmile_qr_scan"}, "name": "aebabd39b978cf687d5d83bdf987e093", "is_reserved": 0}, {"is_disabled": 0, "fusion_lon": 0.0, "fusion_lat": 0.0, "lat": 38.908053, "type": "electric_scooter", "lon": -77.0339855, "bike_id": "cb8eee5399a3620ce1a9c78acb540bc3", "rental_uris": {"android": "https://dc.lft.to/lastmile_qr_scan", "ios": "https://dc.lft.to/lastmile_qr_scan"}, "name": "cb8eee5399a3620ce1a9c78acb540bc3", "is_reserved": 0}, {"is_disabled": 0, "fusion_lon": 0.0, "fusion_lat": 0.0, "lat": 38.80294766666667, "type": "electric_bike", "lon": -77.039859, "bike_id": "b6f87ffd7972b852ba7a32482c9e6d36", "rental_uris": {"android": "https://dc.lft.to/lastmile_qr_scan", "ios": "https://dc.lft.to/lastmile_qr_scan"}, "name": "b6f87ffd7972b852ba7a32482c9e6d36", "is_reserved": 0}, {"is_disabled": 0, "fusion_lon": 0.0, "fusion_lat": 0.0, "lat": 38.922321, "type": "electric_scooter", "lon": -77.03320083333334, "bike_id": "626d71fdebfedec0dee0cfce1497a926", "rental_uris": {"android": "https://dc.lft.to/lastmile_qr_scan", "ios": "https://dc.lft.to/lastmile_qr_scan"}, "name": "626d71fdebfedec0dee0cfce1497a926", "is_reserved": 0}, {"is_disabled": 0, "fusion_lon": 0.0, "fusion_lat": 0.0, "lat": 38.936603, "type": "electric_scooter", "lon": -77.05916833333333, "bike_id": "24690d01e89a0e1b6f610dde0b43ecdb", "rental_uris": {"android": "https://dc.lft.to/lastmile_qr_scan", "ios": "https://dc.lft.to/lastmile_qr_scan"}, "name": "24690d01e89a0e1b6f610dde0b43ecdb", "is_reserved": 0}, {"is_disabled": 0, "fusion_lon": 0.0, "fusion_lat": 0.0, "lat": 38.85495216666666, "type": "electric_bike", "lon": -77.1203855, "bike_id": "08884bde01dd2f3078e16873695bfe06", "rental_uris": {"android": "https://dc.lft.to/lastmile_qr_scan", "ios": "https://dc.lft.to/lastmile_qr_scan"}, "name": "08884bde01dd2f3078e16873695bfe06", "is_reserved": 0}, {"is_disabled": 0, "fusion_lon": 0.0, "fusion_lat": 0.0, "lat": 38.915849333333334, "type": "electric_bike", "lon": -76.9715165, "bike_id": "d99e7ae185444f37ef41b86fe57fd8ee", "rental_uris": {"android": "https://dc.lft.to/lastmile_qr_scan", "ios": "https://dc.lft.to/lastmile_qr_scan"}, "name": "d99e7ae185444f37ef41b86fe57fd8ee", "is_reserved": 0}, {"is_disabled": 0, "fusion_lon": 0.0, "fusion_lat": 0.0, "lat": 38.9083805, "type": "electric_scooter", "lon": -77.026925, "bike_id": "b4638d84caf07273578f9d1170eb1877", "rental_uris": {"android": "https://dc.lft.to/lastmile_qr_scan", "ios": "https://dc.lft.to/lastmile_qr_scan"}, "name": "b4638d84caf07273578f9d1170eb1877", "is_reserved": 0}, {"is_disabled": 0, "fusion_lon": 0.0, "fusion_lat": 0.0, "lat": 38.92278483333333, "type": "electric_scooter", "lon": -77.04223733333333, "bike_id": "95252d6f6eea9dce22f41d86e8b9113e", "rental_uris": {"android": "https://dc.lft.to/lastmile_qr_scan", "ios": "https://dc.lft.to/lastmile_qr_scan"}, "name": "95252d6f6eea9dce22f41d86e8b9113e", "is_reserved": 0}, {"is_disabled": 0, "fusion_lon": 0.0, "fusion_lat": 0.0, "lat": 38.91098083333333, "type": "electric_scooter", "lon": -77.0033765, "bike_id": "62fa922c4aab46dd3b0773baa732c717", "rental_uris": {"android": "https://dc.lft.to/lastmile_qr_scan", "ios": "https://dc.lft.to/lastmile_qr_scan"}, "name": "62fa922c4aab46dd3b0773baa732c717", "is_reserved": 0}, {"is_disabled": 0, "fusion_lon": 0.0, "fusion_lat": 0.0, "lat": 38.91981216666667, "type": "electric_bike", "lon": -76.97307633333334, "bike_id": "f677db055029b77eb16c931bf4cea557", "rental_uris": {"android": "https://dc.lft.to/lastmile_qr_scan", "ios": "https://dc.lft.to/lastmile_qr_scan"}, "name": "f677db055029b77eb16c931bf4cea557", "is_reserved": 0}, {"is_disabled": 0, "fusion_lon": 0.0, "fusion_lat": 0.0, "lat": 38.928881, "type": "electric_scooter", "lon": -77.02330433333333, "bike_id": "308528ba1566a1b65f3939b103544b1e", "rental_uris": {"android": "https://dc.lft.to/lastmile_qr_scan", "ios": "https://dc.lft.to/lastmile_qr_scan"}, "name": "308528ba1566a1b65f3939b103544b1e", "is_reserved": 0}, {"is_disabled": 0, "fusion_lon": 0.0, "fusion_lat": 0.0, "lat": 38.9783015, "type": "electric_bike", "lon": -77.09114066666666, "bike_id": "44994d9da9d28d5b069e1c3824f26554", "rental_uris": {"android": "https://dc.lft.to/lastmile_qr_scan", "ios": "https://dc.lft.to/lastmile_qr_scan"}, "name": "44994d9da9d28d5b069e1c3824f26554", "is_reserved": 0}, {"is_disabled": 0, "fusion_lon": 0.0, "fusion_lat": 0.0, "lat": 38.93581266666666, "type": "electric_bike", "lon": -77.08245283333333, "bike_id": "04f154c3de3478909fccffe77adbcb1b", "rental_uris": {"android": "https://dc.lft.to/lastmile_qr_scan", "ios": "https://dc.lft.to/lastmile_qr_scan"}, "name": "04f154c3de3478909fccffe77adbcb1b", "is_reserved": 0}, {"is_disabled": 0, "fusion_lon": 0.0, "fusion_lat": 0.0, "lat": 38.89632366666667, "type": "electric_scooter", "lon": -77.00900016666667, "bike_id": "177153949116aa1f688f05a374fd0502", "rental_uris": {"android": "https://dc.lft.to/lastmile_qr_scan", "ios": "https://dc.lft.to/lastmile_qr_scan"}, "name": "177153949116aa1f688f05a374fd0502", "is_reserved": 0}, {"is_disabled": 0, "fusion_lon": 0.0, "fusion_lat": 0.0, "lat": 38.924616, "type": "electric_scooter", "lon": -77.02964283333333, "bike_id": "1bfa4e79fae929180e7964f4e61129d3", "rental_uris": {"android": "https://dc.lft.to/lastmile_qr_scan", "ios": "https://dc.lft.to/lastmile_qr_scan"}, "name": "1bfa4e79fae929180e7964f4e61129d3", "is_reserved": 0}, {"is_disabled": 0, "fusion_lon": 0.0, "fusion_lat": 0.0, "lat": 38.897061, "type": "electric_scooter", "lon": -77.02151733333334, "bike_id": "b85c97215f9092b9492a50f81a55da5f", "rental_uris": {"android": "https://dc.lft.to/lastmile_qr_scan", "ios": "https://dc.lft.to/lastmile_qr_scan"}, "name": "b85c97215f9092b9492a50f81a55da5f", "is_reserved": 0}, {"is_disabled": 0, "fusion_lon": 0.0, "fusion_lat": 0.0, "lat": 38.922717666666664, "type": "electric_bike", "lon": -76.99768483333334, "bike_id": "76d1548a78a15a3cab51acd110128796", "rental_uris": {"android": "https://dc.lft.to/lastmile_qr_scan", "ios": "https://dc.lft.to/lastmile_qr_scan"}, "name": "76d1548a78a15a3cab51acd110128796", "is_reserved": 0}, {"is_disabled": 0, "fusion_lon": 0.0, "fusion_lat": 0.0, "lat": 38.901267833333335, "type": "electric_scooter", "lon": -77.01968816666667, "bike_id": "9a0e6875eba48e0142f2f1daa8b0b177", "rental_uris": {"android": "https://dc.lft.to/lastmile_qr_scan", "ios": "https://dc.lft.to/lastmile_qr_scan"}, "name": "9a0e6875eba48e0142f2f1daa8b0b177", "is_reserved": 0}, {"is_disabled": 0, "fusion_lon": 0.0, "fusion_lat": 0.0, "lat": 38.933728333333335, "type": "electric_scooter", "lon": -77.07251016666666, "bike_id": "af023b3201d0e11b7ca6ab8eb79d322b", "rental_uris": {"android": "https://dc.lft.to/lastmile_qr_scan", "ios": "https://dc.lft.to/lastmile_qr_scan"}, "name": "af023b3201d0e11b7ca6ab8eb79d322b", "is_reserved": 0}, {"is_disabled": 0, "fusion_lon": 0.0, "fusion_lat": 0.0, "lat": 38.917446166666664, "type": "electric_scooter", "lon": -77.03575783333334, "bike_id": "33e79144bb07613f92092688a61b8535", "rental_uris": {"android": "https://dc.lft.to/lastmile_qr_scan", "ios": "https://dc.lft.to/lastmile_qr_scan"}, "name": "33e79144bb07613f92092688a61b8535", "is_reserved": 0}, {"is_disabled": 0, "fusion_lon": 0.0, "fusion_lat": 0.0, "lat": 38.90395916666667, "type": "electric_scooter", "lon": -77.0326845, "bike_id": "a8a00a8933dc9a5cb68c0395cf1b0333", "rental_uris": {"android": "https://dc.lft.to/lastmile_qr_scan", "ios": "https://dc.lft.to/lastmile_qr_scan"}, "name": "a8a00a8933dc9a5cb68c0395cf1b0333", "is_reserved": 0}, {"is_disabled": 0, "fusion_lon": 0.0, "fusion_lat": 0.0, "lat": 38.8690755, "type": "electric_bike", "lon": -77.13177416666667, "bike_id": "5cca781c28454bedf74e286ed1a89bb7", "rental_uris": {"android": "https://dc.lft.to/lastmile_qr_scan", "ios": "https://dc.lft.to/lastmile_qr_scan"}, "name": "5cca781c28454bedf74e286ed1a89bb7", "is_reserved": 0}, {"is_disabled": 0, "fusion_lon": 0.0, "fusion_lat": 0.0, "lat": 38.975375166666666, "type": "electric_bike", "lon": -76.99526733333333, "bike_id": "37770e28cb9441a039dcf002499126c0", "rental_uris": {"android": "https://dc.lft.to/lastmile_qr_scan", "ios": "https://dc.lft.to/lastmile_qr_scan"}, "name": "37770e28cb9441a039dcf002499126c0", "is_reserved": 0}, {"is_disabled": 0, "fusion_lon": 0.0, "fusion_lat": 0.0, "lat": 38.9072415, "type": "electric_scooter", "lon": -77.0383505, "bike_id": "9a5d611ff305b17c9059eb6d61f4ae64", "rental_uris": {"android": "https://dc.lft.to/lastmile_qr_scan", "ios": "https://dc.lft.to/lastmile_qr_scan"}, "name": "9a5d611ff305b17c9059eb6d61f4ae64", "is_reserved": 0}, {"is_disabled": 0, "fusion_lon": 0.0, "fusion_lat": 0.0, "lat": 38.91863516666667, "type": "electric_scooter", "lon": -77.032092, "bike_id": "133aad14782675efd71ffee94b43e4d0", "rental_uris": {"android": "https://dc.lft.to/lastmile_qr_scan", "ios": "https://dc.lft.to/lastmile_qr_scan"}, "name": "133aad14782675efd71ffee94b43e4d0", "is_reserved": 0}, {"is_disabled": 0, "fusion_lon": 0.0, "fusion_lat": 0.0, "lat": 38.91942433333333, "type": "electric_scooter", "lon": -77.02500233333333, "bike_id": "a364cb18fe6b87526c4fc2829ca003d5", "rental_uris": {"android": "https://dc.lft.to/lastmile_qr_scan", "ios": "https://dc.lft.to/lastmile_qr_scan"}, "name": "a364cb18fe6b87526c4fc2829ca003d5", "is_reserved": 0}, {"is_disabled": 0, "fusion_lon": 0.0, "fusion_lat": 0.0, "lat": 38.923082666666666, "type": "electric_scooter", "lon": -77.03111683333333, "bike_id": "7d5c9d87abc0950765fa2c10366a02bb", "rental_uris": {"android": "https://dc.lft.to/lastmile_qr_scan", "ios": "https://dc.lft.to/lastmile_qr_scan"}, "name": "7d5c9d87abc0950765fa2c10366a02bb", "is_reserved": 0}, {"is_disabled": 0, "fusion_lon": 0.0, "fusion_lat": 0.0, "lat": 38.9024715, "type": "electric_scooter", "lon": -77.02416383333333, "bike_id": "935f442ce60017d244127b4e0f32c252", "rental_uris": {"android": "https://dc.lft.to/lastmile_qr_scan", "ios": "https://dc.lft.to/lastmile_qr_scan"}, "name": "935f442ce60017d244127b4e0f32c252", "is_reserved": 0}, {"is_disabled": 0, "fusion_lon": 0.0, "fusion_lat": 0.0, "lat": 38.965583333333335, "type": "electric_bike", "lon": -77.023015, "bike_id": "1da298968e9e5ca87be946991d25d243", "rental_uris": {"android": "https://dc.lft.to/lastmile_qr_scan", "ios": "https://dc.lft.to/lastmile_qr_scan"}, "name": "1da298968e9e5ca87be946991d25d243", "is_reserved": 0}, {"is_disabled": 0, "fusion_lon": 0.0, "fusion_lat": 0.0, "lat": 38.907148666666664, "type": "electric_scooter", "lon": -77.02713333333334, "bike_id": "af48a5db39ed526889d30d96ef17c6bd", "rental_uris": {"android": "https://dc.lft.to/lastmile_qr_scan", "ios": "https://dc.lft.to/lastmile_qr_scan"}, "name": "af48a5db39ed526889d30d96ef17c6bd", "is_reserved": 0}, {"is_disabled": 0, "fusion_lon": 0.0, "fusion_lat": 0.0, "lat": 38.9183065, "type": "electric_scooter", "lon": -77.04194983333333, "bike_id": "4fcf92533a07b7a62ac4a2d9e06f3bab", "rental_uris": {"android": "https://dc.lft.to/lastmile_qr_scan", "ios": "https://dc.lft.to/lastmile_qr_scan"}, "name": "4fcf92533a07b7a62ac4a2d9e06f3bab", "is_reserved": 0}, {"is_disabled": 0, "fusion_lon": 0.0, "fusion_lat": 0.0, "lat": 38.934608833333336, "type": "electric_scooter", "lon": -77.027451, "bike_id": "8aa54de74c0d67781807bb5657458fcb", "rental_uris": {"android": "https://dc.lft.to/lastmile_qr_scan", "ios": "https://dc.lft.to/lastmile_qr_scan"}, "name": "8aa54de74c0d67781807bb5657458fcb", "is_reserved": 0}, {"is_disabled": 0, "fusion_lon": 0.0, "fusion_lat": 0.0, "lat": 38.903208166666666, "type": "electric_scooter", "lon": -77.02898683333333, "bike_id": "dd51a0c1b67dd007ab6111e938a0d8dc", "rental_uris": {"android": "https://dc.lft.to/lastmile_qr_scan", "ios": "https://dc.lft.to/lastmile_qr_scan"}, "name": "dd51a0c1b67dd007ab6111e938a0d8dc", "is_reserved": 0}, {"is_disabled": 0, "fusion_lon": 0.0, "fusion_lat": 0.0, "lat": 39.003796333333334, "type": "electric_bike", "lon": -77.01292466666666, "bike_id": "94383104a8ec99fafb73c73c90013da1", "rental_uris": {"android": "https://dc.lft.to/lastmile_qr_scan", "ios": "https://dc.lft.to/lastmile_qr_scan"}, "name": "94383104a8ec99fafb73c73c90013da1", "is_reserved": 0}, {"is_disabled": 0, "fusion_lon": 0.0, "fusion_lat": 0.0, "lat": 38.904633833333335, "type": "electric_scooter", "lon": -77.04832583333334, "bike_id": "1dde9d22bc13cd1086862e7a445e971c", "rental_uris": {"android": "https://dc.lft.to/lastmile_qr_scan", "ios": "https://dc.lft.to/lastmile_qr_scan"}, "name": "1dde9d22bc13cd1086862e7a445e971c", "is_reserved": 0}, {"is_disabled": 0, "fusion_lon": 0.0, "fusion_lat": 0.0, "lat": 38.91806733333333, "type": "electric_scooter", "lon": -77.024438, "bike_id": "6fb878df3351172f8783335d1b8073c5", "rental_uris": {"android": "https://dc.lft.to/lastmile_qr_scan", "ios": "https://dc.lft.to/lastmile_qr_scan"}, "name": "6fb878df3351172f8783335d1b8073c5", "is_reserved": 0}, {"is_disabled": 0, "fusion_lon": 0.0, "fusion_lat": 0.0, "lat": 38.90118233333333, "type": "electric_scooter", "lon": -77.0180685, "bike_id": "3be78931bbc62ad30242de16d5dcd810", "rental_uris": {"android": "https://dc.lft.to/lastmile_qr_scan", "ios": "https://dc.lft.to/lastmile_qr_scan"}, "name": "3be78931bbc62ad30242de16d5dcd810", "is_reserved": 0}, {"is_disabled": 0, "fusion_lon": 0.0, "fusion_lat": 0.0, "lat": 38.98136816666667, "type": "electric_bike", "lon": -77.00784233333333, "bike_id": "a39247e63a4aeef24e52981e8652bce7", "rental_uris": {"android": "https://dc.lft.to/lastmile_qr_scan", "ios": "https://dc.lft.to/lastmile_qr_scan"}, "name": "a39247e63a4aeef24e52981e8652bce7", "is_reserved": 0}, {"is_disabled": 0, "fusion_lon": 0.0, "fusion_lat": 0.0, "lat": 38.903779, "type": "electric_scooter", "lon": -77.0345205, "bike_id": "a40c438ee8b23d55a534f93881b358d8", "rental_uris": {"android": "https://dc.lft.to/lastmile_qr_scan", "ios": "https://dc.lft.to/lastmile_qr_scan"}, "name": "a40c438ee8b23d55a534f93881b358d8", "is_reserved": 0}, {"is_disabled": 0, "fusion_lon": 0.0, "fusion_lat": 0.0, "lat": 38.86353966666667, "type": "electric_scooter", "lon": -76.99061866666666, "bike_id": "976d21a40cac6613ec4df1608a0f1f14", "rental_uris": {"android": "https://dc.lft.to/lastmile_qr_scan", "ios": "https://dc.lft.to/lastmile_qr_scan"}, "name": "976d21a40cac6613ec4df1608a0f1f14", "is_reserved": 0}, {"is_disabled": 0, "fusion_lon": 0.0, "fusion_lat": 0.0, "lat": 38.8489655, "type": "electric_scooter", "lon": -77.0051625, "bike_id": "c318bb66f50d16a6baf02cebb4018382", "rental_uris": {"android": "https://dc.lft.to/lastmile_qr_scan", "ios": "https://dc.lft.to/lastmile_qr_scan"}, "name": "c318bb66f50d16a6baf02cebb4018382", "is_reserved": 0}, {"is_disabled": 0, "fusion_lon": 0.0, "fusion_lat": 0.0, "lat": 38.899122, "type": "electric_scooter", "lon": -77.03919966666666, "bike_id": "f27e627675533c7d3a9147dca91189b3", "rental_uris": {"android": "https://dc.lft.to/lastmile_qr_scan", "ios": "https://dc.lft.to/lastmile_qr_scan"}, "name": "f27e627675533c7d3a9147dca91189b3", "is_reserved": 0}, {"is_disabled": 0, "fusion_lon": 0.0, "fusion_lat": 0.0, "lat": 38.9354975, "type": "electric_scooter", "lon": -77.05808183333333, "bike_id": "fb10afa2058641a6690f27331fadf657", "rental_uris": {"android": "https://dc.lft.to/lastmile_qr_scan", "ios": "https://dc.lft.to/lastmile_qr_scan"}, "name": "fb10afa2058641a6690f27331fadf657", "is_reserved": 0}, {"is_disabled": 0, "fusion_lon": 0.0, "fusion_lat": 0.0, "lat": 38.9141875, "type": "electric_scooter", "lon": -77.03585383333333, "bike_id": "ae36e694630c3ee288c1f62f6025ddc6", "rental_uris": {"android": "https://dc.lft.to/lastmile_qr_scan", "ios": "https://dc.lft.to/lastmile_qr_scan"}, "name": "ae36e694630c3ee288c1f62f6025ddc6", "is_reserved": 0}, {"is_disabled": 0, "fusion_lon": 0.0, "fusion_lat": 0.0, "lat": 38.90577483333333, "type": "electric_scooter", "lon": -77.05127883333333, "bike_id": "b8a439020f41661e57fa220b55c2f043", "rental_uris": {"android": "https://dc.lft.to/lastmile_qr_scan", "ios": "https://dc.lft.to/lastmile_qr_scan"}, "name": "b8a439020f41661e57fa220b55c2f043", "is_reserved": 0}, {"is_disabled": 0, "fusion_lon": 0.0, "fusion_lat": 0.0, "lat": 38.8777645, "type": "electric_scooter", "lon": -77.01432383333334, "bike_id": "f02697be9ec6eb2c2cff7a558a4bdd68", "rental_uris": {"android": "https://dc.lft.to/lastmile_qr_scan", "ios": "https://dc.lft.to/lastmile_qr_scan"}, "name": "f02697be9ec6eb2c2cff7a558a4bdd68", "is_reserved": 0}, {"is_disabled": 0, "fusion_lon": 0.0, "fusion_lat": 0.0, "lat": 38.898477666666665, "type": "electric_scooter", "lon": -77.00729716666666, "bike_id": "394dbf2a8a41e8a86149ef455b716321", "rental_uris": {"android": "https://dc.lft.to/lastmile_qr_scan", "ios": "https://dc.lft.to/lastmile_qr_scan"}, "name": "394dbf2a8a41e8a86149ef455b716321", "is_reserved": 0}, {"is_disabled": 0, "fusion_lon": 0.0, "fusion_lat": 0.0, "lat": 38.919746, "type": "electric_scooter", "lon": -77.0001675, "bike_id": "9665c851d9c6b7f7a8491ae811e37783", "rental_uris": {"android": "https://dc.lft.to/lastmile_qr_scan", "ios": "https://dc.lft.to/lastmile_qr_scan"}, "name": "9665c851d9c6b7f7a8491ae811e37783", "is_reserved": 0}, {"is_disabled": 0, "fusion_lon": 0.0, "fusion_lat": 0.0, "lat": 38.899861666666666, "type": "electric_scooter", "lon": -76.99676733333334, "bike_id": "a5696b98365ea6a4f883c4d0de2ea7d8", "rental_uris": {"android": "https://dc.lft.to/lastmile_qr_scan", "ios": "https://dc.lft.to/lastmile_qr_scan"}, "name": "a5696b98365ea6a4f883c4d0de2ea7d8", "is_reserved": 0}, {"is_disabled": 0, "fusion_lon": 0.0, "fusion_lat": 0.0, "lat": 38.900595833333334, "type": "electric_scooter", "lon": -76.9867805, "bike_id": "3019a391a84ba0bfb7da57b4e73a9879", "rental_uris": {"android": "https://dc.lft.to/lastmile_qr_scan", "ios": "https://dc.lft.to/lastmile_qr_scan"}, "name": "3019a391a84ba0bfb7da57b4e73a9879", "is_reserved": 0}, {"is_disabled": 0, "fusion_lon": 0.0, "fusion_lat": 0.0, "lat": 38.91382433333333, "type": "electric_scooter", "lon": -77.02969883333333, "bike_id": "0c7e0c964cf4cc6af035b229343ab7b8", "rental_uris": {"android": "https://dc.lft.to/lastmile_qr_scan", "ios": "https://dc.lft.to/lastmile_qr_scan"}, "name": "0c7e0c964cf4cc6af035b229343ab7b8", "is_reserved": 0}, {"is_disabled": 0, "fusion_lon": 0.0, "fusion_lat": 0.0, "lat": 38.916320666666664, "type": "electric_scooter", "lon": -77.0415545, "bike_id": "f709c03ff62f15a03ad8767c3a26513c", "rental_uris": {"android": "https://dc.lft.to/lastmile_qr_scan", "ios": "https://dc.lft.to/lastmile_qr_scan"}, "name": "f709c03ff62f15a03ad8767c3a26513c", "is_reserved": 0}, {"is_disabled": 0, "fusion_lon": 0.0, "fusion_lat": 0.0, "lat": 38.886975, "type": "electric_scooter", "lon": -76.95364000000001, "bike_id": "e3317e93586445cf6cd505d5032bfa43", "rental_uris": {"android": "https://dc.lft.to/lastmile_qr_scan", "ios": "https://dc.lft.to/lastmile_qr_scan"}, "name": "e3317e93586445cf6cd505d5032bfa43", "is_reserved": 0}, {"is_disabled": 0, "fusion_lon": 0.0, "fusion_lat": 0.0, "lat": 38.842932833333336, "type": "electric_scooter", "lon": -76.9994855, "bike_id": "a621e98d3045728e3662f61c430a247e", "rental_uris": {"android": "https://dc.lft.to/lastmile_qr_scan", "ios": "https://dc.lft.to/lastmile_qr_scan"}, "name": "a621e98d3045728e3662f61c430a247e", "is_reserved": 0}, {"is_disabled": 0, "fusion_lon": 0.0, "fusion_lat": 0.0, "lat": 38.990612, "type": "electric_bike", "lon": -77.1002685, "bike_id": "48d25599889267a9e9ea750e38dbc877", "rental_uris": {"android": "https://dc.lft.to/lastmile_qr_scan", "ios": "https://dc.lft.to/lastmile_qr_scan"}, "name": "48d25599889267a9e9ea750e38dbc877", "is_reserved": 0}, {"is_disabled": 0, "fusion_lon": 0.0, "fusion_lat": 0.0, "lat": 38.863468166666664, "type": "electric_scooter", "lon": -76.99059966666667, "bike_id": "219023ffb2af02c7087ed422d1343e6d", "rental_uris": {"android": "https://dc.lft.to/lastmile_qr_scan", "ios": "https://dc.lft.to/lastmile_qr_scan"}, "name": "219023ffb2af02c7087ed422d1343e6d", "is_reserved": 0}, {"is_disabled": 0, "fusion_lon": 0.0, "fusion_lat": 0.0, "lat": 38.905289833333335, "type": "electric_scooter", "lon": -77.049873, "bike_id": "b98ded075faa2418c2cf4fd62704a398", "rental_uris": {"android": "https://dc.lft.to/lastmile_qr_scan", "ios": "https://dc.lft.to/lastmile_qr_scan"}, "name": "b98ded075faa2418c2cf4fd62704a398", "is_reserved": 0}, {"is_disabled": 0, "fusion_lon": 0.0, "fusion_lat": 0.0, "lat": 38.94572866666667, "type": "electric_bike", "lon": -76.960298, "bike_id": "314d62be809ca9a94d9815a86de47364", "rental_uris": {"android": "https://dc.lft.to/lastmile_qr_scan", "ios": "https://dc.lft.to/lastmile_qr_scan"}, "name": "314d62be809ca9a94d9815a86de47364", "is_reserved": 0}, {"is_disabled": 0, "fusion_lon": 0.0, "fusion_lat": 0.0, "lat": 38.92789533333333, "type": "electric_scooter", "lon": -77.01460566666667, "bike_id": "42268a6af51f07a8b266fc1aa1f04899", "rental_uris": {"android": "https://dc.lft.to/lastmile_qr_scan", "ios": "https://dc.lft.to/lastmile_qr_scan"}, "name": "42268a6af51f07a8b266fc1aa1f04899", "is_reserved": 0}, {"is_disabled": 0, "fusion_lon": 0.0, "fusion_lat": 0.0, "lat": 38.99090266666666, "type": "electric_bike", "lon": -76.87493383333333, "bike_id": "be0137d2593da6e364b249048bb7d13b", "rental_uris": {"android": "https://dc.lft.to/lastmile_qr_scan", "ios": "https://dc.lft.to/lastmile_qr_scan"}, "name": "be0137d2593da6e364b249048bb7d13b", "is_reserved": 0}, {"is_disabled": 0, "fusion_lon": 0.0, "fusion_lat": 0.0, "lat": 38.88581883333333, "type": "electric_scooter", "lon": -77.019849, "bike_id": "b9cc83a8c1bcd1b138cf01976efa0f9f", "rental_uris": {"android": "https://dc.lft.to/lastmile_qr_scan", "ios": "https://dc.lft.to/lastmile_qr_scan"}, "name": "b9cc83a8c1bcd1b138cf01976efa0f9f", "is_reserved": 0}, {"is_disabled": 0, "fusion_lon": 0.0, "fusion_lat": 0.0, "lat": 38.926907666666665, "type": "electric_scooter", "lon": -77.03738516666667, "bike_id": "fc8dbab00484204295684b39cff15e5e", "rental_uris": {"android": "https://dc.lft.to/lastmile_qr_scan", "ios": "https://dc.lft.to/lastmile_qr_scan"}, "name": "fc8dbab00484204295684b39cff15e5e", "is_reserved": 0}, {"is_disabled": 0, "fusion_lon": 0.0, "fusion_lat": 0.0, "lat": 38.90366516666667, "type": "electric_scooter", "lon": -77.02914733333333, "bike_id": "c5858bf5cefb6d4ee794d3a90da37901", "rental_uris": {"android": "https://dc.lft.to/lastmile_qr_scan", "ios": "https://dc.lft.to/lastmile_qr_scan"}, "name": "c5858bf5cefb6d4ee794d3a90da37901", "is_reserved": 0}, {"is_disabled": 0, "fusion_lon": 0.0, "fusion_lat": 0.0, "lat": 38.9280805, "type": "electric_scooter", "lon": -77.03594483333333, "bike_id": "0b40a66164220341ad4e514a4f538177", "rental_uris": {"android": "https://dc.lft.to/lastmile_qr_scan", "ios": "https://dc.lft.to/lastmile_qr_scan"}, "name": "0b40a66164220341ad4e514a4f538177", "is_reserved": 0}, {"is_disabled": 0, "fusion_lon": 0.0, "fusion_lat": 0.0, "lat": 38.932992666666664, "type": "electric_scooter", "lon": -77.02143466666666, "bike_id": "de6a518ce7ffd9c3871537f1105995f5", "rental_uris": {"android": "https://dc.lft.to/lastmile_qr_scan", "ios": "https://dc.lft.to/lastmile_qr_scan"}, "name": "de6a518ce7ffd9c3871537f1105995f5", "is_reserved": 0}, {"is_disabled": 0, "fusion_lon": 0.0, "fusion_lat": 0.0, "lat": 38.9191425, "type": "electric_scooter", "lon": -77.04798083333333, "bike_id": "11f9d903b1ce5ec32776cd5db2f491b0", "rental_uris": {"android": "https://dc.lft.to/lastmile_qr_scan", "ios": "https://dc.lft.to/lastmile_qr_scan"}, "name": "11f9d903b1ce5ec32776cd5db2f491b0", "is_reserved": 0}, {"is_disabled": 0, "fusion_lon": 0.0, "fusion_lat": 0.0, "lat": 38.9244225, "type": "electric_scooter", "lon": -77.04030366666667, "bike_id": "1571489c2c72c023dde48b42fb978f25", "rental_uris": {"android": "https://dc.lft.to/lastmile_qr_scan", "ios": "https://dc.lft.to/lastmile_qr_scan"}, "name": "1571489c2c72c023dde48b42fb978f25", "is_reserved": 0}, {"is_disabled": 0, "fusion_lon": 0.0, "fusion_lat": 0.0, "lat": 38.863458666666666, "type": "electric_scooter", "lon": -76.98257016666666, "bike_id": "6ed7e207894c943ff5842a8369b10cc7", "rental_uris": {"android": "https://dc.lft.to/lastmile_qr_scan", "ios": "https://dc.lft.to/lastmile_qr_scan"}, "name": "6ed7e207894c943ff5842a8369b10cc7", "is_reserved": 0}, {"is_disabled": 0, "fusion_lon": 0.0, "fusion_lat": 0.0, "lat": 38.91601466666667, "type": "electric_scooter", "lon": -77.0233745, "bike_id": "b9af3d752086b9b326bcca92ebdc0d38", "rental_uris": {"android": "https://dc.lft.to/lastmile_qr_scan", "ios": "https://dc.lft.to/lastmile_qr_scan"}, "name": "b9af3d752086b9b326bcca92ebdc0d38", "is_reserved": 0}, {"is_disabled": 0, "fusion_lon": 0.0, "fusion_lat": 0.0, "lat": 38.90868366666667, "type": "electric_scooter", "lon": -77.03012066666666, "bike_id": "c1d62cef46cf98ac5e6e3034c039fd7b", "rental_uris": {"android": "https://dc.lft.to/lastmile_qr_scan", "ios": "https://dc.lft.to/lastmile_qr_scan"}, "name": "c1d62cef46cf98ac5e6e3034c039fd7b", "is_reserved": 0}, {"is_disabled": 0, "fusion_lon": 0.0, "fusion_lat": 0.0, "lat": 38.91807216666667, "type": "electric_scooter", "lon": -77.02444433333334, "bike_id": "12becb1bb7f6402017ff4e1cc6a67efc", "rental_uris": {"android": "https://dc.lft.to/lastmile_qr_scan", "ios": "https://dc.lft.to/lastmile_qr_scan"}, "name": "12becb1bb7f6402017ff4e1cc6a67efc", "is_reserved": 0}, {"is_disabled": 0, "fusion_lon": 0.0, "fusion_lat": 0.0, "lat": 38.858660666666665, "type": "electric_scooter", "lon": -76.99019766666666, "bike_id": "839dfccf261302739d834e76c59723c8", "rental_uris": {"android": "https://dc.lft.to/lastmile_qr_scan", "ios": "https://dc.lft.to/lastmile_qr_scan"}, "name": "839dfccf261302739d834e76c59723c8", "is_reserved": 0}, {"is_disabled": 0, "fusion_lon": 0.0, "fusion_lat": 0.0, "lat": 38.887245666666665, "type": "electric_scooter", "lon": -77.02200616666667, "bike_id": "23e393377deef766162b2746cfcc5499", "rental_uris": {"android": "https://dc.lft.to/lastmile_qr_scan", "ios": "https://dc.lft.to/lastmile_qr_scan"}, "name": "23e393377deef766162b2746cfcc5499", "is_reserved": 0}, {"is_disabled": 0, "fusion_lon": 0.0, "fusion_lat": 0.0, "lat": 38.956233166666664, "type": "electric_scooter", "lon": -77.024551, "bike_id": "ada30244ede805faa47ccc7846c8b0cf", "rental_uris": {"android": "https://dc.lft.to/lastmile_qr_scan", "ios": "https://dc.lft.to/lastmile_qr_scan"}, "name": "ada30244ede805faa47ccc7846c8b0cf", "is_reserved": 0}, {"is_disabled": 0, "fusion_lon": 0.0, "fusion_lat": 0.0, "lat": 38.92031583333333, "type": "electric_scooter", "lon": -77.025872, "bike_id": "6adbfe14d3b6bbd34ad24ea5c0397800", "rental_uris": {"android": "https://dc.lft.to/lastmile_qr_scan", "ios": "https://dc.lft.to/lastmile_qr_scan"}, "name": "6adbfe14d3b6bbd34ad24ea5c0397800", "is_reserved": 0}, {"is_disabled": 0, "fusion_lon": 0.0, "fusion_lat": 0.0, "lat": 38.918052333333335, "type": "electric_scooter", "lon": -77.02680916666667, "bike_id": "870e043af09eaaf9a53a969c1c287167", "rental_uris": {"android": "https://dc.lft.to/lastmile_qr_scan", "ios": "https://dc.lft.to/lastmile_qr_scan"}, "name": "870e043af09eaaf9a53a969c1c287167", "is_reserved": 0}, {"is_disabled": 0, "fusion_lon": 0.0, "fusion_lat": 0.0, "lat": 38.92064416666667, "type": "electric_scooter", "lon": -77.04354783333334, "bike_id": "209b96eea7e2c81560a3b2e21c2ad646", "rental_uris": {"android": "https://dc.lft.to/lastmile_qr_scan", "ios": "https://dc.lft.to/lastmile_qr_scan"}, "name": "209b96eea7e2c81560a3b2e21c2ad646", "is_reserved": 0}, {"is_disabled": 0, "fusion_lon": 0.0, "fusion_lat": 0.0, "lat": 38.895444166666664, "type": "electric_scooter", "lon": -77.01086583333333, "bike_id": "e2cd7ece0cd998cf768735e3717a69e8", "rental_uris": {"android": "https://dc.lft.to/lastmile_qr_scan", "ios": "https://dc.lft.to/lastmile_qr_scan"}, "name": "e2cd7ece0cd998cf768735e3717a69e8", "is_reserved": 0}, {"is_disabled": 0, "fusion_lon": 0.0, "fusion_lat": 0.0, "lat": 38.91180283333333, "type": "electric_scooter", "lon": -77.0045275, "bike_id": "968ff7f3e398cc9360e5005a72556e92", "rental_uris": {"android": "https://dc.lft.to/lastmile_qr_scan", "ios": "https://dc.lft.to/lastmile_qr_scan"}, "name": "968ff7f3e398cc9360e5005a72556e92", "is_reserved": 0}, {"is_disabled": 0, "fusion_lon": 0.0, "fusion_lat": 0.0, "lat": 38.919163166666664, "type": "electric_scooter", "lon": -77.03028933333333, "bike_id": "aca7c3bb7b5b7bc416ce7bd31bfc4468", "rental_uris": {"android": "https://dc.lft.to/lastmile_qr_scan", "ios": "https://dc.lft.to/lastmile_qr_scan"}, "name": "aca7c3bb7b5b7bc416ce7bd31bfc4468", "is_reserved": 0}, {"is_disabled": 0, "fusion_lon": 0.0, "fusion_lat": 0.0, "lat": 38.949815666666666, "type": "electric_scooter", "lon": -77.02704, "bike_id": "600c6473186abbdc37f0182aa66d51a8", "rental_uris": {"android": "https://dc.lft.to/lastmile_qr_scan", "ios": "https://dc.lft.to/lastmile_qr_scan"}, "name": "600c6473186abbdc37f0182aa66d51a8", "is_reserved": 0}, {"is_disabled": 0, "fusion_lon": 0.0, "fusion_lat": 0.0, "lat": 38.9354035, "type": "electric_scooter", "lon": -77.0341745, "bike_id": "fc9c5b8d4312095a9d618b740ce58906", "rental_uris": {"android": "https://dc.lft.to/lastmile_qr_scan", "ios": "https://dc.lft.to/lastmile_qr_scan"}, "name": "fc9c5b8d4312095a9d618b740ce58906", "is_reserved": 0}, {"is_disabled": 0, "fusion_lon": 0.0, "fusion_lat": 0.0, "lat": 38.915299166666664, "type": "electric_scooter", "lon": -77.0184145, "bike_id": "d6078e05e9bdca119895af1c133aacc6", "rental_uris": {"android": "https://dc.lft.to/lastmile_qr_scan", "ios": "https://dc.lft.to/lastmile_qr_scan"}, "name": "d6078e05e9bdca119895af1c133aacc6", "is_reserved": 0}, {"is_disabled": 0, "fusion_lon": 0.0, "fusion_lat": 0.0, "lat": 38.92965, "type": "electric_scooter", "lon": -77.04112016666667, "bike_id": "2dd90451638c65c045f81374ac62dd78", "rental_uris": {"android": "https://dc.lft.to/lastmile_qr_scan", "ios": "https://dc.lft.to/lastmile_qr_scan"}, "name": "2dd90451638c65c045f81374ac62dd78", "is_reserved": 0}, {"is_disabled": 0, "fusion_lon": 0.0, "fusion_lat": 0.0, "lat": 38.915589, "type": "electric_scooter", "lon": -77.01997066666667, "bike_id": "97275f558ce4ea2d782de695a1cad4e5", "rental_uris": {"android": "https://dc.lft.to/lastmile_qr_scan", "ios": "https://dc.lft.to/lastmile_qr_scan"}, "name": "97275f558ce4ea2d782de695a1cad4e5", "is_reserved": 0}, {"is_disabled": 0, "fusion_lon": 0.0, "fusion_lat": 0.0, "lat": 38.905005833333334, "type": "electric_scooter", "lon": -77.0295515, "bike_id": "80579bfc1a58173b664d2f082ce1005b", "rental_uris": {"android": "https://dc.lft.to/lastmile_qr_scan", "ios": "https://dc.lft.to/lastmile_qr_scan"}, "name": "80579bfc1a58173b664d2f082ce1005b", "is_reserved": 0}, {"is_disabled": 0, "fusion_lon": 0.0, "fusion_lat": 0.0, "lat": 38.9263105, "type": "electric_scooter", "lon": -77.04264133333334, "bike_id": "d469d6007e4c816df94ee90b9e3aad1f", "rental_uris": {"android": "https://dc.lft.to/lastmile_qr_scan", "ios": "https://dc.lft.to/lastmile_qr_scan"}, "name": "d469d6007e4c816df94ee90b9e3aad1f", "is_reserved": 0}, {"is_disabled": 0, "fusion_lon": 0.0, "fusion_lat": 0.0, "lat": 38.906682833333335, "type": "electric_scooter", "lon": -77.02711783333334, "bike_id": "25400c2e6daa001534e692c1eaba0595", "rental_uris": {"android": "https://dc.lft.to/lastmile_qr_scan", "ios": "https://dc.lft.to/lastmile_qr_scan"}, "name": "25400c2e6daa001534e692c1eaba0595", "is_reserved": 0}, {"is_disabled": 0, "fusion_lon": 0.0, "fusion_lat": 0.0, "lat": 38.84423016666667, "type": "electric_scooter", "lon": -76.9977875, "bike_id": "f7e2e5bf6cfe433b0b5f880b31df201d", "rental_uris": {"android": "https://dc.lft.to/lastmile_qr_scan", "ios": "https://dc.lft.to/lastmile_qr_scan"}, "name": "f7e2e5bf6cfe433b0b5f880b31df201d", "is_reserved": 0}, {"is_disabled": 0, "fusion_lon": 0.0, "fusion_lat": 0.0, "lat": 38.946069333333334, "type": "electric_scooter", "lon": -77.03460983333333, "bike_id": "849deac1ae7b819e4a72d3e92ae30e78", "rental_uris": {"android": "https://dc.lft.to/lastmile_qr_scan", "ios": "https://dc.lft.to/lastmile_qr_scan"}, "name": "849deac1ae7b819e4a72d3e92ae30e78", "is_reserved": 0}, {"is_disabled": 0, "fusion_lon": 0.0, "fusion_lat": 0.0, "lat": 38.9130045, "type": "electric_scooter", "lon": -77.04668966666667, "bike_id": "7628bf7caf24c2e6ee920b8c7ce97342", "rental_uris": {"android": "https://dc.lft.to/lastmile_qr_scan", "ios": "https://dc.lft.to/lastmile_qr_scan"}, "name": "7628bf7caf24c2e6ee920b8c7ce97342", "is_reserved": 0}, {"is_disabled": 0, "fusion_lon": 0.0, "fusion_lat": 0.0, "lat": 38.8935635, "type": "electric_scooter", "lon": -77.02183016666666, "bike_id": "2cd12762caa83df34ce3f8f6ae72d91a", "rental_uris": {"android": "https://dc.lft.to/lastmile_qr_scan", "ios": "https://dc.lft.to/lastmile_qr_scan"}, "name": "2cd12762caa83df34ce3f8f6ae72d91a", "is_reserved": 0}, {"is_disabled": 0, "fusion_lon": 0.0, "fusion_lat": 0.0, "lat": 38.895031333333336, "type": "electric_scooter", "lon": -76.9487805, "bike_id": "b4f321513fdabf7f285362a32ff2905d", "rental_uris": {"android": "https://dc.lft.to/lastmile_qr_scan", "ios": "https://dc.lft.to/lastmile_qr_scan"}, "name": "b4f321513fdabf7f285362a32ff2905d", "is_reserved": 0}, {"is_disabled": 0, "fusion_lon": 0.0, "fusion_lat": 0.0, "lat": 38.96620433333333, "type": "electric_scooter", "lon": -77.03535766666667, "bike_id": "1d0269434bf925aa6f0e36d37b7fe26d", "rental_uris": {"android": "https://dc.lft.to/lastmile_qr_scan", "ios": "https://dc.lft.to/lastmile_qr_scan"}, "name": "1d0269434bf925aa6f0e36d37b7fe26d", "is_reserved": 0}, {"is_disabled": 0, "fusion_lon": 0.0, "fusion_lat": 0.0, "lat": 38.913068833333334, "type": "electric_scooter", "lon": -77.00846, "bike_id": "b19b9fbb8d4b4f074fcf23876c84c0ac", "rental_uris": {"android": "https://dc.lft.to/lastmile_qr_scan", "ios": "https://dc.lft.to/lastmile_qr_scan"}, "name": "b19b9fbb8d4b4f074fcf23876c84c0ac", "is_reserved": 0}, {"is_disabled": 0, "fusion_lon": 0.0, "fusion_lat": 0.0, "lat": 38.934311, "type": "electric_scooter", "lon": -77.02588266666666, "bike_id": "db0bf7eeeff9bd7e5744619a528e9818", "rental_uris": {"android": "https://dc.lft.to/lastmile_qr_scan", "ios": "https://dc.lft.to/lastmile_qr_scan"}, "name": "db0bf7eeeff9bd7e5744619a528e9818", "is_reserved": 0}, {"is_disabled": 0, "fusion_lon": 0.0, "fusion_lat": 0.0, "lat": 38.92968283333333, "type": "electric_scooter", "lon": -77.0419785, "bike_id": "23099a594cc971b1dddfb14d9dc04a97", "rental_uris": {"android": "https://dc.lft.to/lastmile_qr_scan", "ios": "https://dc.lft.to/lastmile_qr_scan"}, "name": "23099a594cc971b1dddfb14d9dc04a97", "is_reserved": 0}, {"is_disabled": 0, "fusion_lon": 0.0, "fusion_lat": 0.0, "lat": 38.9126025, "type": "electric_scooter", "lon": -77.03375633333333, "bike_id": "d564088306e38b517f024a98cda11460", "rental_uris": {"android": "https://dc.lft.to/lastmile_qr_scan", "ios": "https://dc.lft.to/lastmile_qr_scan"}, "name": "d564088306e38b517f024a98cda11460", "is_reserved": 0}, {"is_disabled": 0, "fusion_lon": 0.0, "fusion_lat": 0.0, "lat": 38.951687666666665, "type": "electric_scooter", "lon": -77.033436, "bike_id": "619a5f0ad236320105534f66d6e7ffb0", "rental_uris": {"android": "https://dc.lft.to/lastmile_qr_scan", "ios": "https://dc.lft.to/lastmile_qr_scan"}, "name": "619a5f0ad236320105534f66d6e7ffb0", "is_reserved": 0}, {"is_disabled": 0, "fusion_lon": 0.0, "fusion_lat": 0.0, "lat": 38.915347833333335, "type": "electric_scooter", "lon": -77.03796683333333, "bike_id": "fb97660880cf18ceb02adccf680eb5c2", "rental_uris": {"android": "https://dc.lft.to/lastmile_qr_scan", "ios": "https://dc.lft.to/lastmile_qr_scan"}, "name": "fb97660880cf18ceb02adccf680eb5c2", "is_reserved": 0}, {"is_disabled": 0, "fusion_lon": 0.0, "fusion_lat": 0.0, "lat": 38.946132166666665, "type": "electric_scooter", "lon": -77.0362125, "bike_id": "ae26800595474f958d36970a4ffd605c", "rental_uris": {"android": "https://dc.lft.to/lastmile_qr_scan", "ios": "https://dc.lft.to/lastmile_qr_scan"}, "name": "ae26800595474f958d36970a4ffd605c", "is_reserved": 0}, {"is_disabled": 0, "fusion_lon": 0.0, "fusion_lat": 0.0, "lat": 38.896327166666666, "type": "electric_scooter", "lon": -77.02920633333333, "bike_id": "72c0be5bbd17d4d59d3fead131732ada", "rental_uris": {"android": "https://dc.lft.to/lastmile_qr_scan", "ios": "https://dc.lft.to/lastmile_qr_scan"}, "name": "72c0be5bbd17d4d59d3fead131732ada", "is_reserved": 0}, {"is_disabled": 0, "fusion_lon": 0.0, "fusion_lat": 0.0, "lat": 38.951104, "type": "electric_scooter", "lon": -77.02788516666666, "bike_id": "28e9bf316dd523930d7482582f3a0da3", "rental_uris": {"android": "https://dc.lft.to/lastmile_qr_scan", "ios": "https://dc.lft.to/lastmile_qr_scan"}, "name": "28e9bf316dd523930d7482582f3a0da3", "is_reserved": 0}, {"is_disabled": 0, "fusion_lon": 0.0, "fusion_lat": 0.0, "lat": 38.904983666666666, "type": "electric_scooter", "lon": -77.02945883333334, "bike_id": "0d80828cc791d894502b47155a97a0c5", "rental_uris": {"android": "https://dc.lft.to/lastmile_qr_scan", "ios": "https://dc.lft.to/lastmile_qr_scan"}, "name": "0d80828cc791d894502b47155a97a0c5", "is_reserved": 0}, {"is_disabled": 0, "fusion_lon": 0.0, "fusion_lat": 0.0, "lat": 38.921018, "type": "electric_scooter", "lon": -77.030461, "bike_id": "0772605094709ed3d10e99810b3632f1", "rental_uris": {"android": "https://dc.lft.to/lastmile_qr_scan", "ios": "https://dc.lft.to/lastmile_qr_scan"}, "name": "0772605094709ed3d10e99810b3632f1", "is_reserved": 0}, {"is_disabled": 0, "fusion_lon": 0.0, "fusion_lat": 0.0, "lat": 38.92877583333333, "type": "electric_scooter", "lon": -77.0413155, "bike_id": "33d26bfbfa2e9f01d414ce8cad80c599", "rental_uris": {"android": "https://dc.lft.to/lastmile_qr_scan", "ios": "https://dc.lft.to/lastmile_qr_scan"}, "name": "33d26bfbfa2e9f01d414ce8cad80c599", "is_reserved": 0}, {"is_disabled": 0, "fusion_lon": 0.0, "fusion_lat": 0.0, "lat": 38.89726666666667, "type": "electric_scooter", "lon": -77.00928433333333, "bike_id": "8a6597108969f728a1e3df0d3e6f5514", "rental_uris": {"android": "https://dc.lft.to/lastmile_qr_scan", "ios": "https://dc.lft.to/lastmile_qr_scan"}, "name": "8a6597108969f728a1e3df0d3e6f5514", "is_reserved": 0}, {"is_disabled": 0, "fusion_lon": 0.0, "fusion_lat": 0.0, "lat": 38.8900095, "type": "electric_scooter", "lon": -77.04902966666667, "bike_id": "e6a2ba3f38aaaf429a5ed7cf78141ec8", "rental_uris": {"android": "https://dc.lft.to/lastmile_qr_scan", "ios": "https://dc.lft.to/lastmile_qr_scan"}, "name": "e6a2ba3f38aaaf429a5ed7cf78141ec8", "is_reserved": 0}, {"is_disabled": 0, "fusion_lon": 0.0, "fusion_lat": 0.0, "lat": 38.860547, "type": "electric_scooter", "lon": -76.98512433333333, "bike_id": "7c9f59f21bd816267ff56268902ca370", "rental_uris": {"android": "https://dc.lft.to/lastmile_qr_scan", "ios": "https://dc.lft.to/lastmile_qr_scan"}, "name": "7c9f59f21bd816267ff56268902ca370", "is_reserved": 0}, {"is_disabled": 0, "fusion_lon": 0.0, "fusion_lat": 0.0, "lat": 38.9413035, "type": "electric_scooter", "lon": -77.018203, "bike_id": "c7c2f2eaeb718cd15b0a1b3ce1489b32", "rental_uris": {"android": "https://dc.lft.to/lastmile_qr_scan", "ios": "https://dc.lft.to/lastmile_qr_scan"}, "name": "c7c2f2eaeb718cd15b0a1b3ce1489b32", "is_reserved": 0}, {"is_disabled": 0, "fusion_lon": 0.0, "fusion_lat": 0.0, "lat": 38.8947485, "type": "electric_scooter", "lon": -76.9330295, "bike_id": "c8b2f29bc391fc448a46db3cf451e81f", "rental_uris": {"android": "https://dc.lft.to/lastmile_qr_scan", "ios": "https://dc.lft.to/lastmile_qr_scan"}, "name": "c8b2f29bc391fc448a46db3cf451e81f", "is_reserved": 0}, {"is_disabled": 0, "fusion_lon": 0.0, "fusion_lat": 0.0, "lat": 38.90031166666667, "type": "electric_scooter", "lon": -76.99546083333334, "bike_id": "70c7c2e3eceac144524156385d205134", "rental_uris": {"android": "https://dc.lft.to/lastmile_qr_scan", "ios": "https://dc.lft.to/lastmile_qr_scan"}, "name": "70c7c2e3eceac144524156385d205134", "is_reserved": 0}, {"is_disabled": 0, "fusion_lon": 0.0, "fusion_lat": 0.0, "lat": 38.90823616666667, "type": "electric_scooter", "lon": -77.04168083333333, "bike_id": "dbdd2d3770ec06be3555814959b04006", "rental_uris": {"android": "https://dc.lft.to/lastmile_qr_scan", "ios": "https://dc.lft.to/lastmile_qr_scan"}, "name": "dbdd2d3770ec06be3555814959b04006", "is_reserved": 0}, {"is_disabled": 0, "fusion_lon": 0.0, "fusion_lat": 0.0, "lat": 38.895012, "type": "electric_scooter", "lon": -77.0094945, "bike_id": "19932fb0464352c04ee17cb258fdd730", "rental_uris": {"android": "https://dc.lft.to/lastmile_qr_scan", "ios": "https://dc.lft.to/lastmile_qr_scan"}, "name": "19932fb0464352c04ee17cb258fdd730", "is_reserved": 0}, {"is_disabled": 0, "fusion_lon": 0.0, "fusion_lat": 0.0, "lat": 38.91109216666667, "type": "electric_scooter", "lon": -77.04500183333333, "bike_id": "2a6f0d95f3b92607d7a2b5f12e0998e5", "rental_uris": {"android": "https://dc.lft.to/lastmile_qr_scan", "ios": "https://dc.lft.to/lastmile_qr_scan"}, "name": "2a6f0d95f3b92607d7a2b5f12e0998e5", "is_reserved": 0}, {"is_disabled": 0, "fusion_lon": 0.0, "fusion_lat": 0.0, "lat": 38.929937333333335, "type": "electric_scooter", "lon": -77.02400333333334, "bike_id": "a54a2a7a102b84cda53c05f049a9c25a", "rental_uris": {"android": "https://dc.lft.to/lastmile_qr_scan", "ios": "https://dc.lft.to/lastmile_qr_scan"}, "name": "a54a2a7a102b84cda53c05f049a9c25a", "is_reserved": 0}, {"is_disabled": 0, "fusion_lon": 0.0, "fusion_lat": 0.0, "lat": 38.92119, "type": "electric_scooter", "lon": -77.012075, "bike_id": "e3cddf632c22b780735a4c5f6c4d2831", "rental_uris": {"android": "https://dc.lft.to/lastmile_qr_scan", "ios": "https://dc.lft.to/lastmile_qr_scan"}, "name": "e3cddf632c22b780735a4c5f6c4d2831", "is_reserved": 0}, {"is_disabled": 0, "fusion_lon": 0.0, "fusion_lat": 0.0, "lat": 38.930035, "type": "electric_scooter", "lon": -77.03800383333333, "bike_id": "46c9b53203e12c6a397bcb851be5bdf8", "rental_uris": {"android": "https://dc.lft.to/lastmile_qr_scan", "ios": "https://dc.lft.to/lastmile_qr_scan"}, "name": "46c9b53203e12c6a397bcb851be5bdf8", "is_reserved": 0}, {"is_disabled": 0, "fusion_lon": 0.0, "fusion_lat": 0.0, "lat": 38.91233666666667, "type": "electric_scooter", "lon": -77.03218716666667, "bike_id": "a6288176d75cf8c658dc5b3a22e7d22b", "rental_uris": {"android": "https://dc.lft.to/lastmile_qr_scan", "ios": "https://dc.lft.to/lastmile_qr_scan"}, "name": "a6288176d75cf8c658dc5b3a22e7d22b", "is_reserved": 0}, {"is_disabled": 0, "fusion_lon": 0.0, "fusion_lat": 0.0, "lat": 38.93138233333333, "type": "electric_scooter", "lon": -77.07852316666667, "bike_id": "1a755d945f869341b0e3d62ea9a24b70", "rental_uris": {"android": "https://dc.lft.to/lastmile_qr_scan", "ios": "https://dc.lft.to/lastmile_qr_scan"}, "name": "1a755d945f869341b0e3d62ea9a24b70", "is_reserved": 0}, {"is_disabled": 0, "fusion_lon": 0.0, "fusion_lat": 0.0, "lat": 38.9308495, "type": "electric_scooter", "lon": -77.02540866666666, "bike_id": "d337f77a582a9fcb71ea33b3bc68b880", "rental_uris": {"android": "https://dc.lft.to/lastmile_qr_scan", "ios": "https://dc.lft.to/lastmile_qr_scan"}, "name": "d337f77a582a9fcb71ea33b3bc68b880", "is_reserved": 0}, {"is_disabled": 0, "fusion_lon": 0.0, "fusion_lat": 0.0, "lat": 38.9004925, "type": "electric_scooter", "lon": -76.98329616666666, "bike_id": "519de15086b20bf0994d6fde34ed751e", "rental_uris": {"android": "https://dc.lft.to/lastmile_qr_scan", "ios": "https://dc.lft.to/lastmile_qr_scan"}, "name": "519de15086b20bf0994d6fde34ed751e", "is_reserved": 0}, {"is_disabled": 0, "fusion_lon": 0.0, "fusion_lat": 0.0, "lat": 38.90507733333333, "type": "electric_scooter", "lon": -77.04887366666667, "bike_id": "ea658d8f1cf4aa11db218eb67c1037ba", "rental_uris": {"android": "https://dc.lft.to/lastmile_qr_scan", "ios": "https://dc.lft.to/lastmile_qr_scan"}, "name": "ea658d8f1cf4aa11db218eb67c1037ba", "is_reserved": 0}, {"is_disabled": 0, "fusion_lon": 0.0, "fusion_lat": 0.0, "lat": 38.905823833333336, "type": "electric_scooter", "lon": -77.04359433333333, "bike_id": "e641b3d227623554be7733c4da81404d", "rental_uris": {"android": "https://dc.lft.to/lastmile_qr_scan", "ios": "https://dc.lft.to/lastmile_qr_scan"}, "name": "e641b3d227623554be7733c4da81404d", "is_reserved": 0}, {"is_disabled": 0, "fusion_lon": 0.0, "fusion_lat": 0.0, "lat": 38.874955666666665, "type": "electric_scooter", "lon": -76.99795516666667, "bike_id": "956ddad768050edc19660ded2ab1b457", "rental_uris": {"android": "https://dc.lft.to/lastmile_qr_scan", "ios": "https://dc.lft.to/lastmile_qr_scan"}, "name": "956ddad768050edc19660ded2ab1b457", "is_reserved": 0}, {"is_disabled": 0, "fusion_lon": 0.0, "fusion_lat": 0.0, "lat": 38.9030735, "type": "electric_scooter", "lon": -77.03644683333333, "bike_id": "bd7eaf96ae2270fe52f8511270ca39cd", "rental_uris": {"android": "https://dc.lft.to/lastmile_qr_scan", "ios": "https://dc.lft.to/lastmile_qr_scan"}, "name": "bd7eaf96ae2270fe52f8511270ca39cd", "is_reserved": 0}, {"is_disabled": 0, "fusion_lon": 0.0, "fusion_lat": 0.0, "lat": 38.89582383333333, "type": "electric_scooter", "lon": -77.02302233333333, "bike_id": "1b522b6323093e1e9832d6d46599096f", "rental_uris": {"android": "https://dc.lft.to/lastmile_qr_scan", "ios": "https://dc.lft.to/lastmile_qr_scan"}, "name": "1b522b6323093e1e9832d6d46599096f", "is_reserved": 0}, {"is_disabled": 0, "fusion_lon": 0.0, "fusion_lat": 0.0, "lat": 38.917988333333334, "type": "electric_scooter", "lon": -77.02398016666666, "bike_id": "feb0514b2cd537f04c98d9462e5e79b3", "rental_uris": {"android": "https://dc.lft.to/lastmile_qr_scan", "ios": "https://dc.lft.to/lastmile_qr_scan"}, "name": "feb0514b2cd537f04c98d9462e5e79b3", "is_reserved": 0}, {"is_disabled": 0, "fusion_lon": 0.0, "fusion_lat": 0.0, "lat": 38.910341833333334, "type": "electric_scooter", "lon": -77.03826733333334, "bike_id": "586f42c634692d0169dc2b543525db10", "rental_uris": {"android": "https://dc.lft.to/lastmile_qr_scan", "ios": "https://dc.lft.to/lastmile_qr_scan"}, "name": "586f42c634692d0169dc2b543525db10", "is_reserved": 0}, {"is_disabled": 0, "fusion_lon": 0.0, "fusion_lat": 0.0, "lat": 38.897468, "type": "electric_scooter", "lon": -77.024711, "bike_id": "aa3872e0645377bd63794e02f453b384", "rental_uris": {"android": "https://dc.lft.to/lastmile_qr_scan", "ios": "https://dc.lft.to/lastmile_qr_scan"}, "name": "aa3872e0645377bd63794e02f453b384", "is_reserved": 0}, {"is_disabled": 0, "fusion_lon": 0.0, "fusion_lat": 0.0, "lat": 38.828703833333336, "type": "electric_bike", "lon": -77.112272, "bike_id": "b13ebf1f81765b657b6a1391710152ef", "rental_uris": {"android": "https://dc.lft.to/lastmile_qr_scan", "ios": "https://dc.lft.to/lastmile_qr_scan"}, "name": "b13ebf1f81765b657b6a1391710152ef", "is_reserved": 0}, {"is_disabled": 0, "fusion_lon": 0.0, "fusion_lat": 0.0, "lat": 38.9128635, "type": "electric_scooter", "lon": -77.02074833333333, "bike_id": "0bff08f7a1f30cd4b0c01c192c6e0275", "rental_uris": {"android": "https://dc.lft.to/lastmile_qr_scan", "ios": "https://dc.lft.to/lastmile_qr_scan"}, "name": "0bff08f7a1f30cd4b0c01c192c6e0275", "is_reserved": 0}, {"is_disabled": 0, "fusion_lon": 0.0, "fusion_lat": 0.0, "lat": 38.916583, "type": "electric_scooter", "lon": -77.0296715, "bike_id": "db6be2372c02aaef6f66abeb2219992f", "rental_uris": {"android": "https://dc.lft.to/lastmile_qr_scan", "ios": "https://dc.lft.to/lastmile_qr_scan"}, "name": "db6be2372c02aaef6f66abeb2219992f", "is_reserved": 0}, {"is_disabled": 0, "fusion_lon": 0.0, "fusion_lat": 0.0, "lat": 38.91268383333333, "type": "electric_scooter", "lon": -77.03147983333334, "bike_id": "ddfb60233a4fcee220f0971898b1a98b", "rental_uris": {"android": "https://dc.lft.to/lastmile_qr_scan", "ios": "https://dc.lft.to/lastmile_qr_scan"}, "name": "ddfb60233a4fcee220f0971898b1a98b", "is_reserved": 0}, {"is_disabled": 0, "fusion_lon": 0.0, "fusion_lat": 0.0, "lat": 39.000159, "type": "electric_bike", "lon": -76.87284216666667, "bike_id": "75db78f8a8b8be98616490fa096d65a3", "rental_uris": {"android": "https://dc.lft.to/lastmile_qr_scan", "ios": "https://dc.lft.to/lastmile_qr_scan"}, "name": "75db78f8a8b8be98616490fa096d65a3", "is_reserved": 0}, {"is_disabled": 0, "fusion_lon": 0.0, "fusion_lat": 0.0, "lat": 38.91689516666667, "type": "electric_scooter", "lon": -77.03208183333334, "bike_id": "e1de2646b466c8496671e36193d5d0de", "rental_uris": {"android": "https://dc.lft.to/lastmile_qr_scan", "ios": "https://dc.lft.to/lastmile_qr_scan"}, "name": "e1de2646b466c8496671e36193d5d0de", "is_reserved": 0}, {"is_disabled": 0, "fusion_lon": 0.0, "fusion_lat": 0.0, "lat": 38.9061435, "type": "electric_scooter", "lon": -77.05724383333333, "bike_id": "52a526f569fa38eb778eb5376e9f1c95", "rental_uris": {"android": "https://dc.lft.to/lastmile_qr_scan", "ios": "https://dc.lft.to/lastmile_qr_scan"}, "name": "52a526f569fa38eb778eb5376e9f1c95", "is_reserved": 0}, {"is_disabled": 0, "fusion_lon": 0.0, "fusion_lat": 0.0, "lat": 38.91964683333333, "type": "electric_scooter", "lon": -77.02711166666667, "bike_id": "813e9fc434265d54d2be7a6ad0d2cdf5", "rental_uris": {"android": "https://dc.lft.to/lastmile_qr_scan", "ios": "https://dc.lft.to/lastmile_qr_scan"}, "name": "813e9fc434265d54d2be7a6ad0d2cdf5", "is_reserved": 0}, {"is_disabled": 0, "fusion_lon": 0.0, "fusion_lat": 0.0, "lat": 38.9217115, "type": "electric_scooter", "lon": -77.055294, "bike_id": "bc677b344690545c10a4dfa134642aa0", "rental_uris": {"android": "https://dc.lft.to/lastmile_qr_scan", "ios": "https://dc.lft.to/lastmile_qr_scan"}, "name": "bc677b344690545c10a4dfa134642aa0", "is_reserved": 0}, {"is_disabled": 0, "fusion_lon": 0.0, "fusion_lat": 0.0, "lat": 38.923852, "type": "electric_scooter", "lon": -77.0296195, "bike_id": "b1d215509858663ea73803c75ae91cc4", "rental_uris": {"android": "https://dc.lft.to/lastmile_qr_scan", "ios": "https://dc.lft.to/lastmile_qr_scan"}, "name": "b1d215509858663ea73803c75ae91cc4", "is_reserved": 0}, {"is_disabled": 0, "fusion_lon": 0.0, "fusion_lat": 0.0, "lat": 38.922276, "type": "electric_scooter", "lon": -76.975315, "bike_id": "d1c04c139e860e8c811988172f754cba", "rental_uris": {"android": "https://dc.lft.to/lastmile_qr_scan", "ios": "https://dc.lft.to/lastmile_qr_scan"}, "name": "d1c04c139e860e8c811988172f754cba", "is_reserved": 0}, {"is_disabled": 0, "fusion_lon": 0.0, "fusion_lat": 0.0, "lat": 38.910749833333334, "type": "electric_scooter", "lon": -77.01508616666666, "bike_id": "bef1be1f5791624d24c7bd6237e29dff", "rental_uris": {"android": "https://dc.lft.to/lastmile_qr_scan", "ios": "https://dc.lft.to/lastmile_qr_scan"}, "name": "bef1be1f5791624d24c7bd6237e29dff", "is_reserved": 0}, {"is_disabled": 0, "fusion_lon": 0.0, "fusion_lat": 0.0, "lat": 38.92457383333333, "type": "electric_scooter", "lon": -77.02152183333334, "bike_id": "61029f4e6d033d22dd8b3d6c56eb708c", "rental_uris": {"android": "https://dc.lft.to/lastmile_qr_scan", "ios": "https://dc.lft.to/lastmile_qr_scan"}, "name": "61029f4e6d033d22dd8b3d6c56eb708c", "is_reserved": 0}, {"is_disabled": 0, "fusion_lon": 0.0, "fusion_lat": 0.0, "lat": 38.905119166666665, "type": "electric_scooter", "lon": -77.02976066666666, "bike_id": "f5f4d92b9c6f01773006f7577039d7ee", "rental_uris": {"android": "https://dc.lft.to/lastmile_qr_scan", "ios": "https://dc.lft.to/lastmile_qr_scan"}, "name": "f5f4d92b9c6f01773006f7577039d7ee", "is_reserved": 0}, {"is_disabled": 0, "fusion_lon": 0.0, "fusion_lat": 0.0, "lat": 38.91226483333333, "type": "electric_scooter", "lon": -76.9844445, "bike_id": "920ab12d13b260f2c520afa312cb1992", "rental_uris": {"android": "https://dc.lft.to/lastmile_qr_scan", "ios": "https://dc.lft.to/lastmile_qr_scan"}, "name": "920ab12d13b260f2c520afa312cb1992", "is_reserved": 0}, {"is_disabled": 0, "fusion_lon": 0.0, "fusion_lat": 0.0, "lat": 38.884707166666665, "type": "electric_scooter", "lon": -76.95224066666667, "bike_id": "c056b0b95188bbfcb00d17bd77568f3f", "rental_uris": {"android": "https://dc.lft.to/lastmile_qr_scan", "ios": "https://dc.lft.to/lastmile_qr_scan"}, "name": "c056b0b95188bbfcb00d17bd77568f3f", "is_reserved": 0}, {"is_disabled": 0, "fusion_lon": 0.0, "fusion_lat": 0.0, "lat": 38.9267095, "type": "electric_scooter", "lon": -77.10309883333333, "bike_id": "d39e08dd6d618f7e118549cddf8ef2ac", "rental_uris": {"android": "https://dc.lft.to/lastmile_qr_scan", "ios": "https://dc.lft.to/lastmile_qr_scan"}, "name": "d39e08dd6d618f7e118549cddf8ef2ac", "is_reserved": 0}, {"is_disabled": 0, "fusion_lon": 0.0, "fusion_lat": 0.0, "lat": 38.946974, "type": "electric_scooter", "lon": -77.0194655, "bike_id": "0748fd7476d7b7f821aa0f1b1e87809a", "rental_uris": {"android": "https://dc.lft.to/lastmile_qr_scan", "ios": "https://dc.lft.to/lastmile_qr_scan"}, "name": "0748fd7476d7b7f821aa0f1b1e87809a", "is_reserved": 0}, {"is_disabled": 0, "fusion_lon": 0.0, "fusion_lat": 0.0, "lat": 38.9225275, "type": "electric_scooter", "lon": -77.04210216666667, "bike_id": "1ab4d9685a4833b00fca2667b50c71d2", "rental_uris": {"android": "https://dc.lft.to/lastmile_qr_scan", "ios": "https://dc.lft.to/lastmile_qr_scan"}, "name": "1ab4d9685a4833b00fca2667b50c71d2", "is_reserved": 0}, {"is_disabled": 0, "fusion_lon": 0.0, "fusion_lat": 0.0, "lat": 38.8484275, "type": "electric_bike", "lon": -77.08053083333333, "bike_id": "27116a904204b676e453c85e0f46a3c8", "rental_uris": {"android": "https://dc.lft.to/lastmile_qr_scan", "ios": "https://dc.lft.to/lastmile_qr_scan"}, "name": "27116a904204b676e453c85e0f46a3c8", "is_reserved": 0}, {"is_disabled": 0, "fusion_lon": 0.0, "fusion_lat": 0.0, "lat": 38.91487983333333, "type": "electric_scooter", "lon": -77.028101, "bike_id": "b4d57e8ab11c66caf6d720bc971f3231", "rental_uris": {"android": "https://dc.lft.to/lastmile_qr_scan", "ios": "https://dc.lft.to/lastmile_qr_scan"}, "name": "b4d57e8ab11c66caf6d720bc971f3231", "is_reserved": 0}, {"is_disabled": 0, "fusion_lon": 0.0, "fusion_lat": 0.0, "lat": 38.90699683333333, "type": "electric_scooter", "lon": -77.0269525, "bike_id": "6fd64af5cfbb9c8f097e02b585f665d1", "rental_uris": {"android": "https://dc.lft.to/lastmile_qr_scan", "ios": "https://dc.lft.to/lastmile_qr_scan"}, "name": "6fd64af5cfbb9c8f097e02b585f665d1", "is_reserved": 0}, {"is_disabled": 0, "fusion_lon": 0.0, "fusion_lat": 0.0, "lat": 38.929938, "type": "electric_scooter", "lon": -77.02183666666667, "bike_id": "6bf72fc013819299042daaac24f9b2f4", "rental_uris": {"android": "https://dc.lft.to/lastmile_qr_scan", "ios": "https://dc.lft.to/lastmile_qr_scan"}, "name": "6bf72fc013819299042daaac24f9b2f4", "is_reserved": 0}, {"is_disabled": 0, "fusion_lon": 0.0, "fusion_lat": 0.0, "lat": 38.91767266666667, "type": "electric_scooter", "lon": -77.02335716666667, "bike_id": "01c991025ce1c73eea9d3757bbe19d36", "rental_uris": {"android": "https://dc.lft.to/lastmile_qr_scan", "ios": "https://dc.lft.to/lastmile_qr_scan"}, "name": "01c991025ce1c73eea9d3757bbe19d36", "is_reserved": 0}, {"is_disabled": 0, "fusion_lon": 0.0, "fusion_lat": 0.0, "lat": 38.933939, "type": "electric_scooter", "lon": -77.02719966666666, "bike_id": "eb8c7db1e681a74c083743521fb87199", "rental_uris": {"android": "https://dc.lft.to/lastmile_qr_scan", "ios": "https://dc.lft.to/lastmile_qr_scan"}, "name": "eb8c7db1e681a74c083743521fb87199", "is_reserved": 0}, {"is_disabled": 0, "fusion_lon": 0.0, "fusion_lat": 0.0, "lat": 38.87622783333333, "type": "electric_scooter", "lon": -76.96536866666666, "bike_id": "69fb90060d00781aa7271357359ddc94", "rental_uris": {"android": "https://dc.lft.to/lastmile_qr_scan", "ios": "https://dc.lft.to/lastmile_qr_scan"}, "name": "69fb90060d00781aa7271357359ddc94", "is_reserved": 0}, {"is_disabled": 0, "fusion_lon": 0.0, "fusion_lat": 0.0, "lat": 38.97049283333333, "type": "electric_bike", "lon": -77.03082333333333, "bike_id": "0cf79018dd63fe87837ecef1bce06e62", "rental_uris": {"android": "https://dc.lft.to/lastmile_qr_scan", "ios": "https://dc.lft.to/lastmile_qr_scan"}, "name": "0cf79018dd63fe87837ecef1bce06e62", "is_reserved": 0}, {"is_disabled": 0, "fusion_lon": 0.0, "fusion_lat": 0.0, "lat": 38.88499016666667, "type": "electric_scooter", "lon": -77.021869, "bike_id": "f0e2579b83815c750a6540588a043857", "rental_uris": {"android": "https://dc.lft.to/lastmile_qr_scan", "ios": "https://dc.lft.to/lastmile_qr_scan"}, "name": "f0e2579b83815c750a6540588a043857", "is_reserved": 0}, {"is_disabled": 0, "fusion_lon": 0.0, "fusion_lat": 0.0, "lat": 38.902434166666666, "type": "electric_bike", "lon": -76.9701805, "bike_id": "62934499ac4c05028d4dae5402d09f8e", "rental_uris": {"android": "https://dc.lft.to/lastmile_qr_scan", "ios": "https://dc.lft.to/lastmile_qr_scan"}, "name": "62934499ac4c05028d4dae5402d09f8e", "is_reserved": 0}, {"is_disabled": 0, "fusion_lon": 0.0, "fusion_lat": 0.0, "lat": 38.9005735, "type": "electric_scooter", "lon": -77.03452516666667, "bike_id": "1410f18212109eb6597d1dc4d454fdf0", "rental_uris": {"android": "https://dc.lft.to/lastmile_qr_scan", "ios": "https://dc.lft.to/lastmile_qr_scan"}, "name": "1410f18212109eb6597d1dc4d454fdf0", "is_reserved": 0}, {"is_disabled": 0, "fusion_lon": 0.0, "fusion_lat": 0.0, "lat": 38.891952, "type": "electric_scooter", "lon": -77.00291216666666, "bike_id": "ba048c116a8834f921273afe1b57bd81", "rental_uris": {"android": "https://dc.lft.to/lastmile_qr_scan", "ios": "https://dc.lft.to/lastmile_qr_scan"}, "name": "ba048c116a8834f921273afe1b57bd81", "is_reserved": 0}, {"is_disabled": 0, "fusion_lon": 0.0, "fusion_lat": 0.0, "lat": 38.918047, "type": "electric_scooter", "lon": -77.02685166666667, "bike_id": "9fb300adb68d42ff0a89d254562354be", "rental_uris": {"android": "https://dc.lft.to/lastmile_qr_scan", "ios": "https://dc.lft.to/lastmile_qr_scan"}, "name": "9fb300adb68d42ff0a89d254562354be", "is_reserved": 0}, {"is_disabled": 0, "fusion_lon": 0.0, "fusion_lat": 0.0, "lat": 38.895186333333335, "type": "electric_scooter", "lon": -77.02808716666667, "bike_id": "fc1295e25afa407c2e4a0e1165d45ab9", "rental_uris": {"android": "https://dc.lft.to/lastmile_qr_scan", "ios": "https://dc.lft.to/lastmile_qr_scan"}, "name": "fc1295e25afa407c2e4a0e1165d45ab9", "is_reserved": 0}, {"is_disabled": 0, "fusion_lon": 0.0, "fusion_lat": 0.0, "lat": 38.93056966666666, "type": "electric_scooter", "lon": -77.02661566666667, "bike_id": "2260905e46694c5ce63f93e2cca2d601", "rental_uris": {"android": "https://dc.lft.to/lastmile_qr_scan", "ios": "https://dc.lft.to/lastmile_qr_scan"}, "name": "2260905e46694c5ce63f93e2cca2d601", "is_reserved": 0}, {"is_disabled": 0, "fusion_lon": 0.0, "fusion_lat": 0.0, "lat": 38.911074166666666, "type": "electric_scooter", "lon": -77.0380785, "bike_id": "5c874f088f604c8c068037c441bc00f4", "rental_uris": {"android": "https://dc.lft.to/lastmile_qr_scan", "ios": "https://dc.lft.to/lastmile_qr_scan"}, "name": "5c874f088f604c8c068037c441bc00f4", "is_reserved": 0}, {"is_disabled": 0, "fusion_lon": 0.0, "fusion_lat": 0.0, "lat": 38.93642583333333, "type": "electric_scooter", "lon": -77.0208375, "bike_id": "c88511da919e14c0c71cb3f0f3c7a453", "rental_uris": {"android": "https://dc.lft.to/lastmile_qr_scan", "ios": "https://dc.lft.to/lastmile_qr_scan"}, "name": "c88511da919e14c0c71cb3f0f3c7a453", "is_reserved": 0}, {"is_disabled": 0, "fusion_lon": 0.0, "fusion_lat": 0.0, "lat": 38.932230833333335, "type": "electric_scooter", "lon": -77.02033116666667, "bike_id": "e8cf8ca8e9aec412155568ca09723b07", "rental_uris": {"android": "https://dc.lft.to/lastmile_qr_scan", "ios": "https://dc.lft.to/lastmile_qr_scan"}, "name": "e8cf8ca8e9aec412155568ca09723b07", "is_reserved": 0}, {"is_disabled": 0, "fusion_lon": 0.0, "fusion_lat": 0.0, "lat": 38.895123, "type": "electric_bike", "lon": -76.94944633333333, "bike_id": "ea8d8ecf6542a660000be2cf47b326c4", "rental_uris": {"android": "https://dc.lft.to/lastmile_qr_scan", "ios": "https://dc.lft.to/lastmile_qr_scan"}, "name": "ea8d8ecf6542a660000be2cf47b326c4", "is_reserved": 0}, {"is_disabled": 0, "fusion_lon": 0.0, "fusion_lat": 0.0, "lat": 38.885833166666664, "type": "electric_scooter", "lon": -77.03110216666667, "bike_id": "8da8c0bd41539341e75f747c0daad50a", "rental_uris": {"android": "https://dc.lft.to/lastmile_qr_scan", "ios": "https://dc.lft.to/lastmile_qr_scan"}, "name": "8da8c0bd41539341e75f747c0daad50a", "is_reserved": 0}, {"is_disabled": 0, "fusion_lon": 0.0, "fusion_lat": 0.0, "lat": 38.900568166666666, "type": "electric_scooter", "lon": -76.93468216666666, "bike_id": "b991c9a6526e70f08ff412059205cc27", "rental_uris": {"android": "https://dc.lft.to/lastmile_qr_scan", "ios": "https://dc.lft.to/lastmile_qr_scan"}, "name": "b991c9a6526e70f08ff412059205cc27", "is_reserved": 0}, {"is_disabled": 0, "fusion_lon": 0.0, "fusion_lat": 0.0, "lat": 38.90061866666667, "type": "electric_scooter", "lon": -77.05340116666666, "bike_id": "28ac73256c0ae0c6eecdaf98f0ae5a42", "rental_uris": {"android": "https://dc.lft.to/lastmile_qr_scan", "ios": "https://dc.lft.to/lastmile_qr_scan"}, "name": "28ac73256c0ae0c6eecdaf98f0ae5a42", "is_reserved": 0}, {"is_disabled": 0, "fusion_lon": 0.0, "fusion_lat": 0.0, "lat": 38.92259333333333, "type": "electric_scooter", "lon": -77.04136033333333, "bike_id": "29495f53ac8b9b4c5474f52dc88f1f4c", "rental_uris": {"android": "https://dc.lft.to/lastmile_qr_scan", "ios": "https://dc.lft.to/lastmile_qr_scan"}, "name": "29495f53ac8b9b4c5474f52dc88f1f4c", "is_reserved": 0}, {"is_disabled": 0, "fusion_lon": 0.0, "fusion_lat": 0.0, "lat": 38.906036666666665, "type": "electric_scooter", "lon": -77.00716483333333, "bike_id": "042135cc682677152229bdbcf1b5e7bc", "rental_uris": {"android": "https://dc.lft.to/lastmile_qr_scan", "ios": "https://dc.lft.to/lastmile_qr_scan"}, "name": "042135cc682677152229bdbcf1b5e7bc", "is_reserved": 0}, {"is_disabled": 0, "fusion_lon": 0.0, "fusion_lat": 0.0, "lat": 38.90044016666667, "type": "electric_scooter", "lon": -76.9913455, "bike_id": "a9ccb285e49d2ecef8652a67353d19df", "rental_uris": {"android": "https://dc.lft.to/lastmile_qr_scan", "ios": "https://dc.lft.to/lastmile_qr_scan"}, "name": "a9ccb285e49d2ecef8652a67353d19df", "is_reserved": 0}, {"is_disabled": 0, "fusion_lon": 0.0, "fusion_lat": 0.0, "lat": 38.93033533333333, "type": "electric_scooter", "lon": -77.01945933333333, "bike_id": "759a6912e61012553090a324c2706a05", "rental_uris": {"android": "https://dc.lft.to/lastmile_qr_scan", "ios": "https://dc.lft.to/lastmile_qr_scan"}, "name": "759a6912e61012553090a324c2706a05", "is_reserved": 0}, {"is_disabled": 0, "fusion_lon": 0.0, "fusion_lat": 0.0, "lat": 38.925125666666666, "type": "electric_scooter", "lon": -77.04094433333333, "bike_id": "96de2cb2fe7617f6f141c49eb1fe28d6", "rental_uris": {"android": "https://dc.lft.to/lastmile_qr_scan", "ios": "https://dc.lft.to/lastmile_qr_scan"}, "name": "96de2cb2fe7617f6f141c49eb1fe28d6", "is_reserved": 0}, {"is_disabled": 0, "fusion_lon": 0.0, "fusion_lat": 0.0, "lat": 38.91950583333333, "type": "electric_scooter", "lon": -77.01651283333334, "bike_id": "ff006fd678390d81934fd812005ac55a", "rental_uris": {"android": "https://dc.lft.to/lastmile_qr_scan", "ios": "https://dc.lft.to/lastmile_qr_scan"}, "name": "ff006fd678390d81934fd812005ac55a", "is_reserved": 0}, {"is_disabled": 0, "fusion_lon": 0.0, "fusion_lat": 0.0, "lat": 38.863316, "type": "electric_bike", "lon": -76.98716333333333, "bike_id": "6374a1a526a0355751e0eaeb316169de", "rental_uris": {"android": "https://dc.lft.to/lastmile_qr_scan", "ios": "https://dc.lft.to/lastmile_qr_scan"}, "name": "6374a1a526a0355751e0eaeb316169de", "is_reserved": 0}, {"is_disabled": 0, "fusion_lon": 0.0, "fusion_lat": 0.0, "lat": 38.897375333333336, "type": "electric_scooter", "lon": -77.02688283333333, "bike_id": "ad5d1d63bbe4168fe6680d96c7525039", "rental_uris": {"android": "https://dc.lft.to/lastmile_qr_scan", "ios": "https://dc.lft.to/lastmile_qr_scan"}, "name": "ad5d1d63bbe4168fe6680d96c7525039", "is_reserved": 0}, {"is_disabled": 0, "fusion_lon": 0.0, "fusion_lat": 0.0, "lat": 38.931903, "type": "electric_bike", "lon": -77.2293415, "bike_id": "eaadd90e13d1d4800d9473fd2437a80c", "rental_uris": {"android": "https://dc.lft.to/lastmile_qr_scan", "ios": "https://dc.lft.to/lastmile_qr_scan"}, "name": "eaadd90e13d1d4800d9473fd2437a80c", "is_reserved": 0}, {"is_disabled": 0, "fusion_lon": 0.0, "fusion_lat": 0.0, "lat": 38.89621983333333, "type": "electric_scooter", "lon": -76.95636183333333, "bike_id": "1078b419247f15f4fcea22131cfb3180", "rental_uris": {"android": "https://dc.lft.to/lastmile_qr_scan", "ios": "https://dc.lft.to/lastmile_qr_scan"}, "name": "1078b419247f15f4fcea22131cfb3180", "is_reserved": 0}, {"is_disabled": 0, "fusion_lon": 0.0, "fusion_lat": 0.0, "lat": 38.913236, "type": "electric_scooter", "lon": -77.04011033333333, "bike_id": "401b0fbd865b08c01b44e79f729c7df7", "rental_uris": {"android": "https://dc.lft.to/lastmile_qr_scan", "ios": "https://dc.lft.to/lastmile_qr_scan"}, "name": "401b0fbd865b08c01b44e79f729c7df7", "is_reserved": 0}, {"is_disabled": 0, "fusion_lon": 0.0, "fusion_lat": 0.0, "lat": 38.950797333333334, "type": "electric_scooter", "lon": -77.02874966666667, "bike_id": "7a22215401d6a9b83d6eea26b0b0f832", "rental_uris": {"android": "https://dc.lft.to/lastmile_qr_scan", "ios": "https://dc.lft.to/lastmile_qr_scan"}, "name": "7a22215401d6a9b83d6eea26b0b0f832", "is_reserved": 0}, {"is_disabled": 0, "fusion_lon": 0.0, "fusion_lat": 0.0, "lat": 38.917658833333334, "type": "electric_scooter", "lon": -77.035979, "bike_id": "9f4f124d6f08a077119d208b430edd80", "rental_uris": {"android": "https://dc.lft.to/lastmile_qr_scan", "ios": "https://dc.lft.to/lastmile_qr_scan"}, "name": "9f4f124d6f08a077119d208b430edd80", "is_reserved": 0}, {"is_disabled": 0, "fusion_lon": 0.0, "fusion_lat": 0.0, "lat": 38.92054533333334, "type": "electric_scooter", "lon": -76.99873216666667, "bike_id": "4caa07a24638d49cdde73df944c8e568", "rental_uris": {"android": "https://dc.lft.to/lastmile_qr_scan", "ios": "https://dc.lft.to/lastmile_qr_scan"}, "name": "4caa07a24638d49cdde73df944c8e568", "is_reserved": 0}, {"is_disabled": 0, "fusion_lon": 0.0, "fusion_lat": 0.0, "lat": 38.9925455, "type": "electric_bike", "lon": -77.049993, "bike_id": "376e5c179a078b60461cdbdb8ce732c0", "rental_uris": {"android": "https://dc.lft.to/lastmile_qr_scan", "ios": "https://dc.lft.to/lastmile_qr_scan"}, "name": "376e5c179a078b60461cdbdb8ce732c0", "is_reserved": 0}, {"is_disabled": 0, "fusion_lon": 0.0, "fusion_lat": 0.0, "lat": 38.883702166666666, "type": "electric_scooter", "lon": -76.92645383333333, "bike_id": "0beb3f09d97e50c80812d1b7ac6b9bfb", "rental_uris": {"android": "https://dc.lft.to/lastmile_qr_scan", "ios": "https://dc.lft.to/lastmile_qr_scan"}, "name": "0beb3f09d97e50c80812d1b7ac6b9bfb", "is_reserved": 0}, {"is_disabled": 0, "fusion_lon": 0.0, "fusion_lat": 0.0, "lat": 38.918828833333336, "type": "electric_scooter", "lon": -77.0159155, "bike_id": "299b30e532821ce43340a85bc424d477", "rental_uris": {"android": "https://dc.lft.to/lastmile_qr_scan", "ios": "https://dc.lft.to/lastmile_qr_scan"}, "name": "299b30e532821ce43340a85bc424d477", "is_reserved": 0}, {"is_disabled": 0, "fusion_lon": 0.0, "fusion_lat": 0.0, "lat": 38.85281783333333, "type": "electric_bike", "lon": -76.98152416666667, "bike_id": "e328d979d01e1715ff455cb8b38606f1", "rental_uris": {"android": "https://dc.lft.to/lastmile_qr_scan", "ios": "https://dc.lft.to/lastmile_qr_scan"}, "name": "e328d979d01e1715ff455cb8b38606f1", "is_reserved": 0}, {"is_disabled": 0, "fusion_lon": 0.0, "fusion_lat": 0.0, "lat": 38.9047595, "type": "electric_bike", "lon": -76.92947016666666, "bike_id": "7b2d1146e5f36a13daa4006eb1742d8c", "rental_uris": {"android": "https://dc.lft.to/lastmile_qr_scan", "ios": "https://dc.lft.to/lastmile_qr_scan"}, "name": "7b2d1146e5f36a13daa4006eb1742d8c", "is_reserved": 0}, {"is_disabled": 0, "fusion_lon": 0.0, "fusion_lat": 0.0, "lat": 38.900110833333336, "type": "electric_scooter", "lon": -77.03362216666666, "bike_id": "52d5aa1fd79ed23d2f068cbd3566a3a9", "rental_uris": {"android": "https://dc.lft.to/lastmile_qr_scan", "ios": "https://dc.lft.to/lastmile_qr_scan"}, "name": "52d5aa1fd79ed23d2f068cbd3566a3a9", "is_reserved": 0}, {"is_disabled": 0, "fusion_lon": 0.0, "fusion_lat": 0.0, "lat": 38.921266833333334, "type": "electric_scooter", "lon": -77.04436166666666, "bike_id": "547d73f7d58f7c7b182475fbd627060f", "rental_uris": {"android": "https://dc.lft.to/lastmile_qr_scan", "ios": "https://dc.lft.to/lastmile_qr_scan"}, "name": "547d73f7d58f7c7b182475fbd627060f", "is_reserved": 0}, {"is_disabled": 0, "fusion_lon": 0.0, "fusion_lat": 0.0, "lat": 38.9141685, "type": "electric_scooter", "lon": -77.03997166666667, "bike_id": "020cd8b1614e3674f96ce295b9257bab", "rental_uris": {"android": "https://dc.lft.to/lastmile_qr_scan", "ios": "https://dc.lft.to/lastmile_qr_scan"}, "name": "020cd8b1614e3674f96ce295b9257bab", "is_reserved": 0}, {"is_disabled": 0, "fusion_lon": 0.0, "fusion_lat": 0.0, "lat": 38.8578215, "type": "electric_bike", "lon": -76.98742733333333, "bike_id": "ef7b3f89fa7b8eff1512aae8ae21d455", "rental_uris": {"android": "https://dc.lft.to/lastmile_qr_scan", "ios": "https://dc.lft.to/lastmile_qr_scan"}, "name": "ef7b3f89fa7b8eff1512aae8ae21d455", "is_reserved": 0}, {"is_disabled": 0, "fusion_lon": 0.0, "fusion_lat": 0.0, "lat": 38.921241333333334, "type": "electric_scooter", "lon": -77.04392516666667, "bike_id": "978241b2bf45212936bb44dbb0cdd72f", "rental_uris": {"android": "https://dc.lft.to/lastmile_qr_scan", "ios": "https://dc.lft.to/lastmile_qr_scan"}, "name": "978241b2bf45212936bb44dbb0cdd72f", "is_reserved": 0}, {"is_disabled": 0, "fusion_lon": 0.0, "fusion_lat": 0.0, "lat": 38.943361833333334, "type": "electric_bike", "lon": -77.014776, "bike_id": "ed41066fedfa0214caa336505ec7dc2c", "rental_uris": {"android": "https://dc.lft.to/lastmile_qr_scan", "ios": "https://dc.lft.to/lastmile_qr_scan"}, "name": "ed41066fedfa0214caa336505ec7dc2c", "is_reserved": 0}, {"is_disabled": 0, "fusion_lon": 0.0, "fusion_lat": 0.0, "lat": 38.917739166666664, "type": "electric_scooter", "lon": -77.04150183333333, "bike_id": "5b4f0bf15cda6b1a2825ea0ac3e4b3f8", "rental_uris": {"android": "https://dc.lft.to/lastmile_qr_scan", "ios": "https://dc.lft.to/lastmile_qr_scan"}, "name": "5b4f0bf15cda6b1a2825ea0ac3e4b3f8", "is_reserved": 0}, {"is_disabled": 0, "fusion_lon": 0.0, "fusion_lat": 0.0, "lat": 38.905750833333336, "type": "electric_scooter", "lon": -77.05596716666666, "bike_id": "ac2ecb5149a46b6d1a61b3e94dc6876e", "rental_uris": {"android": "https://dc.lft.to/lastmile_qr_scan", "ios": "https://dc.lft.to/lastmile_qr_scan"}, "name": "ac2ecb5149a46b6d1a61b3e94dc6876e", "is_reserved": 0}, {"is_disabled": 0, "fusion_lon": 0.0, "fusion_lat": 0.0, "lat": 38.90444866666667, "type": "electric_scooter", "lon": -77.0240615, "bike_id": "f861faf55646abcdcab6f0cca2115946", "rental_uris": {"android": "https://dc.lft.to/lastmile_qr_scan", "ios": "https://dc.lft.to/lastmile_qr_scan"}, "name": "f861faf55646abcdcab6f0cca2115946", "is_reserved": 0}, {"is_disabled": 0, "fusion_lon": 0.0, "fusion_lat": 0.0, "lat": 38.897830666666664, "type": "electric_scooter", "lon": -77.04751216666666, "bike_id": "b3b6082ffe45eb1763b2cde8e80aad78", "rental_uris": {"android": "https://dc.lft.to/lastmile_qr_scan", "ios": "https://dc.lft.to/lastmile_qr_scan"}, "name": "b3b6082ffe45eb1763b2cde8e80aad78", "is_reserved": 0}, {"is_disabled": 0, "fusion_lon": 0.0, "fusion_lat": 0.0, "lat": 38.89576016666667, "type": "electric_bike", "lon": -76.97619483333334, "bike_id": "c360f33de4b124bff37823f5eef91e15", "rental_uris": {"android": "https://dc.lft.to/lastmile_qr_scan", "ios": "https://dc.lft.to/lastmile_qr_scan"}, "name": "c360f33de4b124bff37823f5eef91e15", "is_reserved": 0}, {"is_disabled": 0, "fusion_lon": 0.0, "fusion_lat": 0.0, "lat": 38.92353466666667, "type": "electric_scooter", "lon": -77.03902683333334, "bike_id": "62934caec6130d00a86ee5c7e8cbbf9a", "rental_uris": {"android": "https://dc.lft.to/lastmile_qr_scan", "ios": "https://dc.lft.to/lastmile_qr_scan"}, "name": "62934caec6130d00a86ee5c7e8cbbf9a", "is_reserved": 0},