{"data": {"bikes": [{"lat": 38.89628966666667, "is_disabled": 0, "type": "electric_scooter", "lon": -76.99854183333333, "bike_id": "e85f0d02366ef58da4ba5586a8f61c6e", "fusion_lat": 0.0, "name": "e85f0d02366ef58da4ba5586a8f61c6e", "is_reserved": 0, "rental_uris": {"android": "https://dc.lft.to/lastmile_qr_scan", "ios": "https://dc.lft.to/lastmile_qr_scan"}, "fusion_lon": 0.0}, {"lat": 38.87632383333333, "is_disabled": 0, "type": "electric_scooter", "lon": -76.965232, "bike_id": "2df14d0afad04942562ec08803203e8f", "fusion_lat": 0.0, "name": "2df14d0afad04942562ec08803203e8f", "is_reserved": 0, "rental_uris": {"android": "https://dc.lft.to/lastmile_qr_scan", "ios": "https://dc.lft.to/lastmile_qr_scan"}, "fusion_lon": 0.0}, {"lat": 38.90094216666667, "is_disabled": 0, "type": "electric_scooter", "lon": -77.0136385, "bike_id": "de19417deb7c2e210534ace15f55caa4", "fusion_lat": 0.0, "name": "de19417deb7c2e210534ace15f55caa4", "is_reserved": 0, "rental_uris": {"android": "https://dc.lft.to/lastmile_qr_scan", "ios": "https://dc.lft.to/lastmile_qr_scan"}, "fusion_lon": 0.0}, {"lat": 38.946358833333335, "is_disabled": 0, "type": "electric_scooter", "lon": -77.019344, "bike_id": "317698f51121b1b0d23e216383566ab8", "fusion_lat": 0.0, "name": "317698f51121b1b0d23e216383566ab8", "is_reserved": 0, "rental_uris": {"android": "https://dc.lft.to/lastmile_qr_scan", "ios": "https://dc.lft.to/lastmile_qr_scan"}, "fusion_lon": 0.0}, {"lat": 38.92287916666667, "is_disabled": 0, "type": "electric_scooter", "lon": -77.0366105, "bike_id": "1abe9bf80b163fa6cb0405275cd8f375", "fusion_lat": 0.0, "name": "1abe9bf80b163fa6cb0405275cd8f375", "is_reserved": 0, "rental_uris": {"android": "https://dc.lft.to/lastmile_qr_scan", "ios": "https://dc.lft.to/lastmile_qr_scan"}, "fusion_lon": 0.0}, {"lat": 38.917319, "is_disabled": 0, "type": "electric_bike", "lon": -77.008011, "bike_id": "2a3d2b3466de995ba3df875be1ae1ca9", "fusion_lat": 0.0, "name": "2a3d2b3466de995ba3df875be1ae1ca9", "is_reserved": 0, "rental_uris": {"android": "https://dc.lft.to/lastmile_qr_scan", "ios": "https://dc.lft.to/lastmile_qr_scan"}, "fusion_lon": 0.0}, {"lat": 38.893289333333335, "is_disabled": 0, "type": "electric_scooter", "lon": -76.92988033333333, "bike_id": "33510723709b4ca234a955765e6039c4", "fusion_lat": 0.0, "name": "33510723709b4ca234a955765e6039c4", "is_reserved": 0, "rental_uris": {"android": "https://dc.lft.to/lastmile_qr_scan", "ios": "https://dc.lft.to/lastmile_qr_scan"}, "fusion_lon": 0.0}, {"lat": 38.90969066666667, "is_disabled": 0, "type": "electric_scooter", "lon": -76.984704, "bike_id": "19228f7cbed5acce1c2875fddd7b93b2", "fusion_lat": 0.0, "name": "19228f7cbed5acce1c2875fddd7b93b2", "is_reserved": 0, "rental_uris": {"android": "https://dc.lft.to/lastmile_qr_scan", "ios": "https://dc.lft.to/lastmile_qr_scan"}, "fusion_lon": 0.0}, {"lat": 39.034017666666664, "is_disabled": 0, "type": "electric_bike", "lon": -77.0421135, "bike_id": "66c19a0a0d7afd81264527d19547292c", "fusion_lat": 0.0, "name": "66c19a0a0d7afd81264527d19547292c", "is_reserved": 0, "rental_uris": {"android": "https://dc.lft.to/lastmile_qr_scan", "ios": "https://dc.lft.to/lastmile_qr_scan"}, "fusion_lon": 0.0}, {"lat": 38.892248, "is_disabled": 0, "type": "electric_scooter", "lon": -77.043673, "bike_id": "a18da3a5633a733d91d70a0b7c6a04ce", "fusion_lat": 0.0, "name": "a18da3a5633a733d91d70a0b7c6a04ce", "is_reserved": 0, "rental_uris": {"android": "https://dc.lft.to/lastmile_qr_scan", "ios": "https://dc.lft.to/lastmile_qr_scan"}, "fusion_lon": 0.0}, {"lat": 38.902902, "is_disabled": 0, "type": "electric_scooter", "lon": -77.02042283333333, "bike_id": "b2fc1a8d75118f4d8a6002410e2929b6", "fusion_lat": 0.0, "name": "b2fc1a8d75118f4d8a6002410e2929b6", "is_reserved": 0, "rental_uris": {"android": "https://dc.lft.to/lastmile_qr_scan", "ios": "https://dc.lft.to/lastmile_qr_scan"}, "fusion_lon": 0.0}, {"lat": 38.86712583333333, "is_disabled": 0, "type": "electric_scooter", "lon": -76.98725016666667, "bike_id": "01d7f72947f7eff113e214a730b21778", "fusion_lat": 0.0, "name": "01d7f72947f7eff113e214a730b21778", "is_reserved": 0, "rental_uris": {"android": "https://dc.lft.to/lastmile_qr_scan", "ios": "https://dc.lft.to/lastmile_qr_scan"}, "fusion_lon": 0.0}, {"lat": 38.94439166666667, "is_disabled": 0, "type": "electric_scooter", "lon": -77.06410766666667, "bike_id": "d68fd1958dc1477a1a5d9c29e286c043", "fusion_lat": 0.0, "name": "d68fd1958dc1477a1a5d9c29e286c043", "is_reserved": 0, "rental_uris": {"android": "https://dc.lft.to/lastmile_qr_scan", "ios": "https://dc.lft.to/lastmile_qr_scan"}, "fusion_lon": 0.0}, {"lat": 38.892221, "is_disabled": 0, "type": "electric_scooter", "lon": -77.03976083333333, "bike_id": "92672e09f6140e88c510a974be50f40d", "fusion_lat": 0.0, "name": "92672e09f6140e88c510a974be50f40d", "is_reserved": 0, "rental_uris": {"android": "https://dc.lft.to/lastmile_qr_scan", "ios": "https://dc.lft.to/lastmile_qr_scan"}, "fusion_lon": 0.0}, {"lat": 38.9170675, "is_disabled": 0, "type": "electric_scooter", "lon": -77.03100983333333, "bike_id": "4143638f324ea49a0834b38309f2a2b7", "fusion_lat": 0.0, "name": "4143638f324ea49a0834b38309f2a2b7", "is_reserved": 0, "rental_uris": {"android": "https://dc.lft.to/lastmile_qr_scan", "ios": "https://dc.lft.to/lastmile_qr_scan"}, "fusion_lon": 0.0}, {"lat": 38.887417166666665, "is_disabled": 0, "type": "electric_scooter", "lon": -77.02067783333334, "bike_id": "99b5421d51276b847cc804d0ed69573a", "fusion_lat": 0.0, "name": "99b5421d51276b847cc804d0ed69573a", "is_reserved": 0, "rental_uris": {"android": "https://dc.lft.to/lastmile_qr_scan", "ios": "https://dc.lft.to/lastmile_qr_scan"}, "fusion_lon": 0.0}, {"lat": 38.92033716666667, "is_disabled": 0, "type": "electric_scooter", "lon": -76.97802516666667, "bike_id": "62c904043ac7eecd6a15b0d4b8f50699", "fusion_lat": 0.0, "name": "62c904043ac7eecd6a15b0d4b8f50699", "is_reserved": 0, "rental_uris": {"android": "https://dc.lft.to/lastmile_qr_scan", "ios": "https://dc.lft.to/lastmile_qr_scan"}, "fusion_lon": 0.0}, {"lat": 38.8919005, "is_disabled": 0, "type": "electric_scooter", "lon": -76.9962465, "bike_id": "fb8fef8ffe8708af86b0cca6afcbc152", "fusion_lat": 0.0, "name": "fb8fef8ffe8708af86b0cca6afcbc152", "is_reserved": 0, "rental_uris": {"android": "https://dc.lft.to/lastmile_qr_scan", "ios": "https://dc.lft.to/lastmile_qr_scan"}, "fusion_lon": 0.0}, {"lat": 38.92545616666666, "is_disabled": 0, "type": "electric_scooter", "lon": -77.03447516666667, "bike_id": "f0a698fd5bf18d5f3bc65cb0fabb2db2", "fusion_lat": 0.0, "name": "f0a698fd5bf18d5f3bc65cb0fabb2db2", "is_reserved": 0, "rental_uris": {"android": "https://dc.lft.to/lastmile_qr_scan", "ios": "https://dc.lft.to/lastmile_qr_scan"}, "fusion_lon": 0.0}, {"lat": 38.902626166666664, "is_disabled": 0, "type": "electric_scooter", "lon": -77.00332833333333, "bike_id": "87c1759d174decacaf5756f6cd54c8a9", "fusion_lat": 0.0, "name": "87c1759d174decacaf5756f6cd54c8a9", "is_reserved": 0, "rental_uris": {"android": "https://dc.lft.to/lastmile_qr_scan", "ios": "https://dc.lft.to/lastmile_qr_scan"}, "fusion_lon": 0.0}, {"lat": 38.8961645, "is_disabled": 0, "type": "electric_scooter", "lon": -76.9929735, "bike_id": "04e52fe82f9412000bc409335fdb1f91", "fusion_lat": 0.0, "name": "04e52fe82f9412000bc409335fdb1f91", "is_reserved": 0, "rental_uris": {"android": "https://dc.lft.to/lastmile_qr_scan", "ios": "https://dc.lft.to/lastmile_qr_scan"}, "fusion_lon": 0.0}, {"lat": 38.9353565, "is_disabled": 0, "type": "electric_scooter", "lon": -77.03412983333334, "bike_id": "fa78e7f643fef842a2e719673387c563", "fusion_lat": 0.0, "name": "fa78e7f643fef842a2e719673387c563", "is_reserved": 0, "rental_uris": {"android": "https://dc.lft.to/lastmile_qr_scan", "ios": "https://dc.lft.to/lastmile_qr_scan"}, "fusion_lon": 0.0}, {"lat": 38.861139666666666, "is_disabled": 0, "type": "electric_scooter", "lon": -76.9837565, "bike_id": "ef969e6285c0ddf863361d4a1732dc5e", "fusion_lat": 0.0, "name": "ef969e6285c0ddf863361d4a1732dc5e", "is_reserved": 0, "rental_uris": {"android": "https://dc.lft.to/lastmile_qr_scan", "ios": "https://dc.lft.to/lastmile_qr_scan"}, "fusion_lon": 0.0}, {"lat": 38.90263983333333, "is_disabled": 0, "type": "electric_scooter", "lon": -77.0290035, "bike_id": "6c68edf9bcfa62baa0a73da9507c74dd", "fusion_lat": 0.0, "name": "6c68edf9bcfa62baa0a73da9507c74dd", "is_reserved": 0, "rental_uris": {"android": "https://dc.lft.to/lastmile_qr_scan", "ios": "https://dc.lft.to/lastmile_qr_scan"}, "fusion_lon": 0.0}, {"lat": 39.0581165, "is_disabled": 0, "type": "electric_bike", "lon": -77.12626583333333, "bike_id": "9b1ee91e80756f56b0bd1c62ae63d678", "fusion_lat": 0.0, "name": "9b1ee91e80756f56b0bd1c62ae63d678", "is_reserved": 0, "rental_uris": {"android": "https://dc.lft.to/lastmile_qr_scan", "ios": "https://dc.lft.to/lastmile_qr_scan"}, "fusion_lon": 0.0}, {"lat": 38.90023166666667, "is_disabled": 0, "type": "electric_scooter", "lon": -77.04049083333334, "bike_id": "a81d94b2b9efb53a35f4709ce4c343c7", "fusion_lat": 0.0, "name": "a81d94b2b9efb53a35f4709ce4c343c7", "is_reserved": 0, "rental_uris": {"android": "https://dc.lft.to/lastmile_qr_scan", "ios": "https://dc.lft.to/lastmile_qr_scan"}, "fusion_lon": 0.0}, {"lat": 38.8402845, "is_disabled": 0, "type": "electric_bike", "lon": -76.97584883333333, "bike_id": "914a2a92f38b848431d5b5149f1e4fd7", "fusion_lat": 0.0, "name": "914a2a92f38b848431d5b5149f1e4fd7", "is_reserved": 0, "rental_uris": {"android": "https://dc.lft.to/lastmile_qr_scan", "ios": "https://dc.lft.to/lastmile_qr_scan"}, "fusion_lon": 0.0}, {"lat": 38.9239995, "is_disabled": 0, "type": "electric_scooter", "lon": -77.0269495, "bike_id": "d5bfe7976d3141c525e7c2835083fd2e", "fusion_lat": 0.0, "name": "d5bfe7976d3141c525e7c2835083fd2e", "is_reserved": 0, "rental_uris": {"android": "https://dc.lft.to/lastmile_qr_scan", "ios": "https://dc.lft.to/lastmile_qr_scan"}, "fusion_lon": 0.0}, {"lat": 38.937409833333334, "is_disabled": 0, "type": "electric_scooter", "lon": -77.03613116666666, "bike_id": "10d0210f67fa5170930d8b7fd9581f8d", "fusion_lat": 0.0, "name": "10d0210f67fa5170930d8b7fd9581f8d", "is_reserved": 0, "rental_uris": {"android": "https://dc.lft.to/lastmile_qr_scan", "ios": "https://dc.lft.to/lastmile_qr_scan"}, "fusion_lon": 0.0}, {"lat": 38.89836483333333, "is_disabled": 0, "type": "electric_scooter", "lon": -77.030221, "bike_id": "419d91ab404dfc7989b17a9397d43069", "fusion_lat": 0.0, "name": "419d91ab404dfc7989b17a9397d43069", "is_reserved": 0, "rental_uris": {"android": "https://dc.lft.to/lastmile_qr_scan", "ios": "https://dc.lft.to/lastmile_qr_scan"}, "fusion_lon": 0.0}, {"lat": 38.940892, "is_disabled": 0, "type": "electric_scooter", "lon": -77.0613305, "bike_id": "dc17e1f72b1c1b0290a6f778db05bf83", "fusion_lat": 0.0, "name": "dc17e1f72b1c1b0290a6f778db05bf83", "is_reserved": 0, "rental_uris": {"android": "https://dc.lft.to/lastmile_qr_scan", "ios": "https://dc.lft.to/lastmile_qr_scan"}, "fusion_lon": 0.0}, {"lat": 38.916260333333334, "is_disabled": 0, "type": "electric_scooter", "lon": -77.031553, "bike_id": "5481c8ddf424f22fd123124cc49a263c", "fusion_lat": 0.0, "name": "5481c8ddf424f22fd123124cc49a263c", "is_reserved": 0, "rental_uris": {"android": "https://dc.lft.to/lastmile_qr_scan", "ios": "https://dc.lft.to/lastmile_qr_scan"}, "fusion_lon": 0.0}, {"lat": 38.93097616666667, "is_disabled": 0, "type": "electric_scooter", "lon": -77.03144383333333, "bike_id": "ef70a36bd3a1f4d67ce2a4ca2e0829bb", "fusion_lat": 0.0, "name": "ef70a36bd3a1f4d67ce2a4ca2e0829bb", "is_reserved": 0, "rental_uris": {"android": "https://dc.lft.to/lastmile_qr_scan", "ios": "https://dc.lft.to/lastmile_qr_scan"}, "fusion_lon": 0.0}, {"lat": 38.93983733333334, "is_disabled": 0, "type": "electric_scooter", "lon": -77.02886, "bike_id": "f75e647d75179d08621134137113a542", "fusion_lat": 0.0, "name": "f75e647d75179d08621134137113a542", "is_reserved": 0, "rental_uris": {"android": "https://dc.lft.to/lastmile_qr_scan", "ios": "https://dc.lft.to/lastmile_qr_scan"}, "fusion_lon": 0.0}, {"lat": 38.94905983333334, "is_disabled": 0, "type": "electric_bike", "lon": -76.9723775, "bike_id": "a47a93df33d941369d9f36d564d35ddc", "fusion_lat": 0.0, "name": "a47a93df33d941369d9f36d564d35ddc", "is_reserved": 0, "rental_uris": {"android": "https://dc.lft.to/lastmile_qr_scan", "ios": "https://dc.lft.to/lastmile_qr_scan"}, "fusion_lon": 0.0}, {"lat": 39.000065, "is_disabled": 0, "type": "electric_bike", "lon": -76.91077283333334, "bike_id": "46cfcd58dd7cc48227b77791d900bd2a", "fusion_lat": 0.0, "name": "46cfcd58dd7cc48227b77791d900bd2a", "is_reserved": 0, "rental_uris": {"android": "https://dc.lft.to/lastmile_qr_scan", "ios": "https://dc.lft.to/lastmile_qr_scan"}, "fusion_lon": 0.0}, {"lat": 38.901535333333335, "is_disabled": 0, "type": "electric_scooter", "lon": -77.04155416666667, "bike_id": "52e1fe7c0a12afb2e8c7a0f8706a8f3d", "fusion_lat": 0.0, "name": "52e1fe7c0a12afb2e8c7a0f8706a8f3d", "is_reserved": 0, "rental_uris": {"android": "https://dc.lft.to/lastmile_qr_scan", "ios": "https://dc.lft.to/lastmile_qr_scan"}, "fusion_lon": 0.0}, {"lat": 38.90694, "is_disabled": 0, "type": "electric_scooter", "lon": -77.06348866666667, "bike_id": "eaa6bbd39b1b944813daf4299a81b9a8", "fusion_lat": 0.0, "name": "eaa6bbd39b1b944813daf4299a81b9a8", "is_reserved": 0, "rental_uris": {"android": "https://dc.lft.to/lastmile_qr_scan", "ios": "https://dc.lft.to/lastmile_qr_scan"}, "fusion_lon": 0.0}, {"lat": 38.85320266666667, "is_disabled": 0, "type": "electric_bike", "lon": -76.980052, "bike_id": "8519a9cdbb5116973edf23602d7d8ec4", "fusion_lat": 0.0, "name": "8519a9cdbb5116973edf23602d7d8ec4", "is_reserved": 0, "rental_uris": {"android": "https://dc.lft.to/lastmile_qr_scan", "ios": "https://dc.lft.to/lastmile_qr_scan"}, "fusion_lon": 0.0}, {"lat": 38.863882, "is_disabled": 0, "type": "electric_bike", "lon": -76.9899155, "bike_id": "3f4a4e70c1227c0d0c6fc9a07bec0ff3", "fusion_lat": 0.0, "name": "3f4a4e70c1227c0d0c6fc9a07bec0ff3", "is_reserved": 0, "rental_uris": {"android": "https://dc.lft.to/lastmile_qr_scan", "ios": "https://dc.lft.to/lastmile_qr_scan"}, "fusion_lon": 0.0}, {"lat": 38.917521666666666, "is_disabled": 0, "type": "electric_scooter", "lon": -77.03662416666667, "bike_id": "328f211743b79395ec9ec287800f5627", "fusion_lat": 0.0, "name": "328f211743b79395ec9ec287800f5627", "is_reserved": 0, "rental_uris": {"android": "https://dc.lft.to/lastmile_qr_scan", "ios": "https://dc.lft.to/lastmile_qr_scan"}, "fusion_lon": 0.0}, {"lat": 38.930792333333336, "is_disabled": 0, "type": "electric_scooter", "lon": -77.027941, "bike_id": "456f75aba6c70310552daa07ab990c87", "fusion_lat": 0.0, "name": "456f75aba6c70310552daa07ab990c87", "is_reserved": 0, "rental_uris": {"android": "https://dc.lft.to/lastmile_qr_scan", "ios": "https://dc.lft.to/lastmile_qr_scan"}, "fusion_lon": 0.0}, {"lat": 38.95194683333333, "is_disabled": 0, "type": "electric_bike", "lon": -76.96721533333333, "bike_id": "a4d2303834b03d518afa3eea22ec575f", "fusion_lat": 0.0, "name": "a4d2303834b03d518afa3eea22ec575f", "is_reserved": 0, "rental_uris": {"android": "https://dc.lft.to/lastmile_qr_scan", "ios": "https://dc.lft.to/lastmile_qr_scan"}, "fusion_lon": 0.0}, {"lat": 38.927982166666666, "is_disabled": 0, "type": "electric_scooter", "lon": -77.05525916666667, "bike_id": "8e4b12a69158de5f2827f286552be1c3", "fusion_lat": 0.0, "name": "8e4b12a69158de5f2827f286552be1c3", "is_reserved": 0, "rental_uris": {"android": "https://dc.lft.to/lastmile_qr_scan", "ios": "https://dc.lft.to/lastmile_qr_scan"}, "fusion_lon": 0.0}, {"lat": 38.900970666666666, "is_disabled": 0, "type": "electric_scooter", "lon": -76.98475283333333, "bike_id": "0650e4d36935868331072e2fecad3d76", "fusion_lat": 0.0, "name": "0650e4d36935868331072e2fecad3d76", "is_reserved": 0, "rental_uris": {"android": "https://dc.lft.to/lastmile_qr_scan", "ios": "https://dc.lft.to/lastmile_qr_scan"}, "fusion_lon": 0.0}, {"lat": 38.93313166666667, "is_disabled": 0, "type": "electric_scooter", "lon": -77.0328985, "bike_id": "ee6a88a9768c1d5f1039ee22c996e9b7", "fusion_lat": 0.0, "name": "ee6a88a9768c1d5f1039ee22c996e9b7", "is_reserved": 0, "rental_uris": {"android": "https://dc.lft.to/lastmile_qr_scan", "ios": "https://dc.lft.to/lastmile_qr_scan"}, "fusion_lon": 0.0}, {"lat": 38.9034905, "is_disabled": 0, "type": "electric_scooter", "lon": -77.01091433333333, "bike_id": "c85a6f8ecab58e60108c15b0ffc15226", "fusion_lat": 0.0, "name": "c85a6f8ecab58e60108c15b0ffc15226", "is_reserved": 0, "rental_uris": {"android": "https://dc.lft.to/lastmile_qr_scan", "ios": "https://dc.lft.to/lastmile_qr_scan"}, "fusion_lon": 0.0}, {"lat": 38.89876966666667, "is_disabled": 0, "type": "electric_scooter", "lon": -76.93185416666667, "bike_id": "631e99720a7b8f664e8235c0f1a92d50", "fusion_lat": 0.0, "name": "631e99720a7b8f664e8235c0f1a92d50", "is_reserved": 0, "rental_uris": {"android": "https://dc.lft.to/lastmile_qr_scan", "ios": "https://dc.lft.to/lastmile_qr_scan"}, "fusion_lon": 0.0}, {"lat": 38.894936666666666, "is_disabled": 0, "type": "electric_scooter", "lon": -77.02181283333333, "bike_id": "ab1e34e3bdeb278ee394cafeea53c743", "fusion_lat": 0.0, "name": "ab1e34e3bdeb278ee394cafeea53c743", "is_reserved": 0, "rental_uris": {"android": "https://dc.lft.to/lastmile_qr_scan", "ios": "https://dc.lft.to/lastmile_qr_scan"}, "fusion_lon": 0.0}, {"lat": 38.97091133333333, "is_disabled": 0, "type": "electric_bike", "lon": -77.0696555, "bike_id": "c7f5f081e390b222a6ed1a18ab5b5c54", "fusion_lat": 0.0, "name": "c7f5f081e390b222a6ed1a18ab5b5c54", "is_reserved": 0, "rental_uris": {"android": "https://dc.lft.to/lastmile_qr_scan", "ios": "https://dc.lft.to/lastmile_qr_scan"}, "fusion_lon": 0.0}, {"lat": 38.925477, "is_disabled": 0, "type": "electric_scooter", "lon": -77.03298033333333, "bike_id": "8dd02fa111b9ad73e96efc639b214139", "fusion_lat": 0.0, "name": "8dd02fa111b9ad73e96efc639b214139", "is_reserved": 0, "rental_uris": {"android": "https://dc.lft.to/lastmile_qr_scan", "ios": "https://dc.lft.to/lastmile_qr_scan"}, "fusion_lon": 0.0}, {"lat": 38.951376333333336, "is_disabled": 0, "type": "electric_scooter", "lon": -77.01333666666666, "bike_id": "39e9b3396a9fea370ec0ba241ec23cfe", "fusion_lat": 0.0, "name": "39e9b3396a9fea370ec0ba241ec23cfe", "is_reserved": 0, "rental_uris": {"android": "https://dc.lft.to/lastmile_qr_scan", "ios": "https://dc.lft.to/lastmile_qr_scan"}, "fusion_lon": 0.0}, {"lat": 38.918909, "is_disabled": 0, "type": "electric_scooter", "lon": -77.04735516666666, "bike_id": "a8eb8baa9e58cdfab36a306ac7e4e44c", "fusion_lat": 0.0, "name": "a8eb8baa9e58cdfab36a306ac7e4e44c", "is_reserved": 0, "rental_uris": {"android": "https://dc.lft.to/lastmile_qr_scan", "ios": "https://dc.lft.to/lastmile_qr_scan"}, "fusion_lon": 0.0}, {"lat": 38.9012995, "is_disabled": 0, "type": "electric_scooter", "lon": -76.99736966666667, "bike_id": "7c47a0d7abc548962896aa56bb30e616", "fusion_lat": 0.0, "name": "7c47a0d7abc548962896aa56bb30e616", "is_reserved": 0, "rental_uris": {"android": "https://dc.lft.to/lastmile_qr_scan", "ios": "https://dc.lft.to/lastmile_qr_scan"}, "fusion_lon": 0.0}, {"lat": 38.91559316666667, "is_disabled": 0, "type": "electric_scooter", "lon": -77.0487165, "bike_id": "d1df630cd442fb7ac8513cfd2c7aed85", "fusion_lat": 0.0, "name": "d1df630cd442fb7ac8513cfd2c7aed85", "is_reserved": 0, "rental_uris": {"android": "https://dc.lft.to/lastmile_qr_scan", "ios": "https://dc.lft.to/lastmile_qr_scan"}, "fusion_lon": 0.0}, {"lat": 38.906479833333336, "is_disabled": 0, "type": "electric_scooter", "lon": -77.024967, "bike_id": "9e28a9bc925d6e2d3165a8c10e8e6e7c", "fusion_lat": 0.0, "name": "9e28a9bc925d6e2d3165a8c10e8e6e7c", "is_reserved": 0, "rental_uris": {"android": "https://dc.lft.to/lastmile_qr_scan", "ios": "https://dc.lft.to/lastmile_qr_scan"}, "fusion_lon": 0.0}, {"lat": 38.907179666666664, "is_disabled": 0, "type": "electric_scooter", "lon": -77.04749983333333, "bike_id": "61dbd410a38526fcd8547bc63b85c451", "fusion_lat": 0.0, "name": "61dbd410a38526fcd8547bc63b85c451", "is_reserved": 0, "rental_uris": {"android": "https://dc.lft.to/lastmile_qr_scan", "ios": "https://dc.lft.to/lastmile_qr_scan"}, "fusion_lon": 0.0}, {"lat": 38.903157666666665, "is_disabled": 0, "type": "electric_scooter", "lon": -76.97803833333333, "bike_id": "a74b05f2fe8ed18b9a2cbfdbae7fea8b", "fusion_lat": 0.0, "name": "a74b05f2fe8ed18b9a2cbfdbae7fea8b", "is_reserved": 0, "rental_uris": {"android": "https://dc.lft.to/lastmile_qr_scan", "ios": "https://dc.lft.to/lastmile_qr_scan"}, "fusion_lon": 0.0}, {"lat": 38.925892833333336, "is_disabled": 0, "type": "electric_scooter", "lon": -77.0048445, "bike_id": "408111d9cece246187f6d2659c139b4f", "fusion_lat": 0.0, "name": "408111d9cece246187f6d2659c139b4f", "is_reserved": 0, "rental_uris": {"android": "https://dc.lft.to/lastmile_qr_scan", "ios": "https://dc.lft.to/lastmile_qr_scan"}, "fusion_lon": 0.0}, {"lat": 38.922408833333336, "is_disabled": 0, "type": "electric_scooter", "lon": -77.02986866666667, "bike_id": "6da29bda5a63a5d110ad590470084bd3", "fusion_lat": 0.0, "name": "6da29bda5a63a5d110ad590470084bd3", "is_reserved": 0, "rental_uris": {"android": "https://dc.lft.to/lastmile_qr_scan", "ios": "https://dc.lft.to/lastmile_qr_scan"}, "fusion_lon": 0.0}, {"lat": 38.9021625, "is_disabled": 0, "type": "electric_scooter", "lon": -77.02168816666666, "bike_id": "fb5c4e3771a69bd3dc17891cac3765e1", "fusion_lat": 0.0, "name": "fb5c4e3771a69bd3dc17891cac3765e1", "is_reserved": 0, "rental_uris": {"android": "https://dc.lft.to/lastmile_qr_scan", "ios": "https://dc.lft.to/lastmile_qr_scan"}, "fusion_lon": 0.0}, {"lat": 38.8850725, "is_disabled": 0, "type": "electric_scooter", "lon": -77.01555066666667, "bike_id": "d4403d8680ddb835725f03f04e139e61", "fusion_lat": 0.0, "name": "d4403d8680ddb835725f03f04e139e61", "is_reserved": 0, "rental_uris": {"android": "https://dc.lft.to/lastmile_qr_scan", "ios": "https://dc.lft.to/lastmile_qr_scan"}, "fusion_lon": 0.0}, {"lat": 38.91336233333333, "is_disabled": 0, "type": "electric_scooter", "lon": -77.0311895, "bike_id": "d21303fc65f786afa1e99587db5ddb6a", "fusion_lat": 0.0, "name": "d21303fc65f786afa1e99587db5ddb6a", "is_reserved": 0, "rental_uris": {"android": "https://dc.lft.to/lastmile_qr_scan", "ios": "https://dc.lft.to/lastmile_qr_scan"}, "fusion_lon": 0.0}, {"lat": 38.86412116666666, "is_disabled": 0, "type": "electric_bike", "lon": -76.9743805, "bike_id": "354d749aa72b84c0433bee6f2472733b", "fusion_lat": 0.0, "name": "354d749aa72b84c0433bee6f2472733b", "is_reserved": 0, "rental_uris": {"android": "https://dc.lft.to/lastmile_qr_scan", "ios": "https://dc.lft.to/lastmile_qr_scan"}, "fusion_lon": 0.0}, {"lat": 38.9133235, "is_disabled": 0, "type": "electric_scooter", "lon": -77.04809733333333, "bike_id": "ec9ef36f44bdd39ff3dee84f61e3bd31", "fusion_lat": 0.0, "name": "ec9ef36f44bdd39ff3dee84f61e3bd31", "is_reserved": 0, "rental_uris": {"android": "https://dc.lft.to/lastmile_qr_scan", "ios": "https://dc.lft.to/lastmile_qr_scan"}, "fusion_lon": 0.0}, {"lat": 38.8940925, "is_disabled": 0, "type": "electric_scooter", "lon": -76.95660183333334, "bike_id": "6aa64b75aa51368de06442fac71b6756", "fusion_lat": 0.0, "name": "6aa64b75aa51368de06442fac71b6756", "is_reserved": 0, "rental_uris": {"android": "https://dc.lft.to/lastmile_qr_scan", "ios": "https://dc.lft.to/lastmile_qr_scan"}, "fusion_lon": 0.0}, {"lat": 38.90835383333334, "is_disabled": 0, "type": "electric_scooter", "lon": -76.99968983333333, "bike_id": "5bad4c79a7289c18115bd29af7065098", "fusion_lat": 0.0, "name": "5bad4c79a7289c18115bd29af7065098", "is_reserved": 0, "rental_uris": {"android": "https://dc.lft.to/lastmile_qr_scan", "ios": "https://dc.lft.to/lastmile_qr_scan"}, "fusion_lon": 0.0}, {"lat": 38.90279483333333, "is_disabled": 0, "type": "electric_scooter", "lon": -77.04594683333333, "bike_id": "113039e5b3f5a56de84bb56b1e4c4db6", "fusion_lat": 0.0, "name": "113039e5b3f5a56de84bb56b1e4c4db6", "is_reserved": 0, "rental_uris": {"android": "https://dc.lft.to/lastmile_qr_scan", "ios": "https://dc.lft.to/lastmile_qr_scan"}, "fusion_lon": 0.0}, {"lat": 38.909764833333334, "is_disabled": 0, "type": "electric_scooter", "lon": -77.045223, "bike_id": "0b271f01780ef4685200d4283a189752", "fusion_lat": 0.0, "name": "0b271f01780ef4685200d4283a189752", "is_reserved": 0, "rental_uris": {"android": "https://dc.lft.to/lastmile_qr_scan", "ios": "https://dc.lft.to/lastmile_qr_scan"}, "fusion_lon": 0.0}, {"lat": 38.907227666666664, "is_disabled": 0, "type": "electric_scooter", "lon": -76.998059, "bike_id": "f74494f73fb5488426111fb247127878", "fusion_lat": 0.0, "name": "f74494f73fb5488426111fb247127878", "is_reserved": 0, "rental_uris": {"android": "https://dc.lft.to/lastmile_qr_scan", "ios": "https://dc.lft.to/lastmile_qr_scan"}, "fusion_lon": 0.0}, {"lat": 38.996169333333334, "is_disabled": 0, "type": "electric_scooter", "lon": -77.03235883333333, "bike_id": "6cce0b496871f4ce9343426bbeb1eef0", "fusion_lat": 0.0, "name": "6cce0b496871f4ce9343426bbeb1eef0", "is_reserved": 0, "rental_uris": {"android": "https://dc.lft.to/lastmile_qr_scan", "ios": "https://dc.lft.to/lastmile_qr_scan"}, "fusion_lon": 0.0}, {"lat": 38.933073666666665, "is_disabled": 0, "type": "electric_scooter", "lon": -77.03445033333334, "bike_id": "02a04ddce2de8efb78598af23565f5c9", "fusion_lat": 0.0, "name": "02a04ddce2de8efb78598af23565f5c9", "is_reserved": 0, "rental_uris": {"android": "https://dc.lft.to/lastmile_qr_scan", "ios": "https://dc.lft.to/lastmile_qr_scan"}, "fusion_lon": 0.0}, {"lat": 38.90247183333334, "is_disabled": 0, "type": "electric_scooter", "lon": -77.028252, "bike_id": "0c138eacc795018e5582077a10e7f628", "fusion_lat": 0.0, "name": "0c138eacc795018e5582077a10e7f628", "is_reserved": 0, "rental_uris": {"android": "https://dc.lft.to/lastmile_qr_scan", "ios": "https://dc.lft.to/lastmile_qr_scan"}, "fusion_lon": 0.0}, {"lat": 38.91055766666667, "is_disabled": 0, "type": "electric_scooter", "lon": -77.01520933333333, "bike_id": "8a7dc19095bf854a28ca691783cb8702", "fusion_lat": 0.0, "name": "8a7dc19095bf854a28ca691783cb8702", "is_reserved": 0, "rental_uris": {"android": "https://dc.lft.to/lastmile_qr_scan", "ios": "https://dc.lft.to/lastmile_qr_scan"}, "fusion_lon": 0.0}, {"lat": 38.89950916666667, "is_disabled": 0, "type": "electric_scooter", "lon": -77.05168783333333, "bike_id": "dbacd6fad89b1aabbf7a91ce04ee462d", "fusion_lat": 0.0, "name": "dbacd6fad89b1aabbf7a91ce04ee462d", "is_reserved": 0, "rental_uris": {"android": "https://dc.lft.to/lastmile_qr_scan", "ios": "https://dc.lft.to/lastmile_qr_scan"}, "fusion_lon": 0.0}, {"lat": 38.92417183333333, "is_disabled": 0, "type": "electric_scooter", "lon": -77.04437483333334, "bike_id": "76ceef2c9a652be4731f8c43d1f9d2c3", "fusion_lat": 0.0, "name": "76ceef2c9a652be4731f8c43d1f9d2c3", "is_reserved": 0, "rental_uris": {"android": "https://dc.lft.to/lastmile_qr_scan", "ios": "https://dc.lft.to/lastmile_qr_scan"}, "fusion_lon": 0.0}, {"lat": 38.908126, "is_disabled": 0, "type": "electric_scooter", "lon": -76.98563266666666, "bike_id": "9bb656b4e9613397d479d0d3c2564e77", "fusion_lat": 0.0, "name": "9bb656b4e9613397d479d0d3c2564e77", "is_reserved": 0, "rental_uris": {"android": "https://dc.lft.to/lastmile_qr_scan", "ios": "https://dc.lft.to/lastmile_qr_scan"}, "fusion_lon": 0.0}, {"lat": 38.946034166666664, "is_disabled": 0, "type": "electric_scooter", "lon": -77.02978533333334, "bike_id": "9d8249f53974b3142c7278109efa765f", "fusion_lat": 0.0, "name": "9d8249f53974b3142c7278109efa765f", "is_reserved": 0, "rental_uris": {"android": "https://dc.lft.to/lastmile_qr_scan", "ios": "https://dc.lft.to/lastmile_qr_scan"}, "fusion_lon": 0.0}, {"lat": 38.89742316666667, "is_disabled": 0, "type": "electric_scooter", "lon": -77.04683366666667, "bike_id": "de53410d97eece717b8085c99f7906e1", "fusion_lat": 0.0, "name": "de53410d97eece717b8085c99f7906e1", "is_reserved": 0, "rental_uris": {"android": "https://dc.lft.to/lastmile_qr_scan", "ios": "https://dc.lft.to/lastmile_qr_scan"}, "fusion_lon": 0.0}, {"lat": 38.8651045, "is_disabled": 0, "type": "electric_scooter", "lon": -76.97435366666667, "bike_id": "07ed70a8bf9d5a0489c161b20871a59a", "fusion_lat": 0.0, "name": "07ed70a8bf9d5a0489c161b20871a59a", "is_reserved": 0, "rental_uris": {"android": "https://dc.lft.to/lastmile_qr_scan", "ios": "https://dc.lft.to/lastmile_qr_scan"}, "fusion_lon": 0.0}, {"lat": 38.899772, "is_disabled": 0, "type": "electric_scooter", "lon": -77.050539, "bike_id": "0225505a8846b317c2a57198015ffa86", "fusion_lat": 0.0, "name": "0225505a8846b317c2a57198015ffa86", "is_reserved": 0, "rental_uris": {"android": "https://dc.lft.to/lastmile_qr_scan", "ios": "https://dc.lft.to/lastmile_qr_scan"}, "fusion_lon": 0.0}, {"lat": 38.8747685, "is_disabled": 0, "type": "electric_scooter", "lon": -77.0106825, "bike_id": "17fd0c7c5c7173461f2ea53f69616eab", "fusion_lat": 0.0, "name": "17fd0c7c5c7173461f2ea53f69616eab", "is_reserved": 0, "rental_uris": {"android": "https://dc.lft.to/lastmile_qr_scan", "ios": "https://dc.lft.to/lastmile_qr_scan"}, "fusion_lon": 0.0}, {"lat": 38.91557683333333, "is_disabled": 0, "type": "electric_scooter", "lon": -77.03859333333334, "bike_id": "131b1da97c6c62baadfb4d63c2f6fc29", "fusion_lat": 0.0, "name": "131b1da97c6c62baadfb4d63c2f6fc29", "is_reserved": 0, "rental_uris": {"android": "https://dc.lft.to/lastmile_qr_scan", "ios": "https://dc.lft.to/lastmile_qr_scan"}, "fusion_lon": 0.0}, {"lat": 38.912564333333336, "is_disabled": 0, "type": "electric_scooter", "lon": -77.03860866666666, "bike_id": "f13a08fd1ddfc918b945a85ad461cf45", "fusion_lat": 0.0, "name": "f13a08fd1ddfc918b945a85ad461cf45", "is_reserved": 0, "rental_uris": {"android": "https://dc.lft.to/lastmile_qr_scan", "ios": "https://dc.lft.to/lastmile_qr_scan"}, "fusion_lon": 0.0}, {"lat": 38.922697666666664, "is_disabled": 0, "type": "electric_scooter", "lon": -77.04243, "bike_id": "5181f8589ab4b30f5b15054045e5f4e0", "fusion_lat": 0.0, "name": "5181f8589ab4b30f5b15054045e5f4e0", "is_reserved": 0, "rental_uris": {"android": "https://dc.lft.to/lastmile_qr_scan", "ios": "https://dc.lft.to/lastmile_qr_scan"}, "fusion_lon": 0.0}, {"lat": 38.89224183333333, "is_disabled": 0, "type": "electric_scooter", "lon": -77.0264945, "bike_id": "02b3c836bc6dec9359bd887005f4013e", "fusion_lat": 0.0, "name": "02b3c836bc6dec9359bd887005f4013e", "is_reserved": 0, "rental_uris": {"android": "https://dc.lft.to/lastmile_qr_scan", "ios": "https://dc.lft.to/lastmile_qr_scan"}, "fusion_lon": 0.0}, {"lat": 38.92626666666666, "is_disabled": 0, "type": "electric_scooter", "lon": -77.03789383333333, "bike_id": "96243890fd851e9f67118dae9462993d", "fusion_lat": 0.0, "name": "96243890fd851e9f67118dae9462993d", "is_reserved": 0, "rental_uris": {"android": "https://dc.lft.to/lastmile_qr_scan", "ios": "https://dc.lft.to/lastmile_qr_scan"}, "fusion_lon": 0.0}, {"lat": 38.876805166666664, "is_disabled": 0, "type": "electric_scooter", "lon": -77.01787533333334, "bike_id": "50f4d533fff1cfc0e59c10c2c9e22f87", "fusion_lat": 0.0, "name": "50f4d533fff1cfc0e59c10c2c9e22f87", "is_reserved": 0, "rental_uris": {"android": "https://dc.lft.to/lastmile_qr_scan", "ios": "https://dc.lft.to/lastmile_qr_scan"}, "fusion_lon": 0.0}, {"lat": 38.902886, "is_disabled": 0, "type": "electric_scooter", "lon": -77.053247, "bike_id": "7ced952b7be5d60f2675bfd21260eaaf", "fusion_lat": 0.0, "name": "7ced952b7be5d60f2675bfd21260eaaf", "is_reserved": 0, "rental_uris": {"android": "https://dc.lft.to/lastmile_qr_scan", "ios": "https://dc.lft.to/lastmile_qr_scan"}, "fusion_lon": 0.0}, {"lat": 38.919130333333335, "is_disabled": 0, "type": "electric_scooter", "lon": -77.03393666666666, "bike_id": "6067b866ab7b03b44f71e3d845422c6b", "fusion_lat": 0.0, "name": "6067b866ab7b03b44f71e3d845422c6b", "is_reserved": 0, "rental_uris": {"android": "https://dc.lft.to/lastmile_qr_scan", "ios": "https://dc.lft.to/lastmile_qr_scan"}, "fusion_lon": 0.0}, {"lat": 38.8843145, "is_disabled": 0, "type": "electric_scooter", "lon": -76.95752366666666, "bike_id": "1410880e5c1cbfb1da36fbcc7a61fd9a", "fusion_lat": 0.0, "name": "1410880e5c1cbfb1da36fbcc7a61fd9a", "is_reserved": 0, "rental_uris": {"android": "https://dc.lft.to/lastmile_qr_scan", "ios": "https://dc.lft.to/lastmile_qr_scan"}, "fusion_lon": 0.0}, {"lat": 38.8977715, "is_disabled": 0, "type": "electric_scooter", "lon": -77.03210516666667, "bike_id": "a7d617b67f292a30915d6bd744eef7c0", "fusion_lat": 0.0, "name": "a7d617b67f292a30915d6bd744eef7c0", "is_reserved": 0, "rental_uris": {"android": "https://dc.lft.to/lastmile_qr_scan", "ios": "https://dc.lft.to/lastmile_qr_scan"}, "fusion_lon": 0.0}, {"lat": 38.9175575, "is_disabled": 0, "type": "electric_scooter", "lon": -77.03658133333333, "bike_id": "4202c48e8e95b3a4968af6962d87366f", "fusion_lat": 0.0, "name": "4202c48e8e95b3a4968af6962d87366f", "is_reserved": 0, "rental_uris": {"android": "https://dc.lft.to/lastmile_qr_scan", "ios": "https://dc.lft.to/lastmile_qr_scan"}, "fusion_lon": 0.0}, {"lat": 38.922638, "is_disabled": 0, "type": "electric_scooter", "lon": -77.01963616666667, "bike_id": "39d42e2df9193b782fcb50ceaaae88a8", "fusion_lat": 0.0, "name": "39d42e2df9193b782fcb50ceaaae88a8", "is_reserved": 0, "rental_uris": {"android": "https://dc.lft.to/lastmile_qr_scan", "ios": "https://dc.lft.to/lastmile_qr_scan"}, "fusion_lon": 0.0}, {"lat": 38.9086495, "is_disabled": 0, "type": "electric_scooter", "lon": -77.04634066666667, "bike_id": "4f0578ccbd94bd8c3668d7ac72550ad0", "fusion_lat": 0.0, "name": "4f0578ccbd94bd8c3668d7ac72550ad0", "is_reserved": 0, "rental_uris": {"android": "https://dc.lft.to/lastmile_qr_scan", "ios": "https://dc.lft.to/lastmile_qr_scan"}, "fusion_lon": 0.0}, {"lat": 38.897574666666664, "is_disabled": 0, "type": "electric_scooter", "lon": -76.9418495, "bike_id": "d2937dab829b556098e9edcfb045d831", "fusion_lat": 0.0, "name": "d2937dab829b556098e9edcfb045d831", "is_reserved": 0, "rental_uris": {"android": "https://dc.lft.to/lastmile_qr_scan", "ios": "https://dc.lft.to/lastmile_qr_scan"}, "fusion_lon": 0.0}, {"lat": 38.855113333333335, "is_disabled": 0, "type": "electric_bike", "lon": -76.98418133333334, "bike_id": "e993179c0850d5d60a46edd507b5f0f0", "fusion_lat": 0.0, "name": "e993179c0850d5d60a46edd507b5f0f0", "is_reserved": 0, "rental_uris": {"android": "https://dc.lft.to/lastmile_qr_scan", "ios": "https://dc.lft.to/lastmile_qr_scan"}, "fusion_lon": 0.0}, {"lat": 38.89633283333333, "is_disabled": 0, "type": "electric_scooter", "lon": -77.032105, "bike_id": "feb8588e931d0cdb28006cac01f02eed", "fusion_lat": 0.0, "name": "feb8588e931d0cdb28006cac01f02eed", "is_reserved": 0, "rental_uris": {"android": "https://dc.lft.to/lastmile_qr_scan", "ios": "https://dc.lft.to/lastmile_qr_scan"}, "fusion_lon": 0.0}, {"lat": 38.84814016666667, "is_disabled": 0, "type": "electric_bike", "lon": -77.0790685, "bike_id": "4422e372c59a2573b963db4344c80cae", "fusion_lat": 0.0, "name": "4422e372c59a2573b963db4344c80cae", "is_reserved": 0, "rental_uris": {"android": "https://dc.lft.to/lastmile_qr_scan", "ios": "https://dc.lft.to/lastmile_qr_scan"}, "fusion_lon": 0.0}, {"lat": 38.91419966666667, "is_disabled": 0, "type": "electric_scooter", "lon": -77.039951, "bike_id": "2d3a209991aa747707212a476706ba82", "fusion_lat": 0.0, "name": "2d3a209991aa747707212a476706ba82", "is_reserved": 0, "rental_uris": {"android": "https://dc.lft.to/lastmile_qr_scan", "ios": "https://dc.lft.to/lastmile_qr_scan"}, "fusion_lon": 0.0}, {"lat": 38.905555666666665, "is_disabled": 0, "type": "electric_scooter", "lon": -77.03242083333333, "bike_id": "ae181f3d51788d7ac114b62942d94eba", "fusion_lat": 0.0, "name": "ae181f3d51788d7ac114b62942d94eba", "is_reserved": 0, "rental_uris": {"android": "https://dc.lft.to/lastmile_qr_scan", "ios": "https://dc.lft.to/lastmile_qr_scan"}, "fusion_lon": 0.0}, {"lat": 38.914228, "is_disabled": 0, "type": "electric_scooter", "lon": -77.03255616666667, "bike_id": "cab9a0184a18ca24a0a88ac637f764af", "fusion_lat": 0.0, "name": "cab9a0184a18ca24a0a88ac637f764af", "is_reserved": 0, "rental_uris": {"android": "https://dc.lft.to/lastmile_qr_scan", "ios": "https://dc.lft.to/lastmile_qr_scan"}, "fusion_lon": 0.0}, {"lat": 38.881185, "is_disabled": 0, "type": "electric_scooter", "lon": -77.019856, "bike_id": "d46703c3965d187fadec0813b9a2f71b", "fusion_lat": 0.0, "name": "d46703c3965d187fadec0813b9a2f71b", "is_reserved": 0, "rental_uris": {"android": "https://dc.lft.to/lastmile_qr_scan", "ios": "https://dc.lft.to/lastmile_qr_scan"}, "fusion_lon": 0.0}, {"lat": 38.907365166666665, "is_disabled": 0, "type": "electric_scooter", "lon": -77.02978116666667, "bike_id": "33e58cd536d399b0de304267313b5de6", "fusion_lat": 0.0, "name": "33e58cd536d399b0de304267313b5de6", "is_reserved": 0, "rental_uris": {"android": "https://dc.lft.to/lastmile_qr_scan", "ios": "https://dc.lft.to/lastmile_qr_scan"}, "fusion_lon": 0.0}, {"lat": 38.92614066666667, "is_disabled": 0, "type": "electric_scooter", "lon": -77.044016, "bike_id": "e22c10f4931f5d880e9dc2fdc044f0c1", "fusion_lat": 0.0, "name": "e22c10f4931f5d880e9dc2fdc044f0c1", "is_reserved": 0, "rental_uris": {"android": "https://dc.lft.to/lastmile_qr_scan", "ios": "https://dc.lft.to/lastmile_qr_scan"}, "fusion_lon": 0.0}, {"lat": 38.89612066666667, "is_disabled": 0, "type": "electric_scooter", "lon": -76.95663333333333, "bike_id": "29421969ae4c28acaf79e22d504bbd9a", "fusion_lat": 0.0, "name": "29421969ae4c28acaf79e22d504bbd9a", "is_reserved": 0, "rental_uris": {"android": "https://dc.lft.to/lastmile_qr_scan", "ios": "https://dc.lft.to/lastmile_qr_scan"}, "fusion_lon": 0.0}, {"lat": 38.93980666666667, "is_disabled": 0, "type": "electric_scooter", "lon": -77.03268016666667, "bike_id": "a448c09057a88cb1dc90af9a3b0ddef3", "fusion_lat": 0.0, "name": "a448c09057a88cb1dc90af9a3b0ddef3", "is_reserved": 0, "rental_uris": {"android": "https://dc.lft.to/lastmile_qr_scan", "ios": "https://dc.lft.to/lastmile_qr_scan"}, "fusion_lon": 0.0}, {"lat": 38.8723595, "is_disabled": 0, "type": "electric_scooter", "lon": -77.01185016666666, "bike_id": "1774a9812d33b17a54dd59cb59ebab3c", "fusion_lat": 0.0, "name": "1774a9812d33b17a54dd59cb59ebab3c", "is_reserved": 0, "rental_uris": {"android": "https://dc.lft.to/lastmile_qr_scan", "ios": "https://dc.lft.to/lastmile_qr_scan"}, "fusion_lon": 0.0}, {"lat": 38.9347645, "is_disabled": 0, "type": "electric_scooter", "lon": -77.03398766666666, "bike_id": "6130cd05a9c96edad0629a8abb19e77b", "fusion_lat": 0.0, "name": "6130cd05a9c96edad0629a8abb19e77b", "is_reserved": 0, "rental_uris": {"android": "https://dc.lft.to/lastmile_qr_scan", "ios": "https://dc.lft.to/lastmile_qr_scan"}, "fusion_lon": 0.0}, {"lat": 38.88736466666667, "is_disabled": 0, "type": "electric_scooter", "lon": -77.020755, "bike_id": "6ab6bd5d4f3a554cb2b7b88d8d36368e", "fusion_lat": 0.0, "name": "6ab6bd5d4f3a554cb2b7b88d8d36368e", "is_reserved": 0, "rental_uris": {"android": "https://dc.lft.to/lastmile_qr_scan", "ios": "https://dc.lft.to/lastmile_qr_scan"}, "fusion_lon": 0.0}, {"lat": 38.903801, "is_disabled": 0, "type": "electric_scooter", "lon": -77.04669816666667, "bike_id": "9393fb2abfb303a94c27e6ec0aecc792", "fusion_lat": 0.0, "name": "9393fb2abfb303a94c27e6ec0aecc792", "is_reserved": 0, "rental_uris": {"android": "https://dc.lft.to/lastmile_qr_scan", "ios": "https://dc.lft.to/lastmile_qr_scan"}, "fusion_lon": 0.0}, {"lat": 38.901391333333336, "is_disabled": 0, "type": "electric_scooter", "lon": -77.003466, "bike_id": "63a105dd558bb1c530aa616b81cc7ef5", "fusion_lat": 0.0, "name": "63a105dd558bb1c530aa616b81cc7ef5", "is_reserved": 0, "rental_uris": {"android": "https://dc.lft.to/lastmile_qr_scan", "ios": "https://dc.lft.to/lastmile_qr_scan"}, "fusion_lon": 0.0}, {"lat": 38.853202333333336, "is_disabled": 0, "type": "electric_scooter", "lon": -76.98027033333334, "bike_id": "c7920f6369db782c25b71946931184c3", "fusion_lat": 0.0, "name": "c7920f6369db782c25b71946931184c3", "is_reserved": 0, "rental_uris": {"android": "https://dc.lft.to/lastmile_qr_scan", "ios": "https://dc.lft.to/lastmile_qr_scan"}, "fusion_lon": 0.0}, {"lat": 38.87403166666667, "is_disabled": 0, "type": "electric_scooter", "lon": -77.014558, "bike_id": "dc41f3c3bcca7c3557f757158915610a", "fusion_lat": 0.0, "name": "dc41f3c3bcca7c3557f757158915610a", "is_reserved": 0, "rental_uris": {"android": "https://dc.lft.to/lastmile_qr_scan", "ios": "https://dc.lft.to/lastmile_qr_scan"}, "fusion_lon": 0.0}, {"lat": 38.937437833333334, "is_disabled": 0, "type": "electric_scooter", "lon": -77.03495083333334, "bike_id": "b8b82dfaa5d4d7fc1e603ebed6d343a4", "fusion_lat": 0.0, "name": "b8b82dfaa5d4d7fc1e603ebed6d343a4", "is_reserved": 0, "rental_uris": {"android": "https://dc.lft.to/lastmile_qr_scan", "ios": "https://dc.lft.to/lastmile_qr_scan"}, "fusion_lon": 0.0}, {"lat": 38.91174316666667, "is_disabled": 0, "type": "electric_scooter", "lon": -77.03857683333334, "bike_id": "56f6634d01a85808333a38866b5cf000", "fusion_lat": 0.0, "name": "56f6634d01a85808333a38866b5cf000", "is_reserved": 0, "rental_uris": {"android": "https://dc.lft.to/lastmile_qr_scan", "ios": "https://dc.lft.to/lastmile_qr_scan"}, "fusion_lon": 0.0}, {"lat": 38.92130866666667, "is_disabled": 0, "type": "electric_scooter", "lon": -77.040071, "bike_id": "e6434c6d387e7efe356bec2ae0ae5003", "fusion_lat": 0.0, "name": "e6434c6d387e7efe356bec2ae0ae5003", "is_reserved": 0, "rental_uris": {"android": "https://dc.lft.to/lastmile_qr_scan", "ios": "https://dc.lft.to/lastmile_qr_scan"}, "fusion_lon": 0.0}, {"lat": 38.9170915, "is_disabled": 0, "type": "electric_scooter", "lon": -77.04029483333333, "bike_id": "ab202d89eee250516888e2fe0e30dc61", "fusion_lat": 0.0, "name": "ab202d89eee250516888e2fe0e30dc61", "is_reserved": 0, "rental_uris": {"android": "https://dc.lft.to/lastmile_qr_scan", "ios": "https://dc.lft.to/lastmile_qr_scan"}, "fusion_lon": 0.0}, {"lat": 38.856452833333336, "is_disabled": 0, "type": "electric_bike", "lon": -77.11249883333333, "bike_id": "f9caefb7269d728eeb2da24042f980d8", "fusion_lat": 0.0, "name": "f9caefb7269d728eeb2da24042f980d8", "is_reserved": 0, "rental_uris": {"android": "https://dc.lft.to/lastmile_qr_scan", "ios": "https://dc.lft.to/lastmile_qr_scan"}, "fusion_lon": 0.0}, {"lat": 38.88395, "is_disabled": 0, "type": "electric_scooter", "lon": -77.02410316666666, "bike_id": "a7c11429f60bd72a46a7ac10a14b6646", "fusion_lat": 0.0, "name": "a7c11429f60bd72a46a7ac10a14b6646", "is_reserved": 0, "rental_uris": {"android": "https://dc.lft.to/lastmile_qr_scan", "ios": "https://dc.lft.to/lastmile_qr_scan"}, "fusion_lon": 0.0}, {"lat": 38.910392, "is_disabled": 0, "type": "electric_scooter", "lon": -77.04118383333333, "bike_id": "8a55d8b6afd026ba9cfc67bdf037cca0", "fusion_lat": 0.0, "name": "8a55d8b6afd026ba9cfc67bdf037cca0", "is_reserved": 0, "rental_uris": {"android": "https://dc.lft.to/lastmile_qr_scan", "ios": "https://dc.lft.to/lastmile_qr_scan"}, "fusion_lon": 0.0}, {"lat": 38.929861333333335, "is_disabled": 0, "type": "electric_scooter", "lon": -77.0383625, "bike_id": "7632c04bc9d60689794e651060c4fc1d", "fusion_lat": 0.0, "name": "7632c04bc9d60689794e651060c4fc1d", "is_reserved": 0, "rental_uris": {"android": "https://dc.lft.to/lastmile_qr_scan", "ios": "https://dc.lft.to/lastmile_qr_scan"}, "fusion_lon": 0.0}, {"lat": 38.8826765, "is_disabled": 0, "type": "electric_scooter", "lon": -76.98825433333333, "bike_id": "a2930aa4598284ea70801240445e422f", "fusion_lat": 0.0, "name": "a2930aa4598284ea70801240445e422f", "is_reserved": 0, "rental_uris": {"android": "https://dc.lft.to/lastmile_qr_scan", "ios": "https://dc.lft.to/lastmile_qr_scan"}, "fusion_lon": 0.0}, {"lat": 38.910664, "is_disabled": 0, "type": "electric_scooter", "lon": -77.02921, "bike_id": "9f8bfd62b28b982085c91259db3dd2d5", "fusion_lat": 0.0, "name": "9f8bfd62b28b982085c91259db3dd2d5", "is_reserved": 0, "rental_uris": {"android": "https://dc.lft.to/lastmile_qr_scan", "ios": "https://dc.lft.to/lastmile_qr_scan"}, "fusion_lon": 0.0}, {"lat": 38.9359895, "is_disabled": 0, "type": "electric_scooter", "lon": -77.05627166666666, "bike_id": "6faf24c5394f8b80658959a3fd563525", "fusion_lat": 0.0, "name": "6faf24c5394f8b80658959a3fd563525", "is_reserved": 0, "rental_uris": {"android": "https://dc.lft.to/lastmile_qr_scan", "ios": "https://dc.lft.to/lastmile_qr_scan"}, "fusion_lon": 0.0}, {"lat": 38.919001333333334, "is_disabled": 0, "type": "electric_scooter", "lon": -77.03185116666667, "bike_id": "dbd282744f60c545ed5035816dc67d31", "fusion_lat": 0.0, "name": "dbd282744f60c545ed5035816dc67d31", "is_reserved": 0, "rental_uris": {"android": "https://dc.lft.to/lastmile_qr_scan", "ios": "https://dc.lft.to/lastmile_qr_scan"}, "fusion_lon": 0.0}, {"lat": 38.90363116666666, "is_disabled": 0, "type": "electric_scooter", "lon": -77.041136, "bike_id": "5716219e5c1439ed389ace779b42931c", "fusion_lat": 0.0, "name": "5716219e5c1439ed389ace779b42931c", "is_reserved": 0, "rental_uris": {"android": "https://dc.lft.to/lastmile_qr_scan", "ios": "https://dc.lft.to/lastmile_qr_scan"}, "fusion_lon": 0.0}, {"lat": 38.90518266666667, "is_disabled": 0, "type": "electric_scooter", "lon": -77.04483616666667, "bike_id": "d3d16c165c99432a1c6d369eb86116a7", "fusion_lat": 0.0, "name": "d3d16c165c99432a1c6d369eb86116a7", "is_reserved": 0, "rental_uris": {"android": "https://dc.lft.to/lastmile_qr_scan", "ios": "https://dc.lft.to/lastmile_qr_scan"}, "fusion_lon": 0.0}, {"lat": 38.9332635, "is_disabled": 0, "type": "electric_scooter", "lon": -77.05708116666666, "bike_id": "dbe858d449d3475087897d60cb5fbe04", "fusion_lat": 0.0, "name": "dbe858d449d3475087897d60cb5fbe04", "is_reserved": 0, "rental_uris": {"android": "https://dc.lft.to/lastmile_qr_scan", "ios": "https://dc.lft.to/lastmile_qr_scan"}, "fusion_lon": 0.0}, {"lat": 38.922894, "is_disabled": 0, "type": "electric_scooter", "lon": -77.02968916666667, "bike_id": "e6ab8edb1b2f008d4a1e445432e32e4a", "fusion_lat": 0.0, "name": "e6ab8edb1b2f008d4a1e445432e32e4a", "is_reserved": 0, "rental_uris": {"android": "https://dc.lft.to/lastmile_qr_scan", "ios": "https://dc.lft.to/lastmile_qr_scan"}, "fusion_lon": 0.0}, {"lat": 38.90031616666667, "is_disabled": 0, "type": "electric_scooter", "lon": -77.00199416666666, "bike_id": "0e8f78785e7557dd2da001c946660946", "fusion_lat": 0.0, "name": "0e8f78785e7557dd2da001c946660946", "is_reserved": 0, "rental_uris": {"android": "https://dc.lft.to/lastmile_qr_scan", "ios": "https://dc.lft.to/lastmile_qr_scan"}, "fusion_lon": 0.0}, {"lat": 38.88753233333333, "is_disabled": 0, "type": "electric_scooter", "lon": -77.0314905, "bike_id": "223227be5a770952d24c3f14cd31448c", "fusion_lat": 0.0, "name": "223227be5a770952d24c3f14cd31448c", "is_reserved": 0, "rental_uris": {"android": "https://dc.lft.to/lastmile_qr_scan", "ios": "https://dc.lft.to/lastmile_qr_scan"}, "fusion_lon": 0.0}, {"lat": 38.9347835, "is_disabled": 0, "type": "electric_scooter", "lon": -77.05790466666667, "bike_id": "8e31883ad9028c9f4516277adf62a40a", "fusion_lat": 0.0, "name": "8e31883ad9028c9f4516277adf62a40a", "is_reserved": 0, "rental_uris": {"android": "https://dc.lft.to/lastmile_qr_scan", "ios": "https://dc.lft.to/lastmile_qr_scan"}, "fusion_lon": 0.0}, {"lat": 38.924869666666666, "is_disabled": 0, "type": "electric_scooter", "lon": -77.03181516666666, "bike_id": "74fe38e83f05ca9cf9ea3d03e11876f2", "fusion_lat": 0.0, "name": "74fe38e83f05ca9cf9ea3d03e11876f2", "is_reserved": 0, "rental_uris": {"android": "https://dc.lft.to/lastmile_qr_scan", "ios": "https://dc.lft.to/lastmile_qr_scan"}, "fusion_lon": 0.0}, {"lat": 38.9660925, "is_disabled": 0, "type": "electric_scooter", "lon": -77.02054183333334, "bike_id": "538d9114fecd7634ccf58f213fc967fd", "fusion_lat": 0.0, "name": "538d9114fecd7634ccf58f213fc967fd", "is_reserved": 0, "rental_uris": {"android": "https://dc.lft.to/lastmile_qr_scan", "ios": "https://dc.lft.to/lastmile_qr_scan"}, "fusion_lon": 0.0}, {"lat": 38.925442333333336, "is_disabled": 0, "type": "electric_scooter", "lon": -77.03446283333334, "bike_id": "1a860b7b292b6611cfeadcfc04737cee", "fusion_lat": 0.0, "name": "1a860b7b292b6611cfeadcfc04737cee", "is_reserved": 0, "rental_uris": {"android": "https://dc.lft.to/lastmile_qr_scan", "ios": "https://dc.lft.to/lastmile_qr_scan"}, "fusion_lon": 0.0}, {"lat": 38.8581045, "is_disabled": 0, "type": "electric_scooter", "lon": -76.98656983333333, "bike_id": "b688962a16df60b46094eca32f8b4474", "fusion_lat": 0.0, "name": "b688962a16df60b46094eca32f8b4474", "is_reserved": 0, "rental_uris": {"android": "https://dc.lft.to/lastmile_qr_scan", "ios": "https://dc.lft.to/lastmile_qr_scan"}, "fusion_lon": 0.0}, {"lat": 38.94202833333333, "is_disabled": 0, "type": "electric_bike", "lon": -77.01823366666666, "bike_id": "b9f001df752439aac304311e63237186", "fusion_lat": 0.0, "name": "b9f001df752439aac304311e63237186", "is_reserved": 0, "rental_uris": {"android": "https://dc.lft.to/lastmile_qr_scan", "ios": "https://dc.lft.to/lastmile_qr_scan"}, "fusion_lon": 0.0}, {"lat": 38.89958633333333, "is_disabled": 0, "type": "electric_scooter", "lon": -77.020968, "bike_id": "b7d24ea6136dc29756e5db21425acbbf", "fusion_lat": 0.0, "name": "b7d24ea6136dc29756e5db21425acbbf", "is_reserved": 0, "rental_uris": {"android": "https://dc.lft.to/lastmile_qr_scan", "ios": "https://dc.lft.to/lastmile_qr_scan"}, "fusion_lon": 0.0}, {"lat": 38.82265233333333, "is_disabled": 0, "type": "electric_bike", "lon": -77.058112, "bike_id": "cbaffa702523a1ef138109330ba1cbb9", "fusion_lat": 0.0, "name": "cbaffa702523a1ef138109330ba1cbb9", "is_reserved": 0, "rental_uris": {"android": "https://dc.lft.to/lastmile_qr_scan", "ios": "https://dc.lft.to/lastmile_qr_scan"}, "fusion_lon": 0.0}, {"lat": 38.858975, "is_disabled": 0, "type": "electric_scooter", "lon": -76.9943525, "bike_id": "85bbb4e10a6df96a6b3d7e8f0b7e6edd", "fusion_lat": 0.0, "name": "85bbb4e10a6df96a6b3d7e8f0b7e6edd", "is_reserved": 0, "rental_uris": {"android": "https://dc.lft.to/lastmile_qr_scan", "ios": "https://dc.lft.to/lastmile_qr_scan"}, "fusion_lon": 0.0}, {"lat": 38.90235783333333, "is_disabled": 0, "type": "electric_scooter", "lon": -77.05331833333334, "bike_id": "67d591f156c3be76ac4a234e9b2c8bd2", "fusion_lat": 0.0, "name": "67d591f156c3be76ac4a234e9b2c8bd2", "is_reserved": 0, "rental_uris": {"android": "https://dc.lft.to/lastmile_qr_scan", "ios": "https://dc.lft.to/lastmile_qr_scan"}, "fusion_lon": 0.0}, {"lat": 38.898367, "is_disabled": 0, "type": "electric_scooter", "lon": -77.03179966666667, "bike_id": "084caf2c99a338443cbe37cb4508d6aa", "fusion_lat": 0.0, "name": "084caf2c99a338443cbe37cb4508d6aa", "is_reserved": 0, "rental_uris": {"android": "https://dc.lft.to/lastmile_qr_scan", "ios": "https://dc.lft.to/lastmile_qr_scan"}, "fusion_lon": 0.0}, {"lat": 38.907844833333336, "is_disabled": 0, "type": "electric_scooter", "lon": -77.03648816666667, "bike_id": "9e50d867cee269090f8b10d0f817a3df", "fusion_lat": 0.0, "name": "9e50d867cee269090f8b10d0f817a3df", "is_reserved": 0, "rental_uris": {"android": "https://dc.lft.to/lastmile_qr_scan", "ios": "https://dc.lft.to/lastmile_qr_scan"}, "fusion_lon": 0.0}, {"lat": 38.922965833333336, "is_disabled": 0, "type": "electric_scooter", "lon": -77.0365825, "bike_id": "e469fd0021a0e40f6620c3f0d6932d1f", "fusion_lat": 0.0, "name": "e469fd0021a0e40f6620c3f0d6932d1f", "is_reserved": 0, "rental_uris": {"android": "https://dc.lft.to/lastmile_qr_scan", "ios": "https://dc.lft.to/lastmile_qr_scan"}, "fusion_lon": 0.0}, {"lat": 38.869856, "is_disabled": 0, "type": "electric_bike", "lon": -76.959918, "bike_id": "81102850c823157c8a75df7c11fb2785", "fusion_lat": 0.0, "name": "81102850c823157c8a75df7c11fb2785", "is_reserved": 0, "rental_uris": {"android": "https://dc.lft.to/lastmile_qr_scan", "ios": "https://dc.lft.to/lastmile_qr_scan"}, "fusion_lon": 0.0}, {"lat": 38.909656, "is_disabled": 0, "type": "electric_bike", "lon": -77.03562666666667, "bike_id": "55c1b61f116244a0b25f02986782a63f", "fusion_lat": 0.0, "name": "55c1b61f116244a0b25f02986782a63f", "is_reserved": 0, "rental_uris": {"android": "https://dc.lft.to/lastmile_qr_scan", "ios": "https://dc.lft.to/lastmile_qr_scan"}, "fusion_lon": 0.0}, {"lat": 38.97313066666667, "is_disabled": 0, "type": "electric_scooter", "lon": -77.02704683333333, "bike_id": "5dd919ead90b599d76ef34788bd493ce", "fusion_lat": 0.0, "name": "5dd919ead90b599d76ef34788bd493ce", "is_reserved": 0, "rental_uris": {"android": "https://dc.lft.to/lastmile_qr_scan", "ios": "https://dc.lft.to/lastmile_qr_scan"}, "fusion_lon": 0.0}, {"lat": 38.894956, "is_disabled": 0, "type": "electric_scooter", "lon": -77.01126, "bike_id": "9a51bf87bb9f62866d8c5c759894715b", "fusion_lat": 0.0, "name": "9a51bf87bb9f62866d8c5c759894715b", "is_reserved": 0, "rental_uris": {"android": "https://dc.lft.to/lastmile_qr_scan", "ios": "https://dc.lft.to/lastmile_qr_scan"}, "fusion_lon": 0.0}, {"lat": 38.927598, "is_disabled": 0, "type": "electric_scooter", "lon": -77.032594, "bike_id": "a5177a639dc5236fe631db1d4b9a9b22", "fusion_lat": 0.0, "name": "a5177a639dc5236fe631db1d4b9a9b22", "is_reserved": 0, "rental_uris": {"android": "https://dc.lft.to/lastmile_qr_scan", "ios": "https://dc.lft.to/lastmile_qr_scan"}, "fusion_lon": 0.0}, {"lat": 38.98504966666667, "is_disabled": 0, "type": "electric_bike", "lon": -76.9821655, "bike_id": "7ab85cd01a5fe1dd14566193fcd04271", "fusion_lat": 0.0, "name": "7ab85cd01a5fe1dd14566193fcd04271", "is_reserved": 0, "rental_uris": {"android": "https://dc.lft.to/lastmile_qr_scan", "ios": "https://dc.lft.to/lastmile_qr_scan"}, "fusion_lon": 0.0}, {"lat": 38.89845716666667, "is_disabled": 0, "type": "electric_scooter", "lon": -77.03954483333334, "bike_id": "2ff9928d29118039da81ff5efe071966", "fusion_lat": 0.0, "name": "2ff9928d29118039da81ff5efe071966", "is_reserved": 0, "rental_uris": {"android": "https://dc.lft.to/lastmile_qr_scan", "ios": "https://dc.lft.to/lastmile_qr_scan"}, "fusion_lon": 0.0}, {"lat": 38.938807833333335, "is_disabled": 0, "type": "electric_scooter", "lon": -77.0328325, "bike_id": "6af4480f4ade7884192b2074902ddad3", "fusion_lat": 0.0, "name": "6af4480f4ade7884192b2074902ddad3", "is_reserved": 0, "rental_uris": {"android": "https://dc.lft.to/lastmile_qr_scan", "ios": "https://dc.lft.to/lastmile_qr_scan"}, "fusion_lon": 0.0}, {"lat": 38.9621875, "is_disabled": 0, "type": "electric_bike", "lon": -77.0278545, "bike_id": "a108fcfe202adffec89785197f32b6a5", "fusion_lat": 0.0, "name": "a108fcfe202adffec89785197f32b6a5", "is_reserved": 0, "rental_uris": {"android": "https://dc.lft.to/lastmile_qr_scan", "ios": "https://dc.lft.to/lastmile_qr_scan"}, "fusion_lon": 0.0}, {"lat": 38.9217035, "is_disabled": 0, "type": "electric_scooter", "lon": -77.051375, "bike_id": "535a36b5ac7bc8c27c4d5407827504d1", "fusion_lat": 0.0, "name": "535a36b5ac7bc8c27c4d5407827504d1", "is_reserved": 0, "rental_uris": {"android": "https://dc.lft.to/lastmile_qr_scan", "ios": "https://dc.lft.to/lastmile_qr_scan"}, "fusion_lon": 0.0}, {"lat": 38.89899533333333, "is_disabled": 0, "type": "electric_scooter", "lon": -77.003597, "bike_id": "21815f4fe1015d7dbd9589c901040ff9", "fusion_lat": 0.0, "name": "21815f4fe1015d7dbd9589c901040ff9", "is_reserved": 0, "rental_uris": {"android": "https://dc.lft.to/lastmile_qr_scan", "ios": "https://dc.lft.to/lastmile_qr_scan"}, "fusion_lon": 0.0}, {"lat": 38.93457033333333, "is_disabled": 0, "type": "electric_scooter", "lon": -77.03232066666666, "bike_id": "5e97edc1dab506d3f5c92d30afd2982c", "fusion_lat": 0.0, "name": "5e97edc1dab506d3f5c92d30afd2982c", "is_reserved": 0, "rental_uris": {"android": "https://dc.lft.to/lastmile_qr_scan", "ios": "https://dc.lft.to/lastmile_qr_scan"}, "fusion_lon": 0.0}, {"lat": 38.986003333333336, "is_disabled": 0, "type": "electric_bike", "lon": -77.03758083333334, "bike_id": "cdce2d16ea001ce84e8d5cd59a722c73", "fusion_lat": 0.0, "name": "cdce2d16ea001ce84e8d5cd59a722c73", "is_reserved": 0, "rental_uris": {"android": "https://dc.lft.to/lastmile_qr_scan", "ios": "https://dc.lft.to/lastmile_qr_scan"}, "fusion_lon": 0.0}, {"lat": 38.92328916666666, "is_disabled": 0, "type": "electric_scooter", "lon": -77.0446945, "bike_id": "4747184e425feb3748c0b99cedf9a8d8", "fusion_lat": 0.0, "name": "4747184e425feb3748c0b99cedf9a8d8", "is_reserved": 0, "rental_uris": {"android": "https://dc.lft.to/lastmile_qr_scan", "ios": "https://dc.lft.to/lastmile_qr_scan"}, "fusion_lon": 0.0}, {"lat": 38.9110885, "is_disabled": 0, "type": "electric_scooter", "lon": -77.03704833333333, "bike_id": "6828eabb094e81370006600ca84666df", "fusion_lat": 0.0, "name": "6828eabb094e81370006600ca84666df", "is_reserved": 0, "rental_uris": {"android": "https://dc.lft.to/lastmile_qr_scan", "ios": "https://dc.lft.to/lastmile_qr_scan"}, "fusion_lon": 0.0}, {"lat": 38.911197666666666, "is_disabled": 0, "type": "electric_bike", "lon": -76.98568066666667, "bike_id": "d474182072535c8f5c5abc1bb0dfc6ab", "fusion_lat": 0.0, "name": "d474182072535c8f5c5abc1bb0dfc6ab", "is_reserved": 0, "rental_uris": {"android": "https://dc.lft.to/lastmile_qr_scan", "ios": "https://dc.lft.to/lastmile_qr_scan"}, "fusion_lon": 0.0}, {"lat": 38.86596883333333, "is_disabled": 0, "type": "electric_bike", "lon": -76.932265, "bike_id": "c0530e0eb42f999000f46b63979a41f1", "fusion_lat": 0.0, "name": "c0530e0eb42f999000f46b63979a41f1", "is_reserved": 0, "rental_uris": {"android": "https://dc.lft.to/lastmile_qr_scan", "ios": "https://dc.lft.to/lastmile_qr_scan"}, "fusion_lon": 0.0}, {"lat": 38.91664883333333, "is_disabled": 0, "type": "electric_scooter", "lon": -77.04287516666666, "bike_id": "d83851a5b6702a73c68c189f7cfe4133", "fusion_lat": 0.0, "name": "d83851a5b6702a73c68c189f7cfe4133", "is_reserved": 0, "rental_uris": {"android": "https://dc.lft.to/lastmile_qr_scan", "ios": "https://dc.lft.to/lastmile_qr_scan"}, "fusion_lon": 0.0}, {"lat": 38.9064615, "is_disabled": 0, "type": "electric_scooter", "lon": -77.01204416666667, "bike_id": "ab83c2692825cdf3c231c3f615ba3fdc", "fusion_lat": 0.0, "name": "ab83c2692825cdf3c231c3f615ba3fdc", "is_reserved": 0, "rental_uris": {"android": "https://dc.lft.to/lastmile_qr_scan", "ios": "https://dc.lft.to/lastmile_qr_scan"}, "fusion_lon": 0.0}, {"lat": 38.91074116666667, "is_disabled": 0, "type": "electric_scooter", "lon": -77.0163705, "bike_id": "461ded3c934126189a4c61bca0ae6c6e", "fusion_lat": 0.0, "name": "461ded3c934126189a4c61bca0ae6c6e", "is_reserved": 0, "rental_uris": {"android": "https://dc.lft.to/lastmile_qr_scan", "ios": "https://dc.lft.to/lastmile_qr_scan"}, "fusion_lon": 0.0}, {"lat": 38.900753, "is_disabled": 0, "type": "electric_scooter", "lon": -77.0075265, "bike_id": "53aeae796c5f378ea1375e5c54c72199", "fusion_lat": 0.0, "name": "53aeae796c5f378ea1375e5c54c72199", "is_reserved": 0, "rental_uris": {"android": "https://dc.lft.to/lastmile_qr_scan", "ios": "https://dc.lft.to/lastmile_qr_scan"}, "fusion_lon": 0.0}, {"lat": 38.952459833333336, "is_disabled": 0, "type": "electric_bike", "lon": -76.98239233333334, "bike_id": "dd0fb1657f70c59f685774f6e3b082e3", "fusion_lat": 0.0, "name": "dd0fb1657f70c59f685774f6e3b082e3", "is_reserved": 0, "rental_uris": {"android": "https://dc.lft.to/lastmile_qr_scan", "ios": "https://dc.lft.to/lastmile_qr_scan"}, "fusion_lon": 0.0}, {"lat": 38.92034566666667, "is_disabled": 0, "type": "electric_scooter", "lon": -77.044141, "bike_id": "01d42a596e4e18bca29b596afd9f3ec9", "fusion_lat": 0.0, "name": "01d42a596e4e18bca29b596afd9f3ec9", "is_reserved": 0, "rental_uris": {"android": "https://dc.lft.to/lastmile_qr_scan", "ios": "https://dc.lft.to/lastmile_qr_scan"}, "fusion_lon": 0.0}, {"lat": 38.896224, "is_disabled": 0, "type": "electric_scooter", "lon": -77.032089, "bike_id": "7107830214f70d394bd478329a7c3ac2", "fusion_lat": 0.0, "name": "7107830214f70d394bd478329a7c3ac2", "is_reserved": 0, "rental_uris": {"android": "https://dc.lft.to/lastmile_qr_scan", "ios": "https://dc.lft.to/lastmile_qr_scan"}, "fusion_lon": 0.0}, {"lat": 38.932276, "is_disabled": 0, "type": "electric_scooter", "lon": -77.04407633333334, "bike_id": "c83c205809eb7028351b372b5a53c913", "fusion_lat": 0.0, "name": "c83c205809eb7028351b372b5a53c913", "is_reserved": 0, "rental_uris": {"android": "https://dc.lft.to/lastmile_qr_scan", "ios": "https://dc.lft.to/lastmile_qr_scan"}, "fusion_lon": 0.0}, {"lat": 38.92794833333333, "is_disabled": 0, "type": "electric_scooter", "lon": -77.031506, "bike_id": "89dc2b84f5bbc0d2d45294b35441b971", "fusion_lat": 0.0, "name": "89dc2b84f5bbc0d2d45294b35441b971", "is_reserved": 0, "rental_uris": {"android": "https://dc.lft.to/lastmile_qr_scan", "ios": "https://dc.lft.to/lastmile_qr_scan"}, "fusion_lon": 0.0}, {"lat": 38.852168166666665, "is_disabled": 0, "type": "electric_bike", "lon": -77.129435, "bike_id": "6a3d5a973508d746dfa89aceeb3a3b57", "fusion_lat": 0.0, "name": "6a3d5a973508d746dfa89aceeb3a3b57", "is_reserved": 0, "rental_uris": {"android": "https://dc.lft.to/lastmile_qr_scan", "ios": "https://dc.lft.to/lastmile_qr_scan"}, "fusion_lon": 0.0}, {"lat": 38.90263483333333, "is_disabled": 0, "type": "electric_scooter", "lon": -77.01845983333334, "bike_id": "f2c2f5b497905f13e301fe657c2323df", "fusion_lat": 0.0, "name": "f2c2f5b497905f13e301fe657c2323df", "is_reserved": 0, "rental_uris": {"android": "https://dc.lft.to/lastmile_qr_scan", "ios": "https://dc.lft.to/lastmile_qr_scan"}, "fusion_lon": 0.0}, {"lat": 38.854484166666666, "is_disabled": 0, "type": "electric_scooter", "lon": -76.98578183333333, "bike_id": "d0cbf7276be9dd6f65b4a3b8ada4a94c", "fusion_lat": 0.0, "name": "d0cbf7276be9dd6f65b4a3b8ada4a94c", "is_reserved": 0, "rental_uris": {"android": "https://dc.lft.to/lastmile_qr_scan", "ios": "https://dc.lft.to/lastmile_qr_scan"}, "fusion_lon": 0.0}, {"lat": 38.895101833333335, "is_disabled": 0, "type": "electric_scooter", "lon": -77.02180783333333, "bike_id": "f70eb3c71aa4637233d6f59fd5e34acb", "fusion_lat": 0.0, "name": "f70eb3c71aa4637233d6f59fd5e34acb", "is_reserved": 0, "rental_uris": {"android": "https://dc.lft.to/lastmile_qr_scan", "ios": "https://dc.lft.to/lastmile_qr_scan"}, "fusion_lon": 0.0}, {"lat": 38.917412166666665, "is_disabled": 0, "type": "electric_scooter", "lon": -77.02117483333333, "bike_id": "746e3806d73b7b44718d1af9c90c2ef4", "fusion_lat": 0.0, "name": "746e3806d73b7b44718d1af9c90c2ef4", "is_reserved": 0, "rental_uris": {"android": "https://dc.lft.to/lastmile_qr_scan", "ios": "https://dc.lft.to/lastmile_qr_scan"}, "fusion_lon": 0.0}, {"lat": 38.88972866666667, "is_disabled": 0, "type": "electric_scooter", "lon": -76.97934166666667, "bike_id": "31b9dbd493e02ec543c9ff40da027dce", "fusion_lat": 0.0, "name": "31b9dbd493e02ec543c9ff40da027dce", "is_reserved": 0, "rental_uris": {"android": "https://dc.lft.to/lastmile_qr_scan", "ios": "https://dc.lft.to/lastmile_qr_scan"}, "fusion_lon": 0.0}, {"lat": 38.9140365, "is_disabled": 0, "type": "electric_scooter", "lon": -77.029252, "bike_id": "2d5b0d105084715369e51c065ae1ab26", "fusion_lat": 0.0, "name": "2d5b0d105084715369e51c065ae1ab26", "is_reserved": 0, "rental_uris": {"android": "https://dc.lft.to/lastmile_qr_scan", "ios": "https://dc.lft.to/lastmile_qr_scan"}, "fusion_lon": 0.0}, {"lat": 38.864438666666665, "is_disabled": 0, "type": "electric_bike", "lon": -76.9453595, "bike_id": "91ddd37fc1a24130d8d6079459a73403", "fusion_lat": 0.0, "name": "91ddd37fc1a24130d8d6079459a73403", "is_reserved": 0, "rental_uris": {"android": "https://dc.lft.to/lastmile_qr_scan", "ios": "https://dc.lft.to/lastmile_qr_scan"}, "fusion_lon": 0.0}, {"lat": 38.9103555, "is_disabled": 0, "type": "electric_scooter", "lon": -76.998096, "bike_id": "c840c8af222290fde7219c2705f382f7", "fusion_lat": 0.0, "name": "c840c8af222290fde7219c2705f382f7", "is_reserved": 0, "rental_uris": {"android": "https://dc.lft.to/lastmile_qr_scan", "ios": "https://dc.lft.to/lastmile_qr_scan"}, "fusion_lon": 0.0}, {"lat": 38.87148833333333, "is_disabled": 0, "type": "electric_bike", "lon": -76.93704283333334, "bike_id": "816cbca8498695567920cd5e87416531", "fusion_lat": 0.0, "name": "816cbca8498695567920cd5e87416531", "is_reserved": 0, "rental_uris": {"android": "https://dc.lft.to/lastmile_qr_scan", "ios": "https://dc.lft.to/lastmile_qr_scan"}, "fusion_lon": 0.0}, {"lat": 38.95807383333333, "is_disabled": 0, "type": "electric_scooter", "lon": -77.03160783333334, "bike_id": "c3ce16ed21eafad3efe2e8c5ff395ece", "fusion_lat": 0.0, "name": "c3ce16ed21eafad3efe2e8c5ff395ece", "is_reserved": 0, "rental_uris": {"android": "https://dc.lft.to/lastmile_qr_scan", "ios": "https://dc.lft.to/lastmile_qr_scan"}, "fusion_lon": 0.0}, {"lat": 38.930496, "is_disabled": 0, "type": "electric_scooter", "lon": -77.0126715, "bike_id": "15b9533f39b51024b50aeb7a9f85920e", "fusion_lat": 0.0, "name": "15b9533f39b51024b50aeb7a9f85920e", "is_reserved": 0, "rental_uris": {"android": "https://dc.lft.to/lastmile_qr_scan", "ios": "https://dc.lft.to/lastmile_qr_scan"}, "fusion_lon": 0.0}, {"lat": 38.918235833333334, "is_disabled": 0, "type": "electric_scooter", "lon": -77.01212716666667, "bike_id": "7e9dc3633f8bd2322cc7723ddececd3d", "fusion_lat": 0.0, "name": "7e9dc3633f8bd2322cc7723ddececd3d", "is_reserved": 0, "rental_uris": {"android": "https://dc.lft.to/lastmile_qr_scan", "ios": "https://dc.lft.to/lastmile_qr_scan"}, "fusion_lon": 0.0}, {"lat": 38.918341833333336, "is_disabled": 0, "type": "electric_scooter", "lon": -77.03190383333333, "bike_id": "ee913f2dfba312554c25eda98a2fe17e", "fusion_lat": 0.0, "name": "ee913f2dfba312554c25eda98a2fe17e", "is_reserved": 0, "rental_uris": {"android": "https://dc.lft.to/lastmile_qr_scan", "ios": "https://dc.lft.to/lastmile_qr_scan"}, "fusion_lon": 0.0}, {"lat": 38.9398115, "is_disabled": 0, "type": "electric_scooter", "lon": -77.03264883333334, "bike_id": "5749defbccc1ff1e674e6c531d5a609b", "fusion_lat": 0.0, "name": "5749defbccc1ff1e674e6c531d5a609b", "is_reserved": 0, "rental_uris": {"android": "https://dc.lft.to/lastmile_qr_scan", "ios": "https://dc.lft.to/lastmile_qr_scan"}, "fusion_lon": 0.0}, {"lat": 38.92472633333333, "is_disabled": 0, "type": "electric_scooter", "lon": -77.02630866666667, "bike_id": "29afdb47e5fef1849b60f729665fa702", "fusion_lat": 0.0, "name": "29afdb47e5fef1849b60f729665fa702", "is_reserved": 0, "rental_uris": {"android": "https://dc.lft.to/lastmile_qr_scan", "ios": "https://dc.lft.to/lastmile_qr_scan"}, "fusion_lon": 0.0}, {"lat": 38.876802833333336, "is_disabled": 0, "type": "electric_scooter", "lon": -77.01790466666667, "bike_id": "5c92c02887e2444bad13129126cadeb7", "fusion_lat": 0.0, "name": "5c92c02887e2444bad13129126cadeb7", "is_reserved": 0, "rental_uris": {"android": "https://dc.lft.to/lastmile_qr_scan", "ios": "https://dc.lft.to/lastmile_qr_scan"}, "fusion_lon": 0.0}, {"lat": 38.916946333333335, "is_disabled": 0, "type": "electric_scooter", "lon": -77.0460585, "bike_id": "0040db587abaf9ee9612f3d86fd83c73", "fusion_lat": 0.0, "name": "0040db587abaf9ee9612f3d86fd83c73", "is_reserved": 0, "rental_uris": {"android": "https://dc.lft.to/lastmile_qr_scan", "ios": "https://dc.lft.to/lastmile_qr_scan"}, "fusion_lon": 0.0}, {"lat": 38.92361966666667, "is_disabled": 0, "type": "electric_scooter", "lon": -77.05097983333333, "bike_id": "a39ac99b86b66781f65b8ba5d9aaee2c", "fusion_lat": 0.0, "name": "a39ac99b86b66781f65b8ba5d9aaee2c", "is_reserved": 0, "rental_uris": {"android": "https://dc.lft.to/lastmile_qr_scan", "ios": "https://dc.lft.to/lastmile_qr_scan"}, "fusion_lon": 0.0}, {"lat": 38.93262816666667, "is_disabled": 0, "type": "electric_scooter", "lon": -77.03262883333333, "bike_id": "9c4051a471dbea603e5fa4885c5eb91f", "fusion_lat": 0.0, "name": "9c4051a471dbea603e5fa4885c5eb91f", "is_reserved": 0, "rental_uris": {"android": "https://dc.lft.to/lastmile_qr_scan", "ios": "https://dc.lft.to/lastmile_qr_scan"}, "fusion_lon": 0.0}, {"lat": 38.867220833333334, "is_disabled": 0, "type": "electric_scooter", "lon": -77.01013166666667, "bike_id": "d539a3574493d6d1bc4dc6092178e4e6", "fusion_lat": 0.0, "name": "d539a3574493d6d1bc4dc6092178e4e6", "is_reserved": 0, "rental_uris": {"android": "https://dc.lft.to/lastmile_qr_scan", "ios": "https://dc.lft.to/lastmile_qr_scan"}, "fusion_lon": 0.0}, {"lat": 38.932257, "is_disabled": 0, "type": "electric_scooter", "lon": -77.03857166666667, "bike_id": "0f0dd0b458c90392d25ed80baddab91f", "fusion_lat": 0.0, "name": "0f0dd0b458c90392d25ed80baddab91f", "is_reserved": 0, "rental_uris": {"android": "https://dc.lft.to/lastmile_qr_scan", "ios": "https://dc.lft.to/lastmile_qr_scan"}, "fusion_lon": 0.0}, {"lat": 38.857878666666664, "is_disabled": 0, "type": "electric_bike", "lon": -77.09958733333333, "bike_id": "b146da23ccdd9621e48d1f08cb5ae564", "fusion_lat": 0.0, "name": "b146da23ccdd9621e48d1f08cb5ae564", "is_reserved": 0, "rental_uris": {"android": "https://dc.lft.to/lastmile_qr_scan", "ios": "https://dc.lft.to/lastmile_qr_scan"}, "fusion_lon": 0.0}, {"lat": 38.922545666666664, "is_disabled": 0, "type": "electric_scooter", "lon": -77.04255166666667, "bike_id": "3577eed44eeece169ce33534c7764c8b", "fusion_lat": 0.0, "name": "3577eed44eeece169ce33534c7764c8b", "is_reserved": 0, "rental_uris": {"android": "https://dc.lft.to/lastmile_qr_scan", "ios": "https://dc.lft.to/lastmile_qr_scan"}, "fusion_lon": 0.0}, {"lat": 38.93979183333333, "is_disabled": 0, "type": "electric_scooter", "lon": -77.028874, "bike_id": "0764f412822268eee9421a4dd52ef8bf", "fusion_lat": 0.0, "name": "0764f412822268eee9421a4dd52ef8bf", "is_reserved": 0, "rental_uris": {"android": "https://dc.lft.to/lastmile_qr_scan", "ios": "https://dc.lft.to/lastmile_qr_scan"}, "fusion_lon": 0.0}, {"lat": 38.892189, "is_disabled": 0, "type": "electric_scooter", "lon": -77.01384683333333, "bike_id": "66912993c41a059a7089eba3bcd2b839", "fusion_lat": 0.0, "name": "66912993c41a059a7089eba3bcd2b839", "is_reserved": 0, "rental_uris": {"android": "https://dc.lft.to/lastmile_qr_scan", "ios": "https://dc.lft.to/lastmile_qr_scan"}, "fusion_lon": 0.0}, {"lat": 38.896981833333335, "is_disabled": 0, "type": "electric_scooter", "lon": -77.0240705, "bike_id": "4ef884ba0fbcbc3fff41bec5169fa222", "fusion_lat": 0.0, "name": "4ef884ba0fbcbc3fff41bec5169fa222", "is_reserved": 0, "rental_uris": {"android": "https://dc.lft.to/lastmile_qr_scan", "ios": "https://dc.lft.to/lastmile_qr_scan"}, "fusion_lon": 0.0}, {"lat": 38.89222916666667, "is_disabled": 0, "type": "electric_scooter", "lon": -77.04864866666667, "bike_id": "94d74b301bbc79df0aca5c82aef1d8e9", "fusion_lat": 0.0, "name": "94d74b301bbc79df0aca5c82aef1d8e9", "is_reserved": 0, "rental_uris": {"android": "https://dc.lft.to/lastmile_qr_scan", "ios": "https://dc.lft.to/lastmile_qr_scan"}, "fusion_lon": 0.0}, {"lat": 38.88764483333333, "is_disabled": 0, "type": "electric_scooter", "lon": -76.9559735, "bike_id": "d3e37fe87bd10e628585d6b17bec7daf", "fusion_lat": 0.0, "name": "d3e37fe87bd10e628585d6b17bec7daf", "is_reserved": 0, "rental_uris": {"android": "https://dc.lft.to/lastmile_qr_scan", "ios": "https://dc.lft.to/lastmile_qr_scan"}, "fusion_lon": 0.0}, {"lat": 38.89976733333334, "is_disabled": 0, "type": "electric_scooter", "lon": -77.021638, "bike_id": "57a5561333f5b42cab3afbcf6ea35f68", "fusion_lat": 0.0, "name": "57a5561333f5b42cab3afbcf6ea35f68", "is_reserved": 0, "rental_uris": {"android": "https://dc.lft.to/lastmile_qr_scan", "ios": "https://dc.lft.to/lastmile_qr_scan"}, "fusion_lon": 0.0}, {"lat": 38.892238, "is_disabled": 0, "type": "electric_scooter", "lon": -77.04866483333333, "bike_id": "2c1517474a9972ca9349476aa7f5f3d4", "fusion_lat": 0.0, "name": "2c1517474a9972ca9349476aa7f5f3d4", "is_reserved": 0, "rental_uris": {"android": "https://dc.lft.to/lastmile_qr_scan", "ios": "https://dc.lft.to/lastmile_qr_scan"}, "fusion_lon": 0.0}, {"lat": 38.905379833333335, "is_disabled": 0, "type": "electric_scooter", "lon": -77.05935433333333, "bike_id": "923f8ff398d65832c34b00c9baa9be4a", "fusion_lat": 0.0, "name": "923f8ff398d65832c34b00c9baa9be4a", "is_reserved": 0, "rental_uris": {"android": "https://dc.lft.to/lastmile_qr_scan", "ios": "https://dc.lft.to/lastmile_qr_scan"}, "fusion_lon": 0.0}, {"lat": 38.9049735, "is_disabled": 0, "type": "electric_scooter", "lon": -77.00128266666667, "bike_id": "8d4f355034d1377635b16be3fe5f38af", "fusion_lat": 0.0, "name": "8d4f355034d1377635b16be3fe5f38af", "is_reserved": 0, "rental_uris": {"android": "https://dc.lft.to/lastmile_qr_scan", "ios": "https://dc.lft.to/lastmile_qr_scan"}, "fusion_lon": 0.0}, {"lat": 38.917683833333335, "is_disabled": 0, "type": "electric_scooter", "lon": -77.01499616666666, "bike_id": "0e8f363d92a2aa593250511511c6b1ca", "fusion_lat": 0.0, "name": "0e8f363d92a2aa593250511511c6b1ca", "is_reserved": 0, "rental_uris": {"android": "https://dc.lft.to/lastmile_qr_scan", "ios": "https://dc.lft.to/lastmile_qr_scan"}, "fusion_lon": 0.0}, {"lat": 38.915938, "is_disabled": 0, "type": "electric_scooter", "lon": -77.02136033333333, "bike_id": "04bb88baf33c203aff8a51cb6d775180", "fusion_lat": 0.0, "name": "04bb88baf33c203aff8a51cb6d775180", "is_reserved": 0, "rental_uris": {"android": "https://dc.lft.to/lastmile_qr_scan", "ios": "https://dc.lft.to/lastmile_qr_scan"}, "fusion_lon": 0.0}, {"lat": 38.92149166666667, "is_disabled": 0, "type": "electric_scooter", "lon": -76.9692195, "bike_id": "e524c05e16f450c2c28460bc081c399d", "fusion_lat": 0.0, "name": "e524c05e16f450c2c28460bc081c399d", "is_reserved": 0, "rental_uris": {"android": "https://dc.lft.to/lastmile_qr_scan", "ios": "https://dc.lft.to/lastmile_qr_scan"}, "fusion_lon": 0.0}, {"lat": 38.92050783333333, "is_disabled": 0, "type": "electric_scooter", "lon": -77.02362316666667, "bike_id": "97aff34d0f25046501ddf6bc1a6f070b", "fusion_lat": 0.0, "name": "97aff34d0f25046501ddf6bc1a6f070b", "is_reserved": 0, "rental_uris": {"android": "https://dc.lft.to/lastmile_qr_scan", "ios": "https://dc.lft.to/lastmile_qr_scan"}, "fusion_lon": 0.0}, {"lat": 38.902485, "is_disabled": 0, "type": "electric_scooter", "lon": -77.01713366666667, "bike_id": "325a20f57de164a178dd273231c1845c", "fusion_lat": 0.0, "name": "325a20f57de164a178dd273231c1845c", "is_reserved": 0, "rental_uris": {"android": "https://dc.lft.to/lastmile_qr_scan", "ios": "https://dc.lft.to/lastmile_qr_scan"}, "fusion_lon": 0.0}, {"lat": 38.911983666666664, "is_disabled": 0, "type": "electric_scooter", "lon": -77.00470883333334, "bike_id": "fa43e2471bfd9fe778fd7cc27e7c8302", "fusion_lat": 0.0, "name": "fa43e2471bfd9fe778fd7cc27e7c8302", "is_reserved": 0, "rental_uris": {"android": "https://dc.lft.to/lastmile_qr_scan", "ios": "https://dc.lft.to/lastmile_qr_scan"}, "fusion_lon": 0.0}, {"lat": 38.8616485, "is_disabled": 0, "type": "electric_bike", "lon": -76.9506475, "bike_id": "58bd38487966284412a48418f6f82165", "fusion_lat": 0.0, "name": "58bd38487966284412a48418f6f82165", "is_reserved": 0, "rental_uris": {"android": "https://dc.lft.to/lastmile_qr_scan", "ios": "https://dc.lft.to/lastmile_qr_scan"}, "fusion_lon": 0.0}, {"lat": 38.949401, "is_disabled": 0, "type": "electric_scooter", "lon": -77.02020483333334, "bike_id": "af9fa57a344e2ae2326657465134a4dc", "fusion_lat": 0.0, "name": "af9fa57a344e2ae2326657465134a4dc", "is_reserved": 0, "rental_uris": {"android": "https://dc.lft.to/lastmile_qr_scan", "ios": "https://dc.lft.to/lastmile_qr_scan"}, "fusion_lon": 0.0}, {"lat": 38.931468833333334, "is_disabled": 0, "type": "electric_scooter", "lon": -77.0282045, "bike_id": "0d6375ee8c4f32568b5b2ea1f2b57384", "fusion_lat": 0.0, "name": "0d6375ee8c4f32568b5b2ea1f2b57384", "is_reserved": 0, "rental_uris": {"android": "https://dc.lft.to/lastmile_qr_scan", "ios": "https://dc.lft.to/lastmile_qr_scan"}, "fusion_lon": 0.0}, {"lat": 38.92171966666667, "is_disabled": 0, "type": "electric_scooter", "lon": -77.0424375, "bike_id": "b94f97ce4b4ef55034dd98987ff4ff80", "fusion_lat": 0.0, "name": "b94f97ce4b4ef55034dd98987ff4ff80", "is_reserved": 0, "rental_uris": {"android": "https://dc.lft.to/lastmile_qr_scan", "ios": "https://dc.lft.to/lastmile_qr_scan"}, "fusion_lon": 0.0}, {"lat": 38.919604666666665, "is_disabled": 0, "type": "electric_scooter", "lon": -77.0319875, "bike_id": "b30532c1f6bf84059871933fc2cf8d32", "fusion_lat": 0.0, "name": "b30532c1f6bf84059871933fc2cf8d32", "is_reserved": 0, "rental_uris": {"android": "https://dc.lft.to/lastmile_qr_scan", "ios": "https://dc.lft.to/lastmile_qr_scan"}, "fusion_lon": 0.0}, {"lat": 38.935666833333336, "is_disabled": 0, "type": "electric_scooter", "lon": -77.03269333333333, "bike_id": "f0083f82535aeeeec3ebb985dbb59c0d", "fusion_lat": 0.0, "name": "f0083f82535aeeeec3ebb985dbb59c0d", "is_reserved": 0, "rental_uris": {"android": "https://dc.lft.to/lastmile_qr_scan", "ios": "https://dc.lft.to/lastmile_qr_scan"}, "fusion_lon": 0.0}, {"lat": 38.904913, "is_disabled": 0, "type": "electric_scooter", "lon": -77.05734216666667, "bike_id": "7cfe8dff3424d77d68f5b7ebb46f1763", "fusion_lat": 0.0, "name": "7cfe8dff3424d77d68f5b7ebb46f1763", "is_reserved": 0, "rental_uris": {"android": "https://dc.lft.to/lastmile_qr_scan", "ios": "https://dc.lft.to/lastmile_qr_scan"}, "fusion_lon": 0.0}, {"lat": 38.89646583333333, "is_disabled": 0, "type": "electric_scooter", "lon": -77.00783766666666, "bike_id": "61242af195cf529fbd58b4ee8f0c8876", "fusion_lat": 0.0, "name": "61242af195cf529fbd58b4ee8f0c8876", "is_reserved": 0, "rental_uris": {"android": "https://dc.lft.to/lastmile_qr_scan", "ios": "https://dc.lft.to/lastmile_qr_scan"}, "fusion_lon": 0.0}, {"lat": 38.87208666666667, "is_disabled": 0, "type": "electric_bike", "lon": -77.01527733333333, "bike_id": "b4778f888d9938171f2e2f9fb5b3690c", "fusion_lat": 0.0, "name": "b4778f888d9938171f2e2f9fb5b3690c", "is_reserved": 0, "rental_uris": {"android": "https://dc.lft.to/lastmile_qr_scan", "ios": "https://dc.lft.to/lastmile_qr_scan"}, "fusion_lon": 0.0}, {"lat": 38.931056166666664, "is_disabled": 0, "type": "electric_scooter", "lon": -76.9672695, "bike_id": "4309fa91a3e59598d748b32be05ef9b1", "fusion_lat": 0.0, "name": "4309fa91a3e59598d748b32be05ef9b1", "is_reserved": 0, "rental_uris": {"android": "https://dc.lft.to/lastmile_qr_scan", "ios": "https://dc.lft.to/lastmile_qr_scan"}, "fusion_lon": 0.0}, {"lat": 38.905425666666666, "is_disabled": 0, "type": "electric_scooter", "lon": -77.00573416666667, "bike_id": "03e96742ac286881a96fb40546c65a1e", "fusion_lat": 0.0, "name": "03e96742ac286881a96fb40546c65a1e", "is_reserved": 0, "rental_uris": {"android": "https://dc.lft.to/lastmile_qr_scan", "ios": "https://dc.lft.to/lastmile_qr_scan"}, "fusion_lon": 0.0}, {"lat": 38.86281916666667, "is_disabled": 0, "type": "electric_scooter", "lon": -76.99234616666666, "bike_id": "071aed55b5843a4e3eacb73ef9eb9837", "fusion_lat": 0.0, "name": "071aed55b5843a4e3eacb73ef9eb9837", "is_reserved": 0, "rental_uris": {"android": "https://dc.lft.to/lastmile_qr_scan", "ios": "https://dc.lft.to/lastmile_qr_scan"}, "fusion_lon": 0.0}, {"lat": 38.92481866666667, "is_disabled": 0, "type": "electric_scooter", "lon": -77.0272415, "bike_id": "088c6f26c45c50e44cd13316f1c1a452", "fusion_lat": 0.0, "name": "088c6f26c45c50e44cd13316f1c1a452", "is_reserved": 0, "rental_uris": {"android": "https://dc.lft.to/lastmile_qr_scan", "ios": "https://dc.lft.to/lastmile_qr_scan"}, "fusion_lon": 0.0}, {"lat": 38.921565333333334, "is_disabled": 0, "type": "electric_scooter", "lon": -77.042367, "bike_id": "a2dcb778108f74fd4d50951316ef06f5", "fusion_lat": 0.0, "name": "a2dcb778108f74fd4d50951316ef06f5", "is_reserved": 0, "rental_uris": {"android": "https://dc.lft.to/lastmile_qr_scan", "ios": "https://dc.lft.to/lastmile_qr_scan"}, "fusion_lon": 0.0}, {"lat": 38.91726333333333, "is_disabled": 0, "type": "electric_scooter", "lon": -77.04094633333334, "bike_id": "2815e09c441074d3361a1c15d091cc21", "fusion_lat": 0.0, "name": "2815e09c441074d3361a1c15d091cc21", "is_reserved": 0, "rental_uris": {"android": "https://dc.lft.to/lastmile_qr_scan", "ios": "https://dc.lft.to/lastmile_qr_scan"}, "fusion_lon": 0.0}, {"lat": 38.89609333333333, "is_disabled": 0, "type": "electric_scooter", "lon": -77.02201516666666, "bike_id": "0396c8604932b76769d7ec0e29b796ad", "fusion_lat": 0.0, "name": "0396c8604932b76769d7ec0e29b796ad", "is_reserved": 0, "rental_uris": {"android": "https://dc.lft.to/lastmile_qr_scan", "ios": "https://dc.lft.to/lastmile_qr_scan"}, "fusion_lon": 0.0}, {"lat": 38.887338, "is_disabled": 0, "type": "electric_scooter", "lon": -77.03211316666666, "bike_id": "c0c64f0153e80998d4eb7ced512d4577", "fusion_lat": 0.0, "name": "c0c64f0153e80998d4eb7ced512d4577", "is_reserved": 0, "rental_uris": {"android": "https://dc.lft.to/lastmile_qr_scan", "ios": "https://dc.lft.to/lastmile_qr_scan"}, "fusion_lon": 0.0}, {"lat": 38.866565333333334, "is_disabled": 0, "type": "electric_scooter", "lon": -76.99014816666667, "bike_id": "eae66c74f1f0d7706391abf58718f18c", "fusion_lat": 0.0, "name": "eae66c74f1f0d7706391abf58718f18c", "is_reserved": 0, "rental_uris": {"android": "https://dc.lft.to/lastmile_qr_scan", "ios": "https://dc.lft.to/lastmile_qr_scan"}, "fusion_lon": 0.0}, {"lat": 38.908269833333335, "is_disabled": 0, "type": "electric_scooter", "lon": -76.941421, "bike_id": "83fd86293dd2d6114995450d5b08bc48", "fusion_lat": 0.0, "name": "83fd86293dd2d6114995450d5b08bc48", "is_reserved": 0, "rental_uris": {"android": "https://dc.lft.to/lastmile_qr_scan", "ios": "https://dc.lft.to/lastmile_qr_scan"}, "fusion_lon": 0.0}, {"lat": 38.918788, "is_disabled": 0, "type": "electric_scooter", "lon": -77.0350365, "bike_id": "63bc09ee9c637ea7c60a6e94cbd32774", "fusion_lat": 0.0, "name": "63bc09ee9c637ea7c60a6e94cbd32774", "is_reserved": 0, "rental_uris": {"android": "https://dc.lft.to/lastmile_qr_scan", "ios": "https://dc.lft.to/lastmile_qr_scan"}, "fusion_lon": 0.0}, {"lat": 38.810529333333335, "is_disabled": 0, "type": "electric_bike", "lon": -77.08512116666667, "bike_id": "533ef46d445f097adceaf4d42f233c8e", "fusion_lat": 0.0, "name": "533ef46d445f097adceaf4d42f233c8e", "is_reserved": 0, "rental_uris": {"android": "https://dc.lft.to/lastmile_qr_scan", "ios": "https://dc.lft.to/lastmile_qr_scan"}, "fusion_lon": 0.0}, {"lat": 38.84427016666667, "is_disabled": 0, "type": "electric_scooter", "lon": -76.99775566666666, "bike_id": "bb2478da8297152e97357b51091a8164", "fusion_lat": 0.0, "name": "bb2478da8297152e97357b51091a8164", "is_reserved": 0, "rental_uris": {"android": "https://dc.lft.to/lastmile_qr_scan", "ios": "https://dc.lft.to/lastmile_qr_scan"}, "fusion_lon": 0.0}, {"lat": 38.94597616666667, "is_disabled": 0, "type": "electric_scooter", "lon": -77.07036283333333, "bike_id": "ce15a0744659e9dec49a7df0cd393892", "fusion_lat": 0.0, "name": "ce15a0744659e9dec49a7df0cd393892", "is_reserved": 0, "rental_uris": {"android": "https://dc.lft.to/lastmile_qr_scan", "ios": "https://dc.lft.to/lastmile_qr_scan"}, "fusion_lon": 0.0}, {"lat": 38.92603116666667, "is_disabled": 0, "type": "electric_scooter", "lon": -77.05688933333333, "bike_id": "b6d9d70366be1aacc9d7d3437be514f3", "fusion_lat": 0.0, "name": "b6d9d70366be1aacc9d7d3437be514f3", "is_reserved": 0, "rental_uris": {"android": "https://dc.lft.to/lastmile_qr_scan", "ios": "https://dc.lft.to/lastmile_qr_scan"}, "fusion_lon": 0.0}, {"lat": 38.903974, "is_disabled": 0, "type": "electric_scooter", "lon": -77.05313316666667, "bike_id": "c80956b41550ebb9744c59f0369f649e", "fusion_lat": 0.0, "name": "c80956b41550ebb9744c59f0369f649e", "is_reserved": 0, "rental_uris": {"android": "https://dc.lft.to/lastmile_qr_scan", "ios": "https://dc.lft.to/lastmile_qr_scan"}, "fusion_lon": 0.0}, {"lat": 38.89366316666667, "is_disabled": 0, "type": "electric_scooter", "lon": -76.991074, "bike_id": "84da105d5c16b7b01a6ef13a1e7fe03b", "fusion_lat": 0.0, "name": "84da105d5c16b7b01a6ef13a1e7fe03b", "is_reserved": 0, "rental_uris": {"android": "https://dc.lft.to/lastmile_qr_scan", "ios": "https://dc.lft.to/lastmile_qr_scan"}, "fusion_lon": 0.0}, {"lat": 38.915572833333336, "is_disabled": 0, "type": "electric_scooter", "lon": -77.00975533333333, "bike_id": "c3433dcc10d455727342a80e360cacdf", "fusion_lat": 0.0, "name": "c3433dcc10d455727342a80e360cacdf", "is_reserved": 0, "rental_uris": {"android": "https://dc.lft.to/lastmile_qr_scan", "ios": "https://dc.lft.to/lastmile_qr_scan"}, "fusion_lon": 0.0}, {"lat": 38.854268, "is_disabled": 0, "type": "electric_bike", "lon": -76.90974516666667, "bike_id": "e199c8ad690eef96a58c3c542d3fc13b", "fusion_lat": 0.0, "name": "e199c8ad690eef96a58c3c542d3fc13b", "is_reserved": 0, "rental_uris": {"android": "https://dc.lft.to/lastmile_qr_scan", "ios": "https://dc.lft.to/lastmile_qr_scan"}, "fusion_lon": 0.0}, {"lat": 38.90491216666667, "is_disabled": 0, "type": "electric_scooter", "lon": -76.99542816666667, "bike_id": "b474594010449213f59d81164106afaf", "fusion_lat": 0.0, "name": "b474594010449213f59d81164106afaf", "is_reserved": 0, "rental_uris": {"android": "https://dc.lft.to/lastmile_qr_scan", "ios": "https://dc.lft.to/lastmile_qr_scan"}, "fusion_lon": 0.0}, {"lat": 38.92385933333333, "is_disabled": 0, "type": "electric_scooter", "lon": -77.027642, "bike_id": "6e4011a561ada4f86c6e19ce21851bf9", "fusion_lat": 0.0, "name": "6e4011a561ada4f86c6e19ce21851bf9", "is_reserved": 0, "rental_uris": {"android": "https://dc.lft.to/lastmile_qr_scan", "ios": "https://dc.lft.to/lastmile_qr_scan"}, "fusion_lon": 0.0}, {"lat": 38.87750366666667, "is_disabled": 0, "type": "electric_bike", "lon": -76.99518683333334, "bike_id": "5ebc46d26f8c32bb4cce586499b1eb7d", "fusion_lat": 0.0, "name": "5ebc46d26f8c32bb4cce586499b1eb7d", "is_reserved": 0, "rental_uris": {"android": "https://dc.lft.to/lastmile_qr_scan", "ios": "https://dc.lft.to/lastmile_qr_scan"}, "fusion_lon": 0.0}, {"lat": 38.921156833333335, "is_disabled": 0, "type": "electric_scooter", "lon": -77.04219316666666, "bike_id": "b100572afec517738aefcbb4c242c3bf", "fusion_lat": 0.0, "name": "b100572afec517738aefcbb4c242c3bf", "is_reserved": 0, "rental_uris": {"android": "https://dc.lft.to/lastmile_qr_scan", "ios": "https://dc.lft.to/lastmile_qr_scan"}, "fusion_lon": 0.0}, {"lat": 38.911055833333336, "is_disabled": 0, "type": "electric_scooter", "lon": -77.0356, "bike_id": "0d5933664b230e4836b2fe6be520c253", "fusion_lat": 0.0, "name": "0d5933664b230e4836b2fe6be520c253", "is_reserved": 0, "rental_uris": {"android": "https://dc.lft.to/lastmile_qr_scan", "ios": "https://dc.lft.to/lastmile_qr_scan"}, "fusion_lon": 0.0}, {"lat": 38.913172333333335, "is_disabled": 0, "type": "electric_scooter", "lon": -77.03659583333334, "bike_id": "458924969a1bde4f21b6eada7304ad20", "fusion_lat": 0.0, "name": "458924969a1bde4f21b6eada7304ad20", "is_reserved": 0, "rental_uris": {"android": "https://dc.lft.to/lastmile_qr_scan", "ios": "https://dc.lft.to/lastmile_qr_scan"}, "fusion_lon": 0.0}, {"lat": 38.962701333333335, "is_disabled": 0, "type": "electric_bike", "lon": -77.0324565, "bike_id": "bf0abce8202c7e7bf142cbb92b902ab9", "fusion_lat": 0.0, "name": "bf0abce8202c7e7bf142cbb92b902ab9", "is_reserved": 0, "rental_uris": {"android": "https://dc.lft.to/lastmile_qr_scan", "ios": "https://dc.lft.to/lastmile_qr_scan"}, "fusion_lon": 0.0}, {"lat": 38.90775933333333, "is_disabled": 0, "type": "electric_scooter", "lon": -77.04337816666667, "bike_id": "4250c045fb45a5c5994089cef7b60856", "fusion_lat": 0.0, "name": "4250c045fb45a5c5994089cef7b60856", "is_reserved": 0, "rental_uris": {"android": "https://dc.lft.to/lastmile_qr_scan", "ios": "https://dc.lft.to/lastmile_qr_scan"}, "fusion_lon": 0.0}, {"lat": 38.89853016666667, "is_disabled": 0, "type": "electric_scooter", "lon": -76.99034533333334, "bike_id": "d80f7a84fef907e3d14030e0665ed7a3", "fusion_lat": 0.0, "name": "d80f7a84fef907e3d14030e0665ed7a3", "is_reserved": 0, "rental_uris": {"android": "https://dc.lft.to/lastmile_qr_scan", "ios": "https://dc.lft.to/lastmile_qr_scan"}, "fusion_lon": 0.0}, {"lat": 38.919618, "is_disabled": 0, "type": "electric_bike", "lon": -76.97267966666666, "bike_id": "e2bab03216693207bdc235e7028c33c6", "fusion_lat": 0.0, "name": "e2bab03216693207bdc235e7028c33c6", "is_reserved": 0, "rental_uris": {"android": "https://dc.lft.to/lastmile_qr_scan", "ios": "https://dc.lft.to/lastmile_qr_scan"}, "fusion_lon": 0.0}, {"lat": 38.91579, "is_disabled": 0, "type": "electric_scooter", "lon": -77.04684066666667, "bike_id": "f62ba11a3813154ec9249c4270a9a8b5", "fusion_lat": 0.0, "name": "f62ba11a3813154ec9249c4270a9a8b5", "is_reserved": 0, "rental_uris": {"android": "https://dc.lft.to/lastmile_qr_scan", "ios": "https://dc.lft.to/lastmile_qr_scan"}, "fusion_lon": 0.0}, {"lat": 38.902179, "is_disabled": 0, "type": "electric_scooter", "lon": -76.945837, "bike_id": "b86b444fbaa6c4a4efe3d805c28fa37a", "fusion_lat": 0.0, "name": "b86b444fbaa6c4a4efe3d805c28fa37a", "is_reserved": 0, "rental_uris": {"android": "https://dc.lft.to/lastmile_qr_scan", "ios": "https://dc.lft.to/lastmile_qr_scan"}, "fusion_lon": 0.0}, {"lat": 38.9494805, "is_disabled": 0, "type": "electric_scooter", "lon": -77.01615316666667, "bike_id": "267d467a5784f24e8b23ea344d9f200a", "fusion_lat": 0.0, "name": "267d467a5784f24e8b23ea344d9f200a", "is_reserved": 0, "rental_uris": {"android": "https://dc.lft.to/lastmile_qr_scan", "ios": "https://dc.lft.to/lastmile_qr_scan"}, "fusion_lon": 0.0}, {"lat": 38.9554065, "is_disabled": 0, "type": "electric_bike", "lon": -77.01790916666667, "bike_id": "362732fe73842fabfa22234a58ddda26", "fusion_lat": 0.0, "name": "362732fe73842fabfa22234a58ddda26", "is_reserved": 0, "rental_uris": {"android": "https://dc.lft.to/lastmile_qr_scan", "ios": "https://dc.lft.to/lastmile_qr_scan"}, "fusion_lon": 0.0}, {"lat": 38.897707, "is_disabled": 0, "type": "electric_scooter", "lon": -77.04366583333334, "bike_id": "45a03756dac5cb8ff35ad90504fc626c", "fusion_lat": 0.0, "name": "45a03756dac5cb8ff35ad90504fc626c", "is_reserved": 0, "rental_uris": {"android": "https://dc.lft.to/lastmile_qr_scan", "ios": "https://dc.lft.to/lastmile_qr_scan"}, "fusion_lon": 0.0}, {"lat": 38.917956833333335, "is_disabled": 0, "type": "electric_scooter", "lon": -77.02319183333333, "bike_id": "9ef39d9aa4abda695e3908a1b2e882c7", "fusion_lat": 0.0, "name": "9ef39d9aa4abda695e3908a1b2e882c7", "is_reserved": 0, "rental_uris": {"android": "https://dc.lft.to/lastmile_qr_scan", "ios": "https://dc.lft.to/lastmile_qr_scan"}, "fusion_lon": 0.0}, {"lat": 38.92331133333333, "is_disabled": 0, "type": "electric_bike", "lon": -77.05685733333334, "bike_id": "00e7b764fe474e710d311504d66615a2", "fusion_lat": 0.0, "name": "00e7b764fe474e710d311504d66615a2", "is_reserved": 0, "rental_uris": {"android": "https://dc.lft.to/lastmile_qr_scan", "ios": "https://dc.lft.to/lastmile_qr_scan"}, "fusion_lon": 0.0}, {"lat": 38.93014633333333, "is_disabled": 0, "type": "electric_bike", "lon": -77.21648416666666, "bike_id": "35f6d097148b05a07d42ff8227c5ee21", "fusion_lat": 0.0, "name": "35f6d097148b05a07d42ff8227c5ee21", "is_reserved": 0, "rental_uris": {"android": "https://dc.lft.to/lastmile_qr_scan", "ios": "https://dc.lft.to/lastmile_qr_scan"}, "fusion_lon": 0.0}, {"lat": 38.87664983333333, "is_disabled": 0, "type": "electric_scooter", "lon": -77.004161, "bike_id": "372eb672eb094272955712ab8cfc8f5a", "fusion_lat": 0.0, "name": "372eb672eb094272955712ab8cfc8f5a", "is_reserved": 0, "rental_uris": {"android": "https://dc.lft.to/lastmile_qr_scan", "ios": "https://dc.lft.to/lastmile_qr_scan"}, "fusion_lon": 0.0}, {"lat": 38.959314166666665, "is_disabled": 0, "type": "electric_bike", "lon": -77.03116666666666, "bike_id": "b61d2206b4e6b82c2d039ba1dcfa0370", "fusion_lat": 0.0, "name": "b61d2206b4e6b82c2d039ba1dcfa0370", "is_reserved": 0, "rental_uris": {"android": "https://dc.lft.to/lastmile_qr_scan", "ios": "https://dc.lft.to/lastmile_qr_scan"}, "fusion_lon": 0.0}, {"lat": 38.954036, "is_disabled": 0, "type": "electric_scooter", "lon": -77.02750383333333, "bike_id": "30b1084e5659251ba7565bc7ec9cbd60", "fusion_lat": 0.0, "name": "30b1084e5659251ba7565bc7ec9cbd60", "is_reserved": 0, "rental_uris": {"android": "https://dc.lft.to/lastmile_qr_scan", "ios": "https://dc.lft.to/lastmile_qr_scan"}, "fusion_lon": 0.0}, {"lat": 38.908631, "is_disabled": 0, "type": "electric_bike", "lon": -77.08078033333334, "bike_id": "dbe66d16b059f598563e04515fd8c8a7", "fusion_lat": 0.0, "name": "dbe66d16b059f598563e04515fd8c8a7", "is_reserved": 0, "rental_uris": {"android": "https://dc.lft.to/lastmile_qr_scan", "ios": "https://dc.lft.to/lastmile_qr_scan"}, "fusion_lon": 0.0}, {"lat": 38.91721666666667, "is_disabled": 0, "type": "electric_scooter", "lon": -77.041015, "bike_id": "ae4f999edcf64f10feeb25448a0ded8e", "fusion_lat": 0.0, "name": "ae4f999edcf64f10feeb25448a0ded8e", "is_reserved": 0, "rental_uris": {"android": "https://dc.lft.to/lastmile_qr_scan", "ios": "https://dc.lft.to/lastmile_qr_scan"}, "fusion_lon": 0.0}, {"lat": 38.96021866666667, "is_disabled": 0, "type": "electric_bike", "lon": -77.0172515, "bike_id": "030e9f9a3dd0ad60cb81ab3bd3893735", "fusion_lat": 0.0, "name": "030e9f9a3dd0ad60cb81ab3bd3893735", "is_reserved": 0, "rental_uris": {"android": "https://dc.lft.to/lastmile_qr_scan", "ios": "https://dc.lft.to/lastmile_qr_scan"}, "fusion_lon": 0.0}, {"lat": 38.884696, "is_disabled": 0, "type": "electric_scooter", "lon": -76.9926425, "bike_id": "d046cbd3d31318e43c40dd8c5e762ced", "fusion_lat": 0.0, "name": "d046cbd3d31318e43c40dd8c5e762ced", "is_reserved": 0, "rental_uris": {"android": "https://dc.lft.to/lastmile_qr_scan", "ios": "https://dc.lft.to/lastmile_qr_scan"}, "fusion_lon": 0.0}, {"lat": 39.02933566666667, "is_disabled": 0, "type": "electric_bike", "lon": -77.04926766666667, "bike_id": "036bf9348ee6cb6c22cc611c870ca20a", "fusion_lat": 0.0, "name": "036bf9348ee6cb6c22cc611c870ca20a", "is_reserved": 0, "rental_uris": {"android": "https://dc.lft.to/lastmile_qr_scan", "ios": "https://dc.lft.to/lastmile_qr_scan"}, "fusion_lon": 0.0}, {"lat": 38.9198255, "is_disabled": 0, "type": "electric_scooter", "lon": -76.97307416666666, "bike_id": "dafc10d2d6fb6ef33fadc5a209c3ca51", "fusion_lat": 0.0, "name": "dafc10d2d6fb6ef33fadc5a209c3ca51", "is_reserved": 0, "rental_uris": {"android": "https://dc.lft.to/lastmile_qr_scan", "ios": "https://dc.lft.to/lastmile_qr_scan"}, "fusion_lon": 0.0}, {"lat": 38.950749, "is_disabled": 0, "type": "electric_scooter", "lon": -77.008746, "bike_id": "1b4d62a8c3f63c14d7d60d9d14d7e4ae", "fusion_lat": 0.0, "name": "1b4d62a8c3f63c14d7d60d9d14d7e4ae", "is_reserved": 0, "rental_uris": {"android": "https://dc.lft.to/lastmile_qr_scan", "ios": "https://dc.lft.to/lastmile_qr_scan"}, "fusion_lon": 0.0}, {"lat": 38.8998195, "is_disabled": 0, "type": "electric_scooter", "lon": -77.0230885, "bike_id": "e334d627861daf2655015a4a91a7ae5e", "fusion_lat": 0.0, "name": "e334d627861daf2655015a4a91a7ae5e", "is_reserved": 0, "rental_uris": {"android": "https://dc.lft.to/lastmile_qr_scan", "ios": "https://dc.lft.to/lastmile_qr_scan"}, "fusion_lon": 0.0}, {"lat": 38.87590266666667, "is_disabled": 0, "type": "electric_scooter", "lon": -77.013145, "bike_id": "508ff5245aad7e132f809f1d6e3853f0", "fusion_lat": 0.0, "name": "508ff5245aad7e132f809f1d6e3853f0", "is_reserved": 0, "rental_uris": {"android": "https://dc.lft.to/lastmile_qr_scan", "ios": "https://dc.lft.to/lastmile_qr_scan"}, "fusion_lon": 0.0}, {"lat": 38.8808155, "is_disabled": 0, "type": "electric_scooter", "lon": -76.98533183333333, "bike_id": "e8c0e8812dda49efbc7206fce8af2ad4", "fusion_lat": 0.0, "name": "e8c0e8812dda49efbc7206fce8af2ad4", "is_reserved": 0, "rental_uris": {"android": "https://dc.lft.to/lastmile_qr_scan", "ios": "https://dc.lft.to/lastmile_qr_scan"}, "fusion_lon": 0.0}, {"lat": 38.9234735, "is_disabled": 0, "type": "electric_scooter", "lon": -77.03372483333334, "bike_id": "36500f10ea0ac0fe441a5a91218e5290", "fusion_lat": 0.0, "name": "36500f10ea0ac0fe441a5a91218e5290", "is_reserved": 0, "rental_uris": {"android": "https://dc.lft.to/lastmile_qr_scan", "ios": "https://dc.lft.to/lastmile_qr_scan"}, "fusion_lon": 0.0}, {"lat": 38.921094833333335, "is_disabled": 0, "type": "electric_scooter", "lon": -77.046957, "bike_id": "afb97de56ec561c9104adbfc4b37516a", "fusion_lat": 0.0, "name": "afb97de56ec561c9104adbfc4b37516a", "is_reserved": 0, "rental_uris": {"android": "https://dc.lft.to/lastmile_qr_scan", "ios": "https://dc.lft.to/lastmile_qr_scan"}, "fusion_lon": 0.0}, {"lat": 38.884919, "is_disabled": 0, "type": "electric_scooter", "lon": -77.007087, "bike_id": "d73ccfacbc90be69ec840debbed7f1e6", "fusion_lat": 0.0, "name": "d73ccfacbc90be69ec840debbed7f1e6", "is_reserved": 0, "rental_uris": {"android": "https://dc.lft.to/lastmile_qr_scan", "ios": "https://dc.lft.to/lastmile_qr_scan"}, "fusion_lon": 0.0}, {"lat": 38.905217, "is_disabled": 0, "type": "electric_scooter", "lon": -77.03437166666667, "bike_id": "55615f0777ee105ab8bf743113a4afc3", "fusion_lat": 0.0, "name": "55615f0777ee105ab8bf743113a4afc3", "is_reserved": 0, "rental_uris": {"android": "https://dc.lft.to/lastmile_qr_scan", "ios": "https://dc.lft.to/lastmile_qr_scan"}, "fusion_lon": 0.0}, {"lat": 38.928232666666666, "is_disabled": 0, "type": "electric_scooter", "lon": -77.02258516666667, "bike_id": "9976db3f07a2cf5a6f8854e164089bad", "fusion_lat": 0.0, "name": "9976db3f07a2cf5a6f8854e164089bad", "is_reserved": 0, "rental_uris": {"android": "https://dc.lft.to/lastmile_qr_scan", "ios": "https://dc.lft.to/lastmile_qr_scan"}, "fusion_lon": 0.0}, {"lat": 38.92255333333333, "is_disabled": 0, "type": "electric_scooter", "lon": -77.0193175, "bike_id": "4c4d363b7f7d5fb94c85f7435ceca795", "fusion_lat": 0.0, "name": "4c4d363b7f7d5fb94c85f7435ceca795", "is_reserved": 0, "rental_uris": {"android": "https://dc.lft.to/lastmile_qr_scan", "ios": "https://dc.lft.to/lastmile_qr_scan"}, "fusion_lon": 0.0}, {"lat": 38.872458, "is_disabled": 0, "type": "electric_scooter", "lon": -76.97728316666667, "bike_id": "6821a78cfb8d8e577195cfe9b86ff944", "fusion_lat": 0.0, "name": "6821a78cfb8d8e577195cfe9b86ff944", "is_reserved": 0, "rental_uris": {"android": "https://dc.lft.to/lastmile_qr_scan", "ios": "https://dc.lft.to/lastmile_qr_scan"}, "fusion_lon": 0.0}, {"lat": 38.9095865, "is_disabled": 0, "type": "electric_scooter", "lon": -77.02679916666666, "bike_id": "115d53824b45b36ab3e5044ed156323e", "fusion_lat": 0.0, "name": "115d53824b45b36ab3e5044ed156323e", "is_reserved": 0, "rental_uris": {"android": "https://dc.lft.to/lastmile_qr_scan", "ios": "https://dc.lft.to/lastmile_qr_scan"}, "fusion_lon": 0.0}, {"lat": 38.94310516666667, "is_disabled": 0, "type": "electric_scooter", "lon": -77.0612305, "bike_id": "7dc8a75e1ce18dd6e95e78e0b88a0b73", "fusion_lat": 0.0, "name": "7dc8a75e1ce18dd6e95e78e0b88a0b73", "is_reserved": 0, "rental_uris": {"android": "https://dc.lft.to/lastmile_qr_scan", "ios": "https://dc.lft.to/lastmile_qr_scan"}, "fusion_lon": 0.0}, {"lat": 38.928431, "is_disabled": 0, "type": "electric_scooter", "lon": -77.0542075, "bike_id": "48860e8fe18881ef30da79f996a55c45", "fusion_lat": 0.0, "name": "48860e8fe18881ef30da79f996a55c45", "is_reserved": 0, "rental_uris": {"android": "https://dc.lft.to/lastmile_qr_scan", "ios": "https://dc.lft.to/lastmile_qr_scan"}, "fusion_lon": 0.0}, {"lat": 38.88644033333333, "is_disabled": 0, "type": "electric_scooter", "lon": -76.95473816666667, "bike_id": "ef2dc03bff894349b8edec4345abbf3c", "fusion_lat": 0.0, "name": "ef2dc03bff894349b8edec4345abbf3c", "is_reserved": 0, "rental_uris": {"android": "https://dc.lft.to/lastmile_qr_scan", "ios": "https://dc.lft.to/lastmile_qr_scan"}, "fusion_lon": 0.0}, {"lat": 38.9322785, "is_disabled": 0, "type": "electric_scooter", "lon": -77.03385766666666, "bike_id": "bdc55434e0b3203d38a5daa7e1d0e707", "fusion_lat": 0.0, "name": "bdc55434e0b3203d38a5daa7e1d0e707", "is_reserved": 0, "rental_uris": {"android": "https://dc.lft.to/lastmile_qr_scan", "ios": "https://dc.lft.to/lastmile_qr_scan"}, "fusion_lon": 0.0}, {"lat": 38.9064185, "is_disabled": 0, "type": "electric_scooter", "lon": -77.01427, "bike_id": "6bcf0eea016142261bccd63d3d218e86", "fusion_lat": 0.0, "name": "6bcf0eea016142261bccd63d3d218e86", "is_reserved": 0, "rental_uris": {"android": "https://dc.lft.to/lastmile_qr_scan", "ios": "https://dc.lft.to/lastmile_qr_scan"}, "fusion_lon": 0.0}, {"lat": 38.9157415, "is_disabled": 0, "type": "electric_scooter", "lon": -77.0501985, "bike_id": "13d50ba671b68a14de66299bdfab4400", "fusion_lat": 0.0, "name": "13d50ba671b68a14de66299bdfab4400", "is_reserved": 0, "rental_uris": {"android": "https://dc.lft.to/lastmile_qr_scan", "ios": "https://dc.lft.to/lastmile_qr_scan"}, "fusion_lon": 0.0},