{"data": {"bikes": [{"fusion_lat": 0.0, "name": "560a4d1bd4ce3ea94052e12c0c1eec9c", "is_disabled": 0, "rental_uris": {"android": "https://dc.lft.to/lastmile_qr_scan", "ios": "https://dc.lft.to/lastmile_qr_scan"}, "fusion_lon": 0.0, "lat": 38.973721833333336, "bike_id": "560a4d1bd4ce3ea94052e12c0c1eec9c", "type": "electric_scooter", "is_reserved": 0, "lon": -77.01283883333333}, {"fusion_lat": 0.0, "name": "5ae32340ad7e0fddb882af10cc72203d", "is_disabled": 0, "rental_uris": {"android": "https://dc.lft.to/lastmile_qr_scan", "ios": "https://dc.lft.to/lastmile_qr_scan"}, "fusion_lon": 0.0, "lat": 38.900869, "bike_id": "5ae32340ad7e0fddb882af10cc72203d", "type": "electric_scooter", "is_reserved": 0, "lon": -77.05069383333333}, {"fusion_lat": 0.0, "name": "9e19f6733f815c36d8321390af83e60b", "is_disabled": 0, "rental_uris": {"android": "https://dc.lft.to/lastmile_qr_scan", "ios": "https://dc.lft.to/lastmile_qr_scan"}, "fusion_lon": 0.0, "lat": 38.938698, "bike_id": "9e19f6733f815c36d8321390af83e60b", "type": "electric_scooter", "is_reserved": 0, "lon": -77.02466083333333}, {"fusion_lat": 0.0, "name": "7ee3aa316ecf6faabb9199c5b6752afe", "is_disabled": 0, "rental_uris": {"android": "https://dc.lft.to/lastmile_qr_scan", "ios": "https://dc.lft.to/lastmile_qr_scan"}, "fusion_lon": 0.0, "lat": 38.935291166666666, "bike_id": "7ee3aa316ecf6faabb9199c5b6752afe", "type": "electric_scooter", "is_reserved": 0, "lon": -77.04511516666666}, {"fusion_lat": 0.0, "name": "20465e076543b4c697d3f77815ba7087", "is_disabled": 0, "rental_uris": {"android": "https://dc.lft.to/lastmile_qr_scan", "ios": "https://dc.lft.to/lastmile_qr_scan"}, "fusion_lon": 0.0, "lat": 38.90728416666666, "bike_id": "20465e076543b4c697d3f77815ba7087", "type": "electric_scooter", "is_reserved": 0, "lon": -77.0095125}, {"fusion_lat": 0.0, "name": "74d23c3080eba66d9485697d19cd1f13", "is_disabled": 0, "rental_uris": {"android": "https://dc.lft.to/lastmile_qr_scan", "ios": "https://dc.lft.to/lastmile_qr_scan"}, "fusion_lon": 0.0, "lat": 38.90974466666667, "bike_id": "74d23c3080eba66d9485697d19cd1f13", "type": "electric_scooter", "is_reserved": 0, "lon": -77.04868966666666}, {"fusion_lat": 0.0, "name": "f1637ba5e623ac307062e714e0c642d9", "is_disabled": 0, "rental_uris": {"android": "https://dc.lft.to/lastmile_qr_scan", "ios": "https://dc.lft.to/lastmile_qr_scan"}, "fusion_lon": 0.0, "lat": 38.920994666666665, "bike_id": "f1637ba5e623ac307062e714e0c642d9", "type": "electric_scooter", "is_reserved": 0, "lon": -77.04696616666666}, {"fusion_lat": 0.0, "name": "c84091a8d4ddbb950cb0bc737b9671eb", "is_disabled": 0, "rental_uris": {"android": "https://dc.lft.to/lastmile_qr_scan", "ios": "https://dc.lft.to/lastmile_qr_scan"}, "fusion_lon": 0.0, "lat": 38.883244166666664, "bike_id": "c84091a8d4ddbb950cb0bc737b9671eb", "type": "electric_scooter", "is_reserved": 0, "lon": -77.01460883333333}, {"fusion_lat": 0.0, "name": "1c4c2785d2431f6214a401899b8d9db4", "is_disabled": 0, "rental_uris": {"android": "https://dc.lft.to/lastmile_qr_scan", "ios": "https://dc.lft.to/lastmile_qr_scan"}, "fusion_lon": 0.0, "lat": 38.90930483333333, "bike_id": "1c4c2785d2431f6214a401899b8d9db4", "type": "electric_scooter", "is_reserved": 0, "lon": -77.0624975}, {"fusion_lat": 0.0, "name": "7f8e007453b52fb3e8eeb24c6d3f9d8f", "is_disabled": 0, "rental_uris": {"android": "https://dc.lft.to/lastmile_qr_scan", "ios": "https://dc.lft.to/lastmile_qr_scan"}, "fusion_lon": 0.0, "lat": 38.9377645, "bike_id": "7f8e007453b52fb3e8eeb24c6d3f9d8f", "type": "electric_scooter", "is_reserved": 0, "lon": -77.03255833333333}, {"fusion_lat": 0.0, "name": "f9069a0e4610d16a1f6389c9f072d6d0", "is_disabled": 0, "rental_uris": {"android": "https://dc.lft.to/lastmile_qr_scan", "ios": "https://dc.lft.to/lastmile_qr_scan"}, "fusion_lon": 0.0, "lat": 38.9259235, "bike_id": "f9069a0e4610d16a1f6389c9f072d6d0", "type": "electric_scooter", "is_reserved": 0, "lon": -77.0246985}, {"fusion_lat": 0.0, "name": "1fdc457ac8528891c3ac8570620ad1db", "is_disabled": 0, "rental_uris": {"android": "https://dc.lft.to/lastmile_qr_scan", "ios": "https://dc.lft.to/lastmile_qr_scan"}, "fusion_lon": 0.0, "lat": 38.903492166666666, "bike_id": "1fdc457ac8528891c3ac8570620ad1db", "type": "electric_scooter", "is_reserved": 0, "lon": -76.974707}, {"fusion_lat": 0.0, "name": "0f0cc4dcf28380498af84cd2d8f231f5", "is_disabled": 0, "rental_uris": {"android": "https://dc.lft.to/lastmile_qr_scan", "ios": "https://dc.lft.to/lastmile_qr_scan"}, "fusion_lon": 0.0, "lat": 38.90609383333334, "bike_id": "0f0cc4dcf28380498af84cd2d8f231f5", "type": "electric_scooter", "is_reserved": 0, "lon": -77.04127633333333}, {"fusion_lat": 0.0, "name": "83f936135bbbeb43327db463667f92c0", "is_disabled": 0, "rental_uris": {"android": "https://dc.lft.to/lastmile_qr_scan", "ios": "https://dc.lft.to/lastmile_qr_scan"}, "fusion_lon": 0.0, "lat": 38.9047425, "bike_id": "83f936135bbbeb43327db463667f92c0", "type": "electric_scooter", "is_reserved": 0, "lon": -77.03546}, {"fusion_lat": 0.0, "name": "644ff5725df102e08ba279c6b0eb941e", "is_disabled": 0, "rental_uris": {"android": "https://dc.lft.to/lastmile_qr_scan", "ios": "https://dc.lft.to/lastmile_qr_scan"}, "fusion_lon": 0.0, "lat": 38.934627666666664, "bike_id": "644ff5725df102e08ba279c6b0eb941e", "type": "electric_scooter", "is_reserved": 0, "lon": -77.0340075}, {"fusion_lat": 0.0, "name": "ff1ba0d63abddd95d76dce5c564efd3b", "is_disabled": 0, "rental_uris": {"android": "https://dc.lft.to/lastmile_qr_scan", "ios": "https://dc.lft.to/lastmile_qr_scan"}, "fusion_lon": 0.0, "lat": 38.90580333333333, "bike_id": "ff1ba0d63abddd95d76dce5c564efd3b", "type": "electric_scooter", "is_reserved": 0, "lon": -77.02969166666666}, {"fusion_lat": 0.0, "name": "ce89f623ef2bed7ac3c61db6e4fc895d", "is_disabled": 0, "rental_uris": {"android": "https://dc.lft.to/lastmile_qr_scan", "ios": "https://dc.lft.to/lastmile_qr_scan"}, "fusion_lon": 0.0, "lat": 38.90460916666667, "bike_id": "ce89f623ef2bed7ac3c61db6e4fc895d", "type": "electric_scooter", "is_reserved": 0, "lon": -77.033566}, {"fusion_lat": 0.0, "name": "ace9e5521ef225f4a8b1e38e52d62a14", "is_disabled": 0, "rental_uris": {"android": "https://dc.lft.to/lastmile_qr_scan", "ios": "https://dc.lft.to/lastmile_qr_scan"}, "fusion_lon": 0.0, "lat": 38.91255116666667, "bike_id": "ace9e5521ef225f4a8b1e38e52d62a14", "type": "electric_scooter", "is_reserved": 0, "lon": -77.04912883333333}, {"fusion_lat": 0.0, "name": "c6716e6044c39d6b0b84fa951b7f7db7", "is_disabled": 0, "rental_uris": {"android": "https://dc.lft.to/lastmile_qr_scan", "ios": "https://dc.lft.to/lastmile_qr_scan"}, "fusion_lon": 0.0, "lat": 38.91361033333333, "bike_id": "c6716e6044c39d6b0b84fa951b7f7db7", "type": "electric_scooter", "is_reserved": 0, "lon": -77.04869466666666}, {"fusion_lat": 0.0, "name": "be4b7b7b6fcfb543ac416284819aa605", "is_disabled": 0, "rental_uris": {"android": "https://dc.lft.to/lastmile_qr_scan", "ios": "https://dc.lft.to/lastmile_qr_scan"}, "fusion_lon": 0.0, "lat": 38.9043285, "bike_id": "be4b7b7b6fcfb543ac416284819aa605", "type": "electric_scooter", "is_reserved": 0, "lon": -77.032097}, {"fusion_lat": 0.0, "name": "ce6a3e6a5c07e4e1e78797aa1c6122ca", "is_disabled": 0, "rental_uris": {"android": "https://dc.lft.to/lastmile_qr_scan", "ios": "https://dc.lft.to/lastmile_qr_scan"}, "fusion_lon": 0.0, "lat": 38.9239895, "bike_id": "ce6a3e6a5c07e4e1e78797aa1c6122ca", "type": "electric_scooter", "is_reserved": 0, "lon": -77.02412016666666}, {"fusion_lat": 0.0, "name": "812686dc297f3abb6030fa6ac0fdeced", "is_disabled": 0, "rental_uris": {"android": "https://dc.lft.to/lastmile_qr_scan", "ios": "https://dc.lft.to/lastmile_qr_scan"}, "fusion_lon": 0.0, "lat": 38.92973633333333, "bike_id": "812686dc297f3abb6030fa6ac0fdeced", "type": "electric_scooter", "is_reserved": 0, "lon": -77.0279535}, {"fusion_lat": 0.0, "name": "b9f650e06c44611111884e6be2daabeb", "is_disabled": 0, "rental_uris": {"android": "https://dc.lft.to/lastmile_qr_scan", "ios": "https://dc.lft.to/lastmile_qr_scan"}, "fusion_lon": 0.0, "lat": 38.90698233333333, "bike_id": "b9f650e06c44611111884e6be2daabeb", "type": "electric_scooter", "is_reserved": 0, "lon": -77.03102}, {"fusion_lat": 0.0, "name": "70aa718374357d323c4f0bf26e736c90", "is_disabled": 0, "rental_uris": {"android": "https://dc.lft.to/lastmile_qr_scan", "ios": "https://dc.lft.to/lastmile_qr_scan"}, "fusion_lon": 0.0, "lat": 38.919911166666665, "bike_id": "70aa718374357d323c4f0bf26e736c90", "type": "electric_scooter", "is_reserved": 0, "lon": -77.017899}, {"fusion_lat": 0.0, "name": "5554f32753fb6dd71256dfb00604d0f3", "is_disabled": 0, "rental_uris": {"android": "https://dc.lft.to/lastmile_qr_scan", "ios": "https://dc.lft.to/lastmile_qr_scan"}, "fusion_lon": 0.0, "lat": 38.9057575, "bike_id": "5554f32753fb6dd71256dfb00604d0f3", "type": "electric_scooter", "is_reserved": 0, "lon": -77.04385466666666}, {"fusion_lat": 0.0, "name": "8632db945a702d06a8775802ecd61044", "is_disabled": 0, "rental_uris": {"android": "https://dc.lft.to/lastmile_qr_scan", "ios": "https://dc.lft.to/lastmile_qr_scan"}, "fusion_lon": 0.0, "lat": 38.912651333333336, "bike_id": "8632db945a702d06a8775802ecd61044", "type": "electric_scooter", "is_reserved": 0, "lon": -77.03341283333333}, {"fusion_lat": 0.0, "name": "e199c8566284cadbdf712b5c028b5e6d", "is_disabled": 0, "rental_uris": {"android": "https://dc.lft.to/lastmile_qr_scan", "ios": "https://dc.lft.to/lastmile_qr_scan"}, "fusion_lon": 0.0, "lat": 38.906809833333334, "bike_id": "e199c8566284cadbdf712b5c028b5e6d", "type": "electric_scooter", "is_reserved": 0, "lon": -77.070154}, {"fusion_lat": 0.0, "name": "6039ffdc093174501a922f8e82262de1", "is_disabled": 0, "rental_uris": {"android": "https://dc.lft.to/lastmile_qr_scan", "ios": "https://dc.lft.to/lastmile_qr_scan"}, "fusion_lon": 0.0, "lat": 38.88724166666667, "bike_id": "6039ffdc093174501a922f8e82262de1", "type": "electric_scooter", "is_reserved": 0, "lon": -76.98355383333333}, {"fusion_lat": 0.0, "name": "d47fd0b2bd4e8e9b1d3bfb2eea0ae8c4", "is_disabled": 0, "rental_uris": {"android": "https://dc.lft.to/lastmile_qr_scan", "ios": "https://dc.lft.to/lastmile_qr_scan"}, "fusion_lon": 0.0, "lat": 38.885194166666665, "bike_id": "d47fd0b2bd4e8e9b1d3bfb2eea0ae8c4", "type": "electric_scooter", "is_reserved": 0, "lon": -77.01504583333333}, {"fusion_lat": 0.0, "name": "09c45c7abe716bb6cfe346f6477ed10e", "is_disabled": 0, "rental_uris": {"android": "https://dc.lft.to/lastmile_qr_scan", "ios": "https://dc.lft.to/lastmile_qr_scan"}, "fusion_lon": 0.0, "lat": 38.8972115, "bike_id": "09c45c7abe716bb6cfe346f6477ed10e", "type": "electric_scooter", "is_reserved": 0, "lon": -77.03327566666667}, {"fusion_lat": 0.0, "name": "1ef4aa66237f6451e303ee8c79329605", "is_disabled": 0, "rental_uris": {"android": "https://dc.lft.to/lastmile_qr_scan", "ios": "https://dc.lft.to/lastmile_qr_scan"}, "fusion_lon": 0.0, "lat": 38.942273, "bike_id": "1ef4aa66237f6451e303ee8c79329605", "type": "electric_scooter", "is_reserved": 0, "lon": -77.013835}, {"fusion_lat": 0.0, "name": "194763c00207d34940bf70ce5986f721", "is_disabled": 0, "rental_uris": {"android": "https://dc.lft.to/lastmile_qr_scan", "ios": "https://dc.lft.to/lastmile_qr_scan"}, "fusion_lon": 0.0, "lat": 38.89968316666667, "bike_id": "194763c00207d34940bf70ce5986f721", "type": "electric_scooter", "is_reserved": 0, "lon": -76.987046}, {"fusion_lat": 0.0, "name": "8389686662795c596e72cd0228bf5906", "is_disabled": 0, "rental_uris": {"android": "https://dc.lft.to/lastmile_qr_scan", "ios": "https://dc.lft.to/lastmile_qr_scan"}, "fusion_lon": 0.0, "lat": 38.920774333333334, "bike_id": "8389686662795c596e72cd0228bf5906", "type": "electric_bike", "is_reserved": 0, "lon": -76.9894405}, {"fusion_lat": 0.0, "name": "55a2dc65bb8de24924b860c0b18a2d7b", "is_disabled": 0, "rental_uris": {"android": "https://dc.lft.to/lastmile_qr_scan", "ios": "https://dc.lft.to/lastmile_qr_scan"}, "fusion_lon": 0.0, "lat": 38.92449233333333, "bike_id": "55a2dc65bb8de24924b860c0b18a2d7b", "type": "electric_scooter", "is_reserved": 0, "lon": -77.04024216666667}, {"fusion_lat": 0.0, "name": "f530a396f80c7b2cb63f4b3f4962940c", "is_disabled": 0, "rental_uris": {"android": "https://dc.lft.to/lastmile_qr_scan", "ios": "https://dc.lft.to/lastmile_qr_scan"}, "fusion_lon": 0.0, "lat": 38.9364575, "bike_id": "f530a396f80c7b2cb63f4b3f4962940c", "type": "electric_scooter", "is_reserved": 0, "lon": -77.03053183333333}, {"fusion_lat": 0.0, "name": "c4809b0804b67668483f73dc235dd668", "is_disabled": 0, "rental_uris": {"android": "https://dc.lft.to/lastmile_qr_scan", "ios": "https://dc.lft.to/lastmile_qr_scan"}, "fusion_lon": 0.0, "lat": 38.9176425, "bike_id": "c4809b0804b67668483f73dc235dd668", "type": "electric_scooter", "is_reserved": 0, "lon": -77.01496333333333}, {"fusion_lat": 0.0, "name": "1c4795486077abe878f80d793c3b1e6a", "is_disabled": 0, "rental_uris": {"android": "https://dc.lft.to/lastmile_qr_scan", "ios": "https://dc.lft.to/lastmile_qr_scan"}, "fusion_lon": 0.0, "lat": 38.900129166666666, "bike_id": "1c4795486077abe878f80d793c3b1e6a", "type": "electric_scooter", "is_reserved": 0, "lon": -77.0124685}, {"fusion_lat": 0.0, "name": "39c3231f67cd808051b828d50b933c84", "is_disabled": 0, "rental_uris": {"android": "https://dc.lft.to/lastmile_qr_scan", "ios": "https://dc.lft.to/lastmile_qr_scan"}, "fusion_lon": 0.0, "lat": 38.89331933333333, "bike_id": "39c3231f67cd808051b828d50b933c84", "type": "electric_scooter", "is_reserved": 0, "lon": -77.02245266666667}, {"fusion_lat": 0.0, "name": "7f663a0c62361d0353089b3f9e289665", "is_disabled": 0, "rental_uris": {"android": "https://dc.lft.to/lastmile_qr_scan", "ios": "https://dc.lft.to/lastmile_qr_scan"}, "fusion_lon": 0.0, "lat": 38.879758, "bike_id": "7f663a0c62361d0353089b3f9e289665", "type": "electric_bike", "is_reserved": 0, "lon": -77.17838166666667}, {"fusion_lat": 0.0, "name": "810727ecb22163702982cb5447f9aa83", "is_disabled": 0, "rental_uris": {"android": "https://dc.lft.to/lastmile_qr_scan", "ios": "https://dc.lft.to/lastmile_qr_scan"}, "fusion_lon": 0.0, "lat": 38.866269833333334, "bike_id": "810727ecb22163702982cb5447f9aa83", "type": "electric_scooter", "is_reserved": 0, "lon": -76.98713416666666}, {"fusion_lat": 0.0, "name": "3e6acbd112ff792826180e36eb53cb09", "is_disabled": 0, "rental_uris": {"android": "https://dc.lft.to/lastmile_qr_scan", "ios": "https://dc.lft.to/lastmile_qr_scan"}, "fusion_lon": 0.0, "lat": 38.91005766666667, "bike_id": "3e6acbd112ff792826180e36eb53cb09", "type": "electric_scooter", "is_reserved": 0, "lon": -77.07355266666667}, {"fusion_lat": 0.0, "name": "8b6eb2f6fe6158944884a4cd50a4cd70", "is_disabled": 0, "rental_uris": {"android": "https://dc.lft.to/lastmile_qr_scan", "ios": "https://dc.lft.to/lastmile_qr_scan"}, "fusion_lon": 0.0, "lat": 38.91689733333333, "bike_id": "8b6eb2f6fe6158944884a4cd50a4cd70", "type": "electric_scooter", "is_reserved": 0, "lon": -77.03728633333333}, {"fusion_lat": 0.0, "name": "9b24d542a4af2cd533481612817eba20", "is_disabled": 0, "rental_uris": {"android": "https://dc.lft.to/lastmile_qr_scan", "ios": "https://dc.lft.to/lastmile_qr_scan"}, "fusion_lon": 0.0, "lat": 38.95474, "bike_id": "9b24d542a4af2cd533481612817eba20", "type": "electric_scooter", "is_reserved": 0, "lon": -77.07774766666667}, {"fusion_lat": 0.0, "name": "b7ab8f4e5cd98d09f654b7664e202269", "is_disabled": 0, "rental_uris": {"android": "https://dc.lft.to/lastmile_qr_scan", "ios": "https://dc.lft.to/lastmile_qr_scan"}, "fusion_lon": 0.0, "lat": 38.95111083333333, "bike_id": "b7ab8f4e5cd98d09f654b7664e202269", "type": "electric_scooter", "is_reserved": 0, "lon": -77.0585985}, {"fusion_lat": 0.0, "name": "70258e6692038e07ecb8b7c561562982", "is_disabled": 0, "rental_uris": {"android": "https://dc.lft.to/lastmile_qr_scan", "ios": "https://dc.lft.to/lastmile_qr_scan"}, "fusion_lon": 0.0, "lat": 38.9085495, "bike_id": "70258e6692038e07ecb8b7c561562982", "type": "electric_scooter", "is_reserved": 0, "lon": -77.0271995}, {"fusion_lat": 0.0, "name": "5a53a8ab5213d18efc6f1d0ac2b82c45", "is_disabled": 0, "rental_uris": {"android": "https://dc.lft.to/lastmile_qr_scan", "ios": "https://dc.lft.to/lastmile_qr_scan"}, "fusion_lon": 0.0, "lat": 38.932378166666666, "bike_id": "5a53a8ab5213d18efc6f1d0ac2b82c45", "type": "electric_bike", "is_reserved": 0, "lon": -76.97423}, {"fusion_lat": 0.0, "name": "82966b0375082a643b75d06d7def0d67", "is_disabled": 0, "rental_uris": {"android": "https://dc.lft.to/lastmile_qr_scan", "ios": "https://dc.lft.to/lastmile_qr_scan"}, "fusion_lon": 0.0, "lat": 38.87457366666667, "bike_id": "82966b0375082a643b75d06d7def0d67", "type": "electric_bike", "is_reserved": 0, "lon": -76.99947666666667}, {"fusion_lat": 0.0, "name": "2c29db9b66c9f4ba1d8a339f61d1f834", "is_disabled": 0, "rental_uris": {"android": "https://dc.lft.to/lastmile_qr_scan", "ios": "https://dc.lft.to/lastmile_qr_scan"}, "fusion_lon": 0.0, "lat": 38.914714833333335, "bike_id": "2c29db9b66c9f4ba1d8a339f61d1f834", "type": "electric_scooter", "is_reserved": 0, "lon": -77.03893383333333}, {"fusion_lat": 0.0, "name": "d4a480514a5716f1c98d673b844671aa", "is_disabled": 0, "rental_uris": {"android": "https://dc.lft.to/lastmile_qr_scan", "ios": "https://dc.lft.to/lastmile_qr_scan"}, "fusion_lon": 0.0, "lat": 38.87384266666667, "bike_id": "d4a480514a5716f1c98d673b844671aa", "type": "electric_scooter", "is_reserved": 0, "lon": -77.001647}, {"fusion_lat": 0.0, "name": "c5e89745a3019ea838239cdbd2f81bea", "is_disabled": 0, "rental_uris": {"android": "https://dc.lft.to/lastmile_qr_scan", "ios": "https://dc.lft.to/lastmile_qr_scan"}, "fusion_lon": 0.0, "lat": 38.898307, "bike_id": "c5e89745a3019ea838239cdbd2f81bea", "type": "electric_scooter", "is_reserved": 0, "lon": -77.02611166666667}, {"fusion_lat": 0.0, "name": "bbbecd55fb205b59fdc2799825b38c59", "is_disabled": 0, "rental_uris": {"android": "https://dc.lft.to/lastmile_qr_scan", "ios": "https://dc.lft.to/lastmile_qr_scan"}, "fusion_lon": 0.0, "lat": 38.92102166666667, "bike_id": "bbbecd55fb205b59fdc2799825b38c59", "type": "electric_scooter", "is_reserved": 0, "lon": -77.07473033333333}, {"fusion_lat": 0.0, "name": "41217d939b9707bdac39b6c3068c8b66", "is_disabled": 0, "rental_uris": {"android": "https://dc.lft.to/lastmile_qr_scan", "ios": "https://dc.lft.to/lastmile_qr_scan"}, "fusion_lon": 0.0, "lat": 38.91931116666667, "bike_id": "41217d939b9707bdac39b6c3068c8b66", "type": "electric_scooter", "is_reserved": 0, "lon": -77.04502833333333}, {"fusion_lat": 0.0, "name": "e3a68eac894d153af778a9f8d97dbac0", "is_disabled": 0, "rental_uris": {"android": "https://dc.lft.to/lastmile_qr_scan", "ios": "https://dc.lft.to/lastmile_qr_scan"}, "fusion_lon": 0.0, "lat": 38.922581666666666, "bike_id": "e3a68eac894d153af778a9f8d97dbac0", "type": "electric_scooter", "is_reserved": 0, "lon": -77.01841983333334}, {"fusion_lat": 0.0, "name": "291aa0462f9d5b12289de6d3462c5bd0", "is_disabled": 0, "rental_uris": {"android": "https://dc.lft.to/lastmile_qr_scan", "ios": "https://dc.lft.to/lastmile_qr_scan"}, "fusion_lon": 0.0, "lat": 38.898766, "bike_id": "291aa0462f9d5b12289de6d3462c5bd0", "type": "electric_scooter", "is_reserved": 0, "lon": -77.02043483333334}, {"fusion_lat": 0.0, "name": "86439ffc5df7bdbe8d9f42322b210803", "is_disabled": 0, "rental_uris": {"android": "https://dc.lft.to/lastmile_qr_scan", "ios": "https://dc.lft.to/lastmile_qr_scan"}, "fusion_lon": 0.0, "lat": 38.91503816666667, "bike_id": "86439ffc5df7bdbe8d9f42322b210803", "type": "electric_scooter", "is_reserved": 0, "lon": -77.0091205}, {"fusion_lat": 0.0, "name": "06812976d69bafea6632246c0687ef0a", "is_disabled": 0, "rental_uris": {"android": "https://dc.lft.to/lastmile_qr_scan", "ios": "https://dc.lft.to/lastmile_qr_scan"}, "fusion_lon": 0.0, "lat": 38.8995855, "bike_id": "06812976d69bafea6632246c0687ef0a", "type": "electric_scooter", "is_reserved": 0, "lon": -77.0039055}, {"fusion_lat": 0.0, "name": "097f42570dc7a4c35132f3b36a08cfe1", "is_disabled": 0, "rental_uris": {"android": "https://dc.lft.to/lastmile_qr_scan", "ios": "https://dc.lft.to/lastmile_qr_scan"}, "fusion_lon": 0.0, "lat": 38.92873916666667, "bike_id": "097f42570dc7a4c35132f3b36a08cfe1", "type": "electric_scooter", "is_reserved": 0, "lon": -77.03480866666666}, {"fusion_lat": 0.0, "name": "08c8589a0aea5f3cc5290cb074dbfa7e", "is_disabled": 0, "rental_uris": {"android": "https://dc.lft.to/lastmile_qr_scan", "ios": "https://dc.lft.to/lastmile_qr_scan"}, "fusion_lon": 0.0, "lat": 38.91015983333333, "bike_id": "08c8589a0aea5f3cc5290cb074dbfa7e", "type": "electric_scooter", "is_reserved": 0, "lon": -77.03850633333333}, {"fusion_lat": 0.0, "name": "17414ace7f513535cffbd6b095ec165f", "is_disabled": 0, "rental_uris": {"android": "https://dc.lft.to/lastmile_qr_scan", "ios": "https://dc.lft.to/lastmile_qr_scan"}, "fusion_lon": 0.0, "lat": 38.83236933333333, "bike_id": "17414ace7f513535cffbd6b095ec165f", "type": "electric_bike", "is_reserved": 0, "lon": -76.9462335}, {"fusion_lat": 0.0, "name": "2ae0a704f7708519a05b1e20c620dded", "is_disabled": 0, "rental_uris": {"android": "https://dc.lft.to/lastmile_qr_scan", "ios": "https://dc.lft.to/lastmile_qr_scan"}, "fusion_lon": 0.0, "lat": 38.93198683333333, "bike_id": "2ae0a704f7708519a05b1e20c620dded", "type": "electric_scooter", "is_reserved": 0, "lon": -77.0430125}, {"fusion_lat": 0.0, "name": "2afdf41518758ff8cebb33d0fbcfd128", "is_disabled": 0, "rental_uris": {"android": "https://dc.lft.to/lastmile_qr_scan", "ios": "https://dc.lft.to/lastmile_qr_scan"}, "fusion_lon": 0.0, "lat": 38.92439366666667, "bike_id": "2afdf41518758ff8cebb33d0fbcfd128", "type": "electric_scooter", "is_reserved": 0, "lon": -77.00067466666667}, {"fusion_lat": 0.0, "name": "072cc3f8dde1f12a024bb6a335cac930", "is_disabled": 0, "rental_uris": {"android": "https://dc.lft.to/lastmile_qr_scan", "ios": "https://dc.lft.to/lastmile_qr_scan"}, "fusion_lon": 0.0, "lat": 38.884426500000004, "bike_id": "072cc3f8dde1f12a024bb6a335cac930", "type": "electric_scooter", "is_reserved": 0, "lon": -77.0246725}, {"fusion_lat": 0.0, "name": "ed256bb70c88a493a9ec992789b8d62b", "is_disabled": 0, "rental_uris": {"android": "https://dc.lft.to/lastmile_qr_scan", "ios": "https://dc.lft.to/lastmile_qr_scan"}, "fusion_lon": 0.0, "lat": 38.88722633333333, "bike_id": "ed256bb70c88a493a9ec992789b8d62b", "type": "electric_scooter", "is_reserved": 0, "lon": -76.98352833333334}, {"fusion_lat": 0.0, "name": "237e060226173e6873444b8aba0225c3", "is_disabled": 0, "rental_uris": {"android": "https://dc.lft.to/lastmile_qr_scan", "ios": "https://dc.lft.to/lastmile_qr_scan"}, "fusion_lon": 0.0, "lat": 38.905504, "bike_id": "237e060226173e6873444b8aba0225c3", "type": "electric_scooter", "is_reserved": 0, "lon": -77.06260733333333}, {"fusion_lat": 0.0, "name": "c9f58d0403eb21d3917ca440258fa9da", "is_disabled": 0, "rental_uris": {"android": "https://dc.lft.to/lastmile_qr_scan", "ios": "https://dc.lft.to/lastmile_qr_scan"}, "fusion_lon": 0.0, "lat": 38.8413725, "bike_id": "c9f58d0403eb21d3917ca440258fa9da", "type": "electric_bike", "is_reserved": 0, "lon": -76.94760133333334}, {"fusion_lat": 0.0, "name": "e6dbb3e82a5d47cc7c8fbbf20a52a8c2", "is_disabled": 0, "rental_uris": {"android": "https://dc.lft.to/lastmile_qr_scan", "ios": "https://dc.lft.to/lastmile_qr_scan"}, "fusion_lon": 0.0, "lat": 38.92253383333333, "bike_id": "e6dbb3e82a5d47cc7c8fbbf20a52a8c2", "type": "electric_scooter", "is_reserved": 0, "lon": -77.05081733333333}, {"fusion_lat": 0.0, "name": "70fd7d3623fc6f99d96fb6923d460c98", "is_disabled": 0, "rental_uris": {"android": "https://dc.lft.to/lastmile_qr_scan", "ios": "https://dc.lft.to/lastmile_qr_scan"}, "fusion_lon": 0.0, "lat": 38.876361833333334, "bike_id": "70fd7d3623fc6f99d96fb6923d460c98", "type": "electric_scooter", "is_reserved": 0, "lon": -77.00908716666666}, {"fusion_lat": 0.0, "name": "2a604455b14f5dd7e6df3523fd69d137", "is_disabled": 0, "rental_uris": {"android": "https://dc.lft.to/lastmile_qr_scan", "ios": "https://dc.lft.to/lastmile_qr_scan"}, "fusion_lon": 0.0, "lat": 38.925383333333336, "bike_id": "2a604455b14f5dd7e6df3523fd69d137", "type": "electric_scooter", "is_reserved": 0, "lon": -77.05119266666667}, {"fusion_lat": 0.0, "name": "29a393f1b886c77dcdaf47dd046cbdda", "is_disabled": 0, "rental_uris": {"android": "https://dc.lft.to/lastmile_qr_scan", "ios": "https://dc.lft.to/lastmile_qr_scan"}, "fusion_lon": 0.0, "lat": 38.88758083333333, "bike_id": "29a393f1b886c77dcdaf47dd046cbdda", "type": "electric_scooter", "is_reserved": 0, "lon": -77.0025415}, {"fusion_lat": 0.0, "name": "670ca9339857d59357cce8bd919eea1c", "is_disabled": 0, "rental_uris": {"android": "https://dc.lft.to/lastmile_qr_scan", "ios": "https://dc.lft.to/lastmile_qr_scan"}, "fusion_lon": 0.0, "lat": 38.92902433333333, "bike_id": "670ca9339857d59357cce8bd919eea1c", "type": "electric_scooter", "is_reserved": 0, "lon": -77.0545035}, {"fusion_lat": 0.0, "name": "c83d633a303dd62e2774ade412efb72b", "is_disabled": 0, "rental_uris": {"android": "https://dc.lft.to/lastmile_qr_scan", "ios": "https://dc.lft.to/lastmile_qr_scan"}, "fusion_lon": 0.0, "lat": 38.90413216666666, "bike_id": "c83d633a303dd62e2774ade412efb72b", "type": "electric_scooter", "is_reserved": 0, "lon": -77.04341933333333}, {"fusion_lat": 0.0, "name": "7a58016d4db6601752bc74ed99cd0c21", "is_disabled": 0, "rental_uris": {"android": "https://dc.lft.to/lastmile_qr_scan", "ios": "https://dc.lft.to/lastmile_qr_scan"}, "fusion_lon": 0.0, "lat": 38.9194855, "bike_id": "7a58016d4db6601752bc74ed99cd0c21", "type": "electric_scooter", "is_reserved": 0, "lon": -77.02371516666666}, {"fusion_lat": 0.0, "name": "a956e27d2298ddd8eecd9d7ca1a717d3", "is_disabled": 0, "rental_uris": {"android": "https://dc.lft.to/lastmile_qr_scan", "ios": "https://dc.lft.to/lastmile_qr_scan"}, "fusion_lon": 0.0, "lat": 38.92454566666667, "bike_id": "a956e27d2298ddd8eecd9d7ca1a717d3", "type": "electric_bike", "is_reserved": 0, "lon": -77.00211566666667}, {"fusion_lat": 0.0, "name": "3228f7f0f56bedb1605763268e5a7190", "is_disabled": 0, "rental_uris": {"android": "https://dc.lft.to/lastmile_qr_scan", "ios": "https://dc.lft.to/lastmile_qr_scan"}, "fusion_lon": 0.0, "lat": 38.96225783333333, "bike_id": "3228f7f0f56bedb1605763268e5a7190", "type": "electric_bike", "is_reserved": 0, "lon": -77.0262485}, {"fusion_lat": 0.0, "name": "b77ebeb9f575b08a1feb69fc5ae09e9f", "is_disabled": 0, "rental_uris": {"android": "https://dc.lft.to/lastmile_qr_scan", "ios": "https://dc.lft.to/lastmile_qr_scan"}, "fusion_lon": 0.0, "lat": 38.9250625, "bike_id": "b77ebeb9f575b08a1feb69fc5ae09e9f", "type": "electric_scooter", "is_reserved": 0, "lon": -77.023287}, {"fusion_lat": 0.0, "name": "d94fe1a8a7f4cc1867d43e23d2df59d0", "is_disabled": 0, "rental_uris": {"android": "https://dc.lft.to/lastmile_qr_scan", "ios": "https://dc.lft.to/lastmile_qr_scan"}, "fusion_lon": 0.0, "lat": 38.94615366666667, "bike_id": "d94fe1a8a7f4cc1867d43e23d2df59d0", "type": "electric_scooter", "is_reserved": 0, "lon": -77.08014833333333}, {"fusion_lat": 0.0, "name": "1d7b8414009f0d42827468329707e59c", "is_disabled": 0, "rental_uris": {"android": "https://dc.lft.to/lastmile_qr_scan", "ios": "https://dc.lft.to/lastmile_qr_scan"}, "fusion_lon": 0.0, "lat": 38.94113466666667, "bike_id": "1d7b8414009f0d42827468329707e59c", "type": "electric_scooter", "is_reserved": 0, "lon": -77.0254205}, {"fusion_lat": 0.0, "name": "eb5b5f8c19b30ea03d61fa72d773236f", "is_disabled": 0, "rental_uris": {"android": "https://dc.lft.to/lastmile_qr_scan", "ios": "https://dc.lft.to/lastmile_qr_scan"}, "fusion_lon": 0.0, "lat": 38.958837333333335, "bike_id": "eb5b5f8c19b30ea03d61fa72d773236f", "type": "electric_bike", "is_reserved": 0, "lon": -76.92480566666667}, {"fusion_lat": 0.0, "name": "59ffe74f02c97b0dfa446366da19f868", "is_disabled": 0, "rental_uris": {"android": "https://dc.lft.to/lastmile_qr_scan", "ios": "https://dc.lft.to/lastmile_qr_scan"}, "fusion_lon": 0.0, "lat": 38.925410166666666, "bike_id": "59ffe74f02c97b0dfa446366da19f868", "type": "electric_scooter", "is_reserved": 0, "lon": -77.05113666666666}, {"fusion_lat": 0.0, "name": "9bc9dfce97556598a1858dca1ab38427", "is_disabled": 0, "rental_uris": {"android": "https://dc.lft.to/lastmile_qr_scan", "ios": "https://dc.lft.to/lastmile_qr_scan"}, "fusion_lon": 0.0, "lat": 38.84351783333334, "bike_id": "9bc9dfce97556598a1858dca1ab38427", "type": "electric_bike", "is_reserved": 0, "lon": -76.97814966666667}, {"fusion_lat": 0.0, "name": "dad92836b95b7b325fbedcc582ef6c42", "is_disabled": 0, "rental_uris": {"android": "https://dc.lft.to/lastmile_qr_scan", "ios": "https://dc.lft.to/lastmile_qr_scan"}, "fusion_lon": 0.0, "lat": 38.88360633333333, "bike_id": "dad92836b95b7b325fbedcc582ef6c42", "type": "electric_scooter", "is_reserved": 0, "lon": -76.9415475}, {"fusion_lat": 0.0, "name": "96c0aedd67b7b1fd6e5a8c0453488d0e", "is_disabled": 0, "rental_uris": {"android": "https://dc.lft.to/lastmile_qr_scan", "ios": "https://dc.lft.to/lastmile_qr_scan"}, "fusion_lon": 0.0, "lat": 38.926529333333335, "bike_id": "96c0aedd67b7b1fd6e5a8c0453488d0e", "type": "electric_scooter", "is_reserved": 0, "lon": -77.05342116666667}, {"fusion_lat": 0.0, "name": "4345b5ef2c30e564864c6997679c3dec", "is_disabled": 0, "rental_uris": {"android": "https://dc.lft.to/lastmile_qr_scan", "ios": "https://dc.lft.to/lastmile_qr_scan"}, "fusion_lon": 0.0, "lat": 38.87699533333333, "bike_id": "4345b5ef2c30e564864c6997679c3dec", "type": "electric_scooter", "is_reserved": 0, "lon": -77.00341916666666}, {"fusion_lat": 0.0, "name": "9af61a972ff6f22cbaffa69170717866", "is_disabled": 0, "rental_uris": {"android": "https://dc.lft.to/lastmile_qr_scan", "ios": "https://dc.lft.to/lastmile_qr_scan"}, "fusion_lon": 0.0, "lat": 38.92886516666667, "bike_id": "9af61a972ff6f22cbaffa69170717866", "type": "electric_scooter", "is_reserved": 0, "lon": -77.04212116666666}, {"fusion_lat": 0.0, "name": "5c5717d4eb7f3144e06956139981cf90", "is_disabled": 0, "rental_uris": {"android": "https://dc.lft.to/lastmile_qr_scan", "ios": "https://dc.lft.to/lastmile_qr_scan"}, "fusion_lon": 0.0, "lat": 38.912969, "bike_id": "5c5717d4eb7f3144e06956139981cf90", "type": "electric_bike", "is_reserved": 0, "lon": -77.0216695}, {"fusion_lat": 0.0, "name": "46bd1d7e1938392dd4f09086f458694f", "is_disabled": 0, "rental_uris": {"android": "https://dc.lft.to/lastmile_qr_scan", "ios": "https://dc.lft.to/lastmile_qr_scan"}, "fusion_lon": 0.0, "lat": 38.89611166666667, "bike_id": "46bd1d7e1938392dd4f09086f458694f", "type": "electric_scooter", "is_reserved": 0, "lon": -76.94809033333334}, {"fusion_lat": 0.0, "name": "83b5159254525429b1aab624d8c9c760", "is_disabled": 0, "rental_uris": {"android": "https://dc.lft.to/lastmile_qr_scan", "ios": "https://dc.lft.to/lastmile_qr_scan"}, "fusion_lon": 0.0, "lat": 38.90582533333333, "bike_id": "83b5159254525429b1aab624d8c9c760", "type": "electric_scooter", "is_reserved": 0, "lon": -77.06288533333333}, {"fusion_lat": 0.0, "name": "7c4e3edb34eb375baa3206949f9b42c8", "is_disabled": 0, "rental_uris": {"android": "https://dc.lft.to/lastmile_qr_scan", "ios": "https://dc.lft.to/lastmile_qr_scan"}, "fusion_lon": 0.0, "lat": 38.918142833333334, "bike_id": "7c4e3edb34eb375baa3206949f9b42c8", "type": "electric_scooter", "is_reserved": 0, "lon": -77.02606716666666}, {"fusion_lat": 0.0, "name": "759c786bf20f631b8ade963370c61011", "is_disabled": 0, "rental_uris": {"android": "https://dc.lft.to/lastmile_qr_scan", "ios": "https://dc.lft.to/lastmile_qr_scan"}, "fusion_lon": 0.0, "lat": 38.917327666666665, "bike_id": "759c786bf20f631b8ade963370c61011", "type": "electric_scooter", "is_reserved": 0, "lon": -77.036571}, {"fusion_lat": 0.0, "name": "78377a42ec4678ffb6888cea6f8916f8", "is_disabled": 0, "rental_uris": {"android": "https://dc.lft.to/lastmile_qr_scan", "ios": "https://dc.lft.to/lastmile_qr_scan"}, "fusion_lon": 0.0, "lat": 38.916938, "bike_id": "78377a42ec4678ffb6888cea6f8916f8", "type": "electric_scooter", "is_reserved": 0, "lon": -77.0403485}, {"fusion_lat": 0.0, "name": "f6710f62db3fc2b0e22091d8b294fb36", "is_disabled": 0, "rental_uris": {"android": "https://dc.lft.to/lastmile_qr_scan", "ios": "https://dc.lft.to/lastmile_qr_scan"}, "fusion_lon": 0.0, "lat": 38.92389166666667, "bike_id": "f6710f62db3fc2b0e22091d8b294fb36", "type": "electric_scooter", "is_reserved": 0, "lon": -77.04023366666667}, {"fusion_lat": 0.0, "name": "83ab7c741c85a1fd1a839496d3e056ae", "is_disabled": 0, "rental_uris": {"android": "https://dc.lft.to/lastmile_qr_scan", "ios": "https://dc.lft.to/lastmile_qr_scan"}, "fusion_lon": 0.0, "lat": 38.80445866666667, "bike_id": "83ab7c741c85a1fd1a839496d3e056ae", "type": "electric_bike", "is_reserved": 0, "lon": -77.1322535}, {"fusion_lat": 0.0, "name": "0b908ca88634088b876b29f15f991580", "is_disabled": 0, "rental_uris": {"android": "https://dc.lft.to/lastmile_qr_scan", "ios": "https://dc.lft.to/lastmile_qr_scan"}, "fusion_lon": 0.0, "lat": 38.9166045, "bike_id": "0b908ca88634088b876b29f15f991580", "type": "electric_scooter", "is_reserved": 0, "lon": -77.02813083333334}, {"fusion_lat": 0.0, "name": "8070e3d6f57a272b39748749172ebc63", "is_disabled": 0, "rental_uris": {"android": "https://dc.lft.to/lastmile_qr_scan", "ios": "https://dc.lft.to/lastmile_qr_scan"}, "fusion_lon": 0.0, "lat": 38.87963583333333, "bike_id": "8070e3d6f57a272b39748749172ebc63", "type": "electric_scooter", "is_reserved": 0, "lon": -76.989944}, {"fusion_lat": 0.0, "name": "96311fcb091f3353a85e374683921ebf", "is_disabled": 0, "rental_uris": {"android": "https://dc.lft.to/lastmile_qr_scan", "ios": "https://dc.lft.to/lastmile_qr_scan"}, "fusion_lon": 0.0, "lat": 38.87744633333333, "bike_id": "96311fcb091f3353a85e374683921ebf", "type": "electric_scooter", "is_reserved": 0, "lon": -77.00328883333333}, {"fusion_lat": 0.0, "name": "caf4892e0a8e5b6bc5cdcdc71168de28", "is_disabled": 0, "rental_uris": {"android": "https://dc.lft.to/lastmile_qr_scan", "ios": "https://dc.lft.to/lastmile_qr_scan"}, "fusion_lon": 0.0, "lat": 38.8710955, "bike_id": "caf4892e0a8e5b6bc5cdcdc71168de28", "type": "electric_scooter", "is_reserved": 0, "lon": -77.00764433333333}, {"fusion_lat": 0.0, "name": "fe5ac4717f12cac6fc09e938ab38d139", "is_disabled": 0, "rental_uris": {"android": "https://dc.lft.to/lastmile_qr_scan", "ios": "https://dc.lft.to/lastmile_qr_scan"}, "fusion_lon": 0.0, "lat": 38.911309333333335, "bike_id": "fe5ac4717f12cac6fc09e938ab38d139", "type": "electric_bike", "is_reserved": 0, "lon": -77.0658445}, {"fusion_lat": 0.0, "name": "cd09efb24b19a512c2496ac170169b0a", "is_disabled": 0, "rental_uris": {"android": "https://dc.lft.to/lastmile_qr_scan", "ios": "https://dc.lft.to/lastmile_qr_scan"}, "fusion_lon": 0.0, "lat": 38.916777333333336, "bike_id": "cd09efb24b19a512c2496ac170169b0a", "type": "electric_scooter", "is_reserved": 0, "lon": -77.03690033333334}, {"fusion_lat": 0.0, "name": "130e5447ab845a04d4dbad3b3ce7618d", "is_disabled": 0, "rental_uris": {"android": "https://dc.lft.to/lastmile_qr_scan", "ios": "https://dc.lft.to/lastmile_qr_scan"}, "fusion_lon": 0.0, "lat": 38.90718183333333, "bike_id": "130e5447ab845a04d4dbad3b3ce7618d", "type": "electric_scooter", "is_reserved": 0, "lon": -77.05128166666667}, {"fusion_lat": 0.0, "name": "5f6c2fb13bcc6d6d8e4e22a28eb823d7", "is_disabled": 0, "rental_uris": {"android": "https://dc.lft.to/lastmile_qr_scan", "ios": "https://dc.lft.to/lastmile_qr_scan"}, "fusion_lon": 0.0, "lat": 38.877476333333334, "bike_id": "5f6c2fb13bcc6d6d8e4e22a28eb823d7", "type": "electric_scooter", "is_reserved": 0, "lon": -77.014242}, {"fusion_lat": 0.0, "name": "7de3729e54400899c1151d151ec4035c", "is_disabled": 0, "rental_uris": {"android": "https://dc.lft.to/lastmile_qr_scan", "ios": "https://dc.lft.to/lastmile_qr_scan"}, "fusion_lon": 0.0, "lat": 38.90064183333333, "bike_id": "7de3729e54400899c1151d151ec4035c", "type": "electric_scooter", "is_reserved": 0, "lon": -76.9274365}, {"fusion_lat": 0.0, "name": "762d3e9c960c6cfaae6a049fe61105f3", "is_disabled": 0, "rental_uris": {"android": "https://dc.lft.to/lastmile_qr_scan", "ios": "https://dc.lft.to/lastmile_qr_scan"}, "fusion_lon": 0.0, "lat": 38.884429, "bike_id": "762d3e9c960c6cfaae6a049fe61105f3", "type": "electric_scooter", "is_reserved": 0, "lon": -77.00347066666667}, {"fusion_lat": 0.0, "name": "8c4746fe1ee3fc734e0d1375147fe5f3", "is_disabled": 0, "rental_uris": {"android": "https://dc.lft.to/lastmile_qr_scan", "ios": "https://dc.lft.to/lastmile_qr_scan"}, "fusion_lon": 0.0, "lat": 38.8044585, "bike_id": "8c4746fe1ee3fc734e0d1375147fe5f3", "type": "electric_bike", "is_reserved": 0, "lon": -77.053814}, {"fusion_lat": 0.0, "name": "02df8b891837ca9dcd8e43adbe596e64", "is_disabled": 0, "rental_uris": {"android": "https://dc.lft.to/lastmile_qr_scan", "ios": "https://dc.lft.to/lastmile_qr_scan"}, "fusion_lon": 0.0, "lat": 38.92450616666667, "bike_id": "02df8b891837ca9dcd8e43adbe596e64", "type": "electric_scooter", "is_reserved": 0, "lon": -77.04019133333334}, {"fusion_lat": 0.0, "name": "357a543b351be54cd8c28d388a871d6f", "is_disabled": 0, "rental_uris": {"android": "https://dc.lft.to/lastmile_qr_scan", "ios": "https://dc.lft.to/lastmile_qr_scan"}, "fusion_lon": 0.0, "lat": 38.895427833333336, "bike_id": "357a543b351be54cd8c28d388a871d6f", "type": "electric_scooter", "is_reserved": 0, "lon": -76.94946133333333}, {"fusion_lat": 0.0, "name": "80d8c8d91e1d66dc770e761000f90f72", "is_disabled": 0, "rental_uris": {"android": "https://dc.lft.to/lastmile_qr_scan", "ios": "https://dc.lft.to/lastmile_qr_scan"}, "fusion_lon": 0.0, "lat": 38.925951833333336, "bike_id": "80d8c8d91e1d66dc770e761000f90f72", "type": "electric_scooter", "is_reserved": 0, "lon": -77.03396566666666}, {"fusion_lat": 0.0, "name": "5611aa4f70b61bedc6191484365ba7c9", "is_disabled": 0, "rental_uris": {"android": "https://dc.lft.to/lastmile_qr_scan", "ios": "https://dc.lft.to/lastmile_qr_scan"}, "fusion_lon": 0.0, "lat": 38.896808, "bike_id": "5611aa4f70b61bedc6191484365ba7c9", "type": "electric_scooter", "is_reserved": 0, "lon": -77.05117516666667}, {"fusion_lat": 0.0, "name": "6ad4ce673560cb2eacf5df8a0b4242a6", "is_disabled": 0, "rental_uris": {"android": "https://dc.lft.to/lastmile_qr_scan", "ios": "https://dc.lft.to/lastmile_qr_scan"}, "fusion_lon": 0.0, "lat": 38.90023983333333, "bike_id": "6ad4ce673560cb2eacf5df8a0b4242a6", "type": "electric_scooter", "is_reserved": 0, "lon": -77.00207933333333}, {"fusion_lat": 0.0, "name": "fcd7aa1c25039d772051b36e9f2342a5", "is_disabled": 0, "rental_uris": {"android": "https://dc.lft.to/lastmile_qr_scan", "ios": "https://dc.lft.to/lastmile_qr_scan"}, "fusion_lon": 0.0, "lat": 38.91544866666667, "bike_id": "fcd7aa1c25039d772051b36e9f2342a5", "type": "electric_scooter", "is_reserved": 0, "lon": -77.038507}, {"fusion_lat": 0.0, "name": "8e1f8cdd0dcd948ea6885eed250f4b96", "is_disabled": 0, "rental_uris": {"android": "https://dc.lft.to/lastmile_qr_scan", "ios": "https://dc.lft.to/lastmile_qr_scan"}, "fusion_lon": 0.0, "lat": 38.924478666666666, "bike_id": "8e1f8cdd0dcd948ea6885eed250f4b96", "type": "electric_scooter", "is_reserved": 0, "lon": -77.05243866666666}, {"fusion_lat": 0.0, "name": "b2a36429e9cd8762cd7842ff20882949", "is_disabled": 0, "rental_uris": {"android": "https://dc.lft.to/lastmile_qr_scan", "ios": "https://dc.lft.to/lastmile_qr_scan"}, "fusion_lon": 0.0, "lat": 38.949199666666665, "bike_id": "b2a36429e9cd8762cd7842ff20882949", "type": "electric_scooter", "is_reserved": 0, "lon": -77.01849966666667}, {"fusion_lat": 0.0, "name": "2edac1cc07583e9e4342be0efd076c79", "is_disabled": 0, "rental_uris": {"android": "https://dc.lft.to/lastmile_qr_scan", "ios": "https://dc.lft.to/lastmile_qr_scan"}, "fusion_lon": 0.0, "lat": 38.90402366666667, "bike_id": "2edac1cc07583e9e4342be0efd076c79", "type": "electric_scooter", "is_reserved": 0, "lon": -77.02485533333333}, {"fusion_lat": 0.0, "name": "ca110c00976eab9deddc496bd3e75ac9", "is_disabled": 0, "rental_uris": {"android": "https://dc.lft.to/lastmile_qr_scan", "ios": "https://dc.lft.to/lastmile_qr_scan"}, "fusion_lon": 0.0, "lat": 38.92475233333333, "bike_id": "ca110c00976eab9deddc496bd3e75ac9", "type": "electric_scooter", "is_reserved": 0, "lon": -77.02663883333334}, {"fusion_lat": 0.0, "name": "3391b16a212785cd5c80c51a86963b44", "is_disabled": 0, "rental_uris": {"android": "https://dc.lft.to/lastmile_qr_scan", "ios": "https://dc.lft.to/lastmile_qr_scan"}, "fusion_lon": 0.0, "lat": 38.91670966666667, "bike_id": "3391b16a212785cd5c80c51a86963b44", "type": "electric_scooter", "is_reserved": 0, "lon": -77.04159583333333}, {"fusion_lat": 0.0, "name": "7597c299d9d3a944715f9c81dba16d95", "is_disabled": 0, "rental_uris": {"android": "https://dc.lft.to/lastmile_qr_scan", "ios": "https://dc.lft.to/lastmile_qr_scan"}, "fusion_lon": 0.0, "lat": 38.90511033333333, "bike_id": "7597c299d9d3a944715f9c81dba16d95", "type": "electric_scooter", "is_reserved": 0, "lon": -77.070379}, {"fusion_lat": 0.0, "name": "478dbdf41c80ecd0135a7153aec89121", "is_disabled": 0, "rental_uris": {"android": "https://dc.lft.to/lastmile_qr_scan", "ios": "https://dc.lft.to/lastmile_qr_scan"}, "fusion_lon": 0.0, "lat": 38.988135666666665, "bike_id": "478dbdf41c80ecd0135a7153aec89121", "type": "electric_bike", "is_reserved": 0, "lon": -77.026448}, {"fusion_lat": 0.0, "name": "50d75cc342b5d5930bbb4f8aa607a3b3", "is_disabled": 0, "rental_uris": {"android": "https://dc.lft.to/lastmile_qr_scan", "ios": "https://dc.lft.to/lastmile_qr_scan"}, "fusion_lon": 0.0, "lat": 38.904913, "bike_id": "50d75cc342b5d5930bbb4f8aa607a3b3", "type": "electric_scooter", "is_reserved": 0, "lon": -76.94971633333333}, {"fusion_lat": 0.0, "name": "f827b649f714a4152f26361a347bbb0a", "is_disabled": 0, "rental_uris": {"android": "https://dc.lft.to/lastmile_qr_scan", "ios": "https://dc.lft.to/lastmile_qr_scan"}, "fusion_lon": 0.0, "lat": 38.92798783333333, "bike_id": "f827b649f714a4152f26361a347bbb0a", "type": "electric_scooter", "is_reserved": 0, "lon": -76.95554833333334}, {"fusion_lat": 0.0, "name": "9d6783e96ce2a22e467b796da8c60e6e", "is_disabled": 0, "rental_uris": {"android": "https://dc.lft.to/lastmile_qr_scan", "ios": "https://dc.lft.to/lastmile_qr_scan"}, "fusion_lon": 0.0, "lat": 38.924005333333334, "bike_id": "9d6783e96ce2a22e467b796da8c60e6e", "type": "electric_scooter", "is_reserved": 0, "lon": -77.0427245}, {"fusion_lat": 0.0, "name": "3cb0909de87afe14e0bf1f761b585c0c", "is_disabled": 0, "rental_uris": {"android": "https://dc.lft.to/lastmile_qr_scan", "ios": "https://dc.lft.to/lastmile_qr_scan"}, "fusion_lon": 0.0, "lat": 38.930570833333334, "bike_id": "3cb0909de87afe14e0bf1f761b585c0c", "type": "electric_scooter", "is_reserved": 0, "lon": -77.03932966666666}, {"fusion_lat": 0.0, "name": "9d39a3349ce0cdbe6a831e3d9850f160", "is_disabled": 0, "rental_uris": {"android": "https://dc.lft.to/lastmile_qr_scan", "ios": "https://dc.lft.to/lastmile_qr_scan"}, "fusion_lon": 0.0, "lat": 38.89908716666667, "bike_id": "9d39a3349ce0cdbe6a831e3d9850f160", "type": "electric_scooter", "is_reserved": 0, "lon": -76.9334805}, {"fusion_lat": 0.0, "name": "0e6429999c81e1971ece076409ca0d2d", "is_disabled": 0, "rental_uris": {"android": "https://dc.lft.to/lastmile_qr_scan", "ios": "https://dc.lft.to/lastmile_qr_scan"}, "fusion_lon": 0.0, "lat": 38.934119333333335, "bike_id": "0e6429999c81e1971ece076409ca0d2d", "type": "electric_scooter", "is_reserved": 0, "lon": -77.04150866666667}, {"fusion_lat": 0.0, "name": "e06a4b95d4be3168f00f46f3f87d4f90", "is_disabled": 0, "rental_uris": {"android": "https://dc.lft.to/lastmile_qr_scan", "ios": "https://dc.lft.to/lastmile_qr_scan"}, "fusion_lon": 0.0, "lat": 38.90624283333333, "bike_id": "e06a4b95d4be3168f00f46f3f87d4f90", "type": "electric_scooter", "is_reserved": 0, "lon": -77.03429733333333}, {"fusion_lat": 0.0, "name": "c84b5566a95c5df91b3a5044709f9ac5", "is_disabled": 0, "rental_uris": {"android": "https://dc.lft.to/lastmile_qr_scan", "ios": "https://dc.lft.to/lastmile_qr_scan"}, "fusion_lon": 0.0, "lat": 38.93513766666667, "bike_id": "c84b5566a95c5df91b3a5044709f9ac5", "type": "electric_scooter", "is_reserved": 0, "lon": -77.02412583333333}, {"fusion_lat": 0.0, "name": "fc0a82d68a399a193e63e3ae3c436d5d", "is_disabled": 0, "rental_uris": {"android": "https://dc.lft.to/lastmile_qr_scan", "ios": "https://dc.lft.to/lastmile_qr_scan"}, "fusion_lon": 0.0, "lat": 38.91622, "bike_id": "fc0a82d68a399a193e63e3ae3c436d5d", "type": "electric_scooter", "is_reserved": 0, "lon": -77.03853433333333}, {"fusion_lat": 0.0, "name": "228e4be59fba4b750eaa94820c8ba176", "is_disabled": 0, "rental_uris": {"android": "https://dc.lft.to/lastmile_qr_scan", "ios": "https://dc.lft.to/lastmile_qr_scan"}, "fusion_lon": 0.0, "lat": 38.900358, "bike_id": "228e4be59fba4b750eaa94820c8ba176", "type": "electric_scooter", "is_reserved": 0, "lon": -77.05820966666667}, {"fusion_lat": 0.0, "name": "53994bd58ad0ee65a430de97d91c6e27", "is_disabled": 0, "rental_uris": {"android": "https://dc.lft.to/lastmile_qr_scan", "ios": "https://dc.lft.to/lastmile_qr_scan"}, "fusion_lon": 0.0, "lat": 38.9067735, "bike_id": "53994bd58ad0ee65a430de97d91c6e27", "type": "electric_scooter", "is_reserved": 0, "lon": -77.0701095}, {"fusion_lat": 0.0, "name": "7bb48ff80fb990dedb819b4780ae6cbd", "is_disabled": 0, "rental_uris": {"android": "https://dc.lft.to/lastmile_qr_scan", "ios": "https://dc.lft.to/lastmile_qr_scan"}, "fusion_lon": 0.0, "lat": 38.934066666666666, "bike_id": "7bb48ff80fb990dedb819b4780ae6cbd", "type": "electric_scooter", "is_reserved": 0, "lon": -77.0427185}, {"fusion_lat": 0.0, "name": "2240c7325f315be5d15634f6a8b1602e", "is_disabled": 0, "rental_uris": {"android": "https://dc.lft.to/lastmile_qr_scan", "ios": "https://dc.lft.to/lastmile_qr_scan"}, "fusion_lon": 0.0, "lat": 38.90619733333333, "bike_id": "2240c7325f315be5d15634f6a8b1602e", "type": "electric_scooter", "is_reserved": 0, "lon": -77.04142566666667}, {"fusion_lat": 0.0, "name": "2bcd91ead99e409daea7d1794b9da8ac", "is_disabled": 0, "rental_uris": {"android": "https://dc.lft.to/lastmile_qr_scan", "ios": "https://dc.lft.to/lastmile_qr_scan"}, "fusion_lon": 0.0, "lat": 38.92420166666667, "bike_id": "2bcd91ead99e409daea7d1794b9da8ac", "type": "electric_scooter", "is_reserved": 0, "lon": -77.01956866666667}, {"fusion_lat": 0.0, "name": "6549ff961631db90191b85a2545dcf95", "is_disabled": 0, "rental_uris": {"android": "https://dc.lft.to/lastmile_qr_scan", "ios": "https://dc.lft.to/lastmile_qr_scan"}, "fusion_lon": 0.0, "lat": 38.95686233333333, "bike_id": "6549ff961631db90191b85a2545dcf95", "type": "electric_bike", "is_reserved": 0, "lon": -77.02229}, {"fusion_lat": 0.0, "name": "eb49c068db9d37e146ba67b97d8246ac", "is_disabled": 0, "rental_uris": {"android": "https://dc.lft.to/lastmile_qr_scan", "ios": "https://dc.lft.to/lastmile_qr_scan"}, "fusion_lon": 0.0, "lat": 38.933801333333335, "bike_id": "eb49c068db9d37e146ba67b97d8246ac", "type": "electric_scooter", "is_reserved": 0, "lon": -77.02426883333334}, {"fusion_lat": 0.0, "name": "9d74098bf15f33ec68bb5757834c839f", "is_disabled": 0, "rental_uris": {"android": "https://dc.lft.to/lastmile_qr_scan", "ios": "https://dc.lft.to/lastmile_qr_scan"}, "fusion_lon": 0.0, "lat": 38.91322866666667, "bike_id": "9d74098bf15f33ec68bb5757834c839f", "type": "electric_scooter", "is_reserved": 0, "lon": -77.021501}, {"fusion_lat": 0.0, "name": "8fafc0331bcfe8adac5b43d2af074e0c", "is_disabled": 0, "rental_uris": {"android": "https://dc.lft.to/lastmile_qr_scan", "ios": "https://dc.lft.to/lastmile_qr_scan"}, "fusion_lon": 0.0, "lat": 38.915635, "bike_id": "8fafc0331bcfe8adac5b43d2af074e0c", "type": "electric_scooter", "is_reserved": 0, "lon": -77.03148833333333}, {"fusion_lat": 0.0, "name": "a400f8414320ace7a835baa349777f9d", "is_disabled": 0, "rental_uris": {"android": "https://dc.lft.to/lastmile_qr_scan", "ios": "https://dc.lft.to/lastmile_qr_scan"}, "fusion_lon": 0.0, "lat": 38.922674, "bike_id": "a400f8414320ace7a835baa349777f9d", "type": "electric_scooter", "is_reserved": 0, "lon": -77.042835}, {"fusion_lat": 0.0, "name": "e3f46c22591e9deee6d73b6367ca12f3", "is_disabled": 0, "rental_uris": {"android": "https://dc.lft.to/lastmile_qr_scan", "ios": "https://dc.lft.to/lastmile_qr_scan"}, "fusion_lon": 0.0, "lat": 38.879676333333336, "bike_id": "e3f46c22591e9deee6d73b6367ca12f3", "type": "electric_bike", "is_reserved": 0, "lon": -76.91611083333333}, {"fusion_lat": 0.0, "name": "7207abb2149070c816bc2ab6df41286f", "is_disabled": 0, "rental_uris": {"android": "https://dc.lft.to/lastmile_qr_scan", "ios": "https://dc.lft.to/lastmile_qr_scan"}, "fusion_lon": 0.0, "lat": 38.90316766666667, "bike_id": "7207abb2149070c816bc2ab6df41286f", "type": "electric_scooter", "is_reserved": 0, "lon": -76.98139133333333}, {"fusion_lat": 0.0, "name": "663d9cbcc75942ea173140f03134abb3", "is_disabled": 0, "rental_uris": {"android": "https://dc.lft.to/lastmile_qr_scan", "ios": "https://dc.lft.to/lastmile_qr_scan"}, "fusion_lon": 0.0, "lat": 38.9073025, "bike_id": "663d9cbcc75942ea173140f03134abb3", "type": "electric_scooter", "is_reserved": 0, "lon": -77.02967633333333}, {"fusion_lat": 0.0, "name": "b535bbd5a0908064d08f6d9ba550cb33", "is_disabled": 0, "rental_uris": {"android": "https://dc.lft.to/lastmile_qr_scan", "ios": "https://dc.lft.to/lastmile_qr_scan"}, "fusion_lon": 0.0, "lat": 38.933645, "bike_id": "b535bbd5a0908064d08f6d9ba550cb33", "type": "electric_scooter", "is_reserved": 0, "lon": -77.038854}, {"fusion_lat": 0.0, "name": "a2e3162a901295fc39a13e4df14bb7b5", "is_disabled": 0, "rental_uris": {"android": "https://dc.lft.to/lastmile_qr_scan", "ios": "https://dc.lft.to/lastmile_qr_scan"}, "fusion_lon": 0.0, "lat": 38.83934266666667, "bike_id": "a2e3162a901295fc39a13e4df14bb7b5", "type": "electric_bike", "is_reserved": 0, "lon": -77.07894966666667}, {"fusion_lat": 0.0, "name": "127075c8a6e260ec62803a9a75baf12d", "is_disabled": 0, "rental_uris": {"android": "https://dc.lft.to/lastmile_qr_scan", "ios": "https://dc.lft.to/lastmile_qr_scan"}, "fusion_lon": 0.0, "lat": 38.905796, "bike_id": "127075c8a6e260ec62803a9a75baf12d", "type": "electric_scooter", "is_reserved": 0, "lon": -77.0087975}, {"fusion_lat": 0.0, "name": "704672f47bde5ec7a41f7157ef30e543", "is_disabled": 0, "rental_uris": {"android": "https://dc.lft.to/lastmile_qr_scan", "ios": "https://dc.lft.to/lastmile_qr_scan"}, "fusion_lon": 0.0, "lat": 38.90354166666667, "bike_id": "704672f47bde5ec7a41f7157ef30e543", "type": "electric_scooter", "is_reserved": 0, "lon": -76.97237066666666}, {"fusion_lat": 0.0, "name": "0f292f7c7e0902048968ea56fdd277e8", "is_disabled": 0, "rental_uris": {"android": "https://dc.lft.to/lastmile_qr_scan", "ios": "https://dc.lft.to/lastmile_qr_scan"}, "fusion_lon": 0.0, "lat": 38.93963, "bike_id": "0f292f7c7e0902048968ea56fdd277e8", "type": "electric_bike", "is_reserved": 0, "lon": -76.99377733333333}, {"fusion_lat": 0.0, "name": "dc4986b10a29e874120fbed21e021825", "is_disabled": 0, "rental_uris": {"android": "https://dc.lft.to/lastmile_qr_scan", "ios": "https://dc.lft.to/lastmile_qr_scan"}, "fusion_lon": 0.0, "lat": 38.90972566666667, "bike_id": "dc4986b10a29e874120fbed21e021825", "type": "electric_scooter", "is_reserved": 0, "lon": -77.00892483333334}, {"fusion_lat": 0.0, "name": "25bdd388263a77a74aebb222f22ee763", "is_disabled": 0, "rental_uris": {"android": "https://dc.lft.to/lastmile_qr_scan", "ios": "https://dc.lft.to/lastmile_qr_scan"}, "fusion_lon": 0.0, "lat": 38.928439833333336, "bike_id": "25bdd388263a77a74aebb222f22ee763", "type": "electric_scooter", "is_reserved": 0, "lon": -77.0327285}, {"fusion_lat": 0.0, "name": "162e839392d3bb18cdbf595795aa29fe", "is_disabled": 0, "rental_uris": {"android": "https://dc.lft.to/lastmile_qr_scan", "ios": "https://dc.lft.to/lastmile_qr_scan"}, "fusion_lon": 0.0, "lat": 38.90100616666667, "bike_id": "162e839392d3bb18cdbf595795aa29fe", "type": "electric_scooter", "is_reserved": 0, "lon": -77.05121583333333}, {"fusion_lat": 0.0, "name": "830038932f23080445a64899042dd567", "is_disabled": 0, "rental_uris": {"android": "https://dc.lft.to/lastmile_qr_scan", "ios": "https://dc.lft.to/lastmile_qr_scan"}, "fusion_lon": 0.0, "lat": 38.941332, "bike_id": "830038932f23080445a64899042dd567", "type": "electric_scooter", "is_reserved": 0, "lon": -77.00611683333334}, {"fusion_lat": 0.0, "name": "2e5f36aafdb584ee122c4d03728ac6d5", "is_disabled": 0, "rental_uris": {"android": "https://dc.lft.to/lastmile_qr_scan", "ios": "https://dc.lft.to/lastmile_qr_scan"}, "fusion_lon": 0.0, "lat": 38.911831, "bike_id": "2e5f36aafdb584ee122c4d03728ac6d5", "type": "electric_scooter", "is_reserved": 0, "lon": -77.03174583333333}, {"fusion_lat": 0.0, "name": "60fe8f39d76177d7aad69088f1c961ee", "is_disabled": 0, "rental_uris": {"android": "https://dc.lft.to/lastmile_qr_scan", "ios": "https://dc.lft.to/lastmile_qr_scan"}, "fusion_lon": 0.0, "lat": 38.881189166666665, "bike_id": "60fe8f39d76177d7aad69088f1c961ee", "type": "electric_scooter", "is_reserved": 0, "lon": -77.02208866666666}, {"fusion_lat": 0.0, "name": "7604b9d2906671f7675dd6763a3b62a5", "is_disabled": 0, "rental_uris": {"android": "https://dc.lft.to/lastmile_qr_scan", "ios": "https://dc.lft.to/lastmile_qr_scan"}, "fusion_lon": 0.0, "lat": 38.897340666666665, "bike_id": "7604b9d2906671f7675dd6763a3b62a5", "type": "electric_scooter", "is_reserved": 0, "lon": -77.03220616666667}, {"fusion_lat": 0.0, "name": "ae66bc71e6c6d29548dfc4503f621ecf", "is_disabled": 0, "rental_uris": {"android": "https://dc.lft.to/lastmile_qr_scan", "ios": "https://dc.lft.to/lastmile_qr_scan"}, "fusion_lon": 0.0, "lat": 38.913273333333336, "bike_id": "ae66bc71e6c6d29548dfc4503f621ecf", "type": "electric_scooter", "is_reserved": 0, "lon": -77.03182333333334}, {"fusion_lat": 0.0, "name": "523cb75e09d5caed86f551f474257217", "is_disabled": 0, "rental_uris": {"android": "https://dc.lft.to/lastmile_qr_scan", "ios": "https://dc.lft.to/lastmile_qr_scan"}, "fusion_lon": 0.0, "lat": 38.90801833333333, "bike_id": "523cb75e09d5caed86f551f474257217", "type": "electric_scooter", "is_reserved": 0, "lon": -77.04328933333333}, {"fusion_lat": 0.0, "name": "110d03c0c35a7fe3872a1e6cb9f38416", "is_disabled": 0, "rental_uris": {"android": "https://dc.lft.to/lastmile_qr_scan", "ios": "https://dc.lft.to/lastmile_qr_scan"}, "fusion_lon": 0.0, "lat": 38.8360625, "bike_id": "110d03c0c35a7fe3872a1e6cb9f38416", "type": "electric_bike", "is_reserved": 0, "lon": -77.00376383333334}, {"fusion_lat": 0.0, "name": "224e52b5dda4fcf58665dd1b32a3603f", "is_disabled": 0, "rental_uris": {"android": "https://dc.lft.to/lastmile_qr_scan", "ios": "https://dc.lft.to/lastmile_qr_scan"}, "fusion_lon": 0.0, "lat": 38.89531933333333, "bike_id": "224e52b5dda4fcf58665dd1b32a3603f", "type": "electric_scooter", "is_reserved": 0, "lon": -77.01079316666667}, {"fusion_lat": 0.0, "name": "d17027eda12c2576d00a19e47191678e", "is_disabled": 0, "rental_uris": {"android": "https://dc.lft.to/lastmile_qr_scan", "ios": "https://dc.lft.to/lastmile_qr_scan"}, "fusion_lon": 0.0, "lat": 38.90628133333333, "bike_id": "d17027eda12c2576d00a19e47191678e", "type": "electric_scooter", "is_reserved": 0, "lon": -77.04135283333333}, {"fusion_lat": 0.0, "name": "9df6df02a86d8b3bc25254ae3f4a2bc8", "is_disabled": 0, "rental_uris": {"android": "https://dc.lft.to/lastmile_qr_scan", "ios": "https://dc.lft.to/lastmile_qr_scan"}, "fusion_lon": 0.0, "lat": 38.857, "bike_id": "9df6df02a86d8b3bc25254ae3f4a2bc8", "type": "electric_scooter", "is_reserved": 0, "lon": -76.99597633333333}, {"fusion_lat": 0.0, "name": "fca260e2a36ef11274fbbc68f6f84443", "is_disabled": 0, "rental_uris": {"android": "https://dc.lft.to/lastmile_qr_scan", "ios": "https://dc.lft.to/lastmile_qr_scan"}, "fusion_lon": 0.0, "lat": 38.92163583333333, "bike_id": "fca260e2a36ef11274fbbc68f6f84443", "type": "electric_scooter", "is_reserved": 0, "lon": -77.04228933333333}, {"fusion_lat": 0.0, "name": "db8a04eb4107c9cd33e0ff1c95c23633", "is_disabled": 0, "rental_uris": {"android": "https://dc.lft.to/lastmile_qr_scan", "ios": "https://dc.lft.to/lastmile_qr_scan"}, "fusion_lon": 0.0, "lat": 38.917946666666666, "bike_id": "db8a04eb4107c9cd33e0ff1c95c23633", "type": "electric_scooter", "is_reserved": 0, "lon": -77.03444133333333}, {"fusion_lat": 0.0, "name": "5ec98c10042012221c24cdc0a8083a1b", "is_disabled": 0, "rental_uris": {"android": "https://dc.lft.to/lastmile_qr_scan", "ios": "https://dc.lft.to/lastmile_qr_scan"}, "fusion_lon": 0.0, "lat": 38.88797916666667, "bike_id": "5ec98c10042012221c24cdc0a8083a1b", "type": "electric_bike", "is_reserved": 0, "lon": -76.92996916666667}, {"fusion_lat": 0.0, "name": "ccff050800e16f02847151e8b6c7ee22", "is_disabled": 0, "rental_uris": {"android": "https://dc.lft.to/lastmile_qr_scan", "ios": "https://dc.lft.to/lastmile_qr_scan"}, "fusion_lon": 0.0, "lat": 38.925096333333336, "bike_id": "ccff050800e16f02847151e8b6c7ee22", "type": "electric_scooter", "is_reserved": 0, "lon": -77.023802}, {"fusion_lat": 0.0, "name": "315c3736e284936cca724de8198d2783", "is_disabled": 0, "rental_uris": {"android": "https://dc.lft.to/lastmile_qr_scan", "ios": "https://dc.lft.to/lastmile_qr_scan"}, "fusion_lon": 0.0, "lat": 38.952187, "bike_id": "315c3736e284936cca724de8198d2783", "type": "electric_scooter", "is_reserved": 0, "lon": -77.08212683333333}, {"fusion_lat": 0.0, "name": "893ce01445d4dea91e5d50893c7ce617", "is_disabled": 0, "rental_uris": {"android": "https://dc.lft.to/lastmile_qr_scan", "ios": "https://dc.lft.to/lastmile_qr_scan"}, "fusion_lon": 0.0, "lat": 38.948534333333335, "bike_id": "893ce01445d4dea91e5d50893c7ce617", "type": "electric_scooter", "is_reserved": 0, "lon": -77.02564916666667}, {"fusion_lat": 0.0, "name": "55bc8cf23d4126179438a71997698c88", "is_disabled": 0, "rental_uris": {"android": "https://dc.lft.to/lastmile_qr_scan", "ios": "https://dc.lft.to/lastmile_qr_scan"}, "fusion_lon": 0.0, "lat": 38.916017, "bike_id": "55bc8cf23d4126179438a71997698c88", "type": "electric_scooter", "is_reserved": 0, "lon": -77.03210416666667}, {"fusion_lat": 0.0, "name": "c391cdf85d19b8348e31b132ffaff8b6", "is_disabled": 0, "rental_uris": {"android": "https://dc.lft.to/lastmile_qr_scan", "ios": "https://dc.lft.to/lastmile_qr_scan"}, "fusion_lon": 0.0, "lat": 38.925114, "bike_id": "c391cdf85d19b8348e31b132ffaff8b6", "type": "electric_scooter", "is_reserved": 0, "lon": -77.022846}, {"fusion_lat": 0.0, "name": "e6dc0e0087708f84ffbe70b3f52a1b1f", "is_disabled": 0, "rental_uris": {"android": "https://dc.lft.to/lastmile_qr_scan", "ios": "https://dc.lft.to/lastmile_qr_scan"}, "fusion_lon": 0.0, "lat": 38.882199666666665, "bike_id": "e6dc0e0087708f84ffbe70b3f52a1b1f", "type": "electric_scooter", "is_reserved": 0, "lon": -77.02936483333333}, {"fusion_lat": 0.0, "name": "997658fe1cdf4e4c3a7af6c838ab2c3e", "is_disabled": 0, "rental_uris": {"android": "https://dc.lft.to/lastmile_qr_scan", "ios": "https://dc.lft.to/lastmile_qr_scan"}, "fusion_lon": 0.0, "lat": 38.91994716666667, "bike_id": "997658fe1cdf4e4c3a7af6c838ab2c3e", "type": "electric_scooter", "is_reserved": 0, "lon": -77.07189616666666}, {"fusion_lat": 0.0, "name": "89be4b08c0f630930d28f9b2cc71696e", "is_disabled": 0, "rental_uris": {"android": "https://dc.lft.to/lastmile_qr_scan", "ios": "https://dc.lft.to/lastmile_qr_scan"}, "fusion_lon": 0.0, "lat": 38.85412816666667, "bike_id": "89be4b08c0f630930d28f9b2cc71696e", "type": "electric_bike", "is_reserved": 0, "lon": -77.12075733333333}, {"fusion_lat": 0.0, "name": "39c73770ad494b98e9c372a353bf320e", "is_disabled": 0, "rental_uris": {"android": "https://dc.lft.to/lastmile_qr_scan", "ios": "https://dc.lft.to/lastmile_qr_scan"}, "fusion_lon": 0.0, "lat": 38.882945, "bike_id": "39c73770ad494b98e9c372a353bf320e", "type": "electric_scooter", "is_reserved": 0, "lon": -76.948491}, {"fusion_lat": 0.0, "name": "393e50f0aab9fc481b9310a037385d0c", "is_disabled": 0, "rental_uris": {"android": "https://dc.lft.to/lastmile_qr_scan", "ios": "https://dc.lft.to/lastmile_qr_scan"}, "fusion_lon": 0.0, "lat": 38.920847333333334, "bike_id": "393e50f0aab9fc481b9310a037385d0c", "type": "electric_scooter", "is_reserved": 0, "lon": -76.99446116666667}, {"fusion_lat": 0.0, "name": "273c71dd5a1d49393425f6c9d7637bbc", "is_disabled": 0, "rental_uris": {"android": "https://dc.lft.to/lastmile_qr_scan", "ios": "https://dc.lft.to/lastmile_qr_scan"}, "fusion_lon": 0.0, "lat": 38.924222, "bike_id": "273c71dd5a1d49393425f6c9d7637bbc", "type": "electric_scooter", "is_reserved": 0, "lon": -77.02541816666667}, {"fusion_lat": 0.0, "name": "1e2ba11610f562c2c74c23a2d7b11bed", "is_disabled": 0, "rental_uris": {"android": "https://dc.lft.to/lastmile_qr_scan", "ios": "https://dc.lft.to/lastmile_qr_scan"}, "fusion_lon": 0.0, "lat": 38.935806, "bike_id": "1e2ba11610f562c2c74c23a2d7b11bed", "type": "electric_scooter", "is_reserved": 0, "lon": -77.02841266666667}, {"fusion_lat": 0.0, "name": "97b5621fe0d22b608c348d6daff39e1b", "is_disabled": 0, "rental_uris": {"android": "https://dc.lft.to/lastmile_qr_scan", "ios": "https://dc.lft.to/lastmile_qr_scan"}, "fusion_lon": 0.0, "lat": 38.9066325, "bike_id": "97b5621fe0d22b608c348d6daff39e1b", "type": "electric_bike", "is_reserved": 0, "lon": -77.04209183333333}, {"fusion_lat": 0.0, "name": "aeb77d84d920a21e979fbe3a08620d88", "is_disabled": 0, "rental_uris": {"android": "https://dc.lft.to/lastmile_qr_scan", "ios": "https://dc.lft.to/lastmile_qr_scan"}, "fusion_lon": 0.0, "lat": 38.916062333333336, "bike_id": "aeb77d84d920a21e979fbe3a08620d88", "type": "electric_scooter", "is_reserved": 0, "lon": -77.0200605}, {"fusion_lat": 0.0, "name": "ac11d4737199e2b3e1971b04e7a6ed1e", "is_disabled": 0, "rental_uris": {"android": "https://dc.lft.to/lastmile_qr_scan", "ios": "https://dc.lft.to/lastmile_qr_scan"}, "fusion_lon": 0.0, "lat": 38.916682333333334, "bike_id": "ac11d4737199e2b3e1971b04e7a6ed1e", "type": "electric_scooter", "is_reserved": 0, "lon": -77.03847183333333}, {"fusion_lat": 0.0, "name": "9870fd163b6afd270613252daf8253ae", "is_disabled": 0, "rental_uris": {"android": "https://dc.lft.to/lastmile_qr_scan", "ios": "https://dc.lft.to/lastmile_qr_scan"}, "fusion_lon": 0.0, "lat": 38.9666915, "bike_id": "9870fd163b6afd270613252daf8253ae", "type": "electric_bike", "is_reserved": 0, "lon": -76.974459}, {"fusion_lat": 0.0, "name": "053dea2b52505f8be63750030f5f5568", "is_disabled": 0, "rental_uris": {"android": "https://dc.lft.to/lastmile_qr_scan", "ios": "https://dc.lft.to/lastmile_qr_scan"}, "fusion_lon": 0.0, "lat": 38.90730083333333, "bike_id": "053dea2b52505f8be63750030f5f5568", "type": "electric_scooter", "is_reserved": 0, "lon": -77.04183866666666}, {"fusion_lat": 0.0, "name": "747fff0d5a2ac435ae55eb18b8c8c264", "is_disabled": 0, "rental_uris": {"android": "https://dc.lft.to/lastmile_qr_scan", "ios": "https://dc.lft.to/lastmile_qr_scan"}, "fusion_lon": 0.0, "lat": 38.920083166666664, "bike_id": "747fff0d5a2ac435ae55eb18b8c8c264", "type": "electric_scooter", "is_reserved": 0, "lon": -77.07135216666667}, {"fusion_lat": 0.0, "name": "e747781d26a8327234c2c47bf3998cc7", "is_disabled": 0, "rental_uris": {"android": "https://dc.lft.to/lastmile_qr_scan", "ios": "https://dc.lft.to/lastmile_qr_scan"}, "fusion_lon": 0.0, "lat": 38.840855166666664, "bike_id": "e747781d26a8327234c2c47bf3998cc7", "type": "electric_bike", "is_reserved": 0, "lon": -76.97026016666666}, {"fusion_lat": 0.0, "name": "9c9e58811deae3e991a14761fbcc671a", "is_disabled": 0, "rental_uris": {"android": "https://dc.lft.to/lastmile_qr_scan", "ios": "https://dc.lft.to/lastmile_qr_scan"}, "fusion_lon": 0.0, "lat": 38.93116283333333, "bike_id": "9c9e58811deae3e991a14761fbcc671a", "type": "electric_scooter", "is_reserved": 0, "lon": -77.0209625}, {"fusion_lat": 0.0, "name": "f0d3fa47ad74a690c54ef1e2c2e3b439", "is_disabled": 0, "rental_uris": {"android": "https://dc.lft.to/lastmile_qr_scan", "ios": "https://dc.lft.to/lastmile_qr_scan"}, "fusion_lon": 0.0, "lat": 38.900209833333335, "bike_id": "f0d3fa47ad74a690c54ef1e2c2e3b439", "type": "electric_scooter", "is_reserved": 0, "lon": -77.00029816666667}, {"fusion_lat": 0.0, "name": "25037d9f2356792b130f4f5d8f902640", "is_disabled": 0, "rental_uris": {"android": "https://dc.lft.to/lastmile_qr_scan", "ios": "https://dc.lft.to/lastmile_qr_scan"}, "fusion_lon": 0.0, "lat": 38.8964745, "bike_id": "25037d9f2356792b130f4f5d8f902640", "type": "electric_bike", "is_reserved": 0, "lon": -77.08715916666667}, {"fusion_lat": 0.0, "name": "0cef2038f00436e10fbe766c2a2d1dd2", "is_disabled": 0, "rental_uris": {"android": "https://dc.lft.to/lastmile_qr_scan", "ios": "https://dc.lft.to/lastmile_qr_scan"}, "fusion_lon": 0.0, "lat": 38.929921666666665, "bike_id": "0cef2038f00436e10fbe766c2a2d1dd2", "type": "electric_scooter", "is_reserved": 0, "lon": -77.03228033333333}, {"fusion_lat": 0.0, "name": "02b3637c7f0e4a7d6455c1640b589913", "is_disabled": 0, "rental_uris": {"android": "https://dc.lft.to/lastmile_qr_scan", "ios": "https://dc.lft.to/lastmile_qr_scan"}, "fusion_lon": 0.0, "lat": 38.938467, "bike_id": "02b3637c7f0e4a7d6455c1640b589913", "type": "electric_scooter", "is_reserved": 0, "lon": -77.06248566666666}, {"fusion_lat": 0.0, "name": "5c5c3fd07cfbe02da999104e3ac874f5", "is_disabled": 0, "rental_uris": {"android": "https://dc.lft.to/lastmile_qr_scan", "ios": "https://dc.lft.to/lastmile_qr_scan"}, "fusion_lon": 0.0, "lat": 38.9170975, "bike_id": "5c5c3fd07cfbe02da999104e3ac874f5", "type": "electric_scooter", "is_reserved": 0, "lon": -77.03090016666667}, {"fusion_lat": 0.0, "name": "d484a49302e818e3487bfd1cd75e32c4", "is_disabled": 0, "rental_uris": {"android": "https://dc.lft.to/lastmile_qr_scan", "ios": "https://dc.lft.to/lastmile_qr_scan"}, "fusion_lon": 0.0, "lat": 38.89727283333333, "bike_id": "d484a49302e818e3487bfd1cd75e32c4", "type": "electric_scooter", "is_reserved": 0, "lon": -77.0463255}, {"fusion_lat": 0.0, "name": "c4b49e92dbee7cc93494116f678928b3", "is_disabled": 0, "rental_uris": {"android": "https://dc.lft.to/lastmile_qr_scan", "ios": "https://dc.lft.to/lastmile_qr_scan"}, "fusion_lon": 0.0, "lat": 38.911137833333335, "bike_id": "c4b49e92dbee7cc93494116f678928b3", "type": "electric_scooter", "is_reserved": 0, "lon": -77.08131266666666}, {"fusion_lat": 0.0, "name": "0482eaff6ff4fe655d98f973b09d20fc", "is_disabled": 0, "rental_uris": {"android": "https://dc.lft.to/lastmile_qr_scan", "ios": "https://dc.lft.to/lastmile_qr_scan"}, "fusion_lon": 0.0, "lat": 38.9126065, "bike_id": "0482eaff6ff4fe655d98f973b09d20fc", "type": "electric_scooter", "is_reserved": 0, "lon": -77.03862116666667}, {"fusion_lat": 0.0, "name": "2f686a53aad6f055181ba7bebfd97d31", "is_disabled": 0, "rental_uris": {"android": "https://dc.lft.to/lastmile_qr_scan", "ios": "https://dc.lft.to/lastmile_qr_scan"}, "fusion_lon": 0.0, "lat": 38.921604333333335, "bike_id": "2f686a53aad6f055181ba7bebfd97d31", "type": "electric_scooter", "is_reserved": 0, "lon": -77.0335925}, {"fusion_lat": 0.0, "name": "123a9624e9a8e6f4d72cdb7c0db97dbb", "is_disabled": 0, "rental_uris": {"android": "https://dc.lft.to/lastmile_qr_scan", "ios": "https://dc.lft.to/lastmile_qr_scan"}, "fusion_lon": 0.0, "lat": 38.906062166666665, "bike_id": "123a9624e9a8e6f4d72cdb7c0db97dbb", "type": "electric_scooter", "is_reserved": 0, "lon": -77.00690783333333}, {"fusion_lat": 0.0, "name": "f2fc8fe15c177afb684e99886a39b9cd", "is_disabled": 0, "rental_uris": {"android": "https://dc.lft.to/lastmile_qr_scan", "ios": "https://dc.lft.to/lastmile_qr_scan"}, "fusion_lon": 0.0, "lat": 38.907726333333336, "bike_id": "f2fc8fe15c177afb684e99886a39b9cd", "type": "electric_scooter", "is_reserved": 0, "lon": -77.0356945}, {"fusion_lat": 0.0, "name": "fc2a6859f3a2012f6b9378d88bf8d6e6", "is_disabled": 0, "rental_uris": {"android": "https://dc.lft.to/lastmile_qr_scan", "ios": "https://dc.lft.to/lastmile_qr_scan"}, "fusion_lon": 0.0, "lat": 38.91289616666667, "bike_id": "fc2a6859f3a2012f6b9378d88bf8d6e6", "type": "electric_bike", "is_reserved": 0, "lon": -77.04481566666666}, {"fusion_lat": 0.0, "name": "5ff17410f46ca6b9358ac4b2a7151cc6", "is_disabled": 0, "rental_uris": {"android": "https://dc.lft.to/lastmile_qr_scan", "ios": "https://dc.lft.to/lastmile_qr_scan"}, "fusion_lon": 0.0, "lat": 38.897100333333334, "bike_id": "5ff17410f46ca6b9358ac4b2a7151cc6", "type": "electric_scooter", "is_reserved": 0, "lon": -77.02285433333333}, {"fusion_lat": 0.0, "name": "40b84f395ae6216678ddb335bf6991ae", "is_disabled": 0, "rental_uris": {"android": "https://dc.lft.to/lastmile_qr_scan", "ios": "https://dc.lft.to/lastmile_qr_scan"}, "fusion_lon": 0.0, "lat": 38.88538033333333, "bike_id": "40b84f395ae6216678ddb335bf6991ae", "type": "electric_scooter", "is_reserved": 0, "lon": -77.00055133333333}, {"fusion_lat": 0.0, "name": "e2371fd02c4555236e16c2bdaeface0f", "is_disabled": 0, "rental_uris": {"android": "https://dc.lft.to/lastmile_qr_scan", "ios": "https://dc.lft.to/lastmile_qr_scan"}, "fusion_lon": 0.0, "lat": 38.907671, "bike_id": "e2371fd02c4555236e16c2bdaeface0f", "type": "electric_scooter", "is_reserved": 0, "lon": -77.05647066666667}, {"fusion_lat": 0.0, "name": "8f11f28e282c7af48b2ecae5a1ac7fe2", "is_disabled": 0, "rental_uris": {"android": "https://dc.lft.to/lastmile_qr_scan", "ios": "https://dc.lft.to/lastmile_qr_scan"}, "fusion_lon": 0.0, "lat": 38.90235916666666, "bike_id": "8f11f28e282c7af48b2ecae5a1ac7fe2", "type": "electric_scooter", "is_reserved": 0, "lon": -77.034709}, {"fusion_lat": 0.0, "name": "5dccab03b4347b83b841baaf4e1bb76b", "is_disabled": 0, "rental_uris": {"android": "https://dc.lft.to/lastmile_qr_scan", "ios": "https://dc.lft.to/lastmile_qr_scan"}, "fusion_lon": 0.0, "lat": 38.91634666666667, "bike_id": "5dccab03b4347b83b841baaf4e1bb76b", "type": "electric_scooter", "is_reserved": 0, "lon": -77.00097733333334}, {"fusion_lat": 0.0, "name": "7aa7162e229f737dd337679ec10e6c76", "is_disabled": 0, "rental_uris": {"android": "https://dc.lft.to/lastmile_qr_scan", "ios": "https://dc.lft.to/lastmile_qr_scan"}, "fusion_lon": 0.0, "lat": 38.91754183333333, "bike_id": "7aa7162e229f737dd337679ec10e6c76", "type": "electric_scooter", "is_reserved": 0, "lon": -77.03073316666666}, {"fusion_lat": 0.0, "name": "e323d0f389fc0dc8824499021b24a586", "is_disabled": 0, "rental_uris": {"android": "https://dc.lft.to/lastmile_qr_scan", "ios": "https://dc.lft.to/lastmile_qr_scan"}, "fusion_lon": 0.0, "lat": 38.905623, "bike_id": "e323d0f389fc0dc8824499021b24a586", "type": "electric_scooter", "is_reserved": 0, "lon": -77.04175333333333}, {"fusion_lat": 0.0, "name": "4ee85d3f1615cc006f0bc88c1150349c", "is_disabled": 0, "rental_uris": {"android": "https://dc.lft.to/lastmile_qr_scan", "ios": "https://dc.lft.to/lastmile_qr_scan"}, "fusion_lon": 0.0, "lat": 38.896195, "bike_id": "4ee85d3f1615cc006f0bc88c1150349c", "type": "electric_scooter", "is_reserved": 0, "lon": -77.009027}, {"fusion_lat": 0.0, "name": "ceece503e2f6cdf3a4fed5b4c3d9a99e", "is_disabled": 0, "rental_uris": {"android": "https://dc.lft.to/lastmile_qr_scan", "ios": "https://dc.lft.to/lastmile_qr_scan"}, "fusion_lon": 0.0, "lat": 38.8278805, "bike_id": "ceece503e2f6cdf3a4fed5b4c3d9a99e", "type": "electric_bike", "is_reserved": 0, "lon": -77.12482466666667}, {"fusion_lat": 0.0, "name": "d9d91bde2b33a2a230445696d0791371", "is_disabled": 0, "rental_uris": {"android": "https://dc.lft.to/lastmile_qr_scan", "ios": "https://dc.lft.to/lastmile_qr_scan"}, "fusion_lon": 0.0, "lat": 38.922267, "bike_id": "d9d91bde2b33a2a230445696d0791371", "type": "electric_scooter", "is_reserved": 0, "lon": -77.02366016666667}, {"fusion_lat": 0.0, "name": "3a4a01d0b4a3757edd248b11defbab3b", "is_disabled": 0, "rental_uris": {"android": "https://dc.lft.to/lastmile_qr_scan", "ios": "https://dc.lft.to/lastmile_qr_scan"}, "fusion_lon": 0.0, "lat": 38.937742166666666, "bike_id": "3a4a01d0b4a3757edd248b11defbab3b", "type": "electric_scooter", "is_reserved": 0, "lon": -77.03254783333334}, {"fusion_lat": 0.0, "name": "c0265cba983d70e75957130d86bf99a8", "is_disabled": 0, "rental_uris": {"android": "https://dc.lft.to/lastmile_qr_scan", "ios": "https://dc.lft.to/lastmile_qr_scan"}, "fusion_lon": 0.0, "lat": 38.93067683333334, "bike_id": "c0265cba983d70e75957130d86bf99a8", "type": "electric_scooter", "is_reserved": 0, "lon": -77.02171566666667}, {"fusion_lat": 0.0, "name": "7edbd1d7121158e627ff68a900b03153", "is_disabled": 0, "rental_uris": {"android": "https://dc.lft.to/lastmile_qr_scan", "ios": "https://dc.lft.to/lastmile_qr_scan"}, "fusion_lon": 0.0, "lat": 38.90157116666666, "bike_id": "7edbd1d7121158e627ff68a900b03153", "type": "electric_scooter", "is_reserved": 0, "lon": -77.02581683333334}, {"fusion_lat": 0.0, "name": "593e6ad3eef978f7c2fef51c6564bf10", "is_disabled": 0, "rental_uris": {"android": "https://dc.lft.to/lastmile_qr_scan", "ios": "https://dc.lft.to/lastmile_qr_scan"}, "fusion_lon": 0.0, "lat": 38.921373833333334, "bike_id": "593e6ad3eef978f7c2fef51c6564bf10", "type": "electric_scooter", "is_reserved": 0, "lon": -77.01796166666666}, {"fusion_lat": 0.0, "name": "4ebdbb87f1701551507b788c9bb4ea90", "is_disabled": 0, "rental_uris": {"android": "https://dc.lft.to/lastmile_qr_scan", "ios": "https://dc.lft.to/lastmile_qr_scan"}, "fusion_lon": 0.0, "lat": 38.98477583333333, "bike_id": "4ebdbb87f1701551507b788c9bb4ea90", "type": "electric_scooter", "is_reserved": 0, "lon": -77.0264025}, {"fusion_lat": 0.0, "name": "69e96d8ef998c5be8ebae693d7783d6d", "is_disabled": 0, "rental_uris": {"android": "https://dc.lft.to/lastmile_qr_scan", "ios": "https://dc.lft.to/lastmile_qr_scan"}, "fusion_lon": 0.0, "lat": 38.921654833333335, "bike_id": "69e96d8ef998c5be8ebae693d7783d6d", "type": "electric_scooter", "is_reserved": 0, "lon": -77.03650283333333}, {"fusion_lat": 0.0, "name": "4b8d6091a8de4d701be2dd5c01078d14", "is_disabled": 0, "rental_uris": {"android": "https://dc.lft.to/lastmile_qr_scan", "ios": "https://dc.lft.to/lastmile_qr_scan"}, "fusion_lon": 0.0, "lat": 38.91352883333333, "bike_id": "4b8d6091a8de4d701be2dd5c01078d14", "type": "electric_scooter", "is_reserved": 0, "lon": -77.03327433333334}, {"fusion_lat": 0.0, "name": "9b26f41787258a84de2a9afaee7ea6c2", "is_disabled": 0, "rental_uris": {"android": "https://dc.lft.to/lastmile_qr_scan", "ios": "https://dc.lft.to/lastmile_qr_scan"}, "fusion_lon": 0.0, "lat": 38.8876265, "bike_id": "9b26f41787258a84de2a9afaee7ea6c2", "type": "electric_scooter", "is_reserved": 0, "lon": -76.9946895}, {"fusion_lat": 0.0, "name": "19e931aceb321c94dae9af52a447169e", "is_disabled": 0, "rental_uris": {"android": "https://dc.lft.to/lastmile_qr_scan", "ios": "https://dc.lft.to/lastmile_qr_scan"}, "fusion_lon": 0.0, "lat": 38.92478766666667, "bike_id": "19e931aceb321c94dae9af52a447169e", "type": "electric_scooter", "is_reserved": 0, "lon": -77.02831383333333}, {"fusion_lat": 0.0, "name": "bf3443f94918263802a6f697d5688364", "is_disabled": 0, "rental_uris": {"android": "https://dc.lft.to/lastmile_qr_scan", "ios": "https://dc.lft.to/lastmile_qr_scan"}, "fusion_lon": 0.0, "lat": 38.90528166666667, "bike_id": "bf3443f94918263802a6f697d5688364", "type": "electric_scooter", "is_reserved": 0, "lon": -77.05762483333334}, {"fusion_lat": 0.0, "name": "5b647e95a0d46f4eb916ec6afbf417e5", "is_disabled": 0, "rental_uris": {"android": "https://dc.lft.to/lastmile_qr_scan", "ios": "https://dc.lft.to/lastmile_qr_scan"}, "fusion_lon": 0.0, "lat": 38.91844416666667, "bike_id": "5b647e95a0d46f4eb916ec6afbf417e5", "type": "electric_scooter", "is_reserved": 0, "lon": -76.96536316666666}, {"fusion_lat": 0.0, "name": "3f49af28fe284db8334190f1d0c90a8c", "is_disabled": 0, "rental_uris": {"android": "https://dc.lft.to/lastmile_qr_scan", "ios": "https://dc.lft.to/lastmile_qr_scan"}, "fusion_lon": 0.0, "lat": 38.9166165, "bike_id": "3f49af28fe284db8334190f1d0c90a8c", "type": "electric_scooter", "is_reserved": 0, "lon": -77.02819633333333}, {"fusion_lat": 0.0, "name": "b8cdd77a891c73b6da49c69cc1ea822f", "is_disabled": 0, "rental_uris": {"android": "https://dc.lft.to/lastmile_qr_scan", "ios": "https://dc.lft.to/lastmile_qr_scan"}, "fusion_lon": 0.0, "lat": 38.903795333333335, "bike_id": "b8cdd77a891c73b6da49c69cc1ea822f", "type": "electric_scooter", "is_reserved": 0, "lon": -77.03314033333334}, {"fusion_lat": 0.0, "name": "de76e315cbeaf97904bcc3c81776b713", "is_disabled": 0, "rental_uris": {"android": "https://dc.lft.to/lastmile_qr_scan", "ios": "https://dc.lft.to/lastmile_qr_scan"}, "fusion_lon": 0.0, "lat": 38.902437666666664, "bike_id": "de76e315cbeaf97904bcc3c81776b713", "type": "electric_scooter", "is_reserved": 0, "lon": -77.02611533333334}, {"fusion_lat": 0.0, "name": "d0a223ae3d1b4e26415a05e03498e245", "is_disabled": 0, "rental_uris": {"android": "https://dc.lft.to/lastmile_qr_scan", "ios": "https://dc.lft.to/lastmile_qr_scan"}, "fusion_lon": 0.0, "lat": 38.895170666666665, "bike_id": "d0a223ae3d1b4e26415a05e03498e245", "type": "electric_scooter", "is_reserved": 0, "lon": -77.01121733333333}, {"fusion_lat": 0.0, "name": "8d0ed08e365fecbaf92943e7d3f69fd5", "is_disabled": 0, "rental_uris": {"android": "https://dc.lft.to/lastmile_qr_scan", "ios": "https://dc.lft.to/lastmile_qr_scan"}, "fusion_lon": 0.0, "lat": 38.903891, "bike_id": "8d0ed08e365fecbaf92943e7d3f69fd5", "type": "electric_scooter", "is_reserved": 0, "lon": -77.0359245}, {"fusion_lat": 0.0, "name": "641a8609123f3b8ed121f8194cf0269d", "is_disabled": 0, "rental_uris": {"android": "https://dc.lft.to/lastmile_qr_scan", "ios": "https://dc.lft.to/lastmile_qr_scan"}, "fusion_lon": 0.0, "lat": 38.9237905, "bike_id": "641a8609123f3b8ed121f8194cf0269d", "type": "electric_scooter", "is_reserved": 0, "lon": -77.0353435}, {"fusion_lat": 0.0, "name": "add364b0e714243386f28cd8e1aecadd", "is_disabled": 0, "rental_uris": {"android": "https://dc.lft.to/lastmile_qr_scan", "ios": "https://dc.lft.to/lastmile_qr_scan"}, "fusion_lon": 0.0, "lat": 38.919238666666665, "bike_id": "add364b0e714243386f28cd8e1aecadd", "type": "electric_scooter", "is_reserved": 0, "lon": -77.00978066666667}, {"fusion_lat": 0.0, "name": "49aabff14f331f77c267ae29fc05eeb3", "is_disabled": 0, "rental_uris": {"android": "https://dc.lft.to/lastmile_qr_scan", "ios": "https://dc.lft.to/lastmile_qr_scan"}, "fusion_lon": 0.0, "lat": 38.941892, "bike_id": "49aabff14f331f77c267ae29fc05eeb3", "type": "electric_scooter", "is_reserved": 0, "lon": -77.023159}, {"fusion_lat": 0.0, "name": "ec8bf25954bcb792a70e4323dae33369", "is_disabled": 0, "rental_uris": {"android": "https://dc.lft.to/lastmile_qr_scan", "ios": "https://dc.lft.to/lastmile_qr_scan"}, "fusion_lon": 0.0, "lat": 38.813334166666664, "bike_id": "ec8bf25954bcb792a70e4323dae33369", "type": "electric_bike", "is_reserved": 0, "lon": -77.0508675}, {"fusion_lat": 0.0, "name": "d966df46d3a783c46ea51d08793d41c6", "is_disabled": 0, "rental_uris": {"android": "https://dc.lft.to/lastmile_qr_scan", "ios": "https://dc.lft.to/lastmile_qr_scan"}, "fusion_lon": 0.0, "lat": 38.905455833333335, "bike_id": "d966df46d3a783c46ea51d08793d41c6", "type": "electric_scooter", "is_reserved": 0, "lon": -77.05109866666666}, {"fusion_lat": 0.0, "name": "b318710f81686f7a7de0cd4cc4b21464", "is_disabled": 0, "rental_uris": {"android": "https://dc.lft.to/lastmile_qr_scan", "ios": "https://dc.lft.to/lastmile_qr_scan"}, "fusion_lon": 0.0, "lat": 38.90004016666666, "bike_id": "b318710f81686f7a7de0cd4cc4b21464", "type": "electric_scooter", "is_reserved": 0, "lon": -77.01252283333334}, {"fusion_lat": 0.0, "name": "615dcc7978c61dee579003ac75a40a22", "is_disabled": 0, "rental_uris": {"android": "https://dc.lft.to/lastmile_qr_scan", "ios": "https://dc.lft.to/lastmile_qr_scan"}, "fusion_lon": 0.0, "lat": 38.902762, "bike_id": "615dcc7978c61dee579003ac75a40a22", "type": "electric_scooter", "is_reserved": 0, "lon": -77.00556233333333}, {"fusion_lat": 0.0, "name": "2558ebab03b9bed51ed810b3bcc39ada", "is_disabled": 0, "rental_uris": {"android": "https://dc.lft.to/lastmile_qr_scan", "ios": "https://dc.lft.to/lastmile_qr_scan"}, "fusion_lon": 0.0, "lat": 38.91473766666667, "bike_id": "2558ebab03b9bed51ed810b3bcc39ada", "type": "electric_scooter", "is_reserved": 0, "lon": -77.03257883333333}, {"fusion_lat": 0.0, "name": "8dfcaa951ac3b3b08f3dffa667c686bd", "is_disabled": 0, "rental_uris": {"android": "https://dc.lft.to/lastmile_qr_scan", "ios": "https://dc.lft.to/lastmile_qr_scan"}, "fusion_lon": 0.0, "lat": 38.884175, "bike_id": "8dfcaa951ac3b3b08f3dffa667c686bd", "type": "electric_scooter", "is_reserved": 0, "lon": -76.9921405}, {"fusion_lat": 0.0, "name": "a7832d3789148721008434ebf39ee5ab", "is_disabled": 0, "rental_uris": {"android": "https://dc.lft.to/lastmile_qr_scan", "ios": "https://dc.lft.to/lastmile_qr_scan"}, "fusion_lon": 0.0, "lat": 38.91024566666667, "bike_id": "a7832d3789148721008434ebf39ee5ab", "type": "electric_scooter", "is_reserved": 0, "lon": -77.007525}, {"fusion_lat": 0.0, "name": "b4ac9f3e513077545f5a523aee66a88a", "is_disabled": 0, "rental_uris": {"android": "https://dc.lft.to/lastmile_qr_scan", "ios": "https://dc.lft.to/lastmile_qr_scan"}, "fusion_lon": 0.0, "lat": 38.927888, "bike_id": "b4ac9f3e513077545f5a523aee66a88a", "type": "electric_scooter", "is_reserved": 0, "lon": -76.97971116666666}, {"fusion_lat": 0.0, "name": "0472104e2f6db4fd323f6438e9e614b4", "is_disabled": 0, "rental_uris": {"android": "https://dc.lft.to/lastmile_qr_scan", "ios": "https://dc.lft.to/lastmile_qr_scan"}, "fusion_lon": 0.0, "lat": 38.8861855, "bike_id": "0472104e2f6db4fd323f6438e9e614b4", "type": "electric_scooter", "is_reserved": 0, "lon": -77.01999133333334}, {"fusion_lat": 0.0, "name": "f05b98f54b7cd41d8b92991e68d605a0", "is_disabled": 0, "rental_uris": {"android": "https://dc.lft.to/lastmile_qr_scan", "ios": "https://dc.lft.to/lastmile_qr_scan"}, "fusion_lon": 0.0, "lat": 38.92066966666667, "bike_id": "f05b98f54b7cd41d8b92991e68d605a0", "type": "electric_scooter", "is_reserved": 0, "lon": -77.04198216666667}, {"fusion_lat": 0.0, "name": "f50e160ec5d2fb666338fa2aa20425bd", "is_disabled": 0, "rental_uris": {"android": "https://dc.lft.to/lastmile_qr_scan", "ios": "https://dc.lft.to/lastmile_qr_scan"}, "fusion_lon": 0.0, "lat": 38.89483716666667, "bike_id": "f50e160ec5d2fb666338fa2aa20425bd", "type": "electric_scooter", "is_reserved": 0, "lon": -77.02183333333333}, {"fusion_lat": 0.0, "name": "41ce656064d2048997105a8c45899bb5", "is_disabled": 0, "rental_uris": {"android": "https://dc.lft.to/lastmile_qr_scan", "ios": "https://dc.lft.to/lastmile_qr_scan"}, "fusion_lon": 0.0, "lat": 38.8626505, "bike_id": "41ce656064d2048997105a8c45899bb5", "type": "electric_bike", "is_reserved": 0, "lon": -76.98341116666667}, {"fusion_lat": 0.0, "name": "6e925e832a9176eec37d9653b0ee3a62", "is_disabled": 0, "rental_uris": {"android": "https://dc.lft.to/lastmile_qr_scan", "ios": "https://dc.lft.to/lastmile_qr_scan"}, "fusion_lon": 0.0, "lat": 38.90095266666667, "bike_id": "6e925e832a9176eec37d9653b0ee3a62", "type": "electric_scooter", "is_reserved": 0, "lon": -77.01941916666667}, {"fusion_lat": 0.0, "name": "b364da09d2a8c98381d2a1d1fd1c0f9d", "is_disabled": 0, "rental_uris": {"android": "https://dc.lft.to/lastmile_qr_scan", "ios": "https://dc.lft.to/lastmile_qr_scan"}, "fusion_lon": 0.0, "lat": 38.907346833333335, "bike_id": "b364da09d2a8c98381d2a1d1fd1c0f9d", "type": "electric_scooter", "is_reserved": 0, "lon": -77.04518866666666}, {"fusion_lat": 0.0, "name": "838f1bb1e43ebbda68e8e412c0750306", "is_disabled": 0, "rental_uris": {"android": "https://dc.lft.to/lastmile_qr_scan", "ios": "https://dc.lft.to/lastmile_qr_scan"}, "fusion_lon": 0.0, "lat": 38.92359583333333, "bike_id": "838f1bb1e43ebbda68e8e412c0750306", "type": "electric_scooter", "is_reserved": 0, "lon": -77.042555}, {"fusion_lat": 0.0, "name": "3ee35dc45b7a4c13d0e874b3c543e0fb", "is_disabled": 0, "rental_uris": {"android": "https://dc.lft.to/lastmile_qr_scan", "ios": "https://dc.lft.to/lastmile_qr_scan"}, "fusion_lon": 0.0, "lat": 38.935635833333336, "bike_id": "3ee35dc45b7a4c13d0e874b3c543e0fb", "type": "electric_bike", "is_reserved": 0, "lon": -77.03689766666666}, {"fusion_lat": 0.0, "name": "dd9e63eaa7c06a59e2d606d965d08ef0", "is_disabled": 0, "rental_uris": {"android": "https://dc.lft.to/lastmile_qr_scan", "ios": "https://dc.lft.to/lastmile_qr_scan"}, "fusion_lon": 0.0, "lat": 38.920589666666665, "bike_id": "dd9e63eaa7c06a59e2d606d965d08ef0", "type": "electric_scooter", "is_reserved": 0, "lon": -77.04187766666666}, {"fusion_lat": 0.0, "name": "c69528911fdfe738dac17ff4f9de2c01", "is_disabled": 0, "rental_uris": {"android": "https://dc.lft.to/lastmile_qr_scan", "ios": "https://dc.lft.to/lastmile_qr_scan"}, "fusion_lon": 0.0, "lat": 38.91653083333333, "bike_id": "c69528911fdfe738dac17ff4f9de2c01", "type": "electric_scooter", "is_reserved": 0, "lon": -77.02821483333334}, {"fusion_lat": 0.0, "name": "f36692501a7f115cb6053b35091b5190", "is_disabled": 0, "rental_uris": {"android": "https://dc.lft.to/lastmile_qr_scan", "ios": "https://dc.lft.to/lastmile_qr_scan"}, "fusion_lon": 0.0, "lat": 38.924636666666665, "bike_id": "f36692501a7f115cb6053b35091b5190", "type": "electric_scooter", "is_reserved": 0, "lon": -76.9933285}, {"fusion_lat": 0.0, "name": "7eaa7539c48c3543fb094f72def60ce2", "is_disabled": 0, "rental_uris": {"android": "https://dc.lft.to/lastmile_qr_scan", "ios": "https://dc.lft.to/lastmile_qr_scan"}, "fusion_lon": 0.0, "lat": 39.00774333333333, "bike_id": "7eaa7539c48c3543fb094f72def60ce2", "type": "electric_bike", "is_reserved": 0, "lon": -76.8897695}, {"fusion_lat": 0.0, "name": "8a2e1237b180d575b9b6319c7bb0992b", "is_disabled": 0, "rental_uris": {"android": "https://dc.lft.to/lastmile_qr_scan", "ios": "https://dc.lft.to/lastmile_qr_scan"}, "fusion_lon": 0.0, "lat": 38.886762, "bike_id": "8a2e1237b180d575b9b6319c7bb0992b", "type": "electric_scooter", "is_reserved": 0, "lon": -77.01361966666667}, {"fusion_lat": 0.0, "name": "7c758670b8dbfa2ebddb080ae4785944", "is_disabled": 0, "rental_uris": {"android": "https://dc.lft.to/lastmile_qr_scan", "ios": "https://dc.lft.to/lastmile_qr_scan"}, "fusion_lon": 0.0, "lat": 38.91134383333333, "bike_id": "7c758670b8dbfa2ebddb080ae4785944", "type": "electric_scooter", "is_reserved": 0, "lon": -77.01048133333333}, {"fusion_lat": 0.0, "name": "6b0028343a4f6d6e6743284db33ef3af", "is_disabled": 0, "rental_uris": {"android": "https://dc.lft.to/lastmile_qr_scan", "ios": "https://dc.lft.to/lastmile_qr_scan"}, "fusion_lon": 0.0, "lat": 38.89667566666667, "bike_id": "6b0028343a4f6d6e6743284db33ef3af", "type": "electric_scooter", "is_reserved": 0, "lon": -77.033504}, {"fusion_lat": 0.0, "name": "97f1a4e7539180c5998d1698620694ed", "is_disabled": 0, "rental_uris": {"android": "https://dc.lft.to/lastmile_qr_scan", "ios": "https://dc.lft.to/lastmile_qr_scan"}, "fusion_lon": 0.0, "lat": 38.8840205, "bike_id": "97f1a4e7539180c5998d1698620694ed", "type": "electric_scooter", "is_reserved": 0, "lon": -76.98585416666667}, {"fusion_lat": 0.0, "name": "d8320a02d0b192d52b820c2341606585", "is_disabled": 0, "rental_uris": {"android": "https://dc.lft.to/lastmile_qr_scan", "ios": "https://dc.lft.to/lastmile_qr_scan"}, "fusion_lon": 0.0, "lat": 38.93777433333333, "bike_id": "d8320a02d0b192d52b820c2341606585", "type": "electric_scooter", "is_reserved": 0, "lon": -77.03257083333334}, {"fusion_lat": 0.0, "name": "3ccfdccc8ab93dc8b1ec56e289107fef", "is_disabled": 0, "rental_uris": {"android": "https://dc.lft.to/lastmile_qr_scan", "ios": "https://dc.lft.to/lastmile_qr_scan"}, "fusion_lon": 0.0, "lat": 38.9245055, "bike_id": "3ccfdccc8ab93dc8b1ec56e289107fef", "type": "electric_scooter", "is_reserved": 0, "lon": -77.03419416666667}, {"fusion_lat": 0.0, "name": "cf1d068378de8e14fa39a68b3802ee27", "is_disabled": 0, "rental_uris": {"android": "https://dc.lft.to/lastmile_qr_scan", "ios": "https://dc.lft.to/lastmile_qr_scan"}, "fusion_lon": 0.0, "lat": 38.9318005, "bike_id": "cf1d068378de8e14fa39a68b3802ee27", "type": "electric_bike", "is_reserved": 0, "lon": -77.03539516666666}, {"fusion_lat": 0.0, "name": "b187116de7eeac0c4cb8cee2e9614499", "is_disabled": 0, "rental_uris": {"android": "https://dc.lft.to/lastmile_qr_scan", "ios": "https://dc.lft.to/lastmile_qr_scan"}, "fusion_lon": 0.0, "lat": 38.900621666666666, "bike_id": "b187116de7eeac0c4cb8cee2e9614499", "type": "electric_scooter", "is_reserved": 0, "lon": -76.93383116666666}, {"fusion_lat": 0.0, "name": "72a11dd55eb40d56b83b021031af3c79", "is_disabled": 0, "rental_uris": {"android": "https://dc.lft.to/lastmile_qr_scan", "ios": "https://dc.lft.to/lastmile_qr_scan"}, "fusion_lon": 0.0, "lat": 38.94567266666667, "bike_id": "72a11dd55eb40d56b83b021031af3c79", "type": "electric_scooter", "is_reserved": 0, "lon": -77.07831116666667}, {"fusion_lat": 0.0, "name": "95700a608db6ae9639a674eb6f599023", "is_disabled": 0, "rental_uris": {"android": "https://dc.lft.to/lastmile_qr_scan", "ios": "https://dc.lft.to/lastmile_qr_scan"}, "fusion_lon": 0.0, "lat": 38.932592166666666, "bike_id": "95700a608db6ae9639a674eb6f599023", "type": "electric_scooter", "is_reserved": 0, "lon": -77.0343805}, {"fusion_lat": 0.0, "name": "15db4581c4f6eecb529169adf040f233", "is_disabled": 0, "rental_uris": {"android": "https://dc.lft.to/lastmile_qr_scan", "ios": "https://dc.lft.to/lastmile_qr_scan"}, "fusion_lon": 0.0, "lat": 38.9486155, "bike_id": "15db4581c4f6eecb529169adf040f233", "type": "electric_scooter", "is_reserved": 0, "lon": -77.025744}, {"fusion_lat": 0.0, "name": "e7fb0ca2d670d8e8ea59d89969c41f99", "is_disabled": 0, "rental_uris": {"android": "https://dc.lft.to/lastmile_qr_scan", "ios": "https://dc.lft.to/lastmile_qr_scan"}, "fusion_lon": 0.0, "lat": 38.9111215, "bike_id": "e7fb0ca2d670d8e8ea59d89969c41f99", "type": "electric_scooter", "is_reserved": 0, "lon": -77.04506533333333}, {"fusion_lat": 0.0, "name": "9a32fc7245345e80ba66293a90da8dd4", "is_disabled": 0, "rental_uris": {"android": "https://dc.lft.to/lastmile_qr_scan", "ios": "https://dc.lft.to/lastmile_qr_scan"}, "fusion_lon": 0.0, "lat": 38.83521116666667, "bike_id": "9a32fc7245345e80ba66293a90da8dd4", "type": "electric_bike", "is_reserved": 0, "lon": -76.9866825}, {"fusion_lat": 0.0, "name": "184bf83175b605772cab9c829eba9085", "is_disabled": 0, "rental_uris": {"android": "https://dc.lft.to/lastmile_qr_scan", "ios": "https://dc.lft.to/lastmile_qr_scan"}, "fusion_lon": 0.0, "lat": 38.907693, "bike_id": "184bf83175b605772cab9c829eba9085", "type": "electric_scooter", "is_reserved": 0, "lon": -77.05590233333334}, {"fusion_lat": 0.0, "name": "328869f5b8e9b95a8623d2277141525c", "is_disabled": 0, "rental_uris": {"android": "https://dc.lft.to/lastmile_qr_scan", "ios": "https://dc.lft.to/lastmile_qr_scan"}, "fusion_lon": 0.0, "lat": 38.91541083333333, "bike_id": "328869f5b8e9b95a8623d2277141525c", "type": "electric_scooter", "is_reserved": 0, "lon": -77.01124566666667}, {"fusion_lat": 0.0, "name": "c7d75942bf71b604227ff765a3e8bf9c", "is_disabled": 0, "rental_uris": {"android": "https://dc.lft.to/lastmile_qr_scan", "ios": "https://dc.lft.to/lastmile_qr_scan"}, "fusion_lon": 0.0, "lat": 38.903602166666666, "bike_id": "c7d75942bf71b604227ff765a3e8bf9c", "type": "electric_scooter", "is_reserved": 0, "lon": -77.05478983333333}, {"fusion_lat": 0.0, "name": "9fb6016bc8031381cf7981a3f4dcbace", "is_disabled": 0, "rental_uris": {"android": "https://dc.lft.to/lastmile_qr_scan", "ios": "https://dc.lft.to/lastmile_qr_scan"}, "fusion_lon": 0.0, "lat": 38.900285, "bike_id": "9fb6016bc8031381cf7981a3f4dcbace", "type": "electric_scooter", "is_reserved": 0, "lon": -77.0020005}, {"fusion_lat": 0.0, "name": "210c40b8cb21f7a5c159b82c3e710f59", "is_disabled": 0, "rental_uris": {"android": "https://dc.lft.to/lastmile_qr_scan", "ios": "https://dc.lft.to/lastmile_qr_scan"}, "fusion_lon": 0.0, "lat": 38.897547333333335, "bike_id": "210c40b8cb21f7a5c159b82c3e710f59", "type": "electric_scooter", "is_reserved": 0, "lon": -77.05129083333334}, {"fusion_lat": 0.0, "name": "ff56b18602d497d90ac8e6e457fd6e67", "is_disabled": 0, "rental_uris": {"android": "https://dc.lft.to/lastmile_qr_scan", "ios": "https://dc.lft.to/lastmile_qr_scan"}, "fusion_lon": 0.0, "lat": 38.83402983333333, "bike_id": "ff56b18602d497d90ac8e6e457fd6e67", "type": "electric_bike", "is_reserved": 0, "lon": -77.00331933333334}, {"fusion_lat": 0.0, "name": "0f3a9b806b5274f12818d6ec24e8df64", "is_disabled": 0, "rental_uris": {"android": "https://dc.lft.to/lastmile_qr_scan", "ios": "https://dc.lft.to/lastmile_qr_scan"}, "fusion_lon": 0.0, "lat": 38.908538166666666, "bike_id": "0f3a9b806b5274f12818d6ec24e8df64", "type": "electric_scooter", "is_reserved": 0, "lon": -77.0282655}, {"fusion_lat": 0.0, "name": "590c91c250042dc80b0d3fabfe7e6e8f", "is_disabled": 0, "rental_uris": {"android": "https://dc.lft.to/lastmile_qr_scan", "ios": "https://dc.lft.to/lastmile_qr_scan"}, "fusion_lon": 0.0, "lat": 38.91553433333333, "bike_id": "590c91c250042dc80b0d3fabfe7e6e8f", "type": "electric_scooter", "is_reserved": 0, "lon": -77.03507216666667}, {"fusion_lat": 0.0, "name": "61aa0e1d1a83dc92eee67a373a23b5a0", "is_disabled": 0, "rental_uris": {"android": "https://dc.lft.to/lastmile_qr_scan", "ios": "https://dc.lft.to/lastmile_qr_scan"}, "fusion_lon": 0.0, "lat": 38.8844085, "bike_id": "61aa0e1d1a83dc92eee67a373a23b5a0", "type": "electric_scooter", "is_reserved": 0, "lon": -77.00343983333333}, {"fusion_lat": 0.0, "name": "26db35da82be01d017461ab73fed02ec", "is_disabled": 0, "rental_uris": {"android": "https://dc.lft.to/lastmile_qr_scan", "ios": "https://dc.lft.to/lastmile_qr_scan"}, "fusion_lon": 0.0, "lat": 38.877597333333334, "bike_id": "26db35da82be01d017461ab73fed02ec", "type": "electric_scooter", "is_reserved": 0, "lon": -76.99384683333334}, {"fusion_lat": 0.0, "name": "6a673fa9db6a7dd0341ca4e94d7a2b72", "is_disabled": 0, "rental_uris": {"android": "https://dc.lft.to/lastmile_qr_scan", "ios": "https://dc.lft.to/lastmile_qr_scan"}, "fusion_lon": 0.0, "lat": 38.90457416666667, "bike_id": "6a673fa9db6a7dd0341ca4e94d7a2b72", "type": "electric_scooter", "is_reserved": 0, "lon": -77.04069333333334}, {"fusion_lat": 0.0, "name": "9f5568000be927076331ac4b4e173400", "is_disabled": 0, "rental_uris": {"android": "https://dc.lft.to/lastmile_qr_scan", "ios": "https://dc.lft.to/lastmile_qr_scan"}, "fusion_lon": 0.0, "lat": 38.935785333333335, "bike_id": "9f5568000be927076331ac4b4e173400", "type": "electric_scooter", "is_reserved": 0, "lon": -77.01925716666666}, {"fusion_lat": 0.0, "name": "15ba32a68a53fb10516b2af1d1de75e9", "is_disabled": 0, "rental_uris": {"android": "https://dc.lft.to/lastmile_qr_scan", "ios": "https://dc.lft.to/lastmile_qr_scan"}, "fusion_lon": 0.0, "lat": 38.922508666666666, "bike_id": "15ba32a68a53fb10516b2af1d1de75e9", "type": "electric_scooter", "is_reserved": 0, "lon": -77.03383866666667}, {"fusion_lat": 0.0, "name": "7a2a7c9a3b3d2e84f1286b49458e5827", "is_disabled": 0, "rental_uris": {"android": "https://dc.lft.to/lastmile_qr_scan", "ios": "https://dc.lft.to/lastmile_qr_scan"}, "fusion_lon": 0.0, "lat": 38.920552, "bike_id": "7a2a7c9a3b3d2e84f1286b49458e5827", "type": "electric_scooter", "is_reserved": 0, "lon": -77.01775916666666}, {"fusion_lat": 0.0, "name": "ffb40825b1ec3f78a20aeb4d0f68a245", "is_disabled": 0, "rental_uris": {"android": "https://dc.lft.to/lastmile_qr_scan", "ios": "https://dc.lft.to/lastmile_qr_scan"}, "fusion_lon": 0.0, "lat": 38.899005, "bike_id": "ffb40825b1ec3f78a20aeb4d0f68a245", "type": "electric_scooter", "is_reserved": 0, "lon": -76.9454805}, {"fusion_lat": 0.0, "name": "f839fcf90de1b53b51c142f1d811ace8", "is_disabled": 0, "rental_uris": {"android": "https://dc.lft.to/lastmile_qr_scan", "ios": "https://dc.lft.to/lastmile_qr_scan"}, "fusion_lon": 0.0, "lat": 38.916216, "bike_id": "f839fcf90de1b53b51c142f1d811ace8", "type": "electric_scooter", "is_reserved": 0, "lon": -77.03853033333333}, {"fusion_lat": 0.0, "name": "9fb703aaae985a98b82815b70c9ab0a0", "is_disabled": 0, "rental_uris": {"android": "https://dc.lft.to/lastmile_qr_scan", "ios": "https://dc.lft.to/lastmile_qr_scan"}, "fusion_lon": 0.0, "lat": 38.9095635, "bike_id": "9fb703aaae985a98b82815b70c9ab0a0", "type": "electric_scooter", "is_reserved": 0, "lon": -76.98538933333333}, {"fusion_lat": 0.0, "name": "2426660463ce588fbde9d33a580edbbe", "is_disabled": 0, "rental_uris": {"android": "https://dc.lft.to/lastmile_qr_scan", "ios": "https://dc.lft.to/lastmile_qr_scan"}, "fusion_lon": 0.0, "lat": 38.909811, "bike_id": "2426660463ce588fbde9d33a580edbbe", "type": "electric_scooter", "is_reserved": 0, "lon": -77.03836433333333}, {"fusion_lat": 0.0, "name": "de1bf192d2d80ff73da42595717b5622", "is_disabled": 0, "rental_uris": {"android": "https://dc.lft.to/lastmile_qr_scan", "ios": "https://dc.lft.to/lastmile_qr_scan"}, "fusion_lon": 0.0, "lat": 38.9446355, "bike_id": "de1bf192d2d80ff73da42595717b5622", "type": "electric_scooter", "is_reserved": 0, "lon": -77.00656383333333}, {"fusion_lat": 0.0, "name": "086957aa6645aaa52d20a67e05e67728", "is_disabled": 0, "rental_uris": {"android": "https://dc.lft.to/lastmile_qr_scan", "ios": "https://dc.lft.to/lastmile_qr_scan"}, "fusion_lon": 0.0, "lat": 38.887646833333335, "bike_id": "086957aa6645aaa52d20a67e05e67728", "type": "electric_scooter", "is_reserved": 0, "lon": -76.9774795}, {"fusion_lat": 0.0, "name": "cd950f438df903bbd4a2fff0a7ed620b", "is_disabled": 0, "rental_uris": {"android": "https://dc.lft.to/lastmile_qr_scan", "ios": "https://dc.lft.to/lastmile_qr_scan"}, "fusion_lon": 0.0, "lat": 38.8746795, "bike_id": "cd950f438df903bbd4a2fff0a7ed620b", "type": "electric_scooter", "is_reserved": 0, "lon": -77.01897816666667}, {"fusion_lat": 0.0, "name": "33a43787cf8c188465b2b61474f4ff19", "is_disabled": 0, "rental_uris": {"android": "https://dc.lft.to/lastmile_qr_scan", "ios": "https://dc.lft.to/lastmile_qr_scan"}, "fusion_lon": 0.0, "lat": 38.8246015, "bike_id": "33a43787cf8c188465b2b61474f4ff19", "type": "electric_bike", "is_reserved": 0, "lon": -77.00792783333333}, {"fusion_lat": 0.0, "name": "a1b2291841b428588962875eac32f40b", "is_disabled": 0, "rental_uris": {"android": "https://dc.lft.to/lastmile_qr_scan", "ios": "https://dc.lft.to/lastmile_qr_scan"}, "fusion_lon": 0.0, "lat": 38.92502433333333, "bike_id": "a1b2291841b428588962875eac32f40b", "type": "electric_scooter", "is_reserved": 0, "lon": -77.0521865}, {"fusion_lat": 0.0, "name": "827616d22ced311ae58ab5dea2423bf2", "is_disabled": 0, "rental_uris": {"android": "https://dc.lft.to/lastmile_qr_scan", "ios": "https://dc.lft.to/lastmile_qr_scan"}, "fusion_lon": 0.0, "lat": 38.884938166666664, "bike_id": "827616d22ced311ae58ab5dea2423bf2", "type": "electric_scooter", "is_reserved": 0, "lon": -77.01085566666667}, {"fusion_lat": 0.0, "name": "e0b58fc1d7dcd9dfebfbd84176f7414b", "is_disabled": 0, "rental_uris": {"android": "https://dc.lft.to/lastmile_qr_scan", "ios": "https://dc.lft.to/lastmile_qr_scan"}, "fusion_lon": 0.0, "lat": 38.92145766666667, "bike_id": "e0b58fc1d7dcd9dfebfbd84176f7414b", "type": "electric_scooter", "is_reserved": 0, "lon": -77.045627}, {"fusion_lat": 0.0, "name": "66ce44616c558bcd859af79f006f48da", "is_disabled": 0, "rental_uris": {"android": "https://dc.lft.to/lastmile_qr_scan", "ios": "https://dc.lft.to/lastmile_qr_scan"}, "fusion_lon": 0.0, "lat": 38.88847833333333, "bike_id": "66ce44616c558bcd859af79f006f48da", "type": "electric_scooter", "is_reserved": 0, "lon": -76.9268035}, {"fusion_lat": 0.0, "name": "f9f6108de2e9d5eb1f3a90b6716fcae4", "is_disabled": 0, "rental_uris": {"android": "https://dc.lft.to/lastmile_qr_scan", "ios": "https://dc.lft.to/lastmile_qr_scan"}, "fusion_lon": 0.0, "lat": 38.90008433333333, "bike_id": "f9f6108de2e9d5eb1f3a90b6716fcae4", "type": "electric_scooter", "is_reserved": 0, "lon": -77.03317683333333}, {"fusion_lat": 0.0, "name": "04a4ef281f9bf651a24fbe32219551f0", "is_disabled": 0, "rental_uris": {"android": "https://dc.lft.to/lastmile_qr_scan", "ios": "https://dc.lft.to/lastmile_qr_scan"}, "fusion_lon": 0.0, "lat": 38.91326333333333, "bike_id": "04a4ef281f9bf651a24fbe32219551f0", "type": "electric_scooter", "is_reserved": 0, "lon": -77.02147316666667}, {"fusion_lat": 0.0, "name": "bd2d67b65d0395461240afb825840de8", "is_disabled": 0, "rental_uris": {"android": "https://dc.lft.to/lastmile_qr_scan", "ios": "https://dc.lft.to/lastmile_qr_scan"}, "fusion_lon": 0.0, "lat": 38.89732433333333, "bike_id": "bd2d67b65d0395461240afb825840de8", "type": "electric_scooter", "is_reserved": 0, "lon": -77.02252333333334},