{"data": {"bikes": [{"rental_uris": {"ios": "https://dc.lft.to/lastmile_qr_scan", "android": "https://dc.lft.to/lastmile_qr_scan"}, "type": "electric_scooter", "name": "b7661935071f976e4f2ab19e24d34d55", "is_reserved": 0, "lon": -77.02212183333333, "is_disabled": 0, "fusion_lat": 0.0, "lat": 38.912661666666665, "bike_id": "b7661935071f976e4f2ab19e24d34d55", "fusion_lon": 0.0}, {"rental_uris": {"ios": "https://dc.lft.to/lastmile_qr_scan", "android": "https://dc.lft.to/lastmile_qr_scan"}, "type": "electric_bike", "name": "12634d724c3dff746949c26fd226e8df", "is_reserved": 0, "lon": -76.97529183333333, "is_disabled": 0, "fusion_lat": 0.0, "lat": 38.903293, "bike_id": "12634d724c3dff746949c26fd226e8df", "fusion_lon": 0.0}, {"rental_uris": {"ios": "https://dc.lft.to/lastmile_qr_scan", "android": "https://dc.lft.to/lastmile_qr_scan"}, "type": "electric_scooter", "name": "717e8c569776f14f733b4bbc43f444d8", "is_reserved": 0, "lon": -77.02624583333333, "is_disabled": 0, "fusion_lat": 0.0, "lat": 38.892256333333336, "bike_id": "717e8c569776f14f733b4bbc43f444d8", "fusion_lon": 0.0}, {"rental_uris": {"ios": "https://dc.lft.to/lastmile_qr_scan", "android": "https://dc.lft.to/lastmile_qr_scan"}, "type": "electric_scooter", "name": "d2e0fa4f072b6963a54f3d6400f7b131", "is_reserved": 0, "lon": -77.05681666666666, "is_disabled": 0, "fusion_lat": 0.0, "lat": 38.93386266666667, "bike_id": "d2e0fa4f072b6963a54f3d6400f7b131", "fusion_lon": 0.0}, {"rental_uris": {"ios": "https://dc.lft.to/lastmile_qr_scan", "android": "https://dc.lft.to/lastmile_qr_scan"}, "type": "electric_scooter", "name": "40ec2c5bffc2be1805998a47a0010edb", "is_reserved": 0, "lon": -77.03845766666667, "is_disabled": 0, "fusion_lat": 0.0, "lat": 38.91660783333333, "bike_id": "40ec2c5bffc2be1805998a47a0010edb", "fusion_lon": 0.0}, {"rental_uris": {"ios": "https://dc.lft.to/lastmile_qr_scan", "android": "https://dc.lft.to/lastmile_qr_scan"}, "type": "electric_scooter", "name": "a9f3fb00c30dd41520e1080dd87241a1", "is_reserved": 0, "lon": -77.03839566666667, "is_disabled": 0, "fusion_lat": 0.0, "lat": 38.90386633333333, "bike_id": "a9f3fb00c30dd41520e1080dd87241a1", "fusion_lon": 0.0}, {"rental_uris": {"ios": "https://dc.lft.to/lastmile_qr_scan", "android": "https://dc.lft.to/lastmile_qr_scan"}, "type": "electric_scooter", "name": "33029a4febbd0577d195604f322686c3", "is_reserved": 0, "lon": -76.99386966666667, "is_disabled": 0, "fusion_lat": 0.0, "lat": 38.91013, "bike_id": "33029a4febbd0577d195604f322686c3", "fusion_lon": 0.0}, {"rental_uris": {"ios": "https://dc.lft.to/lastmile_qr_scan", "android": "https://dc.lft.to/lastmile_qr_scan"}, "type": "electric_scooter", "name": "f654ddccc50a205bf44e2098e6ae15fa", "is_reserved": 0, "lon": -77.018227, "is_disabled": 0, "fusion_lat": 0.0, "lat": 38.91111566666667, "bike_id": "f654ddccc50a205bf44e2098e6ae15fa", "fusion_lon": 0.0}, {"rental_uris": {"ios": "https://dc.lft.to/lastmile_qr_scan", "android": "https://dc.lft.to/lastmile_qr_scan"}, "type": "electric_scooter", "name": "9517e717fd6748c09dc9fe838de7610d", "is_reserved": 0, "lon": -77.02207483333333, "is_disabled": 0, "fusion_lat": 0.0, "lat": 38.88740333333333, "bike_id": "9517e717fd6748c09dc9fe838de7610d", "fusion_lon": 0.0}, {"rental_uris": {"ios": "https://dc.lft.to/lastmile_qr_scan", "android": "https://dc.lft.to/lastmile_qr_scan"}, "type": "electric_scooter", "name": "1f2af1e7a87780ef13120b508267620b", "is_reserved": 0, "lon": -77.03086433333333, "is_disabled": 0, "fusion_lat": 0.0, "lat": 38.938828666666666, "bike_id": "1f2af1e7a87780ef13120b508267620b", "fusion_lon": 0.0}, {"rental_uris": {"ios": "https://dc.lft.to/lastmile_qr_scan", "android": "https://dc.lft.to/lastmile_qr_scan"}, "type": "electric_scooter", "name": "43a3d32b557816410a3b17f767c83cfd", "is_reserved": 0, "lon": -77.017511, "is_disabled": 0, "fusion_lat": 0.0, "lat": 38.900503, "bike_id": "43a3d32b557816410a3b17f767c83cfd", "fusion_lon": 0.0}, {"rental_uris": {"ios": "https://dc.lft.to/lastmile_qr_scan", "android": "https://dc.lft.to/lastmile_qr_scan"}, "type": "electric_scooter", "name": "ad3d3329deae1edecc21c5c10808d424", "is_reserved": 0, "lon": -77.048524, "is_disabled": 0, "fusion_lat": 0.0, "lat": 38.898892333333336, "bike_id": "ad3d3329deae1edecc21c5c10808d424", "fusion_lon": 0.0}, {"rental_uris": {"ios": "https://dc.lft.to/lastmile_qr_scan", "android": "https://dc.lft.to/lastmile_qr_scan"}, "type": "electric_scooter", "name": "3069242990eb729cab31ddb4e436a9cb", "is_reserved": 0, "lon": -77.008739, "is_disabled": 0, "fusion_lat": 0.0, "lat": 38.9224385, "bike_id": "3069242990eb729cab31ddb4e436a9cb", "fusion_lon": 0.0}, {"rental_uris": {"ios": "https://dc.lft.to/lastmile_qr_scan", "android": "https://dc.lft.to/lastmile_qr_scan"}, "type": "electric_scooter", "name": "69dfed113b9a07dc3a7a28f2bb1aa8af", "is_reserved": 0, "lon": -77.03659533333334, "is_disabled": 0, "fusion_lat": 0.0, "lat": 38.917199333333336, "bike_id": "69dfed113b9a07dc3a7a28f2bb1aa8af", "fusion_lon": 0.0}, {"rental_uris": {"ios": "https://dc.lft.to/lastmile_qr_scan", "android": "https://dc.lft.to/lastmile_qr_scan"}, "type": "electric_scooter", "name": "4a3cffa54806941284727e14a451c145", "is_reserved": 0, "lon": -77.03968316666666, "is_disabled": 0, "fusion_lat": 0.0, "lat": 38.91556516666667, "bike_id": "4a3cffa54806941284727e14a451c145", "fusion_lon": 0.0}, {"rental_uris": {"ios": "https://dc.lft.to/lastmile_qr_scan", "android": "https://dc.lft.to/lastmile_qr_scan"}, "type": "electric_scooter", "name": "6c18fdbee49e9a8823a8f5a9bd6c80f2", "is_reserved": 0, "lon": -77.04230533333333, "is_disabled": 0, "fusion_lat": 0.0, "lat": 38.922702666666666, "bike_id": "6c18fdbee49e9a8823a8f5a9bd6c80f2", "fusion_lon": 0.0}, {"rental_uris": {"ios": "https://dc.lft.to/lastmile_qr_scan", "android": "https://dc.lft.to/lastmile_qr_scan"}, "type": "electric_bike", "name": "f9322ee7115ef0322b5749f805fc69c6", "is_reserved": 0, "lon": -77.02604533333333, "is_disabled": 0, "fusion_lat": 0.0, "lat": 38.988071166666664, "bike_id": "f9322ee7115ef0322b5749f805fc69c6", "fusion_lon": 0.0}, {"rental_uris": {"ios": "https://dc.lft.to/lastmile_qr_scan", "android": "https://dc.lft.to/lastmile_qr_scan"}, "type": "electric_bike", "name": "b79f824eea31d38e41e7ea60914d231f", "is_reserved": 0, "lon": -76.9732125, "is_disabled": 0, "fusion_lat": 0.0, "lat": 38.8578045, "bike_id": "b79f824eea31d38e41e7ea60914d231f", "fusion_lon": 0.0}, {"rental_uris": {"ios": "https://dc.lft.to/lastmile_qr_scan", "android": "https://dc.lft.to/lastmile_qr_scan"}, "type": "electric_scooter", "name": "fb86a1c8acd74a3029d3c32cadb3157a", "is_reserved": 0, "lon": -77.023897, "is_disabled": 0, "fusion_lat": 0.0, "lat": 38.92706916666667, "bike_id": "fb86a1c8acd74a3029d3c32cadb3157a", "fusion_lon": 0.0}, {"rental_uris": {"ios": "https://dc.lft.to/lastmile_qr_scan", "android": "https://dc.lft.to/lastmile_qr_scan"}, "type": "electric_scooter", "name": "d88893727408095e9b91794b1e631981", "is_reserved": 0, "lon": -77.0487415, "is_disabled": 0, "fusion_lat": 0.0, "lat": 38.9091055, "bike_id": "d88893727408095e9b91794b1e631981", "fusion_lon": 0.0}, {"rental_uris": {"ios": "https://dc.lft.to/lastmile_qr_scan", "android": "https://dc.lft.to/lastmile_qr_scan"}, "type": "electric_scooter", "name": "caa6c6e14cc1200e26b03f99fcd9ce1f", "is_reserved": 0, "lon": -77.03841833333334, "is_disabled": 0, "fusion_lat": 0.0, "lat": 38.9104055, "bike_id": "caa6c6e14cc1200e26b03f99fcd9ce1f", "fusion_lon": 0.0}, {"rental_uris": {"ios": "https://dc.lft.to/lastmile_qr_scan", "android": "https://dc.lft.to/lastmile_qr_scan"}, "type": "electric_scooter", "name": "d2e7e899d6b7143ff4bb74647ab62b56", "is_reserved": 0, "lon": -77.0092075, "is_disabled": 0, "fusion_lat": 0.0, "lat": 38.88188133333333, "bike_id": "d2e7e899d6b7143ff4bb74647ab62b56", "fusion_lon": 0.0}, {"rental_uris": {"ios": "https://dc.lft.to/lastmile_qr_scan", "android": "https://dc.lft.to/lastmile_qr_scan"}, "type": "electric_scooter", "name": "933bee0ed68d192bc3701073e94f1b59", "is_reserved": 0, "lon": -77.018934, "is_disabled": 0, "fusion_lat": 0.0, "lat": 38.92336, "bike_id": "933bee0ed68d192bc3701073e94f1b59", "fusion_lon": 0.0}, {"rental_uris": {"ios": "https://dc.lft.to/lastmile_qr_scan", "android": "https://dc.lft.to/lastmile_qr_scan"}, "type": "electric_scooter", "name": "f5d2f231fbec00f0f5a6526753c49a2f", "is_reserved": 0, "lon": -77.04691883333334, "is_disabled": 0, "fusion_lat": 0.0, "lat": 38.89226016666667, "bike_id": "f5d2f231fbec00f0f5a6526753c49a2f", "fusion_lon": 0.0}, {"rental_uris": {"ios": "https://dc.lft.to/lastmile_qr_scan", "android": "https://dc.lft.to/lastmile_qr_scan"}, "type": "electric_bike", "name": "a34b9a5b3be5712bf87af91779f16c46", "is_reserved": 0, "lon": -76.9944345, "is_disabled": 0, "fusion_lat": 0.0, "lat": 38.83104133333333, "bike_id": "a34b9a5b3be5712bf87af91779f16c46", "fusion_lon": 0.0}, {"rental_uris": {"ios": "https://dc.lft.to/lastmile_qr_scan", "android": "https://dc.lft.to/lastmile_qr_scan"}, "type": "electric_scooter", "name": "9c721c618a01bc77dfce288dabbc78c6", "is_reserved": 0, "lon": -77.0034105, "is_disabled": 0, "fusion_lat": 0.0, "lat": 38.8992045, "bike_id": "9c721c618a01bc77dfce288dabbc78c6", "fusion_lon": 0.0}, {"rental_uris": {"ios": "https://dc.lft.to/lastmile_qr_scan", "android": "https://dc.lft.to/lastmile_qr_scan"}, "type": "electric_scooter", "name": "5d506533707503b8645275b94123a4e4", "is_reserved": 0, "lon": -77.03477816666667, "is_disabled": 0, "fusion_lat": 0.0, "lat": 38.917065, "bike_id": "5d506533707503b8645275b94123a4e4", "fusion_lon": 0.0}, {"rental_uris": {"ios": "https://dc.lft.to/lastmile_qr_scan", "android": "https://dc.lft.to/lastmile_qr_scan"}, "type": "electric_scooter", "name": "a1119a87980520a7d0e1db8e5ad1dc87", "is_reserved": 0, "lon": -77.00489933333333, "is_disabled": 0, "fusion_lat": 0.0, "lat": 38.879386833333335, "bike_id": "a1119a87980520a7d0e1db8e5ad1dc87", "fusion_lon": 0.0}, {"rental_uris": {"ios": "https://dc.lft.to/lastmile_qr_scan", "android": "https://dc.lft.to/lastmile_qr_scan"}, "type": "electric_scooter", "name": "b85256d4a946ac3575698cb20e160829", "is_reserved": 0, "lon": -77.03243316666666, "is_disabled": 0, "fusion_lat": 0.0, "lat": 38.909747, "bike_id": "b85256d4a946ac3575698cb20e160829", "fusion_lon": 0.0}, {"rental_uris": {"ios": "https://dc.lft.to/lastmile_qr_scan", "android": "https://dc.lft.to/lastmile_qr_scan"}, "type": "electric_scooter", "name": "036daa4aa06c8da6a583229ad20fb23e", "is_reserved": 0, "lon": -77.05012783333333, "is_disabled": 0, "fusion_lat": 0.0, "lat": 38.89742283333333, "bike_id": "036daa4aa06c8da6a583229ad20fb23e", "fusion_lon": 0.0}, {"rental_uris": {"ios": "https://dc.lft.to/lastmile_qr_scan", "android": "https://dc.lft.to/lastmile_qr_scan"}, "type": "electric_scooter", "name": "cbf28ec117aad302705ddd745ecd6654", "is_reserved": 0, "lon": -76.9850615, "is_disabled": 0, "fusion_lat": 0.0, "lat": 38.880878333333335, "bike_id": "cbf28ec117aad302705ddd745ecd6654", "fusion_lon": 0.0}, {"rental_uris": {"ios": "https://dc.lft.to/lastmile_qr_scan", "android": "https://dc.lft.to/lastmile_qr_scan"}, "type": "electric_scooter", "name": "4e3958ea9153efe03ddb7e123a4d6c16", "is_reserved": 0, "lon": -76.9263285, "is_disabled": 0, "fusion_lat": 0.0, "lat": 38.90192416666667, "bike_id": "4e3958ea9153efe03ddb7e123a4d6c16", "fusion_lon": 0.0}, {"rental_uris": {"ios": "https://dc.lft.to/lastmile_qr_scan", "android": "https://dc.lft.to/lastmile_qr_scan"}, "type": "electric_scooter", "name": "56b9e2a284b361dd7152319dac43a875", "is_reserved": 0, "lon": -77.03259866666667, "is_disabled": 0, "fusion_lat": 0.0, "lat": 38.93978766666667, "bike_id": "56b9e2a284b361dd7152319dac43a875", "fusion_lon": 0.0}, {"rental_uris": {"ios": "https://dc.lft.to/lastmile_qr_scan", "android": "https://dc.lft.to/lastmile_qr_scan"}, "type": "electric_bike", "name": "ed8303df12bbd5219b32d54a89b77165", "is_reserved": 0, "lon": -77.00193116666667, "is_disabled": 0, "fusion_lat": 0.0, "lat": 38.94153083333333, "bike_id": "ed8303df12bbd5219b32d54a89b77165", "fusion_lon": 0.0}, {"rental_uris": {"ios": "https://dc.lft.to/lastmile_qr_scan", "android": "https://dc.lft.to/lastmile_qr_scan"}, "type": "electric_scooter", "name": "6b23271eb03191d8b4769ef295e5e95c", "is_reserved": 0, "lon": -77.020434, "is_disabled": 0, "fusion_lat": 0.0, "lat": 38.892964666666664, "bike_id": "6b23271eb03191d8b4769ef295e5e95c", "fusion_lon": 0.0}, {"rental_uris": {"ios": "https://dc.lft.to/lastmile_qr_scan", "android": "https://dc.lft.to/lastmile_qr_scan"}, "type": "electric_scooter", "name": "2c3e192746d7f643b8107860597fbfc4", "is_reserved": 0, "lon": -77.02216766666666, "is_disabled": 0, "fusion_lat": 0.0, "lat": 38.92469366666667, "bike_id": "2c3e192746d7f643b8107860597fbfc4", "fusion_lon": 0.0}, {"rental_uris": {"ios": "https://dc.lft.to/lastmile_qr_scan", "android": "https://dc.lft.to/lastmile_qr_scan"}, "type": "electric_scooter", "name": "4e6fb1b8f6abecff421c0fda9f3a1d70", "is_reserved": 0, "lon": -77.0240975, "is_disabled": 0, "fusion_lat": 0.0, "lat": 38.92070316666667, "bike_id": "4e6fb1b8f6abecff421c0fda9f3a1d70", "fusion_lon": 0.0}, {"rental_uris": {"ios": "https://dc.lft.to/lastmile_qr_scan", "android": "https://dc.lft.to/lastmile_qr_scan"}, "type": "electric_scooter", "name": "c8bdacce5e6a2c60fc166baa598c537a", "is_reserved": 0, "lon": -77.02295733333334, "is_disabled": 0, "fusion_lat": 0.0, "lat": 38.91675133333333, "bike_id": "c8bdacce5e6a2c60fc166baa598c537a", "fusion_lon": 0.0}, {"rental_uris": {"ios": "https://dc.lft.to/lastmile_qr_scan", "android": "https://dc.lft.to/lastmile_qr_scan"}, "type": "electric_scooter", "name": "b9d323ce2a9c72fa40473b2f8e92e3a6", "is_reserved": 0, "lon": -77.02475166666666, "is_disabled": 0, "fusion_lat": 0.0, "lat": 38.93099816666667, "bike_id": "b9d323ce2a9c72fa40473b2f8e92e3a6", "fusion_lon": 0.0}, {"rental_uris": {"ios": "https://dc.lft.to/lastmile_qr_scan", "android": "https://dc.lft.to/lastmile_qr_scan"}, "type": "electric_scooter", "name": "96060291d516a6e6680590e3ee975e7c", "is_reserved": 0, "lon": -77.03476933333333, "is_disabled": 0, "fusion_lat": 0.0, "lat": 38.90792666666667, "bike_id": "96060291d516a6e6680590e3ee975e7c", "fusion_lon": 0.0}, {"rental_uris": {"ios": "https://dc.lft.to/lastmile_qr_scan", "android": "https://dc.lft.to/lastmile_qr_scan"}, "type": "electric_scooter", "name": "8a1fa82333bff2babeb2ed5ee094c410", "is_reserved": 0, "lon": -77.03028816666667, "is_disabled": 0, "fusion_lat": 0.0, "lat": 38.9224275, "bike_id": "8a1fa82333bff2babeb2ed5ee094c410", "fusion_lon": 0.0}, {"rental_uris": {"ios": "https://dc.lft.to/lastmile_qr_scan", "android": "https://dc.lft.to/lastmile_qr_scan"}, "type": "electric_scooter", "name": "84a6b0e26357a8104cb1ccd1bb561fad", "is_reserved": 0, "lon": -77.03484116666667, "is_disabled": 0, "fusion_lat": 0.0, "lat": 38.93109116666667, "bike_id": "84a6b0e26357a8104cb1ccd1bb561fad", "fusion_lon": 0.0}, {"rental_uris": {"ios": "https://dc.lft.to/lastmile_qr_scan", "android": "https://dc.lft.to/lastmile_qr_scan"}, "type": "electric_scooter", "name": "d28c6f007c7926f935a716dceaf8fd75", "is_reserved": 0, "lon": -76.97675916666667, "is_disabled": 0, "fusion_lat": 0.0, "lat": 38.8988695, "bike_id": "d28c6f007c7926f935a716dceaf8fd75", "fusion_lon": 0.0}, {"rental_uris": {"ios": "https://dc.lft.to/lastmile_qr_scan", "android": "https://dc.lft.to/lastmile_qr_scan"}, "type": "electric_scooter", "name": "3feb726302ba7b1cc5d8352bd8436dda", "is_reserved": 0, "lon": -77.048857, "is_disabled": 0, "fusion_lat": 0.0, "lat": 38.90952816666667, "bike_id": "3feb726302ba7b1cc5d8352bd8436dda", "fusion_lon": 0.0}, {"rental_uris": {"ios": "https://dc.lft.to/lastmile_qr_scan", "android": "https://dc.lft.to/lastmile_qr_scan"}, "type": "electric_scooter", "name": "728f9521c710d685f8f4131f3ef27c3b", "is_reserved": 0, "lon": -77.01755083333333, "is_disabled": 0, "fusion_lat": 0.0, "lat": 38.87684816666667, "bike_id": "728f9521c710d685f8f4131f3ef27c3b", "fusion_lon": 0.0}, {"rental_uris": {"ios": "https://dc.lft.to/lastmile_qr_scan", "android": "https://dc.lft.to/lastmile_qr_scan"}, "type": "electric_scooter", "name": "cc2f0b2897398c7ce06e66256b7744f7", "is_reserved": 0, "lon": -76.95197133333333, "is_disabled": 0, "fusion_lat": 0.0, "lat": 38.905102666666664, "bike_id": "cc2f0b2897398c7ce06e66256b7744f7", "fusion_lon": 0.0}, {"rental_uris": {"ios": "https://dc.lft.to/lastmile_qr_scan", "android": "https://dc.lft.to/lastmile_qr_scan"}, "type": "electric_scooter", "name": "c3f3b6377c8d4e9056c408f7a6b5619c", "is_reserved": 0, "lon": -77.029192, "is_disabled": 0, "fusion_lat": 0.0, "lat": 38.900027, "bike_id": "c3f3b6377c8d4e9056c408f7a6b5619c", "fusion_lon": 0.0}, {"rental_uris": {"ios": "https://dc.lft.to/lastmile_qr_scan", "android": "https://dc.lft.to/lastmile_qr_scan"}, "type": "electric_scooter", "name": "113a8957e6b7f1a69d0806c0ea89aa62", "is_reserved": 0, "lon": -77.03246883333334, "is_disabled": 0, "fusion_lat": 0.0, "lat": 38.915564333333336, "bike_id": "113a8957e6b7f1a69d0806c0ea89aa62", "fusion_lon": 0.0}, {"rental_uris": {"ios": "https://dc.lft.to/lastmile_qr_scan", "android": "https://dc.lft.to/lastmile_qr_scan"}, "type": "electric_scooter", "name": "5eb55b0755928db199194938d4aae431", "is_reserved": 0, "lon": -77.031597, "is_disabled": 0, "fusion_lat": 0.0, "lat": 38.9211155, "bike_id": "5eb55b0755928db199194938d4aae431", "fusion_lon": 0.0}, {"rental_uris": {"ios": "https://dc.lft.to/lastmile_qr_scan", "android": "https://dc.lft.to/lastmile_qr_scan"}, "type": "electric_scooter", "name": "df38f16347961e1feda7c7722aeca0c5", "is_reserved": 0, "lon": -76.98539366666667, "is_disabled": 0, "fusion_lat": 0.0, "lat": 38.9095665, "bike_id": "df38f16347961e1feda7c7722aeca0c5", "fusion_lon": 0.0}, {"rental_uris": {"ios": "https://dc.lft.to/lastmile_qr_scan", "android": "https://dc.lft.to/lastmile_qr_scan"}, "type": "electric_scooter", "name": "740e9308fa9d076dd1575ea5c9927358", "is_reserved": 0, "lon": -77.03172616666667, "is_disabled": 0, "fusion_lat": 0.0, "lat": 38.91179616666667, "bike_id": "740e9308fa9d076dd1575ea5c9927358", "fusion_lon": 0.0}, {"rental_uris": {"ios": "https://dc.lft.to/lastmile_qr_scan", "android": "https://dc.lft.to/lastmile_qr_scan"}, "type": "electric_scooter", "name": "0575227c47cd61543cff921fb20451c9", "is_reserved": 0, "lon": -76.98557866666667, "is_disabled": 0, "fusion_lat": 0.0, "lat": 38.88998616666667, "bike_id": "0575227c47cd61543cff921fb20451c9", "fusion_lon": 0.0}, {"rental_uris": {"ios": "https://dc.lft.to/lastmile_qr_scan", "android": "https://dc.lft.to/lastmile_qr_scan"}, "type": "electric_scooter", "name": "c599bcda075f0672c6b660d87a56214a", "is_reserved": 0, "lon": -77.04209666666667, "is_disabled": 0, "fusion_lat": 0.0, "lat": 38.92398466666667, "bike_id": "c599bcda075f0672c6b660d87a56214a", "fusion_lon": 0.0}, {"rental_uris": {"ios": "https://dc.lft.to/lastmile_qr_scan", "android": "https://dc.lft.to/lastmile_qr_scan"}, "type": "electric_scooter", "name": "1807c57c4a14b68e6b7239b52779f791", "is_reserved": 0, "lon": -77.039017, "is_disabled": 0, "fusion_lat": 0.0, "lat": 38.908159166666664, "bike_id": "1807c57c4a14b68e6b7239b52779f791", "fusion_lon": 0.0}, {"rental_uris": {"ios": "https://dc.lft.to/lastmile_qr_scan", "android": "https://dc.lft.to/lastmile_qr_scan"}, "type": "electric_scooter", "name": "69e7a4207f6099df50032a286d27685b", "is_reserved": 0, "lon": -77.0532045, "is_disabled": 0, "fusion_lat": 0.0, "lat": 38.907245333333336, "bike_id": "69e7a4207f6099df50032a286d27685b", "fusion_lon": 0.0}, {"rental_uris": {"ios": "https://dc.lft.to/lastmile_qr_scan", "android": "https://dc.lft.to/lastmile_qr_scan"}, "type": "electric_scooter", "name": "efd6244021690348fab7df45aeb6801e", "is_reserved": 0, "lon": -77.02097016666667, "is_disabled": 0, "fusion_lat": 0.0, "lat": 38.921779, "bike_id": "efd6244021690348fab7df45aeb6801e", "fusion_lon": 0.0}, {"rental_uris": {"ios": "https://dc.lft.to/lastmile_qr_scan", "android": "https://dc.lft.to/lastmile_qr_scan"}, "type": "electric_scooter", "name": "3cf3b26cc04e9784bef6972980187856", "is_reserved": 0, "lon": -77.07224833333333, "is_disabled": 0, "fusion_lat": 0.0, "lat": 38.9136245, "bike_id": "3cf3b26cc04e9784bef6972980187856", "fusion_lon": 0.0}, {"rental_uris": {"ios": "https://dc.lft.to/lastmile_qr_scan", "android": "https://dc.lft.to/lastmile_qr_scan"}, "type": "electric_scooter", "name": "a24282d41a97ab1602ad739902f02149", "is_reserved": 0, "lon": -77.0082955, "is_disabled": 0, "fusion_lat": 0.0, "lat": 38.876536333333334, "bike_id": "a24282d41a97ab1602ad739902f02149", "fusion_lon": 0.0}, {"rental_uris": {"ios": "https://dc.lft.to/lastmile_qr_scan", "android": "https://dc.lft.to/lastmile_qr_scan"}, "type": "electric_scooter", "name": "25a494e30e9778911d9aaf726cf75c9f", "is_reserved": 0, "lon": -77.04501183333333, "is_disabled": 0, "fusion_lat": 0.0, "lat": 38.9157425, "bike_id": "25a494e30e9778911d9aaf726cf75c9f", "fusion_lon": 0.0}, {"rental_uris": {"ios": "https://dc.lft.to/lastmile_qr_scan", "android": "https://dc.lft.to/lastmile_qr_scan"}, "type": "electric_scooter", "name": "e412e982fdac0dd4f2c6da272b53c1f8", "is_reserved": 0, "lon": -77.03855633333333, "is_disabled": 0, "fusion_lat": 0.0, "lat": 38.911888833333336, "bike_id": "e412e982fdac0dd4f2c6da272b53c1f8", "fusion_lon": 0.0}, {"rental_uris": {"ios": "https://dc.lft.to/lastmile_qr_scan", "android": "https://dc.lft.to/lastmile_qr_scan"}, "type": "electric_scooter", "name": "fb4a72706785ced603763da03940f03c", "is_reserved": 0, "lon": -77.04797216666667, "is_disabled": 0, "fusion_lat": 0.0, "lat": 38.8922325, "bike_id": "fb4a72706785ced603763da03940f03c", "fusion_lon": 0.0}, {"rental_uris": {"ios": "https://dc.lft.to/lastmile_qr_scan", "android": "https://dc.lft.to/lastmile_qr_scan"}, "type": "electric_scooter", "name": "58a6e2f34358d0f74617702ca7c64868", "is_reserved": 0, "lon": -77.03731966666666, "is_disabled": 0, "fusion_lat": 0.0, "lat": 38.9291905, "bike_id": "58a6e2f34358d0f74617702ca7c64868", "fusion_lon": 0.0}, {"rental_uris": {"ios": "https://dc.lft.to/lastmile_qr_scan", "android": "https://dc.lft.to/lastmile_qr_scan"}, "type": "electric_scooter", "name": "63d1a959323839ee77e4259dfeaa06f5", "is_reserved": 0, "lon": -77.04421283333333, "is_disabled": 0, "fusion_lat": 0.0, "lat": 38.9259765, "bike_id": "63d1a959323839ee77e4259dfeaa06f5", "fusion_lon": 0.0}, {"rental_uris": {"ios": "https://dc.lft.to/lastmile_qr_scan", "android": "https://dc.lft.to/lastmile_qr_scan"}, "type": "electric_scooter", "name": "ade9e0a4a4c357865189dadf1fdfb6fb", "is_reserved": 0, "lon": -77.00570866666666, "is_disabled": 0, "fusion_lat": 0.0, "lat": 38.9039195, "bike_id": "ade9e0a4a4c357865189dadf1fdfb6fb", "fusion_lon": 0.0}, {"rental_uris": {"ios": "https://dc.lft.to/lastmile_qr_scan", "android": "https://dc.lft.to/lastmile_qr_scan"}, "type": "electric_scooter", "name": "0ae739b7a8d3f682e6a21cd2a29b67e2", "is_reserved": 0, "lon": -77.0234425, "is_disabled": 0, "fusion_lat": 0.0, "lat": 38.927104, "bike_id": "0ae739b7a8d3f682e6a21cd2a29b67e2", "fusion_lon": 0.0}, {"rental_uris": {"ios": "https://dc.lft.to/lastmile_qr_scan", "android": "https://dc.lft.to/lastmile_qr_scan"}, "type": "electric_scooter", "name": "7e0c6a56f9d9cc921fe50f60fd266459", "is_reserved": 0, "lon": -77.0185035, "is_disabled": 0, "fusion_lat": 0.0, "lat": 38.9542615, "bike_id": "7e0c6a56f9d9cc921fe50f60fd266459", "fusion_lon": 0.0}, {"rental_uris": {"ios": "https://dc.lft.to/lastmile_qr_scan", "android": "https://dc.lft.to/lastmile_qr_scan"}, "type": "electric_scooter", "name": "460855420c33bb2ee2994cf8307c2fa5", "is_reserved": 0, "lon": -77.0231595, "is_disabled": 0, "fusion_lat": 0.0, "lat": 38.916567666666666, "bike_id": "460855420c33bb2ee2994cf8307c2fa5", "fusion_lon": 0.0}, {"rental_uris": {"ios": "https://dc.lft.to/lastmile_qr_scan", "android": "https://dc.lft.to/lastmile_qr_scan"}, "type": "electric_scooter", "name": "7c992456b66257f801956df5575c2534", "is_reserved": 0, "lon": -76.993649, "is_disabled": 0, "fusion_lat": 0.0, "lat": 38.88266633333333, "bike_id": "7c992456b66257f801956df5575c2534", "fusion_lon": 0.0}, {"rental_uris": {"ios": "https://dc.lft.to/lastmile_qr_scan", "android": "https://dc.lft.to/lastmile_qr_scan"}, "type": "electric_scooter", "name": "1a6044fb4295c269659a6a4dc5bbf45f", "is_reserved": 0, "lon": -76.999125, "is_disabled": 0, "fusion_lat": 0.0, "lat": 38.92457233333333, "bike_id": "1a6044fb4295c269659a6a4dc5bbf45f", "fusion_lon": 0.0}, {"rental_uris": {"ios": "https://dc.lft.to/lastmile_qr_scan", "android": "https://dc.lft.to/lastmile_qr_scan"}, "type": "electric_scooter", "name": "4acebdbb23324924574f218eca9e3cce", "is_reserved": 0, "lon": -76.9983985, "is_disabled": 0, "fusion_lat": 0.0, "lat": 38.923359833333336, "bike_id": "4acebdbb23324924574f218eca9e3cce", "fusion_lon": 0.0}, {"rental_uris": {"ios": "https://dc.lft.to/lastmile_qr_scan", "android": "https://dc.lft.to/lastmile_qr_scan"}, "type": "electric_scooter", "name": "e82fae8996b85dc3fff464ef724b4526", "is_reserved": 0, "lon": -77.04232433333334, "is_disabled": 0, "fusion_lat": 0.0, "lat": 38.90569933333333, "bike_id": "e82fae8996b85dc3fff464ef724b4526", "fusion_lon": 0.0}, {"rental_uris": {"ios": "https://dc.lft.to/lastmile_qr_scan", "android": "https://dc.lft.to/lastmile_qr_scan"}, "type": "electric_scooter", "name": "75fe5ce5133e554b609c369dc3d2a796", "is_reserved": 0, "lon": -77.01861616666666, "is_disabled": 0, "fusion_lat": 0.0, "lat": 38.89468166666666, "bike_id": "75fe5ce5133e554b609c369dc3d2a796", "fusion_lon": 0.0}, {"rental_uris": {"ios": "https://dc.lft.to/lastmile_qr_scan", "android": "https://dc.lft.to/lastmile_qr_scan"}, "type": "electric_scooter", "name": "ac1b04cf04fd13a91a1c2ff9e7da43b1", "is_reserved": 0, "lon": -77.001989, "is_disabled": 0, "fusion_lat": 0.0, "lat": 38.8929275, "bike_id": "ac1b04cf04fd13a91a1c2ff9e7da43b1", "fusion_lon": 0.0}, {"rental_uris": {"ios": "https://dc.lft.to/lastmile_qr_scan", "android": "https://dc.lft.to/lastmile_qr_scan"}, "type": "electric_scooter", "name": "a7f6a3684d33ff6af75219b935f9f5cd", "is_reserved": 0, "lon": -77.00209866666667, "is_disabled": 0, "fusion_lat": 0.0, "lat": 38.900293, "bike_id": "a7f6a3684d33ff6af75219b935f9f5cd", "fusion_lon": 0.0}, {"rental_uris": {"ios": "https://dc.lft.to/lastmile_qr_scan", "android": "https://dc.lft.to/lastmile_qr_scan"}, "type": "electric_scooter", "name": "38300c5723af05848cf40062c33a4dc8", "is_reserved": 0, "lon": -77.023056, "is_disabled": 0, "fusion_lat": 0.0, "lat": 38.91776483333334, "bike_id": "38300c5723af05848cf40062c33a4dc8", "fusion_lon": 0.0}, {"rental_uris": {"ios": "https://dc.lft.to/lastmile_qr_scan", "android": "https://dc.lft.to/lastmile_qr_scan"}, "type": "electric_bike", "name": "260a19a0dfa42d5b93e4e778a32bbb1f", "is_reserved": 0, "lon": -77.00762816666666, "is_disabled": 0, "fusion_lat": 0.0, "lat": 38.99780116666667, "bike_id": "260a19a0dfa42d5b93e4e778a32bbb1f", "fusion_lon": 0.0}, {"rental_uris": {"ios": "https://dc.lft.to/lastmile_qr_scan", "android": "https://dc.lft.to/lastmile_qr_scan"}, "type": "electric_scooter", "name": "1035c7f56938120db446293c02f7af45", "is_reserved": 0, "lon": -76.9343345, "is_disabled": 0, "fusion_lat": 0.0, "lat": 38.8992025, "bike_id": "1035c7f56938120db446293c02f7af45", "fusion_lon": 0.0}, {"rental_uris": {"ios": "https://dc.lft.to/lastmile_qr_scan", "android": "https://dc.lft.to/lastmile_qr_scan"}, "type": "electric_scooter", "name": "c7eb6ceda44b7be90a196709a11af298", "is_reserved": 0, "lon": -77.01227933333334, "is_disabled": 0, "fusion_lat": 0.0, "lat": 38.915771666666664, "bike_id": "c7eb6ceda44b7be90a196709a11af298", "fusion_lon": 0.0}, {"rental_uris": {"ios": "https://dc.lft.to/lastmile_qr_scan", "android": "https://dc.lft.to/lastmile_qr_scan"}, "type": "electric_bike", "name": "6ea7732519635109c376f862a8c41b82", "is_reserved": 0, "lon": -76.9954725, "is_disabled": 0, "fusion_lat": 0.0, "lat": 38.9082, "bike_id": "6ea7732519635109c376f862a8c41b82", "fusion_lon": 0.0}, {"rental_uris": {"ios": "https://dc.lft.to/lastmile_qr_scan", "android": "https://dc.lft.to/lastmile_qr_scan"}, "type": "electric_scooter", "name": "a38893e12322869304a3fe2c8dadd9c8", "is_reserved": 0, "lon": -77.03824866666666, "is_disabled": 0, "fusion_lat": 0.0, "lat": 38.912650666666664, "bike_id": "a38893e12322869304a3fe2c8dadd9c8", "fusion_lon": 0.0}, {"rental_uris": {"ios": "https://dc.lft.to/lastmile_qr_scan", "android": "https://dc.lft.to/lastmile_qr_scan"}, "type": "electric_scooter", "name": "536292463d089243a7667e0342ab4667", "is_reserved": 0, "lon": -77.04031933333333, "is_disabled": 0, "fusion_lat": 0.0, "lat": 38.9046795, "bike_id": "536292463d089243a7667e0342ab4667", "fusion_lon": 0.0}, {"rental_uris": {"ios": "https://dc.lft.to/lastmile_qr_scan", "android": "https://dc.lft.to/lastmile_qr_scan"}, "type": "electric_scooter", "name": "8eb64db4b5073a85ac37bd66c52fa899", "is_reserved": 0, "lon": -77.020471, "is_disabled": 0, "fusion_lat": 0.0, "lat": 38.8998755, "bike_id": "8eb64db4b5073a85ac37bd66c52fa899", "fusion_lon": 0.0}, {"rental_uris": {"ios": "https://dc.lft.to/lastmile_qr_scan", "android": "https://dc.lft.to/lastmile_qr_scan"}, "type": "electric_bike", "name": "b0158ddf1c200d4835777757c41968f6", "is_reserved": 0, "lon": -76.99697666666667, "is_disabled": 0, "fusion_lat": 0.0, "lat": 38.838643166666664, "bike_id": "b0158ddf1c200d4835777757c41968f6", "fusion_lon": 0.0}, {"rental_uris": {"ios": "https://dc.lft.to/lastmile_qr_scan", "android": "https://dc.lft.to/lastmile_qr_scan"}, "type": "electric_bike", "name": "a54ab8e28d551a490a5dadbe795239ca", "is_reserved": 0, "lon": -76.9796655, "is_disabled": 0, "fusion_lat": 0.0, "lat": 38.920449833333336, "bike_id": "a54ab8e28d551a490a5dadbe795239ca", "fusion_lon": 0.0}, {"rental_uris": {"ios": "https://dc.lft.to/lastmile_qr_scan", "android": "https://dc.lft.to/lastmile_qr_scan"}, "type": "electric_scooter", "name": "c3210a0f2ab9269c4f39a8287ed17463", "is_reserved": 0, "lon": -77.0261625, "is_disabled": 0, "fusion_lat": 0.0, "lat": 38.896177333333334, "bike_id": "c3210a0f2ab9269c4f39a8287ed17463", "fusion_lon": 0.0}, {"rental_uris": {"ios": "https://dc.lft.to/lastmile_qr_scan", "android": "https://dc.lft.to/lastmile_qr_scan"}, "type": "electric_bike", "name": "3c9bac51dc17b2beb50efa75a22717f4", "is_reserved": 0, "lon": -76.99276233333333, "is_disabled": 0, "fusion_lat": 0.0, "lat": 38.972612833333336, "bike_id": "3c9bac51dc17b2beb50efa75a22717f4", "fusion_lon": 0.0}, {"rental_uris": {"ios": "https://dc.lft.to/lastmile_qr_scan", "android": "https://dc.lft.to/lastmile_qr_scan"}, "type": "electric_scooter", "name": "9738ffe36e9d54b75f5319d28daacdff", "is_reserved": 0, "lon": -77.02673266666666, "is_disabled": 0, "fusion_lat": 0.0, "lat": 38.897392333333336, "bike_id": "9738ffe36e9d54b75f5319d28daacdff", "fusion_lon": 0.0}, {"rental_uris": {"ios": "https://dc.lft.to/lastmile_qr_scan", "android": "https://dc.lft.to/lastmile_qr_scan"}, "type": "electric_scooter", "name": "816e690b5b2d7fca939de1e27f830169", "is_reserved": 0, "lon": -77.039024, "is_disabled": 0, "fusion_lat": 0.0, "lat": 38.91267966666667, "bike_id": "816e690b5b2d7fca939de1e27f830169", "fusion_lon": 0.0}, {"rental_uris": {"ios": "https://dc.lft.to/lastmile_qr_scan", "android": "https://dc.lft.to/lastmile_qr_scan"}, "type": "electric_bike", "name": "41e23351922696da0c68ba5ceb838b0b", "is_reserved": 0, "lon": -76.97006733333333, "is_disabled": 0, "fusion_lat": 0.0, "lat": 38.8636805, "bike_id": "41e23351922696da0c68ba5ceb838b0b", "fusion_lon": 0.0}, {"rental_uris": {"ios": "https://dc.lft.to/lastmile_qr_scan", "android": "https://dc.lft.to/lastmile_qr_scan"}, "type": "electric_scooter", "name": "3731595e9ec8aee3e9184fee69eeefaf", "is_reserved": 0, "lon": -77.039582, "is_disabled": 0, "fusion_lat": 0.0, "lat": 38.892494666666664, "bike_id": "3731595e9ec8aee3e9184fee69eeefaf", "fusion_lon": 0.0}, {"rental_uris": {"ios": "https://dc.lft.to/lastmile_qr_scan", "android": "https://dc.lft.to/lastmile_qr_scan"}, "type": "electric_bike", "name": "046719535a08a51de791d4f8d49d16c4", "is_reserved": 0, "lon": -76.96319266666667, "is_disabled": 0, "fusion_lat": 0.0, "lat": 38.93894266666667, "bike_id": "046719535a08a51de791d4f8d49d16c4", "fusion_lon": 0.0}, {"rental_uris": {"ios": "https://dc.lft.to/lastmile_qr_scan", "android": "https://dc.lft.to/lastmile_qr_scan"}, "type": "electric_scooter", "name": "16a635d5c73d39aed41afb42bdbd8a28", "is_reserved": 0, "lon": -77.00064566666667, "is_disabled": 0, "fusion_lat": 0.0, "lat": 38.9191025, "bike_id": "16a635d5c73d39aed41afb42bdbd8a28", "fusion_lon": 0.0}, {"rental_uris": {"ios": "https://dc.lft.to/lastmile_qr_scan", "android": "https://dc.lft.to/lastmile_qr_scan"}, "type": "electric_bike", "name": "954695f5af747d15e9b686b8363bfa30", "is_reserved": 0, "lon": -77.08136633333334, "is_disabled": 0, "fusion_lat": 0.0, "lat": 38.82294733333333, "bike_id": "954695f5af747d15e9b686b8363bfa30", "fusion_lon": 0.0}, {"rental_uris": {"ios": "https://dc.lft.to/lastmile_qr_scan", "android": "https://dc.lft.to/lastmile_qr_scan"}, "type": "electric_scooter", "name": "ae003d55f8607eb3bb709793fe817ea3", "is_reserved": 0, "lon": -77.03262783333334, "is_disabled": 0, "fusion_lat": 0.0, "lat": 38.93103216666667, "bike_id": "ae003d55f8607eb3bb709793fe817ea3", "fusion_lon": 0.0}, {"rental_uris": {"ios": "https://dc.lft.to/lastmile_qr_scan", "android": "https://dc.lft.to/lastmile_qr_scan"}, "type": "electric_scooter", "name": "d70a9d83af614d879b2bb14fe39dfa9e", "is_reserved": 0, "lon": -77.03256933333333, "is_disabled": 0, "fusion_lat": 0.0, "lat": 38.9366735, "bike_id": "d70a9d83af614d879b2bb14fe39dfa9e", "fusion_lon": 0.0}, {"rental_uris": {"ios": "https://dc.lft.to/lastmile_qr_scan", "android": "https://dc.lft.to/lastmile_qr_scan"}, "type": "electric_scooter", "name": "73152bf8833ad1145840b39a11d275d5", "is_reserved": 0, "lon": -77.07851516666666, "is_disabled": 0, "fusion_lat": 0.0, "lat": 38.93152933333333, "bike_id": "73152bf8833ad1145840b39a11d275d5", "fusion_lon": 0.0}, {"rental_uris": {"ios": "https://dc.lft.to/lastmile_qr_scan", "android": "https://dc.lft.to/lastmile_qr_scan"}, "type": "electric_scooter", "name": "16ea085b23bc11b26b8cfc85457b0231", "is_reserved": 0, "lon": -77.04226633333333, "is_disabled": 0, "fusion_lat": 0.0, "lat": 38.9227415, "bike_id": "16ea085b23bc11b26b8cfc85457b0231", "fusion_lon": 0.0}, {"rental_uris": {"ios": "https://dc.lft.to/lastmile_qr_scan", "android": "https://dc.lft.to/lastmile_qr_scan"}, "type": "electric_scooter", "name": "bd15d389994c0f4ea49b1e4993980bd2", "is_reserved": 0, "lon": -77.00958, "is_disabled": 0, "fusion_lat": 0.0, "lat": 38.8976395, "bike_id": "bd15d389994c0f4ea49b1e4993980bd2", "fusion_lon": 0.0}, {"rental_uris": {"ios": "https://dc.lft.to/lastmile_qr_scan", "android": "https://dc.lft.to/lastmile_qr_scan"}, "type": "electric_scooter", "name": "1e38ee7eeacaffdd0886630e586a4820", "is_reserved": 0, "lon": -77.04250916666666, "is_disabled": 0, "fusion_lat": 0.0, "lat": 38.920655833333335, "bike_id": "1e38ee7eeacaffdd0886630e586a4820", "fusion_lon": 0.0}, {"rental_uris": {"ios": "https://dc.lft.to/lastmile_qr_scan", "android": "https://dc.lft.to/lastmile_qr_scan"}, "type": "electric_scooter", "name": "11d09ee60d909da987a7da216c6dd5b0", "is_reserved": 0, "lon": -77.03265133333333, "is_disabled": 0, "fusion_lat": 0.0, "lat": 38.91119166666667, "bike_id": "11d09ee60d909da987a7da216c6dd5b0", "fusion_lon": 0.0}, {"rental_uris": {"ios": "https://dc.lft.to/lastmile_qr_scan", "android": "https://dc.lft.to/lastmile_qr_scan"}, "type": "electric_scooter", "name": "14021a4c21cc901af06448f5dcba46b6", "is_reserved": 0, "lon": -77.02949466666666, "is_disabled": 0, "fusion_lat": 0.0, "lat": 38.916792666666666, "bike_id": "14021a4c21cc901af06448f5dcba46b6", "fusion_lon": 0.0}, {"rental_uris": {"ios": "https://dc.lft.to/lastmile_qr_scan", "android": "https://dc.lft.to/lastmile_qr_scan"}, "type": "electric_scooter", "name": "51c2eff47c57cf4c2d9796ebb340e92f", "is_reserved": 0, "lon": -77.00918933333334, "is_disabled": 0, "fusion_lat": 0.0, "lat": 38.90763116666667, "bike_id": "51c2eff47c57cf4c2d9796ebb340e92f", "fusion_lon": 0.0}, {"rental_uris": {"ios": "https://dc.lft.to/lastmile_qr_scan", "android": "https://dc.lft.to/lastmile_qr_scan"}, "type": "electric_scooter", "name": "f977c85d47f1ed15400258b49e496553", "is_reserved": 0, "lon": -77.038559, "is_disabled": 0, "fusion_lat": 0.0, "lat": 38.912790666666666, "bike_id": "f977c85d47f1ed15400258b49e496553", "fusion_lon": 0.0}, {"rental_uris": {"ios": "https://dc.lft.to/lastmile_qr_scan", "android": "https://dc.lft.to/lastmile_qr_scan"}, "type": "electric_scooter", "name": "7783a5c4b716ea5e5fa2a47ef3b94580", "is_reserved": 0, "lon": -77.0708945, "is_disabled": 0, "fusion_lat": 0.0, "lat": 38.919564, "bike_id": "7783a5c4b716ea5e5fa2a47ef3b94580", "fusion_lon": 0.0}, {"rental_uris": {"ios": "https://dc.lft.to/lastmile_qr_scan", "android": "https://dc.lft.to/lastmile_qr_scan"}, "type": "electric_scooter", "name": "7847cf49698dbea28b8919dd1ff7619e", "is_reserved": 0, "lon": -77.02076233333334, "is_disabled": 0, "fusion_lat": 0.0, "lat": 38.9269645, "bike_id": "7847cf49698dbea28b8919dd1ff7619e", "fusion_lon": 0.0}, {"rental_uris": {"ios": "https://dc.lft.to/lastmile_qr_scan", "android": "https://dc.lft.to/lastmile_qr_scan"}, "type": "electric_bike", "name": "043d46691ff3bee4bf9bc70aa2e62315", "is_reserved": 0, "lon": -77.1564525, "is_disabled": 0, "fusion_lat": 0.0, "lat": 38.88551366666667, "bike_id": "043d46691ff3bee4bf9bc70aa2e62315", "fusion_lon": 0.0}, {"rental_uris": {"ios": "https://dc.lft.to/lastmile_qr_scan", "android": "https://dc.lft.to/lastmile_qr_scan"}, "type": "electric_scooter", "name": "3a1fa4240df22ec3f40840d32e6d4b87", "is_reserved": 0, "lon": -77.00217366666666, "is_disabled": 0, "fusion_lat": 0.0, "lat": 38.894521833333336, "bike_id": "3a1fa4240df22ec3f40840d32e6d4b87", "fusion_lon": 0.0}, {"rental_uris": {"ios": "https://dc.lft.to/lastmile_qr_scan", "android": "https://dc.lft.to/lastmile_qr_scan"}, "type": "electric_scooter", "name": "ecf0f193e1eac9c627d528c6bb7c3091", "is_reserved": 0, "lon": -77.01897716666667, "is_disabled": 0, "fusion_lat": 0.0, "lat": 38.9018335, "bike_id": "ecf0f193e1eac9c627d528c6bb7c3091", "fusion_lon": 0.0}, {"rental_uris": {"ios": "https://dc.lft.to/lastmile_qr_scan", "android": "https://dc.lft.to/lastmile_qr_scan"}, "type": "electric_scooter", "name": "0f2055c26be7920e71abea031be696a4", "is_reserved": 0, "lon": -77.02815716666667, "is_disabled": 0, "fusion_lat": 0.0, "lat": 38.88513666666667, "bike_id": "0f2055c26be7920e71abea031be696a4", "fusion_lon": 0.0}, {"rental_uris": {"ios": "https://dc.lft.to/lastmile_qr_scan", "android": "https://dc.lft.to/lastmile_qr_scan"}, "type": "electric_scooter", "name": "8dad6af7b15b802780d83fb18617fb13", "is_reserved": 0, "lon": -77.02069983333334, "is_disabled": 0, "fusion_lat": 0.0, "lat": 38.90849983333333, "bike_id": "8dad6af7b15b802780d83fb18617fb13", "fusion_lon": 0.0}, {"rental_uris": {"ios": "https://dc.lft.to/lastmile_qr_scan", "android": "https://dc.lft.to/lastmile_qr_scan"}, "type": "electric_scooter", "name": "d881e31568007ee2372006600da3d7b6", "is_reserved": 0, "lon": -77.04172533333333, "is_disabled": 0, "fusion_lat": 0.0, "lat": 38.917223, "bike_id": "d881e31568007ee2372006600da3d7b6", "fusion_lon": 0.0}, {"rental_uris": {"ios": "https://dc.lft.to/lastmile_qr_scan", "android": "https://dc.lft.to/lastmile_qr_scan"}, "type": "electric_scooter", "name": "3d67e36f1f87ec8cd30df1e2c323bb1e", "is_reserved": 0, "lon": -77.027225, "is_disabled": 0, "fusion_lat": 0.0, "lat": 38.89764183333333, "bike_id": "3d67e36f1f87ec8cd30df1e2c323bb1e", "fusion_lon": 0.0}, {"rental_uris": {"ios": "https://dc.lft.to/lastmile_qr_scan", "android": "https://dc.lft.to/lastmile_qr_scan"}, "type": "electric_scooter", "name": "9211e954d0f7fbbd9acfa37586a84fc0", "is_reserved": 0, "lon": -77.02122033333333, "is_disabled": 0, "fusion_lat": 0.0, "lat": 38.922375833333334, "bike_id": "9211e954d0f7fbbd9acfa37586a84fc0", "fusion_lon": 0.0}, {"rental_uris": {"ios": "https://dc.lft.to/lastmile_qr_scan", "android": "https://dc.lft.to/lastmile_qr_scan"}, "type": "electric_scooter", "name": "30dd0c1b7ea1989eda753f468b817cb5", "is_reserved": 0, "lon": -77.03829, "is_disabled": 0, "fusion_lat": 0.0, "lat": 38.91076283333334, "bike_id": "30dd0c1b7ea1989eda753f468b817cb5", "fusion_lon": 0.0}, {"rental_uris": {"ios": "https://dc.lft.to/lastmile_qr_scan", "android": "https://dc.lft.to/lastmile_qr_scan"}, "type": "electric_bike", "name": "fa81255280ed43a3c7cb57e1a3bdc2df", "is_reserved": 0, "lon": -76.99793733333334, "is_disabled": 0, "fusion_lat": 0.0, "lat": 38.881295, "bike_id": "fa81255280ed43a3c7cb57e1a3bdc2df", "fusion_lon": 0.0}, {"rental_uris": {"ios": "https://dc.lft.to/lastmile_qr_scan", "android": "https://dc.lft.to/lastmile_qr_scan"}, "type": "electric_scooter", "name": "448eecb00d01c91e9c4b184769f18d51", "is_reserved": 0, "lon": -77.0238025, "is_disabled": 0, "fusion_lat": 0.0, "lat": 38.920626, "bike_id": "448eecb00d01c91e9c4b184769f18d51", "fusion_lon": 0.0}, {"rental_uris": {"ios": "https://dc.lft.to/lastmile_qr_scan", "android": "https://dc.lft.to/lastmile_qr_scan"}, "type": "electric_scooter", "name": "42465faf32de91960d702137ec218604", "is_reserved": 0, "lon": -77.04998666666667, "is_disabled": 0, "fusion_lat": 0.0, "lat": 38.892291, "bike_id": "42465faf32de91960d702137ec218604", "fusion_lon": 0.0}, {"rental_uris": {"ios": "https://dc.lft.to/lastmile_qr_scan", "android": "https://dc.lft.to/lastmile_qr_scan"}, "type": "electric_scooter", "name": "57ee22e5f6b0f33dd8c170e990ac70a8", "is_reserved": 0, "lon": -77.04501933333333, "is_disabled": 0, "fusion_lat": 0.0, "lat": 38.89251133333333, "bike_id": "57ee22e5f6b0f33dd8c170e990ac70a8", "fusion_lon": 0.0}, {"rental_uris": {"ios": "https://dc.lft.to/lastmile_qr_scan", "android": "https://dc.lft.to/lastmile_qr_scan"}, "type": "electric_scooter", "name": "c78e688dc9c439210adb78c9238cf88f", "is_reserved": 0, "lon": -77.04669216666667, "is_disabled": 0, "fusion_lat": 0.0, "lat": 38.91134516666666, "bike_id": "c78e688dc9c439210adb78c9238cf88f", "fusion_lon": 0.0}, {"rental_uris": {"ios": "https://dc.lft.to/lastmile_qr_scan", "android": "https://dc.lft.to/lastmile_qr_scan"}, "type": "electric_scooter", "name": "6838be3a51dee887b5caf9c515d03b80", "is_reserved": 0, "lon": -77.00711333333334, "is_disabled": 0, "fusion_lat": 0.0, "lat": 38.88488816666667, "bike_id": "6838be3a51dee887b5caf9c515d03b80", "fusion_lon": 0.0}, {"rental_uris": {"ios": "https://dc.lft.to/lastmile_qr_scan", "android": "https://dc.lft.to/lastmile_qr_scan"}, "type": "electric_scooter", "name": "5800b44de3b50cea0acd13ff1c3ba26a", "is_reserved": 0, "lon": -77.03322233333333, "is_disabled": 0, "fusion_lat": 0.0, "lat": 38.8877725, "bike_id": "5800b44de3b50cea0acd13ff1c3ba26a", "fusion_lon": 0.0}, {"rental_uris": {"ios": "https://dc.lft.to/lastmile_qr_scan", "android": "https://dc.lft.to/lastmile_qr_scan"}, "type": "electric_bike", "name": "4339881d3f9a3f5b7ebbfa5028c29fa1", "is_reserved": 0, "lon": -76.97340966666667, "is_disabled": 0, "fusion_lat": 0.0, "lat": 38.8972205, "bike_id": "4339881d3f9a3f5b7ebbfa5028c29fa1", "fusion_lon": 0.0}, {"rental_uris": {"ios": "https://dc.lft.to/lastmile_qr_scan", "android": "https://dc.lft.to/lastmile_qr_scan"}, "type": "electric_scooter", "name": "2e0b62edf77d120bd12f50750c7ddb68", "is_reserved": 0, "lon": -77.01081533333333, "is_disabled": 0, "fusion_lat": 0.0, "lat": 38.903309166666666, "bike_id": "2e0b62edf77d120bd12f50750c7ddb68", "fusion_lon": 0.0}, {"rental_uris": {"ios": "https://dc.lft.to/lastmile_qr_scan", "android": "https://dc.lft.to/lastmile_qr_scan"}, "type": "electric_scooter", "name": "0ea8eb19cbdc78d233e7132e2eb45196", "is_reserved": 0, "lon": -77.02378, "is_disabled": 0, "fusion_lat": 0.0, "lat": 38.90935233333333, "bike_id": "0ea8eb19cbdc78d233e7132e2eb45196", "fusion_lon": 0.0}, {"rental_uris": {"ios": "https://dc.lft.to/lastmile_qr_scan", "android": "https://dc.lft.to/lastmile_qr_scan"}, "type": "electric_scooter", "name": "de0eb6e5a2e8f7adaa0113c92be861fa", "is_reserved": 0, "lon": -77.02122583333333, "is_disabled": 0, "fusion_lat": 0.0, "lat": 38.924182333333334, "bike_id": "de0eb6e5a2e8f7adaa0113c92be861fa", "fusion_lon": 0.0}, {"rental_uris": {"ios": "https://dc.lft.to/lastmile_qr_scan", "android": "https://dc.lft.to/lastmile_qr_scan"}, "type": "electric_scooter", "name": "75ab92d42e4a42c4c68d01d441b12868", "is_reserved": 0, "lon": -77.05597516666667, "is_disabled": 0, "fusion_lat": 0.0, "lat": 38.936983, "bike_id": "75ab92d42e4a42c4c68d01d441b12868", "fusion_lon": 0.0}, {"rental_uris": {"ios": "https://dc.lft.to/lastmile_qr_scan", "android": "https://dc.lft.to/lastmile_qr_scan"}, "type": "electric_scooter", "name": "16b8e43238e1be2e2cde7371601ffc53", "is_reserved": 0, "lon": -77.05929983333333, "is_disabled": 0, "fusion_lat": 0.0, "lat": 38.9430615, "bike_id": "16b8e43238e1be2e2cde7371601ffc53", "fusion_lon": 0.0}, {"rental_uris": {"ios": "https://dc.lft.to/lastmile_qr_scan", "android": "https://dc.lft.to/lastmile_qr_scan"}, "type": "electric_scooter", "name": "5b64b4061c3b3c73e5a1dd8a3b751823", "is_reserved": 0, "lon": -77.0045585, "is_disabled": 0, "fusion_lat": 0.0, "lat": 38.920770166666664, "bike_id": "5b64b4061c3b3c73e5a1dd8a3b751823", "fusion_lon": 0.0}, {"rental_uris": {"ios": "https://dc.lft.to/lastmile_qr_scan", "android": "https://dc.lft.to/lastmile_qr_scan"}, "type": "electric_scooter", "name": "f61b5caf95b5d7946b6078e9be81cbbd", "is_reserved": 0, "lon": -77.03538033333334, "is_disabled": 0, "fusion_lat": 0.0, "lat": 38.90477383333333, "bike_id": "f61b5caf95b5d7946b6078e9be81cbbd", "fusion_lon": 0.0}, {"rental_uris": {"ios": "https://dc.lft.to/lastmile_qr_scan", "android": "https://dc.lft.to/lastmile_qr_scan"}, "type": "electric_scooter", "name": "2225fd841e9ba0842138e4ba9ee65bb8", "is_reserved": 0, "lon": -77.0417055, "is_disabled": 0, "fusion_lat": 0.0, "lat": 38.9170375, "bike_id": "2225fd841e9ba0842138e4ba9ee65bb8", "fusion_lon": 0.0}, {"rental_uris": {"ios": "https://dc.lft.to/lastmile_qr_scan", "android": "https://dc.lft.to/lastmile_qr_scan"}, "type": "electric_scooter", "name": "8ca76c738236a50f637dfd878a3c1d44", "is_reserved": 0, "lon": -77.02235433333334, "is_disabled": 0, "fusion_lat": 0.0, "lat": 38.8781845, "bike_id": "8ca76c738236a50f637dfd878a3c1d44", "fusion_lon": 0.0}, {"rental_uris": {"ios": "https://dc.lft.to/lastmile_qr_scan", "android": "https://dc.lft.to/lastmile_qr_scan"}, "type": "electric_bike", "name": "33e351917b26c708c0f7f8e1125dfbe8", "is_reserved": 0, "lon": -77.108708, "is_disabled": 0, "fusion_lat": 0.0, "lat": 38.935813, "bike_id": "33e351917b26c708c0f7f8e1125dfbe8", "fusion_lon": 0.0}, {"rental_uris": {"ios": "https://dc.lft.to/lastmile_qr_scan", "android": "https://dc.lft.to/lastmile_qr_scan"}, "type": "electric_scooter", "name": "f299e694cf019d0ac12398a9f48487ef", "is_reserved": 0, "lon": -77.04676316666666, "is_disabled": 0, "fusion_lat": 0.0, "lat": 38.91401416666667, "bike_id": "f299e694cf019d0ac12398a9f48487ef", "fusion_lon": 0.0}, {"rental_uris": {"ios": "https://dc.lft.to/lastmile_qr_scan", "android": "https://dc.lft.to/lastmile_qr_scan"}, "type": "electric_scooter", "name": "b3aaf985a2ac809dcebdc8ab658e62b0", "is_reserved": 0, "lon": -77.03229533333334, "is_disabled": 0, "fusion_lat": 0.0, "lat": 38.909746, "bike_id": "b3aaf985a2ac809dcebdc8ab658e62b0", "fusion_lon": 0.0}, {"rental_uris": {"ios": "https://dc.lft.to/lastmile_qr_scan", "android": "https://dc.lft.to/lastmile_qr_scan"}, "type": "electric_scooter", "name": "c4e0dba8a0f857a61bf64d911141973e", "is_reserved": 0, "lon": -77.05524683333333, "is_disabled": 0, "fusion_lat": 0.0, "lat": 38.89731916666667, "bike_id": "c4e0dba8a0f857a61bf64d911141973e", "fusion_lon": 0.0}, {"rental_uris": {"ios": "https://dc.lft.to/lastmile_qr_scan", "android": "https://dc.lft.to/lastmile_qr_scan"}, "type": "electric_scooter", "name": "e3cab0d5eb51399ff42f3181d14d36e5", "is_reserved": 0, "lon": -77.0228145, "is_disabled": 0, "fusion_lat": 0.0, "lat": 38.87846716666667, "bike_id": "e3cab0d5eb51399ff42f3181d14d36e5", "fusion_lon": 0.0}, {"rental_uris": {"ios": "https://dc.lft.to/lastmile_qr_scan", "android": "https://dc.lft.to/lastmile_qr_scan"}, "type": "electric_scooter", "name": "b0fa1d9685673965784b7d526f2b46be", "is_reserved": 0, "lon": -77.0455165, "is_disabled": 0, "fusion_lat": 0.0, "lat": 38.91363483333333, "bike_id": "b0fa1d9685673965784b7d526f2b46be", "fusion_lon": 0.0}, {"rental_uris": {"ios": "https://dc.lft.to/lastmile_qr_scan", "android": "https://dc.lft.to/lastmile_qr_scan"}, "type": "electric_bike", "name": "77af918acb38985b39034932f52f9211", "is_reserved": 0, "lon": -76.98276866666667, "is_disabled": 0, "fusion_lat": 0.0, "lat": 38.84685133333333, "bike_id": "77af918acb38985b39034932f52f9211", "fusion_lon": 0.0}, {"rental_uris": {"ios": "https://dc.lft.to/lastmile_qr_scan", "android": "https://dc.lft.to/lastmile_qr_scan"}, "type": "electric_scooter", "name": "09185960ce2a8f6012ee6bd77ec99ae7", "is_reserved": 0, "lon": -76.98703866666666, "is_disabled": 0, "fusion_lat": 0.0, "lat": 38.859611666666666, "bike_id": "09185960ce2a8f6012ee6bd77ec99ae7", "fusion_lon": 0.0}, {"rental_uris": {"ios": "https://dc.lft.to/lastmile_qr_scan", "android": "https://dc.lft.to/lastmile_qr_scan"}, "type": "electric_scooter", "name": "2504d44156cf0a4b984f4e9061f99110", "is_reserved": 0, "lon": -77.007114, "is_disabled": 0, "fusion_lat": 0.0, "lat": 38.87952633333333, "bike_id": "2504d44156cf0a4b984f4e9061f99110", "fusion_lon": 0.0}, {"rental_uris": {"ios": "https://dc.lft.to/lastmile_qr_scan", "android": "https://dc.lft.to/lastmile_qr_scan"}, "type": "electric_scooter", "name": "b3852120a1057c72bc149dc40c76e37b", "is_reserved": 0, "lon": -76.994852, "is_disabled": 0, "fusion_lat": 0.0, "lat": 38.877326, "bike_id": "b3852120a1057c72bc149dc40c76e37b", "fusion_lon": 0.0}, {"rental_uris": {"ios": "https://dc.lft.to/lastmile_qr_scan", "android": "https://dc.lft.to/lastmile_qr_scan"}, "type": "electric_scooter", "name": "aa86b97b2d4a5fce959ad32c1a9a4b2c", "is_reserved": 0, "lon": -77.00837516666667, "is_disabled": 0, "fusion_lat": 0.0, "lat": 38.8764405, "bike_id": "aa86b97b2d4a5fce959ad32c1a9a4b2c", "fusion_lon": 0.0}, {"rental_uris": {"ios": "https://dc.lft.to/lastmile_qr_scan", "android": "https://dc.lft.to/lastmile_qr_scan"}, "type": "electric_scooter", "name": "004babb602e49102c9ccb0ae9b00846c", "is_reserved": 0, "lon": -77.00791633333333, "is_disabled": 0, "fusion_lat": 0.0, "lat": 38.897177166666665, "bike_id": "004babb602e49102c9ccb0ae9b00846c", "fusion_lon": 0.0}, {"rental_uris": {"ios": "https://dc.lft.to/lastmile_qr_scan", "android": "https://dc.lft.to/lastmile_qr_scan"}, "type": "electric_scooter", "name": "5d318b7a4bdda966abe24b3ca2f69722", "is_reserved": 0, "lon": -77.0268715, "is_disabled": 0, "fusion_lat": 0.0, "lat": 38.916985833333335, "bike_id": "5d318b7a4bdda966abe24b3ca2f69722", "fusion_lon": 0.0}, {"rental_uris": {"ios": "https://dc.lft.to/lastmile_qr_scan", "android": "https://dc.lft.to/lastmile_qr_scan"}, "type": "electric_scooter", "name": "0179b9f53ccd3b35e0dd25a97717cae9", "is_reserved": 0, "lon": -77.06679383333334, "is_disabled": 0, "fusion_lat": 0.0, "lat": 38.903705, "bike_id": "0179b9f53ccd3b35e0dd25a97717cae9", "fusion_lon": 0.0}, {"rental_uris": {"ios": "https://dc.lft.to/lastmile_qr_scan", "android": "https://dc.lft.to/lastmile_qr_scan"}, "type": "electric_scooter", "name": "69fa629bf13e8d6787cd375ab28ef404", "is_reserved": 0, "lon": -77.01233733333333, "is_disabled": 0, "fusion_lat": 0.0, "lat": 38.8810415, "bike_id": "69fa629bf13e8d6787cd375ab28ef404", "fusion_lon": 0.0}, {"rental_uris": {"ios": "https://dc.lft.to/lastmile_qr_scan", "android": "https://dc.lft.to/lastmile_qr_scan"}, "type": "electric_scooter", "name": "44888034b48f18f18160678c59711ef0", "is_reserved": 0, "lon": -76.9932265, "is_disabled": 0, "fusion_lat": 0.0, "lat": 38.87640416666667, "bike_id": "44888034b48f18f18160678c59711ef0", "fusion_lon": 0.0}, {"rental_uris": {"ios": "https://dc.lft.to/lastmile_qr_scan", "android": "https://dc.lft.to/lastmile_qr_scan"}, "type": "electric_scooter", "name": "0c385968f30afb1829097a83bf981f23", "is_reserved": 0, "lon": -77.02186016666667, "is_disabled": 0, "fusion_lat": 0.0, "lat": 38.9198435, "bike_id": "0c385968f30afb1829097a83bf981f23", "fusion_lon": 0.0}, {"rental_uris": {"ios": "https://dc.lft.to/lastmile_qr_scan", "android": "https://dc.lft.to/lastmile_qr_scan"}, "type": "electric_scooter", "name": "64efb6d7075527defd74b88a122a3f86", "is_reserved": 0, "lon": -77.0122745, "is_disabled": 0, "fusion_lat": 0.0, "lat": 38.9007895, "bike_id": "64efb6d7075527defd74b88a122a3f86", "fusion_lon": 0.0}, {"rental_uris": {"ios": "https://dc.lft.to/lastmile_qr_scan", "android": "https://dc.lft.to/lastmile_qr_scan"}, "type": "electric_scooter", "name": "aa99bede59f7c5656087c4e7336eb40e", "is_reserved": 0, "lon": -77.01476916666667, "is_disabled": 0, "fusion_lat": 0.0, "lat": 38.943290833333336, "bike_id": "aa99bede59f7c5656087c4e7336eb40e", "fusion_lon": 0.0}, {"rental_uris": {"ios": "https://dc.lft.to/lastmile_qr_scan", "android": "https://dc.lft.to/lastmile_qr_scan"}, "type": "electric_scooter", "name": "ed98d60d410e2aa148b5a95ab3d5f890", "is_reserved": 0, "lon": -77.05824516666667, "is_disabled": 0, "fusion_lat": 0.0, "lat": 38.905196, "bike_id": "ed98d60d410e2aa148b5a95ab3d5f890", "fusion_lon": 0.0}, {"rental_uris": {"ios": "https://dc.lft.to/lastmile_qr_scan", "android": "https://dc.lft.to/lastmile_qr_scan"}, "type": "electric_scooter", "name": "e63760f9a3b817a701b1f927af88281a", "is_reserved": 0, "lon": -76.93388633333333, "is_disabled": 0, "fusion_lat": 0.0, "lat": 38.89905516666666, "bike_id": "e63760f9a3b817a701b1f927af88281a", "fusion_lon": 0.0}, {"rental_uris": {"ios": "https://dc.lft.to/lastmile_qr_scan", "android": "https://dc.lft.to/lastmile_qr_scan"}, "type": "electric_scooter", "name": "3b8f657b1acdba45b55b755ec8e03fc1", "is_reserved": 0, "lon": -77.04657166666667, "is_disabled": 0, "fusion_lat": 0.0, "lat": 38.92128016666667, "bike_id": "3b8f657b1acdba45b55b755ec8e03fc1", "fusion_lon": 0.0}, {"rental_uris": {"ios": "https://dc.lft.to/lastmile_qr_scan", "android": "https://dc.lft.to/lastmile_qr_scan"}, "type": "electric_scooter", "name": "e4d00325c391f80a73ebec770b45259d", "is_reserved": 0, "lon": -77.04335616666667, "is_disabled": 0, "fusion_lat": 0.0, "lat": 38.8922155, "bike_id": "e4d00325c391f80a73ebec770b45259d", "fusion_lon": 0.0}, {"rental_uris": {"ios": "https://dc.lft.to/lastmile_qr_scan", "android": "https://dc.lft.to/lastmile_qr_scan"}, "type": "electric_scooter", "name": "47afe22bed18b583f74a94981d5b43d1", "is_reserved": 0, "lon": -77.0077765, "is_disabled": 0, "fusion_lat": 0.0, "lat": 38.95246366666667, "bike_id": "47afe22bed18b583f74a94981d5b43d1", "fusion_lon": 0.0}, {"rental_uris": {"ios": "https://dc.lft.to/lastmile_qr_scan", "android": "https://dc.lft.to/lastmile_qr_scan"}, "type": "electric_scooter", "name": "596c62e4faec46ac709c5ce211060831", "is_reserved": 0, "lon": -77.0307555, "is_disabled": 0, "fusion_lat": 0.0, "lat": 38.933030333333335, "bike_id": "596c62e4faec46ac709c5ce211060831", "fusion_lon": 0.0}, {"rental_uris": {"ios": "https://dc.lft.to/lastmile_qr_scan", "android": "https://dc.lft.to/lastmile_qr_scan"}, "type": "electric_scooter", "name": "f72fba27658c90a2805687b4ae6a9b6f", "is_reserved": 0, "lon": -77.02838433333334, "is_disabled": 0, "fusion_lat": 0.0, "lat": 38.914047833333335, "bike_id": "f72fba27658c90a2805687b4ae6a9b6f", "fusion_lon": 0.0}, {"rental_uris": {"ios": "https://dc.lft.to/lastmile_qr_scan", "android": "https://dc.lft.to/lastmile_qr_scan"}, "type": "electric_scooter", "name": "67c47d2a80fc25827edacf4b46cae3dc", "is_reserved": 0, "lon": -77.02968233333333, "is_disabled": 0, "fusion_lat": 0.0, "lat": 38.90647716666667, "bike_id": "67c47d2a80fc25827edacf4b46cae3dc", "fusion_lon": 0.0}, {"rental_uris": {"ios": "https://dc.lft.to/lastmile_qr_scan", "android": "https://dc.lft.to/lastmile_qr_scan"}, "type": "electric_scooter", "name": "4d114089b11f11d996f3bbd7332ce3ba", "is_reserved": 0, "lon": -77.022804, "is_disabled": 0, "fusion_lat": 0.0, "lat": 38.9156155, "bike_id": "4d114089b11f11d996f3bbd7332ce3ba", "fusion_lon": 0.0}, {"rental_uris": {"ios": "https://dc.lft.to/lastmile_qr_scan", "android": "https://dc.lft.to/lastmile_qr_scan"}, "type": "electric_bike", "name": "b728cd6d3cccd84b7ab3d65058798ad5", "is_reserved": 0, "lon": -77.22826433333333, "is_disabled": 0, "fusion_lat": 0.0, "lat": 38.882672166666666, "bike_id": "b728cd6d3cccd84b7ab3d65058798ad5", "fusion_lon": 0.0}, {"rental_uris": {"ios": "https://dc.lft.to/lastmile_qr_scan", "android": "https://dc.lft.to/lastmile_qr_scan"}, "type": "electric_scooter", "name": "09cccdc8449ef95b9408903698adf607", "is_reserved": 0, "lon": -77.03550516666667, "is_disabled": 0, "fusion_lat": 0.0, "lat": 38.90479116666667, "bike_id": "09cccdc8449ef95b9408903698adf607", "fusion_lon": 0.0}, {"rental_uris": {"ios": "https://dc.lft.to/lastmile_qr_scan", "android": "https://dc.lft.to/lastmile_qr_scan"}, "type": "electric_scooter", "name": "9740fedd3fa96e1eeeb4043ada14cd70", "is_reserved": 0, "lon": -76.94962316666667, "is_disabled": 0, "fusion_lat": 0.0, "lat": 38.89473516666666, "bike_id": "9740fedd3fa96e1eeeb4043ada14cd70", "fusion_lon": 0.0}, {"rental_uris": {"ios": "https://dc.lft.to/lastmile_qr_scan", "android": "https://dc.lft.to/lastmile_qr_scan"}, "type": "electric_scooter", "name": "951e4639ab23465d0a595e9ae1cf8f62", "is_reserved": 0, "lon": -77.04943666666667, "is_disabled": 0, "fusion_lat": 0.0, "lat": 38.920188333333336, "bike_id": "951e4639ab23465d0a595e9ae1cf8f62", "fusion_lon": 0.0}, {"rental_uris": {"ios": "https://dc.lft.to/lastmile_qr_scan", "android": "https://dc.lft.to/lastmile_qr_scan"}, "type": "electric_scooter", "name": "e5e376b6618eb787bd764583487e8621", "is_reserved": 0, "lon": -76.9304285, "is_disabled": 0, "fusion_lat": 0.0, "lat": 38.88384933333333, "bike_id": "e5e376b6618eb787bd764583487e8621", "fusion_lon": 0.0}, {"rental_uris": {"ios": "https://dc.lft.to/lastmile_qr_scan", "android": "https://dc.lft.to/lastmile_qr_scan"}, "type": "electric_scooter", "name": "1058f5c86a3df4d3101409316d920c7a", "is_reserved": 0, "lon": -77.0445745, "is_disabled": 0, "fusion_lat": 0.0, "lat": 38.919113833333334, "bike_id": "1058f5c86a3df4d3101409316d920c7a", "fusion_lon": 0.0}, {"rental_uris": {"ios": "https://dc.lft.to/lastmile_qr_scan", "android": "https://dc.lft.to/lastmile_qr_scan"}, "type": "electric_scooter", "name": "6be370678e0926c3785f8318fc6fa6be", "is_reserved": 0, "lon": -77.0015705, "is_disabled": 0, "fusion_lat": 0.0, "lat": 38.821328333333334, "bike_id": "6be370678e0926c3785f8318fc6fa6be", "fusion_lon": 0.0}, {"rental_uris": {"ios": "https://dc.lft.to/lastmile_qr_scan", "android": "https://dc.lft.to/lastmile_qr_scan"}, "type": "electric_scooter", "name": "b03225b4ea5387557fbbfcc2f5c60d47", "is_reserved": 0, "lon": -77.0385175, "is_disabled": 0, "fusion_lat": 0.0, "lat": 38.906581333333335, "bike_id": "b03225b4ea5387557fbbfcc2f5c60d47", "fusion_lon": 0.0}, {"rental_uris": {"ios": "https://dc.lft.to/lastmile_qr_scan", "android": "https://dc.lft.to/lastmile_qr_scan"}, "type": "electric_scooter", "name": "544f06e48ae363ea01b8820b5897462a", "is_reserved": 0, "lon": -77.01934116666666, "is_disabled": 0, "fusion_lat": 0.0, "lat": 38.946997, "bike_id": "544f06e48ae363ea01b8820b5897462a", "fusion_lon": 0.0}, {"rental_uris": {"ios": "https://dc.lft.to/lastmile_qr_scan", "android": "https://dc.lft.to/lastmile_qr_scan"}, "type": "electric_bike", "name": "c593217dd24863e88b31460b14fb7931", "is_reserved": 0, "lon": -76.95157183333333, "is_disabled": 0, "fusion_lat": 0.0, "lat": 39.0844105, "bike_id": "c593217dd24863e88b31460b14fb7931", "fusion_lon": 0.0}, {"rental_uris": {"ios": "https://dc.lft.to/lastmile_qr_scan", "android": "https://dc.lft.to/lastmile_qr_scan"}, "type": "electric_scooter", "name": "399c3136a24f3ef943c3b005fb658d73", "is_reserved": 0, "lon": -77.04204833333333, "is_disabled": 0, "fusion_lat": 0.0, "lat": 38.92124066666667, "bike_id": "399c3136a24f3ef943c3b005fb658d73", "fusion_lon": 0.0}, {"rental_uris": {"ios": "https://dc.lft.to/lastmile_qr_scan", "android": "https://dc.lft.to/lastmile_qr_scan"}, "type": "electric_scooter", "name": "645699acd19ef86d3ceae636774902ee", "is_reserved": 0, "lon": -77.01510166666667, "is_disabled": 0, "fusion_lat": 0.0, "lat": 38.884309333333334, "bike_id": "645699acd19ef86d3ceae636774902ee", "fusion_lon": 0.0}, {"rental_uris": {"ios": "https://dc.lft.to/lastmile_qr_scan", "android": "https://dc.lft.to/lastmile_qr_scan"}, "type": "electric_scooter", "name": "bce8e686366c614c1badf915eaedc12e", "is_reserved": 0, "lon": -77.02171066666666, "is_disabled": 0, "fusion_lat": 0.0, "lat": 38.89948916666667, "bike_id": "bce8e686366c614c1badf915eaedc12e", "fusion_lon": 0.0}, {"rental_uris": {"ios": "https://dc.lft.to/lastmile_qr_scan", "android": "https://dc.lft.to/lastmile_qr_scan"}, "type": "electric_scooter", "name": "9432fdbad860e8f4dad6ef59646233f4", "is_reserved": 0, "lon": -77.03474816666666, "is_disabled": 0, "fusion_lat": 0.0, "lat": 38.91700766666666, "bike_id": "9432fdbad860e8f4dad6ef59646233f4", "fusion_lon": 0.0}, {"rental_uris": {"ios": "https://dc.lft.to/lastmile_qr_scan", "android": "https://dc.lft.to/lastmile_qr_scan"}, "type": "electric_scooter", "name": "01bc07698bb2293f55f716be65663f00", "is_reserved": 0, "lon": -76.94323116666666, "is_disabled": 0, "fusion_lat": 0.0, "lat": 38.879164833333334, "bike_id": "01bc07698bb2293f55f716be65663f00", "fusion_lon": 0.0}, {"rental_uris": {"ios": "https://dc.lft.to/lastmile_qr_scan", "android": "https://dc.lft.to/lastmile_qr_scan"}, "type": "electric_scooter", "name": "a1fcc7f2e0698ea6e576aadc7c944c19", "is_reserved": 0, "lon": -77.04753666666667, "is_disabled": 0, "fusion_lat": 0.0, "lat": 38.90178216666666, "bike_id": "a1fcc7f2e0698ea6e576aadc7c944c19", "fusion_lon": 0.0}, {"rental_uris": {"ios": "https://dc.lft.to/lastmile_qr_scan", "android": "https://dc.lft.to/lastmile_qr_scan"}, "type": "electric_bike", "name": "5577899f782c7e6028e177497f5ab23b", "is_reserved": 0, "lon": -77.07245233333333, "is_disabled": 0, "fusion_lat": 0.0, "lat": 38.81363016666667, "bike_id": "5577899f782c7e6028e177497f5ab23b", "fusion_lon": 0.0}, {"rental_uris": {"ios": "https://dc.lft.to/lastmile_qr_scan", "android": "https://dc.lft.to/lastmile_qr_scan"}, "type": "electric_scooter", "name": "80259e4500ed82497e1ef1193af03956", "is_reserved": 0, "lon": -77.02524466666667, "is_disabled": 0, "fusion_lat": 0.0, "lat": 38.92977233333333, "bike_id": "80259e4500ed82497e1ef1193af03956", "fusion_lon": 0.0}, {"rental_uris": {"ios": "https://dc.lft.to/lastmile_qr_scan", "android": "https://dc.lft.to/lastmile_qr_scan"}, "type": "electric_scooter", "name": "eaf02626913dcca2eaac1a7f73a223f2", "is_reserved": 0, "lon": -77.03641216666666, "is_disabled": 0, "fusion_lat": 0.0, "lat": 38.89891383333333, "bike_id": "eaf02626913dcca2eaac1a7f73a223f2", "fusion_lon": 0.0}, {"rental_uris": {"ios": "https://dc.lft.to/lastmile_qr_scan", "android": "https://dc.lft.to/lastmile_qr_scan"}, "type": "electric_scooter", "name": "18f472bb666aa1c2cc3fa7c03ab7178f", "is_reserved": 0, "lon": -77.02816133333333, "is_disabled": 0, "fusion_lat": 0.0, "lat": 38.91093983333333, "bike_id": "18f472bb666aa1c2cc3fa7c03ab7178f", "fusion_lon": 0.0}, {"rental_uris": {"ios": "https://dc.lft.to/lastmile_qr_scan", "android": "https://dc.lft.to/lastmile_qr_scan"}, "type": "electric_scooter", "name": "93b94c5c047fd9b2402e632d6fae0ed6", "is_reserved": 0, "lon": -77.03229433333334, "is_disabled": 0, "fusion_lat": 0.0, "lat": 38.901413, "bike_id": "93b94c5c047fd9b2402e632d6fae0ed6", "fusion_lon": 0.0}, {"rental_uris": {"ios": "https://dc.lft.to/lastmile_qr_scan", "android": "https://dc.lft.to/lastmile_qr_scan"}, "type": "electric_scooter", "name": "c6b6c0c73db1914a520450c755810a97", "is_reserved": 0, "lon": -77.02593033333333, "is_disabled": 0, "fusion_lat": 0.0, "lat": 38.91694316666667, "bike_id": "c6b6c0c73db1914a520450c755810a97", "fusion_lon": 0.0}, {"rental_uris": {"ios": "https://dc.lft.to/lastmile_qr_scan", "android": "https://dc.lft.to/lastmile_qr_scan"}, "type": "electric_scooter", "name": "a6358f9c5882617dfe21ec57e3cf8dcf", "is_reserved": 0, "lon": -76.98566016666666, "is_disabled": 0, "fusion_lat": 0.0, "lat": 38.896173833333336, "bike_id": "a6358f9c5882617dfe21ec57e3cf8dcf", "fusion_lon": 0.0}, {"rental_uris": {"ios": "https://dc.lft.to/lastmile_qr_scan", "android": "https://dc.lft.to/lastmile_qr_scan"}, "type": "electric_scooter", "name": "c315f5af1ad2be73f9b1357a6c0fedad", "is_reserved": 0, "lon": -77.0247515, "is_disabled": 0, "fusion_lat": 0.0, "lat": 38.9265255, "bike_id": "c315f5af1ad2be73f9b1357a6c0fedad", "fusion_lon": 0.0}, {"rental_uris": {"ios": "https://dc.lft.to/lastmile_qr_scan", "android": "https://dc.lft.to/lastmile_qr_scan"}, "type": "electric_scooter", "name": "4a978523a10c7df3b940a0737e7c623f", "is_reserved": 0, "lon": -77.04034816666666, "is_disabled": 0, "fusion_lat": 0.0, "lat": 38.9246035, "bike_id": "4a978523a10c7df3b940a0737e7c623f", "fusion_lon": 0.0}, {"rental_uris": {"ios": "https://dc.lft.to/lastmile_qr_scan", "android": "https://dc.lft.to/lastmile_qr_scan"}, "type": "electric_scooter", "name": "31788b0bf93caf17aac5de9b0189590b", "is_reserved": 0, "lon": -77.02220966666667, "is_disabled": 0, "fusion_lat": 0.0, "lat": 38.911124, "bike_id": "31788b0bf93caf17aac5de9b0189590b", "fusion_lon": 0.0}, {"rental_uris": {"ios": "https://dc.lft.to/lastmile_qr_scan", "android": "https://dc.lft.to/lastmile_qr_scan"}, "type": "electric_scooter", "name": "fe8c78b750314235793216e22b925f19", "is_reserved": 0, "lon": -77.02503216666666, "is_disabled": 0, "fusion_lat": 0.0, "lat": 38.905758666666664, "bike_id": "fe8c78b750314235793216e22b925f19", "fusion_lon": 0.0}, {"rental_uris": {"ios": "https://dc.lft.to/lastmile_qr_scan", "android": "https://dc.lft.to/lastmile_qr_scan"}, "type": "electric_scooter", "name": "93dd30f84d7c76913f88315ddf3096cb", "is_reserved": 0, "lon": -77.02228633333333, "is_disabled": 0, "fusion_lat": 0.0, "lat": 38.8791815, "bike_id": "93dd30f84d7c76913f88315ddf3096cb", "fusion_lon": 0.0}, {"rental_uris": {"ios": "https://dc.lft.to/lastmile_qr_scan", "android": "https://dc.lft.to/lastmile_qr_scan"}, "type": "electric_scooter", "name": "8fd811ef436bac111450d5b9b186b3e9", "is_reserved": 0, "lon": -77.02996216666666, "is_disabled": 0, "fusion_lat": 0.0, "lat": 38.90495283333333, "bike_id": "8fd811ef436bac111450d5b9b186b3e9", "fusion_lon": 0.0}, {"rental_uris": {"ios": "https://dc.lft.to/lastmile_qr_scan", "android": "https://dc.lft.to/lastmile_qr_scan"}, "type": "electric_scooter", "name": "e5e25018d9a7b7a1f1e4a3e54b825f69", "is_reserved": 0, "lon": -77.03933983333333, "is_disabled": 0, "fusion_lat": 0.0, "lat": 38.901552333333335, "bike_id": "e5e25018d9a7b7a1f1e4a3e54b825f69", "fusion_lon": 0.0}, {"rental_uris": {"ios": "https://dc.lft.to/lastmile_qr_scan", "android": "https://dc.lft.to/lastmile_qr_scan"}, "type": "electric_scooter", "name": "71855fb74decf26704232d4eedc40b37", "is_reserved": 0, "lon": -77.0320545, "is_disabled": 0, "fusion_lat": 0.0, "lat": 38.91197066666667, "bike_id": "71855fb74decf26704232d4eedc40b37", "fusion_lon": 0.0}, {"rental_uris": {"ios": "https://dc.lft.to/lastmile_qr_scan", "android": "https://dc.lft.to/lastmile_qr_scan"}, "type": "electric_scooter", "name": "3ebd17ed8e04e17dc136b65162e3041e", "is_reserved": 0, "lon": -77.03177933333333, "is_disabled": 0, "fusion_lat": 0.0, "lat": 38.90978483333333, "bike_id": "3ebd17ed8e04e17dc136b65162e3041e", "fusion_lon": 0.0}, {"rental_uris": {"ios": "https://dc.lft.to/lastmile_qr_scan", "android": "https://dc.lft.to/lastmile_qr_scan"}, "type": "electric_scooter", "name": "198b2adef716f42e40061542f584b94f", "is_reserved": 0, "lon": -77.00920566666667, "is_disabled": 0, "fusion_lat": 0.0, "lat": 38.896958166666664, "bike_id": "198b2adef716f42e40061542f584b94f", "fusion_lon": 0.0}, {"rental_uris": {"ios": "https://dc.lft.to/lastmile_qr_scan", "android": "https://dc.lft.to/lastmile_qr_scan"}, "type": "electric_scooter", "name": "01050754b32ed29945573f755be6dd3b", "is_reserved": 0, "lon": -77.0240335, "is_disabled": 0, "fusion_lat": 0.0, "lat": 38.917609666666664, "bike_id": "01050754b32ed29945573f755be6dd3b", "fusion_lon": 0.0}, {"rental_uris": {"ios": "https://dc.lft.to/lastmile_qr_scan", "android": "https://dc.lft.to/lastmile_qr_scan"}, "type": "electric_scooter", "name": "214e9638729e4d51177e2516deddd8b4", "is_reserved": 0, "lon": -77.0346205, "is_disabled": 0, "fusion_lat": 0.0, "lat": 38.90732583333333, "bike_id": "214e9638729e4d51177e2516deddd8b4", "fusion_lon": 0.0}, {"rental_uris": {"ios": "https://dc.lft.to/lastmile_qr_scan", "android": "https://dc.lft.to/lastmile_qr_scan"}, "type": "electric_scooter", "name": "d9d16667501f80c71b04bd350c813cbe", "is_reserved": 0, "lon": -77.02496416666666, "is_disabled": 0, "fusion_lat": 0.0, "lat": 38.897527, "bike_id": "d9d16667501f80c71b04bd350c813cbe", "fusion_lon": 0.0}, {"rental_uris": {"ios": "https://dc.lft.to/lastmile_qr_scan", "android": "https://dc.lft.to/lastmile_qr_scan"}, "type": "electric_bike", "name": "8aa342e29ec188218c48da947ec26a5a", "is_reserved": 0, "lon": -76.93748016666666, "is_disabled": 0, "fusion_lat": 0.0, "lat": 38.87145266666667, "bike_id": "8aa342e29ec188218c48da947ec26a5a", "fusion_lon": 0.0}, {"rental_uris": {"ios": "https://dc.lft.to/lastmile_qr_scan", "android": "https://dc.lft.to/lastmile_qr_scan"}, "type": "electric_scooter", "name": "c6f91c359a5c99441a23f95845343297", "is_reserved": 0, "lon": -77.03261, "is_disabled": 0, "fusion_lat": 0.0, "lat": 38.904259833333334, "bike_id": "c6f91c359a5c99441a23f95845343297", "fusion_lon": 0.0}, {"rental_uris": {"ios": "https://dc.lft.to/lastmile_qr_scan", "android": "https://dc.lft.to/lastmile_qr_scan"}, "type": "electric_scooter", "name": "57219fe3623895f5ea67d9b801a5efe8", "is_reserved": 0, "lon": -77.01762033333333, "is_disabled": 0, "fusion_lat": 0.0, "lat": 38.920518, "bike_id": "57219fe3623895f5ea67d9b801a5efe8", "fusion_lon": 0.0}, {"rental_uris": {"ios": "https://dc.lft.to/lastmile_qr_scan", "android": "https://dc.lft.to/lastmile_qr_scan"}, "type": "electric_scooter", "name": "8912fd05f075f3796572757641fdf00d", "is_reserved": 0, "lon": -76.9993, "is_disabled": 0, "fusion_lat": 0.0, "lat": 38.9575735, "bike_id": "8912fd05f075f3796572757641fdf00d", "fusion_lon": 0.0}, {"rental_uris": {"ios": "https://dc.lft.to/lastmile_qr_scan", "android": "https://dc.lft.to/lastmile_qr_scan"}, "type": "electric_scooter", "name": "75e9ac904492f6bcc7ebc11269acc5c6", "is_reserved": 0, "lon": -77.04262083333333, "is_disabled": 0, "fusion_lat": 0.0, "lat": 38.904395, "bike_id": "75e9ac904492f6bcc7ebc11269acc5c6", "fusion_lon": 0.0}, {"rental_uris": {"ios": "https://dc.lft.to/lastmile_qr_scan", "android": "https://dc.lft.to/lastmile_qr_scan"}, "type": "electric_scooter", "name": "3812d2727ed9931b76a877c8eb8c117b", "is_reserved": 0, "lon": -77.0343675, "is_disabled": 0, "fusion_lat": 0.0, "lat": 38.90974, "bike_id": "3812d2727ed9931b76a877c8eb8c117b", "fusion_lon": 0.0}, {"rental_uris": {"ios": "https://dc.lft.to/lastmile_qr_scan", "android": "https://dc.lft.to/lastmile_qr_scan"}, "type": "electric_scooter", "name": "8d500946dda01b8f495b37c11180c453", "is_reserved": 0, "lon": -77.0078245, "is_disabled": 0, "fusion_lat": 0.0, "lat": 38.89738533333333, "bike_id": "8d500946dda01b8f495b37c11180c453", "fusion_lon": 0.0}, {"rental_uris": {"ios": "https://dc.lft.to/lastmile_qr_scan", "android": "https://dc.lft.to/lastmile_qr_scan"}, "type": "electric_scooter", "name": "d68592d628cba1eed831ee01ef0bef11", "is_reserved": 0, "lon": -77.046442, "is_disabled": 0, "fusion_lat": 0.0, "lat": 38.9119615, "bike_id": "d68592d628cba1eed831ee01ef0bef11", "fusion_lon": 0.0}, {"rental_uris": {"ios": "https://dc.lft.to/lastmile_qr_scan", "android": "https://dc.lft.to/lastmile_qr_scan"}, "type": "electric_scooter", "name": "99db3eeebbe72688d62c31da64f3829e", "is_reserved": 0, "lon": -77.0230745, "is_disabled": 0, "fusion_lat": 0.0, "lat": 38.92997716666667, "bike_id": "99db3eeebbe72688d62c31da64f3829e", "fusion_lon": 0.0}, {"rental_uris": {"ios": "https://dc.lft.to/lastmile_qr_scan", "android": "https://dc.lft.to/lastmile_qr_scan"}, "type": "electric_scooter", "name": "3741f459ad56f7cac8a3d7c3d55f2451", "is_reserved": 0, "lon": -77.05551183333333, "is_disabled": 0, "fusion_lat": 0.0, "lat": 38.899733499999996, "bike_id": "3741f459ad56f7cac8a3d7c3d55f2451", "fusion_lon": 0.0}, {"rental_uris": {"ios": "https://dc.lft.to/lastmile_qr_scan", "android": "https://dc.lft.to/lastmile_qr_scan"}, "type": "electric_scooter", "name": "e9d6fde86f899fcd25430f7b12f5ed50", "is_reserved": 0, "lon": -76.9519055, "is_disabled": 0, "fusion_lat": 0.0, "lat": 38.9050725, "bike_id": "e9d6fde86f899fcd25430f7b12f5ed50", "fusion_lon": 0.0}, {"rental_uris": {"ios": "https://dc.lft.to/lastmile_qr_scan", "android": "https://dc.lft.to/lastmile_qr_scan"}, "type": "electric_scooter", "name": "0880ef1639666e41e60a7f050a0551d6", "is_reserved": 0, "lon": -77.0447235, "is_disabled": 0, "fusion_lat": 0.0, "lat": 38.92289516666666, "bike_id": "0880ef1639666e41e60a7f050a0551d6", "fusion_lon": 0.0}, {"rental_uris": {"ios": "https://dc.lft.to/lastmile_qr_scan", "android": "https://dc.lft.to/lastmile_qr_scan"}, "type": "electric_scooter", "name": "e778e49ed45ed0fe7e4632c4f1987f51", "is_reserved": 0, "lon": -77.066054, "is_disabled": 0, "fusion_lat": 0.0, "lat": 38.911107666666666, "bike_id": "e778e49ed45ed0fe7e4632c4f1987f51", "fusion_lon": 0.0}, {"rental_uris": {"ios": "https://dc.lft.to/lastmile_qr_scan", "android": "https://dc.lft.to/lastmile_qr_scan"}, "type": "electric_scooter", "name": "a73cf02d910c13eed2e6b56d3cadaae0", "is_reserved": 0, "lon": -77.04152083333334, "is_disabled": 0, "fusion_lat": 0.0, "lat": 38.9175115, "bike_id": "a73cf02d910c13eed2e6b56d3cadaae0", "fusion_lon": 0.0}, {"rental_uris": {"ios": "https://dc.lft.to/lastmile_qr_scan", "android": "https://dc.lft.to/lastmile_qr_scan"}, "type": "electric_scooter", "name": "cbd31c0290565935cb57633c9c994af0", "is_reserved": 0, "lon": -77.01614683333334, "is_disabled": 0, "fusion_lat": 0.0, "lat": 38.9116945, "bike_id": "cbd31c0290565935cb57633c9c994af0", "fusion_lon": 0.0}, {"rental_uris": {"ios": "https://dc.lft.to/lastmile_qr_scan", "android": "https://dc.lft.to/lastmile_qr_scan"}, "type": "electric_scooter", "name": "9a5f93bec464597fa31a7c0ecb6f87d2", "is_reserved": 0, "lon": -77.02775216666667, "is_disabled": 0, "fusion_lat": 0.0, "lat": 38.96241933333334, "bike_id": "9a5f93bec464597fa31a7c0ecb6f87d2", "fusion_lon": 0.0}, {"rental_uris": {"ios": "https://dc.lft.to/lastmile_qr_scan", "android": "https://dc.lft.to/lastmile_qr_scan"}, "type": "electric_scooter", "name": "2922518d73b237e0a4aa38d11b5c1460", "is_reserved": 0, "lon": -77.03469816666667, "is_disabled": 0, "fusion_lat": 0.0, "lat": 38.916905, "bike_id": "2922518d73b237e0a4aa38d11b5c1460", "fusion_lon": 0.0}, {"rental_uris": {"ios": "https://dc.lft.to/lastmile_qr_scan", "android": "https://dc.lft.to/lastmile_qr_scan"}, "type": "electric_scooter", "name": "85e228334be4ff4819bc3e337d77a760", "is_reserved": 0, "lon": -77.00381316666666, "is_disabled": 0, "fusion_lat": 0.0, "lat": 38.940632, "bike_id": "85e228334be4ff4819bc3e337d77a760", "fusion_lon": 0.0}, {"rental_uris": {"ios": "https://dc.lft.to/lastmile_qr_scan", "android": "https://dc.lft.to/lastmile_qr_scan"}, "type": "electric_scooter", "name": "77d935f2374c2dac140974d61496422c", "is_reserved": 0, "lon": -77.04174266666666, "is_disabled": 0, "fusion_lat": 0.0, "lat": 38.9172835, "bike_id": "77d935f2374c2dac140974d61496422c", "fusion_lon": 0.0}, {"rental_uris": {"ios": "https://dc.lft.to/lastmile_qr_scan", "android": "https://dc.lft.to/lastmile_qr_scan"}, "type": "electric_bike", "name": "03b728a75b766a32238576fdc23df552", "is_reserved": 0, "lon": -77.05513816666667, "is_disabled": 0, "fusion_lat": 0.0, "lat": 38.94413766666667, "bike_id": "03b728a75b766a32238576fdc23df552", "fusion_lon": 0.0}, {"rental_uris": {"ios": "https://dc.lft.to/lastmile_qr_scan", "android": "https://dc.lft.to/lastmile_qr_scan"}, "type": "electric_scooter", "name": "7ad1ab46f96d7c638f6602069cbe49e8", "is_reserved": 0, "lon": -77.0386405, "is_disabled": 0, "fusion_lat": 0.0, "lat": 38.908085166666666, "bike_id": "7ad1ab46f96d7c638f6602069cbe49e8", "fusion_lon": 0.0}, {"rental_uris": {"ios": "https://dc.lft.to/lastmile_qr_scan", "android": "https://dc.lft.to/lastmile_qr_scan"}, "type": "electric_scooter", "name": "f524d4742df5800d43fd971af0a6be90", "is_reserved": 0, "lon": -77.04685366666666, "is_disabled": 0, "fusion_lat": 0.0, "lat": 38.89225, "bike_id": "f524d4742df5800d43fd971af0a6be90", "fusion_lon": 0.0}, {"rental_uris": {"ios": "https://dc.lft.to/lastmile_qr_scan", "android": "https://dc.lft.to/lastmile_qr_scan"}, "type": "electric_scooter", "name": "d9e0ea658c0ee10e3f02941dee08c175", "is_reserved": 0, "lon": -77.03437566666666, "is_disabled": 0, "fusion_lat": 0.0, "lat": 38.917955166666665, "bike_id": "d9e0ea658c0ee10e3f02941dee08c175", "fusion_lon": 0.0}, {"rental_uris": {"ios": "https://dc.lft.to/lastmile_qr_scan", "android": "https://dc.lft.to/lastmile_qr_scan"}, "type": "electric_scooter", "name": "9124f6360449f55f6fbe9e5a32bfbc19", "is_reserved": 0, "lon": -77.04673266666667, "is_disabled": 0, "fusion_lat": 0.0, "lat": 38.892799833333335, "bike_id": "9124f6360449f55f6fbe9e5a32bfbc19", "fusion_lon": 0.0}, {"rental_uris": {"ios": "https://dc.lft.to/lastmile_qr_scan", "android": "https://dc.lft.to/lastmile_qr_scan"}, "type": "electric_scooter", "name": "75b7e4afafd53f1ff9707829619583f1", "is_reserved": 0, "lon": -77.03911733333334, "is_disabled": 0, "fusion_lat": 0.0, "lat": 38.9155205, "bike_id": "75b7e4afafd53f1ff9707829619583f1", "fusion_lon": 0.0}, {"rental_uris": {"ios": "https://dc.lft.to/lastmile_qr_scan", "android": "https://dc.lft.to/lastmile_qr_scan"}, "type": "electric_scooter", "name": "8f723a0089779118221b8a33abf853d0", "is_reserved": 0, "lon": -76.99504616666667, "is_disabled": 0, "fusion_lat": 0.0, "lat": 38.86196866666667, "bike_id": "8f723a0089779118221b8a33abf853d0", "fusion_lon": 0.0}, {"rental_uris": {"ios": "https://dc.lft.to/lastmile_qr_scan", "android": "https://dc.lft.to/lastmile_qr_scan"}, "type": "electric_scooter", "name": "899033186293273bd8a0d9895a896927", "is_reserved": 0, "lon": -77.04250983333333, "is_disabled": 0, "fusion_lat": 0.0, "lat": 38.92246516666667, "bike_id": "899033186293273bd8a0d9895a896927", "fusion_lon": 0.0}, {"rental_uris": {"ios": "https://dc.lft.to/lastmile_qr_scan", "android": "https://dc.lft.to/lastmile_qr_scan"}, "type": "electric_scooter", "name": "64d5a5a0db97b6953789cf45b934b12d", "is_reserved": 0, "lon": -77.02205816666667, "is_disabled": 0, "fusion_lat": 0.0, "lat": 38.920019, "bike_id": "64d5a5a0db97b6953789cf45b934b12d", "fusion_lon": 0.0}, {"rental_uris": {"ios": "https://dc.lft.to/lastmile_qr_scan", "android": "https://dc.lft.to/lastmile_qr_scan"}, "type": "electric_scooter", "name": "4211d27b7187e09c759d1c29d7b81c7e", "is_reserved": 0, "lon": -76.99276866666666, "is_disabled": 0, "fusion_lat": 0.0, "lat": 38.88315383333333, "bike_id": "4211d27b7187e09c759d1c29d7b81c7e", "fusion_lon": 0.0}, {"rental_uris": {"ios": "https://dc.lft.to/lastmile_qr_scan", "android": "https://dc.lft.to/lastmile_qr_scan"}, "type": "electric_scooter", "name": "a68c32e688e3e1d0e52f517f729c30b4", "is_reserved": 0, "lon": -77.03208966666666, "is_disabled": 0, "fusion_lat": 0.0, "lat": 38.917260166666665, "bike_id": "a68c32e688e3e1d0e52f517f729c30b4", "fusion_lon": 0.0}, {"rental_uris": {"ios": "https://dc.lft.to/lastmile_qr_scan", "android": "https://dc.lft.to/lastmile_qr_scan"}, "type": "electric_scooter", "name": "51c451489de9fa8ab6bde0c1b7c76f39", "is_reserved": 0, "lon": -77.0227425, "is_disabled": 0, "fusion_lat": 0.0, "lat": 38.92636133333333, "bike_id": "51c451489de9fa8ab6bde0c1b7c76f39", "fusion_lon": 0.0}, {"rental_uris": {"ios": "https://dc.lft.to/lastmile_qr_scan", "android": "https://dc.lft.to/lastmile_qr_scan"}, "type": "electric_scooter", "name": "2e7a06d4c31dabc5b04cb0afd54f0696", "is_reserved": 0, "lon": -76.99437683333333, "is_disabled": 0, "fusion_lat": 0.0, "lat": 38.959242333333336, "bike_id": "2e7a06d4c31dabc5b04cb0afd54f0696", "fusion_lon": 0.0}, {"rental_uris": {"ios": "https://dc.lft.to/lastmile_qr_scan", "android": "https://dc.lft.to/lastmile_qr_scan"}, "type": "electric_scooter", "name": "ab3a99d7ba0e95e7212a98a943550c70", "is_reserved": 0, "lon": -77.0055705, "is_disabled": 0, "fusion_lat": 0.0, "lat": 38.87467616666667, "bike_id": "ab3a99d7ba0e95e7212a98a943550c70", "fusion_lon": 0.0}, {"rental_uris": {"ios": "https://dc.lft.to/lastmile_qr_scan", "android": "https://dc.lft.to/lastmile_qr_scan"}, "type": "electric_scooter", "name": "e9c270cce803531b016482022e432085", "is_reserved": 0, "lon": -77.02079733333333, "is_disabled": 0, "fusion_lat": 0.0, "lat": 38.921077333333336, "bike_id": "e9c270cce803531b016482022e432085", "fusion_lon": 0.0}, {"rental_uris": {"ios": "https://dc.lft.to/lastmile_qr_scan", "android": "https://dc.lft.to/lastmile_qr_scan"}, "type": "electric_scooter", "name": "a6527b8a6857b11dc6bf8f888b2239aa", "is_reserved": 0, "lon": -77.01870283333334, "is_disabled": 0, "fusion_lat": 0.0, "lat": 38.95150916666667, "bike_id": "a6527b8a6857b11dc6bf8f888b2239aa", "fusion_lon": 0.0}, {"rental_uris": {"ios": "https://dc.lft.to/lastmile_qr_scan", "android": "https://dc.lft.to/lastmile_qr_scan"}, "type": "electric_scooter", "name": "a490a8f739059fef3af9c94db3a450fb", "is_reserved": 0, "lon": -77.02675083333334, "is_disabled": 0, "fusion_lat": 0.0, "lat": 38.89849683333333, "bike_id": "a490a8f739059fef3af9c94db3a450fb", "fusion_lon": 0.0}, {"rental_uris": {"ios": "https://dc.lft.to/lastmile_qr_scan", "android": "https://dc.lft.to/lastmile_qr_scan"}, "type": "electric_bike", "name": "fcae34ae70164c30377d794199f22d5d", "is_reserved": 0, "lon": -76.9073525, "is_disabled": 0, "fusion_lat": 0.0, "lat": 38.8961525, "bike_id": "fcae34ae70164c30377d794199f22d5d", "fusion_lon": 0.0}, {"rental_uris": {"ios": "https://dc.lft.to/lastmile_qr_scan", "android": "https://dc.lft.to/lastmile_qr_scan"}, "type": "electric_scooter", "name": "f1a0955405a36418ca87a3b4ca41b93b", "is_reserved": 0, "lon": -76.993424, "is_disabled": 0, "fusion_lat": 0.0, "lat": 38.88118766666667, "bike_id": "f1a0955405a36418ca87a3b4ca41b93b", "fusion_lon": 0.0}, {"rental_uris": {"ios": "https://dc.lft.to/lastmile_qr_scan", "android": "https://dc.lft.to/lastmile_qr_scan"}, "type": "electric_scooter", "name": "9a3640157eed4e8f5cc62b647e5f18d4", "is_reserved": 0, "lon": -77.031766, "is_disabled": 0, "fusion_lat": 0.0, "lat": 38.887344666666664, "bike_id": "9a3640157eed4e8f5cc62b647e5f18d4", "fusion_lon": 0.0}, {"rental_uris": {"ios": "https://dc.lft.to/lastmile_qr_scan", "android": "https://dc.lft.to/lastmile_qr_scan"}, "type": "electric_scooter", "name": "190bb7b5d91b922ea3dc67a9538a4537", "is_reserved": 0, "lon": -77.03953916666667, "is_disabled": 0, "fusion_lat": 0.0, "lat": 38.892454, "bike_id": "190bb7b5d91b922ea3dc67a9538a4537", "fusion_lon": 0.0}, {"rental_uris": {"ios": "https://dc.lft.to/lastmile_qr_scan", "android": "https://dc.lft.to/lastmile_qr_scan"}, "type": "electric_scooter", "name": "fd2841ca8231c0a72e824a58ef788dab", "is_reserved": 0, "lon": -77.0110655, "is_disabled": 0, "fusion_lat": 0.0, "lat": 38.89542333333333, "bike_id": "fd2841ca8231c0a72e824a58ef788dab", "fusion_lon": 0.0}, {"rental_uris": {"ios": "https://dc.lft.to/lastmile_qr_scan", "android": "https://dc.lft.to/lastmile_qr_scan"}, "type": "electric_scooter", "name": "32c0e2cb1a80a22429ea12f7c7a4264c", "is_reserved": 0, "lon": -77.0268825, "is_disabled": 0, "fusion_lat": 0.0, "lat": 38.908629166666664, "bike_id": "32c0e2cb1a80a22429ea12f7c7a4264c", "fusion_lon": 0.0}, {"rental_uris": {"ios": "https://dc.lft.to/lastmile_qr_scan", "android": "https://dc.lft.to/lastmile_qr_scan"}, "type": "electric_scooter", "name": "f74e36330fde194962c64628f74a1486", "is_reserved": 0, "lon": -77.04250416666666, "is_disabled": 0, "fusion_lat": 0.0, "lat": 38.90732783333333, "bike_id": "f74e36330fde194962c64628f74a1486", "fusion_lon": 0.0}, {"rental_uris": {"ios": "https://dc.lft.to/lastmile_qr_scan", "android": "https://dc.lft.to/lastmile_qr_scan"}, "type": "electric_scooter", "name": "4a1ed9ace0ca49f00146f036fdf9a984", "is_reserved": 0, "lon": -77.03491083333333, "is_disabled": 0, "fusion_lat": 0.0, "lat": 38.9345645, "bike_id": "4a1ed9ace0ca49f00146f036fdf9a984", "fusion_lon": 0.0}, {"rental_uris": {"ios": "https://dc.lft.to/lastmile_qr_scan", "android": "https://dc.lft.to/lastmile_qr_scan"}, "type": "electric_scooter", "name": "46d909eec12c92b4331ea5076387a12d", "is_reserved": 0, "lon": -77.03214133333333, "is_disabled": 0, "fusion_lat": 0.0, "lat": 38.91188533333333, "bike_id": "46d909eec12c92b4331ea5076387a12d", "fusion_lon": 0.0}, {"rental_uris": {"ios": "https://dc.lft.to/lastmile_qr_scan", "android": "https://dc.lft.to/lastmile_qr_scan"}, "type": "electric_scooter", "name": "b1f47fa00a2156aab24ffb4fb8049657", "is_reserved": 0, "lon": -77.0253765, "is_disabled": 0, "fusion_lat": 0.0, "lat": 38.920691166666664, "bike_id": "b1f47fa00a2156aab24ffb4fb8049657", "fusion_lon": 0.0}, {"rental_uris": {"ios": "https://dc.lft.to/lastmile_qr_scan", "android": "https://dc.lft.to/lastmile_qr_scan"}, "type": "electric_scooter", "name": "1afee69598a3cc839ecd4d9483f157e9", "is_reserved": 0, "lon": -77.03259733333333, "is_disabled": 0, "fusion_lat": 0.0, "lat": 38.92733066666667, "bike_id": "1afee69598a3cc839ecd4d9483f157e9", "fusion_lon": 0.0}, {"rental_uris": {"ios": "https://dc.lft.to/lastmile_qr_scan", "android": "https://dc.lft.to/lastmile_qr_scan"}, "type": "electric_scooter", "name": "f2b2d1ac34839c2f4fb0b8718c9c863e", "is_reserved": 0, "lon": -77.02473616666667, "is_disabled": 0, "fusion_lat": 0.0, "lat": 38.93948616666667, "bike_id": "f2b2d1ac34839c2f4fb0b8718c9c863e", "fusion_lon": 0.0}, {"rental_uris": {"ios": "https://dc.lft.to/lastmile_qr_scan", "android": "https://dc.lft.to/lastmile_qr_scan"}, "type": "electric_scooter", "name": "ee41097a7315882d96593b59d91ccb3c", "is_reserved": 0, "lon": -77.02715933333333, "is_disabled": 0, "fusion_lat": 0.0, "lat": 38.881346666666666, "bike_id": "ee41097a7315882d96593b59d91ccb3c", "fusion_lon": 0.0}, {"rental_uris": {"ios": "https://dc.lft.to/lastmile_qr_scan", "android": "https://dc.lft.to/lastmile_qr_scan"}, "type": "electric_scooter", "name": "6833843536896d02bee10e73d58a9165", "is_reserved": 0, "lon": -76.99233166666667, "is_disabled": 0, "fusion_lat": 0.0, "lat": 38.887506, "bike_id": "6833843536896d02bee10e73d58a9165", "fusion_lon": 0.0}, {"rental_uris": {"ios": "https://dc.lft.to/lastmile_qr_scan", "android": "https://dc.lft.to/lastmile_qr_scan"}, "type": "electric_scooter", "name": "6c1dd8c3f8fb61f31768a9579f2208b7", "is_reserved": 0, "lon": -76.9962295, "is_disabled": 0, "fusion_lat": 0.0, "lat": 38.926319, "bike_id": "6c1dd8c3f8fb61f31768a9579f2208b7", "fusion_lon": 0.0}, {"rental_uris": {"ios": "https://dc.lft.to/lastmile_qr_scan", "android": "https://dc.lft.to/lastmile_qr_scan"}, "type": "electric_scooter", "name": "bf0b572f0fccbab44d3894ba11703fca", "is_reserved": 0, "lon": -76.997923, "is_disabled": 0, "fusion_lat": 0.0, "lat": 38.876342333333334, "bike_id": "bf0b572f0fccbab44d3894ba11703fca", "fusion_lon": 0.0}, {"rental_uris": {"ios": "https://dc.lft.to/lastmile_qr_scan", "android": "https://dc.lft.to/lastmile_qr_scan"}, "type": "electric_scooter", "name": "1054450bb8d5272c74a77cea1c88821f", "is_reserved": 0, "lon": -77.03476916666666, "is_disabled": 0, "fusion_lat": 0.0, "lat": 38.917071, "bike_id": "1054450bb8d5272c74a77cea1c88821f", "fusion_lon": 0.0}, {"rental_uris": {"ios": "https://dc.lft.to/lastmile_qr_scan", "android": "https://dc.lft.to/lastmile_qr_scan"}, "type": "electric_scooter", "name": "a63cd769c0f812845e0229cb4bf02b1b", "is_reserved": 0, "lon": -76.9756665, "is_disabled": 0, "fusion_lat": 0.0, "lat": 38.94422516666667, "bike_id": "a63cd769c0f812845e0229cb4bf02b1b", "fusion_lon": 0.0}, {"rental_uris": {"ios": "https://dc.lft.to/lastmile_qr_scan", "android": "https://dc.lft.to/lastmile_qr_scan"}, "type": "electric_scooter", "name": "8cbeb18ed8afe9a184c1aee8a10221e5", "is_reserved": 0, "lon": -77.02617116666667, "is_disabled": 0, "fusion_lat": 0.0, "lat": 38.90287566666667, "bike_id": "8cbeb18ed8afe9a184c1aee8a10221e5", "fusion_lon": 0.0}, {"rental_uris": {"ios": "https://dc.lft.to/lastmile_qr_scan", "android": "https://dc.lft.to/lastmile_qr_scan"}, "type": "electric_bike", "name": "20afa462f1ce002636fde725eb63721a", "is_reserved": 0, "lon": -77.02497716666667, "is_disabled": 0, "fusion_lat": 0.0, "lat": 38.939241333333335, "bike_id": "20afa462f1ce002636fde725eb63721a", "fusion_lon": 0.0}, {"rental_uris": {"ios": "https://dc.lft.to/lastmile_qr_scan", "android": "https://dc.lft.to/lastmile_qr_scan"}, "type": "electric_bike", "name": "5808bfd868c0fb7b2fb3f252487f0d3f", "is_reserved": 0, "lon": -76.95795733333334, "is_disabled": 0, "fusion_lat": 0.0, "lat": 38.9804295, "bike_id": "5808bfd868c0fb7b2fb3f252487f0d3f", "fusion_lon": 0.0}, {"rental_uris": {"ios": "https://dc.lft.to/lastmile_qr_scan", "android": "https://dc.lft.to/lastmile_qr_scan"}, "type": "electric_scooter", "name": "994735a0b404b59b9f46d9048acea8f7", "is_reserved": 0, "lon": -77.06827983333334, "is_disabled": 0, "fusion_lat": 0.0, "lat": 38.95223983333333, "bike_id": "994735a0b404b59b9f46d9048acea8f7", "fusion_lon": 0.0}, {"rental_uris": {"ios": "https://dc.lft.to/lastmile_qr_scan", "android": "https://dc.lft.to/lastmile_qr_scan"}, "type": "electric_bike", "name": "54dc73ea64efa5bac5a708d3bbb69bfc", "is_reserved": 0, "lon": -77.00131383333333, "is_disabled": 0, "fusion_lat": 0.0, "lat": 38.995030666666665, "bike_id": "54dc73ea64efa5bac5a708d3bbb69bfc", "fusion_lon": 0.0}, {"rental_uris": {"ios": "https://dc.lft.to/lastmile_qr_scan", "android": "https://dc.lft.to/lastmile_qr_scan"}, "type": "electric_scooter", "name": "ed99ffc953126605cad4ca28375c320c", "is_reserved": 0, "lon": -77.02281533333333, "is_disabled": 0, "fusion_lat": 0.0, "lat": 38.926875833333334, "bike_id": "ed99ffc953126605cad4ca28375c320c", "fusion_lon": 0.0}, {"rental_uris": {"ios": "https://dc.lft.to/lastmile_qr_scan", "android": "https://dc.lft.to/lastmile_qr_scan"}, "type": "electric_scooter", "name": "60ddf125ca7328ec6f002e07c310a2fd", "is_reserved": 0, "lon": -77.03176916666666, "is_disabled": 0, "fusion_lat": 0.0, "lat": 38.915902333333335, "bike_id": "60ddf125ca7328ec6f002e07c310a2fd", "fusion_lon": 0.0}, {"rental_uris": {"ios": "https://dc.lft.to/lastmile_qr_scan", "android": "https://dc.lft.to/lastmile_qr_scan"}, "type": "electric_scooter", "name": "e633c982d616d59628e1369b1e42a5f1", "is_reserved": 0, "lon": -77.032381, "is_disabled": 0, "fusion_lat": 0.0, "lat": 38.916313333333335, "bike_id": "e633c982d616d59628e1369b1e42a5f1", "fusion_lon": 0.0}, {"rental_uris": {"ios": "https://dc.lft.to/lastmile_qr_scan", "android": "https://dc.lft.to/lastmile_qr_scan"}, "type": "electric_scooter", "name": "4de86195313966caef99143777c342d2", "is_reserved": 0, "lon": -77.02837216666667, "is_disabled": 0, "fusion_lat": 0.0, "lat": 38.89230766666667, "bike_id": "4de86195313966caef99143777c342d2", "fusion_lon": 0.0}, {"rental_uris": {"ios": "https://dc.lft.to/lastmile_qr_scan", "android": "https://dc.lft.to/lastmile_qr_scan"}, "type": "electric_scooter", "name": "79ed7ee43bcda4bcf776924910a08f31", "is_reserved": 0, "lon": -77.03302966666666, "is_disabled": 0, "fusion_lat": 0.0, "lat": 38.9205995, "bike_id": "79ed7ee43bcda4bcf776924910a08f31", "fusion_lon": 0.0}, {"rental_uris": {"ios": "https://dc.lft.to/lastmile_qr_scan", "android": "https://dc.lft.to/lastmile_qr_scan"}, "type": "electric_scooter", "name": "8b94703423f9449fbd450a33d8a39e15", "is_reserved": 0, "lon": -77.04012583333333, "is_disabled": 0, "fusion_lat": 0.0, "lat": 38.925782, "bike_id": "8b94703423f9449fbd450a33d8a39e15", "fusion_lon": 0.0}, {"rental_uris": {"ios": "https://dc.lft.to/lastmile_qr_scan", "android": "https://dc.lft.to/lastmile_qr_scan"}, "type": "electric_scooter", "name": "2dda303a69ffdcc6ca49192808a93cb5", "is_reserved": 0, "lon": -77.021561, "is_disabled": 0, "fusion_lat": 0.0, "lat": 38.879144333333336, "bike_id": "2dda303a69ffdcc6ca49192808a93cb5", "fusion_lon": 0.0}, {"rental_uris": {"ios": "https://dc.lft.to/lastmile_qr_scan", "android": "https://dc.lft.to/lastmile_qr_scan"}, "type": "electric_scooter", "name": "f04443bcd2d9c51124fe8118043f1f56", "is_reserved": 0, "lon": -76.98555533333334, "is_disabled": 0, "fusion_lat": 0.0, "lat": 38.859925, "bike_id": "f04443bcd2d9c51124fe8118043f1f56", "fusion_lon": 0.0}, {"rental_uris": {"ios": "https://dc.lft.to/lastmile_qr_scan", "android": "https://dc.lft.to/lastmile_qr_scan"}, "type": "electric_scooter", "name": "0638c94fc5e659eb0c06b3cd62dd3fc9", "is_reserved": 0, "lon": -77.04200066666667, "is_disabled": 0, "fusion_lat": 0.0, "lat": 38.9109885, "bike_id": "0638c94fc5e659eb0c06b3cd62dd3fc9", "fusion_lon": 0.0}, {"rental_uris": {"ios": "https://dc.lft.to/lastmile_qr_scan", "android": "https://dc.lft.to/lastmile_qr_scan"}, "type": "electric_scooter", "name": "6aae638e638fceed5898f77b85e74ea1", "is_reserved": 0, "lon": -77.044553, "is_disabled": 0, "fusion_lat": 0.0, "lat": 38.910189, "bike_id": "6aae638e638fceed5898f77b85e74ea1", "fusion_lon": 0.0}, {"rental_uris": {"ios": "https://dc.lft.to/lastmile_qr_scan", "android": "https://dc.lft.to/lastmile_qr_scan"}, "type": "electric_scooter", "name": "8009dc666964eb00dc6795956a978c45", "is_reserved": 0, "lon": -77.02473783333333, "is_disabled": 0, "fusion_lat": 0.0, "lat": 38.93944616666667, "bike_id": "8009dc666964eb00dc6795956a978c45", "fusion_lon": 0.0}, {"rental_uris": {"ios": "https://dc.lft.to/lastmile_qr_scan", "android": "https://dc.lft.to/lastmile_qr_scan"}, "type": "electric_scooter", "name": "e59a73b149bc9f40abd8457633e90297", "is_reserved": 0, "lon": -77.058068, "is_disabled": 0, "fusion_lat": 0.0, "lat": 38.90592733333333, "bike_id": "e59a73b149bc9f40abd8457633e90297", "fusion_lon": 0.0}, {"rental_uris": {"ios": "https://dc.lft.to/lastmile_qr_scan", "android": "https://dc.lft.to/lastmile_qr_scan"}, "type": "electric_scooter", "name": "fda80b232b1c33ecb7c75bf1217b68a5", "is_reserved": 0, "lon": -77.0433575, "is_disabled": 0, "fusion_lat": 0.0, "lat": 38.908461833333334, "bike_id": "fda80b232b1c33ecb7c75bf1217b68a5", "fusion_lon": 0.0}, {"rental_uris": {"ios": "https://dc.lft.to/lastmile_qr_scan", "android": "https://dc.lft.to/lastmile_qr_scan"}, "type": "electric_scooter", "name": "643499180d0c501f6c5a09ee48aa2eee", "is_reserved": 0, "lon": -77.04999183333334, "is_disabled": 0, "fusion_lat": 0.0, "lat": 38.897771, "bike_id": "643499180d0c501f6c5a09ee48aa2eee", "fusion_lon": 0.0}, {"rental_uris": {"ios": "https://dc.lft.to/lastmile_qr_scan", "android": "https://dc.lft.to/lastmile_qr_scan"}, "type": "electric_scooter", "name": "96437ee62b1da62b04493605f80ad923", "is_reserved": 0, "lon": -77.03816266666666, "is_disabled": 0, "fusion_lat": 0.0, "lat": 38.933219, "bike_id": "96437ee62b1da62b04493605f80ad923", "fusion_lon": 0.0}, {"rental_uris": {"ios": "https://dc.lft.to/lastmile_qr_scan", "android": "https://dc.lft.to/lastmile_qr_scan"}, "type": "electric_scooter", "name": "400f2aa23ef78259083496fd19ba2a03", "is_reserved": 0, "lon": -77.02213283333333, "is_disabled": 0, "fusion_lat": 0.0, "lat": 38.9141555, "bike_id": "400f2aa23ef78259083496fd19ba2a03", "fusion_lon": 0.0}, {"rental_uris": {"ios": "https://dc.lft.to/lastmile_qr_scan", "android": "https://dc.lft.to/lastmile_qr_scan"}, "type": "electric_bike", "name": "6d1ae6209f64a1be88cd60d2b64993c7", "is_reserved": 0, "lon": -76.96885783333333, "is_disabled": 0, "fusion_lat": 0.0, "lat": 38.8698405, "bike_id": "6d1ae6209f64a1be88cd60d2b64993c7", "fusion_lon": 0.0}, {"rental_uris": {"ios": "https://dc.lft.to/lastmile_qr_scan", "android": "https://dc.lft.to/lastmile_qr_scan"}, "type": "electric_scooter", "name": "1da9f932c7800390991921aad319dc8e", "is_reserved": 0, "lon": -77.01495466666667, "is_disabled": 0, "fusion_lat": 0.0, "lat": 38.917743, "bike_id": "1da9f932c7800390991921aad319dc8e", "fusion_lon": 0.0}, {"rental_uris": {"ios": "https://dc.lft.to/lastmile_qr_scan", "android": "https://dc.lft.to/lastmile_qr_scan"}, "type": "electric_scooter", "name": "ac63b0673d8ffacf0431e79c5695fdb7", "is_reserved": 0, "lon": -77.03249066666666, "is_disabled": 0, "fusion_lat": 0.0, "lat": 38.93253383333333, "bike_id": "ac63b0673d8ffacf0431e79c5695fdb7", "fusion_lon": 0.0}, {"rental_uris": {"ios": "https://dc.lft.to/lastmile_qr_scan", "android": "https://dc.lft.to/lastmile_qr_scan"}, "type": "electric_scooter", "name": "367aad276c31107c3547b3df642d69f9", "is_reserved": 0, "lon": -77.02500833333333, "is_disabled": 0, "fusion_lat": 0.0, "lat": 38.9420855, "bike_id": "367aad276c31107c3547b3df642d69f9", "fusion_lon": 0.0}, {"rental_uris": {"ios": "https://dc.lft.to/lastmile_qr_scan", "android": "https://dc.lft.to/lastmile_qr_scan"}, "type": "electric_scooter", "name": "86bda4df17fd3cf3ed9059bbe0c403a7", "is_reserved": 0, "lon": -77.04734366666666, "is_disabled": 0, "fusion_lat": 0.0, "lat": 38.90181166666667, "bike_id": "86bda4df17fd3cf3ed9059bbe0c403a7", "fusion_lon": 0.0}, {"rental_uris": {"ios": "https://dc.lft.to/lastmile_qr_scan", "android": "https://dc.lft.to/lastmile_qr_scan"}, "type": "electric_scooter", "name": "8cbf54c3ce8ea0eecb3cf87e5cf12fa0", "is_reserved": 0, "lon": -77.0456295, "is_disabled": 0, "fusion_lat": 0.0, "lat": 38.91321766666667, "bike_id": "8cbf54c3ce8ea0eecb3cf87e5cf12fa0", "fusion_lon": 0.0}, {"rental_uris": {"ios": "https://dc.lft.to/lastmile_qr_scan", "android": "https://dc.lft.to/lastmile_qr_scan"}, "type": "electric_scooter", "name": "af7bc8425353d3d92a8cfe09a707a44d", "is_reserved": 0, "lon": -77.03185283333333, "is_disabled": 0, "fusion_lat": 0.0, "lat": 38.914223, "bike_id": "af7bc8425353d3d92a8cfe09a707a44d", "fusion_lon": 0.0}, {"rental_uris": {"ios": "https://dc.lft.to/lastmile_qr_scan", "android": "https://dc.lft.to/lastmile_qr_scan"}, "type": "electric_scooter", "name": "c992fb1b0813303ad164cf544f23e416", "is_reserved": 0, "lon": -77.03703183333333, "is_disabled": 0, "fusion_lat": 0.0, "lat": 38.927767333333335, "bike_id": "c992fb1b0813303ad164cf544f23e416", "fusion_lon": 0.0}, {"rental_uris": {"ios": "https://dc.lft.to/lastmile_qr_scan", "android": "https://dc.lft.to/lastmile_qr_scan"}, "type": "electric_scooter", "name": "75aac1195c6c32add8a2e087f937f69a", "is_reserved": 0, "lon": -77.0276865, "is_disabled": 0, "fusion_lat": 0.0, "lat": 38.92239466666667, "bike_id": "75aac1195c6c32add8a2e087f937f69a", "fusion_lon": 0.0}, {"rental_uris": {"ios": "https://dc.lft.to/lastmile_qr_scan", "android": "https://dc.lft.to/lastmile_qr_scan"}, "type": "electric_scooter", "name": "88e85308d751f4c03be5776f6beb5756", "is_reserved": 0, "lon": -77.0317375, "is_disabled": 0, "fusion_lat": 0.0, "lat": 38.91419533333333, "bike_id": "88e85308d751f4c03be5776f6beb5756", "fusion_lon": 0.0}, {"rental_uris": {"ios": "https://dc.lft.to/lastmile_qr_scan", "android": "https://dc.lft.to/lastmile_qr_scan"}, "type": "electric_bike", "name": "1ec4b344ce69f443219af05b22cab8aa", "is_reserved": 0, "lon": -76.97775383333334, "is_disabled": 0, "fusion_lat": 0.0, "lat": 38.857236, "bike_id": "1ec4b344ce69f443219af05b22cab8aa", "fusion_lon": 0.0}, {"rental_uris": {"ios": "https://dc.lft.to/lastmile_qr_scan", "android": "https://dc.lft.to/lastmile_qr_scan"}, "type": "electric_scooter", "name": "55257270745ad770d5d311144defdbc4", "is_reserved": 0, "lon": -77.0415205, "is_disabled": 0, "fusion_lat": 0.0, "lat": 38.91435, "bike_id": "55257270745ad770d5d311144defdbc4", "fusion_lon": 0.0}, {"rental_uris": {"ios": "https://dc.lft.to/lastmile_qr_scan", "android": "https://dc.lft.to/lastmile_qr_scan"},