{"data": {"bikes": [{"type": "electric_bike", "rental_uris": {"ios": "https://dc.lft.to/lastmile_qr_scan", "android": "https://dc.lft.to/lastmile_qr_scan"}, "lon": -77.13310383333334, "fusion_lon": 0.0, "is_disabled": 0, "lat": 38.8871905, "bike_id": "88e178a69ec730393dd159e84f49f93f", "name": "88e178a69ec730393dd159e84f49f93f", "is_reserved": 0, "fusion_lat": 0.0}, {"type": "electric_scooter", "rental_uris": {"ios": "https://dc.lft.to/lastmile_qr_scan", "android": "https://dc.lft.to/lastmile_qr_scan"}, "lon": -77.030915, "fusion_lon": 0.0, "is_disabled": 0, "lat": 38.938645333333334, "bike_id": "032e56c130d594a9a4830f641abc8824", "name": "032e56c130d594a9a4830f641abc8824", "is_reserved": 0, "fusion_lat": 0.0}, {"type": "electric_scooter", "rental_uris": {"ios": "https://dc.lft.to/lastmile_qr_scan", "android": "https://dc.lft.to/lastmile_qr_scan"}, "lon": -76.96015083333333, "fusion_lon": 0.0, "is_disabled": 0, "lat": 38.88021416666667, "bike_id": "c9bdbe290e42714ddcfc2accdbd2ecda", "name": "c9bdbe290e42714ddcfc2accdbd2ecda", "is_reserved": 0, "fusion_lat": 0.0}, {"type": "electric_scooter", "rental_uris": {"ios": "https://dc.lft.to/lastmile_qr_scan", "android": "https://dc.lft.to/lastmile_qr_scan"}, "lon": -76.98884133333334, "fusion_lon": 0.0, "is_disabled": 0, "lat": 38.86658083333333, "bike_id": "a9c2f2925cf58223a9952c706c973243", "name": "a9c2f2925cf58223a9952c706c973243", "is_reserved": 0, "fusion_lat": 0.0}, {"type": "electric_scooter", "rental_uris": {"ios": "https://dc.lft.to/lastmile_qr_scan", "android": "https://dc.lft.to/lastmile_qr_scan"}, "lon": -77.05271183333333, "fusion_lon": 0.0, "is_disabled": 0, "lat": 38.925429333333334, "bike_id": "bca8d278d15ba29142d6df98ad2612e2", "name": "bca8d278d15ba29142d6df98ad2612e2", "is_reserved": 0, "fusion_lat": 0.0}, {"type": "electric_scooter", "rental_uris": {"ios": "https://dc.lft.to/lastmile_qr_scan", "android": "https://dc.lft.to/lastmile_qr_scan"}, "lon": -77.04234566666666, "fusion_lon": 0.0, "is_disabled": 0, "lat": 38.92199733333333, "bike_id": "be359cd8ee251a3c0f3366bb6092916a", "name": "be359cd8ee251a3c0f3366bb6092916a", "is_reserved": 0, "fusion_lat": 0.0}, {"type": "electric_scooter", "rental_uris": {"ios": "https://dc.lft.to/lastmile_qr_scan", "android": "https://dc.lft.to/lastmile_qr_scan"}, "lon": -77.02692783333333, "fusion_lon": 0.0, "is_disabled": 0, "lat": 38.911243166666665, "bike_id": "3c777bd789f5125f531359b5a15e8bdd", "name": "3c777bd789f5125f531359b5a15e8bdd", "is_reserved": 0, "fusion_lat": 0.0}, {"type": "electric_scooter", "rental_uris": {"ios": "https://dc.lft.to/lastmile_qr_scan", "android": "https://dc.lft.to/lastmile_qr_scan"}, "lon": -77.0523505, "fusion_lon": 0.0, "is_disabled": 0, "lat": 38.923427, "bike_id": "3fd8098a6402f3479dc51eedadc30ae7", "name": "3fd8098a6402f3479dc51eedadc30ae7", "is_reserved": 0, "fusion_lat": 0.0}, {"type": "electric_scooter", "rental_uris": {"ios": "https://dc.lft.to/lastmile_qr_scan", "android": "https://dc.lft.to/lastmile_qr_scan"}, "lon": -77.03300666666667, "fusion_lon": 0.0, "is_disabled": 0, "lat": 38.956393, "bike_id": "5c36364cbaa8ed4b86b708a6a56d3029", "name": "5c36364cbaa8ed4b86b708a6a56d3029", "is_reserved": 0, "fusion_lat": 0.0}, {"type": "electric_scooter", "rental_uris": {"ios": "https://dc.lft.to/lastmile_qr_scan", "android": "https://dc.lft.to/lastmile_qr_scan"}, "lon": -77.06320216666667, "fusion_lon": 0.0, "is_disabled": 0, "lat": 38.902829, "bike_id": "80e8ef266cb471cf3372e9da0900f7d4", "name": "80e8ef266cb471cf3372e9da0900f7d4", "is_reserved": 0, "fusion_lat": 0.0}, {"type": "electric_scooter", "rental_uris": {"ios": "https://dc.lft.to/lastmile_qr_scan", "android": "https://dc.lft.to/lastmile_qr_scan"}, "lon": -77.05018366666667, "fusion_lon": 0.0, "is_disabled": 0, "lat": 38.9032665, "bike_id": "90e4a30f1df6f625bac3d553b020a02c", "name": "90e4a30f1df6f625bac3d553b020a02c", "is_reserved": 0, "fusion_lat": 0.0}, {"type": "electric_scooter", "rental_uris": {"ios": "https://dc.lft.to/lastmile_qr_scan", "android": "https://dc.lft.to/lastmile_qr_scan"}, "lon": -76.97243466666667, "fusion_lon": 0.0, "is_disabled": 0, "lat": 38.8546455, "bike_id": "8260a08fd3798f67e4b5e185107f4087", "name": "8260a08fd3798f67e4b5e185107f4087", "is_reserved": 0, "fusion_lat": 0.0}, {"type": "electric_scooter", "rental_uris": {"ios": "https://dc.lft.to/lastmile_qr_scan", "android": "https://dc.lft.to/lastmile_qr_scan"}, "lon": -77.040408, "fusion_lon": 0.0, "is_disabled": 0, "lat": 38.904111666666665, "bike_id": "8a9399e6bc38e48f6516bdfb881abc4d", "name": "8a9399e6bc38e48f6516bdfb881abc4d", "is_reserved": 0, "fusion_lat": 0.0}, {"type": "electric_scooter", "rental_uris": {"ios": "https://dc.lft.to/lastmile_qr_scan", "android": "https://dc.lft.to/lastmile_qr_scan"}, "lon": -77.00052166666667, "fusion_lon": 0.0, "is_disabled": 0, "lat": 38.90580716666667, "bike_id": "29dcc3ca58c3e72f8f134aafe6a5a4b3", "name": "29dcc3ca58c3e72f8f134aafe6a5a4b3", "is_reserved": 0, "fusion_lat": 0.0}, {"type": "electric_scooter", "rental_uris": {"ios": "https://dc.lft.to/lastmile_qr_scan", "android": "https://dc.lft.to/lastmile_qr_scan"}, "lon": -76.97333016666667, "fusion_lon": 0.0, "is_disabled": 0, "lat": 38.904102333333334, "bike_id": "b9b80329decc6902b66f7bb8d4607da9", "name": "b9b80329decc6902b66f7bb8d4607da9", "is_reserved": 0, "fusion_lat": 0.0}, {"type": "electric_scooter", "rental_uris": {"ios": "https://dc.lft.to/lastmile_qr_scan", "android": "https://dc.lft.to/lastmile_qr_scan"}, "lon": -77.04352866666666, "fusion_lon": 0.0, "is_disabled": 0, "lat": 38.902408333333334, "bike_id": "ddfdec69f6418ccea55d29aa85f6b26d", "name": "ddfdec69f6418ccea55d29aa85f6b26d", "is_reserved": 0, "fusion_lat": 0.0}, {"type": "electric_scooter", "rental_uris": {"ios": "https://dc.lft.to/lastmile_qr_scan", "android": "https://dc.lft.to/lastmile_qr_scan"}, "lon": -77.020798, "fusion_lon": 0.0, "is_disabled": 0, "lat": 38.875769, "bike_id": "c355a4b3e89ceb5cac0bc9be21e7b0fd", "name": "c355a4b3e89ceb5cac0bc9be21e7b0fd", "is_reserved": 0, "fusion_lat": 0.0}, {"type": "electric_scooter", "rental_uris": {"ios": "https://dc.lft.to/lastmile_qr_scan", "android": "https://dc.lft.to/lastmile_qr_scan"}, "lon": -77.07295416666666, "fusion_lon": 0.0, "is_disabled": 0, "lat": 38.921458, "bike_id": "94a8e270e23a190d7cc5ead255aea1e8", "name": "94a8e270e23a190d7cc5ead255aea1e8", "is_reserved": 0, "fusion_lat": 0.0}, {"type": "electric_scooter", "rental_uris": {"ios": "https://dc.lft.to/lastmile_qr_scan", "android": "https://dc.lft.to/lastmile_qr_scan"}, "lon": -77.04888183333334, "fusion_lon": 0.0, "is_disabled": 0, "lat": 38.913401666666665, "bike_id": "6e89e6fe6af6528754e359457141bd0e", "name": "6e89e6fe6af6528754e359457141bd0e", "is_reserved": 0, "fusion_lat": 0.0}, {"type": "electric_scooter", "rental_uris": {"ios": "https://dc.lft.to/lastmile_qr_scan", "android": "https://dc.lft.to/lastmile_qr_scan"}, "lon": -77.00509016666666, "fusion_lon": 0.0, "is_disabled": 0, "lat": 38.8754585, "bike_id": "e7b2746123fb53ede5f813846b5b29d4", "name": "e7b2746123fb53ede5f813846b5b29d4", "is_reserved": 0, "fusion_lat": 0.0}, {"type": "electric_scooter", "rental_uris": {"ios": "https://dc.lft.to/lastmile_qr_scan", "android": "https://dc.lft.to/lastmile_qr_scan"}, "lon": -77.04757633333334, "fusion_lon": 0.0, "is_disabled": 0, "lat": 38.902206166666666, "bike_id": "4531bd8918290b20c31d94277b450602", "name": "4531bd8918290b20c31d94277b450602", "is_reserved": 0, "fusion_lat": 0.0}, {"type": "electric_bike", "rental_uris": {"ios": "https://dc.lft.to/lastmile_qr_scan", "android": "https://dc.lft.to/lastmile_qr_scan"}, "lon": -77.0948565, "fusion_lon": 0.0, "is_disabled": 0, "lat": 39.030516166666665, "bike_id": "c4b81affea07da37eb479328e4bb2018", "name": "c4b81affea07da37eb479328e4bb2018", "is_reserved": 0, "fusion_lat": 0.0}, {"type": "electric_scooter", "rental_uris": {"ios": "https://dc.lft.to/lastmile_qr_scan", "android": "https://dc.lft.to/lastmile_qr_scan"}, "lon": -77.0445995, "fusion_lon": 0.0, "is_disabled": 0, "lat": 38.9111625, "bike_id": "0f38f6a2252ba24f842880a1ab07a773", "name": "0f38f6a2252ba24f842880a1ab07a773", "is_reserved": 0, "fusion_lat": 0.0}, {"type": "electric_scooter", "rental_uris": {"ios": "https://dc.lft.to/lastmile_qr_scan", "android": "https://dc.lft.to/lastmile_qr_scan"}, "lon": -77.04258983333334, "fusion_lon": 0.0, "is_disabled": 0, "lat": 38.92200716666667, "bike_id": "44ecff30f5a86ceed93ddb679d472dcb", "name": "44ecff30f5a86ceed93ddb679d472dcb", "is_reserved": 0, "fusion_lat": 0.0}, {"type": "electric_scooter", "rental_uris": {"ios": "https://dc.lft.to/lastmile_qr_scan", "android": "https://dc.lft.to/lastmile_qr_scan"}, "lon": -77.03733316666667, "fusion_lon": 0.0, "is_disabled": 0, "lat": 38.92848983333333, "bike_id": "f31232760a36be539987c30e206c5765", "name": "f31232760a36be539987c30e206c5765", "is_reserved": 0, "fusion_lat": 0.0}, {"type": "electric_bike", "rental_uris": {"ios": "https://dc.lft.to/lastmile_qr_scan", "android": "https://dc.lft.to/lastmile_qr_scan"}, "lon": -77.0497795, "fusion_lon": 0.0, "is_disabled": 0, "lat": 39.06293216666667, "bike_id": "02a0d376971806bda31c0de77c483f9a", "name": "02a0d376971806bda31c0de77c483f9a", "is_reserved": 0, "fusion_lat": 0.0}, {"type": "electric_scooter", "rental_uris": {"ios": "https://dc.lft.to/lastmile_qr_scan", "android": "https://dc.lft.to/lastmile_qr_scan"}, "lon": -77.031651, "fusion_lon": 0.0, "is_disabled": 0, "lat": 38.8962275, "bike_id": "cef209b9f3a9f54b272a003eb72e02b6", "name": "cef209b9f3a9f54b272a003eb72e02b6", "is_reserved": 0, "fusion_lat": 0.0}, {"type": "electric_scooter", "rental_uris": {"ios": "https://dc.lft.to/lastmile_qr_scan", "android": "https://dc.lft.to/lastmile_qr_scan"}, "lon": -77.00616016666666, "fusion_lon": 0.0, "is_disabled": 0, "lat": 38.9063815, "bike_id": "9a5cace6f12e8466bb1458919a9953c9", "name": "9a5cace6f12e8466bb1458919a9953c9", "is_reserved": 0, "fusion_lat": 0.0}, {"type": "electric_scooter", "rental_uris": {"ios": "https://dc.lft.to/lastmile_qr_scan", "android": "https://dc.lft.to/lastmile_qr_scan"}, "lon": -77.03277183333333, "fusion_lon": 0.0, "is_disabled": 0, "lat": 38.929383666666666, "bike_id": "0436fd4a9301df72ab73ce1b49d56051", "name": "0436fd4a9301df72ab73ce1b49d56051", "is_reserved": 0, "fusion_lat": 0.0}, {"type": "electric_scooter", "rental_uris": {"ios": "https://dc.lft.to/lastmile_qr_scan", "android": "https://dc.lft.to/lastmile_qr_scan"}, "lon": -77.01173866666667, "fusion_lon": 0.0, "is_disabled": 0, "lat": 38.903155, "bike_id": "f83cc8b05deb7240b57471e3659f2932", "name": "f83cc8b05deb7240b57471e3659f2932", "is_reserved": 0, "fusion_lat": 0.0}, {"type": "electric_scooter", "rental_uris": {"ios": "https://dc.lft.to/lastmile_qr_scan", "android": "https://dc.lft.to/lastmile_qr_scan"}, "lon": -77.03601666666667, "fusion_lon": 0.0, "is_disabled": 0, "lat": 38.92857166666667, "bike_id": "c0db8d52dd4bd0ebf58d6e454d685456", "name": "c0db8d52dd4bd0ebf58d6e454d685456", "is_reserved": 0, "fusion_lat": 0.0}, {"type": "electric_scooter", "rental_uris": {"ios": "https://dc.lft.to/lastmile_qr_scan", "android": "https://dc.lft.to/lastmile_qr_scan"}, "lon": -77.03150016666666, "fusion_lon": 0.0, "is_disabled": 0, "lat": 38.915658, "bike_id": "b40de9fe91a206338673065812cd4f37", "name": "b40de9fe91a206338673065812cd4f37", "is_reserved": 0, "fusion_lat": 0.0}, {"type": "electric_scooter", "rental_uris": {"ios": "https://dc.lft.to/lastmile_qr_scan", "android": "https://dc.lft.to/lastmile_qr_scan"}, "lon": -76.988877, "fusion_lon": 0.0, "is_disabled": 0, "lat": 38.86103466666667, "bike_id": "b8c1a1e54d7a4f59a188959be80f704f", "name": "b8c1a1e54d7a4f59a188959be80f704f", "is_reserved": 0, "fusion_lat": 0.0}, {"type": "electric_scooter", "rental_uris": {"ios": "https://dc.lft.to/lastmile_qr_scan", "android": "https://dc.lft.to/lastmile_qr_scan"}, "lon": -77.01369233333334, "fusion_lon": 0.0, "is_disabled": 0, "lat": 38.89228, "bike_id": "183b4dd28f422185bb622405b3664501", "name": "183b4dd28f422185bb622405b3664501", "is_reserved": 0, "fusion_lat": 0.0}, {"type": "electric_scooter", "rental_uris": {"ios": "https://dc.lft.to/lastmile_qr_scan", "android": "https://dc.lft.to/lastmile_qr_scan"}, "lon": -77.01809433333334, "fusion_lon": 0.0, "is_disabled": 0, "lat": 38.92155316666667, "bike_id": "34c89857daba8d8a74756a53df2079d8", "name": "34c89857daba8d8a74756a53df2079d8", "is_reserved": 0, "fusion_lat": 0.0}, {"type": "electric_bike", "rental_uris": {"ios": "https://dc.lft.to/lastmile_qr_scan", "android": "https://dc.lft.to/lastmile_qr_scan"}, "lon": -76.99571633333333, "fusion_lon": 0.0, "is_disabled": 0, "lat": 38.884708833333335, "bike_id": "1e4f3acaec3ca0f904c2d779daa95d5d", "name": "1e4f3acaec3ca0f904c2d779daa95d5d", "is_reserved": 0, "fusion_lat": 0.0}, {"type": "electric_scooter", "rental_uris": {"ios": "https://dc.lft.to/lastmile_qr_scan", "android": "https://dc.lft.to/lastmile_qr_scan"}, "lon": -77.01141383333334, "fusion_lon": 0.0, "is_disabled": 0, "lat": 38.90648733333333, "bike_id": "c99f6bc1e4b8cfb353f9ca496e65225a", "name": "c99f6bc1e4b8cfb353f9ca496e65225a", "is_reserved": 0, "fusion_lat": 0.0}, {"type": "electric_scooter", "rental_uris": {"ios": "https://dc.lft.to/lastmile_qr_scan", "android": "https://dc.lft.to/lastmile_qr_scan"}, "lon": -77.05806883333334, "fusion_lon": 0.0, "is_disabled": 0, "lat": 38.90283566666667, "bike_id": "6e5e68278f0b3f5ea50a08911003da01", "name": "6e5e68278f0b3f5ea50a08911003da01", "is_reserved": 0, "fusion_lat": 0.0}, {"type": "electric_scooter", "rental_uris": {"ios": "https://dc.lft.to/lastmile_qr_scan", "android": "https://dc.lft.to/lastmile_qr_scan"}, "lon": -77.0320525, "fusion_lon": 0.0, "is_disabled": 0, "lat": 38.91823466666666, "bike_id": "19b7df6c43e6ec4b298e1693a58b5d2a", "name": "19b7df6c43e6ec4b298e1693a58b5d2a", "is_reserved": 0, "fusion_lat": 0.0}, {"type": "electric_scooter", "rental_uris": {"ios": "https://dc.lft.to/lastmile_qr_scan", "android": "https://dc.lft.to/lastmile_qr_scan"}, "lon": -76.98358183333333, "fusion_lon": 0.0, "is_disabled": 0, "lat": 38.8874495, "bike_id": "4d60bd38be8e7fd2a95d9b5482e9d6cb", "name": "4d60bd38be8e7fd2a95d9b5482e9d6cb", "is_reserved": 0, "fusion_lat": 0.0}, {"type": "electric_scooter", "rental_uris": {"ios": "https://dc.lft.to/lastmile_qr_scan", "android": "https://dc.lft.to/lastmile_qr_scan"}, "lon": -77.04029, "fusion_lon": 0.0, "is_disabled": 0, "lat": 38.924436166666666, "bike_id": "68bbf0843d9a072a32397a4c9412406b", "name": "68bbf0843d9a072a32397a4c9412406b", "is_reserved": 0, "fusion_lat": 0.0}, {"type": "electric_scooter", "rental_uris": {"ios": "https://dc.lft.to/lastmile_qr_scan", "android": "https://dc.lft.to/lastmile_qr_scan"}, "lon": -76.98712916666666, "fusion_lon": 0.0, "is_disabled": 0, "lat": 38.866999166666666, "bike_id": "ad3359a5444a6f4f74899e30662226d2", "name": "ad3359a5444a6f4f74899e30662226d2", "is_reserved": 0, "fusion_lat": 0.0}, {"type": "electric_bike", "rental_uris": {"ios": "https://dc.lft.to/lastmile_qr_scan", "android": "https://dc.lft.to/lastmile_qr_scan"}, "lon": -76.97587683333333, "fusion_lon": 0.0, "is_disabled": 0, "lat": 38.84031683333333, "bike_id": "dccf17562767620f7003101a44460fed", "name": "dccf17562767620f7003101a44460fed", "is_reserved": 0, "fusion_lat": 0.0}, {"type": "electric_scooter", "rental_uris": {"ios": "https://dc.lft.to/lastmile_qr_scan", "android": "https://dc.lft.to/lastmile_qr_scan"}, "lon": -77.07297233333334, "fusion_lon": 0.0, "is_disabled": 0, "lat": 38.93531316666667, "bike_id": "4b0f5e0e67a4693ace9fe27ae35a8764", "name": "4b0f5e0e67a4693ace9fe27ae35a8764", "is_reserved": 0, "fusion_lat": 0.0}, {"type": "electric_scooter", "rental_uris": {"ios": "https://dc.lft.to/lastmile_qr_scan", "android": "https://dc.lft.to/lastmile_qr_scan"}, "lon": -77.02704816666666, "fusion_lon": 0.0, "is_disabled": 0, "lat": 38.90084866666667, "bike_id": "39bfe9d030f862f0e9d468f2e221643b", "name": "39bfe9d030f862f0e9d468f2e221643b", "is_reserved": 0, "fusion_lat": 0.0}, {"type": "electric_scooter", "rental_uris": {"ios": "https://dc.lft.to/lastmile_qr_scan", "android": "https://dc.lft.to/lastmile_qr_scan"}, "lon": -76.989622, "fusion_lon": 0.0, "is_disabled": 0, "lat": 38.90946666666667, "bike_id": "ea95529a1cf5234a49b5f026ded48b05", "name": "ea95529a1cf5234a49b5f026ded48b05", "is_reserved": 0, "fusion_lat": 0.0}, {"type": "electric_scooter", "rental_uris": {"ios": "https://dc.lft.to/lastmile_qr_scan", "android": "https://dc.lft.to/lastmile_qr_scan"}, "lon": -77.01096866666667, "fusion_lon": 0.0, "is_disabled": 0, "lat": 38.90353616666667, "bike_id": "1041cdf83c4466457946ff97f4107662", "name": "1041cdf83c4466457946ff97f4107662", "is_reserved": 0, "fusion_lat": 0.0}, {"type": "electric_scooter", "rental_uris": {"ios": "https://dc.lft.to/lastmile_qr_scan", "android": "https://dc.lft.to/lastmile_qr_scan"}, "lon": -77.02189916666667, "fusion_lon": 0.0, "is_disabled": 0, "lat": 38.91125616666667, "bike_id": "b1213c5cc94d79e58e9e68bb94c3d457", "name": "b1213c5cc94d79e58e9e68bb94c3d457", "is_reserved": 0, "fusion_lat": 0.0}, {"type": "electric_scooter", "rental_uris": {"ios": "https://dc.lft.to/lastmile_qr_scan", "android": "https://dc.lft.to/lastmile_qr_scan"}, "lon": -76.946511, "fusion_lon": 0.0, "is_disabled": 0, "lat": 38.898242, "bike_id": "a487c159f17f1b26289049f4636ff704", "name": "a487c159f17f1b26289049f4636ff704", "is_reserved": 0, "fusion_lat": 0.0}, {"type": "electric_scooter", "rental_uris": {"ios": "https://dc.lft.to/lastmile_qr_scan", "android": "https://dc.lft.to/lastmile_qr_scan"}, "lon": -77.04368766666667, "fusion_lon": 0.0, "is_disabled": 0, "lat": 38.90292733333333, "bike_id": "83c1efa3e88e77d0be0d20738af55b39", "name": "83c1efa3e88e77d0be0d20738af55b39", "is_reserved": 0, "fusion_lat": 0.0}, {"type": "electric_bike", "rental_uris": {"ios": "https://dc.lft.to/lastmile_qr_scan", "android": "https://dc.lft.to/lastmile_qr_scan"}, "lon": -77.1252675, "fusion_lon": 0.0, "is_disabled": 0, "lat": 39.05634966666667, "bike_id": "d30d4db061439d82fac652e8d80ef2cc", "name": "d30d4db061439d82fac652e8d80ef2cc", "is_reserved": 0, "fusion_lat": 0.0}, {"type": "electric_scooter", "rental_uris": {"ios": "https://dc.lft.to/lastmile_qr_scan", "android": "https://dc.lft.to/lastmile_qr_scan"}, "lon": -77.0153725, "fusion_lon": 0.0, "is_disabled": 0, "lat": 38.8873905, "bike_id": "e9f65e0a82e776d3c3d3f7330ab116c0", "name": "e9f65e0a82e776d3c3d3f7330ab116c0", "is_reserved": 0, "fusion_lat": 0.0}, {"type": "electric_scooter", "rental_uris": {"ios": "https://dc.lft.to/lastmile_qr_scan", "android": "https://dc.lft.to/lastmile_qr_scan"}, "lon": -77.03533766666666, "fusion_lon": 0.0, "is_disabled": 0, "lat": 38.925391166666664, "bike_id": "f086ed56c123478b2ba435679062f705", "name": "f086ed56c123478b2ba435679062f705", "is_reserved": 0, "fusion_lat": 0.0}, {"type": "electric_scooter", "rental_uris": {"ios": "https://dc.lft.to/lastmile_qr_scan", "android": "https://dc.lft.to/lastmile_qr_scan"}, "lon": -77.03175933333333, "fusion_lon": 0.0, "is_disabled": 0, "lat": 38.91866666666667, "bike_id": "d5e6939cae2388a9b5292c3b693c81e5", "name": "d5e6939cae2388a9b5292c3b693c81e5", "is_reserved": 0, "fusion_lat": 0.0}, {"type": "electric_scooter", "rental_uris": {"ios": "https://dc.lft.to/lastmile_qr_scan", "android": "https://dc.lft.to/lastmile_qr_scan"}, "lon": -77.02224866666667, "fusion_lon": 0.0, "is_disabled": 0, "lat": 38.892215, "bike_id": "3ebde98150b22196995e473b429c72e3", "name": "3ebde98150b22196995e473b429c72e3", "is_reserved": 0, "fusion_lat": 0.0}, {"type": "electric_scooter", "rental_uris": {"ios": "https://dc.lft.to/lastmile_qr_scan", "android": "https://dc.lft.to/lastmile_qr_scan"}, "lon": -77.03103983333334, "fusion_lon": 0.0, "is_disabled": 0, "lat": 38.898209, "bike_id": "018daaef8da0d0596f9bc6fbac2d82fb", "name": "018daaef8da0d0596f9bc6fbac2d82fb", "is_reserved": 0, "fusion_lat": 0.0}, {"type": "electric_scooter", "rental_uris": {"ios": "https://dc.lft.to/lastmile_qr_scan", "android": "https://dc.lft.to/lastmile_qr_scan"}, "lon": -77.03640116666666, "fusion_lon": 0.0, "is_disabled": 0, "lat": 38.91764233333333, "bike_id": "3fd2f199281cdb1fd7949889b542e652", "name": "3fd2f199281cdb1fd7949889b542e652", "is_reserved": 0, "fusion_lat": 0.0}, {"type": "electric_scooter", "rental_uris": {"ios": "https://dc.lft.to/lastmile_qr_scan", "android": "https://dc.lft.to/lastmile_qr_scan"}, "lon": -77.00406216666667, "fusion_lon": 0.0, "is_disabled": 0, "lat": 38.8767295, "bike_id": "fe9d4956f68ab170e44bd0c8f6e251bd", "name": "fe9d4956f68ab170e44bd0c8f6e251bd", "is_reserved": 0, "fusion_lat": 0.0}, {"type": "electric_scooter", "rental_uris": {"ios": "https://dc.lft.to/lastmile_qr_scan", "android": "https://dc.lft.to/lastmile_qr_scan"}, "lon": -77.037907, "fusion_lon": 0.0, "is_disabled": 0, "lat": 38.911189666666665, "bike_id": "fe904d6d010d9db4f8a53306f44b825f", "name": "fe904d6d010d9db4f8a53306f44b825f", "is_reserved": 0, "fusion_lat": 0.0}, {"type": "electric_scooter", "rental_uris": {"ios": "https://dc.lft.to/lastmile_qr_scan", "android": "https://dc.lft.to/lastmile_qr_scan"}, "lon": -77.011739, "fusion_lon": 0.0, "is_disabled": 0, "lat": 38.915656, "bike_id": "5a0fbe0e741c15fded33432fb5171e26", "name": "5a0fbe0e741c15fded33432fb5171e26", "is_reserved": 0, "fusion_lat": 0.0}, {"type": "electric_scooter", "rental_uris": {"ios": "https://dc.lft.to/lastmile_qr_scan", "android": "https://dc.lft.to/lastmile_qr_scan"}, "lon": -77.0455425, "fusion_lon": 0.0, "is_disabled": 0, "lat": 38.91929316666667, "bike_id": "59384e39c6c4f7ee0bafad1a40bcdb2d", "name": "59384e39c6c4f7ee0bafad1a40bcdb2d", "is_reserved": 0, "fusion_lat": 0.0}, {"type": "electric_scooter", "rental_uris": {"ios": "https://dc.lft.to/lastmile_qr_scan", "android": "https://dc.lft.to/lastmile_qr_scan"}, "lon": -77.03165816666667, "fusion_lon": 0.0, "is_disabled": 0, "lat": 38.91556833333333, "bike_id": "b26d52c71bfedaa3fc4ce9300ecac8b6", "name": "b26d52c71bfedaa3fc4ce9300ecac8b6", "is_reserved": 0, "fusion_lat": 0.0}, {"type": "electric_scooter", "rental_uris": {"ios": "https://dc.lft.to/lastmile_qr_scan", "android": "https://dc.lft.to/lastmile_qr_scan"}, "lon": -77.03490383333333, "fusion_lon": 0.0, "is_disabled": 0, "lat": 38.9248445, "bike_id": "f60897356d8b334fb7dacad8e5abbf24", "name": "f60897356d8b334fb7dacad8e5abbf24", "is_reserved": 0, "fusion_lat": 0.0}, {"type": "electric_scooter", "rental_uris": {"ios": "https://dc.lft.to/lastmile_qr_scan", "android": "https://dc.lft.to/lastmile_qr_scan"}, "lon": -77.04353666666667, "fusion_lon": 0.0, "is_disabled": 0, "lat": 38.910524833333334, "bike_id": "47e3a2f49a6fa7ec7b35f5102088893f", "name": "47e3a2f49a6fa7ec7b35f5102088893f", "is_reserved": 0, "fusion_lat": 0.0}, {"type": "electric_scooter", "rental_uris": {"ios": "https://dc.lft.to/lastmile_qr_scan", "android": "https://dc.lft.to/lastmile_qr_scan"}, "lon": -77.0022595, "fusion_lon": 0.0, "is_disabled": 0, "lat": 38.894839166666664, "bike_id": "fa0e6df35a58d66464bf2c100e14daa5", "name": "fa0e6df35a58d66464bf2c100e14daa5", "is_reserved": 0, "fusion_lat": 0.0}, {"type": "electric_scooter", "rental_uris": {"ios": "https://dc.lft.to/lastmile_qr_scan", "android": "https://dc.lft.to/lastmile_qr_scan"}, "lon": -77.03920883333333, "fusion_lon": 0.0, "is_disabled": 0, "lat": 38.91704583333333, "bike_id": "93664803ecdc6c7ee20dddb0edaaaf8d", "name": "93664803ecdc6c7ee20dddb0edaaaf8d", "is_reserved": 0, "fusion_lat": 0.0}, {"type": "electric_scooter", "rental_uris": {"ios": "https://dc.lft.to/lastmile_qr_scan", "android": "https://dc.lft.to/lastmile_qr_scan"}, "lon": -77.03377966666666, "fusion_lon": 0.0, "is_disabled": 0, "lat": 38.909925666666666, "bike_id": "8dc45e64c0667d742712deb25ed22c40", "name": "8dc45e64c0667d742712deb25ed22c40", "is_reserved": 0, "fusion_lat": 0.0}, {"type": "electric_scooter", "rental_uris": {"ios": "https://dc.lft.to/lastmile_qr_scan", "android": "https://dc.lft.to/lastmile_qr_scan"}, "lon": -77.0295515, "fusion_lon": 0.0, "is_disabled": 0, "lat": 38.92250116666666, "bike_id": "3ab7270894b23ed982bb84e2b1bf67d8", "name": "3ab7270894b23ed982bb84e2b1bf67d8", "is_reserved": 0, "fusion_lat": 0.0}, {"type": "electric_scooter", "rental_uris": {"ios": "https://dc.lft.to/lastmile_qr_scan", "android": "https://dc.lft.to/lastmile_qr_scan"}, "lon": -77.03637683333334, "fusion_lon": 0.0, "is_disabled": 0, "lat": 38.917342833333336, "bike_id": "d74e7ca214f9bcadc6bd72cbe89b865f", "name": "d74e7ca214f9bcadc6bd72cbe89b865f", "is_reserved": 0, "fusion_lat": 0.0}, {"type": "electric_scooter", "rental_uris": {"ios": "https://dc.lft.to/lastmile_qr_scan", "android": "https://dc.lft.to/lastmile_qr_scan"}, "lon": -77.03457766666666, "fusion_lon": 0.0, "is_disabled": 0, "lat": 38.93748183333334, "bike_id": "b5e96501c9127448a74cad65590e7396", "name": "b5e96501c9127448a74cad65590e7396", "is_reserved": 0, "fusion_lat": 0.0}, {"type": "electric_scooter", "rental_uris": {"ios": "https://dc.lft.to/lastmile_qr_scan", "android": "https://dc.lft.to/lastmile_qr_scan"}, "lon": -77.03857083333334, "fusion_lon": 0.0, "is_disabled": 0, "lat": 38.916639333333336, "bike_id": "2c15920f9ce91f35e65fbe723256cfee", "name": "2c15920f9ce91f35e65fbe723256cfee", "is_reserved": 0, "fusion_lat": 0.0}, {"type": "electric_scooter", "rental_uris": {"ios": "https://dc.lft.to/lastmile_qr_scan", "android": "https://dc.lft.to/lastmile_qr_scan"}, "lon": -77.02428083333334, "fusion_lon": 0.0, "is_disabled": 0, "lat": 38.91850866666667, "bike_id": "506eeb4acc0ba6d06f3f5f714abe14c5", "name": "506eeb4acc0ba6d06f3f5f714abe14c5", "is_reserved": 0, "fusion_lat": 0.0}, {"type": "electric_bike", "rental_uris": {"ios": "https://dc.lft.to/lastmile_qr_scan", "android": "https://dc.lft.to/lastmile_qr_scan"}, "lon": -76.9880795, "fusion_lon": 0.0, "is_disabled": 0, "lat": 38.911368833333334, "bike_id": "8f0ca30c7884ffcf133acb04760f597e", "name": "8f0ca30c7884ffcf133acb04760f597e", "is_reserved": 0, "fusion_lat": 0.0}, {"type": "electric_scooter", "rental_uris": {"ios": "https://dc.lft.to/lastmile_qr_scan", "android": "https://dc.lft.to/lastmile_qr_scan"}, "lon": -77.00756983333333, "fusion_lon": 0.0, "is_disabled": 0, "lat": 38.90722866666667, "bike_id": "fddf05c9525122071818bf9305c7b57c", "name": "fddf05c9525122071818bf9305c7b57c", "is_reserved": 0, "fusion_lat": 0.0}, {"type": "electric_scooter", "rental_uris": {"ios": "https://dc.lft.to/lastmile_qr_scan", "android": "https://dc.lft.to/lastmile_qr_scan"}, "lon": -77.0215495, "fusion_lon": 0.0, "is_disabled": 0, "lat": 38.886505666666665, "bike_id": "886cb76850836187695029413e366696", "name": "886cb76850836187695029413e366696", "is_reserved": 0, "fusion_lat": 0.0}, {"type": "electric_scooter", "rental_uris": {"ios": "https://dc.lft.to/lastmile_qr_scan", "android": "https://dc.lft.to/lastmile_qr_scan"}, "lon": -77.041618, "fusion_lon": 0.0, "is_disabled": 0, "lat": 38.93411666666667, "bike_id": "56883dc43756a2f968ca057dfdcc2c32", "name": "56883dc43756a2f968ca057dfdcc2c32", "is_reserved": 0, "fusion_lat": 0.0}, {"type": "electric_bike", "rental_uris": {"ios": "https://dc.lft.to/lastmile_qr_scan", "android": "https://dc.lft.to/lastmile_qr_scan"}, "lon": -77.120343, "fusion_lon": 0.0, "is_disabled": 0, "lat": 38.854927833333335, "bike_id": "83ef9b950f70795f8eebb579eea97f02", "name": "83ef9b950f70795f8eebb579eea97f02", "is_reserved": 0, "fusion_lat": 0.0}, {"type": "electric_scooter", "rental_uris": {"ios": "https://dc.lft.to/lastmile_qr_scan", "android": "https://dc.lft.to/lastmile_qr_scan"}, "lon": -77.04350333333333, "fusion_lon": 0.0, "is_disabled": 0, "lat": 38.90582366666667, "bike_id": "c26a87d40d01205746aeefac145c74fd", "name": "c26a87d40d01205746aeefac145c74fd", "is_reserved": 0, "fusion_lat": 0.0}, {"type": "electric_scooter", "rental_uris": {"ios": "https://dc.lft.to/lastmile_qr_scan", "android": "https://dc.lft.to/lastmile_qr_scan"}, "lon": -77.04016166666666, "fusion_lon": 0.0, "is_disabled": 0, "lat": 38.94194983333333, "bike_id": "550b44888f256fc597978acd343d3236", "name": "550b44888f256fc597978acd343d3236", "is_reserved": 0, "fusion_lat": 0.0}, {"type": "electric_scooter", "rental_uris": {"ios": "https://dc.lft.to/lastmile_qr_scan", "android": "https://dc.lft.to/lastmile_qr_scan"}, "lon": -77.036616, "fusion_lon": 0.0, "is_disabled": 0, "lat": 38.918684666666664, "bike_id": "28872cde18610114bbfcec4857121030", "name": "28872cde18610114bbfcec4857121030", "is_reserved": 0, "fusion_lat": 0.0}, {"type": "electric_scooter", "rental_uris": {"ios": "https://dc.lft.to/lastmile_qr_scan", "android": "https://dc.lft.to/lastmile_qr_scan"}, "lon": -77.015567, "fusion_lon": 0.0, "is_disabled": 0, "lat": 38.87989, "bike_id": "09ce1c0d3b3c0ac889b1e7bee1399205", "name": "09ce1c0d3b3c0ac889b1e7bee1399205", "is_reserved": 0, "fusion_lat": 0.0}, {"type": "electric_scooter", "rental_uris": {"ios": "https://dc.lft.to/lastmile_qr_scan", "android": "https://dc.lft.to/lastmile_qr_scan"}, "lon": -77.03433433333333, "fusion_lon": 0.0, "is_disabled": 0, "lat": 38.9180085, "bike_id": "a72225420bace76012bb2afd9d8a181b", "name": "a72225420bace76012bb2afd9d8a181b", "is_reserved": 0, "fusion_lat": 0.0}, {"type": "electric_scooter", "rental_uris": {"ios": "https://dc.lft.to/lastmile_qr_scan", "android": "https://dc.lft.to/lastmile_qr_scan"}, "lon": -77.03645683333333, "fusion_lon": 0.0, "is_disabled": 0, "lat": 38.9161455, "bike_id": "747c28516ded50381d65c0b98258aabe", "name": "747c28516ded50381d65c0b98258aabe", "is_reserved": 0, "fusion_lat": 0.0}, {"type": "electric_bike", "rental_uris": {"ios": "https://dc.lft.to/lastmile_qr_scan", "android": "https://dc.lft.to/lastmile_qr_scan"}, "lon": -77.11610116666667, "fusion_lon": 0.0, "is_disabled": 0, "lat": 38.85482233333333, "bike_id": "43423129b00fef536ace710df1ab468f", "name": "43423129b00fef536ace710df1ab468f", "is_reserved": 0, "fusion_lat": 0.0}, {"type": "electric_scooter", "rental_uris": {"ios": "https://dc.lft.to/lastmile_qr_scan", "android": "https://dc.lft.to/lastmile_qr_scan"}, "lon": -77.02695816666666, "fusion_lon": 0.0, "is_disabled": 0, "lat": 38.9112555, "bike_id": "637f5e25e16041046c8c60c3a42aabfd", "name": "637f5e25e16041046c8c60c3a42aabfd", "is_reserved": 0, "fusion_lat": 0.0}, {"type": "electric_scooter", "rental_uris": {"ios": "https://dc.lft.to/lastmile_qr_scan", "android": "https://dc.lft.to/lastmile_qr_scan"}, "lon": -77.04026166666667, "fusion_lon": 0.0, "is_disabled": 0, "lat": 38.9306145, "bike_id": "3221a9da1cfcc615e0ca20fcb6150af4", "name": "3221a9da1cfcc615e0ca20fcb6150af4", "is_reserved": 0, "fusion_lat": 0.0}, {"type": "electric_scooter", "rental_uris": {"ios": "https://dc.lft.to/lastmile_qr_scan", "android": "https://dc.lft.to/lastmile_qr_scan"}, "lon": -77.01087033333333, "fusion_lon": 0.0, "is_disabled": 0, "lat": 38.8667205, "bike_id": "b724084fbeb7b782d3d481024a30dd45", "name": "b724084fbeb7b782d3d481024a30dd45", "is_reserved": 0, "fusion_lat": 0.0}, {"type": "electric_scooter", "rental_uris": {"ios": "https://dc.lft.to/lastmile_qr_scan", "android": "https://dc.lft.to/lastmile_qr_scan"}, "lon": -77.026943, "fusion_lon": 0.0, "is_disabled": 0, "lat": 38.9240015, "bike_id": "62483a5cd1c1df365627f69feeb51b39", "name": "62483a5cd1c1df365627f69feeb51b39", "is_reserved": 0, "fusion_lat": 0.0}, {"type": "electric_scooter", "rental_uris": {"ios": "https://dc.lft.to/lastmile_qr_scan", "android": "https://dc.lft.to/lastmile_qr_scan"}, "lon": -77.03180966666666, "fusion_lon": 0.0, "is_disabled": 0, "lat": 38.91928883333333, "bike_id": "db6ec58fea1292fdb428a38e1dc30666", "name": "db6ec58fea1292fdb428a38e1dc30666", "is_reserved": 0, "fusion_lat": 0.0}, {"type": "electric_scooter", "rental_uris": {"ios": "https://dc.lft.to/lastmile_qr_scan", "android": "https://dc.lft.to/lastmile_qr_scan"}, "lon": -77.03380533333333, "fusion_lon": 0.0, "is_disabled": 0, "lat": 38.9001045, "bike_id": "40c9ca1981ac1e0f2e5d79afa74747d7", "name": "40c9ca1981ac1e0f2e5d79afa74747d7", "is_reserved": 0, "fusion_lat": 0.0}, {"type": "electric_scooter", "rental_uris": {"ios": "https://dc.lft.to/lastmile_qr_scan", "android": "https://dc.lft.to/lastmile_qr_scan"}, "lon": -77.02445933333334, "fusion_lon": 0.0, "is_disabled": 0, "lat": 38.9188795, "bike_id": "a2d5f98b7f7ef9571477206bed7862a6", "name": "a2d5f98b7f7ef9571477206bed7862a6", "is_reserved": 0, "fusion_lat": 0.0}, {"type": "electric_scooter", "rental_uris": {"ios": "https://dc.lft.to/lastmile_qr_scan", "android": "https://dc.lft.to/lastmile_qr_scan"}, "lon": -77.0350555, "fusion_lon": 0.0, "is_disabled": 0, "lat": 38.92149666666667, "bike_id": "819bfb4dabb60533da2aecaf4baf21bf", "name": "819bfb4dabb60533da2aecaf4baf21bf", "is_reserved": 0, "fusion_lat": 0.0}, {"type": "electric_scooter", "rental_uris": {"ios": "https://dc.lft.to/lastmile_qr_scan", "android": "https://dc.lft.to/lastmile_qr_scan"}, "lon": -77.02600366666667, "fusion_lon": 0.0, "is_disabled": 0, "lat": 38.9169195, "bike_id": "22bd717313be7d9348742fd5995d481e", "name": "22bd717313be7d9348742fd5995d481e", "is_reserved": 0, "fusion_lat": 0.0}, {"type": "electric_scooter", "rental_uris": {"ios": "https://dc.lft.to/lastmile_qr_scan", "android": "https://dc.lft.to/lastmile_qr_scan"}, "lon": -77.02313083333334, "fusion_lon": 0.0, "is_disabled": 0, "lat": 38.916181, "bike_id": "b8487e73a2b314aa99a6e8624b4eb868", "name": "b8487e73a2b314aa99a6e8624b4eb868", "is_reserved": 0, "fusion_lat": 0.0}, {"type": "electric_scooter", "rental_uris": {"ios": "https://dc.lft.to/lastmile_qr_scan", "android": "https://dc.lft.to/lastmile_qr_scan"}, "lon": -77.0148285, "fusion_lon": 0.0, "is_disabled": 0, "lat": 38.888183, "bike_id": "56fd03c9417ee8cf2dec1d104ddb3b65", "name": "56fd03c9417ee8cf2dec1d104ddb3b65", "is_reserved": 0, "fusion_lat": 0.0}, {"type": "electric_scooter", "rental_uris": {"ios": "https://dc.lft.to/lastmile_qr_scan", "android": "https://dc.lft.to/lastmile_qr_scan"}, "lon": -77.02706383333333, "fusion_lon": 0.0, "is_disabled": 0, "lat": 38.9182305, "bike_id": "7768f07838780b1f1b9fdec37df019e7", "name": "7768f07838780b1f1b9fdec37df019e7", "is_reserved": 0, "fusion_lat": 0.0}, {"type": "electric_scooter", "rental_uris": {"ios": "https://dc.lft.to/lastmile_qr_scan", "android": "https://dc.lft.to/lastmile_qr_scan"}, "lon": -76.93188383333333, "fusion_lon": 0.0, "is_disabled": 0, "lat": 38.89874016666667, "bike_id": "b369e2cbda665fbf1e38b71e2434cfb8", "name": "b369e2cbda665fbf1e38b71e2434cfb8", "is_reserved": 0, "fusion_lat": 0.0}, {"type": "electric_scooter", "rental_uris": {"ios": "https://dc.lft.to/lastmile_qr_scan", "android": "https://dc.lft.to/lastmile_qr_scan"}, "lon": -77.03095516666667, "fusion_lon": 0.0, "is_disabled": 0, "lat": 38.879208166666665, "bike_id": "4826c75e0c9d7da9624f781ecd475955", "name": "4826c75e0c9d7da9624f781ecd475955", "is_reserved": 0, "fusion_lat": 0.0}, {"type": "electric_scooter", "rental_uris": {"ios": "https://dc.lft.to/lastmile_qr_scan", "android": "https://dc.lft.to/lastmile_qr_scan"}, "lon": -77.01695366666667, "fusion_lon": 0.0, "is_disabled": 0, "lat": 38.907292, "bike_id": "d5e949b0b26f8cdd711b1f6f863ac362", "name": "d5e949b0b26f8cdd711b1f6f863ac362", "is_reserved": 0, "fusion_lat": 0.0}, {"type": "electric_scooter", "rental_uris": {"ios": "https://dc.lft.to/lastmile_qr_scan", "android": "https://dc.lft.to/lastmile_qr_scan"}, "lon": -77.04808, "fusion_lon": 0.0, "is_disabled": 0, "lat": 38.905434, "bike_id": "e73e62b7d78534f36831669f7f5e383d", "name": "e73e62b7d78534f36831669f7f5e383d", "is_reserved": 0, "fusion_lat": 0.0}, {"type": "electric_scooter", "rental_uris": {"ios": "https://dc.lft.to/lastmile_qr_scan", "android": "https://dc.lft.to/lastmile_qr_scan"}, "lon": -77.02717566666666, "fusion_lon": 0.0, "is_disabled": 0, "lat": 38.924829333333335, "bike_id": "001bcb74407d914294b1984d9a10fd77", "name": "001bcb74407d914294b1984d9a10fd77", "is_reserved": 0, "fusion_lat": 0.0}, {"type": "electric_scooter", "rental_uris": {"ios": "https://dc.lft.to/lastmile_qr_scan", "android": "https://dc.lft.to/lastmile_qr_scan"}, "lon": -77.02664266666666, "fusion_lon": 0.0, "is_disabled": 0, "lat": 38.917102, "bike_id": "99daab37b4924041309ba27b5349f330", "name": "99daab37b4924041309ba27b5349f330", "is_reserved": 0, "fusion_lat": 0.0}, {"type": "electric_bike", "rental_uris": {"ios": "https://dc.lft.to/lastmile_qr_scan", "android": "https://dc.lft.to/lastmile_qr_scan"}, "lon": -77.10129083333334, "fusion_lon": 0.0, "is_disabled": 0, "lat": 38.852080666666666, "bike_id": "88402e43a0da035613f04cda34c86c62", "name": "88402e43a0da035613f04cda34c86c62", "is_reserved": 0, "fusion_lat": 0.0}, {"type": "electric_scooter", "rental_uris": {"ios": "https://dc.lft.to/lastmile_qr_scan", "android": "https://dc.lft.to/lastmile_qr_scan"}, "lon": -77.02697816666667, "fusion_lon": 0.0, "is_disabled": 0, "lat": 38.906805, "bike_id": "ede3658066014da8336f678001c26a9f", "name": "ede3658066014da8336f678001c26a9f", "is_reserved": 0, "fusion_lat": 0.0}, {"type": "electric_scooter", "rental_uris": {"ios": "https://dc.lft.to/lastmile_qr_scan", "android": "https://dc.lft.to/lastmile_qr_scan"}, "lon": -77.0262095, "fusion_lon": 0.0, "is_disabled": 0, "lat": 38.90563183333333, "bike_id": "f1119f69dd2089d8213ddc0b40370d27", "name": "f1119f69dd2089d8213ddc0b40370d27", "is_reserved": 0, "fusion_lat": 0.0}, {"type": "electric_bike", "rental_uris": {"ios": "https://dc.lft.to/lastmile_qr_scan", "android": "https://dc.lft.to/lastmile_qr_scan"}, "lon": -77.06966533333333, "fusion_lon": 0.0, "is_disabled": 0, "lat": 38.970893, "bike_id": "c097a9f826e5979235421b07f11f7693", "name": "c097a9f826e5979235421b07f11f7693", "is_reserved": 0, "fusion_lat": 0.0}, {"type": "electric_scooter", "rental_uris": {"ios": "https://dc.lft.to/lastmile_qr_scan", "android": "https://dc.lft.to/lastmile_qr_scan"}, "lon": -76.99940066666667, "fusion_lon": 0.0, "is_disabled": 0, "lat": 38.908518666666666, "bike_id": "02ab08ee8ac9f15e9385849b215a854c", "name": "02ab08ee8ac9f15e9385849b215a854c", "is_reserved": 0, "fusion_lat": 0.0}, {"type": "electric_scooter", "rental_uris": {"ios": "https://dc.lft.to/lastmile_qr_scan", "android": "https://dc.lft.to/lastmile_qr_scan"}, "lon": -77.02908133333334, "fusion_lon": 0.0, "is_disabled": 0, "lat": 38.92573633333333, "bike_id": "081bda8969296d93d21c89c1cb528a04", "name": "081bda8969296d93d21c89c1cb528a04", "is_reserved": 0, "fusion_lat": 0.0}, {"type": "electric_scooter", "rental_uris": {"ios": "https://dc.lft.to/lastmile_qr_scan", "android": "https://dc.lft.to/lastmile_qr_scan"}, "lon": -76.97950066666667, "fusion_lon": 0.0, "is_disabled": 0, "lat": 38.91693716666666, "bike_id": "5661ca73f966aa14caa85e61b20fcd7c", "name": "5661ca73f966aa14caa85e61b20fcd7c", "is_reserved": 0, "fusion_lat": 0.0}, {"type": "electric_scooter", "rental_uris": {"ios": "https://dc.lft.to/lastmile_qr_scan", "android": "https://dc.lft.to/lastmile_qr_scan"}, "lon": -77.02005766666667, "fusion_lon": 0.0, "is_disabled": 0, "lat": 38.90828283333333, "bike_id": "f846b6cb71176ff440b609541872a8ca", "name": "f846b6cb71176ff440b609541872a8ca", "is_reserved": 0, "fusion_lat": 0.0}, {"type": "electric_scooter", "rental_uris": {"ios": "https://dc.lft.to/lastmile_qr_scan", "android": "https://dc.lft.to/lastmile_qr_scan"}, "lon": -77.05060733333333, "fusion_lon": 0.0, "is_disabled": 0, "lat": 38.90420366666667, "bike_id": "022dbd55e262c963c3f57f990ab55b60", "name": "022dbd55e262c963c3f57f990ab55b60", "is_reserved": 0, "fusion_lat": 0.0}, {"type": "electric_scooter", "rental_uris": {"ios": "https://dc.lft.to/lastmile_qr_scan", "android": "https://dc.lft.to/lastmile_qr_scan"}, "lon": -76.99033383333334, "fusion_lon": 0.0, "is_disabled": 0, "lat": 38.90035666666667, "bike_id": "0355706a9e97174c1f66a90c0c5e8cc4", "name": "0355706a9e97174c1f66a90c0c5e8cc4", "is_reserved": 0, "fusion_lat": 0.0}, {"type": "electric_scooter", "rental_uris": {"ios": "https://dc.lft.to/lastmile_qr_scan", "android": "https://dc.lft.to/lastmile_qr_scan"}, "lon": -77.03182716666667, "fusion_lon": 0.0, "is_disabled": 0, "lat": 38.91124633333333, "bike_id": "70d03a9dacd204ffdc9442ca0584f527", "name": "70d03a9dacd204ffdc9442ca0584f527", "is_reserved": 0, "fusion_lat": 0.0}, {"type": "electric_bike", "rental_uris": {"ios": "https://dc.lft.to/lastmile_qr_scan", "android": "https://dc.lft.to/lastmile_qr_scan"}, "lon": -77.162415, "fusion_lon": 0.0, "is_disabled": 0, "lat": 38.886778166666666, "bike_id": "56a2adc3eb5d35b526cd43cfe985b16b", "name": "56a2adc3eb5d35b526cd43cfe985b16b", "is_reserved": 0, "fusion_lat": 0.0}, {"type": "electric_scooter", "rental_uris": {"ios": "https://dc.lft.to/lastmile_qr_scan", "android": "https://dc.lft.to/lastmile_qr_scan"}, "lon": -77.01889183333333, "fusion_lon": 0.0, "is_disabled": 0, "lat": 38.886148666666664, "bike_id": "3d331b55697134ec0671ff2f16463c5d", "name": "3d331b55697134ec0671ff2f16463c5d", "is_reserved": 0, "fusion_lat": 0.0}, {"type": "electric_scooter", "rental_uris": {"ios": "https://dc.lft.to/lastmile_qr_scan", "android": "https://dc.lft.to/lastmile_qr_scan"}, "lon": -77.01615616666666, "fusion_lon": 0.0, "is_disabled": 0, "lat": 38.9159885, "bike_id": "0f09651e1255e06bb55a713193b5ece2", "name": "0f09651e1255e06bb55a713193b5ece2", "is_reserved": 0, "fusion_lat": 0.0}, {"type": "electric_bike", "rental_uris": {"ios": "https://dc.lft.to/lastmile_qr_scan", "android": "https://dc.lft.to/lastmile_qr_scan"}, "lon": -77.01283183333334, "fusion_lon": 0.0, "is_disabled": 0, "lat": 38.95666166666667, "bike_id": "5c7a6a7d362493e6f19e879031a7d989", "name": "5c7a6a7d362493e6f19e879031a7d989", "is_reserved": 0, "fusion_lat": 0.0}, {"type": "electric_bike", "rental_uris": {"ios": "https://dc.lft.to/lastmile_qr_scan", "android": "https://dc.lft.to/lastmile_qr_scan"}, "lon": -77.11787683333333, "fusion_lon": 0.0, "is_disabled": 0, "lat": 38.88548466666667, "bike_id": "0323fd3784f0cba0867b386f334d9a35", "name": "0323fd3784f0cba0867b386f334d9a35", "is_reserved": 0, "fusion_lat": 0.0}, {"type": "electric_scooter", "rental_uris": {"ios": "https://dc.lft.to/lastmile_qr_scan", "android": "https://dc.lft.to/lastmile_qr_scan"}, "lon": -77.0314965, "fusion_lon": 0.0, "is_disabled": 0, "lat": 38.927872, "bike_id": "b54075e9512b6475bfb456e1e44e4a50", "name": "b54075e9512b6475bfb456e1e44e4a50", "is_reserved": 0, "fusion_lat": 0.0}, {"type": "electric_scooter", "rental_uris": {"ios": "https://dc.lft.to/lastmile_qr_scan", "android": "https://dc.lft.to/lastmile_qr_scan"}, "lon": -77.01979566666667, "fusion_lon": 0.0, "is_disabled": 0, "lat": 38.90238866666667, "bike_id": "d8309f759558bdcdb427de3559509eef", "name": "d8309f759558bdcdb427de3559509eef", "is_reserved": 0, "fusion_lat": 0.0}, {"type": "electric_scooter", "rental_uris": {"ios": "https://dc.lft.to/lastmile_qr_scan", "android": "https://dc.lft.to/lastmile_qr_scan"}, "lon": -77.04333683333333, "fusion_lon": 0.0, "is_disabled": 0, "lat": 38.8922575, "bike_id": "38b82444536de143111728dc9af12726", "name": "38b82444536de143111728dc9af12726", "is_reserved": 0, "fusion_lat": 0.0}, {"type": "electric_scooter", "rental_uris": {"ios": "https://dc.lft.to/lastmile_qr_scan", "android": "https://dc.lft.to/lastmile_qr_scan"}, "lon": -76.998565, "fusion_lon": 0.0, "is_disabled": 0, "lat": 38.90161916666667, "bike_id": "6a4b37b82a4a35b846348580a0f5e1e6", "name": "6a4b37b82a4a35b846348580a0f5e1e6", "is_reserved": 0, "fusion_lat": 0.0}, {"type": "electric_scooter", "rental_uris": {"ios": "https://dc.lft.to/lastmile_qr_scan", "android": "https://dc.lft.to/lastmile_qr_scan"}, "lon": -77.021824, "fusion_lon": 0.0, "is_disabled": 0, "lat": 38.917418833333336, "bike_id": "fd46d936bc8e1ee4b17685c614087b10", "name": "fd46d936bc8e1ee4b17685c614087b10", "is_reserved": 0, "fusion_lat": 0.0}, {"type": "electric_scooter", "rental_uris": {"ios": "https://dc.lft.to/lastmile_qr_scan", "android": "https://dc.lft.to/lastmile_qr_scan"}, "lon": -77.0471655, "fusion_lon": 0.0, "is_disabled": 0, "lat": 38.92232516666667, "bike_id": "924c453f267adc79d158e391a6b6ffd5", "name": "924c453f267adc79d158e391a6b6ffd5", "is_reserved": 0, "fusion_lat": 0.0}, {"type": "electric_scooter", "rental_uris": {"ios": "https://dc.lft.to/lastmile_qr_scan", "android": "https://dc.lft.to/lastmile_qr_scan"}, "lon": -77.03663833333333, "fusion_lon": 0.0, "is_disabled": 0, "lat": 38.917238833333336, "bike_id": "bbe2925da2b0e46dc6408afe400305de", "name": "bbe2925da2b0e46dc6408afe400305de", "is_reserved": 0, "fusion_lat": 0.0}, {"type": "electric_scooter", "rental_uris": {"ios": "https://dc.lft.to/lastmile_qr_scan", "android": "https://dc.lft.to/lastmile_qr_scan"}, "lon": -77.04507516666666, "fusion_lon": 0.0, "is_disabled": 0, "lat": 38.91281, "bike_id": "6c56deacde2fc0a4a45bc2b8de94aae1", "name": "6c56deacde2fc0a4a45bc2b8de94aae1", "is_reserved": 0, "fusion_lat": 0.0}, {"type": "electric_scooter", "rental_uris": {"ios": "https://dc.lft.to/lastmile_qr_scan", "android": "https://dc.lft.to/lastmile_qr_scan"}, "lon": -76.99139266666667, "fusion_lon": 0.0, "is_disabled": 0, "lat": 38.85952983333333, "bike_id": "9c1719551a3393dd631ab12f80285bb0", "name": "9c1719551a3393dd631ab12f80285bb0", "is_reserved": 0, "fusion_lat": 0.0}, {"type": "electric_bike", "rental_uris": {"ios": "https://dc.lft.to/lastmile_qr_scan", "android": "https://dc.lft.to/lastmile_qr_scan"}, "lon": -77.08087583333334, "fusion_lon": 0.0, "is_disabled": 0, "lat": 38.90861316666667, "bike_id": "185251ee441830e839a8fa99577f7dda", "name": "185251ee441830e839a8fa99577f7dda", "is_reserved": 0, "fusion_lat": 0.0}, {"type": "electric_bike", "rental_uris": {"ios": "https://dc.lft.to/lastmile_qr_scan", "android": "https://dc.lft.to/lastmile_qr_scan"}, "lon": -77.0344355, "fusion_lon": 0.0, "is_disabled": 0, "lat": 38.892252166666665, "bike_id": "06de63ad4e27d9f6ce9a8902132e20c3", "name": "06de63ad4e27d9f6ce9a8902132e20c3", "is_reserved": 0, "fusion_lat": 0.0}, {"type": "electric_scooter", "rental_uris": {"ios": "https://dc.lft.to/lastmile_qr_scan", "android": "https://dc.lft.to/lastmile_qr_scan"}, "lon": -77.0416975, "fusion_lon": 0.0, "is_disabled": 0, "lat": 38.918893833333335, "bike_id": "5ad54d77e99f7317f0f2bde0f39543d7", "name": "5ad54d77e99f7317f0f2bde0f39543d7", "is_reserved": 0, "fusion_lat": 0.0}, {"type": "electric_scooter", "rental_uris": {"ios": "https://dc.lft.to/lastmile_qr_scan", "android": "https://dc.lft.to/lastmile_qr_scan"}, "lon": -77.02335933333333, "fusion_lon": 0.0, "is_disabled": 0, "lat": 38.9178205, "bike_id": "446172f22ef45b911a14d2c9eed3c832", "name": "446172f22ef45b911a14d2c9eed3c832", "is_reserved": 0, "fusion_lat": 0.0}, {"type": "electric_scooter", "rental_uris": {"ios": "https://dc.lft.to/lastmile_qr_scan", "android": "https://dc.lft.to/lastmile_qr_scan"}, "lon": -77.02283433333334, "fusion_lon": 0.0, "is_disabled": 0, "lat": 38.9168855, "bike_id": "5940cd04e9a77b863256aa47df1c7433", "name": "5940cd04e9a77b863256aa47df1c7433", "is_reserved": 0, "fusion_lat": 0.0}, {"type": "electric_scooter", "rental_uris": {"ios": "https://dc.lft.to/lastmile_qr_scan", "android": "https://dc.lft.to/lastmile_qr_scan"}, "lon": -77.033873, "fusion_lon": 0.0, "is_disabled": 0, "lat": 38.906371, "bike_id": "e91bc8d9e5930f8b566fce70c399c805", "name": "e91bc8d9e5930f8b566fce70c399c805", "is_reserved": 0, "fusion_lat": 0.0}, {"type": "electric_scooter", "rental_uris": {"ios": "https://dc.lft.to/lastmile_qr_scan", "android": "https://dc.lft.to/lastmile_qr_scan"}, "lon": -77.00211783333333, "fusion_lon": 0.0, "is_disabled": 0, "lat": 38.881280333333336, "bike_id": "b70fb292aa482ec49659f437e1254b62", "name": "b70fb292aa482ec49659f437e1254b62", "is_reserved": 0, "fusion_lat": 0.0}, {"type": "electric_scooter", "rental_uris": {"ios": "https://dc.lft.to/lastmile_qr_scan", "android": "https://dc.lft.to/lastmile_qr_scan"}, "lon": -76.93176183333334, "fusion_lon": 0.0, "is_disabled": 0, "lat": 38.8988335, "bike_id": "71a2b7063ea019c235a6146990fdc537", "name": "71a2b7063ea019c235a6146990fdc537", "is_reserved": 0, "fusion_lat": 0.0}, {"type": "electric_scooter", "rental_uris": {"ios": "https://dc.lft.to/lastmile_qr_scan", "android": "https://dc.lft.to/lastmile_qr_scan"}, "lon": -77.0369495, "fusion_lon": 0.0, "is_disabled": 0, "lat": 38.93062, "bike_id": "1b4808bd799b31ab3a182dc63b5fe411", "name": "1b4808bd799b31ab3a182dc63b5fe411", "is_reserved": 0, "fusion_lat": 0.0}, {"type": "electric_scooter", "rental_uris": {"ios": "https://dc.lft.to/lastmile_qr_scan", "android": "https://dc.lft.to/lastmile_qr_scan"}, "lon": -77.03162266666666, "fusion_lon": 0.0, "is_disabled": 0, "lat": 38.8922465, "bike_id": "897c95875dbffe6e1c65841ab00c51d4", "name": "897c95875dbffe6e1c65841ab00c51d4", "is_reserved": 0, "fusion_lat": 0.0}, {"type": "electric_bike", "rental_uris": {"ios": "https://dc.lft.to/lastmile_qr_scan", "android": "https://dc.lft.to/lastmile_qr_scan"}, "lon": -76.9013, "fusion_lon": 0.0, "is_disabled": 0, "lat": 39.004791, "bike_id": "e7ea73a478a1a9cc4bece146ca7d4125", "name": "e7ea73a478a1a9cc4bece146ca7d4125", "is_reserved": 0, "fusion_lat": 0.0}, {"type": "electric_bike", "rental_uris": {"ios": "https://dc.lft.to/lastmile_qr_scan", "android": "https://dc.lft.to/lastmile_qr_scan"}, "lon": -77.11220033333333, "fusion_lon": 0.0, "is_disabled": 0, "lat": 38.828738666666666, "bike_id": "da99e8d4090799ed593828bf842a75d9", "name": "da99e8d4090799ed593828bf842a75d9", "is_reserved": 0, "fusion_lat": 0.0}, {"type": "electric_scooter", "rental_uris": {"ios": "https://dc.lft.to/lastmile_qr_scan", "android": "https://dc.lft.to/lastmile_qr_scan"}, "lon": -77.044512, "fusion_lon": 0.0, "is_disabled": 0, "lat": 38.93021933333333, "bike_id": "1106b57bb37ab170a4d1fe57b74ae7c1", "name": "1106b57bb37ab170a4d1fe57b74ae7c1", "is_reserved": 0, "fusion_lat": 0.0}, {"type": "electric_scooter", "rental_uris": {"ios": "https://dc.lft.to/lastmile_qr_scan", "android": "https://dc.lft.to/lastmile_qr_scan"}, "lon": -77.0640145, "fusion_lon": 0.0, "is_disabled": 0, "lat": 38.94441, "bike_id": "21f0c612ba6c64ebde822d9b53d62999", "name": "21f0c612ba6c64ebde822d9b53d62999", "is_reserved": 0, "fusion_lat": 0.0}, {"type": "electric_scooter", "rental_uris": {"ios": "https://dc.lft.to/lastmile_qr_scan", "android": "https://dc.lft.to/lastmile_qr_scan"}, "lon": -77.0316705, "fusion_lon": 0.0, "is_disabled": 0, "lat": 38.8922365, "bike_id": "8d13e78d7cfbabb7da72aa8932bfd4da", "name": "8d13e78d7cfbabb7da72aa8932bfd4da", "is_reserved": 0, "fusion_lat": 0.0}, {"type": "electric_scooter", "rental_uris": {"ios": "https://dc.lft.to/lastmile_qr_scan", "android": "https://dc.lft.to/lastmile_qr_scan"}, "lon": -77.00431733333333, "fusion_lon": 0.0, "is_disabled": 0, "lat": 38.876728166666666, "bike_id": "31971204ff7793c3bc95cf530740fd90", "name": "31971204ff7793c3bc95cf530740fd90", "is_reserved": 0, "fusion_lat": 0.0}, {"type": "electric_scooter", "rental_uris": {"ios": "https://dc.lft.to/lastmile_qr_scan", "android": "https://dc.lft.to/lastmile_qr_scan"}, "lon": -77.03185216666667, "fusion_lon": 0.0, "is_disabled": 0, "lat": 38.91423316666667, "bike_id": "6765e7596a14a59cc241354a53fa4aeb", "name": "6765e7596a14a59cc241354a53fa4aeb", "is_reserved": 0, "fusion_lat": 0.0}, {"type": "electric_scooter", "rental_uris": {"ios": "https://dc.lft.to/lastmile_qr_scan", "android": "https://dc.lft.to/lastmile_qr_scan"}, "lon": -77.03373916666666, "fusion_lon": 0.0, "is_disabled": 0, "lat": 38.902782333333334, "bike_id": "f2890e949d8871a02d284935996ff291", "name": "f2890e949d8871a02d284935996ff291", "is_reserved": 0, "fusion_lat": 0.0}, {"type": "electric_scooter", "rental_uris": {"ios": "https://dc.lft.to/lastmile_qr_scan", "android": "https://dc.lft.to/lastmile_qr_scan"}, "lon": -77.0525685, "fusion_lon": 0.0, "is_disabled": 0, "lat": 38.923767833333336, "bike_id": "c33e2f08aa9f4cd3686abba73fe67302", "name": "c33e2f08aa9f4cd3686abba73fe67302", "is_reserved": 0, "fusion_lat": 0.0}, {"type": "electric_scooter", "rental_uris": {"ios": "https://dc.lft.to/lastmile_qr_scan", "android": "https://dc.lft.to/lastmile_qr_scan"}, "lon": -77.057233, "fusion_lon": 0.0, "is_disabled": 0, "lat": 38.906895, "bike_id": "073a6fd1ba5a3e031052c2a9082732ba", "name": "073a6fd1ba5a3e031052c2a9082732ba", "is_reserved": 0, "fusion_lat": 0.0}, {"type": "electric_scooter", "rental_uris": {"ios": "https://dc.lft.to/lastmile_qr_scan", "android": "https://dc.lft.to/lastmile_qr_scan"}, "lon": -77.03803466666666, "fusion_lon": 0.0, "is_disabled": 0, "lat": 38.912671, "bike_id": "849007fc51cec1172b0888132f4d645d", "name": "849007fc51cec1172b0888132f4d645d", "is_reserved": 0, "fusion_lat": 0.0}, {"type": "electric_scooter", "rental_uris": {"ios": "https://dc.lft.to/lastmile_qr_scan", "android": "https://dc.lft.to/lastmile_qr_scan"}, "lon": -77.04343783333333, "fusion_lon": 0.0, "is_disabled": 0, "lat": 38.90819533333333, "bike_id": "6fd3aa88b5c8b594a7c707d337750e12", "name": "6fd3aa88b5c8b594a7c707d337750e12", "is_reserved": 0, "fusion_lat": 0.0}, {"type": "electric_bike", "rental_uris": {"ios": "https://dc.lft.to/lastmile_qr_scan", "android": "https://dc.lft.to/lastmile_qr_scan"}, "lon": -77.09960333333333, "fusion_lon": 0.0, "is_disabled": 0, "lat": 38.933571, "bike_id": "a28d76a36a9c7182c26f091b8a890c69", "name": "a28d76a36a9c7182c26f091b8a890c69", "is_reserved": 0, "fusion_lat": 0.0}, {"type": "electric_scooter", "rental_uris": {"ios": "https://dc.lft.to/lastmile_qr_scan", "android": "https://dc.lft.to/lastmile_qr_scan"}, "lon": -77.0284375, "fusion_lon": 0.0, "is_disabled": 0, "lat": 38.931935333333335, "bike_id": "53566ca3ecda80b61a39b326f990a9fe", "name": "53566ca3ecda80b61a39b326f990a9fe", "is_reserved": 0, "fusion_lat": 0.0}, {"type": "electric_scooter", "rental_uris": {"ios": "https://dc.lft.to/lastmile_qr_scan", "android": "https://dc.lft.to/lastmile_qr_scan"}, "lon": -77.0420765, "fusion_lon": 0.0, "is_disabled": 0, "lat": 38.92318983333333, "bike_id": "d964a88d5c05edc50a38316cf7497c7e", "name": "d964a88d5c05edc50a38316cf7497c7e", "is_reserved": 0, "fusion_lat": 0.0}, {"type": "electric_scooter", "rental_uris": {"ios": "https://dc.lft.to/lastmile_qr_scan", "android": "https://dc.lft.to/lastmile_qr_scan"}, "lon": -77.03298633333333, "fusion_lon": 0.0, "is_disabled": 0, "lat": 38.956404166666665, "bike_id": "eecd81560186f7f4f412028d5241a31b", "name": "eecd81560186f7f4f412028d5241a31b", "is_reserved": 0, "fusion_lat": 0.0}, {"type": "electric_bike", "rental_uris": {"ios": "https://dc.lft.to/lastmile_qr_scan", "android": "https://dc.lft.to/lastmile_qr_scan"}, "lon": -77.02387616666667, "fusion_lon": 0.0, "is_disabled": 0, "lat": 38.96278783333333, "bike_id": "680809a2bd337cdd0ea0570388f5b13e", "name": "680809a2bd337cdd0ea0570388f5b13e", "is_reserved": 0, "fusion_lat": 0.0}, {"type": "electric_scooter", "rental_uris": {"ios": "https://dc.lft.to/lastmile_qr_scan", "android": "https://dc.lft.to/lastmile_qr_scan"}, "lon": -77.03805483333333, "fusion_lon": 0.0, "is_disabled": 0, "lat": 38.9206385, "bike_id": "e447bade51a2b5c18ac84d143156e4bb", "name": "e447bade51a2b5c18ac84d143156e4bb", "is_reserved": 0, "fusion_lat": 0.0}, {"type": "electric_scooter", "rental_uris": {"ios": "https://dc.lft.to/lastmile_qr_scan", "android": "https://dc.lft.to/lastmile_qr_scan"}, "lon": -77.03161483333334, "fusion_lon": 0.0, "is_disabled": 0, "lat": 38.915657333333336, "bike_id": "b1095155b171fd18e5eb10cd320a988a", "name": "b1095155b171fd18e5eb10cd320a988a", "is_reserved": 0, "fusion_lat": 0.0}, {"type": "electric_scooter", "rental_uris": {"ios": "https://dc.lft.to/lastmile_qr_scan", "android": "https://dc.lft.to/lastmile_qr_scan"}, "lon": -77.02404483333333, "fusion_lon": 0.0, "is_disabled": 0, "lat": 38.92897933333333, "bike_id": "f2c2730d1a822d1c67c7551e45d213d6", "name": "f2c2730d1a822d1c67c7551e45d213d6", "is_reserved": 0, "fusion_lat": 0.0}, {"type": "electric_scooter", "rental_uris": {"ios": "https://dc.lft.to/lastmile_qr_scan", "android": "https://dc.lft.to/lastmile_qr_scan"}, "lon": -77.03228666666666, "fusion_lon": 0.0, "is_disabled": 0, "lat": 38.914821, "bike_id": "6d557b00b2903c95720e08c60c3df5f7", "name": "6d557b00b2903c95720e08c60c3df5f7", "is_reserved": 0, "fusion_lat": 0.0}, {"type": "electric_scooter", "rental_uris": {"ios": "https://dc.lft.to/lastmile_qr_scan", "android": "https://dc.lft.to/lastmile_qr_scan"}, "lon": -77.00312616666666, "fusion_lon": 0.0, "is_disabled": 0, "lat": 38.8259335, "bike_id": "0c5f31058f3987217297fc3b543d6f9b", "name": "0c5f31058f3987217297fc3b543d6f9b", "is_reserved": 0, "fusion_lat": 0.0}, {"type": "electric_scooter", "rental_uris": {"ios": "https://dc.lft.to/lastmile_qr_scan", "android": "https://dc.lft.to/lastmile_qr_scan"}, "lon": -76.99705833333333, "fusion_lon": 0.0, "is_disabled": 0, "lat": 38.908433333333335, "bike_id": "051074f0bf2db104d879a6a3138fce76", "name": "051074f0bf2db104d879a6a3138fce76", "is_reserved": 0, "fusion_lat": 0.0}, {"type": "electric_scooter", "rental_uris": {"ios": "https://dc.lft.to/lastmile_qr_scan", "android": "https://dc.lft.to/lastmile_qr_scan"}, "lon": -77.028393, "fusion_lon": 0.0, "is_disabled": 0, "lat": 38.90278766666667, "bike_id": "244f92a3e0cbc7c5ca2e8db2960e1b36", "name": "244f92a3e0cbc7c5ca2e8db2960e1b36", "is_reserved": 0, "fusion_lat": 0.0}, {"type": "electric_bike", "rental_uris": {"ios": "https://dc.lft.to/lastmile_qr_scan", "android": "https://dc.lft.to/lastmile_qr_scan"}, "lon": -76.99344233333333, "fusion_lon": 0.0, "is_disabled": 0, "lat": 38.97229883333333, "bike_id": "bfa16b43c46114fbac9ef0e377a5c41a", "name": "bfa16b43c46114fbac9ef0e377a5c41a", "is_reserved": 0, "fusion_lat": 0.0}, {"type": "electric_scooter", "rental_uris": {"ios": "https://dc.lft.to/lastmile_qr_scan", "android": "https://dc.lft.to/lastmile_qr_scan"}, "lon": -76.995099, "fusion_lon": 0.0, "is_disabled": 0, "lat": 38.8836615, "bike_id": "7af4abb58c68719599eb731aa21cb5c0", "name": "7af4abb58c68719599eb731aa21cb5c0", "is_reserved": 0, "fusion_lat": 0.0}, {"type": "electric_scooter", "rental_uris": {"ios": "https://dc.lft.to/lastmile_qr_scan", "android": "https://dc.lft.to/lastmile_qr_scan"}, "lon": -77.04146533333333, "fusion_lon": 0.0, "is_disabled": 0, "lat": 38.92297966666667, "bike_id": "b87dc193643e2e26717b6756006cc27b", "name": "b87dc193643e2e26717b6756006cc27b", "is_reserved": 0, "fusion_lat": 0.0}, {"type": "electric_scooter", "rental_uris": {"ios": "https://dc.lft.to/lastmile_qr_scan", "android": "https://dc.lft.to/lastmile_qr_scan"}, "lon": -76.93304916666666, "fusion_lon": 0.0, "is_disabled": 0, "lat": 38.881362833333334, "bike_id": "90bc6dfa6685f35319091d46ad23f782", "name": "90bc6dfa6685f35319091d46ad23f782", "is_reserved": 0, "fusion_lat": 0.0}, {"type": "electric_scooter", "rental_uris": {"ios": "https://dc.lft.to/lastmile_qr_scan", "android": "https://dc.lft.to/lastmile_qr_scan"}, "lon": -77.03254816666667, "fusion_lon": 0.0, "is_disabled": 0, "lat": 38.93971066666667, "bike_id": "acc637cd11c12e7197a060cbfe06da84", "name": "acc637cd11c12e7197a060cbfe06da84", "is_reserved": 0, "fusion_lat": 0.0}, {"type": "electric_scooter", "rental_uris": {"ios": "https://dc.lft.to/lastmile_qr_scan", "android": "https://dc.lft.to/lastmile_qr_scan"}, "lon": -77.04526083333333, "fusion_lon": 0.0, "is_disabled": 0, "lat": 38.933211666666665, "bike_id": "8c60c343cb75f3b57526fc7df7d6c09d", "name": "8c60c343cb75f3b57526fc7df7d6c09d", "is_reserved": 0, "fusion_lat": 0.0}, {"type": "electric_scooter", "rental_uris": {"ios": "https://dc.lft.to/lastmile_qr_scan", "android": "https://dc.lft.to/lastmile_qr_scan"}, "lon": -77.00223133333333, "fusion_lon": 0.0, "is_disabled": 0, "lat": 38.88503033333333, "bike_id": "b435ecba2313580200ff5192f367bd65", "name": "b435ecba2313580200ff5192f367bd65", "is_reserved": 0, "fusion_lat": 0.0}, {"type": "electric_scooter", "rental_uris": {"ios": "https://dc.lft.to/lastmile_qr_scan", "android": "https://dc.lft.to/lastmile_qr_scan"}, "lon": -77.07273483333333, "fusion_lon": 0.0, "is_disabled": 0, "lat": 38.934868333333334, "bike_id": "ea60affd976319b5e6d3c667bf2342a0", "name": "ea60affd976319b5e6d3c667bf2342a0", "is_reserved": 0, "fusion_lat": 0.0}, {"type": "electric_bike", "rental_uris": {"ios": "https://dc.lft.to/lastmile_qr_scan", "android": "https://dc.lft.to/lastmile_qr_scan"}, "lon": -76.99776016666667, "fusion_lon": 0.0, "is_disabled": 0, "lat": 38.8374275, "bike_id": "8eb8a29f764edd7aff1c2dae2bb35e3c", "name": "8eb8a29f764edd7aff1c2dae2bb35e3c", "is_reserved": 0, "fusion_lat": 0.0}, {"type": "electric_scooter", "rental_uris": {"ios": "https://dc.lft.to/lastmile_qr_scan", "android": "https://dc.lft.to/lastmile_qr_scan"}, "lon": -77.0431305, "fusion_lon": 0.0, "is_disabled": 0, "lat": 38.90131616666667, "bike_id": "122d66fa5cd12d2d5bf58cb5359fce87", "name": "122d66fa5cd12d2d5bf58cb5359fce87", "is_reserved": 0, "fusion_lat": 0.0}, {"type": "electric_bike", "rental_uris": {"ios": "https://dc.lft.to/lastmile_qr_scan", "android": "https://dc.lft.to/lastmile_qr_scan"}, "lon": -76.99126516666666, "fusion_lon": 0.0, "is_disabled": 0, "lat": 38.846428833333334, "bike_id": "053220bab0f69191d6737952e817444b", "name": "053220bab0f69191d6737952e817444b", "is_reserved": 0, "fusion_lat": 0.0}, {"type": "electric_scooter", "rental_uris": {"ios": "https://dc.lft.to/lastmile_qr_scan", "android": "https://dc.lft.to/lastmile_qr_scan"}, "lon": -77.0366915, "fusion_lon": 0.0, "is_disabled": 0, "lat": 38.91733816666667, "bike_id": "36a0ab12590e67d73946ca8536657689", "name": "36a0ab12590e67d73946ca8536657689", "is_reserved": 0, "fusion_lat": 0.0}, {"type": "electric_scooter", "rental_uris": {"ios": "https://dc.lft.to/lastmile_qr_scan", "android": "https://dc.lft.to/lastmile_qr_scan"}, "lon": -77.02224083333333, "fusion_lon": 0.0, "is_disabled": 0, "lat": 38.8922095, "bike_id": "2c6aec3dc95d6caef534e91d2b65e4c0", "name": "2c6aec3dc95d6caef534e91d2b65e4c0", "is_reserved": 0, "fusion_lat": 0.0}, {"type": "electric_scooter", "rental_uris": {"ios": "https://dc.lft.to/lastmile_qr_scan", "android": "https://dc.lft.to/lastmile_qr_scan"}, "lon": -77.04190316666667, "fusion_lon": 0.0, "is_disabled": 0, "lat": 38.9181495, "bike_id": "f0bf196376759839eede33c190612470", "name": "f0bf196376759839eede33c190612470", "is_reserved": 0, "fusion_lat": 0.0}, {"type": "electric_scooter", "rental_uris": {"ios": "https://dc.lft.to/lastmile_qr_scan", "android": "https://dc.lft.to/lastmile_qr_scan"}, "lon": -77.02787566666667, "fusion_lon": 0.0, "is_disabled": 0, "lat": 38.930757, "bike_id": "12a2b29fe94252b55773bd674967a070", "name": "12a2b29fe94252b55773bd674967a070", "is_reserved": 0, "fusion_lat": 0.0}, {"type": "electric_scooter", "rental_uris": {"ios": "https://dc.lft.to/lastmile_qr_scan", "android": "https://dc.lft.to/lastmile_qr_scan"}, "lon": -77.03764183333334, "fusion_lon": 0.0, "is_disabled": 0, "lat": 38.92932616666667, "bike_id": "ada83b66fa2c258e44f61d46b8ef7547", "name": "ada83b66fa2c258e44f61d46b8ef7547", "is_reserved": 0, "fusion_lat": 0.0}, {"type": "electric_scooter", "rental_uris": {"ios": "https://dc.lft.to/lastmile_qr_scan", "android": "https://dc.lft.to/lastmile_qr_scan"}, "lon": -77.01967233333333, "fusion_lon": 0.0, "is_disabled": 0, "lat": 38.92998383333333, "bike_id": "90fce24cabab6300c9d535dfb253a6ba", "name": "90fce24cabab6300c9d535dfb253a6ba", "is_reserved": 0, "fusion_lat": 0.0}, {"type": "electric_scooter", "rental_uris": {"ios": "https://dc.lft.to/lastmile_qr_scan", "android": "https://dc.lft.to/lastmile_qr_scan"}, "lon": -77.02710733333333, "fusion_lon": 0.0, "is_disabled": 0, "lat": 38.9069285, "bike_id": "a516960d6e78b0b79b5747350494e577", "name": "a516960d6e78b0b79b5747350494e577", "is_reserved": 0, "fusion_lat": 0.0}, {"type": "electric_scooter", "rental_uris": {"ios": "https://dc.lft.to/lastmile_qr_scan", "android": "https://dc.lft.to/lastmile_qr_scan"}, "lon": -76.98180783333333, "fusion_lon": 0.0, "is_disabled": 0, "lat": 38.856806, "bike_id": "a6474adb347e83c343e98c0da229f5d7", "name": "a6474adb347e83c343e98c0da229f5d7", "is_reserved": 0, "fusion_lat": 0.0}, {"type": "electric_bike", "rental_uris": {"ios": "https://dc.lft.to/lastmile_qr_scan", "android": "https://dc.lft.to/lastmile_qr_scan"}, "lon": -77.0564625, "fusion_lon": 0.0, "is_disabled": 0, "lat": 38.936904166666665, "bike_id": "f249db89c796979fa9d5f4a75a7a296c", "name": "f249db89c796979fa9d5f4a75a7a296c", "is_reserved": 0, "fusion_lat": 0.0}, {"type": "electric_scooter", "rental_uris": {"ios": "https://dc.lft.to/lastmile_qr_scan", "android": "https://dc.lft.to/lastmile_qr_scan"}, "lon": -77.03868466666667, "fusion_lon": 0.0, "is_disabled": 0, "lat": 38.90631416666667, "bike_id": "b09db0ce35ef8a4ff7a859e81a967d5b", "name": "b09db0ce35ef8a4ff7a859e81a967d5b", "is_reserved": 0, "fusion_lat": 0.0}, {"type": "electric_bike", "rental_uris": {"ios": "https://dc.lft.to/lastmile_qr_scan", "android": "https://dc.lft.to/lastmile_qr_scan"}, "lon": -77.02621833333333, "fusion_lon": 0.0, "is_disabled": 0, "lat": 38.96930533333333, "bike_id": "c1ed34bfb24919726d351e28092d26d6", "name": "c1ed34bfb24919726d351e28092d26d6", "is_reserved": 0, "fusion_lat": 0.0}, {"type": "electric_scooter", "rental_uris": {"ios": "https://dc.lft.to/lastmile_qr_scan", "android": "https://dc.lft.to/lastmile_qr_scan"}, "lon": -76.9653115, "fusion_lon": 0.0, "is_disabled": 0, "lat": 38.876306, "bike_id": "474500b9f43cb0706fa58b0725eed98a", "name": "474500b9f43cb0706fa58b0725eed98a", "is_reserved": 0, "fusion_lat": 0.0}, {"type": "electric_scooter", "rental_uris": {"ios": "https://dc.lft.to/lastmile_qr_scan", "android": "https://dc.lft.to/lastmile_qr_scan"}, "lon": -77.044979, "fusion_lon": 0.0, "is_disabled": 0, "lat": 38.915931, "bike_id": "27b5f06b200ce33dc6da2443bcc3729b", "name": "27b5f06b200ce33dc6da2443bcc3729b", "is_reserved": 0, "fusion_lat": 0.0}, {"type": "electric_scooter", "rental_uris": {"ios": "https://dc.lft.to/lastmile_qr_scan", "android": "https://dc.lft.to/lastmile_qr_scan"}, "lon": -77.035253, "fusion_lon": 0.0, "is_disabled": 0, "lat": 38.918285166666664, "bike_id": "7dd9c48257a78c5e3269985b64b66c13", "name": "7dd9c48257a78c5e3269985b64b66c13", "is_reserved": 0, "fusion_lat": 0.0}, {"type": "electric_scooter", "rental_uris": {"ios": "https://dc.lft.to/lastmile_qr_scan", "android": "https://dc.lft.to/lastmile_qr_scan"}, "lon": -77.02291716666667, "fusion_lon": 0.0, "is_disabled": 0, "lat": 38.91442966666666, "bike_id": "ed20cf7a1b4f3efc5b5614f938009a73", "name": "ed20cf7a1b4f3efc5b5614f938009a73", "is_reserved": 0, "fusion_lat": 0.0}, {"type": "electric_bike", "rental_uris": {"ios": "https://dc.lft.to/lastmile_qr_scan", "android": "https://dc.lft.to/lastmile_qr_scan"}, "lon": -77.11800783333334, "fusion_lon": 0.0, "is_disabled": 0, "lat": 38.873737, "bike_id": "289bf2d1c6596ede8d4a9d531360a1b1", "name": "289bf2d1c6596ede8d4a9d531360a1b1", "is_reserved": 0, "fusion_lat": 0.0}, {"type": "electric_scooter", "rental_uris": {"ios": "https://dc.lft.to/lastmile_qr_scan", "android": "https://dc.lft.to/lastmile_qr_scan"}, "lon": -77.05493383333334, "fusion_lon": 0.0, "is_disabled": 0, "lat": 38.909470666666664, "bike_id": "305987416a75b8ca15d375d8a2a7f3c3", "name": "305987416a75b8ca15d375d8a2a7f3c3", "is_reserved": 0, "fusion_lat": 0.0}, {"type": "electric_scooter", "rental_uris": {"ios": "https://dc.lft.to/lastmile_qr_scan", "android": "https://dc.lft.to/lastmile_qr_scan"}, "lon": -76.965275, "fusion_lon": 0.0, "is_disabled": 0, "lat": 38.876309666666664, "bike_id": "1e5e52121504381ee5bc7a48c785cba6", "name": "1e5e52121504381ee5bc7a48c785cba6", "is_reserved": 0, "fusion_lat": 0.0}, {"type": "electric_scooter", "rental_uris": {"ios": "https://dc.lft.to/lastmile_qr_scan", "android": "https://dc.lft.to/lastmile_qr_scan"}, "lon": -77.020058, "fusion_lon": 0.0, "is_disabled": 0, "lat": 38.915636666666664, "bike_id": "4da284a4310dfb0d9daf1f84d8d8c065", "name": "4da284a4310dfb0d9daf1f84d8d8c065", "is_reserved": 0, "fusion_lat": 0.0}, {"type": "electric_scooter", "rental_uris": {"ios": "https://dc.lft.to/lastmile_qr_scan", "android": "https://dc.lft.to/lastmile_qr_scan"}, "lon": -77.0262615, "fusion_lon": 0.0, "is_disabled": 0, "lat": 38.89222383333333, "bike_id": "bede93295669c4a244092109c1ea2b18", "name": "bede93295669c4a244092109c1ea2b18", "is_reserved": 0, "fusion_lat": 0.0}, {"type": "electric_scooter", "rental_uris": {"ios": "https://dc.lft.to/lastmile_qr_scan", "android": "https://dc.lft.to/lastmile_qr_scan"}, "lon": -76.94999633333333, "fusion_lon": 0.0, "is_disabled": 0, "lat": 38.89393966666667, "bike_id": "32053d8caf3a9b0521b65b94a813ae22", "name": "32053d8caf3a9b0521b65b94a813ae22", "is_reserved": 0, "fusion_lat": 0.0}, {"type": "electric_scooter", "rental_uris": {"ios": "https://dc.lft.to/lastmile_qr_scan", "android": "https://dc.lft.to/lastmile_qr_scan"}, "lon": -77.05485516666667, "fusion_lon": 0.0, "is_disabled": 0, "lat": 38.90822083333333, "bike_id": "2cf8dc305a14920babdfe150d8c5c9b9", "name": "2cf8dc305a14920babdfe150d8c5c9b9", "is_reserved": 0, "fusion_lat": 0.0}, {"type": "electric_scooter", "rental_uris": {"ios": "https://dc.lft.to/lastmile_qr_scan", "android": "https://dc.lft.to/lastmile_qr_scan"}, "lon": -77.03841816666667, "fusion_lon": 0.0, "is_disabled": 0, "lat": 38.9175925, "bike_id": "0f047e529a8ff6e056d9f4b0f8552131", "name": "0f047e529a8ff6e056d9f4b0f8552131", "is_reserved": 0, "fusion_lat": 0.0}, {"type": "electric_scooter", "rental_uris": {"ios": "https://dc.lft.to/lastmile_qr_scan", "android": "https://dc.lft.to/lastmile_qr_scan"}, "lon": -77.04793583333333, "fusion_lon": 0.0, "is_disabled": 0, "lat": 38.899550833333336, "bike_id": "3d6260fd148f0326a20209d49f9f7b15", "name": "3d6260fd148f0326a20209d49f9f7b15", "is_reserved": 0, "fusion_lat": 0.0}, {"type": "electric_scooter", "rental_uris": {"ios": "https://dc.lft.to/lastmile_qr_scan", "android": "https://dc.lft.to/lastmile_qr_scan"}, "lon": -77.04030666666667, "fusion_lon": 0.0, "is_disabled": 0, "lat": 38.91806166666667, "bike_id": "52f94cd17988ad2e939d51c509923781", "name": "52f94cd17988ad2e939d51c509923781", "is_reserved": 0, "fusion_lat": 0.0}, {"type": "electric_scooter", "rental_uris": {"ios": "https://dc.lft.to/lastmile_qr_scan", "android": "https://dc.lft.to/lastmile_qr_scan"}, "lon": -77.031476, "fusion_lon": 0.0, "is_disabled": 0, "lat": 38.91111316666667, "bike_id": "f4c1d8338d7ae0ea747577e6e1c74bc9", "name": "f4c1d8338d7ae0ea747577e6e1c74bc9", "is_reserved": 0, "fusion_lat": 0.0}, {"type": "electric_scooter", "rental_uris": {"ios": "https://dc.lft.to/lastmile_qr_scan", "android": "https://dc.lft.to/lastmile_qr_scan"}, "lon": -77.05127866666666, "fusion_lon": 0.0, "is_disabled": 0, "lat": 38.92363916666667, "bike_id": "bdd7c6601b1e80ee7341e593af825dae", "name": "bdd7c6601b1e80ee7341e593af825dae", "is_reserved": 0, "fusion_lat": 0.0}, {"type": "electric_scooter", "rental_uris": {"ios": "https://dc.lft.to/lastmile_qr_scan", "android": "https://dc.lft.to/lastmile_qr_scan"}, "lon": -77.02192466666666, "fusion_lon": 0.0, "is_disabled": 0, "lat": 38.9062115, "bike_id": "77342ef3a9a9bf52ef0f966605b3e0d6", "name": "77342ef3a9a9bf52ef0f966605b3e0d6", "is_reserved": 0, "fusion_lat": 0.0}, {"type": "electric_scooter", "rental_uris": {"ios": "https://dc.lft.to/lastmile_qr_scan", "android": "https://dc.lft.to/lastmile_qr_scan"}, "lon": -77.00137516666666, "fusion_lon": 0.0, "is_disabled": 0, "lat": 38.907535, "bike_id": "5e840eacc5fc988443d8be2300d18dce", "name": "5e840eacc5fc988443d8be2300d18dce", "is_reserved": 0, "fusion_lat": 0.0}, {"type": "electric_scooter", "rental_uris": {"ios": "https://dc.lft.to/lastmile_qr_scan", "android": "https://dc.lft.to/lastmile_qr_scan"}, "lon": -77.042524, "fusion_lon": 0.0, "is_disabled": 0, "lat": 38.92201766666667, "bike_id": "037463b6d6c5f359c238f205350be2c6", "name": "037463b6d6c5f359c238f205350be2c6", "is_reserved": 0, "fusion_lat": 0.0}, {"type": "electric_scooter", "rental_uris": {"ios": "https://dc.lft.to/lastmile_qr_scan", "android": "https://dc.lft.to/lastmile_qr_scan"}, "lon": -77.05513116666667, "fusion_lon": 0.0, "is_disabled": 0, "lat": 38.944167, "bike_id": "83dd21cc639b66ee5138a927799e296d", "name": "83dd21cc639b66ee5138a927799e296d", "is_reserved": 0, "fusion_lat": 0.0}, {"type": "electric_bike", "rental_uris": {"ios": "https://dc.lft.to/lastmile_qr_scan", "android": "https://dc.lft.to/lastmile_qr_scan"}, "lon": -76.96111166666667, "fusion_lon": 0.0, "is_disabled": 0, "lat": 38.8519015, "bike_id": "3a7f03102ac8fb6fe809e83f5a812f3b", "name": "3a7f03102ac8fb6fe809e83f5a812f3b", "is_reserved": 0, "fusion_lat": 0.0}, {"type": "electric_scooter", "rental_uris": {"ios": "https://dc.lft.to/lastmile_qr_scan", "android": "https://dc.lft.to/lastmile_qr_scan"}, "lon": -77.03435416666666, "fusion_lon": 0.0, "is_disabled": 0, "lat": 38.907264833333336, "bike_id": "4d326916a9b471158656f6c7ff90aea7", "name": "4d326916a9b471158656f6c7ff90aea7", "is_reserved": 0, "fusion_lat": 0.0}, {"type": "electric_scooter", "rental_uris": {"ios": "https://dc.lft.to/lastmile_qr_scan", "android": "https://dc.lft.to/lastmile_qr_scan"}, "lon": -77.040281, "fusion_lon": 0.0, "is_disabled": 0, "lat": 38.91805633333333, "bike_id": "db0b7a5add706cfa149f033745415fba", "name": "db0b7a5add706cfa149f033745415fba", "is_reserved": 0, "fusion_lat": 0.0}, {"type": "electric_scooter", "rental_uris": {"ios": "https://dc.lft.to/lastmile_qr_scan", "android": "https://dc.lft.to/lastmile_qr_scan"}, "lon": -77.031931, "fusion_lon": 0.0, "is_disabled": 0, "lat": 38.914252, "bike_id": "85026c2dc9f2af24f5caab76d4fca131", "name": "85026c2dc9f2af24f5caab76d4fca131", "is_reserved": 0, "fusion_lat": 0.0}, {"type": "electric_scooter", "rental_uris": {"ios": "https://dc.lft.to/lastmile_qr_scan", "android": "https://dc.lft.to/lastmile_qr_scan"}, "lon": -77.03713916666666, "fusion_lon": 0.0, "is_disabled": 0, "lat": 38.92861583333333, "bike_id": "8da1237a76c6304adc8e342aec084d78", "name": "8da1237a76c6304adc8e342aec084d78", "is_reserved": 0, "fusion_lat": 0.0}, {"type": "electric_scooter", "rental_uris": {"ios": "https://dc.lft.to/lastmile_qr_scan", "android": "https://dc.lft.to/lastmile_qr_scan"}, "lon": -77.0235025, "fusion_lon": 0.0, "is_disabled": 0, "lat": 38.917805333333334, "bike_id": "19bd048f41bf709e9eb402c33a5c517a", "name": "19bd048f41bf709e9eb402c33a5c517a", "is_reserved": 0, "fusion_lat": 0.0}, {"type": "electric_bike", "rental_uris": {"ios": "https://dc.lft.to/lastmile_qr_scan", "android": "https://dc.lft.to/lastmile_qr_scan"}, "lon": -77.12039883333334, "fusion_lon": 0.0, "is_disabled": 0, "lat": 38.855198666666666, "bike_id": "aff7c2489a900851cc71a6fa4b4e15f3", "name": "aff7c2489a900851cc71a6fa4b4e15f3", "is_reserved": 0, "fusion_lat": 0.0}, {"type": "electric_scooter", "rental_uris": {"ios": "https://dc.lft.to/lastmile_qr_scan", "android": "https://dc.lft.to/lastmile_qr_scan"}, "lon": -77.03431933333333, "fusion_lon": 0.0, "is_disabled": 0, "lat": 38.922456833333335, "bike_id": "781fcc937e79b92fa55bb25c1e90b1a2", "name": "781fcc937e79b92fa55bb25c1e90b1a2", "is_reserved": 0, "fusion_lat": 0.0}, {"type": "electric_scooter", "rental_uris": {"ios": "https://dc.lft.to/lastmile_qr_scan", "android": "https://dc.lft.to/lastmile_qr_scan"}, "lon": -77.0221645, "fusion_lon": 0.0, "is_disabled": 0, "lat": 38.90881916666667, "bike_id": "25f05f75d91240958921c46c70c0bf3a", "name": "25f05f75d91240958921c46c70c0bf3a", "is_reserved": 0, "fusion_lat": 0.0}, {"type": "electric_scooter", "rental_uris": {"ios": "https://dc.lft.to/lastmile_qr_scan", "android": "https://dc.lft.to/lastmile_qr_scan"}, "lon": -77.03526033333333, "fusion_lon": 0.0, "is_disabled": 0, "lat": 38.918260833333335, "bike_id": "11cea5b220b36e72864f5dae31d6859f", "name": "11cea5b220b36e72864f5dae31d6859f", "is_reserved": 0, "fusion_lat": 0.0}, {"type": "electric_scooter", "rental_uris": {"ios": "https://dc.lft.to/lastmile_qr_scan", "android": "https://dc.lft.to/lastmile_qr_scan"}, "lon": -76.976666, "fusion_lon": 0.0, "is_disabled": 0, "lat": 38.8985875, "bike_id": "47444929c728aa4ee9b0cfa7394d16d2", "name": "47444929c728aa4ee9b0cfa7394d16d2", "is_reserved": 0, "fusion_lat": 0.0}, {"type": "electric_scooter", "rental_uris": {"ios": "https://dc.lft.to/lastmile_qr_scan", "android": "https://dc.lft.to/lastmile_qr_scan"}, "lon": -77.0315215, "fusion_lon": 0.0, "is_disabled": 0, "lat": 38.915613, "bike_id": "08f6ae1c80148a05e8ee2a488a39cb40", "name": "08f6ae1c80148a05e8ee2a488a39cb40", "is_reserved": 0, "fusion_lat": 0.0}, {"type": "electric_scooter", "rental_uris": {"ios": "https://dc.lft.to/lastmile_qr_scan", "android": "https://dc.lft.to/lastmile_qr_scan"}, "lon": -77.01944833333333, "fusion_lon": 0.0, "is_disabled": 0, "lat": 38.949266, "bike_id": "6d03090364f4673f9f6d1cbe65d2dcf1", "name": "6d03090364f4673f9f6d1cbe65d2dcf1", "is_reserved": 0, "fusion_lat": 0.0}, {"type": "electric_scooter", "rental_uris": {"ios": "https://dc.lft.to/lastmile_qr_scan", "android": "https://dc.lft.to/lastmile_qr_scan"}, "lon": -76.94185433333334, "fusion_lon": 0.0, "is_disabled": 0, "lat": 38.897578333333335, "bike_id": "d6ca96188377bf42678aff114151440e", "name": "d6ca96188377bf42678aff114151440e", "is_reserved": 0, "fusion_lat": 0.0}, {"type": "electric_scooter", "rental_uris": {"ios": "https://dc.lft.to/lastmile_qr_scan", "android": "https://dc.lft.to/lastmile_qr_scan"}, "lon": -77.04428916666667, "fusion_lon": 0.0, "is_disabled": 0, "lat": 38.932002833333335, "bike_id": "c726b6f03e92ed0c29d309d0fe704657", "name": "c726b6f03e92ed0c29d309d0fe704657", "is_reserved": 0, "fusion_lat": 0.0}, {"type": "electric_scooter", "rental_uris": {"ios": "https://dc.lft.to/lastmile_qr_scan", "android": "https://dc.lft.to/lastmile_qr_scan"}, "lon": -77.0314945, "fusion_lon": 0.0, "is_disabled": 0, "lat": 38.915621333333334, "bike_id": "c1aecdd584ac7e76f8cb4e28da9544d6", "name": "c1aecdd584ac7e76f8cb4e28da9544d6", "is_reserved": 0, "fusion_lat": 0.0}, {"type": "electric_bike", "rental_uris": {"ios": "https://dc.lft.to/lastmile_qr_scan", "android": "https://dc.lft.to/lastmile_qr_scan"}, "lon": -77.088089, "fusion_lon": 0.0, "is_disabled": 0, "lat": 38.862387, "bike_id": "17a8c7587675dc2bd41f21a69e6d5e2c", "name": "17a8c7587675dc2bd41f21a69e6d5e2c", "is_reserved": 0, "fusion_lat": 0.0}, {"type": "electric_scooter", "rental_uris": {"ios": "https://dc.lft.to/lastmile_qr_scan", "android": "https://dc.lft.to/lastmile_qr_scan"}, "lon": -77.03589816666667, "fusion_lon": 0.0, "is_disabled": 0, "lat": 38.933039666666666, "bike_id": "17ef79c023df63df0f484f01b8dc0ec2", "name": "17ef79c023df63df0f484f01b8dc0ec2", "is_reserved": 0, "fusion_lat": 0.0}, {"type": "electric_scooter", "rental_uris": {"ios": "https://dc.lft.to/lastmile_qr_scan", "android": "https://dc.lft.to/lastmile_qr_scan"}, "lon": -76.99407483333333, "fusion_lon": 0.0, "is_disabled": 0, "lat": 38.877962333333336, "bike_id": "17820ada38da1fea8c798f88d39b2ce2", "name": "17820ada38da1fea8c798f88d39b2ce2", "is_reserved": 0, "fusion_lat": 0.0}, {"type": "electric_scooter", "rental_uris": {"ios": "https://dc.lft.to/lastmile_qr_scan", "android": "https://dc.lft.to/lastmile_qr_scan"}, "lon": -77.02430416666667, "fusion_lon": 0.0, "is_disabled": 0, "lat": 38.920463833333336, "bike_id": "d36ba630f95ff6cb5fa74fa4b5c6b02c", "name": "d36ba630f95ff6cb5fa74fa4b5c6b02c", "is_reserved": 0, "fusion_lat": 0.0}, {"type": "electric_scooter", "rental_uris": {"ios": "https://dc.lft.to/lastmile_qr_scan", "android": "https://dc.lft.to/lastmile_qr_scan"}, "lon": -77.05020816666666, "fusion_lon": 0.0, "is_disabled": 0, "lat": 38.893784, "bike_id": "d1c3ae69fcfce7987c65a88368d20000", "name": "d1c3ae69fcfce7987c65a88368d20000", "is_reserved": 0, "fusion_lat": 0.0}, {"type": "electric_scooter", "rental_uris": {"ios": "https://dc.lft.to/lastmile_qr_scan", "android": "https://dc.lft.to/lastmile_qr_scan"}, "lon": -77.02592133333333, "fusion_lon": 0.0, "is_disabled": 0, "lat": 38.94200633333333, "bike_id": "d0ad164d9d26538ff51fa32ad5341055", "name": "d0ad164d9d26538ff51fa32ad5341055", "is_reserved": 0, "fusion_lat": 0.0}, {"type": "electric_bike", "rental_uris": {"ios": "https://dc.lft.to/lastmile_qr_scan", "android": "https://dc.lft.to/lastmile_qr_scan"}, "lon": -76.9879675, "fusion_lon": 0.0, "is_disabled": 0, "lat": 38.92207633333334, "bike_id": "f3400d1ff3f6949251884d24c3560c13", "name": "f3400d1ff3f6949251884d24c3560c13", "is_reserved": 0, "fusion_lat": 0.0}, {"type": "electric_bike", "rental_uris": {"ios": "https://dc.lft.to/lastmile_qr_scan", "android": "https://dc.lft.to/lastmile_qr_scan"}, "lon": -76.98842216666667, "fusion_lon": 0.0, "is_disabled": 0, "lat": 38.842731666666666, "bike_id": "08ef6cafebcb81c0041c43a08d05a491", "name": "08ef6cafebcb81c0041c43a08d05a491", "is_reserved": 0, "fusion_lat": 0.0}, {"type": "electric_scooter", "rental_uris": {"ios": "https://dc.lft.to/lastmile_qr_scan", "android": "https://dc.lft.to/lastmile_qr_scan"}, "lon": -77.04175033333334, "fusion_lon": 0.0, "is_disabled": 0, "lat": 38.90534566666667, "bike_id": "1a408f961edb5cd5b431be0c86bcd4c4", "name": "1a408f961edb5cd5b431be0c86bcd4c4", "is_reserved": 0, "fusion_lat": 0.0}, {"type": "electric_scooter", "rental_uris": {"ios": "https://dc.lft.to/lastmile_qr_scan", "android": "https://dc.lft.to/lastmile_qr_scan"}, "lon": -77.00375416666667, "fusion_lon": 0.0, "is_disabled": 0, "lat": 38.8826145, "bike_id": "89524a3220a9825e864334ebb85822b1", "name": "89524a3220a9825e864334ebb85822b1", "is_reserved": 0, "fusion_lat": 0.0}, {"type": "electric_scooter", "rental_uris": {"ios": "https://dc.lft.to/lastmile_qr_scan", "android": "https://dc.lft.to/lastmile_qr_scan"}, "lon": -76.95421733333333, "fusion_lon": 0.0, "is_disabled": 0, "lat": 38.8899335, "bike_id": "8634f008a008fe2557bcf3bf757e97c9", "name": "8634f008a008fe2557bcf3bf757e97c9", "is_reserved": 0, "fusion_lat": 0.0}, {"type": "electric_scooter", "rental_uris": {"ios": "https://dc.lft.to/lastmile_qr_scan", "android": "https://dc.lft.to/lastmile_qr_scan"}, "lon": -77.02149733333333, "fusion_lon": 0.0, "is_disabled": 0, "lat": 38.897666, "bike_id": "57311f6cd75808acfefa5ed3d2d6b743", "name": "57311f6cd75808acfefa5ed3d2d6b743", "is_reserved": 0, "fusion_lat": 0.0}, {"type": "electric_scooter", "rental_uris": {"ios": "https://dc.lft.to/lastmile_qr_scan", "android": "https://dc.lft.to/lastmile_qr_scan"}, "lon": -77.019391, "fusion_lon": 0.0, "is_disabled": 0, "lat": 38.94928616666667, "bike_id": "fa0107680cc6eec00c701db96190f3c9", "name": "fa0107680cc6eec00c701db96190f3c9", "is_reserved": 0, "fusion_lat": 0.0}, {"type": "electric_scooter", "rental_uris": {"ios": "https://dc.lft.to/lastmile_qr_scan", "android": "https://dc.lft.to/lastmile_qr_scan"}, "lon": -77.03842116666667, "fusion_lon": 0.0, "is_disabled": 0, "lat": 38.910915333333335, "bike_id": "1087909374039527a9d78c45025c1b7f", "name": "1087909374039527a9d78c45025c1b7f", "is_reserved": 0, "fusion_lat": 0.0}, {"type": "electric_scooter", "rental_uris": {"ios": "https://dc.lft.to/lastmile_qr_scan", "android": "https://dc.lft.to/lastmile_qr_scan"}, "lon": -77.03207633333334, "fusion_lon": 0.0, "is_disabled": 0, "lat": 38.909493499999996, "bike_id": "cbc85bf4697c83f607754d4c21208308", "name": "cbc85bf4697c83f607754d4c21208308", "is_reserved": 0, "fusion_lat": 0.0}, {"type": "electric_scooter", "rental_uris": {"ios": "https://dc.lft.to/lastmile_qr_scan", "android": "https://dc.lft.to/lastmile_qr_scan"}, "lon": -77.039248, "fusion_lon": 0.0, "is_disabled": 0, "lat": 38.921108833333335, "bike_id": "2c845870c0b2dce41db0cbd3dc5c4f2a", "name": "2c845870c0b2dce41db0cbd3dc5c4f2a", "is_reserved": 0, "fusion_lat": 0.0}, {"type": "electric_scooter", "rental_uris": {"ios": "https://dc.lft.to/lastmile_qr_scan", "android": "https://dc.lft.to/lastmile_qr_scan"}, "lon": -77.02809683333334, "fusion_lon": 0.0, "is_disabled": 0, "lat": 38.89934616666667, "bike_id": "7f533221d57303c39cde8eab8b09cff0", "name": "7f533221d57303c39cde8eab8b09cff0", "is_reserved": 0, "fusion_lat": 0.0}, {"type": "electric_scooter", "rental_uris": {"ios": "https://dc.lft.to/lastmile_qr_scan", "android": "https://dc.lft.to/lastmile_qr_scan"}, "lon": -76.98694566666667, "fusion_lon": 0.0, "is_disabled": 0, "lat": 38.8662565, "bike_id": "f13097b6536c6d9b5b855f29872d7716", "name": "f13097b6536c6d9b5b855f29872d7716", "is_reserved": 0, "fusion_lat": 0.0}, {"type": "electric_scooter", "rental_uris": {"ios": "https://dc.lft.to/lastmile_qr_scan", "android": "https://dc.lft.to/lastmile_qr_scan"}, "lon": -77.04141366666667, "fusion_lon": 0.0, "is_disabled": 0, "lat": 38.916838, "bike_id": "ccfffd4e74a7907f1144a408d6b45abe", "name": "ccfffd4e74a7907f1144a408d6b45abe", "is_reserved": 0, "fusion_lat": 0.0}, {"type": "electric_scooter", "rental_uris": {"ios": "https://dc.lft.to/lastmile_qr_scan", "android": "https://dc.lft.to/lastmile_qr_scan"}, "lon": -77.04352683333333, "fusion_lon": 0.0, "is_disabled": 0, "lat": 38.90522, "bike_id": "bde42e5dc6c711704807ca0d3e6f7a36", "name": "bde42e5dc6c711704807ca0d3e6f7a36", "is_reserved": 0, "fusion_lat": 0.0}, {"type": "electric_scooter", "rental_uris": {"ios": "https://dc.lft.to/lastmile_qr_scan", "android": "https://dc.lft.to/lastmile_qr_scan"}, "lon": -77.04173433333334, "fusion_lon": 0.0, "is_disabled": 0, "lat": 38.90535716666667, "bike_id": "3bc4bafb48bd4832afa406cc38c3e9ba", "name": "3bc4bafb48bd4832afa406cc38c3e9ba", "is_reserved": 0, "fusion_lat": 0.0}, {"type": "electric_scooter", "rental_uris": {"ios": "https://dc.lft.to/lastmile_qr_scan", "android": "https://dc.lft.to/lastmile_qr_scan"}, "lon": -77.039968, "fusion_lon": 0.0, "is_disabled": 0, "lat": 38.915637, "bike_id": "35a800d3e5490e09d23c583544541b67", "name": "35a800d3e5490e09d23c583544541b67", "is_reserved": 0, "fusion_lat": 0.0}, {"type": "electric_scooter", "rental_uris": {"ios": "https://dc.lft.to/lastmile_qr_scan", "android": "https://dc.lft.to/lastmile_qr_scan"}, "lon": -77.00212183333333, "fusion_lon": 0.0, "is_disabled": 0, "lat": 38.90075233333334, "bike_id": "1a4ac21909d223370ec16304facd70e6", "name": "1a4ac21909d223370ec16304facd70e6", "is_reserved": 0, "fusion_lat": 0.0}, {"type": "electric_scooter", "rental_uris": {"ios": "https://dc.lft.to/lastmile_qr_scan", "android": "https://dc.lft.to/lastmile_qr_scan"}, "lon": -77.04129533333334, "fusion_lon": 0.0, "is_disabled": 0, "lat": 38.92537183333334, "bike_id": "7d0f431a30737c2266d0679967888305", "name": "7d0f431a30737c2266d0679967888305", "is_reserved": 0, "fusion_lat": 0.0}, {"type": "electric_bike", "rental_uris": {"ios": "https://dc.lft.to/lastmile_qr_scan", "android": "https://dc.lft.to/lastmile_qr_scan"}, "lon": -76.9485875, "fusion_lon": 0.0, "is_disabled": 0, "lat": 38.8465215, "bike_id": "a48b63c19baa6df871d307ee97881b08", "name": "a48b63c19baa6df871d307ee97881b08", "is_reserved": 0, "fusion_lat": 0.0}, {"type": "electric_scooter", "rental_uris": {"ios": "https://dc.lft.to/lastmile_qr_scan", "android": "https://dc.lft.to/lastmile_qr_scan"}, "lon": -77.04004016666667, "fusion_lon": 0.0, "is_disabled": 0, "lat": 38.924337, "bike_id": "28d275554811d7aa2822be03f6fe8c1d", "name": "28d275554811d7aa2822be03f6fe8c1d", "is_reserved": 0, "fusion_lat": 0.0}, {"type": "electric_bike", "rental_uris": {"ios": "https://dc.lft.to/lastmile_qr_scan", "android": "https://dc.lft.to/lastmile_qr_scan"}, "lon": -77.12485333333333, "fusion_lon": 0.0, "is_disabled": 0, "lat": 38.853947166666664, "bike_id": "deaaae55013889c5d750513a9b66644c", "name": "deaaae55013889c5d750513a9b66644c", "is_reserved": 0, "fusion_lat": 0.0}, {"type": "electric_bike", "rental_uris": {"ios": "https://dc.lft.to/lastmile_qr_scan", "android": "https://dc.lft.to/lastmile_qr_scan"}, "lon": -77.02756433333333, "fusion_lon": 0.0, "is_disabled": 0, "lat": 38.904794, "bike_id": "f2e2469b9b8e2d258e47c702eb44ecac", "name": "f2e2469b9b8e2d258e47c702eb44ecac", "is_reserved": 0, "fusion_lat": 0.0}, {"type": "electric_scooter", "rental_uris": {"ios": "https://dc.lft.to/lastmile_qr_scan", "android": "https://dc.lft.to/lastmile_qr_scan"}, "lon": -77.03081483333334, "fusion_lon": 0.0, "is_disabled": 0, "lat": 38.9310545, "bike_id": "8e42510d9b3d9d2c88baa362da97fc5a", "name": "8e42510d9b3d9d2c88baa362da97fc5a", "is_reserved": 0, "fusion_lat": 0.0}, {"type": "electric_scooter", "rental_uris": {"ios": "https://dc.lft.to/lastmile_qr_scan", "android": "https://dc.lft.to/lastmile_qr_scan"}, "lon": -76.99521566666667, "fusion_lon": 0.0, "is_disabled": 0, "lat": 38.883724, "bike_id": "5b29abe7e855640818a746adfbd2d5b2", "name": "5b29abe7e855640818a746adfbd2d5b2", "is_reserved": 0, "fusion_lat": 0.0}, {"type": "electric_scooter", "rental_uris": {"ios": "https://dc.lft.to/lastmile_qr_scan", "android": "https://dc.lft.to/lastmile_qr_scan"}, "lon": -76.98179533333334, "fusion_lon": 0.0, "is_disabled": 0, "lat": 38.89579883333333, "bike_id": "214ef1a544cab98430db5627ad3e9d49", "name": "214ef1a544cab98430db5627ad3e9d49", "is_reserved": 0, "fusion_lat": 0.0}, {"type": "electric_scooter", "rental_uris": {"ios": "https://dc.lft.to/lastmile_qr_scan", "android": "https://dc.lft.to/lastmile_qr_scan"}, "lon": -77.03917516666667, "fusion_lon": 0.0, "is_disabled": 0, "lat": 38.90463616666667, "bike_id": "476cfa70fd75cf34e7b296185d804535", "name": "476cfa70fd75cf34e7b296185d804535", "is_reserved": 0, "fusion_lat": 0.0}, {"type": "electric_scooter", "rental_uris": {"ios": "https://dc.lft.to/lastmile_qr_scan", "android": "https://dc.lft.to/lastmile_qr_scan"}, "lon": -76.93176516666666, "fusion_lon": 0.0, "is_disabled": 0, "lat": 38.89885016666667, "bike_id": "7bc5cd85d7cbd16ff189fe2a787abbb1", "name": "7bc5cd85d7cbd16ff189fe2a787abbb1", "is_reserved": 0, "fusion_lat": 0.0}, {"type": "electric_scooter", "rental_uris": {"ios": "https://dc.lft.to/lastmile_qr_scan", "android": "https://dc.lft.to/lastmile_qr_scan"}, "lon": -76.99775316666667, "fusion_lon": 0.0, "is_disabled": 0, "lat": 38.84425616666667, "bike_id": "c9c52058ebe3ef34a417cdbb250bbcd4", "name": "c9c52058ebe3ef34a417cdbb250bbcd4", "is_reserved": 0, "fusion_lat": 0.0}, {"type": "electric_scooter", "rental_uris": {"ios": "https://dc.lft.to/lastmile_qr_scan", "android": "https://dc.lft.to/lastmile_qr_scan"}, "lon": -77.03009366666667, "fusion_lon": 0.0, "is_disabled": 0, "lat": 38.92248683333333, "bike_id": "5cb9d622e5c433aef88f44dbb49853d7", "name": "5cb9d622e5c433aef88f44dbb49853d7", "is_reserved": 0, "fusion_lat": 0.0}, {"type": "electric_scooter", "rental_uris": {"ios": "https://dc.lft.to/lastmile_qr_scan", "android": "https://dc.lft.to/lastmile_qr_scan"}, "lon": -77.02233183333334, "fusion_lon": 0.0, "is_disabled": 0, "lat": 38.961367333333335, "bike_id": "1dbb69301bddd37bd212fc4b40f9ad66", "name": "1dbb69301bddd37bd212fc4b40f9ad66", "is_reserved": 0, "fusion_lat": 0.0}, {"type": "electric_scooter", "rental_uris": {"ios": "https://dc.lft.to/lastmile_qr_scan", "android": "https://dc.lft.to/lastmile_qr_scan"}, "lon": -76.957569, "fusion_lon": 0.0, "is_disabled": 0, "lat": 38.8843, "bike_id": "f10ad2ebcfc57bb2d47633261ffd04fe", "name": "f10ad2ebcfc57bb2d47633261ffd04fe", "is_reserved": 0, "fusion_lat": 0.0}, {"type": "electric_scooter", "rental_uris": {"ios": "https://dc.lft.to/lastmile_qr_scan", "android": "https://dc.lft.to/lastmile_qr_scan"}, "lon": -77.0176485, "fusion_lon": 0.0, "is_disabled": 0, "lat": 38.92102233333333, "bike_id": "b79b816ecdf6d3bb986d6c2017f07285", "name": "b79b816ecdf6d3bb986d6c2017f07285", "is_reserved": 0, "fusion_lat": 0.0}, {"type": "electric_bike", "rental_uris": {"ios": "https://dc.lft.to/lastmile_qr_scan", "android": "https://dc.lft.to/lastmile_qr_scan"}, "lon": -76.97099416666667, "fusion_lon": 0.0, "is_disabled": 0, "lat": 38.85716566666667, "bike_id": "84c1ac94bf0634eafbdc25e278428721", "name": "84c1ac94bf0634eafbdc25e278428721", "is_reserved": 0, "fusion_lat": 0.0}, {"type": "electric_scooter", "rental_uris": {"ios": "https://dc.lft.to/lastmile_qr_scan", "android": "https://dc.lft.to/lastmile_qr_scan"}, "lon": -77.047717, "fusion_lon": 0.0, "is_disabled": 0, "lat": 38.91767633333333, "bike_id": "b27a76383be3265d748f70c4d51f62cb", "name": "b27a76383be3265d748f70c4d51f62cb", "is_reserved": 0, "fusion_lat": 0.0}, {"type": "electric_scooter", "rental_uris": {"ios": "https://dc.lft.to/lastmile_qr_scan", "android": "https://dc.lft.to/lastmile_qr_scan"}, "lon": -77.050233, "fusion_lon": 0.0, "is_disabled": 0, "lat": 38.89661, "bike_id": "0add604d4c599e485def87363f6cd27b", "name": "0add604d4c599e485def87363f6cd27b", "is_reserved": 0, "fusion_lat": 0.0}, {"type": "electric_scooter", "rental_uris": {"ios": "https://dc.lft.to/lastmile_qr_scan", "android": "https://dc.lft.to/lastmile_qr_scan"}, "lon": -77.02323933333334, "fusion_lon": 0.0, "is_disabled": 0, "lat": 38.916764, "bike_id": "fc3d7aed43dd1b884b6698c7cc1e9fd3", "name": "fc3d7aed43dd1b884b6698c7cc1e9fd3", "is_reserved": 0, "fusion_lat": 0.0}, {"type": "electric_scooter", "rental_uris": {"ios": "https://dc.lft.to/lastmile_qr_scan", "android": "https://dc.lft.to/lastmile_qr_scan"}, "lon": -77.0337315, "fusion_lon": 0.0, "is_disabled": 0, "lat": 38.89232366666667, "bike_id": "585c13745c7906c0d361f5ee707fc590", "name": "585c13745c7906c0d361f5ee707fc590", "is_reserved": 0, "fusion_lat": 0.0}, {"type": "electric_bike", "rental_uris": {"ios": "https://dc.lft.to/lastmile_qr_scan", "android": "https://dc.lft.to/lastmile_qr_scan"}, "lon": -76.937008, "fusion_lon": 0.0, "is_disabled": 0, "lat": 38.871495, "bike_id": "90a0caec4b5d992cee56a31eba4e2cc1", "name": "90a0caec4b5d992cee56a31eba4e2cc1", "is_reserved": 0, "fusion_lat": 0.0}, {"type": "electric_scooter", "rental_uris": {"ios": "https://dc.lft.to/lastmile_qr_scan", "android": "https://dc.lft.to/lastmile_qr_scan"}, "lon": -77.04334383333334, "fusion_lon": 0.0, "is_disabled": 0, "lat": 38.892254666666666, "bike_id": "cc96c4c2f4f5b18e729c34338f6d8dc5", "name": "cc96c4c2f4f5b18e729c34338f6d8dc5", "is_reserved": 0, "fusion_lat": 0.0}, {"type": "electric_scooter", "rental_uris": {"ios": "https://dc.lft.to/lastmile_qr_scan", "android": "https://dc.lft.to/lastmile_qr_scan"}, "lon": -77.03941816666666, "fusion_lon": 0.0, "is_disabled": 0, "lat": 38.902683833333334, "bike_id": "d545b80650171758878c17b8c56e6558", "name": "d545b80650171758878c17b8c56e6558", "is_reserved": 0, "fusion_lat": 0.0}, {"type": "electric_scooter", "rental_uris": {"ios": "https://dc.lft.to/lastmile_qr_scan", "android": "https://dc.lft.to/lastmile_qr_scan"}, "lon": -77.03457566666667, "fusion_lon": 0.0, "is_disabled": 0, "lat": 38.91823733333333, "bike_id": "483c3dabfc99c389731ead20d5e63771", "name": "483c3dabfc99c389731ead20d5e63771", "is_reserved": 0, "fusion_lat": 0.0}, {"type": "electric_scooter", "rental_uris": {"ios": "https://dc.lft.to/lastmile_qr_scan", "android": "https://dc.lft.to/lastmile_qr_scan"}, "lon": -77.02467966666667, "fusion_lon": 0.0, "is_disabled": 0, "lat": 38.918369166666665, "bike_id": "be0aec190062a11b8fbb8af452c13fb5", "name": "be0aec190062a11b8fbb8af452c13fb5", "is_reserved": 0, "fusion_lat": 0.0}, {"type": "electric_scooter", "rental_uris": {"ios": "https://dc.lft.to/lastmile_qr_scan", "android": "https://dc.lft.to/lastmile_qr_scan"}, "lon": -77.04177033333333, "fusion_lon": 0.0, "is_disabled": 0, "lat": 38.91807883333333, "bike_id": "8f70c41f3f6c9e167bda602c1139d627", "name": "8f70c41f3f6c9e167bda602c1139d627", "is_reserved": 0, "fusion_lat": 0.0}, {"type": "electric_scooter", "rental_uris": {"ios": "https://dc.lft.to/lastmile_qr_scan", "android": "https://dc.lft.to/lastmile_qr_scan"}, "lon": -77.00406866666667, "fusion_lon": 0.0, "is_disabled": 0, "lat": 38.8767245, "bike_id": "e5509481e0e2d3ddb0b97eac8a180744", "name": "e5509481e0e2d3ddb0b97eac8a180744", "is_reserved": 0, "fusion_lat": 0.0}, {"type": "electric_scooter", "rental_uris": {"ios": "https://dc.lft.to/lastmile_qr_scan", "android": "https://dc.lft.to/lastmile_qr_scan"}, "lon": -77.0270325, "fusion_lon": 0.0, "is_disabled": 0, "lat": 38.90450233333333, "bike_id": "8c750c7ebc1432092faa36abebe32619", "name": "8c750c7ebc1432092faa36abebe32619", "is_reserved": 0, "fusion_lat": 0.0}, {"type": "electric_scooter", "rental_uris": {"ios": "https://dc.lft.to/lastmile_qr_scan", "android": "https://dc.lft.to/lastmile_qr_scan"}, "lon": -77.03423366666667, "fusion_lon": 0.0, "is_disabled": 0, "lat": 38.928732, "bike_id": "9c8c834baed6653cb7b622210bcd0f6a", "name": "9c8c834baed6653cb7b622210bcd0f6a", "is_reserved": 0, "fusion_lat": 0.0}, {"type": "electric_scooter", "rental_uris": {"ios": "https://dc.lft.to/lastmile_qr_scan", "android": "https://dc.lft.to/lastmile_qr_scan"}, "lon": -77.031873, "fusion_lon": 0.0, "is_disabled": 0, "lat": 38.91223, "bike_id": "1e9dd65c8caa5a800099fedfc3b227ef", "name": "1e9dd65c8caa5a800099fedfc3b227ef", "is_reserved": 0, "fusion_lat": 0.0}, {"type": "electric_scooter", "rental_uris": {"ios": "https://dc.lft.to/lastmile_qr_scan", "android": "https://dc.lft.to/lastmile_qr_scan"}, "lon": -77.03268116666666, "fusion_lon": 0.0, "is_disabled": 0, "lat": 38.919881333333336, "bike_id": "eeb30099ad1baa19bd611e4a65d3f6cc", "name": "eeb30099ad1baa19bd611e4a65d3f6cc", "is_reserved": 0, "fusion_lat": 0.0}, {"type": "electric_bike", "rental_uris": {"ios": "https://dc.lft.to/lastmile_qr_scan", "android": "https://dc.lft.to/lastmile_qr_scan"}, "lon": -76.97199733333333, "fusion_lon": 0.0, "is_disabled": 0, "lat": 38.9177235, "bike_id": "7f7c2df369170f883fde1ecb3ca70811", "name": "7f7c2df369170f883fde1ecb3ca70811", "is_reserved": 0, "fusion_lat": 0.0}, {"type": "electric_scooter", "rental_uris": {"ios": "https://dc.lft.to/lastmile_qr_scan", "android": "https://dc.lft.to/lastmile_qr_scan"}, "lon": -77.0432535, "fusion_lon": 0.0, "is_disabled": 0, "lat": 38.892243, "bike_id": "ffc2c9eb6a93f756f883667c3ae6e369", "name": "ffc2c9eb6a93f756f883667c3ae6e369", "is_reserved": 0, "fusion_lat": 0.0}, {"type": "electric_scooter", "rental_uris": {"ios": "https://dc.lft.to/lastmile_qr_scan", "android": "https://dc.lft.to/lastmile_qr_scan"}, "lon": -77.02692266666666, "fusion_lon": 0.0, "is_disabled": 0, "lat": 38.90681633333333, "bike_id": "4d88482ab1a8ee0ea4be2c71415256d0", "name": "4d88482ab1a8ee0ea4be2c71415256d0", "is_reserved": 0, "fusion_lat": 0.0}, {"type": "electric_scooter", "rental_uris": {"ios": "https://dc.lft.to/lastmile_qr_scan", "android": "https://dc.lft.to/lastmile_qr_scan"}, "lon": -77.02191866666666, "fusion_lon": 0.0, "is_disabled": 0, "lat": 38.910617, "bike_id": "b15359a1b9fdd190ff318c2053cc3450", "name": "b15359a1b9fdd190ff318c2053cc3450", "is_reserved": 0, "fusion_lat": 0.0}, {"type": "electric_bike", "rental_uris": {"ios": "https://dc.lft.to/lastmile_qr_scan", "android": "https://dc.lft.to/lastmile_qr_scan"}, "lon": -76.97187233333334, "fusion_lon": 0.0, "is_disabled": 0, "lat": 38.91787433333333, "bike_id": "f75b33a264da64916e56bdc1f6989d0a", "name": "f75b33a264da64916e56bdc1f6989d0a", "is_reserved": 0, "fusion_lat": 0.0}, {"type": "electric_bike", "rental_uris": {"ios": "https://dc.lft.to/lastmile_qr_scan", "android": "https://dc.lft.to/lastmile_qr_scan"}, "lon": -77.131448, "fusion_lon": 0.0, "is_disabled": 0, "lat": 38.86168883333333, "bike_id": "1452bf2a5e5029a362101f3a6f5b784a", "name": "1452bf2a5e5029a362101f3a6f5b784a", "is_reserved": 0, "fusion_lat": 0.0}, {"type": "electric_bike", "rental_uris": {"ios": "https://dc.lft.to/lastmile_qr_scan", "android": "https://dc.lft.to/lastmile_qr_scan"}, "lon": -77.04175566666666, "fusion_lon": 0.0, "is_disabled": 0, "lat": 38.91704416666666, "bike_id": "f4638b6ce7bb92297fb9fde98346db58", "name": "f4638b6ce7bb92297fb9fde98346db58", "is_reserved": 0, "fusion_lat": 0.0}, {"type": "electric_scooter", "rental_uris": {"ios": "https://dc.lft.to/lastmile_qr_scan", "android": "https://dc.lft.to/lastmile_qr_scan"}, "lon": -77.03238283333333, "fusion_lon": 0.0, "is_disabled": 0, "lat": 38.928779666666664, "bike_id": "91ebcc06884ce99e9fab2d83283f6913", "name": "91ebcc06884ce99e9fab2d83283f6913", "is_reserved": 0, "fusion_lat": 0.0}, {"type": "electric_scooter", "rental_uris": {"ios": "https://dc.lft.to/lastmile_qr_scan", "android": "https://dc.lft.to/lastmile_qr_scan"}, "lon": -77.03139816666666, "fusion_lon": 0.0, "is_disabled": 0, "lat": 38.88749266666667, "bike_id": "621efdfa0ddcfbe5efc30f67dea56ce6", "name": "621efdfa0ddcfbe5efc30f67dea56ce6", "is_reserved": 0, "fusion_lat": 0.0}, {"type": "electric_scooter", "rental_uris": {"ios": "https://dc.lft.to/lastmile_qr_scan", "android": "https://dc.lft.to/lastmile_qr_scan"},