{"data": {"bikes": [{"lon": -77.0342575, "bike_id": "c2f2faac97e3065ab9b77e18123e3f56", "lat": 38.93351116666667, "fusion_lon": 0.0, "fusion_lat": 0.0, "type": "electric_scooter", "name": "c2f2faac97e3065ab9b77e18123e3f56", "is_disabled": 0, "rental_uris": {"ios": "https://dc.lft.to/lastmile_qr_scan", "android": "https://dc.lft.to/lastmile_qr_scan"}, "is_reserved": 0}, {"lon": -76.9364255, "bike_id": "ffc878a5c4d1c855643f63f317765326", "lat": 38.900609, "fusion_lon": 0.0, "fusion_lat": 0.0, "type": "electric_scooter", "name": "ffc878a5c4d1c855643f63f317765326", "is_disabled": 0, "rental_uris": {"ios": "https://dc.lft.to/lastmile_qr_scan", "android": "https://dc.lft.to/lastmile_qr_scan"}, "is_reserved": 0}, {"lon": -76.99929766666666, "bike_id": "77d727d61b14b21ccc58325e21cb8554", "lat": 38.84313016666667, "fusion_lon": 0.0, "fusion_lat": 0.0, "type": "electric_scooter", "name": "77d727d61b14b21ccc58325e21cb8554", "is_disabled": 0, "rental_uris": {"ios": "https://dc.lft.to/lastmile_qr_scan", "android": "https://dc.lft.to/lastmile_qr_scan"}, "is_reserved": 0}, {"lon": -77.0243825, "bike_id": "58657384f06682d4153282f9af6ba802", "lat": 38.937489, "fusion_lon": 0.0, "fusion_lat": 0.0, "type": "electric_scooter", "name": "58657384f06682d4153282f9af6ba802", "is_disabled": 0, "rental_uris": {"ios": "https://dc.lft.to/lastmile_qr_scan", "android": "https://dc.lft.to/lastmile_qr_scan"}, "is_reserved": 0}, {"lon": -76.9574865, "bike_id": "97d132fd14dfe83bf3b1d41c221053e4", "lat": 38.8842655, "fusion_lon": 0.0, "fusion_lat": 0.0, "type": "electric_scooter", "name": "97d132fd14dfe83bf3b1d41c221053e4", "is_disabled": 0, "rental_uris": {"ios": "https://dc.lft.to/lastmile_qr_scan", "android": "https://dc.lft.to/lastmile_qr_scan"}, "is_reserved": 0}, {"lon": -77.0329185, "bike_id": "aab7ac9478de5159e70b835e9d03bd7a", "lat": 38.95650966666667, "fusion_lon": 0.0, "fusion_lat": 0.0, "type": "electric_scooter", "name": "aab7ac9478de5159e70b835e9d03bd7a", "is_disabled": 0, "rental_uris": {"ios": "https://dc.lft.to/lastmile_qr_scan", "android": "https://dc.lft.to/lastmile_qr_scan"}, "is_reserved": 0}, {"lon": -77.040526, "bike_id": "3f7984fdaa3be2532e6657c2ba41545d", "lat": 38.889869833333336, "fusion_lon": 0.0, "fusion_lat": 0.0, "type": "electric_scooter", "name": "3f7984fdaa3be2532e6657c2ba41545d", "is_disabled": 0, "rental_uris": {"ios": "https://dc.lft.to/lastmile_qr_scan", "android": "https://dc.lft.to/lastmile_qr_scan"}, "is_reserved": 0}, {"lon": -76.93005633333334, "bike_id": "410e1450057d59bcbe7280ef462915fa", "lat": 38.896428666666665, "fusion_lon": 0.0, "fusion_lat": 0.0, "type": "electric_bike", "name": "410e1450057d59bcbe7280ef462915fa", "is_disabled": 0, "rental_uris": {"ios": "https://dc.lft.to/lastmile_qr_scan", "android": "https://dc.lft.to/lastmile_qr_scan"}, "is_reserved": 0}, {"lon": -76.87495883333334, "bike_id": "36238ef9bec65034226bb664c5e7a2f9", "lat": 38.99089383333333, "fusion_lon": 0.0, "fusion_lat": 0.0, "type": "electric_bike", "name": "36238ef9bec65034226bb664c5e7a2f9", "is_disabled": 0, "rental_uris": {"ios": "https://dc.lft.to/lastmile_qr_scan", "android": "https://dc.lft.to/lastmile_qr_scan"}, "is_reserved": 0}, {"lon": -77.03812433333333, "bike_id": "d1cd96898e369ff27a915da9fb028f70", "lat": 38.92064933333333, "fusion_lon": 0.0, "fusion_lat": 0.0, "type": "electric_scooter", "name": "d1cd96898e369ff27a915da9fb028f70", "is_disabled": 0, "rental_uris": {"ios": "https://dc.lft.to/lastmile_qr_scan", "android": "https://dc.lft.to/lastmile_qr_scan"}, "is_reserved": 0}, {"lon": -76.931748, "bike_id": "4cdbc67c93318394f748c2cc1774926c", "lat": 38.898824, "fusion_lon": 0.0, "fusion_lat": 0.0, "type": "electric_scooter", "name": "4cdbc67c93318394f748c2cc1774926c", "is_disabled": 0, "rental_uris": {"ios": "https://dc.lft.to/lastmile_qr_scan", "android": "https://dc.lft.to/lastmile_qr_scan"}, "is_reserved": 0}, {"lon": -77.03856933333333, "bike_id": "b12064157fd5543a916d1d6bab8d2a20", "lat": 38.918009166666664, "fusion_lon": 0.0, "fusion_lat": 0.0, "type": "electric_scooter", "name": "b12064157fd5543a916d1d6bab8d2a20", "is_disabled": 0, "rental_uris": {"ios": "https://dc.lft.to/lastmile_qr_scan", "android": "https://dc.lft.to/lastmile_qr_scan"}, "is_reserved": 0}, {"lon": -77.010205, "bike_id": "6d753c24ade2535549d1f2a0406bae5c", "lat": 38.908501333333334, "fusion_lon": 0.0, "fusion_lat": 0.0, "type": "electric_scooter", "name": "6d753c24ade2535549d1f2a0406bae5c", "is_disabled": 0, "rental_uris": {"ios": "https://dc.lft.to/lastmile_qr_scan", "android": "https://dc.lft.to/lastmile_qr_scan"}, "is_reserved": 0}, {"lon": -77.0208725, "bike_id": "f2fb84bfe7863ee7e7a1fa5c7d842df0", "lat": 38.929088666666665, "fusion_lon": 0.0, "fusion_lat": 0.0, "type": "electric_scooter", "name": "f2fb84bfe7863ee7e7a1fa5c7d842df0", "is_disabled": 0, "rental_uris": {"ios": "https://dc.lft.to/lastmile_qr_scan", "android": "https://dc.lft.to/lastmile_qr_scan"}, "is_reserved": 0}, {"lon": -77.00080433333333, "bike_id": "63f4c84d71b4a143fc3719c2ffc5e68c", "lat": 38.90832183333333, "fusion_lon": 0.0, "fusion_lat": 0.0, "type": "electric_scooter", "name": "63f4c84d71b4a143fc3719c2ffc5e68c", "is_disabled": 0, "rental_uris": {"ios": "https://dc.lft.to/lastmile_qr_scan", "android": "https://dc.lft.to/lastmile_qr_scan"}, "is_reserved": 0}, {"lon": -77.007432, "bike_id": "f86f09d01f9a4bc42f8fe3361dd93146", "lat": 38.925304833333335, "fusion_lon": 0.0, "fusion_lat": 0.0, "type": "electric_scooter", "name": "f86f09d01f9a4bc42f8fe3361dd93146", "is_disabled": 0, "rental_uris": {"ios": "https://dc.lft.to/lastmile_qr_scan", "android": "https://dc.lft.to/lastmile_qr_scan"}, "is_reserved": 0}, {"lon": -77.03689016666667, "bike_id": "c040584d84cc480c1ea5ff1f15bc180c", "lat": 38.91263516666667, "fusion_lon": 0.0, "fusion_lat": 0.0, "type": "electric_scooter", "name": "c040584d84cc480c1ea5ff1f15bc180c", "is_disabled": 0, "rental_uris": {"ios": "https://dc.lft.to/lastmile_qr_scan", "android": "https://dc.lft.to/lastmile_qr_scan"}, "is_reserved": 0}, {"lon": -77.03327866666666, "bike_id": "cd1103de02872c578df1cedb10369dc9", "lat": 38.960491166666664, "fusion_lon": 0.0, "fusion_lat": 0.0, "type": "electric_scooter", "name": "cd1103de02872c578df1cedb10369dc9", "is_disabled": 0, "rental_uris": {"ios": "https://dc.lft.to/lastmile_qr_scan", "android": "https://dc.lft.to/lastmile_qr_scan"}, "is_reserved": 0}, {"lon": -77.04601433333333, "bike_id": "3cc56499a9285958753a7f329b7ca7f0", "lat": 38.88380733333334, "fusion_lon": 0.0, "fusion_lat": 0.0, "type": "electric_scooter", "name": "3cc56499a9285958753a7f329b7ca7f0", "is_disabled": 0, "rental_uris": {"ios": "https://dc.lft.to/lastmile_qr_scan", "android": "https://dc.lft.to/lastmile_qr_scan"}, "is_reserved": 0}, {"lon": -77.02798016666667, "bike_id": "aab8d317a2ae0da301a11d25b1ec7b00", "lat": 38.954023, "fusion_lon": 0.0, "fusion_lat": 0.0, "type": "electric_scooter", "name": "aab8d317a2ae0da301a11d25b1ec7b00", "is_disabled": 0, "rental_uris": {"ios": "https://dc.lft.to/lastmile_qr_scan", "android": "https://dc.lft.to/lastmile_qr_scan"}, "is_reserved": 0}, {"lon": -77.029726, "bike_id": "520abd9b10030ea1df24627397ae6d69", "lat": 38.91721783333333, "fusion_lon": 0.0, "fusion_lat": 0.0, "type": "electric_scooter", "name": "520abd9b10030ea1df24627397ae6d69", "is_disabled": 0, "rental_uris": {"ios": "https://dc.lft.to/lastmile_qr_scan", "android": "https://dc.lft.to/lastmile_qr_scan"}, "is_reserved": 0}, {"lon": -77.02260083333333, "bike_id": "30d80c88d95626b0f7668148aaa58cdd", "lat": 38.928243333333334, "fusion_lon": 0.0, "fusion_lat": 0.0, "type": "electric_scooter", "name": "30d80c88d95626b0f7668148aaa58cdd", "is_disabled": 0, "rental_uris": {"ios": "https://dc.lft.to/lastmile_qr_scan", "android": "https://dc.lft.to/lastmile_qr_scan"}, "is_reserved": 0}, {"lon": -76.96384383333333, "bike_id": "7f01ecc0c2bcbd3033c277bda9b4223f", "lat": 38.95179433333333, "fusion_lon": 0.0, "fusion_lat": 0.0, "type": "electric_bike", "name": "7f01ecc0c2bcbd3033c277bda9b4223f", "is_disabled": 0, "rental_uris": {"ios": "https://dc.lft.to/lastmile_qr_scan", "android": "https://dc.lft.to/lastmile_qr_scan"}, "is_reserved": 0}, {"lon": -76.98157466666666, "bike_id": "702023be13578a0e53ceac60c6bbe2a9", "lat": 38.862032166666665, "fusion_lon": 0.0, "fusion_lat": 0.0, "type": "electric_scooter", "name": "702023be13578a0e53ceac60c6bbe2a9", "is_disabled": 0, "rental_uris": {"ios": "https://dc.lft.to/lastmile_qr_scan", "android": "https://dc.lft.to/lastmile_qr_scan"}, "is_reserved": 0}, {"lon": -77.05731466666667, "bike_id": "4608c6bf3153fc7262ef2e04cfd843d1", "lat": 38.92424616666667, "fusion_lon": 0.0, "fusion_lat": 0.0, "type": "electric_scooter", "name": "4608c6bf3153fc7262ef2e04cfd843d1", "is_disabled": 0, "rental_uris": {"ios": "https://dc.lft.to/lastmile_qr_scan", "android": "https://dc.lft.to/lastmile_qr_scan"}, "is_reserved": 0}, {"lon": -77.0071545, "bike_id": "32c6af89316cd0714b5d73e52736dfbe", "lat": 38.90590916666667, "fusion_lon": 0.0, "fusion_lat": 0.0, "type": "electric_scooter", "name": "32c6af89316cd0714b5d73e52736dfbe", "is_disabled": 0, "rental_uris": {"ios": "https://dc.lft.to/lastmile_qr_scan", "android": "https://dc.lft.to/lastmile_qr_scan"}, "is_reserved": 0}, {"lon": -77.2280055, "bike_id": "7df783e441d252be961961dee43f6263", "lat": 38.91015133333333, "fusion_lon": 0.0, "fusion_lat": 0.0, "type": "electric_bike", "name": "7df783e441d252be961961dee43f6263", "is_disabled": 0, "rental_uris": {"ios": "https://dc.lft.to/lastmile_qr_scan", "android": "https://dc.lft.to/lastmile_qr_scan"}, "is_reserved": 0}, {"lon": -77.02234733333333, "bike_id": "b29251fe05cd3b222efaae677c65b5bc", "lat": 38.908496, "fusion_lon": 0.0, "fusion_lat": 0.0, "type": "electric_scooter", "name": "b29251fe05cd3b222efaae677c65b5bc", "is_disabled": 0, "rental_uris": {"ios": "https://dc.lft.to/lastmile_qr_scan", "android": "https://dc.lft.to/lastmile_qr_scan"}, "is_reserved": 0}, {"lon": -77.0312665, "bike_id": "610c7cae5c6284f2858c1408bd715261", "lat": 38.988354, "fusion_lon": 0.0, "fusion_lat": 0.0, "type": "electric_scooter", "name": "610c7cae5c6284f2858c1408bd715261", "is_disabled": 0, "rental_uris": {"ios": "https://dc.lft.to/lastmile_qr_scan", "android": "https://dc.lft.to/lastmile_qr_scan"}, "is_reserved": 0}, {"lon": -77.01985066666667, "bike_id": "6a71485af20023c94d8dc94aa1a45bfd", "lat": 38.9110035, "fusion_lon": 0.0, "fusion_lat": 0.0, "type": "electric_scooter", "name": "6a71485af20023c94d8dc94aa1a45bfd", "is_disabled": 0, "rental_uris": {"ios": "https://dc.lft.to/lastmile_qr_scan", "android": "https://dc.lft.to/lastmile_qr_scan"}, "is_reserved": 0}, {"lon": -77.049828, "bike_id": "be1f2f88dd345bcd463fb5a5c93ca6dd", "lat": 39.06293216666667, "fusion_lon": 0.0, "fusion_lat": 0.0, "type": "electric_bike", "name": "be1f2f88dd345bcd463fb5a5c93ca6dd", "is_disabled": 0, "rental_uris": {"ios": "https://dc.lft.to/lastmile_qr_scan", "android": "https://dc.lft.to/lastmile_qr_scan"}, "is_reserved": 0}, {"lon": -77.0514905, "bike_id": "23f9e1058a1cf2f4e12faa0cc20a4014", "lat": 38.8986785, "fusion_lon": 0.0, "fusion_lat": 0.0, "type": "electric_scooter", "name": "23f9e1058a1cf2f4e12faa0cc20a4014", "is_disabled": 0, "rental_uris": {"ios": "https://dc.lft.to/lastmile_qr_scan", "android": "https://dc.lft.to/lastmile_qr_scan"}, "is_reserved": 0}, {"lon": -77.07662616666667, "bike_id": "fe3e6f5f07a1f4c62d934551d3a2d0be", "lat": 38.86259716666667, "fusion_lon": 0.0, "fusion_lat": 0.0, "type": "electric_bike", "name": "fe3e6f5f07a1f4c62d934551d3a2d0be", "is_disabled": 0, "rental_uris": {"ios": "https://dc.lft.to/lastmile_qr_scan", "android": "https://dc.lft.to/lastmile_qr_scan"}, "is_reserved": 0}, {"lon": -77.02439183333334, "bike_id": "9bc31cff8e5a6b50cc81d18c4c695e1e", "lat": 38.92261883333333, "fusion_lon": 0.0, "fusion_lat": 0.0, "type": "electric_scooter", "name": "9bc31cff8e5a6b50cc81d18c4c695e1e", "is_disabled": 0, "rental_uris": {"ios": "https://dc.lft.to/lastmile_qr_scan", "android": "https://dc.lft.to/lastmile_qr_scan"}, "is_reserved": 0}, {"lon": -76.99012766666667, "bike_id": "80a5b8f314786bd278afe1ca5c639d42", "lat": 38.946015833333334, "fusion_lon": 0.0, "fusion_lat": 0.0, "type": "electric_scooter", "name": "80a5b8f314786bd278afe1ca5c639d42", "is_disabled": 0, "rental_uris": {"ios": "https://dc.lft.to/lastmile_qr_scan", "android": "https://dc.lft.to/lastmile_qr_scan"}, "is_reserved": 0}, {"lon": -77.038644, "bike_id": "a3d2eb0abf6a31224cdfa9d04be69b60", "lat": 38.920100833333336, "fusion_lon": 0.0, "fusion_lat": 0.0, "type": "electric_scooter", "name": "a3d2eb0abf6a31224cdfa9d04be69b60", "is_disabled": 0, "rental_uris": {"ios": "https://dc.lft.to/lastmile_qr_scan", "android": "https://dc.lft.to/lastmile_qr_scan"}, "is_reserved": 0}, {"lon": -76.99366216666667, "bike_id": "ac4a693ab06921c750f9732226946888", "lat": 38.94022966666667, "fusion_lon": 0.0, "fusion_lat": 0.0, "type": "electric_scooter", "name": "ac4a693ab06921c750f9732226946888", "is_disabled": 0, "rental_uris": {"ios": "https://dc.lft.to/lastmile_qr_scan", "android": "https://dc.lft.to/lastmile_qr_scan"}, "is_reserved": 0}, {"lon": -76.99490733333333, "bike_id": "19699a4d431d6d3eab2f098b442cc7e6", "lat": 38.8795055, "fusion_lon": 0.0, "fusion_lat": 0.0, "type": "electric_scooter", "name": "19699a4d431d6d3eab2f098b442cc7e6", "is_disabled": 0, "rental_uris": {"ios": "https://dc.lft.to/lastmile_qr_scan", "android": "https://dc.lft.to/lastmile_qr_scan"}, "is_reserved": 0}, {"lon": -76.98981183333333, "bike_id": "1776e583038540a3eb82f751669c87d2", "lat": 38.85927083333333, "fusion_lon": 0.0, "fusion_lat": 0.0, "type": "electric_scooter", "name": "1776e583038540a3eb82f751669c87d2", "is_disabled": 0, "rental_uris": {"ios": "https://dc.lft.to/lastmile_qr_scan", "android": "https://dc.lft.to/lastmile_qr_scan"}, "is_reserved": 0}, {"lon": -77.03186683333334, "bike_id": "1b133776ba285e68689eae8d6ea30e72", "lat": 38.9192495, "fusion_lon": 0.0, "fusion_lat": 0.0, "type": "electric_scooter", "name": "1b133776ba285e68689eae8d6ea30e72", "is_disabled": 0, "rental_uris": {"ios": "https://dc.lft.to/lastmile_qr_scan", "android": "https://dc.lft.to/lastmile_qr_scan"}, "is_reserved": 0}, {"lon": -77.03659083333334, "bike_id": "5a258886b4d7e0f7ec5b83c78cb5526b", "lat": 38.929872833333334, "fusion_lon": 0.0, "fusion_lat": 0.0, "type": "electric_scooter", "name": "5a258886b4d7e0f7ec5b83c78cb5526b", "is_disabled": 0, "rental_uris": {"ios": "https://dc.lft.to/lastmile_qr_scan", "android": "https://dc.lft.to/lastmile_qr_scan"}, "is_reserved": 0}, {"lon": -76.99849616666667, "bike_id": "11c0eafb4066503fa6038d9f920e6ef5", "lat": 38.901019833333336, "fusion_lon": 0.0, "fusion_lat": 0.0, "type": "electric_scooter", "name": "11c0eafb4066503fa6038d9f920e6ef5", "is_disabled": 0, "rental_uris": {"ios": "https://dc.lft.to/lastmile_qr_scan", "android": "https://dc.lft.to/lastmile_qr_scan"}, "is_reserved": 0}, {"lon": -77.0260425, "bike_id": "033d98798451988c6e2da78e2f090054", "lat": 38.900105333333336, "fusion_lon": 0.0, "fusion_lat": 0.0, "type": "electric_scooter", "name": "033d98798451988c6e2da78e2f090054", "is_disabled": 0, "rental_uris": {"ios": "https://dc.lft.to/lastmile_qr_scan", "android": "https://dc.lft.to/lastmile_qr_scan"}, "is_reserved": 0}, {"lon": -77.02102683333334, "bike_id": "63c497c488b40988ada56d084d7e0fd2", "lat": 38.9055895, "fusion_lon": 0.0, "fusion_lat": 0.0, "type": "electric_scooter", "name": "63c497c488b40988ada56d084d7e0fd2", "is_disabled": 0, "rental_uris": {"ios": "https://dc.lft.to/lastmile_qr_scan", "android": "https://dc.lft.to/lastmile_qr_scan"}, "is_reserved": 0}, {"lon": -77.06416383333334, "bike_id": "5321697188b6fe69936338eaeab80e2f", "lat": 38.99333033333333, "fusion_lon": 0.0, "fusion_lat": 0.0, "type": "electric_scooter", "name": "5321697188b6fe69936338eaeab80e2f", "is_disabled": 0, "rental_uris": {"ios": "https://dc.lft.to/lastmile_qr_scan", "android": "https://dc.lft.to/lastmile_qr_scan"}, "is_reserved": 0}, {"lon": -77.05544016666667, "bike_id": "d264de12f049d7b890d0aab0fc19b97d", "lat": 38.93005633333333, "fusion_lon": 0.0, "fusion_lat": 0.0, "type": "electric_scooter", "name": "d264de12f049d7b890d0aab0fc19b97d", "is_disabled": 0, "rental_uris": {"ios": "https://dc.lft.to/lastmile_qr_scan", "android": "https://dc.lft.to/lastmile_qr_scan"}, "is_reserved": 0}, {"lon": -76.94158733333333, "bike_id": "07e0fae7f5afab314eeb9e89489f9021", "lat": 38.908293, "fusion_lon": 0.0, "fusion_lat": 0.0, "type": "electric_bike", "name": "07e0fae7f5afab314eeb9e89489f9021", "is_disabled": 0, "rental_uris": {"ios": "https://dc.lft.to/lastmile_qr_scan", "android": "https://dc.lft.to/lastmile_qr_scan"}, "is_reserved": 0}, {"lon": -76.965247, "bike_id": "384810eb2f3342750e0158c64ff2a51f", "lat": 38.876274, "fusion_lon": 0.0, "fusion_lat": 0.0, "type": "electric_scooter", "name": "384810eb2f3342750e0158c64ff2a51f", "is_disabled": 0, "rental_uris": {"ios": "https://dc.lft.to/lastmile_qr_scan", "android": "https://dc.lft.to/lastmile_qr_scan"}, "is_reserved": 0}, {"lon": -77.02320816666666, "bike_id": "3b8201258415cdf84770eec8ef6f6535", "lat": 38.92409383333333, "fusion_lon": 0.0, "fusion_lat": 0.0, "type": "electric_scooter", "name": "3b8201258415cdf84770eec8ef6f6535", "is_disabled": 0, "rental_uris": {"ios": "https://dc.lft.to/lastmile_qr_scan", "android": "https://dc.lft.to/lastmile_qr_scan"}, "is_reserved": 0}, {"lon": -77.036306, "bike_id": "a01098495f395c298030e14d4b4fad96", "lat": 38.944937, "fusion_lon": 0.0, "fusion_lat": 0.0, "type": "electric_scooter", "name": "a01098495f395c298030e14d4b4fad96", "is_disabled": 0, "rental_uris": {"ios": "https://dc.lft.to/lastmile_qr_scan", "android": "https://dc.lft.to/lastmile_qr_scan"}, "is_reserved": 0}, {"lon": -77.03515533333334, "bike_id": "8497020e2d580034a30a6ef868146736", "lat": 38.927178833333336, "fusion_lon": 0.0, "fusion_lat": 0.0, "type": "electric_scooter", "name": "8497020e2d580034a30a6ef868146736", "is_disabled": 0, "rental_uris": {"ios": "https://dc.lft.to/lastmile_qr_scan", "android": "https://dc.lft.to/lastmile_qr_scan"}, "is_reserved": 0}, {"lon": -76.98735883333333, "bike_id": "469647c1cc547a4c7446777f3506eb80", "lat": 38.8657535, "fusion_lon": 0.0, "fusion_lat": 0.0, "type": "electric_bike", "name": "469647c1cc547a4c7446777f3506eb80", "is_disabled": 0, "rental_uris": {"ios": "https://dc.lft.to/lastmile_qr_scan", "android": "https://dc.lft.to/lastmile_qr_scan"}, "is_reserved": 0}, {"lon": -77.03677866666666, "bike_id": "58f30f9dd8173896e2fa977506a82574", "lat": 38.939266, "fusion_lon": 0.0, "fusion_lat": 0.0, "type": "electric_scooter", "name": "58f30f9dd8173896e2fa977506a82574", "is_disabled": 0, "rental_uris": {"ios": "https://dc.lft.to/lastmile_qr_scan", "android": "https://dc.lft.to/lastmile_qr_scan"}, "is_reserved": 0}, {"lon": -76.97545233333334, "bike_id": "19106a5c545476c25b897ba1ef4c1217", "lat": 38.9031405, "fusion_lon": 0.0, "fusion_lat": 0.0, "type": "electric_scooter", "name": "19106a5c545476c25b897ba1ef4c1217", "is_disabled": 0, "rental_uris": {"ios": "https://dc.lft.to/lastmile_qr_scan", "android": "https://dc.lft.to/lastmile_qr_scan"}, "is_reserved": 0}, {"lon": -77.039548, "bike_id": "0a6aabaacb8fe657a7fc79c476ab1d49", "lat": 38.91561183333334, "fusion_lon": 0.0, "fusion_lat": 0.0, "type": "electric_scooter", "name": "0a6aabaacb8fe657a7fc79c476ab1d49", "is_disabled": 0, "rental_uris": {"ios": "https://dc.lft.to/lastmile_qr_scan", "android": "https://dc.lft.to/lastmile_qr_scan"}, "is_reserved": 0}, {"lon": -77.03805783333334, "bike_id": "5e300a555a7df64843f729605ee4be1d", "lat": 38.925747666666666, "fusion_lon": 0.0, "fusion_lat": 0.0, "type": "electric_scooter", "name": "5e300a555a7df64843f729605ee4be1d", "is_disabled": 0, "rental_uris": {"ios": "https://dc.lft.to/lastmile_qr_scan", "android": "https://dc.lft.to/lastmile_qr_scan"}, "is_reserved": 0}, {"lon": -77.0297675, "bike_id": "e8adb3104e73d6716a431d34d0e23e67", "lat": 38.93930683333333, "fusion_lon": 0.0, "fusion_lat": 0.0, "type": "electric_scooter", "name": "e8adb3104e73d6716a431d34d0e23e67", "is_disabled": 0, "rental_uris": {"ios": "https://dc.lft.to/lastmile_qr_scan", "android": "https://dc.lft.to/lastmile_qr_scan"}, "is_reserved": 0}, {"lon": -77.0057885, "bike_id": "6f644ae8ca2c9c56aa8421e8fac597a7", "lat": 38.83589583333333, "fusion_lon": 0.0, "fusion_lat": 0.0, "type": "electric_scooter", "name": "6f644ae8ca2c9c56aa8421e8fac597a7", "is_disabled": 0, "rental_uris": {"ios": "https://dc.lft.to/lastmile_qr_scan", "android": "https://dc.lft.to/lastmile_qr_scan"}, "is_reserved": 0}, {"lon": -77.03219333333334, "bike_id": "50e78957bc151f669523e2ceb2d39412", "lat": 38.919314, "fusion_lon": 0.0, "fusion_lat": 0.0, "type": "electric_scooter", "name": "50e78957bc151f669523e2ceb2d39412", "is_disabled": 0, "rental_uris": {"ios": "https://dc.lft.to/lastmile_qr_scan", "android": "https://dc.lft.to/lastmile_qr_scan"}, "is_reserved": 0}, {"lon": -76.9937555, "bike_id": "6de1d7fae4a6a66400be69cb8d944a08", "lat": 38.971849, "fusion_lon": 0.0, "fusion_lat": 0.0, "type": "electric_bike", "name": "6de1d7fae4a6a66400be69cb8d944a08", "is_disabled": 0, "rental_uris": {"ios": "https://dc.lft.to/lastmile_qr_scan", "android": "https://dc.lft.to/lastmile_qr_scan"}, "is_reserved": 0}, {"lon": -76.94879266666666, "bike_id": "23a28739c2e053f06ebda595de1a96bf", "lat": 38.8954645, "fusion_lon": 0.0, "fusion_lat": 0.0, "type": "electric_scooter", "name": "23a28739c2e053f06ebda595de1a96bf", "is_disabled": 0, "rental_uris": {"ios": "https://dc.lft.to/lastmile_qr_scan", "android": "https://dc.lft.to/lastmile_qr_scan"}, "is_reserved": 0}, {"lon": -77.04872733333333, "bike_id": "2d154b3c7d2404d05f7314954918bfe5", "lat": 38.892293, "fusion_lon": 0.0, "fusion_lat": 0.0, "type": "electric_scooter", "name": "2d154b3c7d2404d05f7314954918bfe5", "is_disabled": 0, "rental_uris": {"ios": "https://dc.lft.to/lastmile_qr_scan", "android": "https://dc.lft.to/lastmile_qr_scan"}, "is_reserved": 0}, {"lon": -77.0129895, "bike_id": "203c27697533694cc5ff51bf7cb1056b", "lat": 38.94324833333334, "fusion_lon": 0.0, "fusion_lat": 0.0, "type": "electric_scooter", "name": "203c27697533694cc5ff51bf7cb1056b", "is_disabled": 0, "rental_uris": {"ios": "https://dc.lft.to/lastmile_qr_scan", "android": "https://dc.lft.to/lastmile_qr_scan"}, "is_reserved": 0}, {"lon": -76.98099516666667, "bike_id": "db1e79a924a3baad1772b05bd83644cc", "lat": 38.905269833333335, "fusion_lon": 0.0, "fusion_lat": 0.0, "type": "electric_scooter", "name": "db1e79a924a3baad1772b05bd83644cc", "is_disabled": 0, "rental_uris": {"ios": "https://dc.lft.to/lastmile_qr_scan", "android": "https://dc.lft.to/lastmile_qr_scan"}, "is_reserved": 0}, {"lon": -77.0700415, "bike_id": "adbf4b56ca26b6390978a60afea195c2", "lat": 38.95852633333333, "fusion_lon": 0.0, "fusion_lat": 0.0, "type": "electric_scooter", "name": "adbf4b56ca26b6390978a60afea195c2", "is_disabled": 0, "rental_uris": {"ios": "https://dc.lft.to/lastmile_qr_scan", "android": "https://dc.lft.to/lastmile_qr_scan"}, "is_reserved": 0}, {"lon": -77.03671116666666, "bike_id": "489979673e0f4f874991047d9010b712", "lat": 38.923305, "fusion_lon": 0.0, "fusion_lat": 0.0, "type": "electric_scooter", "name": "489979673e0f4f874991047d9010b712", "is_disabled": 0, "rental_uris": {"ios": "https://dc.lft.to/lastmile_qr_scan", "android": "https://dc.lft.to/lastmile_qr_scan"}, "is_reserved": 0}, {"lon": -76.99945166666667, "bike_id": "95bc7e66f57effc4de21521eb0af951c", "lat": 38.898164666666666, "fusion_lon": 0.0, "fusion_lat": 0.0, "type": "electric_scooter", "name": "95bc7e66f57effc4de21521eb0af951c", "is_disabled": 0, "rental_uris": {"ios": "https://dc.lft.to/lastmile_qr_scan", "android": "https://dc.lft.to/lastmile_qr_scan"}, "is_reserved": 0}, {"lon": -77.039594, "bike_id": "dff4bbd066066071a0c2a4395cbeb90b", "lat": 38.90078666666667, "fusion_lon": 0.0, "fusion_lat": 0.0, "type": "electric_scooter", "name": "dff4bbd066066071a0c2a4395cbeb90b", "is_disabled": 0, "rental_uris": {"ios": "https://dc.lft.to/lastmile_qr_scan", "android": "https://dc.lft.to/lastmile_qr_scan"}, "is_reserved": 0}, {"lon": -77.040494, "bike_id": "860057d6a4dd50e9b154b549a69fd86a", "lat": 38.92877933333333, "fusion_lon": 0.0, "fusion_lat": 0.0, "type": "electric_scooter", "name": "860057d6a4dd50e9b154b549a69fd86a", "is_disabled": 0, "rental_uris": {"ios": "https://dc.lft.to/lastmile_qr_scan", "android": "https://dc.lft.to/lastmile_qr_scan"}, "is_reserved": 0}, {"lon": -77.0119845, "bike_id": "8dd94007e2bc4b1dd7ad02cf719e8033", "lat": 38.82403383333333, "fusion_lon": 0.0, "fusion_lat": 0.0, "type": "electric_bike", "name": "8dd94007e2bc4b1dd7ad02cf719e8033", "is_disabled": 0, "rental_uris": {"ios": "https://dc.lft.to/lastmile_qr_scan", "android": "https://dc.lft.to/lastmile_qr_scan"}, "is_reserved": 0}, {"lon": -77.02653, "bike_id": "ec8d4e5e53334228cd99600378dcc5aa", "lat": 38.88114933333333, "fusion_lon": 0.0, "fusion_lat": 0.0, "type": "electric_scooter", "name": "ec8d4e5e53334228cd99600378dcc5aa", "is_disabled": 0, "rental_uris": {"ios": "https://dc.lft.to/lastmile_qr_scan", "android": "https://dc.lft.to/lastmile_qr_scan"}, "is_reserved": 0}, {"lon": -77.0321825, "bike_id": "c4f48b952eeddffb7c3ff29ef92b26c5", "lat": 38.907291666666666, "fusion_lon": 0.0, "fusion_lat": 0.0, "type": "electric_scooter", "name": "c4f48b952eeddffb7c3ff29ef92b26c5", "is_disabled": 0, "rental_uris": {"ios": "https://dc.lft.to/lastmile_qr_scan", "android": "https://dc.lft.to/lastmile_qr_scan"}, "is_reserved": 0}, {"lon": -77.04596466666666, "bike_id": "fe52d66fde7f1266316c72ee471134a3", "lat": 38.9135755, "fusion_lon": 0.0, "fusion_lat": 0.0, "type": "electric_scooter", "name": "fe52d66fde7f1266316c72ee471134a3", "is_disabled": 0, "rental_uris": {"ios": "https://dc.lft.to/lastmile_qr_scan", "android": "https://dc.lft.to/lastmile_qr_scan"}, "is_reserved": 0}, {"lon": -77.03178066666666, "bike_id": "f8e7410362697ad9cb379e97495ee71a", "lat": 38.89753133333333, "fusion_lon": 0.0, "fusion_lat": 0.0, "type": "electric_scooter", "name": "f8e7410362697ad9cb379e97495ee71a", "is_disabled": 0, "rental_uris": {"ios": "https://dc.lft.to/lastmile_qr_scan", "android": "https://dc.lft.to/lastmile_qr_scan"}, "is_reserved": 0}, {"lon": -77.02312716666667, "bike_id": "091c631afd99f11d7d30e7eefef62389", "lat": 38.89484216666666, "fusion_lon": 0.0, "fusion_lat": 0.0, "type": "electric_scooter", "name": "091c631afd99f11d7d30e7eefef62389", "is_disabled": 0, "rental_uris": {"ios": "https://dc.lft.to/lastmile_qr_scan", "android": "https://dc.lft.to/lastmile_qr_scan"}, "is_reserved": 0}, {"lon": -77.00045533333333, "bike_id": "58e61acedd96bdfff21e752a6fea7354", "lat": 38.923967833333336, "fusion_lon": 0.0, "fusion_lat": 0.0, "type": "electric_scooter", "name": "58e61acedd96bdfff21e752a6fea7354", "is_disabled": 0, "rental_uris": {"ios": "https://dc.lft.to/lastmile_qr_scan", "android": "https://dc.lft.to/lastmile_qr_scan"}, "is_reserved": 0}, {"lon": -77.03626483333333, "bike_id": "ea075739f3ff85df6bdad7cf8125cb45", "lat": 38.93288016666666, "fusion_lon": 0.0, "fusion_lat": 0.0, "type": "electric_bike", "name": "ea075739f3ff85df6bdad7cf8125cb45", "is_disabled": 0, "rental_uris": {"ios": "https://dc.lft.to/lastmile_qr_scan", "android": "https://dc.lft.to/lastmile_qr_scan"}, "is_reserved": 0}, {"lon": -77.047689, "bike_id": "af7c8baedb61b2e4ecb6e87065ad2bb1", "lat": 38.91764233333333, "fusion_lon": 0.0, "fusion_lat": 0.0, "type": "electric_scooter", "name": "af7c8baedb61b2e4ecb6e87065ad2bb1", "is_disabled": 0, "rental_uris": {"ios": "https://dc.lft.to/lastmile_qr_scan", "android": "https://dc.lft.to/lastmile_qr_scan"}, "is_reserved": 0}, {"lon": -77.11708833333333, "bike_id": "1033b746505c5af8c666ad0cc0c87a92", "lat": 38.86744266666667, "fusion_lon": 0.0, "fusion_lat": 0.0, "type": "electric_bike", "name": "1033b746505c5af8c666ad0cc0c87a92", "is_disabled": 0, "rental_uris": {"ios": "https://dc.lft.to/lastmile_qr_scan", "android": "https://dc.lft.to/lastmile_qr_scan"}, "is_reserved": 0}, {"lon": -77.0344425, "bike_id": "b00977e971ccfbd3f1e787c6ef4d50c7", "lat": 38.92737783333333, "fusion_lon": 0.0, "fusion_lat": 0.0, "type": "electric_scooter", "name": "b00977e971ccfbd3f1e787c6ef4d50c7", "is_disabled": 0, "rental_uris": {"ios": "https://dc.lft.to/lastmile_qr_scan", "android": "https://dc.lft.to/lastmile_qr_scan"}, "is_reserved": 0}, {"lon": -76.985277, "bike_id": "0a38d51cebaa6e73383b0df27f349c1a", "lat": 38.904596833333336, "fusion_lon": 0.0, "fusion_lat": 0.0, "type": "electric_scooter", "name": "0a38d51cebaa6e73383b0df27f349c1a", "is_disabled": 0, "rental_uris": {"ios": "https://dc.lft.to/lastmile_qr_scan", "android": "https://dc.lft.to/lastmile_qr_scan"}, "is_reserved": 0}, {"lon": -77.03224516666667, "bike_id": "a5101b3809b9df763a366df4c0b1a493", "lat": 38.91922316666667, "fusion_lon": 0.0, "fusion_lat": 0.0, "type": "electric_scooter", "name": "a5101b3809b9df763a366df4c0b1a493", "is_disabled": 0, "rental_uris": {"ios": "https://dc.lft.to/lastmile_qr_scan", "android": "https://dc.lft.to/lastmile_qr_scan"}, "is_reserved": 0}, {"lon": -76.95748566666667, "bike_id": "4976a3aafb40ac2eab2603ee747d651d", "lat": 38.8842635, "fusion_lon": 0.0, "fusion_lat": 0.0, "type": "electric_scooter", "name": "4976a3aafb40ac2eab2603ee747d651d", "is_disabled": 0, "rental_uris": {"ios": "https://dc.lft.to/lastmile_qr_scan", "android": "https://dc.lft.to/lastmile_qr_scan"}, "is_reserved": 0}, {"lon": -77.003341, "bike_id": "166c3e7ae9213524166ed8a63d8ac777", "lat": 38.89186566666667, "fusion_lon": 0.0, "fusion_lat": 0.0, "type": "electric_scooter", "name": "166c3e7ae9213524166ed8a63d8ac777", "is_disabled": 0, "rental_uris": {"ios": "https://dc.lft.to/lastmile_qr_scan", "android": "https://dc.lft.to/lastmile_qr_scan"}, "is_reserved": 0}, {"lon": -77.00151233333334, "bike_id": "80d38832537f07346d7ab102b8c4cfe8", "lat": 38.91078666666667, "fusion_lon": 0.0, "fusion_lat": 0.0, "type": "electric_scooter", "name": "80d38832537f07346d7ab102b8c4cfe8", "is_disabled": 0, "rental_uris": {"ios": "https://dc.lft.to/lastmile_qr_scan", "android": "https://dc.lft.to/lastmile_qr_scan"}, "is_reserved": 0}, {"lon": -77.02359966666667, "bike_id": "15db20733449bcdca91b4e84d0668453", "lat": 38.922244, "fusion_lon": 0.0, "fusion_lat": 0.0, "type": "electric_scooter", "name": "15db20733449bcdca91b4e84d0668453", "is_disabled": 0, "rental_uris": {"ios": "https://dc.lft.to/lastmile_qr_scan", "android": "https://dc.lft.to/lastmile_qr_scan"}, "is_reserved": 0}, {"lon": -77.02263783333333, "bike_id": "6dd401861e79e29df781174e5d8c589a", "lat": 38.912663333333334, "fusion_lon": 0.0, "fusion_lat": 0.0, "type": "electric_scooter", "name": "6dd401861e79e29df781174e5d8c589a", "is_disabled": 0, "rental_uris": {"ios": "https://dc.lft.to/lastmile_qr_scan", "android": "https://dc.lft.to/lastmile_qr_scan"}, "is_reserved": 0}, {"lon": -77.03809233333334, "bike_id": "a63ed21668e9cf395a462ed1f0d2ba3a", "lat": 38.920703, "fusion_lon": 0.0, "fusion_lat": 0.0, "type": "electric_scooter", "name": "a63ed21668e9cf395a462ed1f0d2ba3a", "is_disabled": 0, "rental_uris": {"ios": "https://dc.lft.to/lastmile_qr_scan", "android": "https://dc.lft.to/lastmile_qr_scan"}, "is_reserved": 0}, {"lon": -77.08188783333334, "bike_id": "2d50fc81ff10bebf9f77a60af5eb8d82", "lat": 38.922116, "fusion_lon": 0.0, "fusion_lat": 0.0, "type": "electric_bike", "name": "2d50fc81ff10bebf9f77a60af5eb8d82", "is_disabled": 0, "rental_uris": {"ios": "https://dc.lft.to/lastmile_qr_scan", "android": "https://dc.lft.to/lastmile_qr_scan"}, "is_reserved": 0}, {"lon": -77.03214933333334, "bike_id": "8e261ea6097239f96cc38d9d71edd5d0", "lat": 38.91709016666667, "fusion_lon": 0.0, "fusion_lat": 0.0, "type": "electric_scooter", "name": "8e261ea6097239f96cc38d9d71edd5d0", "is_disabled": 0, "rental_uris": {"ios": "https://dc.lft.to/lastmile_qr_scan", "android": "https://dc.lft.to/lastmile_qr_scan"}, "is_reserved": 0}, {"lon": -77.00582166666666, "bike_id": "401138a8c1f4061beea3c358fce05c09", "lat": 38.87481783333333, "fusion_lon": 0.0, "fusion_lat": 0.0, "type": "electric_scooter", "name": "401138a8c1f4061beea3c358fce05c09", "is_disabled": 0, "rental_uris": {"ios": "https://dc.lft.to/lastmile_qr_scan", "android": "https://dc.lft.to/lastmile_qr_scan"}, "is_reserved": 0}, {"lon": -77.04122816666667, "bike_id": "b12bc7b8698b3c4568c07e4e3bd92d7f", "lat": 38.94406766666667, "fusion_lon": 0.0, "fusion_lat": 0.0, "type": "electric_bike", "name": "b12bc7b8698b3c4568c07e4e3bd92d7f", "is_disabled": 0, "rental_uris": {"ios": "https://dc.lft.to/lastmile_qr_scan", "android": "https://dc.lft.to/lastmile_qr_scan"}, "is_reserved": 0}, {"lon": -77.04003966666667, "bike_id": "bf788946bc34b49b7a0ba209e6784254", "lat": 38.933007333333336, "fusion_lon": 0.0, "fusion_lat": 0.0, "type": "electric_scooter", "name": "bf788946bc34b49b7a0ba209e6784254", "is_disabled": 0, "rental_uris": {"ios": "https://dc.lft.to/lastmile_qr_scan", "android": "https://dc.lft.to/lastmile_qr_scan"}, "is_reserved": 0}, {"lon": -77.01657816666666, "bike_id": "2daaf7d76d6f15425744e968c94bcb80", "lat": 38.881231166666666, "fusion_lon": 0.0, "fusion_lat": 0.0, "type": "electric_scooter", "name": "2daaf7d76d6f15425744e968c94bcb80", "is_disabled": 0, "rental_uris": {"ios": "https://dc.lft.to/lastmile_qr_scan", "android": "https://dc.lft.to/lastmile_qr_scan"}, "is_reserved": 0}, {"lon": -77.03326433333334, "bike_id": "cf996874980e1f4325dbc8a1ca6d2bff", "lat": 38.915506666666666, "fusion_lon": 0.0, "fusion_lat": 0.0, "type": "electric_scooter", "name": "cf996874980e1f4325dbc8a1ca6d2bff", "is_disabled": 0, "rental_uris": {"ios": "https://dc.lft.to/lastmile_qr_scan", "android": "https://dc.lft.to/lastmile_qr_scan"}, "is_reserved": 0}, {"lon": -76.95004333333333, "bike_id": "51d0e0de7e4905db2768a97be514ffe4", "lat": 38.89380933333333, "fusion_lon": 0.0, "fusion_lat": 0.0, "type": "electric_scooter", "name": "51d0e0de7e4905db2768a97be514ffe4", "is_disabled": 0, "rental_uris": {"ios": "https://dc.lft.to/lastmile_qr_scan", "android": "https://dc.lft.to/lastmile_qr_scan"}, "is_reserved": 0}, {"lon": -77.01564483333334, "bike_id": "84e9da258a0cf0e41576d79a2c45f9de", "lat": 38.883174333333336, "fusion_lon": 0.0, "fusion_lat": 0.0, "type": "electric_scooter", "name": "84e9da258a0cf0e41576d79a2c45f9de", "is_disabled": 0, "rental_uris": {"ios": "https://dc.lft.to/lastmile_qr_scan", "android": "https://dc.lft.to/lastmile_qr_scan"}, "is_reserved": 0}, {"lon": -77.03262133333334, "bike_id": "a3a76465d648d90b29be242eb9889ba6", "lat": 38.937735333333336, "fusion_lon": 0.0, "fusion_lat": 0.0, "type": "electric_scooter", "name": "a3a76465d648d90b29be242eb9889ba6", "is_disabled": 0, "rental_uris": {"ios": "https://dc.lft.to/lastmile_qr_scan", "android": "https://dc.lft.to/lastmile_qr_scan"}, "is_reserved": 0}, {"lon": -77.0109085, "bike_id": "a1f79e8dd10b65a09d3f384a102fef9a", "lat": 38.908655833333334, "fusion_lon": 0.0, "fusion_lat": 0.0, "type": "electric_scooter", "name": "a1f79e8dd10b65a09d3f384a102fef9a", "is_disabled": 0, "rental_uris": {"ios": "https://dc.lft.to/lastmile_qr_scan", "android": "https://dc.lft.to/lastmile_qr_scan"}, "is_reserved": 0}, {"lon": -77.0143805, "bike_id": "e889afd99d23e97f51f6df0cc3df1f2b", "lat": 38.905393, "fusion_lon": 0.0, "fusion_lat": 0.0, "type": "electric_scooter", "name": "e889afd99d23e97f51f6df0cc3df1f2b", "is_disabled": 0, "rental_uris": {"ios": "https://dc.lft.to/lastmile_qr_scan", "android": "https://dc.lft.to/lastmile_qr_scan"}, "is_reserved": 0}, {"lon": -77.03249416666667, "bike_id": "b2effa156697e213971496be820511c5", "lat": 38.931323666666664, "fusion_lon": 0.0, "fusion_lat": 0.0, "type": "electric_scooter", "name": "b2effa156697e213971496be820511c5", "is_disabled": 0, "rental_uris": {"ios": "https://dc.lft.to/lastmile_qr_scan", "android": "https://dc.lft.to/lastmile_qr_scan"}, "is_reserved": 0}, {"lon": -77.02079633333334, "bike_id": "d1f3b3b238a7a66049d8cdc2bc61c760", "lat": 38.929071666666665, "fusion_lon": 0.0, "fusion_lat": 0.0, "type": "electric_scooter", "name": "d1f3b3b238a7a66049d8cdc2bc61c760", "is_disabled": 0, "rental_uris": {"ios": "https://dc.lft.to/lastmile_qr_scan", "android": "https://dc.lft.to/lastmile_qr_scan"}, "is_reserved": 0}, {"lon": -76.97857083333334, "bike_id": "f50d3e03e109e3079aee7458b6a6362b", "lat": 38.907232666666665, "fusion_lon": 0.0, "fusion_lat": 0.0, "type": "electric_scooter", "name": "f50d3e03e109e3079aee7458b6a6362b", "is_disabled": 0, "rental_uris": {"ios": "https://dc.lft.to/lastmile_qr_scan", "android": "https://dc.lft.to/lastmile_qr_scan"}, "is_reserved": 0}, {"lon": -76.9756, "bike_id": "360ec028222effb8815a8baad3ea4f6c", "lat": 38.924574, "fusion_lon": 0.0, "fusion_lat": 0.0, "type": "electric_bike", "name": "360ec028222effb8815a8baad3ea4f6c", "is_disabled": 0, "rental_uris": {"ios": "https://dc.lft.to/lastmile_qr_scan", "android": "https://dc.lft.to/lastmile_qr_scan"}, "is_reserved": 0}, {"lon": -77.02328616666667, "bike_id": "2e341d936aaea9a51a2f4d9b2793c702", "lat": 38.93529983333333, "fusion_lon": 0.0, "fusion_lat": 0.0, "type": "electric_scooter", "name": "2e341d936aaea9a51a2f4d9b2793c702", "is_disabled": 0, "rental_uris": {"ios": "https://dc.lft.to/lastmile_qr_scan", "android": "https://dc.lft.to/lastmile_qr_scan"}, "is_reserved": 0}, {"lon": -77.00403966666667, "bike_id": "6cb86e054b919aa5567891da16c98354", "lat": 38.921354666666666, "fusion_lon": 0.0, "fusion_lat": 0.0, "type": "electric_scooter", "name": "6cb86e054b919aa5567891da16c98354", "is_disabled": 0, "rental_uris": {"ios": "https://dc.lft.to/lastmile_qr_scan", "android": "https://dc.lft.to/lastmile_qr_scan"}, "is_reserved": 0}, {"lon": -76.99753733333333, "bike_id": "be09e4d4ccca4b9f136ac104f83df4d2", "lat": 38.95008583333333, "fusion_lon": 0.0, "fusion_lat": 0.0, "type": "electric_bike", "name": "be09e4d4ccca4b9f136ac104f83df4d2", "is_disabled": 0, "rental_uris": {"ios": "https://dc.lft.to/lastmile_qr_scan", "android": "https://dc.lft.to/lastmile_qr_scan"}, "is_reserved": 0}, {"lon": -76.98802183333333, "bike_id": "9c7f06da6b44d4a4e962a7475d83de3b", "lat": 38.89240316666667, "fusion_lon": 0.0, "fusion_lat": 0.0, "type": "electric_scooter", "name": "9c7f06da6b44d4a4e962a7475d83de3b", "is_disabled": 0, "rental_uris": {"ios": "https://dc.lft.to/lastmile_qr_scan", "android": "https://dc.lft.to/lastmile_qr_scan"}, "is_reserved": 0}, {"lon": -77.01883916666667, "bike_id": "bf50f37d4d285e2b9496c4b983d8671c", "lat": 38.90609466666667, "fusion_lon": 0.0, "fusion_lat": 0.0, "type": "electric_scooter", "name": "bf50f37d4d285e2b9496c4b983d8671c", "is_disabled": 0, "rental_uris": {"ios": "https://dc.lft.to/lastmile_qr_scan", "android": "https://dc.lft.to/lastmile_qr_scan"}, "is_reserved": 0}, {"lon": -77.03221916666666, "bike_id": "60c1b078e24426c1ceb38b5a9ee4c9df", "lat": 38.90727533333333, "fusion_lon": 0.0, "fusion_lat": 0.0, "type": "electric_scooter", "name": "60c1b078e24426c1ceb38b5a9ee4c9df", "is_disabled": 0, "rental_uris": {"ios": "https://dc.lft.to/lastmile_qr_scan", "android": "https://dc.lft.to/lastmile_qr_scan"}, "is_reserved": 0}, {"lon": -77.02297683333333, "bike_id": "292ad7febcbf668778b79318a7cc352c", "lat": 38.93301616666667, "fusion_lon": 0.0, "fusion_lat": 0.0, "type": "electric_scooter", "name": "292ad7febcbf668778b79318a7cc352c", "is_disabled": 0, "rental_uris": {"ios": "https://dc.lft.to/lastmile_qr_scan", "android": "https://dc.lft.to/lastmile_qr_scan"}, "is_reserved": 0}, {"lon": -77.0234915, "bike_id": "696c1d72240485ffe269c1df914b8f4f", "lat": 38.8963215, "fusion_lon": 0.0, "fusion_lat": 0.0, "type": "electric_scooter", "name": "696c1d72240485ffe269c1df914b8f4f", "is_disabled": 0, "rental_uris": {"ios": "https://dc.lft.to/lastmile_qr_scan", "android": "https://dc.lft.to/lastmile_qr_scan"}, "is_reserved": 0}, {"lon": -76.98316883333334, "bike_id": "bce327cb039bd5876953f51a6a4833c9", "lat": 38.899644333333335, "fusion_lon": 0.0, "fusion_lat": 0.0, "type": "electric_scooter", "name": "bce327cb039bd5876953f51a6a4833c9", "is_disabled": 0, "rental_uris": {"ios": "https://dc.lft.to/lastmile_qr_scan", "android": "https://dc.lft.to/lastmile_qr_scan"}, "is_reserved": 0}, {"lon": -77.05566983333334, "bike_id": "605c0c9f959b7444d5921a3ebccc6fbf", "lat": 38.930394666666665, "fusion_lon": 0.0, "fusion_lat": 0.0, "type": "electric_scooter", "name": "605c0c9f959b7444d5921a3ebccc6fbf", "is_disabled": 0, "rental_uris": {"ios": "https://dc.lft.to/lastmile_qr_scan", "android": "https://dc.lft.to/lastmile_qr_scan"}, "is_reserved": 0}, {"lon": -76.9926855, "bike_id": "35bd8b8307e0f998ac4bc8e9b7e94c3f", "lat": 38.90388733333333, "fusion_lon": 0.0, "fusion_lat": 0.0, "type": "electric_scooter", "name": "35bd8b8307e0f998ac4bc8e9b7e94c3f", "is_disabled": 0, "rental_uris": {"ios": "https://dc.lft.to/lastmile_qr_scan", "android": "https://dc.lft.to/lastmile_qr_scan"}, "is_reserved": 0}, {"lon": -76.98144583333334, "bike_id": "4b70df86fae3deb4d96f81b8c9124e71", "lat": 38.9056655, "fusion_lon": 0.0, "fusion_lat": 0.0, "type": "electric_scooter", "name": "4b70df86fae3deb4d96f81b8c9124e71", "is_disabled": 0, "rental_uris": {"ios": "https://dc.lft.to/lastmile_qr_scan", "android": "https://dc.lft.to/lastmile_qr_scan"}, "is_reserved": 0}, {"lon": -77.027198, "bike_id": "95594886008a328ee5783ed48e0028ae", "lat": 38.90674683333334, "fusion_lon": 0.0, "fusion_lat": 0.0, "type": "electric_scooter", "name": "95594886008a328ee5783ed48e0028ae", "is_disabled": 0, "rental_uris": {"ios": "https://dc.lft.to/lastmile_qr_scan", "android": "https://dc.lft.to/lastmile_qr_scan"}, "is_reserved": 0}, {"lon": -77.03345266666666, "bike_id": "81e0eaf7d713caea59032c1fad6945d3", "lat": 38.9056555, "fusion_lon": 0.0, "fusion_lat": 0.0, "type": "electric_scooter", "name": "81e0eaf7d713caea59032c1fad6945d3", "is_disabled": 0, "rental_uris": {"ios": "https://dc.lft.to/lastmile_qr_scan", "android": "https://dc.lft.to/lastmile_qr_scan"}, "is_reserved": 0}, {"lon": -77.059143, "bike_id": "f8ceeb3c2384e478ddfbbbca6831f6ce", "lat": 38.906245166666665, "fusion_lon": 0.0, "fusion_lat": 0.0, "type": "electric_scooter", "name": "f8ceeb3c2384e478ddfbbbca6831f6ce", "is_disabled": 0, "rental_uris": {"ios": "https://dc.lft.to/lastmile_qr_scan", "android": "https://dc.lft.to/lastmile_qr_scan"}, "is_reserved": 0}, {"lon": -77.07821366666667, "bike_id": "b0a0a33413dd0fdacd00fcd25cbe9883", "lat": 38.923763, "fusion_lon": 0.0, "fusion_lat": 0.0, "type": "electric_scooter", "name": "b0a0a33413dd0fdacd00fcd25cbe9883", "is_disabled": 0, "rental_uris": {"ios": "https://dc.lft.to/lastmile_qr_scan", "android": "https://dc.lft.to/lastmile_qr_scan"}, "is_reserved": 0}, {"lon": -77.041106, "bike_id": "e7fa5344e4c31dc6a8750871fbcb7433", "lat": 38.915553, "fusion_lon": 0.0, "fusion_lat": 0.0, "type": "electric_scooter", "name": "e7fa5344e4c31dc6a8750871fbcb7433", "is_disabled": 0, "rental_uris": {"ios": "https://dc.lft.to/lastmile_qr_scan", "android": "https://dc.lft.to/lastmile_qr_scan"}, "is_reserved": 0}, {"lon": -77.03407416666667, "bike_id": "7df55b1c9a974a3242921af4d11f4596", "lat": 38.90559616666667, "fusion_lon": 0.0, "fusion_lat": 0.0, "type": "electric_scooter", "name": "7df55b1c9a974a3242921af4d11f4596", "is_disabled": 0, "rental_uris": {"ios": "https://dc.lft.to/lastmile_qr_scan", "android": "https://dc.lft.to/lastmile_qr_scan"}, "is_reserved": 0}, {"lon": -77.03665416666666, "bike_id": "78d695013315a16dc6850f564da8dee1", "lat": 38.918170333333336, "fusion_lon": 0.0, "fusion_lat": 0.0, "type": "electric_scooter", "name": "78d695013315a16dc6850f564da8dee1", "is_disabled": 0, "rental_uris": {"ios": "https://dc.lft.to/lastmile_qr_scan", "android": "https://dc.lft.to/lastmile_qr_scan"}, "is_reserved": 0}, {"lon": -77.00574833333333, "bike_id": "8a8c849df6212ac23237123391365a2d", "lat": 38.82997566666667, "fusion_lon": 0.0, "fusion_lat": 0.0, "type": "electric_scooter", "name": "8a8c849df6212ac23237123391365a2d", "is_disabled": 0, "rental_uris": {"ios": "https://dc.lft.to/lastmile_qr_scan", "android": "https://dc.lft.to/lastmile_qr_scan"}, "is_reserved": 0}, {"lon": -77.10522333333333, "bike_id": "a41ae23200057a7709ed9f7f517d9fb6", "lat": 38.873743, "fusion_lon": 0.0, "fusion_lat": 0.0, "type": "electric_bike", "name": "a41ae23200057a7709ed9f7f517d9fb6", "is_disabled": 0, "rental_uris": {"ios": "https://dc.lft.to/lastmile_qr_scan", "android": "https://dc.lft.to/lastmile_qr_scan"}, "is_reserved": 0}, {"lon": -77.032397, "bike_id": "f0a927299b98a4f40602f334916b450b", "lat": 38.92989816666667, "fusion_lon": 0.0, "fusion_lat": 0.0, "type": "electric_scooter", "name": "f0a927299b98a4f40602f334916b450b", "is_disabled": 0, "rental_uris": {"ios": "https://dc.lft.to/lastmile_qr_scan", "android": "https://dc.lft.to/lastmile_qr_scan"}, "is_reserved": 0}, {"lon": -76.99189, "bike_id": "f2d91df77de237c2017215c9ee9b03c7", "lat": 38.882682, "fusion_lon": 0.0, "fusion_lat": 0.0, "type": "electric_scooter", "name": "f2d91df77de237c2017215c9ee9b03c7", "is_disabled": 0, "rental_uris": {"ios": "https://dc.lft.to/lastmile_qr_scan", "android": "https://dc.lft.to/lastmile_qr_scan"}, "is_reserved": 0}, {"lon": -77.02795416666666, "bike_id": "69cc962203fd2b114d555261dd8f2d81", "lat": 38.92287733333333, "fusion_lon": 0.0, "fusion_lat": 0.0, "type": "electric_scooter", "name": "69cc962203fd2b114d555261dd8f2d81", "is_disabled": 0, "rental_uris": {"ios": "https://dc.lft.to/lastmile_qr_scan", "android": "https://dc.lft.to/lastmile_qr_scan"}, "is_reserved": 0}, {"lon": -77.00512833333333, "bike_id": "039e0df3baefc4f4bfa6da8841147108", "lat": 38.905621, "fusion_lon": 0.0, "fusion_lat": 0.0, "type": "electric_scooter", "name": "039e0df3baefc4f4bfa6da8841147108", "is_disabled": 0, "rental_uris": {"ios": "https://dc.lft.to/lastmile_qr_scan", "android": "https://dc.lft.to/lastmile_qr_scan"}, "is_reserved": 0}, {"lon": -77.02292033333333, "bike_id": "f38288dd5c9882bccfaf49f12fa1371a", "lat": 38.9222845, "fusion_lon": 0.0, "fusion_lat": 0.0, "type": "electric_scooter", "name": "f38288dd5c9882bccfaf49f12fa1371a", "is_disabled": 0, "rental_uris": {"ios": "https://dc.lft.to/lastmile_qr_scan", "android": "https://dc.lft.to/lastmile_qr_scan"}, "is_reserved": 0}, {"lon": -77.0381005, "bike_id": "426c11d24600e9f4a568a040e1a0bbbc", "lat": 38.931157, "fusion_lon": 0.0, "fusion_lat": 0.0, "type": "electric_scooter", "name": "426c11d24600e9f4a568a040e1a0bbbc", "is_disabled": 0, "rental_uris": {"ios": "https://dc.lft.to/lastmile_qr_scan", "android": "https://dc.lft.to/lastmile_qr_scan"}, "is_reserved": 0}, {"lon": -77.0202845, "bike_id": "687a18a81c922ae39c9d872428f6240d", "lat": 38.90561783333333, "fusion_lon": 0.0, "fusion_lat": 0.0, "type": "electric_scooter", "name": "687a18a81c922ae39c9d872428f6240d", "is_disabled": 0, "rental_uris": {"ios": "https://dc.lft.to/lastmile_qr_scan", "android": "https://dc.lft.to/lastmile_qr_scan"}, "is_reserved": 0}, {"lon": -77.0484025, "bike_id": "14020ecacbbd0646f9c20750f7cb9412", "lat": 38.8974155, "fusion_lon": 0.0, "fusion_lat": 0.0, "type": "electric_scooter", "name": "14020ecacbbd0646f9c20750f7cb9412", "is_disabled": 0, "rental_uris": {"ios": "https://dc.lft.to/lastmile_qr_scan", "android": "https://dc.lft.to/lastmile_qr_scan"}, "is_reserved": 0}, {"lon": -77.02769483333333, "bike_id": "10b75acf673123a275844523568710ff", "lat": 38.95425516666667, "fusion_lon": 0.0, "fusion_lat": 0.0, "type": "electric_scooter", "name": "10b75acf673123a275844523568710ff", "is_disabled": 0, "rental_uris": {"ios": "https://dc.lft.to/lastmile_qr_scan", "android": "https://dc.lft.to/lastmile_qr_scan"}, "is_reserved": 0}, {"lon": -77.055855, "bike_id": "1c4cd8ca942a1f12772546ab4fb14ee5", "lat": 38.899729, "fusion_lon": 0.0, "fusion_lat": 0.0, "type": "electric_scooter", "name": "1c4cd8ca942a1f12772546ab4fb14ee5", "is_disabled": 0, "rental_uris": {"ios": "https://dc.lft.to/lastmile_qr_scan", "android": "https://dc.lft.to/lastmile_qr_scan"}, "is_reserved": 0}, {"lon": -77.04468916666667, "bike_id": "384632cde40611fc50cbcd5d88221e4b", "lat": 38.923909333333334, "fusion_lon": 0.0, "fusion_lat": 0.0, "type": "electric_scooter", "name": "384632cde40611fc50cbcd5d88221e4b", "is_disabled": 0, "rental_uris": {"ios": "https://dc.lft.to/lastmile_qr_scan", "android": "https://dc.lft.to/lastmile_qr_scan"}, "is_reserved": 0}, {"lon": -76.90737516666667, "bike_id": "e296c932a99808e7fc7262349c2190a3", "lat": 38.89610583333334, "fusion_lon": 0.0, "fusion_lat": 0.0, "type": "electric_bike", "name": "e296c932a99808e7fc7262349c2190a3", "is_disabled": 0, "rental_uris": {"ios": "https://dc.lft.to/lastmile_qr_scan", "android": "https://dc.lft.to/lastmile_qr_scan"}, "is_reserved": 0}, {"lon": -77.018988, "bike_id": "9ffdd144ba03982d574aa1754ec6f90f", "lat": 38.899750833333336, "fusion_lon": 0.0, "fusion_lat": 0.0, "type": "electric_scooter", "name": "9ffdd144ba03982d574aa1754ec6f90f", "is_disabled": 0, "rental_uris": {"ios": "https://dc.lft.to/lastmile_qr_scan", "android": "https://dc.lft.to/lastmile_qr_scan"}, "is_reserved": 0}, {"lon": -76.98527983333334, "bike_id": "a2b75b508ce45546734215c20b9efb62", "lat": 38.866835, "fusion_lon": 0.0, "fusion_lat": 0.0, "type": "electric_scooter", "name": "a2b75b508ce45546734215c20b9efb62", "is_disabled": 0, "rental_uris": {"ios": "https://dc.lft.to/lastmile_qr_scan", "android": "https://dc.lft.to/lastmile_qr_scan"}, "is_reserved": 0}, {"lon": -77.04225316666667, "bike_id": "180f4b3971d5b93e6480c7542fff522a", "lat": 38.91408966666667, "fusion_lon": 0.0, "fusion_lat": 0.0, "type": "electric_scooter", "name": "180f4b3971d5b93e6480c7542fff522a", "is_disabled": 0, "rental_uris": {"ios": "https://dc.lft.to/lastmile_qr_scan", "android": "https://dc.lft.to/lastmile_qr_scan"}, "is_reserved": 0}, {"lon": -76.97429516666666, "bike_id": "ea9e7e6b4145b4284cc83dc0ced35157", "lat": 38.9039805, "fusion_lon": 0.0, "fusion_lat": 0.0, "type": "electric_scooter", "name": "ea9e7e6b4145b4284cc83dc0ced35157", "is_disabled": 0, "rental_uris": {"ios": "https://dc.lft.to/lastmile_qr_scan", "android": "https://dc.lft.to/lastmile_qr_scan"}, "is_reserved": 0}, {"lon": -77.00558016666666, "bike_id": "e39755323151095402bfbbcfdbc020d4", "lat": 38.874630833333335, "fusion_lon": 0.0, "fusion_lat": 0.0, "type": "electric_scooter", "name": "e39755323151095402bfbbcfdbc020d4", "is_disabled": 0, "rental_uris": {"ios": "https://dc.lft.to/lastmile_qr_scan", "android": "https://dc.lft.to/lastmile_qr_scan"}, "is_reserved": 0}, {"lon": -77.032716, "bike_id": "ec137f095da5372f71b5b11fe2af975a", "lat": 38.9199405, "fusion_lon": 0.0, "fusion_lat": 0.0, "type": "electric_scooter", "name": "ec137f095da5372f71b5b11fe2af975a", "is_disabled": 0, "rental_uris": {"ios": "https://dc.lft.to/lastmile_qr_scan", "android": "https://dc.lft.to/lastmile_qr_scan"}, "is_reserved": 0}, {"lon": -77.03356983333333, "bike_id": "ccf64ff45160cd85ac8767a0f4e1ce7d", "lat": 38.92347183333333, "fusion_lon": 0.0, "fusion_lat": 0.0, "type": "electric_scooter", "name": "ccf64ff45160cd85ac8767a0f4e1ce7d", "is_disabled": 0, "rental_uris": {"ios": "https://dc.lft.to/lastmile_qr_scan", "android": "https://dc.lft.to/lastmile_qr_scan"}, "is_reserved": 0}, {"lon": -76.98573066666667, "bike_id": "c78e2b7f905616f339ea97365392187c", "lat": 38.89886683333334, "fusion_lon": 0.0, "fusion_lat": 0.0, "type": "electric_scooter", "name": "c78e2b7f905616f339ea97365392187c", "is_disabled": 0, "rental_uris": {"ios": "https://dc.lft.to/lastmile_qr_scan", "android": "https://dc.lft.to/lastmile_qr_scan"}, "is_reserved": 0}, {"lon": -77.08002766666667, "bike_id": "eff17c788b8635c3fc827d7ddf49bdf2", "lat": 38.964857, "fusion_lon": 0.0, "fusion_lat": 0.0, "type": "electric_scooter", "name": "eff17c788b8635c3fc827d7ddf49bdf2", "is_disabled": 0, "rental_uris": {"ios": "https://dc.lft.to/lastmile_qr_scan", "android": "https://dc.lft.to/lastmile_qr_scan"}, "is_reserved": 0}, {"lon": -77.03634133333334, "bike_id": "df24a0057adeae2e17963466da3bac62", "lat": 38.92747116666666, "fusion_lon": 0.0, "fusion_lat": 0.0, "type": "electric_scooter", "name": "df24a0057adeae2e17963466da3bac62", "is_disabled": 0, "rental_uris": {"ios": "https://dc.lft.to/lastmile_qr_scan", "android": "https://dc.lft.to/lastmile_qr_scan"}, "is_reserved": 0}, {"lon": -76.92204966666667, "bike_id": "35f99fb75e0a6e5e7211b94e0848057d", "lat": 38.894993, "fusion_lon": 0.0, "fusion_lat": 0.0, "type": "electric_bike", "name": "35f99fb75e0a6e5e7211b94e0848057d", "is_disabled": 0, "rental_uris": {"ios": "https://dc.lft.to/lastmile_qr_scan", "android": "https://dc.lft.to/lastmile_qr_scan"}, "is_reserved": 0}, {"lon": -77.0020575, "bike_id": "27a67290c76e01c65181f164b829461c", "lat": 38.902399833333334, "fusion_lon": 0.0, "fusion_lat": 0.0, "type": "electric_scooter", "name": "27a67290c76e01c65181f164b829461c", "is_disabled": 0, "rental_uris": {"ios": "https://dc.lft.to/lastmile_qr_scan", "android": "https://dc.lft.to/lastmile_qr_scan"}, "is_reserved": 0}, {"lon": -77.02574616666666, "bike_id": "42cfbc8ea9a39b19b662beac4d9eb07e", "lat": 38.91413933333333, "fusion_lon": 0.0, "fusion_lat": 0.0, "type": "electric_scooter", "name": "42cfbc8ea9a39b19b662beac4d9eb07e", "is_disabled": 0, "rental_uris": {"ios": "https://dc.lft.to/lastmile_qr_scan", "android": "https://dc.lft.to/lastmile_qr_scan"}, "is_reserved": 0}, {"lon": -76.98626783333333, "bike_id": "c95963c7dcec6d75d9e572b114c16141", "lat": 38.88039366666667, "fusion_lon": 0.0, "fusion_lat": 0.0, "type": "electric_scooter", "name": "c95963c7dcec6d75d9e572b114c16141", "is_disabled": 0, "rental_uris": {"ios": "https://dc.lft.to/lastmile_qr_scan", "android": "https://dc.lft.to/lastmile_qr_scan"}, "is_reserved": 0}, {"lon": -77.0344595, "bike_id": "e4224239da9eead1593fa471364d818b", "lat": 38.910086166666666, "fusion_lon": 0.0, "fusion_lat": 0.0, "type": "electric_scooter", "name": "e4224239da9eead1593fa471364d818b", "is_disabled": 0, "rental_uris": {"ios": "https://dc.lft.to/lastmile_qr_scan", "android": "https://dc.lft.to/lastmile_qr_scan"}, "is_reserved": 0}, {"lon": -77.0775, "bike_id": "e7f499a51605c92c3c11dfb808c7d5df", "lat": 38.841941, "fusion_lon": 0.0, "fusion_lat": 0.0, "type": "electric_bike", "name": "e7f499a51605c92c3c11dfb808c7d5df", "is_disabled": 0, "rental_uris": {"ios": "https://dc.lft.to/lastmile_qr_scan", "android": "https://dc.lft.to/lastmile_qr_scan"}, "is_reserved": 0}, {"lon": -77.00373166666667, "bike_id": "fe3c53fc0bec677bc332a5bb8d5f3f53", "lat": 38.8973435, "fusion_lon": 0.0, "fusion_lat": 0.0, "type": "electric_scooter", "name": "fe3c53fc0bec677bc332a5bb8d5f3f53", "is_disabled": 0, "rental_uris": {"ios": "https://dc.lft.to/lastmile_qr_scan", "android": "https://dc.lft.to/lastmile_qr_scan"}, "is_reserved": 0}, {"lon": -76.9834035, "bike_id": "5171750faadeaddcb679554890b7618c", "lat": 38.86641483333333, "fusion_lon": 0.0, "fusion_lat": 0.0, "type": "electric_scooter", "name": "5171750faadeaddcb679554890b7618c", "is_disabled": 0, "rental_uris": {"ios": "https://dc.lft.to/lastmile_qr_scan", "android": "https://dc.lft.to/lastmile_qr_scan"}, "is_reserved": 0}, {"lon": -76.93187816666666, "bike_id": "611b74d662b578dc0aebf01e50007c56", "lat": 38.89874616666667, "fusion_lon": 0.0, "fusion_lat": 0.0, "type": "electric_scooter", "name": "611b74d662b578dc0aebf01e50007c56", "is_disabled": 0, "rental_uris": {"ios": "https://dc.lft.to/lastmile_qr_scan", "android": "https://dc.lft.to/lastmile_qr_scan"}, "is_reserved": 0}, {"lon": -77.016563, "bike_id": "21f02e042cdba03fc64fbe8379f1a53c", "lat": 38.89973366666667, "fusion_lon": 0.0, "fusion_lat": 0.0, "type": "electric_scooter", "name": "21f02e042cdba03fc64fbe8379f1a53c", "is_disabled": 0, "rental_uris": {"ios": "https://dc.lft.to/lastmile_qr_scan", "android": "https://dc.lft.to/lastmile_qr_scan"}, "is_reserved": 0}, {"lon": -76.9822585, "bike_id": "73be52ba4e4f11ae98e269f83c96f865", "lat": 38.916459333333336, "fusion_lon": 0.0, "fusion_lat": 0.0, "type": "electric_scooter", "name": "73be52ba4e4f11ae98e269f83c96f865", "is_disabled": 0, "rental_uris": {"ios": "https://dc.lft.to/lastmile_qr_scan", "android": "https://dc.lft.to/lastmile_qr_scan"}, "is_reserved": 0}, {"lon": -77.02236366666666, "bike_id": "2c994644d26a5c29adddabb265fe98b4", "lat": 38.96205416666667, "fusion_lon": 0.0, "fusion_lat": 0.0, "type": "electric_scooter", "name": "2c994644d26a5c29adddabb265fe98b4", "is_disabled": 0, "rental_uris": {"ios": "https://dc.lft.to/lastmile_qr_scan", "android": "https://dc.lft.to/lastmile_qr_scan"}, "is_reserved": 0}, {"lon": -77.0296545, "bike_id": "fd529327082138a3cf7b9a2a28d4177c", "lat": 38.906495, "fusion_lon": 0.0, "fusion_lat": 0.0, "type": "electric_scooter", "name": "fd529327082138a3cf7b9a2a28d4177c", "is_disabled": 0, "rental_uris": {"ios": "https://dc.lft.to/lastmile_qr_scan", "android": "https://dc.lft.to/lastmile_qr_scan"}, "is_reserved": 0}, {"lon": -77.02807166666666, "bike_id": "38df9b519670707b2b9436dc499d93a3", "lat": 38.895387666666664, "fusion_lon": 0.0, "fusion_lat": 0.0, "type": "electric_scooter", "name": "38df9b519670707b2b9436dc499d93a3", "is_disabled": 0, "rental_uris": {"ios": "https://dc.lft.to/lastmile_qr_scan", "android": "https://dc.lft.to/lastmile_qr_scan"}, "is_reserved": 0}, {"lon": -77.03839116666667, "bike_id": "2afa6a8fbe7e2b8a8408e0b8c5e8c401", "lat": 38.9036925, "fusion_lon": 0.0, "fusion_lat": 0.0, "type": "electric_scooter", "name": "2afa6a8fbe7e2b8a8408e0b8c5e8c401", "is_disabled": 0, "rental_uris": {"ios": "https://dc.lft.to/lastmile_qr_scan", "android": "https://dc.lft.to/lastmile_qr_scan"}, "is_reserved": 0}, {"lon": -76.9989565, "bike_id": "fae97cd8bad3a8be6c02134f344336eb", "lat": 38.909533333333336, "fusion_lon": 0.0, "fusion_lat": 0.0, "type": "electric_scooter", "name": "fae97cd8bad3a8be6c02134f344336eb", "is_disabled": 0, "rental_uris": {"ios": "https://dc.lft.to/lastmile_qr_scan", "android": "https://dc.lft.to/lastmile_qr_scan"}, "is_reserved": 0}, {"lon": -76.99227133333333, "bike_id": "f1b08604b8fdaa6587f2aef4bdd5a70e", "lat": 38.922106666666664, "fusion_lon": 0.0, "fusion_lat": 0.0, "type": "electric_scooter", "name": "f1b08604b8fdaa6587f2aef4bdd5a70e", "is_disabled": 0, "rental_uris": {"ios": "https://dc.lft.to/lastmile_qr_scan", "android": "https://dc.lft.to/lastmile_qr_scan"}, "is_reserved": 0}, {"lon": -77.04872166666667, "bike_id": "e8342613352b3c5fe4e31c862b312c9b", "lat": 38.89232483333333, "fusion_lon": 0.0, "fusion_lat": 0.0, "type": "electric_scooter", "name": "e8342613352b3c5fe4e31c862b312c9b", "is_disabled": 0, "rental_uris": {"ios": "https://dc.lft.to/lastmile_qr_scan", "android": "https://dc.lft.to/lastmile_qr_scan"}, "is_reserved": 0}, {"lon": -77.04766083333334, "bike_id": "5216aa1823aacbfefc357fe7cddeec4c", "lat": 38.91777733333333, "fusion_lon": 0.0, "fusion_lat": 0.0, "type": "electric_scooter", "name": "5216aa1823aacbfefc357fe7cddeec4c", "is_disabled": 0, "rental_uris": {"ios": "https://dc.lft.to/lastmile_qr_scan", "android": "https://dc.lft.to/lastmile_qr_scan"}, "is_reserved": 0}, {"lon": -77.02938633333333, "bike_id": "fa29f155ad31229b84103d2c59c20e2f", "lat": 38.90639683333333, "fusion_lon": 0.0, "fusion_lat": 0.0, "type": "electric_scooter", "name": "fa29f155ad31229b84103d2c59c20e2f", "is_disabled": 0, "rental_uris": {"ios": "https://dc.lft.to/lastmile_qr_scan", "android": "https://dc.lft.to/lastmile_qr_scan"}, "is_reserved": 0}, {"lon": -77.0329455, "bike_id": "a19b67b6937129701620559b66e59155", "lat": 38.90961433333333, "fusion_lon": 0.0, "fusion_lat": 0.0, "type": "electric_scooter", "name": "a19b67b6937129701620559b66e59155", "is_disabled": 0, "rental_uris": {"ios": "https://dc.lft.to/lastmile_qr_scan", "android": "https://dc.lft.to/lastmile_qr_scan"}, "is_reserved": 0}, {"lon": -76.98014616666667, "bike_id": "3b4e4c8ad0ae7f4fc49b6661634958d8", "lat": 38.90330216666667, "fusion_lon": 0.0, "fusion_lat": 0.0, "type": "electric_scooter", "name": "3b4e4c8ad0ae7f4fc49b6661634958d8", "is_disabled": 0, "rental_uris": {"ios": "https://dc.lft.to/lastmile_qr_scan", "android": "https://dc.lft.to/lastmile_qr_scan"}, "is_reserved": 0}, {"lon": -77.00369833333333, "bike_id": "3547956df2dad6ebdeba61203018b6c1", "lat": 38.89730266666667, "fusion_lon": 0.0, "fusion_lat": 0.0, "type": "electric_scooter", "name": "3547956df2dad6ebdeba61203018b6c1", "is_disabled": 0, "rental_uris": {"ios": "https://dc.lft.to/lastmile_qr_scan", "android": "https://dc.lft.to/lastmile_qr_scan"}, "is_reserved": 0}, {"lon": -77.039779, "bike_id": "91cf5f5712ce566a15d71c7e6fcbd3ab", "lat": 38.9119215, "fusion_lon": 0.0, "fusion_lat": 0.0, "type": "electric_scooter", "name": "91cf5f5712ce566a15d71c7e6fcbd3ab", "is_disabled": 0, "rental_uris": {"ios": "https://dc.lft.to/lastmile_qr_scan", "android": "https://dc.lft.to/lastmile_qr_scan"}, "is_reserved": 0}, {"lon": -77.0542115, "bike_id": "7712f5a4a0e4010fa338f4b7f2fc4dcb", "lat": 38.9283405, "fusion_lon": 0.0, "fusion_lat": 0.0, "type": "electric_scooter", "name": "7712f5a4a0e4010fa338f4b7f2fc4dcb", "is_disabled": 0, "rental_uris": {"ios": "https://dc.lft.to/lastmile_qr_scan", "android": "https://dc.lft.to/lastmile_qr_scan"}, "is_reserved": 0}, {"lon": -77.01926983333334, "bike_id": "9cc41dbed5a22ea11734f7a54e313139", "lat": 38.922167333333334, "fusion_lon": 0.0, "fusion_lat": 0.0, "type": "electric_scooter", "name": "9cc41dbed5a22ea11734f7a54e313139", "is_disabled": 0, "rental_uris": {"ios": "https://dc.lft.to/lastmile_qr_scan", "android": "https://dc.lft.to/lastmile_qr_scan"}, "is_reserved": 0}, {"lon": -77.131024, "bike_id": "6fd28bb6818caa0e0b262a58814daba8", "lat": 39.02433966666667, "fusion_lon": 0.0, "fusion_lat": 0.0, "type": "electric_bike", "name": "6fd28bb6818caa0e0b262a58814daba8", "is_disabled": 0, "rental_uris": {"ios": "https://dc.lft.to/lastmile_qr_scan", "android": "https://dc.lft.to/lastmile_qr_scan"}, "is_reserved": 0}, {"lon": -77.0206925, "bike_id": "5b29eb1529bca73ccd2e95a6a7f227da", "lat": 38.93262983333334, "fusion_lon": 0.0, "fusion_lat": 0.0, "type": "electric_bike", "name": "5b29eb1529bca73ccd2e95a6a7f227da", "is_disabled": 0, "rental_uris": {"ios": "https://dc.lft.to/lastmile_qr_scan", "android": "https://dc.lft.to/lastmile_qr_scan"}, "is_reserved": 0}, {"lon": -77.03470283333333, "bike_id": "4dd2cbd7108f6c439fffa7ba8e3f8d1d", "lat": 38.92155433333333, "fusion_lon": 0.0, "fusion_lat": 0.0, "type": "electric_scooter", "name": "4dd2cbd7108f6c439fffa7ba8e3f8d1d", "is_disabled": 0, "rental_uris": {"ios": "https://dc.lft.to/lastmile_qr_scan", "android": "https://dc.lft.to/lastmile_qr_scan"}, "is_reserved": 0}, {"lon": -77.00353516666667, "bike_id": "537b401863d9a642230f8f7947f3b058", "lat": 38.887148, "fusion_lon": 0.0, "fusion_lat": 0.0, "type": "electric_scooter", "name": "537b401863d9a642230f8f7947f3b058", "is_disabled": 0, "rental_uris": {"ios": "https://dc.lft.to/lastmile_qr_scan", "android": "https://dc.lft.to/lastmile_qr_scan"}, "is_reserved": 0}, {"lon": -77.05071833333334, "bike_id": "811ef4d3f6020fe58ec1a7cc989c7e61", "lat": 38.9007915, "fusion_lon": 0.0, "fusion_lat": 0.0, "type": "electric_scooter", "name": "811ef4d3f6020fe58ec1a7cc989c7e61", "is_disabled": 0, "rental_uris": {"ios": "https://dc.lft.to/lastmile_qr_scan", "android": "https://dc.lft.to/lastmile_qr_scan"}, "is_reserved": 0}, {"lon": -76.98304566666667, "bike_id": "68cbed6fbef4725eec6e37487bda4a1c", "lat": 38.868867, "fusion_lon": 0.0, "fusion_lat": 0.0, "type": "electric_scooter", "name": "68cbed6fbef4725eec6e37487bda4a1c", "is_disabled": 0, "rental_uris": {"ios": "https://dc.lft.to/lastmile_qr_scan", "android": "https://dc.lft.to/lastmile_qr_scan"}, "is_reserved": 0}, {"lon": -77.023718, "bike_id": "3c825af0bd53e3d71dd0fc4f23d55257", "lat": 38.90189633333333, "fusion_lon": 0.0, "fusion_lat": 0.0, "type": "electric_scooter", "name": "3c825af0bd53e3d71dd0fc4f23d55257", "is_disabled": 0, "rental_uris": {"ios": "https://dc.lft.to/lastmile_qr_scan", "android": "https://dc.lft.to/lastmile_qr_scan"}, "is_reserved": 0}, {"lon": -76.98717816666667, "bike_id": "eccbcdf81b2fffe0a18bb31a44578f82", "lat": 38.8663165, "fusion_lon": 0.0, "fusion_lat": 0.0, "type": "electric_scooter", "name": "eccbcdf81b2fffe0a18bb31a44578f82", "is_disabled": 0, "rental_uris": {"ios": "https://dc.lft.to/lastmile_qr_scan", "android": "https://dc.lft.to/lastmile_qr_scan"}, "is_reserved": 0}, {"lon": -77.04376116666667, "bike_id": "97fbd732ba67a6b8d1827181e4a999f0", "lat": 38.88651266666667, "fusion_lon": 0.0, "fusion_lat": 0.0, "type": "electric_scooter", "name": "97fbd732ba67a6b8d1827181e4a999f0", "is_disabled": 0, "rental_uris": {"ios": "https://dc.lft.to/lastmile_qr_scan", "android": "https://dc.lft.to/lastmile_qr_scan"}, "is_reserved": 0}, {"lon": -76.960588, "bike_id": "758a28c0809d7a34d965d8ed3ee9420c", "lat": 38.8840475, "fusion_lon": 0.0, "fusion_lat": 0.0, "type": "electric_bike", "name": "758a28c0809d7a34d965d8ed3ee9420c", "is_disabled": 0, "rental_uris": {"ios": "https://dc.lft.to/lastmile_qr_scan", "android": "https://dc.lft.to/lastmile_qr_scan"}, "is_reserved": 0}, {"lon": -77.00200516666666, "bike_id": "7f4079aa0cb9d7d0c20ae6f4c1ffab0f", "lat": 38.900411, "fusion_lon": 0.0, "fusion_lat": 0.0, "type": "electric_scooter", "name": "7f4079aa0cb9d7d0c20ae6f4c1ffab0f", "is_disabled": 0, "rental_uris": {"ios": "https://dc.lft.to/lastmile_qr_scan", "android": "https://dc.lft.to/lastmile_qr_scan"}, "is_reserved": 0}, {"lon": -77.03438266666667, "bike_id": "a4568638d1cccb2733c252ad0364c943", "lat": 38.909984, "fusion_lon": 0.0, "fusion_lat": 0.0, "type": "electric_scooter", "name": "a4568638d1cccb2733c252ad0364c943", "is_disabled": 0, "rental_uris": {"ios": "https://dc.lft.to/lastmile_qr_scan", "android": "https://dc.lft.to/lastmile_qr_scan"}, "is_reserved": 0}, {"lon": -76.988829, "bike_id": "267aa2e1fc6b742591452fdfeecf79f3", "lat": 38.866457, "fusion_lon": 0.0, "fusion_lat": 0.0, "type": "electric_scooter", "name": "267aa2e1fc6b742591452fdfeecf79f3", "is_disabled": 0, "rental_uris": {"ios": "https://dc.lft.to/lastmile_qr_scan", "android": "https://dc.lft.to/lastmile_qr_scan"}, "is_reserved": 0}, {"lon": -77.01130733333333, "bike_id": "73ba517a757bf1229acaf261dca7ee86", "lat": 38.907295833333336, "fusion_lon": 0.0, "fusion_lat": 0.0, "type": "electric_scooter", "name": "73ba517a757bf1229acaf261dca7ee86", "is_disabled": 0, "rental_uris": {"ios": "https://dc.lft.to/lastmile_qr_scan", "android": "https://dc.lft.to/lastmile_qr_scan"}, "is_reserved": 0}, {"lon": -77.02166866666667, "bike_id": "a3c71029befddc33dd3fe130c9eae83f", "lat": 38.922436833333336, "fusion_lon": 0.0, "fusion_lat": 0.0, "type": "electric_scooter", "name": "a3c71029befddc33dd3fe130c9eae83f", "is_disabled": 0, "rental_uris": {"ios": "https://dc.lft.to/lastmile_qr_scan", "android": "https://dc.lft.to/lastmile_qr_scan"}, "is_reserved": 0}, {"lon": -76.927707, "bike_id": "f178493ef0bc0bc117c8e375c2e35b1b", "lat": 38.900872, "fusion_lon": 0.0, "fusion_lat": 0.0, "type": "electric_scooter", "name": "f178493ef0bc0bc117c8e375c2e35b1b", "is_disabled": 0, "rental_uris": {"ios": "https://dc.lft.to/lastmile_qr_scan", "android": "https://dc.lft.to/lastmile_qr_scan"}, "is_reserved": 0}, {"lon": -77.05491416666666, "bike_id": "35668f5158a73e5f7b7e40148c41819f", "lat": 38.90843666666667, "fusion_lon": 0.0, "fusion_lat": 0.0, "type": "electric_scooter", "name": "35668f5158a73e5f7b7e40148c41819f", "is_disabled": 0, "rental_uris": {"ios": "https://dc.lft.to/lastmile_qr_scan", "android": "https://dc.lft.to/lastmile_qr_scan"}, "is_reserved": 0}, {"lon": -77.05195816666667, "bike_id": "1b003049012f53c3626624696f8b3d18", "lat": 38.92451533333333, "fusion_lon": 0.0, "fusion_lat": 0.0, "type": "electric_scooter", "name": "1b003049012f53c3626624696f8b3d18", "is_disabled": 0, "rental_uris": {"ios": "https://dc.lft.to/lastmile_qr_scan", "android": "https://dc.lft.to/lastmile_qr_scan"}, "is_reserved": 0}, {"lon": -77.044814, "bike_id": "382eca000b052404904fc64cfe7a13d1", "lat": 38.91386033333333, "fusion_lon": 0.0, "fusion_lat": 0.0, "type": "electric_scooter", "name": "382eca000b052404904fc64cfe7a13d1", "is_disabled": 0, "rental_uris": {"ios": "https://dc.lft.to/lastmile_qr_scan", "android": "https://dc.lft.to/lastmile_qr_scan"}, "is_reserved": 0}, {"lon": -77.00509666666666, "bike_id": "e57fc3147f11b71369fbd4858368742b", "lat": 38.90562716666667, "fusion_lon": 0.0, "fusion_lat": 0.0, "type": "electric_scooter", "name": "e57fc3147f11b71369fbd4858368742b", "is_disabled": 0, "rental_uris": {"ios": "https://dc.lft.to/lastmile_qr_scan", "android": "https://dc.lft.to/lastmile_qr_scan"}, "is_reserved": 0}, {"lon": -77.01639516666667, "bike_id": "04cb8bc14e45a1d0a6c309c01c5503f9", "lat": 38.9290025, "fusion_lon": 0.0, "fusion_lat": 0.0, "type": "electric_scooter", "name": "04cb8bc14e45a1d0a6c309c01c5503f9", "is_disabled": 0, "rental_uris": {"ios": "https://dc.lft.to/lastmile_qr_scan", "android": "https://dc.lft.to/lastmile_qr_scan"}, "is_reserved": 0}, {"lon": -77.0298275, "bike_id": "982764e8ab92decbe0e36e4a0551920a", "lat": 38.90718116666667, "fusion_lon": 0.0, "fusion_lat": 0.0, "type": "electric_scooter", "name": "982764e8ab92decbe0e36e4a0551920a", "is_disabled": 0, "rental_uris": {"ios": "https://dc.lft.to/lastmile_qr_scan", "android": "https://dc.lft.to/lastmile_qr_scan"}, "is_reserved": 0}, {"lon": -77.04431683333334, "bike_id": "d3c015918071438cb47e9f8bd8d504d7", "lat": 38.921275333333334, "fusion_lon": 0.0, "fusion_lat": 0.0, "type": "electric_scooter", "name": "d3c015918071438cb47e9f8bd8d504d7", "is_disabled": 0, "rental_uris": {"ios": "https://dc.lft.to/lastmile_qr_scan", "android": "https://dc.lft.to/lastmile_qr_scan"}, "is_reserved": 0}, {"lon": -77.07341133333334, "bike_id": "8df57eb03a71a368b689af0989c38e6b", "lat": 38.93555666666666, "fusion_lon": 0.0, "fusion_lat": 0.0, "type": "electric_scooter", "name": "8df57eb03a71a368b689af0989c38e6b", "is_disabled": 0, "rental_uris": {"ios": "https://dc.lft.to/lastmile_qr_scan", "android": "https://dc.lft.to/lastmile_qr_scan"}, "is_reserved": 0}, {"lon": -76.98131066666667, "bike_id": "fff8f8a58aa6c9e767c6869e1153e763", "lat": 38.861969, "fusion_lon": 0.0, "fusion_lat": 0.0, "type": "electric_scooter", "name": "fff8f8a58aa6c9e767c6869e1153e763", "is_disabled": 0, "rental_uris": {"ios": "https://dc.lft.to/lastmile_qr_scan", "android": "https://dc.lft.to/lastmile_qr_scan"}, "is_reserved": 0}, {"lon": -77.02793583333333, "bike_id": "1e120d6859b23c0550e7d3d4f24549e2", "lat": 38.93013466666667, "fusion_lon": 0.0, "fusion_lat": 0.0, "type": "electric_scooter", "name": "1e120d6859b23c0550e7d3d4f24549e2", "is_disabled": 0, "rental_uris": {"ios": "https://dc.lft.to/lastmile_qr_scan", "android": "https://dc.lft.to/lastmile_qr_scan"}, "is_reserved": 0}, {"lon": -77.077579, "bike_id": "eb55b72e65b6885e3ea68d857530ca7f", "lat": 38.925530333333334, "fusion_lon": 0.0, "fusion_lat": 0.0, "type": "electric_scooter", "name": "eb55b72e65b6885e3ea68d857530ca7f", "is_disabled": 0, "rental_uris": {"ios": "https://dc.lft.to/lastmile_qr_scan", "android": "https://dc.lft.to/lastmile_qr_scan"}, "is_reserved": 0}, {"lon": -77.02501233333334, "bike_id": "2d9b9a7970d6463cfce025ed3b1a54da", "lat": 38.930933833333334, "fusion_lon": 0.0, "fusion_lat": 0.0, "type": "electric_scooter", "name": "2d9b9a7970d6463cfce025ed3b1a54da", "is_disabled": 0, "rental_uris": {"ios": "https://dc.lft.to/lastmile_qr_scan", "android": "https://dc.lft.to/lastmile_qr_scan"}, "is_reserved": 0}, {"lon": -76.937531, "bike_id": "1b56f329710724040a5b59ca28dc26d5", "lat": 38.890414166666666, "fusion_lon": 0.0, "fusion_lat": 0.0, "type": "electric_scooter", "name": "1b56f329710724040a5b59ca28dc26d5", "is_disabled": 0, "rental_uris": {"ios": "https://dc.lft.to/lastmile_qr_scan", "android": "https://dc.lft.to/lastmile_qr_scan"}, "is_reserved": 0}, {"lon": -76.93733, "bike_id": "a0af84a2343e90fafff2e1a40eafa2a3", "lat": 38.89001783333333, "fusion_lon": 0.0, "fusion_lat": 0.0, "type": "electric_scooter", "name": "a0af84a2343e90fafff2e1a40eafa2a3", "is_disabled": 0, "rental_uris": {"ios": "https://dc.lft.to/lastmile_qr_scan", "android": "https://dc.lft.to/lastmile_qr_scan"}, "is_reserved": 0}, {"lon": -77.03127933333333, "bike_id": "b1483266f69dd9165a4238d30a1e6cee", "lat": 38.91488866666667, "fusion_lon": 0.0, "fusion_lat": 0.0, "type": "electric_scooter", "name": "b1483266f69dd9165a4238d30a1e6cee", "is_disabled": 0, "rental_uris": {"ios": "https://dc.lft.to/lastmile_qr_scan", "android": "https://dc.lft.to/lastmile_qr_scan"}, "is_reserved": 0}, {"lon": -77.02507933333334, "bike_id": "4239ce8d3024d86449aba962f819c943", "lat": 38.920738666666665, "fusion_lon": 0.0, "fusion_lat": 0.0, "type": "electric_scooter", "name": "4239ce8d3024d86449aba962f819c943", "is_disabled": 0, "rental_uris": {"ios": "https://dc.lft.to/lastmile_qr_scan", "android": "https://dc.lft.to/lastmile_qr_scan"}, "is_reserved": 0}, {"lon": -77.04859666666667, "bike_id": "8829ea6387386bed4ed53a13e66c1e41", "lat": 38.90954266666667, "fusion_lon": 0.0, "fusion_lat": 0.0, "type": "electric_scooter", "name": "8829ea6387386bed4ed53a13e66c1e41", "is_disabled": 0, "rental_uris": {"ios": "https://dc.lft.to/lastmile_qr_scan", "android": "https://dc.lft.to/lastmile_qr_scan"}, "is_reserved": 0}, {"lon": -77.01925766666666, "bike_id": "ab1e4164d8932155dd7d5485324bc668", "lat": 38.93203616666667, "fusion_lon": 0.0, "fusion_lat": 0.0, "type": "electric_scooter", "name": "ab1e4164d8932155dd7d5485324bc668", "is_disabled": 0, "rental_uris": {"ios": "https://dc.lft.to/lastmile_qr_scan", "android": "https://dc.lft.to/lastmile_qr_scan"}, "is_reserved": 0}, {"lon": -77.01724466666667, "bike_id": "a11b492a33b973e8466e818776ff57e0", "lat": 38.872930833333335, "fusion_lon": 0.0, "fusion_lat": 0.0, "type": "electric_scooter", "name": "a11b492a33b973e8466e818776ff57e0", "is_disabled": 0, "rental_uris": {"ios": "https://dc.lft.to/lastmile_qr_scan", "android": "https://dc.lft.to/lastmile_qr_scan"}, "is_reserved": 0}, {"lon": -77.02840566666667, "bike_id": "14679a4946a969ca3979f9f27716b319", "lat": 38.92580066666667, "fusion_lon": 0.0, "fusion_lat": 0.0, "type": "electric_scooter", "name": "14679a4946a969ca3979f9f27716b319", "is_disabled": 0, "rental_uris": {"ios": "https://dc.lft.to/lastmile_qr_scan", "android": "https://dc.lft.to/lastmile_qr_scan"}, "is_reserved": 0}, {"lon": -77.02835016666667, "bike_id": "5983812077155ef5d5ff12216d059132", "lat": 38.93463033333333, "fusion_lon": 0.0, "fusion_lat": 0.0, "type": "electric_scooter", "name": "5983812077155ef5d5ff12216d059132", "is_disabled": 0, "rental_uris": {"ios": "https://dc.lft.to/lastmile_qr_scan", "android": "https://dc.lft.to/lastmile_qr_scan"}, "is_reserved": 0}, {"lon": -77.02802416666667, "bike_id": "7be9e8069862c1c39d41e5040f676e83", "lat": 38.911004, "fusion_lon": 0.0, "fusion_lat": 0.0, "type": "electric_scooter", "name": "7be9e8069862c1c39d41e5040f676e83", "is_disabled": 0, "rental_uris": {"ios": "https://dc.lft.to/lastmile_qr_scan", "android": "https://dc.lft.to/lastmile_qr_scan"}, "is_reserved": 0}, {"lon": -77.03209433333333, "bike_id": "6dfd28c21faf4fcaae1da651ebc103d5", "lat": 38.908918, "fusion_lon": 0.0, "fusion_lat": 0.0, "type": "electric_bike", "name": "6dfd28c21faf4fcaae1da651ebc103d5", "is_disabled": 0, "rental_uris": {"ios": "https://dc.lft.to/lastmile_qr_scan", "android": "https://dc.lft.to/lastmile_qr_scan"}, "is_reserved": 0}, {"lon": -77.00920683333334, "bike_id": "a2c8f1c7154007ecb32acfb9f1bf5620", "lat": 38.91099166666667, "fusion_lon": 0.0, "fusion_lat": 0.0, "type": "electric_scooter", "name": "a2c8f1c7154007ecb32acfb9f1bf5620", "is_disabled": 0, "rental_uris": {"ios": "https://dc.lft.to/lastmile_qr_scan", "android": "https://dc.lft.to/lastmile_qr_scan"}, "is_reserved": 0}, {"lon": -76.9575155, "bike_id": "bbd37f7e484a5a9c63caed16970052d4", "lat": 38.88430833333334, "fusion_lon": 0.0, "fusion_lat": 0.0, "type": "electric_scooter", "name": "bbd37f7e484a5a9c63caed16970052d4", "is_disabled": 0, "rental_uris": {"ios": "https://dc.lft.to/lastmile_qr_scan", "android": "https://dc.lft.to/lastmile_qr_scan"}, "is_reserved": 0}, {"lon": -77.03860383333334, "bike_id": "283ef392542bad18c6e7dfe7be92084a", "lat": 38.9155235, "fusion_lon": 0.0, "fusion_lat": 0.0, "type": "electric_scooter", "name": "283ef392542bad18c6e7dfe7be92084a", "is_disabled": 0, "rental_uris": {"ios": "https://dc.lft.to/lastmile_qr_scan", "android": "https://dc.lft.to/lastmile_qr_scan"}, "is_reserved": 0}, {"lon": -77.0544775, "bike_id": "f6a2cb5ab1a12fa77e8f9609e61e038c", "lat": 38.94358033333334, "fusion_lon": 0.0, "fusion_lat": 0.0, "type": "electric_bike", "name": "f6a2cb5ab1a12fa77e8f9609e61e038c", "is_disabled": 0, "rental_uris": {"ios": "https://dc.lft.to/lastmile_qr_scan", "android": "https://dc.lft.to/lastmile_qr_scan"}, "is_reserved": 0}, {"lon": -76.93189716666667, "bike_id": "e2921496ad814db589560ba0790f0154", "lat": 38.898757, "fusion_lon": 0.0, "fusion_lat": 0.0, "type": "electric_scooter", "name": "e2921496ad814db589560ba0790f0154", "is_disabled": 0, "rental_uris": {"ios": "https://dc.lft.to/lastmile_qr_scan", "android": "https://dc.lft.to/lastmile_qr_scan"}, "is_reserved": 0}, {"lon": -77.0468605, "bike_id": "493f7400125528562e3ba18cad90d9f4", "lat": 38.92053833333333, "fusion_lon": 0.0, "fusion_lat": 0.0, "type": "electric_scooter", "name": "493f7400125528562e3ba18cad90d9f4", "is_disabled": 0, "rental_uris": {"ios": "https://dc.lft.to/lastmile_qr_scan", "android": "https://dc.lft.to/lastmile_qr_scan"}, "is_reserved": 0}, {"lon": -76.98549933333334, "bike_id": "7e51d7471fc37795cdc577575d2b6525", "lat": 38.896590333333336, "fusion_lon": 0.0, "fusion_lat": 0.0, "type": "electric_scooter", "name": "7e51d7471fc37795cdc577575d2b6525", "is_disabled": 0, "rental_uris": {"ios": "https://dc.lft.to/lastmile_qr_scan", "android": "https://dc.lft.to/lastmile_qr_scan"}, "is_reserved": 0}, {"lon": -77.02300633333333, "bike_id": "8c26503a8c73a491ab37c5a47ecbc921", "lat": 38.92752216666667, "fusion_lon": 0.0, "fusion_lat": 0.0, "type": "electric_scooter", "name": "8c26503a8c73a491ab37c5a47ecbc921", "is_disabled": 0, "rental_uris": {"ios": "https://dc.lft.to/lastmile_qr_scan", "android": "https://dc.lft.to/lastmile_qr_scan"}, "is_reserved": 0}, {"lon": -77.05272283333333, "bike_id": "69f17020bfbcbbd41dd4fef8e0c208c7", "lat": 38.899701666666665, "fusion_lon": 0.0, "fusion_lat": 0.0, "type": "electric_scooter", "name": "69f17020bfbcbbd41dd4fef8e0c208c7", "is_disabled": 0, "rental_uris": {"ios": "https://dc.lft.to/lastmile_qr_scan", "android": "https://dc.lft.to/lastmile_qr_scan"}, "is_reserved": 0}, {"lon": -77.03218433333333, "bike_id": "746a11030847a8671fce5ae0b5365f74", "lat": 38.917088166666666, "fusion_lon": 0.0, "fusion_lat": 0.0, "type": "electric_scooter", "name": "746a11030847a8671fce5ae0b5365f74", "is_disabled": 0, "rental_uris": {"ios": "https://dc.lft.to/lastmile_qr_scan", "android": "https://dc.lft.to/lastmile_qr_scan"}, "is_reserved": 0}, {"lon": -77.053686, "bike_id": "916a9e617f4d80b4b0c7f91e3cd4f4f7", "lat": 38.92728833333334, "fusion_lon": 0.0, "fusion_lat": 0.0, "type": "electric_scooter", "name": "916a9e617f4d80b4b0c7f91e3cd4f4f7", "is_disabled": 0, "rental_uris": {"ios": "https://dc.lft.to/lastmile_qr_scan", "android": "https://dc.lft.to/lastmile_qr_scan"}, "is_reserved": 0}, {"lon": -76.9901955, "bike_id": "514272bc1ee27df3b63900cbdea2a112", "lat": 38.8816035, "fusion_lon": 0.0, "fusion_lat": 0.0, "type": "electric_scooter", "name": "514272bc1ee27df3b63900cbdea2a112", "is_disabled": 0, "rental_uris": {"ios": "https://dc.lft.to/lastmile_qr_scan", "android": "https://dc.lft.to/lastmile_qr_scan"}, "is_reserved": 0}, {"lon": -77.03668316666666, "bike_id": "55c98da4f6f56101abf53a31cdb690f3", "lat": 38.9181645, "fusion_lon": 0.0, "fusion_lat": 0.0, "type": "electric_scooter", "name": "55c98da4f6f56101abf53a31cdb690f3", "is_disabled": 0, "rental_uris": {"ios": "https://dc.lft.to/lastmile_qr_scan", "android": "https://dc.lft.to/lastmile_qr_scan"}, "is_reserved": 0}, {"lon": -77.03854533333333, "bike_id": "f98a0dbdd92ec90cb78b7182ef38e9d8", "lat": 38.917836666666666, "fusion_lon": 0.0, "fusion_lat": 0.0, "type": "electric_scooter", "name": "f98a0dbdd92ec90cb78b7182ef38e9d8", "is_disabled": 0, "rental_uris": {"ios": "https://dc.lft.to/lastmile_qr_scan", "android": "https://dc.lft.to/lastmile_qr_scan"}, "is_reserved": 0}, {"lon": -77.0193305, "bike_id": "c464f4e8112d80799e751e53fc58494f", "lat": 38.9368715, "fusion_lon": 0.0, "fusion_lat": 0.0, "type": "electric_scooter", "name": "c464f4e8112d80799e751e53fc58494f", "is_disabled": 0, "rental_uris": {"ios": "https://dc.lft.to/lastmile_qr_scan", "android": "https://dc.lft.to/lastmile_qr_scan"}, "is_reserved": 0}, {"lon": -76.99531766666666, "bike_id": "a94c7c4aab3efea0ace61832bcce08ae", "lat": 38.88369083333333, "fusion_lon": 0.0, "fusion_lat": 0.0, "type": "electric_scooter", "name": "a94c7c4aab3efea0ace61832bcce08ae", "is_disabled": 0, "rental_uris": {"ios": "https://dc.lft.to/lastmile_qr_scan", "android": "https://dc.lft.to/lastmile_qr_scan"}, "is_reserved": 0}, {"lon": -76.98194333333333, "bike_id": "612df576366c799095b5c51ab2f3d8ae", "lat": 38.92597833333333, "fusion_lon": 0.0, "fusion_lat": 0.0, "type": "electric_scooter", "name": "612df576366c799095b5c51ab2f3d8ae", "is_disabled": 0, "rental_uris": {"ios": "https://dc.lft.to/lastmile_qr_scan", "android": "https://dc.lft.to/lastmile_qr_scan"}, "is_reserved": 0}, {"lon": -77.044946, "bike_id": "0124bec8d556d5dbb56b24315ed1e9bf", "lat": 38.915999, "fusion_lon": 0.0, "fusion_lat": 0.0, "type": "electric_scooter", "name": "0124bec8d556d5dbb56b24315ed1e9bf", "is_disabled": 0, "rental_uris": {"ios": "https://dc.lft.to/lastmile_qr_scan", "android": "https://dc.lft.to/lastmile_qr_scan"}, "is_reserved": 0}, {"lon": -77.04819216666667, "bike_id": "0b904a127feba07af67f6959a94d563a", "lat": 38.90721166666667, "fusion_lon": 0.0, "fusion_lat": 0.0, "type": "electric_scooter", "name": "0b904a127feba07af67f6959a94d563a", "is_disabled": 0, "rental_uris": {"ios": "https://dc.lft.to/lastmile_qr_scan", "android": "https://dc.lft.to/lastmile_qr_scan"}, "is_reserved": 0}, {"lon": -77.00212066666667, "bike_id": "177e9f43d98894fa7c2114aebad09507", "lat": 38.8812955, "fusion_lon": 0.0, "fusion_lat": 0.0, "type": "electric_scooter", "name": "177e9f43d98894fa7c2114aebad09507", "is_disabled": 0, "rental_uris": {"ios": "https://dc.lft.to/lastmile_qr_scan", "android": "https://dc.lft.to/lastmile_qr_scan"}, "is_reserved": 0}, {"lon": -77.0463505, "bike_id": "257286891606773e2d2cb49282060ec0", "lat": 38.91908566666667, "fusion_lon": 0.0, "fusion_lat": 0.0, "type": "electric_scooter", "name": "257286891606773e2d2cb49282060ec0", "is_disabled": 0, "rental_uris": {"ios": "https://dc.lft.to/lastmile_qr_scan", "android": "https://dc.lft.to/lastmile_qr_scan"}, "is_reserved": 0}, {"lon": -77.023659, "bike_id": "9166605bd245d609059c98b16f8d2bde", "lat": 38.9205265, "fusion_lon": 0.0, "fusion_lat": 0.0, "type": "electric_scooter", "name": "9166605bd245d609059c98b16f8d2bde", "is_disabled": 0, "rental_uris": {"ios": "https://dc.lft.to/lastmile_qr_scan", "android": "https://dc.lft.to/lastmile_qr_scan"}, "is_reserved": 0}, {"lon": -77.02349466666666, "bike_id": "4af29f5cd7e409356762521f30382d6c", "lat": 38.935428333333334, "fusion_lon": 0.0, "fusion_lat": 0.0, "type": "electric_scooter", "name": "4af29f5cd7e409356762521f30382d6c", "is_disabled": 0, "rental_uris": {"ios": "https://dc.lft.to/lastmile_qr_scan", "android": "https://dc.lft.to/lastmile_qr_scan"}, "is_reserved": 0}, {"lon": -77.0271305, "bike_id": "d9cb5939c3feb12b60f9c3f7e933f5bf", "lat": 38.927691333333335, "fusion_lon": 0.0, "fusion_lat": 0.0, "type": "electric_scooter", "name": "d9cb5939c3feb12b60f9c3f7e933f5bf", "is_disabled": 0, "rental_uris": {"ios": "https://dc.lft.to/lastmile_qr_scan", "android": "https://dc.lft.to/lastmile_qr_scan"}, "is_reserved": 0}, {"lon": -77.04455583333333, "bike_id": "830b8b14f439debd49096b7e8f5ecea0", "lat": 38.918857333333335, "fusion_lon": 0.0, "fusion_lat": 0.0, "type": "electric_scooter", "name": "830b8b14f439debd49096b7e8f5ecea0", "is_disabled": 0, "rental_uris": {"ios": "https://dc.lft.to/lastmile_qr_scan", "android": "https://dc.lft.to/lastmile_qr_scan"}, "is_reserved": 0}, {"lon": -76.93352633333333, "bike_id": "35b0f623c7e2878d0f7c1da22741e6c0", "lat": 38.8990995, "fusion_lon": 0.0, "fusion_lat": 0.0, "type": "electric_scooter", "name": "35b0f623c7e2878d0f7c1da22741e6c0", "is_disabled": 0, "rental_uris": {"ios": "https://dc.lft.to/lastmile_qr_scan", "android": "https://dc.lft.to/lastmile_qr_scan"}, "is_reserved": 0}, {"lon": -76.93327366666666, "bike_id": "100db90054b7f40d4bf8cafecfee3b25", "lat": 38.91064033333333, "fusion_lon": 0.0, "fusion_lat": 0.0, "type": "electric_scooter", "name": "100db90054b7f40d4bf8cafecfee3b25", "is_disabled": 0, "rental_uris": {"ios": "https://dc.lft.to/lastmile_qr_scan", "android": "https://dc.lft.to/lastmile_qr_scan"}, "is_reserved": 0}, {"lon": -77.04796383333333, "bike_id": "602f29746b98cbe9cbbc4b2db292f769", "lat": 38.909516833333335, "fusion_lon": 0.0, "fusion_lat": 0.0, "type": "electric_scooter", "name": "602f29746b98cbe9cbbc4b2db292f769", "is_disabled": 0, "rental_uris": {"ios": "https://dc.lft.to/lastmile_qr_scan", "android": "https://dc.lft.to/lastmile_qr_scan"}, "is_reserved": 0}, {"lon": -76.92739566666667, "bike_id": "505a915f3335c25f5b3340b6757f5da3", "lat": 38.88964433333334, "fusion_lon": 0.0, "fusion_lat": 0.0, "type": "electric_scooter", "name": "505a915f3335c25f5b3340b6757f5da3", "is_disabled": 0, "rental_uris": {"ios": "https://dc.lft.to/lastmile_qr_scan", "android": "https://dc.lft.to/lastmile_qr_scan"}, "is_reserved": 0}, {"lon": -77.0534485, "bike_id": "d23887146c924ad4053a8731961b3978", "lat": 38.92704466666667, "fusion_lon": 0.0, "fusion_lat": 0.0, "type": "electric_scooter", "name": "d23887146c924ad4053a8731961b3978", "is_disabled": 0, "rental_uris": {"ios": "https://dc.lft.to/lastmile_qr_scan", "android": "https://dc.lft.to/lastmile_qr_scan"}, "is_reserved": 0}, {"lon": -76.985628, "bike_id": "10007231a86d3d4e4b06f0c275922b6f", "lat": 38.89955416666667, "fusion_lon": 0.0, "fusion_lat": 0.0, "type": "electric_scooter", "name": "10007231a86d3d4e4b06f0c275922b6f", "is_disabled": 0, "rental_uris": {"ios": "https://dc.lft.to/lastmile_qr_scan", "android": "https://dc.lft.to/lastmile_qr_scan"}, "is_reserved": 0}, {"lon": -76.99108883333334, "bike_id": "8a9018cfd203fa037171e3c80814edee", "lat": 38.90316116666666, "fusion_lon": 0.0, "fusion_lat": 0.0, "type": "electric_scooter", "name": "8a9018cfd203fa037171e3c80814edee", "is_disabled": 0, "rental_uris": {"ios": "https://dc.lft.to/lastmile_qr_scan", "android": "https://dc.lft.to/lastmile_qr_scan"}, "is_reserved": 0}, {"lon": -77.12657983333334, "bike_id": "ed126851ea14621b2ebae175be9eca19", "lat": 38.81511066666667, "fusion_lon": 0.0, "fusion_lat": 0.0, "type": "electric_bike", "name": "ed126851ea14621b2ebae175be9eca19", "is_disabled": 0, "rental_uris": {"ios": "https://dc.lft.to/lastmile_qr_scan", "android": "https://dc.lft.to/lastmile_qr_scan"}, "is_reserved": 0}, {"lon": -76.97627916666667, "bike_id": "280ff97e1d76d879b828b8045bb1502b", "lat": 38.905698666666666, "fusion_lon": 0.0, "fusion_lat": 0.0, "type": "electric_scooter", "name": "280ff97e1d76d879b828b8045bb1502b", "is_disabled": 0, "rental_uris": {"ios": "https://dc.lft.to/lastmile_qr_scan", "android": "https://dc.lft.to/lastmile_qr_scan"}, "is_reserved": 0}, {"lon": -77.024973, "bike_id": "4d765836f31d9401ef86221cc06119e6", "lat": 38.93966483333333, "fusion_lon": 0.0, "fusion_lat": 0.0, "type": "electric_scooter", "name": "4d765836f31d9401ef86221cc06119e6", "is_disabled": 0, "rental_uris": {"ios": "https://dc.lft.to/lastmile_qr_scan", "android": "https://dc.lft.to/lastmile_qr_scan"}, "is_reserved": 0}, {"lon": -77.07450716666666, "bike_id": "cb6eac4887b2f799caeb33bd9ea2d3bc", "lat": 38.9450975, "fusion_lon": 0.0, "fusion_lat": 0.0, "type": "electric_scooter", "name": "cb6eac4887b2f799caeb33bd9ea2d3bc", "is_disabled": 0, "rental_uris": {"ios": "https://dc.lft.to/lastmile_qr_scan", "android": "https://dc.lft.to/lastmile_qr_scan"}, "is_reserved": 0}, {"lon": -77.12525283333333, "bike_id": "deb5192457a49b7cb18ee55b1b7490f2", "lat": 39.056318833333336, "fusion_lon": 0.0, "fusion_lat": 0.0, "type": "electric_bike", "name": "deb5192457a49b7cb18ee55b1b7490f2", "is_disabled": 0, "rental_uris": {"ios": "https://dc.lft.to/lastmile_qr_scan", "android": "https://dc.lft.to/lastmile_qr_scan"}, "is_reserved": 0}, {"lon": -76.999289, "bike_id": "87754317a59323319424d9ab2ca94b3b", "lat": 38.843140166666664, "fusion_lon": 0.0, "fusion_lat": 0.0, "type": "electric_scooter", "name": "87754317a59323319424d9ab2ca94b3b", "is_disabled": 0, "rental_uris": {"ios": "https://dc.lft.to/lastmile_qr_scan", "android": "https://dc.lft.to/lastmile_qr_scan"}, "is_reserved": 0}, {"lon": -77.02713733333333, "bike_id": "989c2979bd461189adcca99fc8178b77", "lat": 38.906733333333335, "fusion_lon": 0.0, "fusion_lat": 0.0, "type": "electric_scooter", "name": "989c2979bd461189adcca99fc8178b77", "is_disabled": 0, "rental_uris": {"ios": "https://dc.lft.to/lastmile_qr_scan", "android": "https://dc.lft.to/lastmile_qr_scan"}, "is_reserved": 0}, {"lon": -77.036636, "bike_id": "fb18ffb063ed7d102bb12231922be5dc", "lat": 38.917507, "fusion_lon": 0.0, "fusion_lat": 0.0, "type": "electric_scooter", "name": "fb18ffb063ed7d102bb12231922be5dc", "is_disabled": 0, "rental_uris": {"ios": "https://dc.lft.to/lastmile_qr_scan", "android": "https://dc.lft.to/lastmile_qr_scan"}, "is_reserved": 0}, {"lon": -77.03632766666666, "bike_id": "328fb5ad02836838c6a176e76520864f", "lat": 38.932929, "fusion_lon": 0.0, "fusion_lat": 0.0, "type": "electric_scooter", "name": "328fb5ad02836838c6a176e76520864f", "is_disabled": 0, "rental_uris": {"ios": "https://dc.lft.to/lastmile_qr_scan", "android": "https://dc.lft.to/lastmile_qr_scan"}, "is_reserved": 0}, {"lon": -77.02852016666667, "bike_id": "7a95a54e3cd0345ad8956f081cad8617", "lat": 38.887428166666666, "fusion_lon": 0.0, "fusion_lat": 0.0, "type": "electric_scooter", "name": "7a95a54e3cd0345ad8956f081cad8617", "is_disabled": 0, "rental_uris": {"ios": "https://dc.lft.to/lastmile_qr_scan", "android": "https://dc.lft.to/lastmile_qr_scan"}, "is_reserved": 0}, {"lon": -77.03429516666667, "bike_id": "3489c416ce71ea5217b566adb6bd294a", "lat": 38.90245083333333, "fusion_lon": 0.0, "fusion_lat": 0.0, "type": "electric_scooter", "name": "3489c416ce71ea5217b566adb6bd294a", "is_disabled": 0, "rental_uris": {"ios": "https://dc.lft.to/lastmile_qr_scan", "android": "https://dc.lft.to/lastmile_qr_scan"}, "is_reserved": 0}, {"lon": -77.02406733333333, "bike_id": "2650549f5dace0a006e0bb4f2f95a01a", "lat": 38.92089333333333, "fusion_lon": 0.0, "fusion_lat": 0.0, "type": "electric_scooter", "name": "2650549f5dace0a006e0bb4f2f95a01a", "is_disabled": 0, "rental_uris": {"ios": "https://dc.lft.to/lastmile_qr_scan", "android": "https://dc.lft.to/lastmile_qr_scan"}, "is_reserved": 0}, {"lon": -77.00069333333333, "bike_id": "d6dc80eed2f981deaf6f8fe8c76580b6", "lat": 38.899961166666664, "fusion_lon": 0.0, "fusion_lat": 0.0, "type": "electric_scooter", "name": "d6dc80eed2f981deaf6f8fe8c76580b6", "is_disabled": 0, "rental_uris": {"ios": "https://dc.lft.to/lastmile_qr_scan", "android": "https://dc.lft.to/lastmile_qr_scan"}, "is_reserved": 0}, {"lon": -77.01101383333334, "bike_id": "3df4117c28b0791ee6557aa2c4f1b762", "lat": 38.9035585, "fusion_lon": 0.0, "fusion_lat": 0.0, "type": "electric_scooter", "name": "3df4117c28b0791ee6557aa2c4f1b762", "is_disabled": 0, "rental_uris": {"ios": "https://dc.lft.to/lastmile_qr_scan", "android": "https://dc.lft.to/lastmile_qr_scan"}, "is_reserved": 0}, {"lon": -77.0185305, "bike_id": "8ff87395ae666a50b46a953a0cf99155", "lat": 38.912588666666664, "fusion_lon": 0.0, "fusion_lat": 0.0, "type": "electric_scooter", "name": "8ff87395ae666a50b46a953a0cf99155", "is_disabled": 0, "rental_uris": {"ios": "https://dc.lft.to/lastmile_qr_scan", "android": "https://dc.lft.to/lastmile_qr_scan"}, "is_reserved": 0}, {"lon": -77.043834, "bike_id": "9f85ee3336cbabb63a97f8c635360ec0", "lat": 38.918774166666665, "fusion_lon": 0.0, "fusion_lat": 0.0, "type": "electric_scooter", "name": "9f85ee3336cbabb63a97f8c635360ec0", "is_disabled": 0, "rental_uris": {"ios": "https://dc.lft.to/lastmile_qr_scan", "android": "https://dc.lft.to/lastmile_qr_scan"}, "is_reserved": 0}, {"lon": -77.04866816666667, "bike_id": "afa753e093c7e29b00c658e5fbb59221", "lat": 38.91624133333333, "fusion_lon": 0.0, "fusion_lat": 0.0, "type": "electric_scooter", "name": "afa753e093c7e29b00c658e5fbb59221", "is_disabled": 0, "rental_uris": {"ios": "https://dc.lft.to/lastmile_qr_scan", "android": "https://dc.lft.to/lastmile_qr_scan"}, "is_reserved": 0}, {"lon": -76.9860485, "bike_id": "76055925f7c08939699bad1884698e10", "lat": 38.90623083333333, "fusion_lon": 0.0, "fusion_lat": 0.0, "type": "electric_bike", "name": "76055925f7c08939699bad1884698e10", "is_disabled": 0, "rental_uris": {"ios": "https://dc.lft.to/lastmile_qr_scan", "android": "https://dc.lft.to/lastmile_qr_scan"}, "is_reserved": 0}, {"lon": -77.03187583333333, "bike_id": "9573802244ad1c3b762490c02510697e", "lat": 38.91745383333333, "fusion_lon": 0.0, "fusion_lat": 0.0, "type": "electric_scooter", "name": "9573802244ad1c3b762490c02510697e", "is_disabled": 0, "rental_uris": {"ios": "https://dc.lft.to/lastmile_qr_scan", "android": "https://dc.lft.to/lastmile_qr_scan"}, "is_reserved": 0}, {"lon": -77.026214, "bike_id": "fb0739c7bac0a840426d8a0d89807ef0", "lat": 38.96221583333333, "fusion_lon": 0.0, "fusion_lat": 0.0, "type": "electric_bike", "name": "fb0739c7bac0a840426d8a0d89807ef0", "is_disabled": 0, "rental_uris": {"ios": "https://dc.lft.to/lastmile_qr_scan", "android": "https://dc.lft.to/lastmile_qr_scan"}, "is_reserved": 0}, {"lon": -77.00694416666667, "bike_id": "2acd7762f59f1a7c3079ebb449091a5c", "lat": 38.879305, "fusion_lon": 0.0, "fusion_lat": 0.0, "type": "electric_scooter", "name": "2acd7762f59f1a7c3079ebb449091a5c", "is_disabled": 0, "rental_uris": {"ios": "https://dc.lft.to/lastmile_qr_scan", "android": "https://dc.lft.to/lastmile_qr_scan"}, "is_reserved": 0}, {"lon": -76.95477233333334, "bike_id": "ff730a5398d649dd414d42e46fa87fc6", "lat": 38.884667666666665, "fusion_lon": 0.0, "fusion_lat": 0.0, "type": "electric_scooter", "name": "ff730a5398d649dd414d42e46fa87fc6", "is_disabled": 0, "rental_uris": {"ios": "https://dc.lft.to/lastmile_qr_scan", "android": "https://dc.lft.to/lastmile_qr_scan"}, "is_reserved": 0}, {"lon": -76.98886283333333, "bike_id": "1636ecdbc7eac8a8c2424e917b36a254", "lat": 38.86653316666667, "fusion_lon": 0.0, "fusion_lat": 0.0, "type": "electric_scooter", "name": "1636ecdbc7eac8a8c2424e917b36a254", "is_disabled": 0, "rental_uris": {"ios": "https://dc.lft.to/lastmile_qr_scan", "android": "https://dc.lft.to/lastmile_qr_scan"}, "is_reserved": 0}, {"lon": -77.00199583333334, "bike_id": "154e57091c6bc2e90c6c0778df6898cd", "lat": 38.900352, "fusion_lon": 0.0, "fusion_lat": 0.0, "type": "electric_scooter", "name": "154e57091c6bc2e90c6c0778df6898cd", "is_disabled": 0, "rental_uris": {"ios": "https://dc.lft.to/lastmile_qr_scan", "android": "https://dc.lft.to/lastmile_qr_scan"}, "is_reserved": 0}, {"lon": -76.98261333333333, "bike_id": "5dfd8467d16f0c5d0db9458b7a0891c7", "lat": 38.90854916666667, "fusion_lon": 0.0, "fusion_lat": 0.0, "type": "electric_scooter", "name": "5dfd8467d16f0c5d0db9458b7a0891c7", "is_disabled": 0, "rental_uris": {"ios": "https://dc.lft.to/lastmile_qr_scan", "android": "https://dc.lft.to/lastmile_qr_scan"}, "is_reserved": 0}, {"lon": -76.985923, "bike_id": "56ddd836cdf18ab48ee6255b7c98a46a", "lat": 38.908134833333335, "fusion_lon": 0.0, "fusion_lat": 0.0, "type": "electric_scooter", "name": "56ddd836cdf18ab48ee6255b7c98a46a", "is_disabled": 0, "rental_uris": {"ios": "https://dc.lft.to/lastmile_qr_scan", "android": "https://dc.lft.to/lastmile_qr_scan"}, "is_reserved": 0}, {"lon": -77.10088116666667, "bike_id": "c64c91773a7e2225365820d3b90f922a", "lat": 38.959535833333334, "fusion_lon": 0.0, "fusion_lat": 0.0, "type": "electric_bike", "name": "c64c91773a7e2225365820d3b90f922a", "is_disabled": 0, "rental_uris": {"ios": "https://dc.lft.to/lastmile_qr_scan", "android": "https://dc.lft.to/lastmile_qr_scan"}, "is_reserved": 0}, {"lon": -76.99484666666666, "bike_id": "9b46d0d68a90b577eb7d6544bb1c689d", "lat": 38.9156865, "fusion_lon": 0.0, "fusion_lat": 0.0, "type": "electric_scooter", "name": "9b46d0d68a90b577eb7d6544bb1c689d", "is_disabled": 0, "rental_uris": {"ios": "https://dc.lft.to/lastmile_qr_scan", "android": "https://dc.lft.to/lastmile_qr_scan"}, "is_reserved": 0}, {"lon": -77.06474283333333, "bike_id": "5227a5a86fb7cf5739753fab117e1b2e", "lat": 38.946479833333335, "fusion_lon": 0.0, "fusion_lat": 0.0, "type": "electric_scooter", "name": "5227a5a86fb7cf5739753fab117e1b2e", "is_disabled": 0, "rental_uris": {"ios": "https://dc.lft.to/lastmile_qr_scan", "android": "https://dc.lft.to/lastmile_qr_scan"}, "is_reserved": 0}, {"lon": -77.04099833333333, "bike_id": "7e7bd07b0d22a197fd5101b4059d5637", "lat": 38.9203115, "fusion_lon": 0.0, "fusion_lat": 0.0, "type": "electric_scooter", "name": "7e7bd07b0d22a197fd5101b4059d5637", "is_disabled": 0, "rental_uris": {"ios": "https://dc.lft.to/lastmile_qr_scan", "android": "https://dc.lft.to/lastmile_qr_scan"}, "is_reserved": 0}, {"lon": -76.933676, "bike_id": "9edb1f140da6260222f1b854944cdbe4", "lat": 38.89910966666667, "fusion_lon": 0.0, "fusion_lat": 0.0, "type": "electric_scooter", "name": "9edb1f140da6260222f1b854944cdbe4", "is_disabled": 0, "rental_uris": {"ios": "https://dc.lft.to/lastmile_qr_scan", "android": "https://dc.lft.to/lastmile_qr_scan"}, "is_reserved": 0}, {"lon": -76.99405833333333, "bike_id": "8825510e82a684c69da97eddb8ebe659", "lat": 38.831377833333335, "fusion_lon": 0.0, "fusion_lat": 0.0, "type": "electric_bike", "name": "8825510e82a684c69da97eddb8ebe659", "is_disabled": 0, "rental_uris": {"ios": "https://dc.lft.to/lastmile_qr_scan", "android": "https://dc.lft.to/lastmile_qr_scan"}, "is_reserved": 0}, {"lon": -76.98897116666667, "bike_id": "12a69bdfb0de0586afc8f51923091d51", "lat": 38.913442333333336, "fusion_lon": 0.0, "fusion_lat": 0.0, "type": "electric_scooter", "name": "12a69bdfb0de0586afc8f51923091d51", "is_disabled": 0, "rental_uris": {"ios": "https://dc.lft.to/lastmile_qr_scan", "android": "https://dc.lft.to/lastmile_qr_scan"}, "is_reserved": 0}, {"lon": -77.03651983333333, "bike_id": "6f29c1cbacca992a29104ce2d47c83ae", "lat": 38.94177333333333, "fusion_lon": 0.0, "fusion_lat": 0.0, "type": "electric_scooter", "name": "6f29c1cbacca992a29104ce2d47c83ae", "is_disabled": 0, "rental_uris": {"ios": "https://dc.lft.to/lastmile_qr_scan", "android": "https://dc.lft.to/lastmile_qr_scan"}, "is_reserved": 0}, {"lon": -77.03875866666667, "bike_id": "72a9ed80ec7a90d9561c3c1a46dc3448", "lat": 38.93299016666667, "fusion_lon": 0.0, "fusion_lat": 0.0, "type": "electric_scooter", "name": "72a9ed80ec7a90d9561c3c1a46dc3448", "is_disabled": 0, "rental_uris": {"ios": "https://dc.lft.to/lastmile_qr_scan", "android": "https://dc.lft.to/lastmile_qr_scan"}, "is_reserved": 0}, {"lon": -76.98190433333333, "bike_id": "bd7b6002b52ad67257bdfaf6506acaab", "lat": 38.92605066666667, "fusion_lon": 0.0, "fusion_lat": 0.0, "type": "electric_scooter", "name": "bd7b6002b52ad67257bdfaf6506acaab", "is_disabled": 0, "rental_uris": {"ios": "https://dc.lft.to/lastmile_qr_scan", "android": "https://dc.lft.to/lastmile_qr_scan"}, "is_reserved": 0}, {"lon": -76.9429135, "bike_id": "659b51f992bac834ec30ee7b699a17c3", "lat": 38.938688166666665, "fusion_lon": 0.0, "fusion_lat": 0.0, "type": "electric_bike", "name": "659b51f992bac834ec30ee7b699a17c3", "is_disabled": 0, "rental_uris": {"ios": "https://dc.lft.to/lastmile_qr_scan", "android": "https://dc.lft.to/lastmile_qr_scan"}, "is_reserved": 0}, {"lon": -76.99001366666667, "bike_id": "a671136e624bb8280a567aed3f209be4", "lat": 38.865029666666665, "fusion_lon": 0.0, "fusion_lat": 0.0, "type": "electric_scooter", "name": "a671136e624bb8280a567aed3f209be4", "is_disabled": 0, "rental_uris": {"ios": "https://dc.lft.to/lastmile_qr_scan", "android": "https://dc.lft.to/lastmile_qr_scan"}, "is_reserved": 0},