{"data": {"bikes": [{"fusion_lon": 0.0, "name": "b38c8bb0a7cbd49b79dba0101a47b4cf", "rental_uris": {"android": "https://dc.lft.to/lastmile_qr_scan", "ios": "https://dc.lft.to/lastmile_qr_scan"}, "lat": 38.923883000000004, "bike_id": "b38c8bb0a7cbd49b79dba0101a47b4cf", "is_disabled": 0, "lon": -77.02731383333334, "is_reserved": 0, "fusion_lat": 0.0, "type": "electric_scooter"}, {"fusion_lon": 0.0, "name": "44667708809c3fdc9b6a86912cfd3641", "rental_uris": {"android": "https://dc.lft.to/lastmile_qr_scan", "ios": "https://dc.lft.to/lastmile_qr_scan"}, "lat": 38.922366333333336, "bike_id": "44667708809c3fdc9b6a86912cfd3641", "is_disabled": 0, "lon": -77.03660483333333, "is_reserved": 0, "fusion_lat": 0.0, "type": "electric_scooter"}, {"fusion_lon": 0.0, "name": "17b6134abfea8d6ad68ace54f0501159", "rental_uris": {"android": "https://dc.lft.to/lastmile_qr_scan", "ios": "https://dc.lft.to/lastmile_qr_scan"}, "lat": 38.909888, "bike_id": "17b6134abfea8d6ad68ace54f0501159", "is_disabled": 0, "lon": -77.04655833333334, "is_reserved": 0, "fusion_lat": 0.0, "type": "electric_scooter"}, {"fusion_lon": 0.0, "name": "b6a9fe1f3bb915f85d4a6ecc34d42207", "rental_uris": {"android": "https://dc.lft.to/lastmile_qr_scan", "ios": "https://dc.lft.to/lastmile_qr_scan"}, "lat": 38.899337333333335, "bike_id": "b6a9fe1f3bb915f85d4a6ecc34d42207", "is_disabled": 0, "lon": -76.99734766666667, "is_reserved": 0, "fusion_lat": 0.0, "type": "electric_scooter"}, {"fusion_lon": 0.0, "name": "8e51006ead1dac96cbe6d81357e7e9ce", "rental_uris": {"android": "https://dc.lft.to/lastmile_qr_scan", "ios": "https://dc.lft.to/lastmile_qr_scan"}, "lat": 38.929903833333334, "bike_id": "8e51006ead1dac96cbe6d81357e7e9ce", "is_disabled": 0, "lon": -77.03227733333334, "is_reserved": 0, "fusion_lat": 0.0, "type": "electric_scooter"}, {"fusion_lon": 0.0, "name": "c39f02588e7a8e04261c313a7dbaa552", "rental_uris": {"android": "https://dc.lft.to/lastmile_qr_scan", "ios": "https://dc.lft.to/lastmile_qr_scan"}, "lat": 38.918875166666666, "bike_id": "c39f02588e7a8e04261c313a7dbaa552", "is_disabled": 0, "lon": -77.0188925, "is_reserved": 0, "fusion_lat": 0.0, "type": "electric_scooter"}, {"fusion_lon": 0.0, "name": "fed906714bd9edb04fa99b485e0fbba5", "rental_uris": {"android": "https://dc.lft.to/lastmile_qr_scan", "ios": "https://dc.lft.to/lastmile_qr_scan"}, "lat": 38.86471083333333, "bike_id": "fed906714bd9edb04fa99b485e0fbba5", "is_disabled": 0, "lon": -76.98223866666666, "is_reserved": 0, "fusion_lat": 0.0, "type": "electric_scooter"}, {"fusion_lon": 0.0, "name": "f34fa738fbb82a147acfd4d391a277c2", "rental_uris": {"android": "https://dc.lft.to/lastmile_qr_scan", "ios": "https://dc.lft.to/lastmile_qr_scan"}, "lat": 38.934593, "bike_id": "f34fa738fbb82a147acfd4d391a277c2", "is_disabled": 0, "lon": -77.034952, "is_reserved": 0, "fusion_lat": 0.0, "type": "electric_scooter"}, {"fusion_lon": 0.0, "name": "d58290ed8410f1e6d73f5b5176940e56", "rental_uris": {"android": "https://dc.lft.to/lastmile_qr_scan", "ios": "https://dc.lft.to/lastmile_qr_scan"}, "lat": 38.857074, "bike_id": "d58290ed8410f1e6d73f5b5176940e56", "is_disabled": 0, "lon": -76.98121916666666, "is_reserved": 0, "fusion_lat": 0.0, "type": "electric_scooter"}, {"fusion_lon": 0.0, "name": "72b0e9610ce91b24ead8586b59f48637", "rental_uris": {"android": "https://dc.lft.to/lastmile_qr_scan", "ios": "https://dc.lft.to/lastmile_qr_scan"}, "lat": 38.92674216666666, "bike_id": "72b0e9610ce91b24ead8586b59f48637", "is_disabled": 0, "lon": -77.02582133333334, "is_reserved": 0, "fusion_lat": 0.0, "type": "electric_scooter"}, {"fusion_lon": 0.0, "name": "eb0ee4b658f007fcafb037e592ec2db7", "rental_uris": {"android": "https://dc.lft.to/lastmile_qr_scan", "ios": "https://dc.lft.to/lastmile_qr_scan"}, "lat": 38.92418933333333, "bike_id": "eb0ee4b658f007fcafb037e592ec2db7", "is_disabled": 0, "lon": -77.019502, "is_reserved": 0, "fusion_lat": 0.0, "type": "electric_scooter"}, {"fusion_lon": 0.0, "name": "fd863923de2321df881e0aa198e1dcca", "rental_uris": {"android": "https://dc.lft.to/lastmile_qr_scan", "ios": "https://dc.lft.to/lastmile_qr_scan"}, "lat": 38.88234883333333, "bike_id": "fd863923de2321df881e0aa198e1dcca", "is_disabled": 0, "lon": -76.994895, "is_reserved": 0, "fusion_lat": 0.0, "type": "electric_scooter"}, {"fusion_lon": 0.0, "name": "ea9a808ca891e751c444db1db81410ce", "rental_uris": {"android": "https://dc.lft.to/lastmile_qr_scan", "ios": "https://dc.lft.to/lastmile_qr_scan"}, "lat": 38.90730166666667, "bike_id": "ea9a808ca891e751c444db1db81410ce", "is_disabled": 0, "lon": -77.00339833333334, "is_reserved": 0, "fusion_lat": 0.0, "type": "electric_bike"}, {"fusion_lon": 0.0, "name": "7eebd421efed12ddff6b0cd5aa8e51c1", "rental_uris": {"android": "https://dc.lft.to/lastmile_qr_scan", "ios": "https://dc.lft.to/lastmile_qr_scan"}, "lat": 38.933148333333335, "bike_id": "7eebd421efed12ddff6b0cd5aa8e51c1", "is_disabled": 0, "lon": -77.03619166666667, "is_reserved": 0, "fusion_lat": 0.0, "type": "electric_scooter"}, {"fusion_lon": 0.0, "name": "9713c5c0ffa24ef1653dc774b0005f57", "rental_uris": {"android": "https://dc.lft.to/lastmile_qr_scan", "ios": "https://dc.lft.to/lastmile_qr_scan"}, "lat": 38.8769745, "bike_id": "9713c5c0ffa24ef1653dc774b0005f57", "is_disabled": 0, "lon": -77.0074045, "is_reserved": 0, "fusion_lat": 0.0, "type": "electric_scooter"}, {"fusion_lon": 0.0, "name": "066187a7503f762cc43a87130947ffd2", "rental_uris": {"android": "https://dc.lft.to/lastmile_qr_scan", "ios": "https://dc.lft.to/lastmile_qr_scan"}, "lat": 38.96034083333333, "bike_id": "066187a7503f762cc43a87130947ffd2", "is_disabled": 0, "lon": -77.02428933333333, "is_reserved": 0, "fusion_lat": 0.0, "type": "electric_scooter"}, {"fusion_lon": 0.0, "name": "9d8562829d28ac8a9b84ee8caa63c111", "rental_uris": {"android": "https://dc.lft.to/lastmile_qr_scan", "ios": "https://dc.lft.to/lastmile_qr_scan"}, "lat": 38.91329433333333, "bike_id": "9d8562829d28ac8a9b84ee8caa63c111", "is_disabled": 0, "lon": -77.0452985, "is_reserved": 0, "fusion_lat": 0.0, "type": "electric_scooter"}, {"fusion_lon": 0.0, "name": "bc9c273cba375011b90e36275675a667", "rental_uris": {"android": "https://dc.lft.to/lastmile_qr_scan", "ios": "https://dc.lft.to/lastmile_qr_scan"}, "lat": 38.91578666666667, "bike_id": "bc9c273cba375011b90e36275675a667", "is_disabled": 0, "lon": -77.04503733333334, "is_reserved": 0, "fusion_lat": 0.0, "type": "electric_scooter"}, {"fusion_lon": 0.0, "name": "52410d7792908f2fd02c0e1d4bdb2243", "rental_uris": {"android": "https://dc.lft.to/lastmile_qr_scan", "ios": "https://dc.lft.to/lastmile_qr_scan"}, "lat": 38.862530166666666, "bike_id": "52410d7792908f2fd02c0e1d4bdb2243", "is_disabled": 0, "lon": -76.99556066666666, "is_reserved": 0, "fusion_lat": 0.0, "type": "electric_scooter"}, {"fusion_lon": 0.0, "name": "087d8f69193bdd5f0fab7476511ab9ce", "rental_uris": {"android": "https://dc.lft.to/lastmile_qr_scan", "ios": "https://dc.lft.to/lastmile_qr_scan"}, "lat": 38.9244055, "bike_id": "087d8f69193bdd5f0fab7476511ab9ce", "is_disabled": 0, "lon": -77.0215085, "is_reserved": 0, "fusion_lat": 0.0, "type": "electric_scooter"}, {"fusion_lon": 0.0, "name": "4d27a001e17492bbd730394e26d9bed9", "rental_uris": {"android": "https://dc.lft.to/lastmile_qr_scan", "ios": "https://dc.lft.to/lastmile_qr_scan"}, "lat": 38.9096555, "bike_id": "4d27a001e17492bbd730394e26d9bed9", "is_disabled": 0, "lon": -77.02373683333333, "is_reserved": 0, "fusion_lat": 0.0, "type": "electric_scooter"}, {"fusion_lon": 0.0, "name": "f53bb7504b51ae2647666e87c5b25917", "rental_uris": {"android": "https://dc.lft.to/lastmile_qr_scan", "ios": "https://dc.lft.to/lastmile_qr_scan"}, "lat": 38.93400416666667, "bike_id": "f53bb7504b51ae2647666e87c5b25917", "is_disabled": 0, "lon": -77.03820783333333, "is_reserved": 0, "fusion_lat": 0.0, "type": "electric_scooter"}, {"fusion_lon": 0.0, "name": "e038ff40d92ab71d330dd5b5857ade52", "rental_uris": {"android": "https://dc.lft.to/lastmile_qr_scan", "ios": "https://dc.lft.to/lastmile_qr_scan"}, "lat": 38.958854333333335, "bike_id": "e038ff40d92ab71d330dd5b5857ade52", "is_disabled": 0, "lon": -76.970483, "is_reserved": 0, "fusion_lat": 0.0, "type": "electric_bike"}, {"fusion_lon": 0.0, "name": "ecd30f407072ce8e45bfaae80f3687df", "rental_uris": {"android": "https://dc.lft.to/lastmile_qr_scan", "ios": "https://dc.lft.to/lastmile_qr_scan"}, "lat": 38.93013883333333, "bike_id": "ecd30f407072ce8e45bfaae80f3687df", "is_disabled": 0, "lon": -77.06187783333333, "is_reserved": 0, "fusion_lat": 0.0, "type": "electric_scooter"}, {"fusion_lon": 0.0, "name": "3d18f895c42699b170f4dca6609673c7", "rental_uris": {"android": "https://dc.lft.to/lastmile_qr_scan", "ios": "https://dc.lft.to/lastmile_qr_scan"}, "lat": 38.912084666666665, "bike_id": "3d18f895c42699b170f4dca6609673c7", "is_disabled": 0, "lon": -77.021923, "is_reserved": 0, "fusion_lat": 0.0, "type": "electric_scooter"}, {"fusion_lon": 0.0, "name": "564d9485fe3707924fb0f96dde2de8c5", "rental_uris": {"android": "https://dc.lft.to/lastmile_qr_scan", "ios": "https://dc.lft.to/lastmile_qr_scan"}, "lat": 38.92688666666667, "bike_id": "564d9485fe3707924fb0f96dde2de8c5", "is_disabled": 0, "lon": -77.03235566666666, "is_reserved": 0, "fusion_lat": 0.0, "type": "electric_scooter"}, {"fusion_lon": 0.0, "name": "45a03597af55590568448d23ae4a32e6", "rental_uris": {"android": "https://dc.lft.to/lastmile_qr_scan", "ios": "https://dc.lft.to/lastmile_qr_scan"}, "lat": 38.922602833333336, "bike_id": "45a03597af55590568448d23ae4a32e6", "is_disabled": 0, "lon": -77.01891083333334, "is_reserved": 0, "fusion_lat": 0.0, "type": "electric_scooter"}, {"fusion_lon": 0.0, "name": "0b2202247fac95d5b3a0062bf2474b90", "rental_uris": {"android": "https://dc.lft.to/lastmile_qr_scan", "ios": "https://dc.lft.to/lastmile_qr_scan"}, "lat": 38.892202, "bike_id": "0b2202247fac95d5b3a0062bf2474b90", "is_disabled": 0, "lon": -77.04686033333333, "is_reserved": 0, "fusion_lat": 0.0, "type": "electric_scooter"}, {"fusion_lon": 0.0, "name": "1e7acfda23a007b04f55e555d06d15ac", "rental_uris": {"android": "https://dc.lft.to/lastmile_qr_scan", "ios": "https://dc.lft.to/lastmile_qr_scan"}, "lat": 38.87895616666667, "bike_id": "1e7acfda23a007b04f55e555d06d15ac", "is_disabled": 0, "lon": -77.02208266666666, "is_reserved": 0, "fusion_lat": 0.0, "type": "electric_scooter"}, {"fusion_lon": 0.0, "name": "a9bc3e866342101bd03c8f6ba9e41a84", "rental_uris": {"android": "https://dc.lft.to/lastmile_qr_scan", "ios": "https://dc.lft.to/lastmile_qr_scan"}, "lat": 38.89712683333333, "bike_id": "a9bc3e866342101bd03c8f6ba9e41a84", "is_disabled": 0, "lon": -76.93914766666667, "is_reserved": 0, "fusion_lat": 0.0, "type": "electric_scooter"}, {"fusion_lon": 0.0, "name": "3cfb7ffe580f5291f20c331e1c2789b3", "rental_uris": {"android": "https://dc.lft.to/lastmile_qr_scan", "ios": "https://dc.lft.to/lastmile_qr_scan"}, "lat": 38.89717816666667, "bike_id": "3cfb7ffe580f5291f20c331e1c2789b3", "is_disabled": 0, "lon": -77.02703833333334, "is_reserved": 0, "fusion_lat": 0.0, "type": "electric_scooter"}, {"fusion_lon": 0.0, "name": "5b52a31966ce1a40ff987f01a469396d", "rental_uris": {"android": "https://dc.lft.to/lastmile_qr_scan", "ios": "https://dc.lft.to/lastmile_qr_scan"}, "lat": 38.88820466666667, "bike_id": "5b52a31966ce1a40ff987f01a469396d", "is_disabled": 0, "lon": -76.97701716666667, "is_reserved": 0, "fusion_lat": 0.0, "type": "electric_scooter"}, {"fusion_lon": 0.0, "name": "8551d615c3d812ca5cf00c4927d04b52", "rental_uris": {"android": "https://dc.lft.to/lastmile_qr_scan", "ios": "https://dc.lft.to/lastmile_qr_scan"}, "lat": 38.895123166666664, "bike_id": "8551d615c3d812ca5cf00c4927d04b52", "is_disabled": 0, "lon": -76.94888066666667, "is_reserved": 0, "fusion_lat": 0.0, "type": "electric_scooter"}, {"fusion_lon": 0.0, "name": "86b5f692227e386e32e3c0958d9b1e1a", "rental_uris": {"android": "https://dc.lft.to/lastmile_qr_scan", "ios": "https://dc.lft.to/lastmile_qr_scan"}, "lat": 38.8935985, "bike_id": "86b5f692227e386e32e3c0958d9b1e1a", "is_disabled": 0, "lon": -77.04611883333334, "is_reserved": 0, "fusion_lat": 0.0, "type": "electric_scooter"}, {"fusion_lon": 0.0, "name": "097b0ab75c8c421116687b497976a013", "rental_uris": {"android": "https://dc.lft.to/lastmile_qr_scan", "ios": "https://dc.lft.to/lastmile_qr_scan"}, "lat": 38.92459433333333, "bike_id": "097b0ab75c8c421116687b497976a013", "is_disabled": 0, "lon": -77.05755883333333, "is_reserved": 0, "fusion_lat": 0.0, "type": "electric_scooter"}, {"fusion_lon": 0.0, "name": "06ba99c7e9390ceb21a954f1f3b68c97", "rental_uris": {"android": "https://dc.lft.to/lastmile_qr_scan", "ios": "https://dc.lft.to/lastmile_qr_scan"}, "lat": 38.91094066666667, "bike_id": "06ba99c7e9390ceb21a954f1f3b68c97", "is_disabled": 0, "lon": -77.0447955, "is_reserved": 0, "fusion_lat": 0.0, "type": "electric_scooter"}, {"fusion_lon": 0.0, "name": "b136cf0a2d34e30133c0a36560d9e7e3", "rental_uris": {"android": "https://dc.lft.to/lastmile_qr_scan", "ios": "https://dc.lft.to/lastmile_qr_scan"}, "lat": 38.87659683333333, "bike_id": "b136cf0a2d34e30133c0a36560d9e7e3", "is_disabled": 0, "lon": -77.01168916666667, "is_reserved": 0, "fusion_lat": 0.0, "type": "electric_scooter"}, {"fusion_lon": 0.0, "name": "30dd7512d25e1ae17bfb58fe8d5b51c7", "rental_uris": {"android": "https://dc.lft.to/lastmile_qr_scan", "ios": "https://dc.lft.to/lastmile_qr_scan"}, "lat": 38.876613166666665, "bike_id": "30dd7512d25e1ae17bfb58fe8d5b51c7", "is_disabled": 0, "lon": -77.00546933333334, "is_reserved": 0, "fusion_lat": 0.0, "type": "electric_scooter"}, {"fusion_lon": 0.0, "name": "54f156d6728af7a3c03baf346a3ea45d", "rental_uris": {"android": "https://dc.lft.to/lastmile_qr_scan", "ios": "https://dc.lft.to/lastmile_qr_scan"}, "lat": 38.902429833333336, "bike_id": "54f156d6728af7a3c03baf346a3ea45d", "is_disabled": 0, "lon": -77.03251483333334, "is_reserved": 0, "fusion_lat": 0.0, "type": "electric_scooter"}, {"fusion_lon": 0.0, "name": "4c67aab22386bb6971fd8e815f1650f9", "rental_uris": {"android": "https://dc.lft.to/lastmile_qr_scan", "ios": "https://dc.lft.to/lastmile_qr_scan"}, "lat": 38.9106285, "bike_id": "4c67aab22386bb6971fd8e815f1650f9", "is_disabled": 0, "lon": -77.00924483333333, "is_reserved": 0, "fusion_lat": 0.0, "type": "electric_scooter"}, {"fusion_lon": 0.0, "name": "5d632c50550849142ca3786b080bd371", "rental_uris": {"android": "https://dc.lft.to/lastmile_qr_scan", "ios": "https://dc.lft.to/lastmile_qr_scan"}, "lat": 38.9561575, "bike_id": "5d632c50550849142ca3786b080bd371", "is_disabled": 0, "lon": -77.0324585, "is_reserved": 0, "fusion_lat": 0.0, "type": "electric_scooter"}, {"fusion_lon": 0.0, "name": "db1b1adc7af975d00a8b8822dd299503", "rental_uris": {"android": "https://dc.lft.to/lastmile_qr_scan", "ios": "https://dc.lft.to/lastmile_qr_scan"}, "lat": 38.92638566666667, "bike_id": "db1b1adc7af975d00a8b8822dd299503", "is_disabled": 0, "lon": -77.0250445, "is_reserved": 0, "fusion_lat": 0.0, "type": "electric_scooter"}, {"fusion_lon": 0.0, "name": "b38c81d9c95dc0b673c96b05e98da6d0", "rental_uris": {"android": "https://dc.lft.to/lastmile_qr_scan", "ios": "https://dc.lft.to/lastmile_qr_scan"}, "lat": 38.88600016666667, "bike_id": "b38c81d9c95dc0b673c96b05e98da6d0", "is_disabled": 0, "lon": -77.04512083333333, "is_reserved": 0, "fusion_lat": 0.0, "type": "electric_scooter"}, {"fusion_lon": 0.0, "name": "7696063269d1ab8afb2b9b3a576e9ad7", "rental_uris": {"android": "https://dc.lft.to/lastmile_qr_scan", "ios": "https://dc.lft.to/lastmile_qr_scan"}, "lat": 38.932902166666665, "bike_id": "7696063269d1ab8afb2b9b3a576e9ad7", "is_disabled": 0, "lon": -77.0283955, "is_reserved": 0, "fusion_lat": 0.0, "type": "electric_scooter"}, {"fusion_lon": 0.0, "name": "a4575e17d02d59bde8072804a4945d5c", "rental_uris": {"android": "https://dc.lft.to/lastmile_qr_scan", "ios": "https://dc.lft.to/lastmile_qr_scan"}, "lat": 38.901166333333336, "bike_id": "a4575e17d02d59bde8072804a4945d5c", "is_disabled": 0, "lon": -77.04484266666667, "is_reserved": 0, "fusion_lat": 0.0, "type": "electric_scooter"}, {"fusion_lon": 0.0, "name": "8327affc0530554e6c11f0ed1cc4c17f", "rental_uris": {"android": "https://dc.lft.to/lastmile_qr_scan", "ios": "https://dc.lft.to/lastmile_qr_scan"}, "lat": 38.89709366666666, "bike_id": "8327affc0530554e6c11f0ed1cc4c17f", "is_disabled": 0, "lon": -76.99117933333333, "is_reserved": 0, "fusion_lat": 0.0, "type": "electric_scooter"}, {"fusion_lon": 0.0, "name": "34e7783ce7b64be07e2d376a7eb12cbd", "rental_uris": {"android": "https://dc.lft.to/lastmile_qr_scan", "ios": "https://dc.lft.to/lastmile_qr_scan"}, "lat": 38.92464716666667, "bike_id": "34e7783ce7b64be07e2d376a7eb12cbd", "is_disabled": 0, "lon": -77.027095, "is_reserved": 0, "fusion_lat": 0.0, "type": "electric_scooter"}, {"fusion_lon": 0.0, "name": "68ba1fba81c3d70ae2a77a036aead86c", "rental_uris": {"android": "https://dc.lft.to/lastmile_qr_scan", "ios": "https://dc.lft.to/lastmile_qr_scan"}, "lat": 38.89881833333333, "bike_id": "68ba1fba81c3d70ae2a77a036aead86c", "is_disabled": 0, "lon": -76.98835133333333, "is_reserved": 0, "fusion_lat": 0.0, "type": "electric_scooter"}, {"fusion_lon": 0.0, "name": "2edd5cbd1918a9a07a1f0e79b21cf62d", "rental_uris": {"android": "https://dc.lft.to/lastmile_qr_scan", "ios": "https://dc.lft.to/lastmile_qr_scan"}, "lat": 38.92314733333333, "bike_id": "2edd5cbd1918a9a07a1f0e79b21cf62d", "is_disabled": 0, "lon": -77.0195015, "is_reserved": 0, "fusion_lat": 0.0, "type": "electric_scooter"}, {"fusion_lon": 0.0, "name": "629c12737e11492e0891c0d887c1c70d", "rental_uris": {"android": "https://dc.lft.to/lastmile_qr_scan", "ios": "https://dc.lft.to/lastmile_qr_scan"}, "lat": 38.899049166666664, "bike_id": "629c12737e11492e0891c0d887c1c70d", "is_disabled": 0, "lon": -77.03177966666667, "is_reserved": 0, "fusion_lat": 0.0, "type": "electric_scooter"}, {"fusion_lon": 0.0, "name": "f409af7964ca2c359823dadc65c3505e", "rental_uris": {"android": "https://dc.lft.to/lastmile_qr_scan", "ios": "https://dc.lft.to/lastmile_qr_scan"}, "lat": 38.928123666666664, "bike_id": "f409af7964ca2c359823dadc65c3505e", "is_disabled": 0, "lon": -77.03692816666667, "is_reserved": 0, "fusion_lat": 0.0, "type": "electric_scooter"}, {"fusion_lon": 0.0, "name": "53db1a7d87f295293fbe4ff08140aada", "rental_uris": {"android": "https://dc.lft.to/lastmile_qr_scan", "ios": "https://dc.lft.to/lastmile_qr_scan"}, "lat": 38.92364833333333, "bike_id": "53db1a7d87f295293fbe4ff08140aada", "is_disabled": 0, "lon": -77.0194915, "is_reserved": 0, "fusion_lat": 0.0, "type": "electric_scooter"}, {"fusion_lon": 0.0, "name": "f8db803ce870ec85638c11ae69f6cab9", "rental_uris": {"android": "https://dc.lft.to/lastmile_qr_scan", "ios": "https://dc.lft.to/lastmile_qr_scan"}, "lat": 38.911186, "bike_id": "f8db803ce870ec85638c11ae69f6cab9", "is_disabled": 0, "lon": -77.03290566666666, "is_reserved": 0, "fusion_lat": 0.0, "type": "electric_scooter"}, {"fusion_lon": 0.0, "name": "3da5b44abaf0a30074005efe3a928f11", "rental_uris": {"android": "https://dc.lft.to/lastmile_qr_scan", "ios": "https://dc.lft.to/lastmile_qr_scan"}, "lat": 38.92928116666667, "bike_id": "3da5b44abaf0a30074005efe3a928f11", "is_disabled": 0, "lon": -77.006749, "is_reserved": 0, "fusion_lat": 0.0, "type": "electric_scooter"}, {"fusion_lon": 0.0, "name": "723e6137c02ddc05ac4595d50519107f", "rental_uris": {"android": "https://dc.lft.to/lastmile_qr_scan", "ios": "https://dc.lft.to/lastmile_qr_scan"}, "lat": 38.89737133333333, "bike_id": "723e6137c02ddc05ac4595d50519107f", "is_disabled": 0, "lon": -77.01266816666667, "is_reserved": 0, "fusion_lat": 0.0, "type": "electric_scooter"}, {"fusion_lon": 0.0, "name": "be8c502061e741a33104fe2210914a72", "rental_uris": {"android": "https://dc.lft.to/lastmile_qr_scan", "ios": "https://dc.lft.to/lastmile_qr_scan"}, "lat": 38.93461116666667, "bike_id": "be8c502061e741a33104fe2210914a72", "is_disabled": 0, "lon": -77.058057, "is_reserved": 0, "fusion_lat": 0.0, "type": "electric_scooter"}, {"fusion_lon": 0.0, "name": "9b0fe8d8dc256db9c6181385b390ef40", "rental_uris": {"android": "https://dc.lft.to/lastmile_qr_scan", "ios": "https://dc.lft.to/lastmile_qr_scan"}, "lat": 38.8922505, "bike_id": "9b0fe8d8dc256db9c6181385b390ef40", "is_disabled": 0, "lon": -77.04505866666666, "is_reserved": 0, "fusion_lat": 0.0, "type": "electric_scooter"}, {"fusion_lon": 0.0, "name": "70bc9a6c962aab4f0dcacd4d4b2a720b", "rental_uris": {"android": "https://dc.lft.to/lastmile_qr_scan", "ios": "https://dc.lft.to/lastmile_qr_scan"}, "lat": 38.880268, "bike_id": "70bc9a6c962aab4f0dcacd4d4b2a720b", "is_disabled": 0, "lon": -77.00570816666666, "is_reserved": 0, "fusion_lat": 0.0, "type": "electric_scooter"}, {"fusion_lon": 0.0, "name": "96e37d0e0c69df7e26e1d20a7b9e9c54", "rental_uris": {"android": "https://dc.lft.to/lastmile_qr_scan", "ios": "https://dc.lft.to/lastmile_qr_scan"}, "lat": 38.89768133333333, "bike_id": "96e37d0e0c69df7e26e1d20a7b9e9c54", "is_disabled": 0, "lon": -77.02697433333333, "is_reserved": 0, "fusion_lat": 0.0, "type": "electric_scooter"}, {"fusion_lon": 0.0, "name": "9be966cd106104f5b9f23943892b12ee", "rental_uris": {"android": "https://dc.lft.to/lastmile_qr_scan", "ios": "https://dc.lft.to/lastmile_qr_scan"}, "lat": 38.9183085, "bike_id": "9be966cd106104f5b9f23943892b12ee", "is_disabled": 0, "lon": -77.04525316666667, "is_reserved": 0, "fusion_lat": 0.0, "type": "electric_scooter"}, {"fusion_lon": 0.0, "name": "d11aff5f0d450f9e518336123b3f14f3", "rental_uris": {"android": "https://dc.lft.to/lastmile_qr_scan", "ios": "https://dc.lft.to/lastmile_qr_scan"}, "lat": 38.91189516666667, "bike_id": "d11aff5f0d450f9e518336123b3f14f3", "is_disabled": 0, "lon": -77.03212833333333, "is_reserved": 0, "fusion_lat": 0.0, "type": "electric_scooter"}, {"fusion_lon": 0.0, "name": "b0a31935e21feb2f19b7382e8b1fd8d0", "rental_uris": {"android": "https://dc.lft.to/lastmile_qr_scan", "ios": "https://dc.lft.to/lastmile_qr_scan"}, "lat": 38.907786333333334, "bike_id": "b0a31935e21feb2f19b7382e8b1fd8d0", "is_disabled": 0, "lon": -77.00212416666666, "is_reserved": 0, "fusion_lat": 0.0, "type": "electric_scooter"}, {"fusion_lon": 0.0, "name": "800bfe1f95ba6e8d71151045ffa7d373", "rental_uris": {"android": "https://dc.lft.to/lastmile_qr_scan", "ios": "https://dc.lft.to/lastmile_qr_scan"}, "lat": 38.9266665, "bike_id": "800bfe1f95ba6e8d71151045ffa7d373", "is_disabled": 0, "lon": -77.0308535, "is_reserved": 0, "fusion_lat": 0.0, "type": "electric_scooter"}, {"fusion_lon": 0.0, "name": "e036a574db97ed5388a759b06a3326a1", "rental_uris": {"android": "https://dc.lft.to/lastmile_qr_scan", "ios": "https://dc.lft.to/lastmile_qr_scan"}, "lat": 38.915113166666664, "bike_id": "e036a574db97ed5388a759b06a3326a1", "is_disabled": 0, "lon": -77.04497966666666, "is_reserved": 0, "fusion_lat": 0.0, "type": "electric_scooter"}, {"fusion_lon": 0.0, "name": "30e3054ec0258f4e1c79375861bca2c8", "rental_uris": {"android": "https://dc.lft.to/lastmile_qr_scan", "ios": "https://dc.lft.to/lastmile_qr_scan"}, "lat": 38.887416, "bike_id": "30e3054ec0258f4e1c79375861bca2c8", "is_disabled": 0, "lon": -77.0286785, "is_reserved": 0, "fusion_lat": 0.0, "type": "electric_scooter"}, {"fusion_lon": 0.0, "name": "d4e69ccc4870d9dddbdb120436026ad2", "rental_uris": {"android": "https://dc.lft.to/lastmile_qr_scan", "ios": "https://dc.lft.to/lastmile_qr_scan"}, "lat": 38.876629333333334, "bike_id": "d4e69ccc4870d9dddbdb120436026ad2", "is_disabled": 0, "lon": -77.00564366666667, "is_reserved": 0, "fusion_lat": 0.0, "type": "electric_scooter"}, {"fusion_lon": 0.0, "name": "85efe72f925db6a385faa8f4453c9592", "rental_uris": {"android": "https://dc.lft.to/lastmile_qr_scan", "ios": "https://dc.lft.to/lastmile_qr_scan"}, "lat": 38.8990965, "bike_id": "85efe72f925db6a385faa8f4453c9592", "is_disabled": 0, "lon": -76.933883, "is_reserved": 0, "fusion_lat": 0.0, "type": "electric_scooter"}, {"fusion_lon": 0.0, "name": "fb7726f60d069dd99bdfa449430face4", "rental_uris": {"android": "https://dc.lft.to/lastmile_qr_scan", "ios": "https://dc.lft.to/lastmile_qr_scan"}, "lat": 38.90961766666667, "bike_id": "fb7726f60d069dd99bdfa449430face4", "is_disabled": 0, "lon": -77.03379516666666, "is_reserved": 0, "fusion_lat": 0.0, "type": "electric_scooter"}, {"fusion_lon": 0.0, "name": "c15cd12ad9fbfc055a339747cb888442", "rental_uris": {"android": "https://dc.lft.to/lastmile_qr_scan", "ios": "https://dc.lft.to/lastmile_qr_scan"}, "lat": 38.915517333333334, "bike_id": "c15cd12ad9fbfc055a339747cb888442", "is_disabled": 0, "lon": -77.007199, "is_reserved": 0, "fusion_lat": 0.0, "type": "electric_scooter"}, {"fusion_lon": 0.0, "name": "2df2f5aa85fc98024f242f3d83a9868e", "rental_uris": {"android": "https://dc.lft.to/lastmile_qr_scan", "ios": "https://dc.lft.to/lastmile_qr_scan"}, "lat": 38.917298, "bike_id": "2df2f5aa85fc98024f242f3d83a9868e", "is_disabled": 0, "lon": -77.03208933333333, "is_reserved": 0, "fusion_lat": 0.0, "type": "electric_scooter"}, {"fusion_lon": 0.0, "name": "e401168d48697ec5a8d3b1f8a44c57da", "rental_uris": {"android": "https://dc.lft.to/lastmile_qr_scan", "ios": "https://dc.lft.to/lastmile_qr_scan"}, "lat": 38.92494716666667, "bike_id": "e401168d48697ec5a8d3b1f8a44c57da", "is_disabled": 0, "lon": -77.04136733333333, "is_reserved": 0, "fusion_lat": 0.0, "type": "electric_scooter"}, {"fusion_lon": 0.0, "name": "23b4c567d8be8ed2ce9dabeb46115497", "rental_uris": {"android": "https://dc.lft.to/lastmile_qr_scan", "ios": "https://dc.lft.to/lastmile_qr_scan"}, "lat": 38.902942333333336, "bike_id": "23b4c567d8be8ed2ce9dabeb46115497", "is_disabled": 0, "lon": -77.0336225, "is_reserved": 0, "fusion_lat": 0.0, "type": "electric_scooter"}, {"fusion_lon": 0.0, "name": "c2614c399c616b95bcdf36a0713cba8f", "rental_uris": {"android": "https://dc.lft.to/lastmile_qr_scan", "ios": "https://dc.lft.to/lastmile_qr_scan"}, "lat": 38.94105616666667, "bike_id": "c2614c399c616b95bcdf36a0713cba8f", "is_disabled": 0, "lon": -77.06137216666667, "is_reserved": 0, "fusion_lat": 0.0, "type": "electric_scooter"}, {"fusion_lon": 0.0, "name": "c9f9263c8b35e8c621b13bc457b24a0d", "rental_uris": {"android": "https://dc.lft.to/lastmile_qr_scan", "ios": "https://dc.lft.to/lastmile_qr_scan"}, "lat": 38.94177366666667, "bike_id": "c9f9263c8b35e8c621b13bc457b24a0d", "is_disabled": 0, "lon": -77.03649366666667, "is_reserved": 0, "fusion_lat": 0.0, "type": "electric_scooter"}, {"fusion_lon": 0.0, "name": "54d16e1af3d3f8ed87a7bc28d448fd25", "rental_uris": {"android": "https://dc.lft.to/lastmile_qr_scan", "ios": "https://dc.lft.to/lastmile_qr_scan"}, "lat": 38.9089565, "bike_id": "54d16e1af3d3f8ed87a7bc28d448fd25", "is_disabled": 0, "lon": -77.07260533333333, "is_reserved": 0, "fusion_lat": 0.0, "type": "electric_scooter"}, {"fusion_lon": 0.0, "name": "020dba9676d7d270802d99a685047f51", "rental_uris": {"android": "https://dc.lft.to/lastmile_qr_scan", "ios": "https://dc.lft.to/lastmile_qr_scan"}, "lat": 38.92787933333334, "bike_id": "020dba9676d7d270802d99a685047f51", "is_disabled": 0, "lon": -77.0307845, "is_reserved": 0, "fusion_lat": 0.0, "type": "electric_scooter"}, {"fusion_lon": 0.0, "name": "11204e02bfa8675056ec26580401c718", "rental_uris": {"android": "https://dc.lft.to/lastmile_qr_scan", "ios": "https://dc.lft.to/lastmile_qr_scan"}, "lat": 38.89635966666667, "bike_id": "11204e02bfa8675056ec26580401c718", "is_disabled": 0, "lon": -77.04013333333333, "is_reserved": 0, "fusion_lat": 0.0, "type": "electric_scooter"}, {"fusion_lon": 0.0, "name": "8a942a863290db2d83dc8e9743ad26ae", "rental_uris": {"android": "https://dc.lft.to/lastmile_qr_scan", "ios": "https://dc.lft.to/lastmile_qr_scan"}, "lat": 38.9232965, "bike_id": "8a942a863290db2d83dc8e9743ad26ae", "is_disabled": 0, "lon": -77.05678633333333, "is_reserved": 0, "fusion_lat": 0.0, "type": "electric_scooter"}, {"fusion_lon": 0.0, "name": "d6c83846611a00f4ab2758ad63a9ad62", "rental_uris": {"android": "https://dc.lft.to/lastmile_qr_scan", "ios": "https://dc.lft.to/lastmile_qr_scan"}, "lat": 38.886230833333336, "bike_id": "d6c83846611a00f4ab2758ad63a9ad62", "is_disabled": 0, "lon": -77.03171233333333, "is_reserved": 0, "fusion_lat": 0.0, "type": "electric_scooter"}, {"fusion_lon": 0.0, "name": "67cf42d907015620a77482327657fe19", "rental_uris": {"android": "https://dc.lft.to/lastmile_qr_scan", "ios": "https://dc.lft.to/lastmile_qr_scan"}, "lat": 38.8832675, "bike_id": "67cf42d907015620a77482327657fe19", "is_disabled": 0, "lon": -77.00957583333333, "is_reserved": 0, "fusion_lat": 0.0, "type": "electric_scooter"}, {"fusion_lon": 0.0, "name": "37b752fb0d83fcf0c23f5ae823f7ba54", "rental_uris": {"android": "https://dc.lft.to/lastmile_qr_scan", "ios": "https://dc.lft.to/lastmile_qr_scan"}, "lat": 38.94486783333333, "bike_id": "37b752fb0d83fcf0c23f5ae823f7ba54", "is_disabled": 0, "lon": -77.06395966666666, "is_reserved": 0, "fusion_lat": 0.0, "type": "electric_scooter"}, {"fusion_lon": 0.0, "name": "e15ce40b6795d0077fd6557ba41a37d8", "rental_uris": {"android": "https://dc.lft.to/lastmile_qr_scan", "ios": "https://dc.lft.to/lastmile_qr_scan"}, "lat": 38.923879, "bike_id": "e15ce40b6795d0077fd6557ba41a37d8", "is_disabled": 0, "lon": -77.04308433333334, "is_reserved": 0, "fusion_lat": 0.0, "type": "electric_scooter"}, {"fusion_lon": 0.0, "name": "50ec04744dd4159295079847e155e5d9", "rental_uris": {"android": "https://dc.lft.to/lastmile_qr_scan", "ios": "https://dc.lft.to/lastmile_qr_scan"}, "lat": 38.78395783333333, "bike_id": "50ec04744dd4159295079847e155e5d9", "is_disabled": 0, "lon": -77.12082316666667, "is_reserved": 0, "fusion_lat": 0.0, "type": "electric_bike"}, {"fusion_lon": 0.0, "name": "5d0083024e30488895f02172254ca6c7", "rental_uris": {"android": "https://dc.lft.to/lastmile_qr_scan", "ios": "https://dc.lft.to/lastmile_qr_scan"}, "lat": 38.892404166666665, "bike_id": "5d0083024e30488895f02172254ca6c7", "is_disabled": 0, "lon": -77.03956133333334, "is_reserved": 0, "fusion_lat": 0.0, "type": "electric_scooter"}, {"fusion_lon": 0.0, "name": "5f34ece914d164793243176be964901e", "rental_uris": {"android": "https://dc.lft.to/lastmile_qr_scan", "ios": "https://dc.lft.to/lastmile_qr_scan"}, "lat": 38.92316133333333, "bike_id": "5f34ece914d164793243176be964901e", "is_disabled": 0, "lon": -77.01951116666666, "is_reserved": 0, "fusion_lat": 0.0, "type": "electric_scooter"}, {"fusion_lon": 0.0, "name": "2e0ebf3cb7bd66df15a8a73c2d1767f9", "rental_uris": {"android": "https://dc.lft.to/lastmile_qr_scan", "ios": "https://dc.lft.to/lastmile_qr_scan"}, "lat": 38.90056833333333, "bike_id": "2e0ebf3cb7bd66df15a8a73c2d1767f9", "is_disabled": 0, "lon": -76.98488, "is_reserved": 0, "fusion_lat": 0.0, "type": "electric_scooter"}, {"fusion_lon": 0.0, "name": "f87dfd70889aa9b615e5e53199ac26bc", "rental_uris": {"android": "https://dc.lft.to/lastmile_qr_scan", "ios": "https://dc.lft.to/lastmile_qr_scan"}, "lat": 38.90180433333333, "bike_id": "f87dfd70889aa9b615e5e53199ac26bc", "is_disabled": 0, "lon": -77.00112283333333, "is_reserved": 0, "fusion_lat": 0.0, "type": "electric_scooter"}, {"fusion_lon": 0.0, "name": "955be7eaded1942aa524be91bb950d40", "rental_uris": {"android": "https://dc.lft.to/lastmile_qr_scan", "ios": "https://dc.lft.to/lastmile_qr_scan"}, "lat": 38.8933155, "bike_id": "955be7eaded1942aa524be91bb950d40", "is_disabled": 0, "lon": -76.9392785, "is_reserved": 0, "fusion_lat": 0.0, "type": "electric_scooter"}, {"fusion_lon": 0.0, "name": "c0cfae6edb504d45c46c79b299c0fc99", "rental_uris": {"android": "https://dc.lft.to/lastmile_qr_scan", "ios": "https://dc.lft.to/lastmile_qr_scan"}, "lat": 38.8974065, "bike_id": "c0cfae6edb504d45c46c79b299c0fc99", "is_disabled": 0, "lon": -77.01384533333334, "is_reserved": 0, "fusion_lat": 0.0, "type": "electric_scooter"}, {"fusion_lon": 0.0, "name": "194a3d681fdbaab47a5feb28e7895ff1", "rental_uris": {"android": "https://dc.lft.to/lastmile_qr_scan", "ios": "https://dc.lft.to/lastmile_qr_scan"}, "lat": 38.8977135, "bike_id": "194a3d681fdbaab47a5feb28e7895ff1", "is_disabled": 0, "lon": -77.02703466666667, "is_reserved": 0, "fusion_lat": 0.0, "type": "electric_scooter"}, {"fusion_lon": 0.0, "name": "a7d6091f4970e81cdacef2610d1bb591", "rental_uris": {"android": "https://dc.lft.to/lastmile_qr_scan", "ios": "https://dc.lft.to/lastmile_qr_scan"}, "lat": 38.916970166666665, "bike_id": "a7d6091f4970e81cdacef2610d1bb591", "is_disabled": 0, "lon": -77.03818, "is_reserved": 0, "fusion_lat": 0.0, "type": "electric_scooter"}, {"fusion_lon": 0.0, "name": "6f6bfe97b5f0d61a30d14abd9d06a356", "rental_uris": {"android": "https://dc.lft.to/lastmile_qr_scan", "ios": "https://dc.lft.to/lastmile_qr_scan"}, "lat": 38.90929833333333, "bike_id": "6f6bfe97b5f0d61a30d14abd9d06a356", "is_disabled": 0, "lon": -76.98465016666667, "is_reserved": 0, "fusion_lat": 0.0, "type": "electric_scooter"}, {"fusion_lon": 0.0, "name": "2e2ad8788a66815a00b469b5b8ef86cd", "rental_uris": {"android": "https://dc.lft.to/lastmile_qr_scan", "ios": "https://dc.lft.to/lastmile_qr_scan"}, "lat": 38.918675666666665, "bike_id": "2e2ad8788a66815a00b469b5b8ef86cd", "is_disabled": 0, "lon": -77.031884, "is_reserved": 0, "fusion_lat": 0.0, "type": "electric_scooter"}, {"fusion_lon": 0.0, "name": "8fcda31ae2f7ba109bc49061d14316b5", "rental_uris": {"android": "https://dc.lft.to/lastmile_qr_scan", "ios": "https://dc.lft.to/lastmile_qr_scan"}, "lat": 38.91855316666667, "bike_id": "8fcda31ae2f7ba109bc49061d14316b5", "is_disabled": 0, "lon": -77.04473183333333, "is_reserved": 0, "fusion_lat": 0.0, "type": "electric_scooter"}, {"fusion_lon": 0.0, "name": "c3ef06bfa3465d407e0d998957e91ab1", "rental_uris": {"android": "https://dc.lft.to/lastmile_qr_scan", "ios": "https://dc.lft.to/lastmile_qr_scan"}, "lat": 38.90957916666667, "bike_id": "c3ef06bfa3465d407e0d998957e91ab1", "is_disabled": 0, "lon": -77.0396005, "is_reserved": 0, "fusion_lat": 0.0, "type": "electric_scooter"}, {"fusion_lon": 0.0, "name": "f284bd6b21eecd1777cf27103034ad4f", "rental_uris": {"android": "https://dc.lft.to/lastmile_qr_scan", "ios": "https://dc.lft.to/lastmile_qr_scan"}, "lat": 38.915596, "bike_id": "f284bd6b21eecd1777cf27103034ad4f", "is_disabled": 0, "lon": -77.0678515, "is_reserved": 0, "fusion_lat": 0.0, "type": "electric_scooter"}, {"fusion_lon": 0.0, "name": "f9107e309701465cdf24777931f767aa", "rental_uris": {"android": "https://dc.lft.to/lastmile_qr_scan", "ios": "https://dc.lft.to/lastmile_qr_scan"}, "lat": 38.889632, "bike_id": "f9107e309701465cdf24777931f767aa", "is_disabled": 0, "lon": -76.97724566666666, "is_reserved": 0, "fusion_lat": 0.0, "type": "electric_scooter"}, {"fusion_lon": 0.0, "name": "1deb7158a7674fb5e66a71c34258d10c", "rental_uris": {"android": "https://dc.lft.to/lastmile_qr_scan", "ios": "https://dc.lft.to/lastmile_qr_scan"}, "lat": 38.91790966666667, "bike_id": "1deb7158a7674fb5e66a71c34258d10c", "is_disabled": 0, "lon": -77.02706616666667, "is_reserved": 0, "fusion_lat": 0.0, "type": "electric_scooter"}, {"fusion_lon": 0.0, "name": "fb6ebc96845890f36dc607b107eab0f6", "rental_uris": {"android": "https://dc.lft.to/lastmile_qr_scan", "ios": "https://dc.lft.to/lastmile_qr_scan"}, "lat": 38.906204833333334, "bike_id": "fb6ebc96845890f36dc607b107eab0f6", "is_disabled": 0, "lon": -77.07021083333333, "is_reserved": 0, "fusion_lat": 0.0, "type": "electric_scooter"}, {"fusion_lon": 0.0, "name": "4c6a3f7c766e3db80b8abdd4cab871bd", "rental_uris": {"android": "https://dc.lft.to/lastmile_qr_scan", "ios": "https://dc.lft.to/lastmile_qr_scan"}, "lat": 38.89007633333333, "bike_id": "4c6a3f7c766e3db80b8abdd4cab871bd", "is_disabled": 0, "lon": -76.937361, "is_reserved": 0, "fusion_lat": 0.0, "type": "electric_scooter"}, {"fusion_lon": 0.0, "name": "afbdb2e7d37dccdfc705a0f6bdb03f08", "rental_uris": {"android": "https://dc.lft.to/lastmile_qr_scan", "ios": "https://dc.lft.to/lastmile_qr_scan"}, "lat": 38.903683, "bike_id": "afbdb2e7d37dccdfc705a0f6bdb03f08", "is_disabled": 0, "lon": -77.01924316666667, "is_reserved": 0, "fusion_lat": 0.0, "type": "electric_scooter"}, {"fusion_lon": 0.0, "name": "3a30100460f085becd66b5a5f616d6c4", "rental_uris": {"android": "https://dc.lft.to/lastmile_qr_scan", "ios": "https://dc.lft.to/lastmile_qr_scan"}, "lat": 38.9013355, "bike_id": "3a30100460f085becd66b5a5f616d6c4", "is_disabled": 0, "lon": -77.046706, "is_reserved": 0, "fusion_lat": 0.0, "type": "electric_scooter"}, {"fusion_lon": 0.0, "name": "076ad652c3733b1f649a4a245ac9f0be", "rental_uris": {"android": "https://dc.lft.to/lastmile_qr_scan", "ios": "https://dc.lft.to/lastmile_qr_scan"}, "lat": 38.905033833333334, "bike_id": "076ad652c3733b1f649a4a245ac9f0be", "is_disabled": 0, "lon": -77.05478766666667, "is_reserved": 0, "fusion_lat": 0.0, "type": "electric_scooter"}, {"fusion_lon": 0.0, "name": "7ca9a658337202a0d43eeb522d8249e9", "rental_uris": {"android": "https://dc.lft.to/lastmile_qr_scan", "ios": "https://dc.lft.to/lastmile_qr_scan"}, "lat": 38.900588166666665, "bike_id": "7ca9a658337202a0d43eeb522d8249e9", "is_disabled": 0, "lon": -76.984861, "is_reserved": 0, "fusion_lat": 0.0, "type": "electric_scooter"}, {"fusion_lon": 0.0, "name": "2513f9998cea78938ec07b1fc95237bd", "rental_uris": {"android": "https://dc.lft.to/lastmile_qr_scan", "ios": "https://dc.lft.to/lastmile_qr_scan"}, "lat": 38.920567166666665, "bike_id": "2513f9998cea78938ec07b1fc95237bd", "is_disabled": 0, "lon": -76.984285, "is_reserved": 0, "fusion_lat": 0.0, "type": "electric_scooter"}, {"fusion_lon": 0.0, "name": "1216466a4b56df8e9df697becaf900f8", "rental_uris": {"android": "https://dc.lft.to/lastmile_qr_scan", "ios": "https://dc.lft.to/lastmile_qr_scan"}, "lat": 38.91328133333333, "bike_id": "1216466a4b56df8e9df697becaf900f8", "is_disabled": 0, "lon": -77.04537716666667, "is_reserved": 0, "fusion_lat": 0.0, "type": "electric_scooter"}, {"fusion_lon": 0.0, "name": "87a82800523711d1bad2ed6d08b73900", "rental_uris": {"android": "https://dc.lft.to/lastmile_qr_scan", "ios": "https://dc.lft.to/lastmile_qr_scan"}, "lat": 38.929643166666665, "bike_id": "87a82800523711d1bad2ed6d08b73900", "is_disabled": 0, "lon": -77.04113766666667, "is_reserved": 0, "fusion_lat": 0.0, "type": "electric_scooter"}, {"fusion_lon": 0.0, "name": "234ff55fa3ecf736dc40d312160821df", "rental_uris": {"android": "https://dc.lft.to/lastmile_qr_scan", "ios": "https://dc.lft.to/lastmile_qr_scan"}, "lat": 38.900455, "bike_id": "234ff55fa3ecf736dc40d312160821df", "is_disabled": 0, "lon": -77.04997366666667, "is_reserved": 0, "fusion_lat": 0.0, "type": "electric_scooter"}, {"fusion_lon": 0.0, "name": "2e6367b4b8fa9bcff69d6095a06a98c1", "rental_uris": {"android": "https://dc.lft.to/lastmile_qr_scan", "ios": "https://dc.lft.to/lastmile_qr_scan"}, "lat": 38.913397, "bike_id": "2e6367b4b8fa9bcff69d6095a06a98c1", "is_disabled": 0, "lon": -77.02050566666666, "is_reserved": 0, "fusion_lat": 0.0, "type": "electric_scooter"}, {"fusion_lon": 0.0, "name": "c000a29ce14dbb7a50b5b45e373c799e", "rental_uris": {"android": "https://dc.lft.to/lastmile_qr_scan", "ios": "https://dc.lft.to/lastmile_qr_scan"}, "lat": 38.85876666666667, "bike_id": "c000a29ce14dbb7a50b5b45e373c799e", "is_disabled": 0, "lon": -76.9893855, "is_reserved": 0, "fusion_lat": 0.0, "type": "electric_scooter"}, {"fusion_lon": 0.0, "name": "55dadd6d765e9ed772b0c96fb82a4425", "rental_uris": {"android": "https://dc.lft.to/lastmile_qr_scan", "ios": "https://dc.lft.to/lastmile_qr_scan"}, "lat": 38.898224, "bike_id": "55dadd6d765e9ed772b0c96fb82a4425", "is_disabled": 0, "lon": -77.024972, "is_reserved": 0, "fusion_lat": 0.0, "type": "electric_scooter"}, {"fusion_lon": 0.0, "name": "845b737294db6f59f636d6eefcbb8b03", "rental_uris": {"android": "https://dc.lft.to/lastmile_qr_scan", "ios": "https://dc.lft.to/lastmile_qr_scan"}, "lat": 39.04236933333333, "bike_id": "845b737294db6f59f636d6eefcbb8b03", "is_disabled": 0, "lon": -76.99732233333333, "is_reserved": 0, "fusion_lat": 0.0, "type": "electric_bike"}, {"fusion_lon": 0.0, "name": "b63d0bc938a222764e81d641e3ddd1c8", "rental_uris": {"android": "https://dc.lft.to/lastmile_qr_scan", "ios": "https://dc.lft.to/lastmile_qr_scan"}, "lat": 38.909098, "bike_id": "b63d0bc938a222764e81d641e3ddd1c8", "is_disabled": 0, "lon": -77.02296783333334, "is_reserved": 0, "fusion_lat": 0.0, "type": "electric_scooter"}, {"fusion_lon": 0.0, "name": "28a75c6fe63ff5e3174e43e718ba24f4", "rental_uris": {"android": "https://dc.lft.to/lastmile_qr_scan", "ios": "https://dc.lft.to/lastmile_qr_scan"}, "lat": 38.97338966666667, "bike_id": "28a75c6fe63ff5e3174e43e718ba24f4", "is_disabled": 0, "lon": -76.9958375, "is_reserved": 0, "fusion_lat": 0.0, "type": "electric_bike"}, {"fusion_lon": 0.0, "name": "b9269d6683609efc049cdec95b97e351", "rental_uris": {"android": "https://dc.lft.to/lastmile_qr_scan", "ios": "https://dc.lft.to/lastmile_qr_scan"}, "lat": 38.886834666666665, "bike_id": "b9269d6683609efc049cdec95b97e351", "is_disabled": 0, "lon": -77.162486, "is_reserved": 0, "fusion_lat": 0.0, "type": "electric_bike"}, {"fusion_lon": 0.0, "name": "e9344c915e545197650d97bda7c9c534", "rental_uris": {"android": "https://dc.lft.to/lastmile_qr_scan", "ios": "https://dc.lft.to/lastmile_qr_scan"}, "lat": 38.91913316666667, "bike_id": "e9344c915e545197650d97bda7c9c534", "is_disabled": 0, "lon": -77.04461333333333, "is_reserved": 0, "fusion_lat": 0.0, "type": "electric_scooter"}, {"fusion_lon": 0.0, "name": "8e2aefb911d6208c73c47c681c40dbc0", "rental_uris": {"android": "https://dc.lft.to/lastmile_qr_scan", "ios": "https://dc.lft.to/lastmile_qr_scan"}, "lat": 38.91317133333333, "bike_id": "8e2aefb911d6208c73c47c681c40dbc0", "is_disabled": 0, "lon": -77.03190433333333, "is_reserved": 0, "fusion_lat": 0.0, "type": "electric_scooter"}, {"fusion_lon": 0.0, "name": "1d7697296e3e10084da398c3bd2c4b0e", "rental_uris": {"android": "https://dc.lft.to/lastmile_qr_scan", "ios": "https://dc.lft.to/lastmile_qr_scan"}, "lat": 38.9162435, "bike_id": "1d7697296e3e10084da398c3bd2c4b0e", "is_disabled": 0, "lon": -77.035001, "is_reserved": 0, "fusion_lat": 0.0, "type": "electric_scooter"}, {"fusion_lon": 0.0, "name": "4dc40601179a32440e3399bf06c2eb30", "rental_uris": {"android": "https://dc.lft.to/lastmile_qr_scan", "ios": "https://dc.lft.to/lastmile_qr_scan"}, "lat": 38.889875333333336, "bike_id": "4dc40601179a32440e3399bf06c2eb30", "is_disabled": 0, "lon": -76.92104466666666, "is_reserved": 0, "fusion_lat": 0.0, "type": "electric_scooter"}, {"fusion_lon": 0.0, "name": "5f4f57bdf982541eae274f844ed9f9cc", "rental_uris": {"android": "https://dc.lft.to/lastmile_qr_scan", "ios": "https://dc.lft.to/lastmile_qr_scan"}, "lat": 38.901236833333336, "bike_id": "5f4f57bdf982541eae274f844ed9f9cc", "is_disabled": 0, "lon": -76.99361583333334, "is_reserved": 0, "fusion_lat": 0.0, "type": "electric_scooter"}, {"fusion_lon": 0.0, "name": "fd21871af97192763d83f871bd95754e", "rental_uris": {"android": "https://dc.lft.to/lastmile_qr_scan", "ios": "https://dc.lft.to/lastmile_qr_scan"}, "lat": 38.9098475, "bike_id": "fd21871af97192763d83f871bd95754e", "is_disabled": 0, "lon": -77.024023, "is_reserved": 0, "fusion_lat": 0.0, "type": "electric_scooter"}, {"fusion_lon": 0.0, "name": "b58ec61202f52e2ab7feb8b573f18602", "rental_uris": {"android": "https://dc.lft.to/lastmile_qr_scan", "ios": "https://dc.lft.to/lastmile_qr_scan"}, "lat": 38.928071, "bike_id": "b58ec61202f52e2ab7feb8b573f18602", "is_disabled": 0, "lon": -77.019441, "is_reserved": 0, "fusion_lat": 0.0, "type": "electric_scooter"}, {"fusion_lon": 0.0, "name": "0632f2a9e36a2596b0384af693dbc940", "rental_uris": {"android": "https://dc.lft.to/lastmile_qr_scan", "ios": "https://dc.lft.to/lastmile_qr_scan"}, "lat": 38.8928355, "bike_id": "0632f2a9e36a2596b0384af693dbc940", "is_disabled": 0, "lon": -77.05048833333333, "is_reserved": 0, "fusion_lat": 0.0, "type": "electric_bike"}, {"fusion_lon": 0.0, "name": "356af04dbf78636798dc5fbdb081849b", "rental_uris": {"android": "https://dc.lft.to/lastmile_qr_scan", "ios": "https://dc.lft.to/lastmile_qr_scan"}, "lat": 38.887442166666666, "bike_id": "356af04dbf78636798dc5fbdb081849b", "is_disabled": 0, "lon": -77.02574433333334, "is_reserved": 0, "fusion_lat": 0.0, "type": "electric_scooter"}, {"fusion_lon": 0.0, "name": "0075c01b04f69e7710458adf02932040", "rental_uris": {"android": "https://dc.lft.to/lastmile_qr_scan", "ios": "https://dc.lft.to/lastmile_qr_scan"}, "lat": 38.876872166666665, "bike_id": "0075c01b04f69e7710458adf02932040", "is_disabled": 0, "lon": -77.01758466666666, "is_reserved": 0, "fusion_lat": 0.0, "type": "electric_scooter"}, {"fusion_lon": 0.0, "name": "b2abf06fb65827eb6d407e14fc1e360c", "rental_uris": {"android": "https://dc.lft.to/lastmile_qr_scan", "ios": "https://dc.lft.to/lastmile_qr_scan"}, "lat": 38.89884433333334, "bike_id": "b2abf06fb65827eb6d407e14fc1e360c", "is_disabled": 0, "lon": -76.93176183333334, "is_reserved": 0, "fusion_lat": 0.0, "type": "electric_scooter"}, {"fusion_lon": 0.0, "name": "7e1c015a939bb23f908d172927194b29", "rental_uris": {"android": "https://dc.lft.to/lastmile_qr_scan", "ios": "https://dc.lft.to/lastmile_qr_scan"}, "lat": 38.89890833333333, "bike_id": "7e1c015a939bb23f908d172927194b29", "is_disabled": 0, "lon": -77.02994633333333, "is_reserved": 0, "fusion_lat": 0.0, "type": "electric_scooter"}, {"fusion_lon": 0.0, "name": "1a03fdf400f748f96d83cef3234ce8b1", "rental_uris": {"android": "https://dc.lft.to/lastmile_qr_scan", "ios": "https://dc.lft.to/lastmile_qr_scan"}, "lat": 38.90260416666667, "bike_id": "1a03fdf400f748f96d83cef3234ce8b1", "is_disabled": 0, "lon": -77.027438, "is_reserved": 0, "fusion_lat": 0.0, "type": "electric_scooter"}, {"fusion_lon": 0.0, "name": "f166410ad843912160a1c59cd94f361a", "rental_uris": {"android": "https://dc.lft.to/lastmile_qr_scan", "ios": "https://dc.lft.to/lastmile_qr_scan"}, "lat": 38.8768625, "bike_id": "f166410ad843912160a1c59cd94f361a", "is_disabled": 0, "lon": -77.01756516666667, "is_reserved": 0, "fusion_lat": 0.0, "type": "electric_scooter"}, {"fusion_lon": 0.0, "name": "f8a074504b59bc52fd058f4e28b31a45", "rental_uris": {"android": "https://dc.lft.to/lastmile_qr_scan", "ios": "https://dc.lft.to/lastmile_qr_scan"}, "lat": 38.910008, "bike_id": "f8a074504b59bc52fd058f4e28b31a45", "is_disabled": 0, "lon": -77.04007516666667, "is_reserved": 0, "fusion_lat": 0.0, "type": "electric_scooter"}, {"fusion_lon": 0.0, "name": "15321d1690b214771c25eff45c7f603a", "rental_uris": {"android": "https://dc.lft.to/lastmile_qr_scan", "ios": "https://dc.lft.to/lastmile_qr_scan"}, "lat": 38.9311085, "bike_id": "15321d1690b214771c25eff45c7f603a", "is_disabled": 0, "lon": -77.0350635, "is_reserved": 0, "fusion_lat": 0.0, "type": "electric_scooter"}, {"fusion_lon": 0.0, "name": "96166cd2cdff19fc1492d40df6781ab3", "rental_uris": {"android": "https://dc.lft.to/lastmile_qr_scan", "ios": "https://dc.lft.to/lastmile_qr_scan"}, "lat": 38.89219833333333, "bike_id": "96166cd2cdff19fc1492d40df6781ab3", "is_disabled": 0, "lon": -77.044655, "is_reserved": 0, "fusion_lat": 0.0, "type": "electric_scooter"}, {"fusion_lon": 0.0, "name": "3d9ebb05a181e222e11b4e80cd1514be", "rental_uris": {"android": "https://dc.lft.to/lastmile_qr_scan", "ios": "https://dc.lft.to/lastmile_qr_scan"}, "lat": 38.907760333333336, "bike_id": "3d9ebb05a181e222e11b4e80cd1514be", "is_disabled": 0, "lon": -77.0702935, "is_reserved": 0, "fusion_lat": 0.0, "type": "electric_scooter"}, {"fusion_lon": 0.0, "name": "57da25f2bca3705db72196c8cd410a55", "rental_uris": {"android": "https://dc.lft.to/lastmile_qr_scan", "ios": "https://dc.lft.to/lastmile_qr_scan"}, "lat": 38.921277833333335, "bike_id": "57da25f2bca3705db72196c8cd410a55", "is_disabled": 0, "lon": -77.04588266666667, "is_reserved": 0, "fusion_lat": 0.0, "type": "electric_scooter"}, {"fusion_lon": 0.0, "name": "56a02c7c50f133eca78f943101c08a8b", "rental_uris": {"android": "https://dc.lft.to/lastmile_qr_scan", "ios": "https://dc.lft.to/lastmile_qr_scan"}, "lat": 38.894199666666665, "bike_id": "56a02c7c50f133eca78f943101c08a8b", "is_disabled": 0, "lon": -76.99771133333333, "is_reserved": 0, "fusion_lat": 0.0, "type": "electric_scooter"}, {"fusion_lon": 0.0, "name": "f04583b35555034cd67106564dcc2c05", "rental_uris": {"android": "https://dc.lft.to/lastmile_qr_scan", "ios": "https://dc.lft.to/lastmile_qr_scan"}, "lat": 38.8812345, "bike_id": "f04583b35555034cd67106564dcc2c05", "is_disabled": 0, "lon": -76.99795366666666, "is_reserved": 0, "fusion_lat": 0.0, "type": "electric_bike"}, {"fusion_lon": 0.0, "name": "2b90aa985d6dbaef1a73044df83bf3f8", "rental_uris": {"android": "https://dc.lft.to/lastmile_qr_scan", "ios": "https://dc.lft.to/lastmile_qr_scan"}, "lat": 38.899372666666665, "bike_id": "2b90aa985d6dbaef1a73044df83bf3f8", "is_disabled": 0, "lon": -77.02966483333333, "is_reserved": 0, "fusion_lat": 0.0, "type": "electric_scooter"}, {"fusion_lon": 0.0, "name": "c1cfd44bd220d02223886a245644d796", "rental_uris": {"android": "https://dc.lft.to/lastmile_qr_scan", "ios": "https://dc.lft.to/lastmile_qr_scan"}, "lat": 38.8985125, "bike_id": "c1cfd44bd220d02223886a245644d796", "is_disabled": 0, "lon": -77.0282165, "is_reserved": 0, "fusion_lat": 0.0, "type": "electric_scooter"}, {"fusion_lon": 0.0, "name": "8b8049ecc3f171e73a57397ac96e5b0f", "rental_uris": {"android": "https://dc.lft.to/lastmile_qr_scan", "ios": "https://dc.lft.to/lastmile_qr_scan"}, "lat": 38.925623, "bike_id": "8b8049ecc3f171e73a57397ac96e5b0f", "is_disabled": 0, "lon": -77.0228525, "is_reserved": 0, "fusion_lat": 0.0, "type": "electric_scooter"}, {"fusion_lon": 0.0, "name": "105a12678e06f49b058de75586b6bc50", "rental_uris": {"android": "https://dc.lft.to/lastmile_qr_scan", "ios": "https://dc.lft.to/lastmile_qr_scan"}, "lat": 38.9160245, "bike_id": "105a12678e06f49b058de75586b6bc50", "is_disabled": 0, "lon": -77.03191016666666, "is_reserved": 0, "fusion_lat": 0.0, "type": "electric_scooter"}, {"fusion_lon": 0.0, "name": "2508811d6807a92fa82afdb6a440549d", "rental_uris": {"android": "https://dc.lft.to/lastmile_qr_scan", "ios": "https://dc.lft.to/lastmile_qr_scan"}, "lat": 38.90500733333333, "bike_id": "2508811d6807a92fa82afdb6a440549d", "is_disabled": 0, "lon": -77.02958933333333, "is_reserved": 0, "fusion_lat": 0.0, "type": "electric_scooter"}, {"fusion_lon": 0.0, "name": "7a44c266ea70a9442fa6a83e24d014c6", "rental_uris": {"android": "https://dc.lft.to/lastmile_qr_scan", "ios": "https://dc.lft.to/lastmile_qr_scan"}, "lat": 38.91051783333333, "bike_id": "7a44c266ea70a9442fa6a83e24d014c6", "is_disabled": 0, "lon": -77.043487, "is_reserved": 0, "fusion_lat": 0.0, "type": "electric_scooter"}, {"fusion_lon": 0.0, "name": "8a8929682d56affa0f5e966f911ec928", "rental_uris": {"android": "https://dc.lft.to/lastmile_qr_scan", "ios": "https://dc.lft.to/lastmile_qr_scan"}, "lat": 38.89808283333333, "bike_id": "8a8929682d56affa0f5e966f911ec928", "is_disabled": 0, "lon": -77.029348, "is_reserved": 0, "fusion_lat": 0.0, "type": "electric_scooter"}, {"fusion_lon": 0.0, "name": "2aed51f47251f2c1cc88f9cf7f8999da", "rental_uris": {"android": "https://dc.lft.to/lastmile_qr_scan", "ios": "https://dc.lft.to/lastmile_qr_scan"}, "lat": 38.9240185, "bike_id": "2aed51f47251f2c1cc88f9cf7f8999da", "is_disabled": 0, "lon": -77.023707, "is_reserved": 0, "fusion_lat": 0.0, "type": "electric_scooter"}, {"fusion_lon": 0.0, "name": "1ce3f9703b091409a9f51ce8a759c4b8", "rental_uris": {"android": "https://dc.lft.to/lastmile_qr_scan", "ios": "https://dc.lft.to/lastmile_qr_scan"}, "lat": 38.90720233333333, "bike_id": "1ce3f9703b091409a9f51ce8a759c4b8", "is_disabled": 0, "lon": -77.00193816666666, "is_reserved": 0, "fusion_lat": 0.0, "type": "electric_scooter"}, {"fusion_lon": 0.0, "name": "b81ef1ace37f1b8ad589f0e203a0d25b", "rental_uris": {"android": "https://dc.lft.to/lastmile_qr_scan", "ios": "https://dc.lft.to/lastmile_qr_scan"}, "lat": 38.91195883333333, "bike_id": "b81ef1ace37f1b8ad589f0e203a0d25b", "is_disabled": 0, "lon": -77.00443333333334, "is_reserved": 0, "fusion_lat": 0.0, "type": "electric_scooter"}, {"fusion_lon": 0.0, "name": "3922a11bd2a9eb1113f42254698c1e0f", "rental_uris": {"android": "https://dc.lft.to/lastmile_qr_scan", "ios": "https://dc.lft.to/lastmile_qr_scan"}, "lat": 38.910677666666665, "bike_id": "3922a11bd2a9eb1113f42254698c1e0f", "is_disabled": 0, "lon": -77.046019, "is_reserved": 0, "fusion_lat": 0.0, "type": "electric_scooter"}, {"fusion_lon": 0.0, "name": "9bcd17713e139e5d6843775b263c4d94", "rental_uris": {"android": "https://dc.lft.to/lastmile_qr_scan", "ios": "https://dc.lft.to/lastmile_qr_scan"}, "lat": 38.90181883333333, "bike_id": "9bcd17713e139e5d6843775b263c4d94", "is_disabled": 0, "lon": -76.92997616666666, "is_reserved": 0, "fusion_lat": 0.0, "type": "electric_scooter"}, {"fusion_lon": 0.0, "name": "41df80b88680f58069efd8828b604a01", "rental_uris": {"android": "https://dc.lft.to/lastmile_qr_scan", "ios": "https://dc.lft.to/lastmile_qr_scan"}, "lat": 38.911006666666665, "bike_id": "41df80b88680f58069efd8828b604a01", "is_disabled": 0, "lon": -77.02504533333334, "is_reserved": 0, "fusion_lat": 0.0, "type": "electric_scooter"}, {"fusion_lon": 0.0, "name": "312be73e2f5af4a481dfa2c9dfaf2ed8", "rental_uris": {"android": "https://dc.lft.to/lastmile_qr_scan", "ios": "https://dc.lft.to/lastmile_qr_scan"}, "lat": 38.926503333333336, "bike_id": "312be73e2f5af4a481dfa2c9dfaf2ed8", "is_disabled": 0, "lon": -77.09019283333333, "is_reserved": 0, "fusion_lat": 0.0, "type": "electric_bike"}, {"fusion_lon": 0.0, "name": "7171bdf7c8c66cae73c2586961fcb8f2", "rental_uris": {"android": "https://dc.lft.to/lastmile_qr_scan", "ios": "https://dc.lft.to/lastmile_qr_scan"}, "lat": 38.901853, "bike_id": "7171bdf7c8c66cae73c2586961fcb8f2", "is_disabled": 0, "lon": -77.01223833333333, "is_reserved": 0, "fusion_lat": 0.0, "type": "electric_scooter"}, {"fusion_lon": 0.0, "name": "5a241dc5a19ac9e036690156250a313d", "rental_uris": {"android": "https://dc.lft.to/lastmile_qr_scan", "ios": "https://dc.lft.to/lastmile_qr_scan"}, "lat": 38.92209866666666, "bike_id": "5a241dc5a19ac9e036690156250a313d", "is_disabled": 0, "lon": -77.02655066666667, "is_reserved": 0, "fusion_lat": 0.0, "type": "electric_scooter"}, {"fusion_lon": 0.0, "name": "1da8563cefa441ec69b781a651c47ede", "rental_uris": {"android": "https://dc.lft.to/lastmile_qr_scan", "ios": "https://dc.lft.to/lastmile_qr_scan"}, "lat": 38.911751833333334, "bike_id": "1da8563cefa441ec69b781a651c47ede", "is_disabled": 0, "lon": -77.02957683333334, "is_reserved": 0, "fusion_lat": 0.0, "type": "electric_scooter"}, {"fusion_lon": 0.0, "name": "1c9a01778b9ae8a98b540d2ba4324e30", "rental_uris": {"android": "https://dc.lft.to/lastmile_qr_scan", "ios": "https://dc.lft.to/lastmile_qr_scan"}, "lat": 38.902224833333335, "bike_id": "1c9a01778b9ae8a98b540d2ba4324e30", "is_disabled": 0, "lon": -77.0461795, "is_reserved": 0, "fusion_lat": 0.0, "type": "electric_scooter"}, {"fusion_lon": 0.0, "name": "eec3e9018fb4979d3b5f5abf3e8779c3", "rental_uris": {"android": "https://dc.lft.to/lastmile_qr_scan", "ios": "https://dc.lft.to/lastmile_qr_scan"}, "lat": 38.92117183333333, "bike_id": "eec3e9018fb4979d3b5f5abf3e8779c3", "is_disabled": 0, "lon": -77.04386283333334, "is_reserved": 0, "fusion_lat": 0.0, "type": "electric_scooter"}, {"fusion_lon": 0.0, "name": "45334c23367f13d2654be2dea314cb03", "rental_uris": {"android": "https://dc.lft.to/lastmile_qr_scan", "ios": "https://dc.lft.to/lastmile_qr_scan"}, "lat": 38.90165316666667, "bike_id": "45334c23367f13d2654be2dea314cb03", "is_disabled": 0, "lon": -76.94980983333333, "is_reserved": 0, "fusion_lat": 0.0, "type": "electric_scooter"}, {"fusion_lon": 0.0, "name": "14980ea4720c9bdfe99c642eee3c162e", "rental_uris": {"android": "https://dc.lft.to/lastmile_qr_scan", "ios": "https://dc.lft.to/lastmile_qr_scan"}, "lat": 38.884529666666666, "bike_id": "14980ea4720c9bdfe99c642eee3c162e", "is_disabled": 0, "lon": -76.925936, "is_reserved": 0, "fusion_lat": 0.0, "type": "electric_scooter"}, {"fusion_lon": 0.0, "name": "ea8eaaeaa5c4ee7732beb1e499b2c72e", "rental_uris": {"android": "https://dc.lft.to/lastmile_qr_scan", "ios": "https://dc.lft.to/lastmile_qr_scan"}, "lat": 38.910953, "bike_id": "ea8eaaeaa5c4ee7732beb1e499b2c72e", "is_disabled": 0, "lon": -77.00352866666667, "is_reserved": 0, "fusion_lat": 0.0, "type": "electric_scooter"}, {"fusion_lon": 0.0, "name": "8e5e3d34d546ba1fda78ad754f6c4f6b", "rental_uris": {"android": "https://dc.lft.to/lastmile_qr_scan", "ios": "https://dc.lft.to/lastmile_qr_scan"}, "lat": 38.892179, "bike_id": "8e5e3d34d546ba1fda78ad754f6c4f6b", "is_disabled": 0, "lon": -77.02164033333334, "is_reserved": 0, "fusion_lat": 0.0, "type": "electric_scooter"}, {"fusion_lon": 0.0, "name": "738bd9afd7e993279f64b7637fb88552", "rental_uris": {"android": "https://dc.lft.to/lastmile_qr_scan", "ios": "https://dc.lft.to/lastmile_qr_scan"}, "lat": 38.93592116666667, "bike_id": "738bd9afd7e993279f64b7637fb88552", "is_disabled": 0, "lon": -77.058401, "is_reserved": 0, "fusion_lat": 0.0, "type": "electric_scooter"}, {"fusion_lon": 0.0, "name": "8978a77ad084d24550a12c3bd5ed78a3", "rental_uris": {"android": "https://dc.lft.to/lastmile_qr_scan", "ios": "https://dc.lft.to/lastmile_qr_scan"}, "lat": 38.900514, "bike_id": "8978a77ad084d24550a12c3bd5ed78a3", "is_disabled": 0, "lon": -77.0447965, "is_reserved": 0, "fusion_lat": 0.0, "type": "electric_scooter"}, {"fusion_lon": 0.0, "name": "29a54e0d98b250251c67cac28009a1c4", "rental_uris": {"android": "https://dc.lft.to/lastmile_qr_scan", "ios": "https://dc.lft.to/lastmile_qr_scan"}, "lat": 38.90763716666667, "bike_id": "29a54e0d98b250251c67cac28009a1c4", "is_disabled": 0, "lon": -77.03721733333333, "is_reserved": 0, "fusion_lat": 0.0, "type": "electric_scooter"}, {"fusion_lon": 0.0, "name": "17e7e27c6ceda1ee4163923efcc9c252", "rental_uris": {"android": "https://dc.lft.to/lastmile_qr_scan", "ios": "https://dc.lft.to/lastmile_qr_scan"}, "lat": 38.9147915, "bike_id": "17e7e27c6ceda1ee4163923efcc9c252", "is_disabled": 0, "lon": -77.01829633333334, "is_reserved": 0, "fusion_lat": 0.0, "type": "electric_scooter"}, {"fusion_lon": 0.0, "name": "4aec568d22971c3ca37121716bc7b462", "rental_uris": {"android": "https://dc.lft.to/lastmile_qr_scan", "ios": "https://dc.lft.to/lastmile_qr_scan"}, "lat": 38.98923716666667, "bike_id": "4aec568d22971c3ca37121716bc7b462", "is_disabled": 0, "lon": -77.0976815, "is_reserved": 0, "fusion_lat": 0.0, "type": "electric_bike"}, {"fusion_lon": 0.0, "name": "f9c0b2e0b9456325306d453a41ed2bfb", "rental_uris": {"android": "https://dc.lft.to/lastmile_qr_scan", "ios": "https://dc.lft.to/lastmile_qr_scan"}, "lat": 38.89738216666667, "bike_id": "f9c0b2e0b9456325306d453a41ed2bfb", "is_disabled": 0, "lon": -77.04595716666667, "is_reserved": 0, "fusion_lat": 0.0, "type": "electric_scooter"}, {"fusion_lon": 0.0, "name": "3d7b441e64893b299750e811f94b8163", "rental_uris": {"android": "https://dc.lft.to/lastmile_qr_scan", "ios": "https://dc.lft.to/lastmile_qr_scan"}, "lat": 38.936257166666664, "bike_id": "3d7b441e64893b299750e811f94b8163", "is_disabled": 0, "lon": -77.06427733333334, "is_reserved": 0, "fusion_lat": 0.0, "type": "electric_scooter"}, {"fusion_lon": 0.0, "name": "77f6390453df2b99626327cf4ce990be", "rental_uris": {"android": "https://dc.lft.to/lastmile_qr_scan", "ios": "https://dc.lft.to/lastmile_qr_scan"}, "lat": 38.914004166666665, "bike_id": "77f6390453df2b99626327cf4ce990be", "is_disabled": 0, "lon": -77.01842833333333, "is_reserved": 0, "fusion_lat": 0.0, "type": "electric_scooter"}, {"fusion_lon": 0.0, "name": "da75837f5e4758e73fe42a533d4d8f9d", "rental_uris": {"android": "https://dc.lft.to/lastmile_qr_scan", "ios": "https://dc.lft.to/lastmile_qr_scan"}, "lat": 38.943190666666666, "bike_id": "da75837f5e4758e73fe42a533d4d8f9d", "is_disabled": 0, "lon": -77.01308083333333, "is_reserved": 0, "fusion_lat": 0.0, "type": "electric_scooter"}, {"fusion_lon": 0.0, "name": "12af30c4552f34b9e175591551e59d8f", "rental_uris": {"android": "https://dc.lft.to/lastmile_qr_scan", "ios": "https://dc.lft.to/lastmile_qr_scan"}, "lat": 38.909572, "bike_id": "12af30c4552f34b9e175591551e59d8f", "is_disabled": 0, "lon": -77.04825966666667, "is_reserved": 0, "fusion_lat": 0.0, "type": "electric_scooter"}, {"fusion_lon": 0.0, "name": "be6c7c748ac2c706b2ea3b23cca95ed8", "rental_uris": {"android": "https://dc.lft.to/lastmile_qr_scan", "ios": "https://dc.lft.to/lastmile_qr_scan"}, "lat": 38.923709, "bike_id": "be6c7c748ac2c706b2ea3b23cca95ed8", "is_disabled": 0, "lon": -77.01909316666666, "is_reserved": 0, "fusion_lat": 0.0, "type": "electric_scooter"}, {"fusion_lon": 0.0, "name": "7fecbff328bdf2bd56d49c4d7ed453fc", "rental_uris": {"android": "https://dc.lft.to/lastmile_qr_scan", "ios": "https://dc.lft.to/lastmile_qr_scan"}, "lat": 38.910589333333334, "bike_id": "7fecbff328bdf2bd56d49c4d7ed453fc", "is_disabled": 0, "lon": -77.05474383333333, "is_reserved": 0, "fusion_lat": 0.0, "type": "electric_scooter"}, {"fusion_lon": 0.0, "name": "8b9b73044fbc4dcce03053e8fe0d7ee5", "rental_uris": {"android": "https://dc.lft.to/lastmile_qr_scan", "ios": "https://dc.lft.to/lastmile_qr_scan"}, "lat": 38.93054866666667, "bike_id": "8b9b73044fbc4dcce03053e8fe0d7ee5", "is_disabled": 0, "lon": -77.02322666666667, "is_reserved": 0, "fusion_lat": 0.0, "type": "electric_scooter"}, {"fusion_lon": 0.0, "name": "4734abc22b8c07cdc2b469a374f5d1fc", "rental_uris": {"android": "https://dc.lft.to/lastmile_qr_scan", "ios": "https://dc.lft.to/lastmile_qr_scan"}, "lat": 38.8812145, "bike_id": "4734abc22b8c07cdc2b469a374f5d1fc", "is_disabled": 0, "lon": -77.00450983333333, "is_reserved": 0, "fusion_lat": 0.0, "type": "electric_scooter"}, {"fusion_lon": 0.0, "name": "e54924595766fc2ba9d1c8ce3c54fffa", "rental_uris": {"android": "https://dc.lft.to/lastmile_qr_scan", "ios": "https://dc.lft.to/lastmile_qr_scan"}, "lat": 38.9409575, "bike_id": "e54924595766fc2ba9d1c8ce3c54fffa", "is_disabled": 0, "lon": -77.02979083333334, "is_reserved": 0, "fusion_lat": 0.0, "type": "electric_scooter"}, {"fusion_lon": 0.0, "name": "486891eebec3a8ed6509d8ecc1eb96d1", "rental_uris": {"android": "https://dc.lft.to/lastmile_qr_scan", "ios": "https://dc.lft.to/lastmile_qr_scan"}, "lat": 38.928475, "bike_id": "486891eebec3a8ed6509d8ecc1eb96d1", "is_disabled": 0, "lon": -77.05424683333334, "is_reserved": 0, "fusion_lat": 0.0, "type": "electric_scooter"}, {"fusion_lon": 0.0, "name": "11e14b0bb42eea6def285d410f30eac0", "rental_uris": {"android": "https://dc.lft.to/lastmile_qr_scan", "ios": "https://dc.lft.to/lastmile_qr_scan"}, "lat": 38.89356383333333, "bike_id": "11e14b0bb42eea6def285d410f30eac0", "is_disabled": 0, "lon": -77.00334366666667, "is_reserved": 0, "fusion_lat": 0.0, "type": "electric_scooter"}, {"fusion_lon": 0.0, "name": "f415093e9dc5f13c4d7787a1a5cf79da", "rental_uris": {"android": "https://dc.lft.to/lastmile_qr_scan", "ios": "https://dc.lft.to/lastmile_qr_scan"}, "lat": 38.93059816666667, "bike_id": "f415093e9dc5f13c4d7787a1a5cf79da", "is_disabled": 0, "lon": -77.03940233333333, "is_reserved": 0, "fusion_lat": 0.0, "type": "electric_scooter"}, {"fusion_lon": 0.0, "name": "f558b26d3905ccceba0818d9c47b98f8", "rental_uris": {"android": "https://dc.lft.to/lastmile_qr_scan", "ios": "https://dc.lft.to/lastmile_qr_scan"}, "lat": 38.88600066666667, "bike_id": "f558b26d3905ccceba0818d9c47b98f8", "is_disabled": 0, "lon": -77.045103, "is_reserved": 0, "fusion_lat": 0.0, "type": "electric_scooter"}, {"fusion_lon": 0.0, "name": "b6da12ce796af5dd85ab4e08cbc09359", "rental_uris": {"android": "https://dc.lft.to/lastmile_qr_scan", "ios": "https://dc.lft.to/lastmile_qr_scan"}, "lat": 38.89461716666667, "bike_id": "b6da12ce796af5dd85ab4e08cbc09359", "is_disabled": 0, "lon": -77.02106683333334, "is_reserved": 0, "fusion_lat": 0.0, "type": "electric_scooter"}, {"fusion_lon": 0.0, "name": "a98bf368f125185b43f5126c28f55088", "rental_uris": {"android": "https://dc.lft.to/lastmile_qr_scan", "ios": "https://dc.lft.to/lastmile_qr_scan"}, "lat": 38.90905266666667, "bike_id": "a98bf368f125185b43f5126c28f55088", "is_disabled": 0, "lon": -77.04416316666666, "is_reserved": 0, "fusion_lat": 0.0, "type": "electric_scooter"}, {"fusion_lon": 0.0, "name": "aee358889b808dbbb9f030c6ee3622fe", "rental_uris": {"android": "https://dc.lft.to/lastmile_qr_scan", "ios": "https://dc.lft.to/lastmile_qr_scan"}, "lat": 38.946120666666665, "bike_id": "aee358889b808dbbb9f030c6ee3622fe", "is_disabled": 0, "lon": -77.08019516666667, "is_reserved": 0, "fusion_lat": 0.0, "type": "electric_scooter"}, {"fusion_lon": 0.0, "name": "669796768d4303350621b5e3446ea5a9", "rental_uris": {"android": "https://dc.lft.to/lastmile_qr_scan", "ios": "https://dc.lft.to/lastmile_qr_scan"}, "lat": 38.90436433333333, "bike_id": "669796768d4303350621b5e3446ea5a9", "is_disabled": 0, "lon": -77.0513245, "is_reserved": 0, "fusion_lat": 0.0, "type": "electric_scooter"}, {"fusion_lon": 0.0, "name": "8c2204e71b302b512e8c5f0fc962d7f6", "rental_uris": {"android": "https://dc.lft.to/lastmile_qr_scan", "ios": "https://dc.lft.to/lastmile_qr_scan"}, "lat": 38.93627466666667, "bike_id": "8c2204e71b302b512e8c5f0fc962d7f6", "is_disabled": 0, "lon": -77.03656066666667, "is_reserved": 0, "fusion_lat": 0.0, "type": "electric_scooter"}, {"fusion_lon": 0.0, "name": "41db14fccd69446218b9bb754e503080", "rental_uris": {"android": "https://dc.lft.to/lastmile_qr_scan", "ios": "https://dc.lft.to/lastmile_qr_scan"}, "lat": 38.956309833333336, "bike_id": "41db14fccd69446218b9bb754e503080", "is_disabled": 0, "lon": -77.03300716666666, "is_reserved": 0, "fusion_lat": 0.0, "type": "electric_scooter"}, {"fusion_lon": 0.0, "name": "99a13f541e736fae0ae3ebec7b7a7adf", "rental_uris": {"android": "https://dc.lft.to/lastmile_qr_scan", "ios": "https://dc.lft.to/lastmile_qr_scan"}, "lat": 38.91108216666667, "bike_id": "99a13f541e736fae0ae3ebec7b7a7adf", "is_disabled": 0, "lon": -77.04511816666667, "is_reserved": 0, "fusion_lat": 0.0, "type": "electric_scooter"}, {"fusion_lon": 0.0, "name": "d6c9ef0ab5eed1d525123a612457520e", "rental_uris": {"android": "https://dc.lft.to/lastmile_qr_scan", "ios": "https://dc.lft.to/lastmile_qr_scan"}, "lat": 38.9381375, "bike_id": "d6c9ef0ab5eed1d525123a612457520e", "is_disabled": 0, "lon": -77.05988033333334, "is_reserved": 0, "fusion_lat": 0.0, "type": "electric_scooter"}, {"fusion_lon": 0.0, "name": "3df397cf6779aeda9bd93baae3746091", "rental_uris": {"android": "https://dc.lft.to/lastmile_qr_scan", "ios": "https://dc.lft.to/lastmile_qr_scan"}, "lat": 38.9043755, "bike_id": "3df397cf6779aeda9bd93baae3746091", "is_disabled": 0, "lon": -77.034427, "is_reserved": 0, "fusion_lat": 0.0, "type": "electric_scooter"}, {"fusion_lon": 0.0, "name": "baa06f388d077d45a163b48ea444b915", "rental_uris": {"android": "https://dc.lft.to/lastmile_qr_scan", "ios": "https://dc.lft.to/lastmile_qr_scan"}, "lat": 38.903820833333334, "bike_id": "baa06f388d077d45a163b48ea444b915", "is_disabled": 0, "lon": -77.06845716666666, "is_reserved": 0, "fusion_lat": 0.0, "type": "electric_scooter"}, {"fusion_lon": 0.0, "name": "b4b76cdfb3333a9936ea85a8abb62d36", "rental_uris": {"android": "https://dc.lft.to/lastmile_qr_scan", "ios": "https://dc.lft.to/lastmile_qr_scan"}, "lat": 38.8874625, "bike_id": "b4b76cdfb3333a9936ea85a8abb62d36", "is_disabled": 0, "lon": -77.02571133333333, "is_reserved": 0, "fusion_lat": 0.0, "type": "electric_scooter"}, {"fusion_lon": 0.0, "name": "53e33c62aeee4b4451e72454ea7a33e4", "rental_uris": {"android": "https://dc.lft.to/lastmile_qr_scan", "ios": "https://dc.lft.to/lastmile_qr_scan"}, "lat": 38.903426, "bike_id": "53e33c62aeee4b4451e72454ea7a33e4", "is_disabled": 0, "lon": -76.98271333333334, "is_reserved": 0, "fusion_lat": 0.0, "type": "electric_scooter"}, {"fusion_lon": 0.0, "name": "e9e24b99d7b1ce1adeccace98ac9cb7f", "rental_uris": {"android": "https://dc.lft.to/lastmile_qr_scan", "ios": "https://dc.lft.to/lastmile_qr_scan"}, "lat": 38.90670816666667, "bike_id": "e9e24b99d7b1ce1adeccace98ac9cb7f", "is_disabled": 0, "lon": -77.04898166666666, "is_reserved": 0, "fusion_lat": 0.0, "type": "electric_scooter"}, {"fusion_lon": 0.0, "name": "e1e2ed4d5bfc38d9e3cf5454dafbe5b3", "rental_uris": {"android": "https://dc.lft.to/lastmile_qr_scan", "ios": "https://dc.lft.to/lastmile_qr_scan"}, "lat": 38.8922295, "bike_id": "e1e2ed4d5bfc38d9e3cf5454dafbe5b3", "is_disabled": 0, "lon": -77.04366633333333, "is_reserved": 0, "fusion_lat": 0.0, "type": "electric_scooter"}, {"fusion_lon": 0.0, "name": "08fa2eb1eca0f2f8560098654f9be3e3", "rental_uris": {"android": "https://dc.lft.to/lastmile_qr_scan", "ios": "https://dc.lft.to/lastmile_qr_scan"}, "lat": 38.875471833333336, "bike_id": "08fa2eb1eca0f2f8560098654f9be3e3", "is_disabled": 0, "lon": -77.00540616666666, "is_reserved": 0, "fusion_lat": 0.0, "type": "electric_scooter"}, {"fusion_lon": 0.0, "name": "8801876b0e3dee4df9350f3918710627", "rental_uris": {"android": "https://dc.lft.to/lastmile_qr_scan", "ios": "https://dc.lft.to/lastmile_qr_scan"}, "lat": 38.92762033333333, "bike_id": "8801876b0e3dee4df9350f3918710627", "is_disabled": 0, "lon": -77.03201066666666, "is_reserved": 0, "fusion_lat": 0.0, "type": "electric_scooter"}, {"fusion_lon": 0.0, "name": "48aa67684441fc372469ad4c5b05d337", "rental_uris": {"android": "https://dc.lft.to/lastmile_qr_scan", "ios": "https://dc.lft.to/lastmile_qr_scan"}, "lat": 38.9157975, "bike_id": "48aa67684441fc372469ad4c5b05d337", "is_disabled": 0, "lon": -77.04479933333333, "is_reserved": 0, "fusion_lat": 0.0, "type": "electric_scooter"}, {"fusion_lon": 0.0, "name": "a151464f5a0ed271823ee346af560191", "rental_uris": {"android": "https://dc.lft.to/lastmile_qr_scan", "ios": "https://dc.lft.to/lastmile_qr_scan"}, "lat": 38.9198015, "bike_id": "a151464f5a0ed271823ee346af560191", "is_disabled": 0, "lon": -77.07112333333333, "is_reserved": 0, "fusion_lat": 0.0, "type": "electric_scooter"}, {"fusion_lon": 0.0, "name": "172c9bb49a5db8022cc40a8cd3e959b5", "rental_uris": {"android": "https://dc.lft.to/lastmile_qr_scan", "ios": "https://dc.lft.to/lastmile_qr_scan"}, "lat": 38.919476, "bike_id": "172c9bb49a5db8022cc40a8cd3e959b5", "is_disabled": 0, "lon": -77.02490383333334, "is_reserved": 0, "fusion_lat": 0.0, "type": "electric_scooter"}, {"fusion_lon": 0.0, "name": "be55539365d197636244b7efaca31c84", "rental_uris": {"android": "https://dc.lft.to/lastmile_qr_scan", "ios": "https://dc.lft.to/lastmile_qr_scan"}, "lat": 38.9194525, "bike_id": "be55539365d197636244b7efaca31c84", "is_disabled": 0, "lon": -77.021798, "is_reserved": 0, "fusion_lat": 0.0, "type": "electric_scooter"}, {"fusion_lon": 0.0, "name": "eaf504e7504559c5051e9e3f2b27806e", "rental_uris": {"android": "https://dc.lft.to/lastmile_qr_scan", "ios": "https://dc.lft.to/lastmile_qr_scan"}, "lat": 38.91922983333333, "bike_id": "eaf504e7504559c5051e9e3f2b27806e", "is_disabled": 0, "lon": -77.009958, "is_reserved": 0, "fusion_lat": 0.0, "type": "electric_scooter"}, {"fusion_lon": 0.0, "name": "a3d36573901a032cb620687923d0ab98", "rental_uris": {"android": "https://dc.lft.to/lastmile_qr_scan", "ios": "https://dc.lft.to/lastmile_qr_scan"}, "lat": 38.92451583333333, "bike_id": "a3d36573901a032cb620687923d0ab98", "is_disabled": 0, "lon": -77.02160083333334, "is_reserved": 0, "fusion_lat": 0.0, "type": "electric_scooter"}, {"fusion_lon": 0.0, "name": "501068b149e5542b612024e0158ad18f", "rental_uris": {"android": "https://dc.lft.to/lastmile_qr_scan", "ios": "https://dc.lft.to/lastmile_qr_scan"}, "lat": 38.88660016666667, "bike_id": "501068b149e5542b612024e0158ad18f", "is_disabled": 0, "lon": -76.93674416666667, "is_reserved": 0, "fusion_lat": 0.0, "type": "electric_scooter"}, {"fusion_lon": 0.0, "name": "1e12c2eee87163e88965d10fda3cf76c", "rental_uris": {"android": "https://dc.lft.to/lastmile_qr_scan", "ios": "https://dc.lft.to/lastmile_qr_scan"}, "lat": 38.945378166666664, "bike_id": "1e12c2eee87163e88965d10fda3cf76c", "is_disabled": 0, "lon": -77.34465333333333, "is_reserved": 0, "fusion_lat": 0.0, "type": "electric_bike"}, {"fusion_lon": 0.0, "name": "0e4e9a9fcd2deac0380cc4a27861799c", "rental_uris": {"android": "https://dc.lft.to/lastmile_qr_scan", "ios": "https://dc.lft.to/lastmile_qr_scan"}, "lat": 38.924713833333335, "bike_id": "0e4e9a9fcd2deac0380cc4a27861799c", "is_disabled": 0, "lon": -77.022152, "is_reserved": 0, "fusion_lat": 0.0, "type": "electric_scooter"}, {"fusion_lon": 0.0, "name": "1243040ac94a12304ed7d6d7623ab0f5", "rental_uris": {"android": "https://dc.lft.to/lastmile_qr_scan", "ios": "https://dc.lft.to/lastmile_qr_scan"}, "lat": 38.91718083333333, "bike_id": "1243040ac94a12304ed7d6d7623ab0f5", "is_disabled": 0, "lon": -77.068243, "is_reserved": 0, "fusion_lat": 0.0, "type": "electric_scooter"}, {"fusion_lon": 0.0, "name": "00960cd4e7bf347760e7fdbb1fb18c9d", "rental_uris": {"android": "https://dc.lft.to/lastmile_qr_scan", "ios": "https://dc.lft.to/lastmile_qr_scan"}, "lat": 38.910352333333336, "bike_id": "00960cd4e7bf347760e7fdbb1fb18c9d", "is_disabled": 0, "lon": -77.06494783333333, "is_reserved": 0, "fusion_lat": 0.0, "type": "electric_scooter"}, {"fusion_lon": 0.0, "name": "33a33a9f665fce4d1357ea035097dcb0", "rental_uris": {"android": "https://dc.lft.to/lastmile_qr_scan", "ios": "https://dc.lft.to/lastmile_qr_scan"}, "lat": 38.900807, "bike_id": "33a33a9f665fce4d1357ea035097dcb0", "is_disabled": 0, "lon": -77.01848516666666, "is_reserved": 0, "fusion_lat": 0.0, "type": "electric_scooter"}, {"fusion_lon": 0.0, "name": "d0d08418c9c97bae6e9cabadd2abc32b", "rental_uris": {"android": "https://dc.lft.to/lastmile_qr_scan", "ios": "https://dc.lft.to/lastmile_qr_scan"}, "lat": 38.922478, "bike_id": "d0d08418c9c97bae6e9cabadd2abc32b", "is_disabled": 0, "lon": -77.01947066666666, "is_reserved": 0, "fusion_lat": 0.0, "type": "electric_scooter"}, {"fusion_lon": 0.0, "name": "52bd8122feff6b404c49e7c9ebae3afb", "rental_uris": {"android": "https://dc.lft.to/lastmile_qr_scan", "ios": "https://dc.lft.to/lastmile_qr_scan"}, "lat": 39.0843065, "bike_id": "52bd8122feff6b404c49e7c9ebae3afb", "is_disabled": 0, "lon": -76.9514365, "is_reserved": 0, "fusion_lat": 0.0, "type": "electric_bike"}, {"fusion_lon": 0.0, "name": "02a51de79481d58a654be869a8ea4d2a", "rental_uris": {"android": "https://dc.lft.to/lastmile_qr_scan", "ios": "https://dc.lft.to/lastmile_qr_scan"}, "lat": 38.90744316666667, "bike_id": "02a51de79481d58a654be869a8ea4d2a", "is_disabled": 0, "lon": -77.00737383333333, "is_reserved": 0, "fusion_lat": 0.0, "type": "electric_scooter"}, {"fusion_lon": 0.0, "name": "347bc8ebc9487568d34ec159a4024dfc", "rental_uris": {"android": "https://dc.lft.to/lastmile_qr_scan", "ios": "https://dc.lft.to/lastmile_qr_scan"}, "lat": 38.91852516666667, "bike_id": "347bc8ebc9487568d34ec159a4024dfc", "is_disabled": 0, "lon": -77.025332, "is_reserved": 0, "fusion_lat": 0.0, "type": "electric_scooter"}, {"fusion_lon": 0.0, "name": "c405f6d09f29d4956f06c8d2c957751f", "rental_uris": {"android": "https://dc.lft.to/lastmile_qr_scan", "ios": "https://dc.lft.to/lastmile_qr_scan"}, "lat": 38.92328, "bike_id": "c405f6d09f29d4956f06c8d2c957751f", "is_disabled": 0, "lon": -77.01953416666667, "is_reserved": 0, "fusion_lat": 0.0, "type": "electric_scooter"}, {"fusion_lon": 0.0, "name": "c3b3aca42e1c7a2c6dce21893b5efefa", "rental_uris": {"android": "https://dc.lft.to/lastmile_qr_scan", "ios": "https://dc.lft.to/lastmile_qr_scan"}, "lat": 38.900422166666665, "bike_id": "c3b3aca42e1c7a2c6dce21893b5efefa", "is_disabled": 0, "lon": -76.98833883333333, "is_reserved": 0, "fusion_lat": 0.0, "type": "electric_scooter"}, {"fusion_lon": 0.0, "name": "d8dae01a2e47268be4f164acdbf8c720", "rental_uris": {"android": "https://dc.lft.to/lastmile_qr_scan", "ios": "https://dc.lft.to/lastmile_qr_scan"}, "lat": 38.87646683333333, "bike_id": "d8dae01a2e47268be4f164acdbf8c720", "is_disabled": 0, "lon": -77.01582533333334, "is_reserved": 0, "fusion_lat": 0.0, "type": "electric_scooter"}, {"fusion_lon": 0.0, "name": "2f1a22f2c01a57378bdefeedc06292ba", "rental_uris": {"android": "https://dc.lft.to/lastmile_qr_scan", "ios": "https://dc.lft.to/lastmile_qr_scan"}, "lat": 38.923741166666666, "bike_id": "2f1a22f2c01a57378bdefeedc06292ba", "is_disabled": 0, "lon": -77.02121133333333, "is_reserved": 0, "fusion_lat": 0.0, "type": "electric_scooter"}, {"fusion_lon": 0.0, "name": "39988f4aab5b6e7da35545e92f2ff77c", "rental_uris": {"android": "https://dc.lft.to/lastmile_qr_scan", "ios": "https://dc.lft.to/lastmile_qr_scan"}, "lat": 38.84754916666667, "bike_id": "39988f4aab5b6e7da35545e92f2ff77c", "is_disabled": 0, "lon": -77.05367316666667, "is_reserved": 0, "fusion_lat": 0.0, "type": "electric_bike"}, {"fusion_lon": 0.0, "name": "f3dfbeae21b972e65bab8d66c60790a6", "rental_uris": {"android": "https://dc.lft.to/lastmile_qr_scan", "ios": "https://dc.lft.to/lastmile_qr_scan"}, "lat": 38.913649666666664, "bike_id": "f3dfbeae21b972e65bab8d66c60790a6", "is_disabled": 0, "lon": -77.04489133333334, "is_reserved": 0, "fusion_lat": 0.0, "type": "electric_scooter"}, {"fusion_lon": 0.0, "name": "57fffa297b7b1636b040ab872b29ce7e", "rental_uris": {"android": "https://dc.lft.to/lastmile_qr_scan", "ios": "https://dc.lft.to/lastmile_qr_scan"}, "lat": 38.89489733333333, "bike_id": "57fffa297b7b1636b040ab872b29ce7e", "is_disabled": 0, "lon": -76.94890633333333, "is_reserved": 0, "fusion_lat": 0.0, "type": "electric_scooter"}, {"fusion_lon": 0.0, "name": "7ea712c5064e2e94393c166078278f48", "rental_uris": {"android": "https://dc.lft.to/lastmile_qr_scan", "ios": "https://dc.lft.to/lastmile_qr_scan"}, "lat": 38.943456833333336, "bike_id": "7ea712c5064e2e94393c166078278f48", "is_disabled": 0, "lon": -77.06133016666666, "is_reserved": 0, "fusion_lat": 0.0, "type": "electric_scooter"}, {"fusion_lon": 0.0, "name": "f8953c6d737407cfa0ba882d5bdc8f12", "rental_uris": {"android": "https://dc.lft.to/lastmile_qr_scan", "ios": "https://dc.lft.to/lastmile_qr_scan"}, "lat": 38.896315, "bike_id": "f8953c6d737407cfa0ba882d5bdc8f12", "is_disabled": 0, "lon": -77.03214416666667, "is_reserved": 0, "fusion_lat": 0.0, "type": "electric_scooter"}, {"fusion_lon": 0.0, "name": "c94999232cc647a3557ac0aee8afb6c4", "rental_uris": {"android": "https://dc.lft.to/lastmile_qr_scan", "ios": "https://dc.lft.to/lastmile_qr_scan"}, "lat": 38.88869916666667, "bike_id": "c94999232cc647a3557ac0aee8afb6c4", "is_disabled": 0, "lon": -77.039983, "is_reserved": 0, "fusion_lat": 0.0, "type": "electric_scooter"}, {"fusion_lon": 0.0, "name": "84cf279b47c779d3695bdbb2a841728a", "rental_uris": {"android": "https://dc.lft.to/lastmile_qr_scan", "ios": "https://dc.lft.to/lastmile_qr_scan"}, "lat": 38.93981766666667, "bike_id": "84cf279b47c779d3695bdbb2a841728a", "is_disabled": 0, "lon": -77.02833266666667, "is_reserved": 0, "fusion_lat": 0.0, "type": "electric_scooter"}, {"fusion_lon": 0.0, "name": "4bf74d0ba7a644388546e72e1f20d689", "rental_uris": {"android": "https://dc.lft.to/lastmile_qr_scan", "ios": "https://dc.lft.to/lastmile_qr_scan"}, "lat": 38.91537866666667, "bike_id": "4bf74d0ba7a644388546e72e1f20d689", "is_disabled": 0, "lon": -77.04430883333333, "is_reserved": 0, "fusion_lat": 0.0, "type": "electric_scooter"}, {"fusion_lon": 0.0, "name": "6ee23fa918ae8f056250aa5de26a7d3b", "rental_uris": {"android": "https://dc.lft.to/lastmile_qr_scan", "ios": "https://dc.lft.to/lastmile_qr_scan"}, "lat": 38.897838666666665, "bike_id": "6ee23fa918ae8f056250aa5de26a7d3b", "is_disabled": 0, "lon": -77.0317885, "is_reserved": 0, "fusion_lat": 0.0, "type": "electric_scooter"}, {"fusion_lon": 0.0, "name": "5a4cffa8e1c7b741233ced629eb30394", "rental_uris": {"android": "https://dc.lft.to/lastmile_qr_scan", "ios": "https://dc.lft.to/lastmile_qr_scan"}, "lat": 38.899955166666665, "bike_id": "5a4cffa8e1c7b741233ced629eb30394", "is_disabled": 0, "lon": -77.0410445, "is_reserved": 0, "fusion_lat": 0.0, "type": "electric_scooter"}, {"fusion_lon": 0.0, "name": "9c8e2199a442cfca5bb447979ca6d68b", "rental_uris": {"android": "https://dc.lft.to/lastmile_qr_scan", "ios": "https://dc.lft.to/lastmile_qr_scan"}, "lat": 38.92404166666667, "bike_id": "9c8e2199a442cfca5bb447979ca6d68b", "is_disabled": 0, "lon": -77.02244383333333, "is_reserved": 0, "fusion_lat": 0.0, "type": "electric_scooter"}, {"fusion_lon": 0.0, "name": "3a1cb9a9fbdfbfc8de2833eb51edea0f", "rental_uris": {"android": "https://dc.lft.to/lastmile_qr_scan", "ios": "https://dc.lft.to/lastmile_qr_scan"}, "lat": 38.893106333333336, "bike_id": "3a1cb9a9fbdfbfc8de2833eb51edea0f", "is_disabled": 0, "lon": -76.93975933333333, "is_reserved": 0, "fusion_lat": 0.0, "type": "electric_scooter"}, {"fusion_lon": 0.0, "name": "922f7f0853e0c366b8e4831181b2b0cc", "rental_uris": {"android": "https://dc.lft.to/lastmile_qr_scan", "ios": "https://dc.lft.to/lastmile_qr_scan"}, "lat": 38.896083833333336, "bike_id": "922f7f0853e0c366b8e4831181b2b0cc", "is_disabled": 0, "lon": -77.02145366666667, "is_reserved": 0, "fusion_lat": 0.0, "type": "electric_scooter"}, {"fusion_lon": 0.0, "name": "261abff1492eb955f65d1bb33932427c", "rental_uris": {"android": "https://dc.lft.to/lastmile_qr_scan", "ios": "https://dc.lft.to/lastmile_qr_scan"}, "lat": 38.891963833333335, "bike_id": "261abff1492eb955f65d1bb33932427c", "is_disabled": 0, "lon": -76.9938715, "is_reserved": 0, "fusion_lat": 0.0, "type": "electric_scooter"}, {"fusion_lon": 0.0, "name": "43892d21956c9d3b97f2bcf57b637386", "rental_uris": {"android": "https://dc.lft.to/lastmile_qr_scan", "ios": "https://dc.lft.to/lastmile_qr_scan"}, "lat": 38.95628216666667, "bike_id": "43892d21956c9d3b97f2bcf57b637386", "is_disabled": 0, "lon": -77.03301916666666, "is_reserved": 0, "fusion_lat": 0.0, "type": "electric_scooter"}, {"fusion_lon": 0.0, "name": "c14151684e6e55cbf22633bc86633630", "rental_uris": {"android": "https://dc.lft.to/lastmile_qr_scan", "ios": "https://dc.lft.to/lastmile_qr_scan"}, "lat": 38.90898133333334, "bike_id": "c14151684e6e55cbf22633bc86633630", "is_disabled": 0, "lon": -77.03213433333333, "is_reserved": 0, "fusion_lat": 0.0, "type": "electric_scooter"}, {"fusion_lon": 0.0, "name": "ee0165fe19e9fa20f65bddbec7443d00", "rental_uris": {"android": "https://dc.lft.to/lastmile_qr_scan", "ios": "https://dc.lft.to/lastmile_qr_scan"}, "lat": 38.92511183333333, "bike_id": "ee0165fe19e9fa20f65bddbec7443d00", "is_disabled": 0, "lon": -77.02284, "is_reserved": 0, "fusion_lat": 0.0, "type": "electric_scooter"}, {"fusion_lon": 0.0, "name": "94a5058038107d0d92fbd2c172d5a025", "rental_uris": {"android": "https://dc.lft.to/lastmile_qr_scan", "ios": "https://dc.lft.to/lastmile_qr_scan"}, "lat": 38.86713566666667, "bike_id": "94a5058038107d0d92fbd2c172d5a025", "is_disabled": 0, "lon": -77.01003966666667, "is_reserved": 0, "fusion_lat": 0.0, "type": "electric_scooter"}, {"fusion_lon": 0.0, "name": "109caf3bc575e606d80a6552116960a4", "rental_uris": {"android": "https://dc.lft.to/lastmile_qr_scan", "ios": "https://dc.lft.to/lastmile_qr_scan"}, "lat": 38.8490665, "bike_id": "109caf3bc575e606d80a6552116960a4", "is_disabled": 0, "lon": -77.078135, "is_reserved": 0, "fusion_lat": 0.0, "type": "electric_bike"}, {"fusion_lon": 0.0, "name": "20fe23393ef08586f2c010e5f3e2bd01", "rental_uris": {"android": "https://dc.lft.to/lastmile_qr_scan", "ios": "https://dc.lft.to/lastmile_qr_scan"}, "lat": 38.900395, "bike_id": "20fe23393ef08586f2c010e5f3e2bd01", "is_disabled": 0, "lon": -77.0175605, "is_reserved": 0, "fusion_lat": 0.0, "type": "electric_scooter"}, {"fusion_lon": 0.0, "name": "6c54a892efe5100ddf64f6013b9f5664", "rental_uris": {"android": "https://dc.lft.to/lastmile_qr_scan", "ios": "https://dc.lft.to/lastmile_qr_scan"}, "lat": 38.92468, "bike_id": "6c54a892efe5100ddf64f6013b9f5664", "is_disabled": 0, "lon": -77.03528483333334, "is_reserved": 0, "fusion_lat": 0.0, "type": "electric_scooter"}, {"fusion_lon": 0.0, "name": "1b119790fd2d6e11bfa342c5ae16cd85", "rental_uris": {"android": "https://dc.lft.to/lastmile_qr_scan", "ios": "https://dc.lft.to/lastmile_qr_scan"}, "lat": 38.90853716666667, "bike_id": "1b119790fd2d6e11bfa342c5ae16cd85", "is_disabled": 0, "lon": -77.04539933333334, "is_reserved": 0, "fusion_lat": 0.0, "type": "electric_scooter"}, {"fusion_lon": 0.0, "name": "c6e24abd9db6e5ff2b8ac5173545af96", "rental_uris": {"android": "https://dc.lft.to/lastmile_qr_scan", "ios": "https://dc.lft.to/lastmile_qr_scan"}, "lat": 38.915639166666665, "bike_id": "c6e24abd9db6e5ff2b8ac5173545af96", "is_disabled": 0, "lon": -77.0069865, "is_reserved": 0, "fusion_lat": 0.0, "type": "electric_scooter"}, {"fusion_lon": 0.0, "name": "68631c87be7b8fc6591cdf442d279824", "rental_uris": {"android": "https://dc.lft.to/lastmile_qr_scan", "ios": "https://dc.lft.to/lastmile_qr_scan"}, "lat": 38.922897166666665, "bike_id": "68631c87be7b8fc6591cdf442d279824", "is_disabled": 0, "lon": -77.01946766666667, "is_reserved": 0, "fusion_lat": 0.0, "type": "electric_scooter"}, {"fusion_lon": 0.0, "name": "7dc8da69e55b860ca1a2f882e9a7d948", "rental_uris": {"android": "https://dc.lft.to/lastmile_qr_scan", "ios": "https://dc.lft.to/lastmile_qr_scan"}, "lat": 38.90503116666667, "bike_id": "7dc8da69e55b860ca1a2f882e9a7d948", "is_disabled": 0, "lon": -77.0294815, "is_reserved": 0, "fusion_lat": 0.0, "type": "electric_scooter"}, {"fusion_lon": 0.0, "name": "53aad487aa2903513d284fea312ecd3c", "rental_uris": {"android": "https://dc.lft.to/lastmile_qr_scan", "ios": "https://dc.lft.to/lastmile_qr_scan"}, "lat": 38.905278333333335, "bike_id": "53aad487aa2903513d284fea312ecd3c", "is_disabled": 0, "lon": -77.04746883333334, "is_reserved": 0, "fusion_lat": 0.0, "type": "electric_scooter"}, {"fusion_lon": 0.0, "name": "4c735bd4e865cb06f49593f209defdba", "rental_uris": {"android": "https://dc.lft.to/lastmile_qr_scan", "ios": "https://dc.lft.to/lastmile_qr_scan"}, "lat": 39.007161, "bike_id": "4c735bd4e865cb06f49593f209defdba", "is_disabled": 0, "lon": -76.981431, "is_reserved": 0, "fusion_lat": 0.0, "type": "electric_bike"}, {"fusion_lon": 0.0, "name": "14a18a3ab8bc78e86ffe5a84e317c7e7", "rental_uris": {"android": "https://dc.lft.to/lastmile_qr_scan", "ios": "https://dc.lft.to/lastmile_qr_scan"}, "lat": 38.902796333333335, "bike_id": "14a18a3ab8bc78e86ffe5a84e317c7e7", "is_disabled": 0, "lon": -77.0465035, "is_reserved": 0, "fusion_lat": 0.0, "type": "electric_scooter"}, {"fusion_lon": 0.0, "name": "9215b6bdae33554460f5a442dac630c1", "rental_uris": {"android": "https://dc.lft.to/lastmile_qr_scan", "ios": "https://dc.lft.to/lastmile_qr_scan"}, "lat": 38.91549416666667, "bike_id": "9215b6bdae33554460f5a442dac630c1", "is_disabled": 0, "lon": -77.03253016666666, "is_reserved": 0, "fusion_lat": 0.0, "type": "electric_scooter"}, {"fusion_lon": 0.0, "name": "8f87433153adbb169f21c4479997d8fe", "rental_uris": {"android": "https://dc.lft.to/lastmile_qr_scan", "ios": "https://dc.lft.to/lastmile_qr_scan"}, "lat": 38.8859695, "bike_id": "8f87433153adbb169f21c4479997d8fe", "is_disabled": 0, "lon": -76.995781, "is_reserved": 0, "fusion_lat": 0.0, "type": "electric_scooter"}, {"fusion_lon": 0.0, "name": "94df6b238f6804e71a68b64f10dc7a73", "rental_uris": {"android": "https://dc.lft.to/lastmile_qr_scan", "ios": "https://dc.lft.to/lastmile_qr_scan"}, "lat": 38.90306733333333, "bike_id": "94df6b238f6804e71a68b64f10dc7a73", "is_disabled": 0, "lon": -77.0517505, "is_reserved": 0, "fusion_lat": 0.0, "type": "electric_scooter"}, {"fusion_lon": 0.0, "name": "25d3f2ed3a4bb19ee55185895a780280", "rental_uris": {"android": "https://dc.lft.to/lastmile_qr_scan", "ios": "https://dc.lft.to/lastmile_qr_scan"}, "lat": 38.90860516666667, "bike_id": "25d3f2ed3a4bb19ee55185895a780280", "is_disabled": 0, "lon": -77.08069016666667, "is_reserved": 0, "fusion_lat": 0.0, "type": "electric_bike"}, {"fusion_lon": 0.0, "name": "d78a84b91d47d12330b652ab54e6470c", "rental_uris": {"android": "https://dc.lft.to/lastmile_qr_scan", "ios": "https://dc.lft.to/lastmile_qr_scan"}, "lat": 38.924648, "bike_id": "d78a84b91d47d12330b652ab54e6470c", "is_disabled": 0, "lon": -77.02710116666667, "is_reserved": 0, "fusion_lat": 0.0, "type": "electric_scooter"}, {"fusion_lon": 0.0, "name": "d340590589b38dc74b5c3b8d9dd6fcf2", "rental_uris": {"android": "https://dc.lft.to/lastmile_qr_scan", "ios": "https://dc.lft.to/lastmile_qr_scan"}, "lat": 38.92228733333334, "bike_id": "d340590589b38dc74b5c3b8d9dd6fcf2", "is_disabled": 0, "lon": -77.04305583333333, "is_reserved": 0, "fusion_lat": 0.0, "type": "electric_scooter"}, {"fusion_lon": 0.0, "name": "143797e368f2a3b6ad463616691a7811", "rental_uris": {"android": "https://dc.lft.to/lastmile_qr_scan", "ios": "https://dc.lft.to/lastmile_qr_scan"}, "lat": 38.908734833333334, "bike_id": "143797e368f2a3b6ad463616691a7811", "is_disabled": 0, "lon": -77.04326433333334, "is_reserved": 0, "fusion_lat": 0.0, "type": "electric_scooter"}, {"fusion_lon": 0.0, "name": "990e54fe6ef1bbb0dc25a10f9a502824", "rental_uris": {"android": "https://dc.lft.to/lastmile_qr_scan", "ios": "https://dc.lft.to/lastmile_qr_scan"}, "lat": 38.908373166666664, "bike_id": "990e54fe6ef1bbb0dc25a10f9a502824", "is_disabled": 0, "lon": -77.002141, "is_reserved": 0, "fusion_lat": 0.0, "type": "electric_scooter"}, {"fusion_lon": 0.0, "name": "b04eb3be1989d0a73aaf1c3001ade1eb", "rental_uris": {"android": "https://dc.lft.to/lastmile_qr_scan", "ios": "https://dc.lft.to/lastmile_qr_scan"}, "lat": 38.907794333333335, "bike_id": "b04eb3be1989d0a73aaf1c3001ade1eb", "is_disabled": 0, "lon": -77.01830933333333, "is_reserved": 0, "fusion_lat": 0.0, "type": "electric_scooter"}, {"fusion_lon": 0.0, "name": "1cbdfef48509cf757aac870a2d9f6fa4", "rental_uris": {"android": "https://dc.lft.to/lastmile_qr_scan", "ios": "https://dc.lft.to/lastmile_qr_scan"}, "lat": 38.91662633333333, "bike_id": "1cbdfef48509cf757aac870a2d9f6fa4", "is_disabled": 0, "lon": -77.043832, "is_reserved": 0, "fusion_lat": 0.0, "type": "electric_scooter"}, {"fusion_lon": 0.0, "name": "4bb0c5375d40ad890634b5fd292dbaa5", "rental_uris": {"android": "https://dc.lft.to/lastmile_qr_scan", "ios": "https://dc.lft.to/lastmile_qr_scan"}, "lat": 38.91829, "bike_id": "4bb0c5375d40ad890634b5fd292dbaa5", "is_disabled": 0, "lon": -77.05309883333334, "is_reserved": 0, "fusion_lat": 0.0, "type": "electric_scooter"}, {"fusion_lon": 0.0, "name": "3a0332910f49b7cc3bc512b486003164", "rental_uris": {"android": "https://dc.lft.to/lastmile_qr_scan", "ios": "https://dc.lft.to/lastmile_qr_scan"}, "lat": 38.909904166666664, "bike_id": "3a0332910f49b7cc3bc512b486003164", "is_disabled": 0, "lon": -77.009032, "is_reserved": 0, "fusion_lat": 0.0, "type": "electric_scooter"}, {"fusion_lon": 0.0, "name": "c1289edbe588b1d930940f2425ff1b4c", "rental_uris": {"android": "https://dc.lft.to/lastmile_qr_scan", "ios": "https://dc.lft.to/lastmile_qr_scan"}, "lat": 38.892466166666665, "bike_id": "c1289edbe588b1d930940f2425ff1b4c", "is_disabled": 0, "lon": -77.0395535, "is_reserved": 0, "fusion_lat": 0.0, "type": "electric_scooter"}, {"fusion_lon": 0.0, "name": "1d28dfa9f1617d51debddebbd3e72dd6", "rental_uris": {"android": "https://dc.lft.to/lastmile_qr_scan", "ios": "https://dc.lft.to/lastmile_qr_scan"}, "lat": 38.880385833333335, "bike_id": "1d28dfa9f1617d51debddebbd3e72dd6", "is_disabled": 0, "lon": -77.00514766666667, "is_reserved": 0, "fusion_lat": 0.0, "type": "electric_scooter"}, {"fusion_lon": 0.0, "name": "0eb38dad2f6b0d84bd0bd9b1d99415b5", "rental_uris": {"android": "https://dc.lft.to/lastmile_qr_scan", "ios": "https://dc.lft.to/lastmile_qr_scan"}, "lat": 38.922023333333335, "bike_id": "0eb38dad2f6b0d84bd0bd9b1d99415b5", "is_disabled": 0, "lon": -76.98367383333333, "is_reserved": 0, "fusion_lat": 0.0, "type": "electric_scooter"}, {"fusion_lon": 0.0, "name": "6207aa002b54a413c8bd10c94f80638a", "rental_uris": {"android": "https://dc.lft.to/lastmile_qr_scan", "ios": "https://dc.lft.to/lastmile_qr_scan"}, "lat": 38.89949466666667, "bike_id": "6207aa002b54a413c8bd10c94f80638a", "is_disabled": 0, "lon": -77.04495116666666, "is_reserved": 0, "fusion_lat": 0.0, "type": "electric_scooter"}, {"fusion_lon": 0.0, "name": "7dd1ad19b9c64d3976e0a7c83ebbbd7d", "rental_uris": {"android": "https://dc.lft.to/lastmile_qr_scan", "ios": "https://dc.lft.to/lastmile_qr_scan"}, "lat": 38.926616333333335, "bike_id": "7dd1ad19b9c64d3976e0a7c83ebbbd7d", "is_disabled": 0, "lon": -77.03691433333333, "is_reserved": 0, "fusion_lat": 0.0, "type": "electric_bike"}, {"fusion_lon": 0.0, "name": "d1986b099b1dc00c6f870d3d508226e2", "rental_uris": {"android": "https://dc.lft.to/lastmile_qr_scan", "ios": "https://dc.lft.to/lastmile_qr_scan"}, "lat": 38.8734185, "bike_id": "d1986b099b1dc00c6f870d3d508226e2", "is_disabled": 0, "lon": -76.99171233333334, "is_reserved": 0, "fusion_lat": 0.0, "type": "electric_scooter"}, {"fusion_lon": 0.0, "name": "bf65d0519adf24a213b07af2629aafd1", "rental_uris": {"android": "https://dc.lft.to/lastmile_qr_scan", "ios": "https://dc.lft.to/lastmile_qr_scan"}, "lat": 38.897399, "bike_id": "bf65d0519adf24a213b07af2629aafd1", "is_disabled": 0, "lon": -77.02562133333333, "is_reserved": 0, "fusion_lat": 0.0, "type": "electric_scooter"}, {"fusion_lon": 0.0, "name": "baff7cf4feb714472e315bbf345c54b0", "rental_uris": {"android": "https://dc.lft.to/lastmile_qr_scan", "ios": "https://dc.lft.to/lastmile_qr_scan"}, "lat": 38.898705, "bike_id": "baff7cf4feb714472e315bbf345c54b0", "is_disabled": 0, "lon": -77.02133416666666, "is_reserved": 0, "fusion_lat": 0.0, "type": "electric_scooter"}, {"fusion_lon": 0.0, "name": "6baba2a5196b5adede53bea245a97271", "rental_uris": {"android": "https://dc.lft.to/lastmile_qr_scan", "ios": "https://dc.lft.to/lastmile_qr_scan"}, "lat": 38.92323566666666, "bike_id": "6baba2a5196b5adede53bea245a97271", "is_disabled": 0, "lon": -77.03547166666667, "is_reserved": 0, "fusion_lat": 0.0, "type": "electric_scooter"}, {"fusion_lon": 0.0, "name": "32f68f3479acb63a350abdfbb3284a48", "rental_uris": {"android": "https://dc.lft.to/lastmile_qr_scan", "ios": "https://dc.lft.to/lastmile_qr_scan"}, "lat": 38.906703666666665, "bike_id": "32f68f3479acb63a350abdfbb3284a48", "is_disabled": 0, "lon": -76.983712, "is_reserved": 0, "fusion_lat": 0.0, "type": "electric_scooter"}, {"fusion_lon": 0.0, "name": "4d03a2266f74cac442fc9c1c2733387f", "rental_uris": {"android": "https://dc.lft.to/lastmile_qr_scan", "ios": "https://dc.lft.to/lastmile_qr_scan"}, "lat": 38.916160833333336, "bike_id": "4d03a2266f74cac442fc9c1c2733387f", "is_disabled": 0, "lon": -77.03194633333334, "is_reserved": 0, "fusion_lat": 0.0, "type": "electric_scooter"}, {"fusion_lon": 0.0, "name": "7a7bb0b2c8dec784abdedd0ec9634280", "rental_uris": {"android": "https://dc.lft.to/lastmile_qr_scan", "ios": "https://dc.lft.to/lastmile_qr_scan"}, "lat": 38.908707, "bike_id": "7a7bb0b2c8dec784abdedd0ec9634280", "is_disabled": 0, "lon": -77.07166783333334, "is_reserved": 0, "fusion_lat": 0.0, "type": "electric_scooter"}, {"fusion_lon": 0.0, "name": "bac6ad107000550982577f34b4b81513", "rental_uris": {"android": "https://dc.lft.to/lastmile_qr_scan", "ios": "https://dc.lft.to/lastmile_qr_scan"}, "lat": 38.98030133333334, "bike_id": "bac6ad107000550982577f34b4b81513", "is_disabled": 0, "lon": -76.94243466666667, "is_reserved": 0, "fusion_lat": 0.0, "type": "electric_bike"}, {"fusion_lon": 0.0, "name": "1b44787b2eadc9d5da0cc1acbcf59f8d", "rental_uris": {"android": "https://dc.lft.to/lastmile_qr_scan", "ios": "https://dc.lft.to/lastmile_qr_scan"}, "lat": 38.87575183333333, "bike_id": "1b44787b2eadc9d5da0cc1acbcf59f8d", "is_disabled": 0, "lon": -77.005814, "is_reserved": 0, "fusion_lat": 0.0, "type": "electric_scooter"}, {"fusion_lon": 0.0, "name": "5a3af6ef66fdde9bdf984ed1100230cd", "rental_uris": {"android": "https://dc.lft.to/lastmile_qr_scan", "ios": "https://dc.lft.to/lastmile_qr_scan"}, "lat": 38.87174733333333, "bike_id": "5a3af6ef66fdde9bdf984ed1100230cd", "is_disabled": 0, "lon": -77.23383666666666, "is_reserved": 0, "fusion_lat": 0.0, "type": "electric_bike"}, {"fusion_lon": 0.0, "name": "0a7b0a62c941c72a4bb743ab4f7824f6", "rental_uris": {"android": "https://dc.lft.to/lastmile_qr_scan", "ios": "https://dc.lft.to/lastmile_qr_scan"}, "lat": 38.808978333333336, "bike_id": "0a7b0a62c941c72a4bb743ab4f7824f6", "is_disabled": 0, "lon": -77.115567, "is_reserved": 0, "fusion_lat": 0.0, "type": "electric_bike"}, {"fusion_lon": 0.0, "name": "eadd62bb66df4efaf2268bc484018179", "rental_uris": {"android": "https://dc.lft.to/lastmile_qr_scan", "ios": "https://dc.lft.to/lastmile_qr_scan"}, "lat": 38.9176055, "bike_id": "eadd62bb66df4efaf2268bc484018179", "is_disabled": 0, "lon": -77.00918583333333, "is_reserved": 0, "fusion_lat": 0.0, "type": "electric_scooter"}, {"fusion_lon": 0.0, "name": "6e7f41802eaa396dd1bd2d2b7196a88e", "rental_uris": {"android": "https://dc.lft.to/lastmile_qr_scan", "ios": "https://dc.lft.to/lastmile_qr_scan"}, "lat": 38.8720195, "bike_id": "6e7f41802eaa396dd1bd2d2b7196a88e", "is_disabled": 0, "lon": -77.00930116666666, "is_reserved": 0, "fusion_lat": 0.0, "type": "electric_scooter"}, {"fusion_lon": 0.0, "name": "4a022e9dc22161f5ffe4a634b5c91be1", "rental_uris": {"android": "https://dc.lft.to/lastmile_qr_scan", "ios": "https://dc.lft.to/lastmile_qr_scan"}, "lat": 38.92218166666667, "bike_id": "4a022e9dc22161f5ffe4a634b5c91be1", "is_disabled": 0, "lon": -77.04337483333333, "is_reserved": 0, "fusion_lat": 0.0, "type": "electric_scooter"}, {"fusion_lon": 0.0, "name": "69f3cf2a3e14bb981e346e97257b090d", "rental_uris": {"android": "https://dc.lft.to/lastmile_qr_scan", "ios": "https://dc.lft.to/lastmile_qr_scan"}, "lat": 38.88079233333333, "bike_id": "69f3cf2a3e14bb981e346e97257b090d", "is_disabled": 0, "lon": -76.9853305, "is_reserved": 0, "fusion_lat": 0.0, "type": "electric_scooter"}, {"fusion_lon": 0.0, "name": "fa6160a9f3762503469d46e9fa5b716e", "rental_uris": {"android": "https://dc.lft.to/lastmile_qr_scan", "ios": "https://dc.lft.to/lastmile_qr_scan"}, "lat": 38.914767166666664, "bike_id": "fa6160a9f3762503469d46e9fa5b716e", "is_disabled": 0, "lon": -77.040082, "is_reserved": 0, "fusion_lat": 0.0, "type": "electric_scooter"}, {"fusion_lon": 0.0, "name": "f78986a1cd263b56e9ad4cd31968e6e4", "rental_uris": {"android": "https://dc.lft.to/lastmile_qr_scan", "ios": "https://dc.lft.to/lastmile_qr_scan"}, "lat": 38.9201575, "bike_id": "f78986a1cd263b56e9ad4cd31968e6e4", "is_disabled": 0, "lon": -76.9783445, "is_reserved": 0, "fusion_lat": 0.0, "type": "electric_scooter"}, {"fusion_lon": 0.0, "name": "1833f4e9b516e80fa6664c43d82c3382", "rental_uris": {"android": "https://dc.lft.to/lastmile_qr_scan", "ios": "https://dc.lft.to/lastmile_qr_scan"}, "lat": 38.97385533333333, "bike_id": "1833f4e9b516e80fa6664c43d82c3382", "is_disabled": 0, "lon": -77.01814283333333, "is_reserved": 0, "fusion_lat": 0.0, "type": "electric_scooter"}, {"fusion_lon": 0.0, "name": "437817054b0d073ac8ba08f579f77c0f", "rental_uris": {"android": "https://dc.lft.to/lastmile_qr_scan", "ios": "https://dc.lft.to/lastmile_qr_scan"}, "lat": 38.92250516666667, "bike_id": "437817054b0d073ac8ba08f579f77c0f", "is_disabled": 0, "lon": -77.019469, "is_reserved": 0, "fusion_lat": 0.0, "type": "electric_scooter"}, {"fusion_lon": 0.0, "name": "78f5e3b981ebf3ae7ae0d30b4b10a217", "rental_uris": {"android": "https://dc.lft.to/lastmile_qr_scan", "ios": "https://dc.lft.to/lastmile_qr_scan"}, "lat": 38.918963833333336, "bike_id": "78f5e3b981ebf3ae7ae0d30b4b10a217", "is_disabled": 0, "lon": -77.10169216666667, "is_reserved": 0, "fusion_lat": 0.0, "type": "electric_bike"}, {"fusion_lon": 0.0, "name": "cb72bd097694ec703e81f3940ee598dc", "rental_uris": {"android": "https://dc.lft.to/lastmile_qr_scan", "ios": "https://dc.lft.to/lastmile_qr_scan"}, "lat": 38.9033905, "bike_id": "cb72bd097694ec703e81f3940ee598dc", "is_disabled": 0, "lon": -76.9760665, "is_reserved": 0, "fusion_lat": 0.0, "type": "electric_scooter"}, {"fusion_lon": 0.0, "name": "8dfd4396eaf96199771b4c7bebd7e31e", "rental_uris": {"android": "https://dc.lft.to/lastmile_qr_scan", "ios": "https://dc.lft.to/lastmile_qr_scan"}, "lat": 38.963977666666665, "bike_id": "8dfd4396eaf96199771b4c7bebd7e31e", "is_disabled": 0, "lon": -77.02588516666667, "is_reserved": 0, "fusion_lat": 0.0, "type": "electric_scooter"}, {"fusion_lon": 0.0, "name": "5d652ef95f5d3a43fa7a03ccc5a94c89", "rental_uris": {"android": "https://dc.lft.to/lastmile_qr_scan", "ios": "https://dc.lft.to/lastmile_qr_scan"}, "lat": 38.916196666666664, "bike_id": "5d652ef95f5d3a43fa7a03ccc5a94c89", "is_disabled": 0, "lon": -77.045989, "is_reserved": 0, "fusion_lat": 0.0, "type": "electric_scooter"},