{"data": {"bikes": [{"fusion_lat": 0.0, "bike_id": "453431b2c0d0807552b8fbec0adb0c41", "fusion_lon": 0.0, "lon": -77.16625933333333, "lat": 38.88839566666667, "is_reserved": 0, "is_disabled": 0, "rental_uris": {"android": "https://dc.lft.to/lastmile_qr_scan", "ios": "https://dc.lft.to/lastmile_qr_scan"}, "name": "453431b2c0d0807552b8fbec0adb0c41", "type": "electric_bike"}, {"fusion_lat": 0.0, "bike_id": "10ae67fa591d47acd437dbb456a91ea6", "fusion_lon": 0.0, "lon": -76.99522166666667, "lat": 38.89171666666667, "is_reserved": 0, "is_disabled": 0, "rental_uris": {"android": "https://dc.lft.to/lastmile_qr_scan", "ios": "https://dc.lft.to/lastmile_qr_scan"}, "name": "10ae67fa591d47acd437dbb456a91ea6", "type": "electric_scooter"}, {"fusion_lat": 0.0, "bike_id": "c8902c36402625f0ff7be49521a3481d", "fusion_lon": 0.0, "lon": -77.032127, "lat": 38.9072915, "is_reserved": 0, "is_disabled": 0, "rental_uris": {"android": "https://dc.lft.to/lastmile_qr_scan", "ios": "https://dc.lft.to/lastmile_qr_scan"}, "name": "c8902c36402625f0ff7be49521a3481d", "type": "electric_scooter"}, {"fusion_lat": 0.0, "bike_id": "26af4b0634eedbee5cdeebc5249c3970", "fusion_lon": 0.0, "lon": -77.03844833333333, "lat": 38.92164783333333, "is_reserved": 0, "is_disabled": 0, "rental_uris": {"android": "https://dc.lft.to/lastmile_qr_scan", "ios": "https://dc.lft.to/lastmile_qr_scan"}, "name": "26af4b0634eedbee5cdeebc5249c3970", "type": "electric_scooter"}, {"fusion_lat": 0.0, "bike_id": "47be48763127761e980cf82b0a1c61fb", "fusion_lon": 0.0, "lon": -77.0325685, "lat": 38.9484225, "is_reserved": 0, "is_disabled": 0, "rental_uris": {"android": "https://dc.lft.to/lastmile_qr_scan", "ios": "https://dc.lft.to/lastmile_qr_scan"}, "name": "47be48763127761e980cf82b0a1c61fb", "type": "electric_scooter"}, {"fusion_lat": 0.0, "bike_id": "f7ba5712bfff87bc071a0ed799ccbdc6", "fusion_lon": 0.0, "lon": -77.03185016666667, "lat": 38.916765833333336, "is_reserved": 0, "is_disabled": 0, "rental_uris": {"android": "https://dc.lft.to/lastmile_qr_scan", "ios": "https://dc.lft.to/lastmile_qr_scan"}, "name": "f7ba5712bfff87bc071a0ed799ccbdc6", "type": "electric_scooter"}, {"fusion_lat": 0.0, "bike_id": "76d84ad52a149a48da71d9a8e0a19067", "fusion_lon": 0.0, "lon": -77.0426285, "lat": 38.904293833333334, "is_reserved": 0, "is_disabled": 0, "rental_uris": {"android": "https://dc.lft.to/lastmile_qr_scan", "ios": "https://dc.lft.to/lastmile_qr_scan"}, "name": "76d84ad52a149a48da71d9a8e0a19067", "type": "electric_scooter"}, {"fusion_lat": 0.0, "bike_id": "f2dab37ada612faae697329bd021f7ee", "fusion_lon": 0.0, "lon": -77.03996733333334, "lat": 38.9327765, "is_reserved": 0, "is_disabled": 0, "rental_uris": {"android": "https://dc.lft.to/lastmile_qr_scan", "ios": "https://dc.lft.to/lastmile_qr_scan"}, "name": "f2dab37ada612faae697329bd021f7ee", "type": "electric_scooter"}, {"fusion_lat": 0.0, "bike_id": "140f6c7795204b21a2ac73e340a5cee1", "fusion_lon": 0.0, "lon": -77.0252855, "lat": 38.940947333333334, "is_reserved": 0, "is_disabled": 0, "rental_uris": {"android": "https://dc.lft.to/lastmile_qr_scan", "ios": "https://dc.lft.to/lastmile_qr_scan"}, "name": "140f6c7795204b21a2ac73e340a5cee1", "type": "electric_scooter"}, {"fusion_lat": 0.0, "bike_id": "7f659f6890e6c8b122baf04e7f26a3ed", "fusion_lon": 0.0, "lon": -76.9929365, "lat": 38.85754566666667, "is_reserved": 0, "is_disabled": 0, "rental_uris": {"android": "https://dc.lft.to/lastmile_qr_scan", "ios": "https://dc.lft.to/lastmile_qr_scan"}, "name": "7f659f6890e6c8b122baf04e7f26a3ed", "type": "electric_scooter"}, {"fusion_lat": 0.0, "bike_id": "f238d30bf00013a8cb89974fc05f1014", "fusion_lon": 0.0, "lon": -77.036302, "lat": 38.93679783333333, "is_reserved": 0, "is_disabled": 0, "rental_uris": {"android": "https://dc.lft.to/lastmile_qr_scan", "ios": "https://dc.lft.to/lastmile_qr_scan"}, "name": "f238d30bf00013a8cb89974fc05f1014", "type": "electric_scooter"}, {"fusion_lat": 0.0, "bike_id": "2f2d9c855766aea996f48407631bb1c8", "fusion_lon": 0.0, "lon": -77.043378, "lat": 38.900453166666665, "is_reserved": 0, "is_disabled": 0, "rental_uris": {"android": "https://dc.lft.to/lastmile_qr_scan", "ios": "https://dc.lft.to/lastmile_qr_scan"}, "name": "2f2d9c855766aea996f48407631bb1c8", "type": "electric_scooter"}, {"fusion_lat": 0.0, "bike_id": "6e92008739949ea44b502631d63551b2", "fusion_lon": 0.0, "lon": -77.030656, "lat": 38.917012, "is_reserved": 0, "is_disabled": 0, "rental_uris": {"android": "https://dc.lft.to/lastmile_qr_scan", "ios": "https://dc.lft.to/lastmile_qr_scan"}, "name": "6e92008739949ea44b502631d63551b2", "type": "electric_scooter"}, {"fusion_lat": 0.0, "bike_id": "252cc688fd23d90b611fe51b1974b8f0", "fusion_lon": 0.0, "lon": -77.05171633333333, "lat": 38.924195, "is_reserved": 0, "is_disabled": 0, "rental_uris": {"android": "https://dc.lft.to/lastmile_qr_scan", "ios": "https://dc.lft.to/lastmile_qr_scan"}, "name": "252cc688fd23d90b611fe51b1974b8f0", "type": "electric_scooter"}, {"fusion_lat": 0.0, "bike_id": "ffd22e28abca904de6abc207f49294b5", "fusion_lon": 0.0, "lon": -76.97336366666667, "lat": 38.86520566666667, "is_reserved": 0, "is_disabled": 0, "rental_uris": {"android": "https://dc.lft.to/lastmile_qr_scan", "ios": "https://dc.lft.to/lastmile_qr_scan"}, "name": "ffd22e28abca904de6abc207f49294b5", "type": "electric_bike"}, {"fusion_lat": 0.0, "bike_id": "44756810c59b875aec3203d68a4651ab", "fusion_lon": 0.0, "lon": -77.0327275, "lat": 38.93251, "is_reserved": 0, "is_disabled": 0, "rental_uris": {"android": "https://dc.lft.to/lastmile_qr_scan", "ios": "https://dc.lft.to/lastmile_qr_scan"}, "name": "44756810c59b875aec3203d68a4651ab", "type": "electric_scooter"}, {"fusion_lat": 0.0, "bike_id": "5912ae05b8b62893bf618cfb115f788c", "fusion_lon": 0.0, "lon": -76.99503633333333, "lat": 38.88286016666667, "is_reserved": 0, "is_disabled": 0, "rental_uris": {"android": "https://dc.lft.to/lastmile_qr_scan", "ios": "https://dc.lft.to/lastmile_qr_scan"}, "name": "5912ae05b8b62893bf618cfb115f788c", "type": "electric_scooter"}, {"fusion_lat": 0.0, "bike_id": "8ac5ab7efd4774d79bf4b6644329bc65", "fusion_lon": 0.0, "lon": -77.032188, "lat": 38.892207166666665, "is_reserved": 0, "is_disabled": 0, "rental_uris": {"android": "https://dc.lft.to/lastmile_qr_scan", "ios": "https://dc.lft.to/lastmile_qr_scan"}, "name": "8ac5ab7efd4774d79bf4b6644329bc65", "type": "electric_scooter"}, {"fusion_lat": 0.0, "bike_id": "9e51e3044c6b6c72c82eb030cae72a9e", "fusion_lon": 0.0, "lon": -76.98502633333334, "lat": 38.86672683333333, "is_reserved": 0, "is_disabled": 0, "rental_uris": {"android": "https://dc.lft.to/lastmile_qr_scan", "ios": "https://dc.lft.to/lastmile_qr_scan"}, "name": "9e51e3044c6b6c72c82eb030cae72a9e", "type": "electric_scooter"}, {"fusion_lat": 0.0, "bike_id": "b6f26d3f84bd854ffb1e2f61200f804a", "fusion_lon": 0.0, "lon": -76.985563, "lat": 38.9091695, "is_reserved": 0, "is_disabled": 0, "rental_uris": {"android": "https://dc.lft.to/lastmile_qr_scan", "ios": "https://dc.lft.to/lastmile_qr_scan"}, "name": "b6f26d3f84bd854ffb1e2f61200f804a", "type": "electric_scooter"}, {"fusion_lat": 0.0, "bike_id": "2ca043938e3c2e54358880cf417579ff", "fusion_lon": 0.0, "lon": -77.00780183333333, "lat": 38.914888, "is_reserved": 0, "is_disabled": 0, "rental_uris": {"android": "https://dc.lft.to/lastmile_qr_scan", "ios": "https://dc.lft.to/lastmile_qr_scan"}, "name": "2ca043938e3c2e54358880cf417579ff", "type": "electric_scooter"}, {"fusion_lat": 0.0, "bike_id": "6b8115b97b56225bd7c796f4221c0c95", "fusion_lon": 0.0, "lon": -77.0308495, "lat": 38.93867266666667, "is_reserved": 0, "is_disabled": 0, "rental_uris": {"android": "https://dc.lft.to/lastmile_qr_scan", "ios": "https://dc.lft.to/lastmile_qr_scan"}, "name": "6b8115b97b56225bd7c796f4221c0c95", "type": "electric_scooter"}, {"fusion_lat": 0.0, "bike_id": "193381ce8f82d7cdc5ac6ded853fc828", "fusion_lon": 0.0, "lon": -77.03792766666666, "lat": 38.99676083333333, "is_reserved": 0, "is_disabled": 0, "rental_uris": {"android": "https://dc.lft.to/lastmile_qr_scan", "ios": "https://dc.lft.to/lastmile_qr_scan"}, "name": "193381ce8f82d7cdc5ac6ded853fc828", "type": "electric_bike"}, {"fusion_lat": 0.0, "bike_id": "a9a94756bd234729500b5a8a34f6dc00", "fusion_lon": 0.0, "lon": -77.0158565, "lat": 38.885107, "is_reserved": 0, "is_disabled": 0, "rental_uris": {"android": "https://dc.lft.to/lastmile_qr_scan", "ios": "https://dc.lft.to/lastmile_qr_scan"}, "name": "a9a94756bd234729500b5a8a34f6dc00", "type": "electric_scooter"}, {"fusion_lat": 0.0, "bike_id": "321697cbb9c74345cfc841b8d79f38e0", "fusion_lon": 0.0, "lon": -77.03279783333333, "lat": 38.94091016666667, "is_reserved": 0, "is_disabled": 0, "rental_uris": {"android": "https://dc.lft.to/lastmile_qr_scan", "ios": "https://dc.lft.to/lastmile_qr_scan"}, "name": "321697cbb9c74345cfc841b8d79f38e0", "type": "electric_scooter"}, {"fusion_lat": 0.0, "bike_id": "df08b5df3fc01902586f6fa35918a51b", "fusion_lon": 0.0, "lon": -77.03239416666666, "lat": 38.902725, "is_reserved": 0, "is_disabled": 0, "rental_uris": {"android": "https://dc.lft.to/lastmile_qr_scan", "ios": "https://dc.lft.to/lastmile_qr_scan"}, "name": "df08b5df3fc01902586f6fa35918a51b", "type": "electric_scooter"}, {"fusion_lat": 0.0, "bike_id": "6479590e7db0e58fb421d31947ad16c4", "fusion_lon": 0.0, "lon": -77.0265055, "lat": 38.926063, "is_reserved": 0, "is_disabled": 0, "rental_uris": {"android": "https://dc.lft.to/lastmile_qr_scan", "ios": "https://dc.lft.to/lastmile_qr_scan"}, "name": "6479590e7db0e58fb421d31947ad16c4", "type": "electric_scooter"}, {"fusion_lat": 0.0, "bike_id": "19bc5660be5d30310da4da56b08b9943", "fusion_lon": 0.0, "lon": -76.94722133333333, "lat": 38.89739433333333, "is_reserved": 0, "is_disabled": 0, "rental_uris": {"android": "https://dc.lft.to/lastmile_qr_scan", "ios": "https://dc.lft.to/lastmile_qr_scan"}, "name": "19bc5660be5d30310da4da56b08b9943", "type": "electric_scooter"}, {"fusion_lat": 0.0, "bike_id": "56fb4a052d15854460c85a2d22f8f34a", "fusion_lon": 0.0, "lon": -77.04667766666667, "lat": 38.911103, "is_reserved": 0, "is_disabled": 0, "rental_uris": {"android": "https://dc.lft.to/lastmile_qr_scan", "ios": "https://dc.lft.to/lastmile_qr_scan"}, "name": "56fb4a052d15854460c85a2d22f8f34a", "type": "electric_scooter"}, {"fusion_lat": 0.0, "bike_id": "8112f50fa3fd1242ee2595f3170b9c79", "fusion_lon": 0.0, "lon": -76.99781666666667, "lat": 38.84426716666667, "is_reserved": 0, "is_disabled": 0, "rental_uris": {"android": "https://dc.lft.to/lastmile_qr_scan", "ios": "https://dc.lft.to/lastmile_qr_scan"}, "name": "8112f50fa3fd1242ee2595f3170b9c79", "type": "electric_scooter"}, {"fusion_lat": 0.0, "bike_id": "d403a7aab1dd192dc3051ba21e4b0e18", "fusion_lon": 0.0, "lon": -77.02170633333333, "lat": 38.94294383333333, "is_reserved": 0, "is_disabled": 0, "rental_uris": {"android": "https://dc.lft.to/lastmile_qr_scan", "ios": "https://dc.lft.to/lastmile_qr_scan"}, "name": "d403a7aab1dd192dc3051ba21e4b0e18", "type": "electric_scooter"}, {"fusion_lat": 0.0, "bike_id": "f1340d7c129ac9dbff022c985f5cfe01", "fusion_lon": 0.0, "lon": -77.04181566666666, "lat": 38.892520166666664, "is_reserved": 0, "is_disabled": 0, "rental_uris": {"android": "https://dc.lft.to/lastmile_qr_scan", "ios": "https://dc.lft.to/lastmile_qr_scan"}, "name": "f1340d7c129ac9dbff022c985f5cfe01", "type": "electric_scooter"}, {"fusion_lat": 0.0, "bike_id": "a3f706cdbc6f41b1ebb251b421fd2370", "fusion_lon": 0.0, "lon": -77.02094166666667, "lat": 38.9326605, "is_reserved": 0, "is_disabled": 0, "rental_uris": {"android": "https://dc.lft.to/lastmile_qr_scan", "ios": "https://dc.lft.to/lastmile_qr_scan"}, "name": "a3f706cdbc6f41b1ebb251b421fd2370", "type": "electric_scooter"}, {"fusion_lat": 0.0, "bike_id": "1a89cf1cddc82e9e349da0fefe59369a", "fusion_lon": 0.0, "lon": -77.02156633333334, "lat": 38.9268385, "is_reserved": 0, "is_disabled": 0, "rental_uris": {"android": "https://dc.lft.to/lastmile_qr_scan", "ios": "https://dc.lft.to/lastmile_qr_scan"}, "name": "1a89cf1cddc82e9e349da0fefe59369a", "type": "electric_scooter"}, {"fusion_lat": 0.0, "bike_id": "e900448f2b9105497832e9838b2c36da", "fusion_lon": 0.0, "lon": -77.033364, "lat": 38.90980883333334, "is_reserved": 0, "is_disabled": 0, "rental_uris": {"android": "https://dc.lft.to/lastmile_qr_scan", "ios": "https://dc.lft.to/lastmile_qr_scan"}, "name": "e900448f2b9105497832e9838b2c36da", "type": "electric_scooter"}, {"fusion_lat": 0.0, "bike_id": "e332d8760b33452dcd1fe9d3596ba815", "fusion_lon": 0.0, "lon": -77.05765633333333, "lat": 38.93387216666667, "is_reserved": 0, "is_disabled": 0, "rental_uris": {"android": "https://dc.lft.to/lastmile_qr_scan", "ios": "https://dc.lft.to/lastmile_qr_scan"}, "name": "e332d8760b33452dcd1fe9d3596ba815", "type": "electric_scooter"}, {"fusion_lat": 0.0, "bike_id": "440893dbe8a6d4f5965904e5f884cb9a", "fusion_lon": 0.0, "lon": -77.02786583333334, "lat": 38.89930183333333, "is_reserved": 0, "is_disabled": 0, "rental_uris": {"android": "https://dc.lft.to/lastmile_qr_scan", "ios": "https://dc.lft.to/lastmile_qr_scan"}, "name": "440893dbe8a6d4f5965904e5f884cb9a", "type": "electric_scooter"}, {"fusion_lat": 0.0, "bike_id": "47963779b9f167f224751999b6d75eb9", "fusion_lon": 0.0, "lon": -77.00650983333334, "lat": 38.8716375, "is_reserved": 0, "is_disabled": 0, "rental_uris": {"android": "https://dc.lft.to/lastmile_qr_scan", "ios": "https://dc.lft.to/lastmile_qr_scan"}, "name": "47963779b9f167f224751999b6d75eb9", "type": "electric_scooter"}, {"fusion_lat": 0.0, "bike_id": "ea552ea3f26aed51b6c6992411bca81e", "fusion_lon": 0.0, "lon": -77.02584416666667, "lat": 38.92036816666667, "is_reserved": 0, "is_disabled": 0, "rental_uris": {"android": "https://dc.lft.to/lastmile_qr_scan", "ios": "https://dc.lft.to/lastmile_qr_scan"}, "name": "ea552ea3f26aed51b6c6992411bca81e", "type": "electric_scooter"}, {"fusion_lat": 0.0, "bike_id": "06a6a0763a004c33a14b386d3153fd41", "fusion_lon": 0.0, "lon": -77.01991283333334, "lat": 38.91361916666666, "is_reserved": 0, "is_disabled": 0, "rental_uris": {"android": "https://dc.lft.to/lastmile_qr_scan", "ios": "https://dc.lft.to/lastmile_qr_scan"}, "name": "06a6a0763a004c33a14b386d3153fd41", "type": "electric_scooter"}, {"fusion_lat": 0.0, "bike_id": "42f2eff81c05b748573053dd49473436", "fusion_lon": 0.0, "lon": -77.02711483333333, "lat": 38.9246685, "is_reserved": 0, "is_disabled": 0, "rental_uris": {"android": "https://dc.lft.to/lastmile_qr_scan", "ios": "https://dc.lft.to/lastmile_qr_scan"}, "name": "42f2eff81c05b748573053dd49473436", "type": "electric_scooter"}, {"fusion_lat": 0.0, "bike_id": "828f213cf4fcbe8950376983cf0dc681", "fusion_lon": 0.0, "lon": -77.03220266666666, "lat": 38.892230833333336, "is_reserved": 0, "is_disabled": 0, "rental_uris": {"android": "https://dc.lft.to/lastmile_qr_scan", "ios": "https://dc.lft.to/lastmile_qr_scan"}, "name": "828f213cf4fcbe8950376983cf0dc681", "type": "electric_scooter"}, {"fusion_lat": 0.0, "bike_id": "86feee891d05a28e12048ca6a154c80a", "fusion_lon": 0.0, "lon": -77.047377, "lat": 38.897320666666666, "is_reserved": 0, "is_disabled": 0, "rental_uris": {"android": "https://dc.lft.to/lastmile_qr_scan", "ios": "https://dc.lft.to/lastmile_qr_scan"}, "name": "86feee891d05a28e12048ca6a154c80a", "type": "electric_bike"}, {"fusion_lat": 0.0, "bike_id": "25513e7cddfa8963084e78d41743beaa", "fusion_lon": 0.0, "lon": -77.02639316666667, "lat": 38.91691933333333, "is_reserved": 0, "is_disabled": 0, "rental_uris": {"android": "https://dc.lft.to/lastmile_qr_scan", "ios": "https://dc.lft.to/lastmile_qr_scan"}, "name": "25513e7cddfa8963084e78d41743beaa", "type": "electric_scooter"}, {"fusion_lat": 0.0, "bike_id": "5b886cf3ea0d9178c91903292718a1eb", "fusion_lon": 0.0, "lon": -77.0282885, "lat": 38.91414533333333, "is_reserved": 0, "is_disabled": 0, "rental_uris": {"android": "https://dc.lft.to/lastmile_qr_scan", "ios": "https://dc.lft.to/lastmile_qr_scan"}, "name": "5b886cf3ea0d9178c91903292718a1eb", "type": "electric_scooter"}, {"fusion_lat": 0.0, "bike_id": "712fe63e12019dc54732a656c041670a", "fusion_lon": 0.0, "lon": -77.02580616666667, "lat": 38.93192, "is_reserved": 0, "is_disabled": 0, "rental_uris": {"android": "https://dc.lft.to/lastmile_qr_scan", "ios": "https://dc.lft.to/lastmile_qr_scan"}, "name": "712fe63e12019dc54732a656c041670a", "type": "electric_scooter"}, {"fusion_lat": 0.0, "bike_id": "4a4c717c44efae894079b79f06106883", "fusion_lon": 0.0, "lon": -77.030779, "lat": 38.93308716666667, "is_reserved": 0, "is_disabled": 0, "rental_uris": {"android": "https://dc.lft.to/lastmile_qr_scan", "ios": "https://dc.lft.to/lastmile_qr_scan"}, "name": "4a4c717c44efae894079b79f06106883", "type": "electric_scooter"}, {"fusion_lat": 0.0, "bike_id": "6d22bc5f052de5f80ec845ec4e8e7be9", "fusion_lon": 0.0, "lon": -77.0272945, "lat": 38.93208516666667, "is_reserved": 0, "is_disabled": 0, "rental_uris": {"android": "https://dc.lft.to/lastmile_qr_scan", "ios": "https://dc.lft.to/lastmile_qr_scan"}, "name": "6d22bc5f052de5f80ec845ec4e8e7be9", "type": "electric_scooter"}, {"fusion_lat": 0.0, "bike_id": "50303d983fe1692b60399830a7181d5d", "fusion_lon": 0.0, "lon": -77.023046, "lat": 38.940909, "is_reserved": 0, "is_disabled": 0, "rental_uris": {"android": "https://dc.lft.to/lastmile_qr_scan", "ios": "https://dc.lft.to/lastmile_qr_scan"}, "name": "50303d983fe1692b60399830a7181d5d", "type": "electric_scooter"}, {"fusion_lat": 0.0, "bike_id": "fb06eea0ebba3dc1be03d173cc6b461c", "fusion_lon": 0.0, "lon": -76.97547566666667, "lat": 38.9032285, "is_reserved": 0, "is_disabled": 0, "rental_uris": {"android": "https://dc.lft.to/lastmile_qr_scan", "ios": "https://dc.lft.to/lastmile_qr_scan"}, "name": "fb06eea0ebba3dc1be03d173cc6b461c", "type": "electric_scooter"}, {"fusion_lat": 0.0, "bike_id": "5a51c2e50ef105b88548ffaea4836437", "fusion_lon": 0.0, "lon": -77.120734, "lat": 38.8541315, "is_reserved": 0, "is_disabled": 0, "rental_uris": {"android": "https://dc.lft.to/lastmile_qr_scan", "ios": "https://dc.lft.to/lastmile_qr_scan"}, "name": "5a51c2e50ef105b88548ffaea4836437", "type": "electric_bike"}, {"fusion_lat": 0.0, "bike_id": "31ace50ff37da8c664bdc8d233a36019", "fusion_lon": 0.0, "lon": -76.98353, "lat": 38.8876935, "is_reserved": 0, "is_disabled": 0, "rental_uris": {"android": "https://dc.lft.to/lastmile_qr_scan", "ios": "https://dc.lft.to/lastmile_qr_scan"}, "name": "31ace50ff37da8c664bdc8d233a36019", "type": "electric_scooter"}, {"fusion_lat": 0.0, "bike_id": "d1490da23d7f091edb8bd61b391c5638", "fusion_lon": 0.0, "lon": -77.10536366666666, "lat": 38.85512166666667, "is_reserved": 0, "is_disabled": 0, "rental_uris": {"android": "https://dc.lft.to/lastmile_qr_scan", "ios": "https://dc.lft.to/lastmile_qr_scan"}, "name": "d1490da23d7f091edb8bd61b391c5638", "type": "electric_bike"}, {"fusion_lat": 0.0, "bike_id": "c3186f4020001d1a033bf6b93572dcf1", "fusion_lon": 0.0, "lon": -77.02174766666667, "lat": 38.90022733333333, "is_reserved": 0, "is_disabled": 0, "rental_uris": {"android": "https://dc.lft.to/lastmile_qr_scan", "ios": "https://dc.lft.to/lastmile_qr_scan"}, "name": "c3186f4020001d1a033bf6b93572dcf1", "type": "electric_scooter"}, {"fusion_lat": 0.0, "bike_id": "3bddc673225dd61baba5932ab20deee1", "fusion_lon": 0.0, "lon": -77.06340316666666, "lat": 38.90681166666667, "is_reserved": 0, "is_disabled": 0, "rental_uris": {"android": "https://dc.lft.to/lastmile_qr_scan", "ios": "https://dc.lft.to/lastmile_qr_scan"}, "name": "3bddc673225dd61baba5932ab20deee1", "type": "electric_scooter"}, {"fusion_lat": 0.0, "bike_id": "e43605d48c69901f6a7eef8d3ed83884", "fusion_lon": 0.0, "lon": -77.03497833333333, "lat": 38.9375255, "is_reserved": 0, "is_disabled": 0, "rental_uris": {"android": "https://dc.lft.to/lastmile_qr_scan", "ios": "https://dc.lft.to/lastmile_qr_scan"}, "name": "e43605d48c69901f6a7eef8d3ed83884", "type": "electric_scooter"}, {"fusion_lat": 0.0, "bike_id": "b88080717dd3f1fb522a5829aefb265f", "fusion_lon": 0.0, "lon": -77.00449216666667, "lat": 38.87658, "is_reserved": 0, "is_disabled": 0, "rental_uris": {"android": "https://dc.lft.to/lastmile_qr_scan", "ios": "https://dc.lft.to/lastmile_qr_scan"}, "name": "b88080717dd3f1fb522a5829aefb265f", "type": "electric_scooter"}, {"fusion_lat": 0.0, "bike_id": "03cae5b1e5bc0fb806d144d8d42bb088", "fusion_lon": 0.0, "lon": -77.03255633333333, "lat": 38.915645166666664, "is_reserved": 0, "is_disabled": 0, "rental_uris": {"android": "https://dc.lft.to/lastmile_qr_scan", "ios": "https://dc.lft.to/lastmile_qr_scan"}, "name": "03cae5b1e5bc0fb806d144d8d42bb088", "type": "electric_scooter"}, {"fusion_lat": 0.0, "bike_id": "3d509dd19af5387cc60ab822cea2778b", "fusion_lon": 0.0, "lon": -77.0316145, "lat": 38.9205185, "is_reserved": 0, "is_disabled": 0, "rental_uris": {"android": "https://dc.lft.to/lastmile_qr_scan", "ios": "https://dc.lft.to/lastmile_qr_scan"}, "name": "3d509dd19af5387cc60ab822cea2778b", "type": "electric_scooter"}, {"fusion_lat": 0.0, "bike_id": "9db31e8d1ef8ce43f29b100764f8f516", "fusion_lon": 0.0, "lon": -77.04270433333333, "lat": 38.922483, "is_reserved": 0, "is_disabled": 0, "rental_uris": {"android": "https://dc.lft.to/lastmile_qr_scan", "ios": "https://dc.lft.to/lastmile_qr_scan"}, "name": "9db31e8d1ef8ce43f29b100764f8f516", "type": "electric_scooter"}, {"fusion_lat": 0.0, "bike_id": "e038421f1a0fb9ef5eb474b02d681b1e", "fusion_lon": 0.0, "lon": -76.9739255, "lat": 38.90557833333333, "is_reserved": 0, "is_disabled": 0, "rental_uris": {"android": "https://dc.lft.to/lastmile_qr_scan", "ios": "https://dc.lft.to/lastmile_qr_scan"}, "name": "e038421f1a0fb9ef5eb474b02d681b1e", "type": "electric_scooter"}, {"fusion_lat": 0.0, "bike_id": "424986b9f9094474f6e1f3ed5c33471c", "fusion_lon": 0.0, "lon": -77.03409166666667, "lat": 38.922384666666666, "is_reserved": 0, "is_disabled": 0, "rental_uris": {"android": "https://dc.lft.to/lastmile_qr_scan", "ios": "https://dc.lft.to/lastmile_qr_scan"}, "name": "424986b9f9094474f6e1f3ed5c33471c", "type": "electric_scooter"}, {"fusion_lat": 0.0, "bike_id": "5942fdcea374f43ee3d5c88b42cd1643", "fusion_lon": 0.0, "lon": -76.94633983333334, "lat": 38.89831916666667, "is_reserved": 0, "is_disabled": 0, "rental_uris": {"android": "https://dc.lft.to/lastmile_qr_scan", "ios": "https://dc.lft.to/lastmile_qr_scan"}, "name": "5942fdcea374f43ee3d5c88b42cd1643", "type": "electric_scooter"}, {"fusion_lat": 0.0, "bike_id": "eac8210f29356bad5e8ae039803ffe7d", "fusion_lon": 0.0, "lon": -77.02820066666666, "lat": 38.887375166666665, "is_reserved": 0, "is_disabled": 0, "rental_uris": {"android": "https://dc.lft.to/lastmile_qr_scan", "ios": "https://dc.lft.to/lastmile_qr_scan"}, "name": "eac8210f29356bad5e8ae039803ffe7d", "type": "electric_scooter"}, {"fusion_lat": 0.0, "bike_id": "ad766655773d8db9dfeb4673f0c5b32c", "fusion_lon": 0.0, "lon": -76.99036683333334, "lat": 38.89803633333333, "is_reserved": 0, "is_disabled": 0, "rental_uris": {"android": "https://dc.lft.to/lastmile_qr_scan", "ios": "https://dc.lft.to/lastmile_qr_scan"}, "name": "ad766655773d8db9dfeb4673f0c5b32c", "type": "electric_scooter"}, {"fusion_lat": 0.0, "bike_id": "5519cc5b7ad907b3aa4f8241acac8a10", "fusion_lon": 0.0, "lon": -77.02797233333334, "lat": 38.942889666666666, "is_reserved": 0, "is_disabled": 0, "rental_uris": {"android": "https://dc.lft.to/lastmile_qr_scan", "ios": "https://dc.lft.to/lastmile_qr_scan"}, "name": "5519cc5b7ad907b3aa4f8241acac8a10", "type": "electric_scooter"}, {"fusion_lat": 0.0, "bike_id": "f4de0ec1cc847b69a739ad31c1bc7f3d", "fusion_lon": 0.0, "lon": -77.03958216666666, "lat": 38.91629533333333, "is_reserved": 0, "is_disabled": 0, "rental_uris": {"android": "https://dc.lft.to/lastmile_qr_scan", "ios": "https://dc.lft.to/lastmile_qr_scan"}, "name": "f4de0ec1cc847b69a739ad31c1bc7f3d", "type": "electric_scooter"}, {"fusion_lat": 0.0, "bike_id": "3220f7f14a00967856e1319f3aea1d9b", "fusion_lon": 0.0, "lon": -77.03197383333334, "lat": 38.916759166666665, "is_reserved": 0, "is_disabled": 0, "rental_uris": {"android": "https://dc.lft.to/lastmile_qr_scan", "ios": "https://dc.lft.to/lastmile_qr_scan"}, "name": "3220f7f14a00967856e1319f3aea1d9b", "type": "electric_scooter"}, {"fusion_lat": 0.0, "bike_id": "51c8135b311956813a3e8ecf62f53a26", "fusion_lon": 0.0, "lon": -77.050388, "lat": 38.9252205, "is_reserved": 0, "is_disabled": 0, "rental_uris": {"android": "https://dc.lft.to/lastmile_qr_scan", "ios": "https://dc.lft.to/lastmile_qr_scan"}, "name": "51c8135b311956813a3e8ecf62f53a26", "type": "electric_scooter"}, {"fusion_lat": 0.0, "bike_id": "57bce7a73b8285a7f9c3ba072520be33", "fusion_lon": 0.0, "lon": -77.05179933333334, "lat": 38.9238405, "is_reserved": 0, "is_disabled": 0, "rental_uris": {"android": "https://dc.lft.to/lastmile_qr_scan", "ios": "https://dc.lft.to/lastmile_qr_scan"}, "name": "57bce7a73b8285a7f9c3ba072520be33", "type": "electric_scooter"}, {"fusion_lat": 0.0, "bike_id": "d69ea0daa13883fd7ac36e1e59f6562e", "fusion_lon": 0.0, "lon": -77.01616833333334, "lat": 38.906854333333335, "is_reserved": 0, "is_disabled": 0, "rental_uris": {"android": "https://dc.lft.to/lastmile_qr_scan", "ios": "https://dc.lft.to/lastmile_qr_scan"}, "name": "d69ea0daa13883fd7ac36e1e59f6562e", "type": "electric_scooter"}, {"fusion_lat": 0.0, "bike_id": "45832e4d272722440e4ed26f3d637d1b", "fusion_lon": 0.0, "lon": -76.98405266666667, "lat": 38.9062685, "is_reserved": 0, "is_disabled": 0, "rental_uris": {"android": "https://dc.lft.to/lastmile_qr_scan", "ios": "https://dc.lft.to/lastmile_qr_scan"}, "name": "45832e4d272722440e4ed26f3d637d1b", "type": "electric_scooter"}, {"fusion_lat": 0.0, "bike_id": "9c847a3fee0b8104d63a8d1d0ce229ef", "fusion_lon": 0.0, "lon": -77.0001005, "lat": 38.9572275, "is_reserved": 0, "is_disabled": 0, "rental_uris": {"android": "https://dc.lft.to/lastmile_qr_scan", "ios": "https://dc.lft.to/lastmile_qr_scan"}, "name": "9c847a3fee0b8104d63a8d1d0ce229ef", "type": "electric_scooter"}, {"fusion_lat": 0.0, "bike_id": "46f1ecd8018f04af337c2b6c61e46f13", "fusion_lon": 0.0, "lon": -77.00301683333333, "lat": 38.892031, "is_reserved": 0, "is_disabled": 0, "rental_uris": {"android": "https://dc.lft.to/lastmile_qr_scan", "ios": "https://dc.lft.to/lastmile_qr_scan"}, "name": "46f1ecd8018f04af337c2b6c61e46f13", "type": "electric_scooter"}, {"fusion_lat": 0.0, "bike_id": "e5c65978bb4302e8f243333e2d8121cb", "fusion_lon": 0.0, "lon": -77.03034166666667, "lat": 38.902649333333336, "is_reserved": 0, "is_disabled": 0, "rental_uris": {"android": "https://dc.lft.to/lastmile_qr_scan", "ios": "https://dc.lft.to/lastmile_qr_scan"}, "name": "e5c65978bb4302e8f243333e2d8121cb", "type": "electric_scooter"}, {"fusion_lat": 0.0, "bike_id": "803b8ec6dcabc6585dd500623abda834", "fusion_lon": 0.0, "lon": -76.98017116666666, "lat": 38.8532495, "is_reserved": 0, "is_disabled": 0, "rental_uris": {"android": "https://dc.lft.to/lastmile_qr_scan", "ios": "https://dc.lft.to/lastmile_qr_scan"}, "name": "803b8ec6dcabc6585dd500623abda834", "type": "electric_bike"}, {"fusion_lat": 0.0, "bike_id": "48fbec3f6b4f5a54a43dd3894fa65a81", "fusion_lon": 0.0, "lon": -77.03531233333334, "lat": 38.9248475, "is_reserved": 0, "is_disabled": 0, "rental_uris": {"android": "https://dc.lft.to/lastmile_qr_scan", "ios": "https://dc.lft.to/lastmile_qr_scan"}, "name": "48fbec3f6b4f5a54a43dd3894fa65a81", "type": "electric_scooter"}, {"fusion_lat": 0.0, "bike_id": "cccd2f764cd5f3610114b960cfbacd48", "fusion_lon": 0.0, "lon": -77.05743483333333, "lat": 38.933523666666666, "is_reserved": 0, "is_disabled": 0, "rental_uris": {"android": "https://dc.lft.to/lastmile_qr_scan", "ios": "https://dc.lft.to/lastmile_qr_scan"}, "name": "cccd2f764cd5f3610114b960cfbacd48", "type": "electric_scooter"}, {"fusion_lat": 0.0, "bike_id": "186b462ae48ba4c5ee215e21faf9f850", "fusion_lon": 0.0, "lon": -77.01759883333334, "lat": 38.902654166666665, "is_reserved": 0, "is_disabled": 0, "rental_uris": {"android": "https://dc.lft.to/lastmile_qr_scan", "ios": "https://dc.lft.to/lastmile_qr_scan"}, "name": "186b462ae48ba4c5ee215e21faf9f850", "type": "electric_scooter"}, {"fusion_lat": 0.0, "bike_id": "1652eb30e0948f24c4552e251fa0b12e", "fusion_lon": 0.0, "lon": -77.03209583333333, "lat": 38.91469716666667, "is_reserved": 0, "is_disabled": 0, "rental_uris": {"android": "https://dc.lft.to/lastmile_qr_scan", "ios": "https://dc.lft.to/lastmile_qr_scan"}, "name": "1652eb30e0948f24c4552e251fa0b12e", "type": "electric_scooter"}, {"fusion_lat": 0.0, "bike_id": "e1378d0741c00f553dadd1d965e68ca3", "fusion_lon": 0.0, "lon": -76.93732616666667, "lat": 38.89016083333333, "is_reserved": 0, "is_disabled": 0, "rental_uris": {"android": "https://dc.lft.to/lastmile_qr_scan", "ios": "https://dc.lft.to/lastmile_qr_scan"}, "name": "e1378d0741c00f553dadd1d965e68ca3", "type": "electric_scooter"}, {"fusion_lat": 0.0, "bike_id": "b9c51d7685483df53999dad2e63e2e5f", "fusion_lon": 0.0, "lon": -77.04641683333334, "lat": 38.89222633333333, "is_reserved": 0, "is_disabled": 0, "rental_uris": {"android": "https://dc.lft.to/lastmile_qr_scan", "ios": "https://dc.lft.to/lastmile_qr_scan"}, "name": "b9c51d7685483df53999dad2e63e2e5f", "type": "electric_scooter"}, {"fusion_lat": 0.0, "bike_id": "c9b1ac898b3e34032c6d47d1724772bb", "fusion_lon": 0.0, "lon": -77.032263, "lat": 38.897349, "is_reserved": 0, "is_disabled": 0, "rental_uris": {"android": "https://dc.lft.to/lastmile_qr_scan", "ios": "https://dc.lft.to/lastmile_qr_scan"}, "name": "c9b1ac898b3e34032c6d47d1724772bb", "type": "electric_scooter"}, {"fusion_lat": 0.0, "bike_id": "c49ccc5371622a53efc3f6b29f069faf", "fusion_lon": 0.0, "lon": -76.99064416666667, "lat": 38.89821583333333, "is_reserved": 0, "is_disabled": 0, "rental_uris": {"android": "https://dc.lft.to/lastmile_qr_scan", "ios": "https://dc.lft.to/lastmile_qr_scan"}, "name": "c49ccc5371622a53efc3f6b29f069faf", "type": "electric_bike"}, {"fusion_lat": 0.0, "bike_id": "e7647ee86079a8c8d82a2bfa9071b486", "fusion_lon": 0.0, "lon": -77.0200815, "lat": 38.92418283333333, "is_reserved": 0, "is_disabled": 0, "rental_uris": {"android": "https://dc.lft.to/lastmile_qr_scan", "ios": "https://dc.lft.to/lastmile_qr_scan"}, "name": "e7647ee86079a8c8d82a2bfa9071b486", "type": "electric_scooter"}, {"fusion_lat": 0.0, "bike_id": "2cb22bcd3233d9081066e4d2bf0e21c1", "fusion_lon": 0.0, "lon": -77.0318725, "lat": 38.917485, "is_reserved": 0, "is_disabled": 0, "rental_uris": {"android": "https://dc.lft.to/lastmile_qr_scan", "ios": "https://dc.lft.to/lastmile_qr_scan"}, "name": "2cb22bcd3233d9081066e4d2bf0e21c1", "type": "electric_scooter"}, {"fusion_lat": 0.0, "bike_id": "64e08ea9d333258563d697c66c9fe122", "fusion_lon": 0.0, "lon": -77.03519866666667, "lat": 38.923469833333336, "is_reserved": 0, "is_disabled": 0, "rental_uris": {"android": "https://dc.lft.to/lastmile_qr_scan", "ios": "https://dc.lft.to/lastmile_qr_scan"}, "name": "64e08ea9d333258563d697c66c9fe122", "type": "electric_scooter"}, {"fusion_lat": 0.0, "bike_id": "3db1c4f755be70a03fbf8031798df923", "fusion_lon": 0.0, "lon": -77.0190935, "lat": 38.9377745, "is_reserved": 0, "is_disabled": 0, "rental_uris": {"android": "https://dc.lft.to/lastmile_qr_scan", "ios": "https://dc.lft.to/lastmile_qr_scan"}, "name": "3db1c4f755be70a03fbf8031798df923", "type": "electric_bike"}, {"fusion_lat": 0.0, "bike_id": "5c074e69970aba4a68abe3eedadb4eda", "fusion_lon": 0.0, "lon": -77.00379683333334, "lat": 38.8763975, "is_reserved": 0, "is_disabled": 0, "rental_uris": {"android": "https://dc.lft.to/lastmile_qr_scan", "ios": "https://dc.lft.to/lastmile_qr_scan"}, "name": "5c074e69970aba4a68abe3eedadb4eda", "type": "electric_scooter"}, {"fusion_lat": 0.0, "bike_id": "a815110dc6ac27f2e7afaf7c3cf6e656", "fusion_lon": 0.0, "lon": -76.94880566666667, "lat": 38.895126833333336, "is_reserved": 0, "is_disabled": 0, "rental_uris": {"android": "https://dc.lft.to/lastmile_qr_scan", "ios": "https://dc.lft.to/lastmile_qr_scan"}, "name": "a815110dc6ac27f2e7afaf7c3cf6e656", "type": "electric_scooter"}, {"fusion_lat": 0.0, "bike_id": "feaaa7974df54eb797a25044859a1e3c", "fusion_lon": 0.0, "lon": -77.0274255, "lat": 38.91694733333333, "is_reserved": 0, "is_disabled": 0, "rental_uris": {"android": "https://dc.lft.to/lastmile_qr_scan", "ios": "https://dc.lft.to/lastmile_qr_scan"}, "name": "feaaa7974df54eb797a25044859a1e3c", "type": "electric_scooter"}, {"fusion_lat": 0.0, "bike_id": "a45162444472c74dd4e453f1b3234614", "fusion_lon": 0.0, "lon": -77.034501, "lat": 38.90736116666667, "is_reserved": 0, "is_disabled": 0, "rental_uris": {"android": "https://dc.lft.to/lastmile_qr_scan", "ios": "https://dc.lft.to/lastmile_qr_scan"}, "name": "a45162444472c74dd4e453f1b3234614", "type": "electric_scooter"}, {"fusion_lat": 0.0, "bike_id": "aae389608ac914e4361e9617faa1eabf", "fusion_lon": 0.0, "lon": -77.03626983333334, "lat": 38.9155515, "is_reserved": 0, "is_disabled": 0, "rental_uris": {"android": "https://dc.lft.to/lastmile_qr_scan", "ios": "https://dc.lft.to/lastmile_qr_scan"}, "name": "aae389608ac914e4361e9617faa1eabf", "type": "electric_scooter"}, {"fusion_lat": 0.0, "bike_id": "e1959f6ce395b783371fcc47d57f1af4", "fusion_lon": 0.0, "lon": -77.02003966666666, "lat": 38.91158733333333, "is_reserved": 0, "is_disabled": 0, "rental_uris": {"android": "https://dc.lft.to/lastmile_qr_scan", "ios": "https://dc.lft.to/lastmile_qr_scan"}, "name": "e1959f6ce395b783371fcc47d57f1af4", "type": "electric_scooter"}, {"fusion_lat": 0.0, "bike_id": "24009ef0a7ec60400bf1812a5946faab", "fusion_lon": 0.0, "lon": -77.06101333333334, "lat": 38.9052585, "is_reserved": 0, "is_disabled": 0, "rental_uris": {"android": "https://dc.lft.to/lastmile_qr_scan", "ios": "https://dc.lft.to/lastmile_qr_scan"}, "name": "24009ef0a7ec60400bf1812a5946faab", "type": "electric_scooter"}, {"fusion_lat": 0.0, "bike_id": "72e383ba7d9d862cd7ec65577f5f9646", "fusion_lon": 0.0, "lon": -76.93276283333333, "lat": 38.954223166666665, "is_reserved": 0, "is_disabled": 0, "rental_uris": {"android": "https://dc.lft.to/lastmile_qr_scan", "ios": "https://dc.lft.to/lastmile_qr_scan"}, "name": "72e383ba7d9d862cd7ec65577f5f9646", "type": "electric_bike"}, {"fusion_lat": 0.0, "bike_id": "dfb6b5cad71d50cfe72186c20b87f31f", "fusion_lon": 0.0, "lon": -77.0620205, "lat": 38.944517, "is_reserved": 0, "is_disabled": 0, "rental_uris": {"android": "https://dc.lft.to/lastmile_qr_scan", "ios": "https://dc.lft.to/lastmile_qr_scan"}, "name": "dfb6b5cad71d50cfe72186c20b87f31f", "type": "electric_scooter"}, {"fusion_lat": 0.0, "bike_id": "c2ae17bd374677f6fa3aa7c15d1869e9", "fusion_lon": 0.0, "lon": -77.028277, "lat": 38.92242266666667, "is_reserved": 0, "is_disabled": 0, "rental_uris": {"android": "https://dc.lft.to/lastmile_qr_scan", "ios": "https://dc.lft.to/lastmile_qr_scan"}, "name": "c2ae17bd374677f6fa3aa7c15d1869e9", "type": "electric_scooter"}, {"fusion_lat": 0.0, "bike_id": "e2e4de4153ff15d86a8e50858e4be042", "fusion_lon": 0.0, "lon": -77.00130766666666, "lat": 38.8782015, "is_reserved": 0, "is_disabled": 0, "rental_uris": {"android": "https://dc.lft.to/lastmile_qr_scan", "ios": "https://dc.lft.to/lastmile_qr_scan"}, "name": "e2e4de4153ff15d86a8e50858e4be042", "type": "electric_scooter"}, {"fusion_lat": 0.0, "bike_id": "9b75680331e1ed472ca5570aa3f93a8b", "fusion_lon": 0.0, "lon": -77.04455466666667, "lat": 38.9187755, "is_reserved": 0, "is_disabled": 0, "rental_uris": {"android": "https://dc.lft.to/lastmile_qr_scan", "ios": "https://dc.lft.to/lastmile_qr_scan"}, "name": "9b75680331e1ed472ca5570aa3f93a8b", "type": "electric_scooter"}, {"fusion_lat": 0.0, "bike_id": "3cfe59b30859fd5deb4fbc6e2b71f5ad", "fusion_lon": 0.0, "lon": -77.01663566666667, "lat": 38.8768515, "is_reserved": 0, "is_disabled": 0, "rental_uris": {"android": "https://dc.lft.to/lastmile_qr_scan", "ios": "https://dc.lft.to/lastmile_qr_scan"}, "name": "3cfe59b30859fd5deb4fbc6e2b71f5ad", "type": "electric_scooter"}, {"fusion_lat": 0.0, "bike_id": "b6fdf78721588f4f0d500431fbc033a0", "fusion_lon": 0.0, "lon": -77.01967333333333, "lat": 38.902671, "is_reserved": 0, "is_disabled": 0, "rental_uris": {"android": "https://dc.lft.to/lastmile_qr_scan", "ios": "https://dc.lft.to/lastmile_qr_scan"}, "name": "b6fdf78721588f4f0d500431fbc033a0", "type": "electric_scooter"}, {"fusion_lat": 0.0, "bike_id": "f6b0cc04548821920517cfae07b1f78e", "fusion_lon": 0.0, "lon": -77.03546633333333, "lat": 38.9037165, "is_reserved": 0, "is_disabled": 0, "rental_uris": {"android": "https://dc.lft.to/lastmile_qr_scan", "ios": "https://dc.lft.to/lastmile_qr_scan"}, "name": "f6b0cc04548821920517cfae07b1f78e", "type": "electric_scooter"}, {"fusion_lat": 0.0, "bike_id": "e2a0639585da3d129530f1ca2a5d9d82", "fusion_lon": 0.0, "lon": -76.94619483333334, "lat": 38.83233466666667, "is_reserved": 0, "is_disabled": 0, "rental_uris": {"android": "https://dc.lft.to/lastmile_qr_scan", "ios": "https://dc.lft.to/lastmile_qr_scan"}, "name": "e2a0639585da3d129530f1ca2a5d9d82", "type": "electric_bike"}, {"fusion_lat": 0.0, "bike_id": "75b0e17db647d49509bcf04519e3df37", "fusion_lon": 0.0, "lon": -77.02934366666666, "lat": 38.89647716666666, "is_reserved": 0, "is_disabled": 0, "rental_uris": {"android": "https://dc.lft.to/lastmile_qr_scan", "ios": "https://dc.lft.to/lastmile_qr_scan"}, "name": "75b0e17db647d49509bcf04519e3df37", "type": "electric_scooter"}, {"fusion_lat": 0.0, "bike_id": "73a47647e2c0ceca57baad061d0afaf8", "fusion_lon": 0.0, "lon": -77.025281, "lat": 38.918185666666666, "is_reserved": 0, "is_disabled": 0, "rental_uris": {"android": "https://dc.lft.to/lastmile_qr_scan", "ios": "https://dc.lft.to/lastmile_qr_scan"}, "name": "73a47647e2c0ceca57baad061d0afaf8", "type": "electric_scooter"}, {"fusion_lat": 0.0, "bike_id": "0339904cb34e95d2ffd51c6f78f78d6c", "fusion_lon": 0.0, "lon": -77.051716, "lat": 38.90325566666667, "is_reserved": 0, "is_disabled": 0, "rental_uris": {"android": "https://dc.lft.to/lastmile_qr_scan", "ios": "https://dc.lft.to/lastmile_qr_scan"}, "name": "0339904cb34e95d2ffd51c6f78f78d6c", "type": "electric_scooter"}, {"fusion_lat": 0.0, "bike_id": "e3986826f4301ab82d96d29f82bd72c5", "fusion_lon": 0.0, "lon": -77.01783666666667, "lat": 38.88596166666667, "is_reserved": 0, "is_disabled": 0, "rental_uris": {"android": "https://dc.lft.to/lastmile_qr_scan", "ios": "https://dc.lft.to/lastmile_qr_scan"}, "name": "e3986826f4301ab82d96d29f82bd72c5", "type": "electric_scooter"}, {"fusion_lat": 0.0, "bike_id": "81dddd8beaede9fcbf95061806b6a795", "fusion_lon": 0.0, "lon": -77.02842316666667, "lat": 38.88744533333333, "is_reserved": 0, "is_disabled": 0, "rental_uris": {"android": "https://dc.lft.to/lastmile_qr_scan", "ios": "https://dc.lft.to/lastmile_qr_scan"}, "name": "81dddd8beaede9fcbf95061806b6a795", "type": "electric_scooter"}, {"fusion_lat": 0.0, "bike_id": "385f8c308f990a50ce7c28c4811d37ef", "fusion_lon": 0.0, "lon": -77.02200683333334, "lat": 38.922374833333336, "is_reserved": 0, "is_disabled": 0, "rental_uris": {"android": "https://dc.lft.to/lastmile_qr_scan", "ios": "https://dc.lft.to/lastmile_qr_scan"}, "name": "385f8c308f990a50ce7c28c4811d37ef", "type": "electric_scooter"}, {"fusion_lat": 0.0, "bike_id": "5417d3b91b9256b5b4aabf562af410c7", "fusion_lon": 0.0, "lon": -76.98249816666667, "lat": 38.9047255, "is_reserved": 0, "is_disabled": 0, "rental_uris": {"android": "https://dc.lft.to/lastmile_qr_scan", "ios": "https://dc.lft.to/lastmile_qr_scan"}, "name": "5417d3b91b9256b5b4aabf562af410c7", "type": "electric_scooter"}, {"fusion_lat": 0.0, "bike_id": "bc203240cdd0b2db2b9a5f93baa11050", "fusion_lon": 0.0, "lon": -77.120381, "lat": 38.854988, "is_reserved": 0, "is_disabled": 0, "rental_uris": {"android": "https://dc.lft.to/lastmile_qr_scan", "ios": "https://dc.lft.to/lastmile_qr_scan"}, "name": "bc203240cdd0b2db2b9a5f93baa11050", "type": "electric_bike"}, {"fusion_lat": 0.0, "bike_id": "868eb51fda52bdadab07265b790e30d1", "fusion_lon": 0.0, "lon": -77.00332966666667, "lat": 38.89369133333334, "is_reserved": 0, "is_disabled": 0, "rental_uris": {"android": "https://dc.lft.to/lastmile_qr_scan", "ios": "https://dc.lft.to/lastmile_qr_scan"}, "name": "868eb51fda52bdadab07265b790e30d1", "type": "electric_scooter"}, {"fusion_lat": 0.0, "bike_id": "0e31497e81cd7b7b574156259c1c5b2d", "fusion_lon": 0.0, "lon": -77.0418305, "lat": 38.89253733333334, "is_reserved": 0, "is_disabled": 0, "rental_uris": {"android": "https://dc.lft.to/lastmile_qr_scan", "ios": "https://dc.lft.to/lastmile_qr_scan"}, "name": "0e31497e81cd7b7b574156259c1c5b2d", "type": "electric_scooter"}, {"fusion_lat": 0.0, "bike_id": "52ba82b0c30ababe90751d69955901e6", "fusion_lon": 0.0, "lon": -77.038478, "lat": 38.92165283333333, "is_reserved": 0, "is_disabled": 0, "rental_uris": {"android": "https://dc.lft.to/lastmile_qr_scan", "ios": "https://dc.lft.to/lastmile_qr_scan"}, "name": "52ba82b0c30ababe90751d69955901e6", "type": "electric_scooter"}, {"fusion_lat": 0.0, "bike_id": "99eaba9e0f91b14cbff1427581a8b10a", "fusion_lon": 0.0, "lon": -77.03550116666666, "lat": 38.92415783333333, "is_reserved": 0, "is_disabled": 0, "rental_uris": {"android": "https://dc.lft.to/lastmile_qr_scan", "ios": "https://dc.lft.to/lastmile_qr_scan"}, "name": "99eaba9e0f91b14cbff1427581a8b10a", "type": "electric_scooter"}, {"fusion_lat": 0.0, "bike_id": "5746d57d1a535a59e4ba2d91f836656c", "fusion_lon": 0.0, "lon": -77.07604566666667, "lat": 38.9205635, "is_reserved": 0, "is_disabled": 0, "rental_uris": {"android": "https://dc.lft.to/lastmile_qr_scan", "ios": "https://dc.lft.to/lastmile_qr_scan"}, "name": "5746d57d1a535a59e4ba2d91f836656c", "type": "electric_scooter"}, {"fusion_lat": 0.0, "bike_id": "0cb483e80e1472bd39b3a1470f9707d9", "fusion_lon": 0.0, "lon": -76.98496516666667, "lat": 38.87839183333333, "is_reserved": 0, "is_disabled": 0, "rental_uris": {"android": "https://dc.lft.to/lastmile_qr_scan", "ios": "https://dc.lft.to/lastmile_qr_scan"}, "name": "0cb483e80e1472bd39b3a1470f9707d9", "type": "electric_scooter"}, {"fusion_lat": 0.0, "bike_id": "00b58f02dce3762936b5bbfd73652e4c", "fusion_lon": 0.0, "lon": -77.035514, "lat": 38.924763, "is_reserved": 0, "is_disabled": 0, "rental_uris": {"android": "https://dc.lft.to/lastmile_qr_scan", "ios": "https://dc.lft.to/lastmile_qr_scan"}, "name": "00b58f02dce3762936b5bbfd73652e4c", "type": "electric_scooter"}, {"fusion_lat": 0.0, "bike_id": "eb9f2cbff0ba41c352bb4b6c0e195707", "fusion_lon": 0.0, "lon": -77.04800166666666, "lat": 38.90206033333333, "is_reserved": 0, "is_disabled": 0, "rental_uris": {"android": "https://dc.lft.to/lastmile_qr_scan", "ios": "https://dc.lft.to/lastmile_qr_scan"}, "name": "eb9f2cbff0ba41c352bb4b6c0e195707", "type": "electric_scooter"}, {"fusion_lat": 0.0, "bike_id": "bed9d251638de465b11ce8355b1da453", "fusion_lon": 0.0, "lon": -77.0392105, "lat": 38.9184105, "is_reserved": 0, "is_disabled": 0, "rental_uris": {"android": "https://dc.lft.to/lastmile_qr_scan", "ios": "https://dc.lft.to/lastmile_qr_scan"}, "name": "bed9d251638de465b11ce8355b1da453", "type": "electric_scooter"}, {"fusion_lat": 0.0, "bike_id": "dbde4110a28236f28c43792cd1eafdee", "fusion_lon": 0.0, "lon": -77.00598666666667, "lat": 38.87186716666667, "is_reserved": 0, "is_disabled": 0, "rental_uris": {"android": "https://dc.lft.to/lastmile_qr_scan", "ios": "https://dc.lft.to/lastmile_qr_scan"}, "name": "dbde4110a28236f28c43792cd1eafdee", "type": "electric_scooter"}, {"fusion_lat": 0.0, "bike_id": "5349665bcd9d58e8b3c79935238d8224", "fusion_lon": 0.0, "lon": -77.02250983333333, "lat": 38.924676833333336, "is_reserved": 0, "is_disabled": 0, "rental_uris": {"android": "https://dc.lft.to/lastmile_qr_scan", "ios": "https://dc.lft.to/lastmile_qr_scan"}, "name": "5349665bcd9d58e8b3c79935238d8224", "type": "electric_scooter"}, {"fusion_lat": 0.0, "bike_id": "0cce283750edce0da7c502d11e89fedc", "fusion_lon": 0.0, "lon": -77.045012, "lat": 38.892261, "is_reserved": 0, "is_disabled": 0, "rental_uris": {"android": "https://dc.lft.to/lastmile_qr_scan", "ios": "https://dc.lft.to/lastmile_qr_scan"}, "name": "0cce283750edce0da7c502d11e89fedc", "type": "electric_scooter"}, {"fusion_lat": 0.0, "bike_id": "8720511f2c3ed6ab1bd6c52df22d8e3c", "fusion_lon": 0.0, "lon": -77.02359616666666, "lat": 38.8921995, "is_reserved": 0, "is_disabled": 0, "rental_uris": {"android": "https://dc.lft.to/lastmile_qr_scan", "ios": "https://dc.lft.to/lastmile_qr_scan"}, "name": "8720511f2c3ed6ab1bd6c52df22d8e3c", "type": "electric_scooter"}, {"fusion_lat": 0.0, "bike_id": "11704c1ce82ae7acd829c22f850e6ea8", "fusion_lon": 0.0, "lon": -77.044873, "lat": 38.9135935, "is_reserved": 0, "is_disabled": 0, "rental_uris": {"android": "https://dc.lft.to/lastmile_qr_scan", "ios": "https://dc.lft.to/lastmile_qr_scan"}, "name": "11704c1ce82ae7acd829c22f850e6ea8", "type": "electric_scooter"}, {"fusion_lat": 0.0, "bike_id": "b5cec4931e7c966bb60fb3595b0c8728", "fusion_lon": 0.0, "lon": -76.9906175, "lat": 38.86376716666667, "is_reserved": 0, "is_disabled": 0, "rental_uris": {"android": "https://dc.lft.to/lastmile_qr_scan", "ios": "https://dc.lft.to/lastmile_qr_scan"}, "name": "b5cec4931e7c966bb60fb3595b0c8728", "type": "electric_scooter"}, {"fusion_lat": 0.0, "bike_id": "9967a0eea9d22811dfd177a9df1b54c7", "fusion_lon": 0.0, "lon": -77.03519633333333, "lat": 38.90373866666667, "is_reserved": 0, "is_disabled": 0, "rental_uris": {"android": "https://dc.lft.to/lastmile_qr_scan", "ios": "https://dc.lft.to/lastmile_qr_scan"}, "name": "9967a0eea9d22811dfd177a9df1b54c7", "type": "electric_scooter"}, {"fusion_lat": 0.0, "bike_id": "6b9fd9a25660bd7ed882d023d70e361a", "fusion_lon": 0.0, "lon": -77.05906083333333, "lat": 38.90164733333334, "is_reserved": 0, "is_disabled": 0, "rental_uris": {"android": "https://dc.lft.to/lastmile_qr_scan", "ios": "https://dc.lft.to/lastmile_qr_scan"}, "name": "6b9fd9a25660bd7ed882d023d70e361a", "type": "electric_scooter"}, {"fusion_lat": 0.0, "bike_id": "0cf8334b3b46be19b2a1b2658f111b7a", "fusion_lon": 0.0, "lon": -76.96090316666667, "lat": 38.91859983333333, "is_reserved": 0, "is_disabled": 0, "rental_uris": {"android": "https://dc.lft.to/lastmile_qr_scan", "ios": "https://dc.lft.to/lastmile_qr_scan"}, "name": "0cf8334b3b46be19b2a1b2658f111b7a", "type": "electric_scooter"}, {"fusion_lat": 0.0, "bike_id": "415d45f5cd089eb104e642db0e15f099", "fusion_lon": 0.0, "lon": -77.03202216666666, "lat": 38.90948216666666, "is_reserved": 0, "is_disabled": 0, "rental_uris": {"android": "https://dc.lft.to/lastmile_qr_scan", "ios": "https://dc.lft.to/lastmile_qr_scan"}, "name": "415d45f5cd089eb104e642db0e15f099", "type": "electric_scooter"}, {"fusion_lat": 0.0, "bike_id": "b39209febe7dbbc04a8c8e61dd26bd9b", "fusion_lon": 0.0, "lon": -77.0177515, "lat": 38.9038655, "is_reserved": 0, "is_disabled": 0, "rental_uris": {"android": "https://dc.lft.to/lastmile_qr_scan", "ios": "https://dc.lft.to/lastmile_qr_scan"}, "name": "b39209febe7dbbc04a8c8e61dd26bd9b", "type": "electric_scooter"}, {"fusion_lat": 0.0, "bike_id": "4985f1c8ec83f0a03e5e545fd94ffdb7", "fusion_lon": 0.0, "lon": -76.9898045, "lat": 38.859189, "is_reserved": 0, "is_disabled": 0, "rental_uris": {"android": "https://dc.lft.to/lastmile_qr_scan", "ios": "https://dc.lft.to/lastmile_qr_scan"}, "name": "4985f1c8ec83f0a03e5e545fd94ffdb7", "type": "electric_scooter"}, {"fusion_lat": 0.0, "bike_id": "8585af01432ce1658e7fa8df8d2c3455", "fusion_lon": 0.0, "lon": -76.9853055, "lat": 38.8668685, "is_reserved": 0, "is_disabled": 0, "rental_uris": {"android": "https://dc.lft.to/lastmile_qr_scan", "ios": "https://dc.lft.to/lastmile_qr_scan"}, "name": "8585af01432ce1658e7fa8df8d2c3455", "type": "electric_scooter"}, {"fusion_lat": 0.0, "bike_id": "8fcd5006f646c2a3b0b3960b0917287b", "fusion_lon": 0.0, "lon": -77.04872983333334, "lat": 38.90448, "is_reserved": 0, "is_disabled": 0, "rental_uris": {"android": "https://dc.lft.to/lastmile_qr_scan", "ios": "https://dc.lft.to/lastmile_qr_scan"}, "name": "8fcd5006f646c2a3b0b3960b0917287b", "type": "electric_scooter"}, {"fusion_lat": 0.0, "bike_id": "558e43c2965d92f8ead5a036828e546c", "fusion_lon": 0.0, "lon": -77.04534366666667, "lat": 38.900687166666664, "is_reserved": 0, "is_disabled": 0, "rental_uris": {"android": "https://dc.lft.to/lastmile_qr_scan", "ios": "https://dc.lft.to/lastmile_qr_scan"}, "name": "558e43c2965d92f8ead5a036828e546c", "type": "electric_scooter"}, {"fusion_lat": 0.0, "bike_id": "8f01c06f8f3acbc0ee716bdd572c61ae", "fusion_lon": 0.0, "lon": -77.02395866666667, "lat": 38.88136, "is_reserved": 0, "is_disabled": 0, "rental_uris": {"android": "https://dc.lft.to/lastmile_qr_scan", "ios": "https://dc.lft.to/lastmile_qr_scan"}, "name": "8f01c06f8f3acbc0ee716bdd572c61ae", "type": "electric_scooter"}, {"fusion_lat": 0.0, "bike_id": "48c8cf8a17befc87bea49af6252c48d2", "fusion_lon": 0.0, "lon": -77.0415255, "lat": 38.91913916666667, "is_reserved": 0, "is_disabled": 0, "rental_uris": {"android": "https://dc.lft.to/lastmile_qr_scan", "ios": "https://dc.lft.to/lastmile_qr_scan"}, "name": "48c8cf8a17befc87bea49af6252c48d2", "type": "electric_scooter"}, {"fusion_lat": 0.0, "bike_id": "2e8f63a46ac0ca2c1e5695a82a7142a5", "fusion_lon": 0.0, "lon": -77.0432495, "lat": 38.90043516666667, "is_reserved": 0, "is_disabled": 0, "rental_uris": {"android": "https://dc.lft.to/lastmile_qr_scan", "ios": "https://dc.lft.to/lastmile_qr_scan"}, "name": "2e8f63a46ac0ca2c1e5695a82a7142a5", "type": "electric_scooter"}, {"fusion_lat": 0.0, "bike_id": "ccac8353044599312913b870eb011444", "fusion_lon": 0.0, "lon": -77.02315866666666, "lat": 38.9278905, "is_reserved": 0, "is_disabled": 0, "rental_uris": {"android": "https://dc.lft.to/lastmile_qr_scan", "ios": "https://dc.lft.to/lastmile_qr_scan"}, "name": "ccac8353044599312913b870eb011444", "type": "electric_scooter"}, {"fusion_lat": 0.0, "bike_id": "281541769f8c2900c0af37c14ba1c377", "fusion_lon": 0.0, "lon": -77.0369175, "lat": 38.91824533333333, "is_reserved": 0, "is_disabled": 0, "rental_uris": {"android": "https://dc.lft.to/lastmile_qr_scan", "ios": "https://dc.lft.to/lastmile_qr_scan"}, "name": "281541769f8c2900c0af37c14ba1c377", "type": "electric_scooter"}, {"fusion_lat": 0.0, "bike_id": "ec101ec268624353ae2670f807cee0d8", "fusion_lon": 0.0, "lon": -77.03987266666667, "lat": 38.93334816666667, "is_reserved": 0, "is_disabled": 0, "rental_uris": {"android": "https://dc.lft.to/lastmile_qr_scan", "ios": "https://dc.lft.to/lastmile_qr_scan"}, "name": "ec101ec268624353ae2670f807cee0d8", "type": "electric_scooter"}, {"fusion_lat": 0.0, "bike_id": "47315aacbef0444bbcf8acd43de8244b", "fusion_lon": 0.0, "lon": -77.06331416666667, "lat": 38.9210885, "is_reserved": 0, "is_disabled": 0, "rental_uris": {"android": "https://dc.lft.to/lastmile_qr_scan", "ios": "https://dc.lft.to/lastmile_qr_scan"}, "name": "47315aacbef0444bbcf8acd43de8244b", "type": "electric_scooter"}, {"fusion_lat": 0.0, "bike_id": "96bfe04b3bb1e0028d9e355ac90c0416", "fusion_lon": 0.0, "lon": -76.97324766666667, "lat": 38.90480383333333, "is_reserved": 0, "is_disabled": 0, "rental_uris": {"android": "https://dc.lft.to/lastmile_qr_scan", "ios": "https://dc.lft.to/lastmile_qr_scan"}, "name": "96bfe04b3bb1e0028d9e355ac90c0416", "type": "electric_bike"}, {"fusion_lat": 0.0, "bike_id": "fd8d0b1b102d6e87267108557ee99a63", "fusion_lon": 0.0, "lon": -77.02564866666667, "lat": 38.882937166666665, "is_reserved": 0, "is_disabled": 0, "rental_uris": {"android": "https://dc.lft.to/lastmile_qr_scan", "ios": "https://dc.lft.to/lastmile_qr_scan"}, "name": "fd8d0b1b102d6e87267108557ee99a63", "type": "electric_scooter"}, {"fusion_lat": 0.0, "bike_id": "4766eaf65ca5299461f0cffbc22eacfb", "fusion_lon": 0.0, "lon": -77.05010266666666, "lat": 38.905134333333336, "is_reserved": 0, "is_disabled": 0, "rental_uris": {"android": "https://dc.lft.to/lastmile_qr_scan", "ios": "https://dc.lft.to/lastmile_qr_scan"}, "name": "4766eaf65ca5299461f0cffbc22eacfb", "type": "electric_scooter"}, {"fusion_lat": 0.0, "bike_id": "3fe6624a3cae442855eb2a0dc16ec0e1", "fusion_lon": 0.0, "lon": -76.99792833333333, "lat": 38.956425833333334, "is_reserved": 0, "is_disabled": 0, "rental_uris": {"android": "https://dc.lft.to/lastmile_qr_scan", "ios": "https://dc.lft.to/lastmile_qr_scan"}, "name": "3fe6624a3cae442855eb2a0dc16ec0e1", "type": "electric_bike"}, {"fusion_lat": 0.0, "bike_id": "6e48ac6f31e522345e9faecfc985ab22", "fusion_lon": 0.0, "lon": -77.0450395, "lat": 38.9038375, "is_reserved": 0, "is_disabled": 0, "rental_uris": {"android": "https://dc.lft.to/lastmile_qr_scan", "ios": "https://dc.lft.to/lastmile_qr_scan"}, "name": "6e48ac6f31e522345e9faecfc985ab22", "type": "electric_scooter"}, {"fusion_lat": 0.0, "bike_id": "2b92d81b0b72be15a30d02f2e0d79d4b", "fusion_lon": 0.0, "lon": -77.03276266666667, "lat": 38.90160266666667, "is_reserved": 0, "is_disabled": 0, "rental_uris": {"android": "https://dc.lft.to/lastmile_qr_scan", "ios": "https://dc.lft.to/lastmile_qr_scan"}, "name": "2b92d81b0b72be15a30d02f2e0d79d4b", "type": "electric_scooter"}, {"fusion_lat": 0.0, "bike_id": "9ad1e17c14750569fa6a0d3d57eca030", "fusion_lon": 0.0, "lon": -76.95238966666666, "lat": 38.89097116666667, "is_reserved": 0, "is_disabled": 0, "rental_uris": {"android": "https://dc.lft.to/lastmile_qr_scan", "ios": "https://dc.lft.to/lastmile_qr_scan"}, "name": "9ad1e17c14750569fa6a0d3d57eca030", "type": "electric_scooter"}, {"fusion_lat": 0.0, "bike_id": "bc03a14c6ca824230f6748043395cfdd", "fusion_lon": 0.0, "lon": -77.04152216666667, "lat": 38.914880833333335, "is_reserved": 0, "is_disabled": 0, "rental_uris": {"android": "https://dc.lft.to/lastmile_qr_scan", "ios": "https://dc.lft.to/lastmile_qr_scan"}, "name": "bc03a14c6ca824230f6748043395cfdd", "type": "electric_scooter"}, {"fusion_lat": 0.0, "bike_id": "57dbb12e4318a6d1d2cac37154f48b38", "fusion_lon": 0.0, "lon": -77.0052615, "lat": 38.88053716666667, "is_reserved": 0, "is_disabled": 0, "rental_uris": {"android": "https://dc.lft.to/lastmile_qr_scan", "ios": "https://dc.lft.to/lastmile_qr_scan"}, "name": "57dbb12e4318a6d1d2cac37154f48b38", "type": "electric_scooter"}, {"fusion_lat": 0.0, "bike_id": "424ed46ea9602dc5383440e1299fcf68", "fusion_lon": 0.0, "lon": -76.99246, "lat": 38.894862333333336, "is_reserved": 0, "is_disabled": 0, "rental_uris": {"android": "https://dc.lft.to/lastmile_qr_scan", "ios": "https://dc.lft.to/lastmile_qr_scan"}, "name": "424ed46ea9602dc5383440e1299fcf68", "type": "electric_scooter"}, {"fusion_lat": 0.0, "bike_id": "6e21a80924bbcfd4d71c82e67525addd", "fusion_lon": 0.0, "lon": -76.97742316666667, "lat": 38.86506266666667, "is_reserved": 0, "is_disabled": 0, "rental_uris": {"android": "https://dc.lft.to/lastmile_qr_scan", "ios": "https://dc.lft.to/lastmile_qr_scan"}, "name": "6e21a80924bbcfd4d71c82e67525addd", "type": "electric_bike"}, {"fusion_lat": 0.0, "bike_id": "a06d91eaa0024b44728fcb59499e7d9b", "fusion_lon": 0.0, "lon": -77.06057083333333, "lat": 38.80578033333333, "is_reserved": 0, "is_disabled": 0, "rental_uris": {"android": "https://dc.lft.to/lastmile_qr_scan", "ios": "https://dc.lft.to/lastmile_qr_scan"}, "name": "a06d91eaa0024b44728fcb59499e7d9b", "type": "electric_bike"}, {"fusion_lat": 0.0, "bike_id": "eeb45a9c5dba4bab75c7e6f2f47293fd", "fusion_lon": 0.0, "lon": -77.03690383333333, "lat": 38.91823, "is_reserved": 0, "is_disabled": 0, "rental_uris": {"android": "https://dc.lft.to/lastmile_qr_scan", "ios": "https://dc.lft.to/lastmile_qr_scan"}, "name": "eeb45a9c5dba4bab75c7e6f2f47293fd", "type": "electric_scooter"}, {"fusion_lat": 0.0, "bike_id": "494cb75dbd2b7f0f8c81c31b567384c4", "fusion_lon": 0.0, "lon": -76.997804, "lat": 38.8443025, "is_reserved": 0, "is_disabled": 0, "rental_uris": {"android": "https://dc.lft.to/lastmile_qr_scan", "ios": "https://dc.lft.to/lastmile_qr_scan"}, "name": "494cb75dbd2b7f0f8c81c31b567384c4", "type": "electric_scooter"}, {"fusion_lat": 0.0, "bike_id": "3bccfd90e8f2855438a2e75d0c08154c", "fusion_lon": 0.0, "lon": -77.0392435, "lat": 38.927961, "is_reserved": 0, "is_disabled": 0, "rental_uris": {"android": "https://dc.lft.to/lastmile_qr_scan", "ios": "https://dc.lft.to/lastmile_qr_scan"}, "name": "3bccfd90e8f2855438a2e75d0c08154c", "type": "electric_scooter"}, {"fusion_lat": 0.0, "bike_id": "eea119ba23b6aa26d92a702c3f631f81", "fusion_lon": 0.0, "lon": -77.06942733333334, "lat": 38.95569033333334, "is_reserved": 0, "is_disabled": 0, "rental_uris": {"android": "https://dc.lft.to/lastmile_qr_scan", "ios": "https://dc.lft.to/lastmile_qr_scan"}, "name": "eea119ba23b6aa26d92a702c3f631f81", "type": "electric_bike"}, {"fusion_lat": 0.0, "bike_id": "b60b337eb0f56136d33730eb1187e88e", "fusion_lon": 0.0, "lon": -76.99509083333334, "lat": 38.933741, "is_reserved": 0, "is_disabled": 0, "rental_uris": {"android": "https://dc.lft.to/lastmile_qr_scan", "ios": "https://dc.lft.to/lastmile_qr_scan"}, "name": "b60b337eb0f56136d33730eb1187e88e", "type": "electric_scooter"}, {"fusion_lat": 0.0, "bike_id": "e99132de6e67609477872abb987708c1", "fusion_lon": 0.0, "lon": -77.04126933333333, "lat": 38.91059716666667, "is_reserved": 0, "is_disabled": 0, "rental_uris": {"android": "https://dc.lft.to/lastmile_qr_scan", "ios": "https://dc.lft.to/lastmile_qr_scan"}, "name": "e99132de6e67609477872abb987708c1", "type": "electric_scooter"}, {"fusion_lat": 0.0, "bike_id": "ff8be1a6ba5d93325cf110feca25ab17", "fusion_lon": 0.0, "lon": -77.08808583333334, "lat": 38.9117645, "is_reserved": 0, "is_disabled": 0, "rental_uris": {"android": "https://dc.lft.to/lastmile_qr_scan", "ios": "https://dc.lft.to/lastmile_qr_scan"}, "name": "ff8be1a6ba5d93325cf110feca25ab17", "type": "electric_bike"}, {"fusion_lat": 0.0, "bike_id": "a1ce4073f2c0b25751203c7bf2e6c6b1", "fusion_lon": 0.0, "lon": -76.9761665, "lat": 38.9265325, "is_reserved": 0, "is_disabled": 0, "rental_uris": {"android": "https://dc.lft.to/lastmile_qr_scan", "ios": "https://dc.lft.to/lastmile_qr_scan"}, "name": "a1ce4073f2c0b25751203c7bf2e6c6b1", "type": "electric_scooter"}, {"fusion_lat": 0.0, "bike_id": "24f02b9f5fbd98796f1f64fafbfa2ad4", "fusion_lon": 0.0, "lon": -77.01820883333333, "lat": 38.922696333333334, "is_reserved": 0, "is_disabled": 0, "rental_uris": {"android": "https://dc.lft.to/lastmile_qr_scan", "ios": "https://dc.lft.to/lastmile_qr_scan"}, "name": "24f02b9f5fbd98796f1f64fafbfa2ad4", "type": "electric_scooter"}, {"fusion_lat": 0.0, "bike_id": "538ea9e559291a0383c3aa38ff2228ac", "fusion_lon": 0.0, "lon": -77.02234483333334, "lat": 38.89221666666667, "is_reserved": 0, "is_disabled": 0, "rental_uris": {"android": "https://dc.lft.to/lastmile_qr_scan", "ios": "https://dc.lft.to/lastmile_qr_scan"}, "name": "538ea9e559291a0383c3aa38ff2228ac", "type": "electric_scooter"}, {"fusion_lat": 0.0, "bike_id": "3b5628d2497ac8679db05860e9ac0a15", "fusion_lon": 0.0, "lon": -76.99946683333333, "lat": 38.906232833333334, "is_reserved": 0, "is_disabled": 0, "rental_uris": {"android": "https://dc.lft.to/lastmile_qr_scan", "ios": "https://dc.lft.to/lastmile_qr_scan"}, "name": "3b5628d2497ac8679db05860e9ac0a15", "type": "electric_scooter"}, {"fusion_lat": 0.0, "bike_id": "c801f88cf45e7e898a53688b5721238a", "fusion_lon": 0.0, "lon": -76.99385916666667, "lat": 38.892004666666665, "is_reserved": 0, "is_disabled": 0, "rental_uris": {"android": "https://dc.lft.to/lastmile_qr_scan", "ios": "https://dc.lft.to/lastmile_qr_scan"}, "name": "c801f88cf45e7e898a53688b5721238a", "type": "electric_scooter"}, {"fusion_lat": 0.0, "bike_id": "c0f8b1aec8c2e52a34b8676d232e2149", "fusion_lon": 0.0, "lon": -77.0403855, "lat": 38.90603216666667, "is_reserved": 0, "is_disabled": 0, "rental_uris": {"android": "https://dc.lft.to/lastmile_qr_scan", "ios": "https://dc.lft.to/lastmile_qr_scan"}, "name": "c0f8b1aec8c2e52a34b8676d232e2149", "type": "electric_scooter"}, {"fusion_lat": 0.0, "bike_id": "7b0d14c3c955d94d9c9bd214746ef450", "fusion_lon": 0.0, "lon": -77.04659066666666, "lat": 38.89784516666667, "is_reserved": 0, "is_disabled": 0, "rental_uris": {"android": "https://dc.lft.to/lastmile_qr_scan", "ios": "https://dc.lft.to/lastmile_qr_scan"}, "name": "7b0d14c3c955d94d9c9bd214746ef450", "type": "electric_scooter"}, {"fusion_lat": 0.0, "bike_id": "3c36b522474c6dd1f2d5de92a76e8920", "fusion_lon": 0.0, "lon": -77.03110233333334, "lat": 38.887558166666665, "is_reserved": 0, "is_disabled": 0, "rental_uris": {"android": "https://dc.lft.to/lastmile_qr_scan", "ios": "https://dc.lft.to/lastmile_qr_scan"}, "name": "3c36b522474c6dd1f2d5de92a76e8920", "type": "electric_scooter"}, {"fusion_lat": 0.0, "bike_id": "fd967de64115badfa3f2d8066c6d3800", "fusion_lon": 0.0, "lon": -77.004478, "lat": 38.87659983333333, "is_reserved": 0, "is_disabled": 0, "rental_uris": {"android": "https://dc.lft.to/lastmile_qr_scan", "ios": "https://dc.lft.to/lastmile_qr_scan"}, "name": "fd967de64115badfa3f2d8066c6d3800", "type": "electric_scooter"}, {"fusion_lat": 0.0, "bike_id": "e26dee5f21ed7899898d59262c206625", "fusion_lon": 0.0, "lon": -77.00898516666666, "lat": 38.89915283333333, "is_reserved": 0, "is_disabled": 0, "rental_uris": {"android": "https://dc.lft.to/lastmile_qr_scan", "ios": "https://dc.lft.to/lastmile_qr_scan"}, "name": "e26dee5f21ed7899898d59262c206625", "type": "electric_scooter"}, {"fusion_lat": 0.0, "bike_id": "3bdc6a91f6ec8c282b5b4518714fc519", "fusion_lon": 0.0, "lon": -77.01231166666666, "lat": 38.892920333333336, "is_reserved": 0, "is_disabled": 0, "rental_uris": {"android": "https://dc.lft.to/lastmile_qr_scan", "ios": "https://dc.lft.to/lastmile_qr_scan"}, "name": "3bdc6a91f6ec8c282b5b4518714fc519", "type": "electric_scooter"}, {"fusion_lat": 0.0, "bike_id": "958048e8d92f1d42e1cd7cfb709b6254", "fusion_lon": 0.0, "lon": -77.04745866666667, "lat": 38.905422, "is_reserved": 0, "is_disabled": 0, "rental_uris": {"android": "https://dc.lft.to/lastmile_qr_scan", "ios": "https://dc.lft.to/lastmile_qr_scan"}, "name": "958048e8d92f1d42e1cd7cfb709b6254", "type": "electric_scooter"}, {"fusion_lat": 0.0, "bike_id": "80a7a7b963ed73578d1ecfbdfb3a1cf2", "fusion_lon": 0.0, "lon": -76.948867, "lat": 38.895103166666665, "is_reserved": 0, "is_disabled": 0, "rental_uris": {"android": "https://dc.lft.to/lastmile_qr_scan", "ios": "https://dc.lft.to/lastmile_qr_scan"}, "name": "80a7a7b963ed73578d1ecfbdfb3a1cf2", "type": "electric_scooter"}, {"fusion_lat": 0.0, "bike_id": "0de63a110cbf715477eef4ec5fe8275f", "fusion_lon": 0.0, "lon": -77.03108966666667, "lat": 38.9156405, "is_reserved": 0, "is_disabled": 0, "rental_uris": {"android": "https://dc.lft.to/lastmile_qr_scan", "ios": "https://dc.lft.to/lastmile_qr_scan"}, "name": "0de63a110cbf715477eef4ec5fe8275f", "type": "electric_scooter"}, {"fusion_lat": 0.0, "bike_id": "6e73c54ed1851d5fe8e2c9811d4e221a", "fusion_lon": 0.0, "lon": -76.98345816666667, "lat": 38.91538666666667, "is_reserved": 0, "is_disabled": 0, "rental_uris": {"android": "https://dc.lft.to/lastmile_qr_scan", "ios": "https://dc.lft.to/lastmile_qr_scan"}, "name": "6e73c54ed1851d5fe8e2c9811d4e221a", "type": "electric_scooter"}, {"fusion_lat": 0.0, "bike_id": "e91d48244b70b998a45e2543e9483069", "fusion_lon": 0.0, "lon": -77.05898183333333, "lat": 38.903086, "is_reserved": 0, "is_disabled": 0, "rental_uris": {"android": "https://dc.lft.to/lastmile_qr_scan", "ios": "https://dc.lft.to/lastmile_qr_scan"}, "name": "e91d48244b70b998a45e2543e9483069", "type": "electric_scooter"}, {"fusion_lat": 0.0, "bike_id": "8020f9e385fcfde5fc8481fd06f5669c", "fusion_lon": 0.0, "lon": -77.03238816666666, "lat": 38.92885866666667, "is_reserved": 0, "is_disabled": 0, "rental_uris": {"android": "https://dc.lft.to/lastmile_qr_scan", "ios": "https://dc.lft.to/lastmile_qr_scan"}, "name": "8020f9e385fcfde5fc8481fd06f5669c", "type": "electric_scooter"}, {"fusion_lat": 0.0, "bike_id": "6f9d87241cce1a2da45a634d46fd3ca5", "fusion_lon": 0.0, "lon": -76.99883166666666, "lat": 38.920564666666664, "is_reserved": 0, "is_disabled": 0, "rental_uris": {"android": "https://dc.lft.to/lastmile_qr_scan", "ios": "https://dc.lft.to/lastmile_qr_scan"}, "name": "6f9d87241cce1a2da45a634d46fd3ca5", "type": "electric_scooter"}, {"fusion_lat": 0.0, "bike_id": "47bfb213ff5e29109e1d834f18fbe3bc", "fusion_lon": 0.0, "lon": -77.0264965, "lat": 38.938635166666664, "is_reserved": 0, "is_disabled": 0, "rental_uris": {"android": "https://dc.lft.to/lastmile_qr_scan", "ios": "https://dc.lft.to/lastmile_qr_scan"}, "name": "47bfb213ff5e29109e1d834f18fbe3bc", "type": "electric_scooter"}, {"fusion_lat": 0.0, "bike_id": "0fb1d3419f412f3e6ad4057c2069a519", "fusion_lon": 0.0, "lon": -77.0012795, "lat": 38.873732, "is_reserved": 0, "is_disabled": 0, "rental_uris": {"android": "https://dc.lft.to/lastmile_qr_scan", "ios": "https://dc.lft.to/lastmile_qr_scan"}, "name": "0fb1d3419f412f3e6ad4057c2069a519", "type": "electric_scooter"}, {"fusion_lat": 0.0, "bike_id": "6c4d1e2832c8389cc04a6946b0ae468c", "fusion_lon": 0.0, "lon": -76.993527, "lat": 38.845049333333336, "is_reserved": 0, "is_disabled": 0, "rental_uris": {"android": "https://dc.lft.to/lastmile_qr_scan", "ios": "https://dc.lft.to/lastmile_qr_scan"}, "name": "6c4d1e2832c8389cc04a6946b0ae468c", "type": "electric_bike"}, {"fusion_lat": 0.0, "bike_id": "6b2ec03e41bf0cea8b58535f1d918bff", "fusion_lon": 0.0, "lon": -77.02345883333334, "lat": 38.93534116666667, "is_reserved": 0, "is_disabled": 0, "rental_uris": {"android": "https://dc.lft.to/lastmile_qr_scan", "ios": "https://dc.lft.to/lastmile_qr_scan"}, "name": "6b2ec03e41bf0cea8b58535f1d918bff", "type": "electric_scooter"}, {"fusion_lat": 0.0, "bike_id": "0fc17044c830cf680898dbbe0e1c1cf5", "fusion_lon": 0.0, "lon": -77.036554, "lat": 38.92345616666667, "is_reserved": 0, "is_disabled": 0, "rental_uris": {"android": "https://dc.lft.to/lastmile_qr_scan", "ios": "https://dc.lft.to/lastmile_qr_scan"}, "name": "0fc17044c830cf680898dbbe0e1c1cf5", "type": "electric_scooter"}, {"fusion_lat": 0.0, "bike_id": "39d0c380ea7025123b4ad181839f42f5", "fusion_lon": 0.0, "lon": -77.074324, "lat": 38.999446666666664, "is_reserved": 0, "is_disabled": 0, "rental_uris": {"android": "https://dc.lft.to/lastmile_qr_scan", "ios": "https://dc.lft.to/lastmile_qr_scan"}, "name": "39d0c380ea7025123b4ad181839f42f5", "type": "electric_bike"}, {"fusion_lat": 0.0, "bike_id": "1293eb7b99c2f3f877ae49bda88cbd0d", "fusion_lon": 0.0, "lon": -76.987169, "lat": 38.86629383333333, "is_reserved": 0, "is_disabled": 0, "rental_uris": {"android": "https://dc.lft.to/lastmile_qr_scan", "ios": "https://dc.lft.to/lastmile_qr_scan"}, "name": "1293eb7b99c2f3f877ae49bda88cbd0d", "type": "electric_scooter"}, {"fusion_lat": 0.0, "bike_id": "07951e516277de7d7c03d434d1226b46", "fusion_lon": 0.0, "lon": -77.059927, "lat": 38.905180666666666, "is_reserved": 0, "is_disabled": 0, "rental_uris": {"android": "https://dc.lft.to/lastmile_qr_scan", "ios": "https://dc.lft.to/lastmile_qr_scan"}, "name": "07951e516277de7d7c03d434d1226b46", "type": "electric_scooter"}, {"fusion_lat": 0.0, "bike_id": "48ea7a3304f9b66a8a23f6dbefd4421a", "fusion_lon": 0.0, "lon": -77.04500666666667, "lat": 38.90795716666667, "is_reserved": 0, "is_disabled": 0, "rental_uris": {"android": "https://dc.lft.to/lastmile_qr_scan", "ios": "https://dc.lft.to/lastmile_qr_scan"}, "name": "48ea7a3304f9b66a8a23f6dbefd4421a", "type": "electric_scooter"}, {"fusion_lat": 0.0, "bike_id": "a6c55f4a5efcf76bfa2c46d2a4c89ba2", "fusion_lon": 0.0, "lon": -77.05807583333333, "lat": 38.8240065, "is_reserved": 0, "is_disabled": 0, "rental_uris": {"android": "https://dc.lft.to/lastmile_qr_scan", "ios": "https://dc.lft.to/lastmile_qr_scan"}, "name": "a6c55f4a5efcf76bfa2c46d2a4c89ba2", "type": "electric_bike"}, {"fusion_lat": 0.0, "bike_id": "da0a5c05613d069ba86b39fee3cc4d28", "fusion_lon": 0.0, "lon": -77.05455733333334, "lat": 38.929204, "is_reserved": 0, "is_disabled": 0, "rental_uris": {"android": "https://dc.lft.to/lastmile_qr_scan", "ios": "https://dc.lft.to/lastmile_qr_scan"}, "name": "da0a5c05613d069ba86b39fee3cc4d28", "type": "electric_scooter"}, {"fusion_lat": 0.0, "bike_id": "ff59e0d1343f1d883eed0b4a372bbde1", "fusion_lon": 0.0, "lon": -77.02584933333333, "lat": 38.8925715, "is_reserved": 0, "is_disabled": 0, "rental_uris": {"android": "https://dc.lft.to/lastmile_qr_scan", "ios": "https://dc.lft.to/lastmile_qr_scan"}, "name": "ff59e0d1343f1d883eed0b4a372bbde1", "type": "electric_scooter"}, {"fusion_lat": 0.0, "bike_id": "c363b96038e4bde8167ae91088484322", "fusion_lon": 0.0, "lon": -76.949208, "lat": 38.89354433333333, "is_reserved": 0, "is_disabled": 0, "rental_uris": {"android": "https://dc.lft.to/lastmile_qr_scan", "ios": "https://dc.lft.to/lastmile_qr_scan"}, "name": "c363b96038e4bde8167ae91088484322", "type": "electric_scooter"}, {"fusion_lat": 0.0, "bike_id": "64418ff3f8951378293b0b013bf69d8e", "fusion_lon": 0.0, "lon": -77.03265666666667, "lat": 38.937735333333336, "is_reserved": 0, "is_disabled": 0, "rental_uris": {"android": "https://dc.lft.to/lastmile_qr_scan", "ios": "https://dc.lft.to/lastmile_qr_scan"}, "name": "64418ff3f8951378293b0b013bf69d8e", "type": "electric_scooter"}, {"fusion_lat": 0.0, "bike_id": "d59e1d9e7fb43bc1fb0fe142d15a402c", "fusion_lon": 0.0, "lon": -77.06759116666667, "lat": 38.90360483333333, "is_reserved": 0, "is_disabled": 0, "rental_uris": {"android": "https://dc.lft.to/lastmile_qr_scan", "ios": "https://dc.lft.to/lastmile_qr_scan"}, "name": "d59e1d9e7fb43bc1fb0fe142d15a402c", "type": "electric_scooter"}, {"fusion_lat": 0.0, "bike_id": "664e2c120bacb015b7c5d2713f804e02", "fusion_lon": 0.0, "lon": -77.04660516666667, "lat": 38.89656983333333, "is_reserved": 0, "is_disabled": 0, "rental_uris": {"android": "https://dc.lft.to/lastmile_qr_scan", "ios": "https://dc.lft.to/lastmile_qr_scan"}, "name": "664e2c120bacb015b7c5d2713f804e02", "type": "electric_scooter"}, {"fusion_lat": 0.0, "bike_id": "a5c4dba7b0404ea7c32ddc4e747e187a", "fusion_lon": 0.0, "lon": -76.96150133333333, "lat": 38.883577333333335, "is_reserved": 0, "is_disabled": 0, "rental_uris": {"android": "https://dc.lft.to/lastmile_qr_scan", "ios": "https://dc.lft.to/lastmile_qr_scan"}, "name": "a5c4dba7b0404ea7c32ddc4e747e187a", "type": "electric_scooter"}, {"fusion_lat": 0.0, "bike_id": "26be69dd1821b1d6ba87708a92a045c8", "fusion_lon": 0.0, "lon": -77.0450235, "lat": 38.907365, "is_reserved": 0, "is_disabled": 0, "rental_uris": {"android": "https://dc.lft.to/lastmile_qr_scan", "ios": "https://dc.lft.to/lastmile_qr_scan"}, "name": "26be69dd1821b1d6ba87708a92a045c8", "type": "electric_scooter"}, {"fusion_lat": 0.0, "bike_id": "77cc1a75d9a47cdd1bea76347fc52fae", "fusion_lon": 0.0, "lon": -77.0364155, "lat": 38.913422833333335, "is_reserved": 0, "is_disabled": 0, "rental_uris": {"android": "https://dc.lft.to/lastmile_qr_scan", "ios": "https://dc.lft.to/lastmile_qr_scan"}, "name": "77cc1a75d9a47cdd1bea76347fc52fae", "type": "electric_scooter"}, {"fusion_lat": 0.0, "bike_id": "bc52d808b65461cf7ce8616bfa5a4789", "fusion_lon": 0.0, "lon": -76.96910016666666, "lat": 38.846117166666666, "is_reserved": 0, "is_disabled": 0, "rental_uris": {"android": "https://dc.lft.to/lastmile_qr_scan", "ios": "https://dc.lft.to/lastmile_qr_scan"}, "name": "bc52d808b65461cf7ce8616bfa5a4789", "type": "electric_bike"}, {"fusion_lat": 0.0, "bike_id": "e2604a07366fd64af64aa5b89d2daaab", "fusion_lon": 0.0, "lon": -77.02664666666666, "lat": 38.922170666666666, "is_reserved": 0, "is_disabled": 0, "rental_uris": {"android": "https://dc.lft.to/lastmile_qr_scan", "ios": "https://dc.lft.to/lastmile_qr_scan"}, "name": "e2604a07366fd64af64aa5b89d2daaab", "type": "electric_scooter"}, {"fusion_lat": 0.0, "bike_id": "b3d100d5c231deec370c04905d556f88", "fusion_lon": 0.0, "lon": -77.03310383333333, "lat": 38.89822733333333, "is_reserved": 0, "is_disabled": 0, "rental_uris": {"android": "https://dc.lft.to/lastmile_qr_scan", "ios": "https://dc.lft.to/lastmile_qr_scan"}, "name": "b3d100d5c231deec370c04905d556f88", "type": "electric_scooter"}, {"fusion_lat": 0.0, "bike_id": "086848a2a83dffc121620a361c35f570", "fusion_lon": 0.0, "lon": -77.02704583333333, "lat": 38.9347195, "is_reserved": 0, "is_disabled": 0, "rental_uris": {"android": "https://dc.lft.to/lastmile_qr_scan", "ios": "https://dc.lft.to/lastmile_qr_scan"}, "name": "086848a2a83dffc121620a361c35f570", "type": "electric_scooter"}, {"fusion_lat": 0.0, "bike_id": "0b3091afa2755f77840899d2d7e5b2af", "fusion_lon": 0.0, "lon": -77.04648516666667, "lat": 38.90001933333333, "is_reserved": 0, "is_disabled": 0, "rental_uris": {"android": "https://dc.lft.to/lastmile_qr_scan", "ios": "https://dc.lft.to/lastmile_qr_scan"}, "name": "0b3091afa2755f77840899d2d7e5b2af", "type": "electric_scooter"}, {"fusion_lat": 0.0, "bike_id": "3831bc008247a484ab5b85711d77faa2", "fusion_lon": 0.0, "lon": -76.98735316666667, "lat": 38.90031066666667, "is_reserved": 0, "is_disabled": 0, "rental_uris": {"android": "https://dc.lft.to/lastmile_qr_scan", "ios": "https://dc.lft.to/lastmile_qr_scan"}, "name": "3831bc008247a484ab5b85711d77faa2", "type": "electric_scooter"}, {"fusion_lat": 0.0, "bike_id": "0d3d18a358ab29c5c5dc1cc678c29f04", "fusion_lon": 0.0, "lon": -77.07589516666667, "lat": 38.91215, "is_reserved": 0, "is_disabled": 0, "rental_uris": {"android": "https://dc.lft.to/lastmile_qr_scan", "ios": "https://dc.lft.to/lastmile_qr_scan"}, "name": "0d3d18a358ab29c5c5dc1cc678c29f04", "type": "electric_scooter"}, {"fusion_lat": 0.0, "bike_id": "c833b255f93170f5cc88eae4d81a2f15", "fusion_lon": 0.0, "lon": -77.12495216666667, "lat": 38.82794883333333, "is_reserved": 0, "is_disabled": 0, "rental_uris": {"android": "https://dc.lft.to/lastmile_qr_scan", "ios": "https://dc.lft.to/lastmile_qr_scan"}, "name": "c833b255f93170f5cc88eae4d81a2f15", "type": "electric_bike"}, {"fusion_lat": 0.0, "bike_id": "892f77d3b3ae5d04424d48f7dd905ea8", "fusion_lon": 0.0, "lon": -77.04065416666667, "lat": 38.9013425, "is_reserved": 0, "is_disabled": 0, "rental_uris": {"android": "https://dc.lft.to/lastmile_qr_scan", "ios": "https://dc.lft.to/lastmile_qr_scan"}, "name": "892f77d3b3ae5d04424d48f7dd905ea8", "type": "electric_scooter"}, {"fusion_lat": 0.0, "bike_id": "278a1924035c297ee39f85bf73b14605", "fusion_lon": 0.0, "lon": -77.02713083333333, "lat": 38.92466833333334, "is_reserved": 0, "is_disabled": 0, "rental_uris": {"android": "https://dc.lft.to/lastmile_qr_scan", "ios": "https://dc.lft.to/lastmile_qr_scan"}, "name": "278a1924035c297ee39f85bf73b14605", "type": "electric_scooter"}, {"fusion_lat": 0.0, "bike_id": "e29248163dca958f6ccc9b7e093fa8c6", "fusion_lon": 0.0, "lon": -77.0055905, "lat": 38.90191133333333, "is_reserved": 0, "is_disabled": 0, "rental_uris": {"android": "https://dc.lft.to/lastmile_qr_scan", "ios": "https://dc.lft.to/lastmile_qr_scan"}, "name": "e29248163dca958f6ccc9b7e093fa8c6", "type": "electric_scooter"}, {"fusion_lat": 0.0, "bike_id": "e30ebecf2dd08bbadb4272994de6f898", "fusion_lon": 0.0, "lon": -77.02980333333333, "lat": 38.93064066666667, "is_reserved": 0, "is_disabled": 0, "rental_uris": {"android": "https://dc.lft.to/lastmile_qr_scan", "ios": "https://dc.lft.to/lastmile_qr_scan"}, "name": "e30ebecf2dd08bbadb4272994de6f898", "type": "electric_scooter"}, {"fusion_lat": 0.0, "bike_id": "de04c47f882ee0c11478a46730b73c8a", "fusion_lon": 0.0, "lon": -77.033839, "lat": 38.92471883333333, "is_reserved": 0, "is_disabled": 0, "rental_uris": {"android": "https://dc.lft.to/lastmile_qr_scan", "ios": "https://dc.lft.to/lastmile_qr_scan"}, "name": "de04c47f882ee0c11478a46730b73c8a", "type": "electric_scooter"}, {"fusion_lat": 0.0, "bike_id": "f629658c36f2bf837e591b921b1997c7", "fusion_lon": 0.0, "lon": -77.00281116666666, "lat": 38.9571155, "is_reserved": 0, "is_disabled": 0, "rental_uris": {"android": "https://dc.lft.to/lastmile_qr_scan", "ios": "https://dc.lft.to/lastmile_qr_scan"}, "name": "f629658c36f2bf837e591b921b1997c7", "type": "electric_bike"}, {"fusion_lat": 0.0, "bike_id": "7c6e6c8e189c0bf7ede4d5d60526db0c", "fusion_lon": 0.0, "lon": -77.03203383333333, "lat": 38.903884, "is_reserved": 0, "is_disabled": 0, "rental_uris": {"android": "https://dc.lft.to/lastmile_qr_scan", "ios": "https://dc.lft.to/lastmile_qr_scan"}, "name": "7c6e6c8e189c0bf7ede4d5d60526db0c", "type": "electric_scooter"}, {"fusion_lat": 0.0, "bike_id": "9abf8b8614692bdba28387a8c0967234", "fusion_lon": 0.0, "lon": -77.03443333333334, "lat": 38.91804966666667, "is_reserved": 0, "is_disabled": 0, "rental_uris": {"android": "https://dc.lft.to/lastmile_qr_scan", "ios": "https://dc.lft.to/lastmile_qr_scan"}, "name": "9abf8b8614692bdba28387a8c0967234", "type": "electric_scooter"}, {"fusion_lat": 0.0, "bike_id": "c66eeb4abaa0f79c966e3d2f603fdac2", "fusion_lon": 0.0, "lon": -76.99852683333333, "lat": 38.84160383333333, "is_reserved": 0, "is_disabled": 0, "rental_uris": {"android": "https://dc.lft.to/lastmile_qr_scan", "ios": "https://dc.lft.to/lastmile_qr_scan"}, "name": "c66eeb4abaa0f79c966e3d2f603fdac2", "type": "electric_scooter"}, {"fusion_lat": 0.0, "bike_id": "75ba6bc4a30c22588e63f24ceeddc2a7", "fusion_lon": 0.0, "lon": -76.98286433333334, "lat": 38.9163985, "is_reserved": 0, "is_disabled": 0, "rental_uris": {"android": "https://dc.lft.to/lastmile_qr_scan", "ios": "https://dc.lft.to/lastmile_qr_scan"}, "name": "75ba6bc4a30c22588e63f24ceeddc2a7", "type": "electric_scooter"}, {"fusion_lat": 0.0, "bike_id": "559e9dea1e675318b1cb32d7529c2406", "fusion_lon": 0.0, "lon": -77.05181416666667, "lat": 38.9242635, "is_reserved": 0, "is_disabled": 0, "rental_uris": {"android": "https://dc.lft.to/lastmile_qr_scan", "ios": "https://dc.lft.to/lastmile_qr_scan"}, "name": "559e9dea1e675318b1cb32d7529c2406", "type": "electric_scooter"}, {"fusion_lat": 0.0, "bike_id": "53fd02ccfdf92f129c64217f72046750", "fusion_lon": 0.0, "lon": -77.025352, "lat": 38.92750616666667, "is_reserved": 0, "is_disabled": 0, "rental_uris": {"android": "https://dc.lft.to/lastmile_qr_scan", "ios": "https://dc.lft.to/lastmile_qr_scan"}, "name": "53fd02ccfdf92f129c64217f72046750", "type": "electric_scooter"}, {"fusion_lat": 0.0, "bike_id": "7a96ca3d9933e3b8a01d1011645f4719", "fusion_lon": 0.0, "lon": -76.98597416666667, "lat": 38.866846333333335, "is_reserved": 0, "is_disabled": 0, "rental_uris": {"android": "https://dc.lft.to/lastmile_qr_scan", "ios": "https://dc.lft.to/lastmile_qr_scan"}, "name": "7a96ca3d9933e3b8a01d1011645f4719", "type": "electric_scooter"}, {"fusion_lat": 0.0, "bike_id": "9db9021d431311372ceff505c52d6a6b", "fusion_lon": 0.0, "lon": -77.03864066666667, "lat": 38.902751333333335, "is_reserved": 0, "is_disabled": 0, "rental_uris": {"android": "https://dc.lft.to/lastmile_qr_scan", "ios": "https://dc.lft.to/lastmile_qr_scan"}, "name": "9db9021d431311372ceff505c52d6a6b", "type": "electric_scooter"}, {"fusion_lat": 0.0, "bike_id": "1679365f116bdf2c9a72ea3cca2c5f5c", "fusion_lon": 0.0, "lon": -77.04393583333334, "lat": 38.902657, "is_reserved": 0, "is_disabled": 0, "rental_uris": {"android": "https://dc.lft.to/lastmile_qr_scan", "ios": "https://dc.lft.to/lastmile_qr_scan"}, "name": "1679365f116bdf2c9a72ea3cca2c5f5c", "type": "electric_scooter"}, {"fusion_lat": 0.0, "bike_id": "bd925f66e1c134dc0cd1882253a9ac19", "fusion_lon": 0.0, "lon": -76.99484683333333, "lat": 38.886092, "is_reserved": 0, "is_disabled": 0, "rental_uris": {"android": "https://dc.lft.to/lastmile_qr_scan", "ios": "https://dc.lft.to/lastmile_qr_scan"}, "name": "bd925f66e1c134dc0cd1882253a9ac19", "type": "electric_scooter"}, {"fusion_lat": 0.0, "bike_id": "6aa844a92388c5a68a0f9c427c52636d", "fusion_lon": 0.0, "lon": -77.0263055, "lat": 38.962317166666665, "is_reserved": 0, "is_disabled": 0, "rental_uris": {"android": "https://dc.lft.to/lastmile_qr_scan", "ios": "https://dc.lft.to/lastmile_qr_scan"}, "name": "6aa844a92388c5a68a0f9c427c52636d", "type": "electric_bike"}, {"fusion_lat": 0.0, "bike_id": "b2eeabba2420ab7a7c0d719d3e33939f", "fusion_lon": 0.0, "lon": -77.04163716666666, "lat": 38.90840583333333, "is_reserved": 0, "is_disabled": 0, "rental_uris": {"android": "https://dc.lft.to/lastmile_qr_scan", "ios": "https://dc.lft.to/lastmile_qr_scan"}, "name": "b2eeabba2420ab7a7c0d719d3e33939f", "type": "electric_scooter"}, {"fusion_lat": 0.0, "bike_id": "ff69c4359ba3dd40377bd69889b66f62", "fusion_lon": 0.0, "lon": -77.00697316666667, "lat": 38.909209833333335, "is_reserved": 0, "is_disabled": 0, "rental_uris": {"android": "https://dc.lft.to/lastmile_qr_scan", "ios": "https://dc.lft.to/lastmile_qr_scan"}, "name": "ff69c4359ba3dd40377bd69889b66f62", "type": "electric_scooter"}, {"fusion_lat": 0.0, "bike_id": "72bb469691881faf40a279f13bcb675b", "fusion_lon": 0.0, "lon": -77.03744533333334, "lat": 38.905745833333334, "is_reserved": 0, "is_disabled": 0, "rental_uris": {"android": "https://dc.lft.to/lastmile_qr_scan", "ios": "https://dc.lft.to/lastmile_qr_scan"}, "name": "72bb469691881faf40a279f13bcb675b", "type": "electric_scooter"}, {"fusion_lat": 0.0, "bike_id": "0bcf4f3d0db10a6b69f52fbc9214d20d", "fusion_lon": 0.0, "lon": -77.02400583333333, "lat": 38.8828575, "is_reserved": 0, "is_disabled": 0, "rental_uris": {"android": "https://dc.lft.to/lastmile_qr_scan", "ios": "https://dc.lft.to/lastmile_qr_scan"}, "name": "0bcf4f3d0db10a6b69f52fbc9214d20d", "type": "electric_scooter"}, {"fusion_lat": 0.0, "bike_id": "50ffda19c652c7315b5f1f6d89b9ec51", "fusion_lon": 0.0, "lon": -77.043533, "lat": 38.9104235, "is_reserved": 0, "is_disabled": 0, "rental_uris": {"android": "https://dc.lft.to/lastmile_qr_scan", "ios": "https://dc.lft.to/lastmile_qr_scan"}, "name": "50ffda19c652c7315b5f1f6d89b9ec51", "type": "electric_scooter"}, {"fusion_lat": 0.0, "bike_id": "032aeac4582db89fa34a9e73f5ce080e", "fusion_lon": 0.0, "lon": -77.02393233333333, "lat": 38.90788633333333, "is_reserved": 0, "is_disabled": 0, "rental_uris": {"android": "https://dc.lft.to/lastmile_qr_scan", "ios": "https://dc.lft.to/lastmile_qr_scan"}, "name": "032aeac4582db89fa34a9e73f5ce080e", "type": "electric_scooter"}, {"fusion_lat": 0.0, "bike_id": "379452f22dd2ecdc438451facc155b90", "fusion_lon": 0.0, "lon": -77.01190916666667, "lat": 38.896802666666666, "is_reserved": 0, "is_disabled": 0, "rental_uris": {"android": "https://dc.lft.to/lastmile_qr_scan", "ios": "https://dc.lft.to/lastmile_qr_scan"}, "name": "379452f22dd2ecdc438451facc155b90", "type": "electric_scooter"}, {"fusion_lat": 0.0, "bike_id": "e66b1c0f4efc8579f3d4f0899a51239d", "fusion_lon": 0.0, "lon": -77.0399215, "lat": 38.908476, "is_reserved": 0, "is_disabled": 0, "rental_uris": {"android": "https://dc.lft.to/lastmile_qr_scan", "ios": "https://dc.lft.to/lastmile_qr_scan"}, "name": "e66b1c0f4efc8579f3d4f0899a51239d", "type": "electric_scooter"}, {"fusion_lat": 0.0, "bike_id": "6ea838064b672da5f7086d2d935694de", "fusion_lon": 0.0, "lon": -77.02819433333333, "lat": 38.950871666666664, "is_reserved": 0, "is_disabled": 0, "rental_uris": {"android": "https://dc.lft.to/lastmile_qr_scan", "ios": "https://dc.lft.to/lastmile_qr_scan"}, "name": "6ea838064b672da5f7086d2d935694de", "type": "electric_scooter"}, {"fusion_lat": 0.0, "bike_id": "457994dcb7584336676058df151eec25", "fusion_lon": 0.0, "lon": -77.0036135, "lat": 38.91106833333333, "is_reserved": 0, "is_disabled": 0, "rental_uris": {"android": "https://dc.lft.to/lastmile_qr_scan", "ios": "https://dc.lft.to/lastmile_qr_scan"}, "name": "457994dcb7584336676058df151eec25", "type": "electric_scooter"}, {"fusion_lat": 0.0, "bike_id": "0a122d783c6d349b9738ed7ddcfc19c6", "fusion_lon": 0.0, "lon": -76.94972816666667, "lat": 38.893740666666666, "is_reserved": 0, "is_disabled": 0, "rental_uris": {"android": "https://dc.lft.to/lastmile_qr_scan", "ios": "https://dc.lft.to/lastmile_qr_scan"}, "name": "0a122d783c6d349b9738ed7ddcfc19c6", "type": "electric_scooter"}, {"fusion_lat": 0.0, "bike_id": "479446439cf8d00521393fcae9c34747", "fusion_lon": 0.0, "lon": -76.93537783333333, "lat": 38.896803, "is_reserved": 0, "is_disabled": 0, "rental_uris": {"android": "https://dc.lft.to/lastmile_qr_scan", "ios": "https://dc.lft.to/lastmile_qr_scan"}, "name": "479446439cf8d00521393fcae9c34747", "type": "electric_scooter"}, {"fusion_lat": 0.0, "bike_id": "abc5f0c2bc06767354bc4850a1807fc0", "fusion_lon": 0.0, "lon": -76.99735833333334, "lat": 39.04234916666667, "is_reserved": 0, "is_disabled": 0, "rental_uris": {"android": "https://dc.lft.to/lastmile_qr_scan", "ios": "https://dc.lft.to/lastmile_qr_scan"}, "name": "abc5f0c2bc06767354bc4850a1807fc0", "type": "electric_bike"}, {"fusion_lat": 0.0, "bike_id": "b9afec42f4c78a1d61eb66d6deb08585", "fusion_lon": 0.0, "lon": -77.03447716666666, "lat": 38.907374833333336, "is_reserved": 0, "is_disabled": 0, "rental_uris": {"android": "https://dc.lft.to/lastmile_qr_scan", "ios": "https://dc.lft.to/lastmile_qr_scan"}, "name": "b9afec42f4c78a1d61eb66d6deb08585", "type": "electric_scooter"}, {"fusion_lat": 0.0, "bike_id": "0f292d0ca0d1024d6846506342c91729", "fusion_lon": 0.0, "lon": -77.019515, "lat": 38.923271666666665, "is_reserved": 0, "is_disabled": 0, "rental_uris": {"android": "https://dc.lft.to/lastmile_qr_scan", "ios": "https://dc.lft.to/lastmile_qr_scan"}, "name": "0f292d0ca0d1024d6846506342c91729", "type": "electric_scooter"}, {"fusion_lat": 0.0, "bike_id": "21addfa5cf48edf8a7e0f193c0f1c38c", "fusion_lon": 0.0, "lon": -77.00910483333334, "lat": 38.961329, "is_reserved": 0, "is_disabled": 0, "rental_uris": {"android": "https://dc.lft.to/lastmile_qr_scan", "ios": "https://dc.lft.to/lastmile_qr_scan"}, "name": "21addfa5cf48edf8a7e0f193c0f1c38c", "type": "electric_scooter"}, {"fusion_lat": 0.0, "bike_id": "87897f35fe3a24b5161ac5570e23248b", "fusion_lon": 0.0, "lon": -77.03195966666667, "lat": 38.9134195, "is_reserved": 0, "is_disabled": 0, "rental_uris": {"android": "https://dc.lft.to/lastmile_qr_scan", "ios": "https://dc.lft.to/lastmile_qr_scan"}, "name": "87897f35fe3a24b5161ac5570e23248b", "type": "electric_scooter"}, {"fusion_lat": 0.0, "bike_id": "805bad2de1041154e0b4134d7e31aaa8", "fusion_lon": 0.0, "lon": -77.023169, "lat": 38.88737966666667, "is_reserved": 0, "is_disabled": 0, "rental_uris": {"android": "https://dc.lft.to/lastmile_qr_scan", "ios": "https://dc.lft.to/lastmile_qr_scan"}, "name": "805bad2de1041154e0b4134d7e31aaa8", "type": "electric_scooter"}, {"fusion_lat": 0.0, "bike_id": "94002ecb42666a4c40144ada83f5431d", "fusion_lon": 0.0, "lon": -77.016062, "lat": 38.876927, "is_reserved": 0, "is_disabled": 0, "rental_uris": {"android": "https://dc.lft.to/lastmile_qr_scan", "ios": "https://dc.lft.to/lastmile_qr_scan"}, "name": "94002ecb42666a4c40144ada83f5431d", "type": "electric_scooter"}, {"fusion_lat": 0.0, "bike_id": "6d2f436c2b8adc5bbe115e6a4a46d533", "fusion_lon": 0.0, "lon": -77.03222266666667, "lat": 38.9140665, "is_reserved": 0, "is_disabled": 0, "rental_uris": {"android": "https://dc.lft.to/lastmile_qr_scan", "ios": "https://dc.lft.to/lastmile_qr_scan"}, "name": "6d2f436c2b8adc5bbe115e6a4a46d533", "type": "electric_scooter"}, {"fusion_lat": 0.0, "bike_id": "08a07adfe06ecf80343027dcc722d810", "fusion_lon": 0.0, "lon": -77.04723616666666, "lat": 38.903387333333335, "is_reserved": 0, "is_disabled": 0, "rental_uris": {"android": "https://dc.lft.to/lastmile_qr_scan", "ios": "https://dc.lft.to/lastmile_qr_scan"}, "name": "08a07adfe06ecf80343027dcc722d810", "type": "electric_scooter"}, {"fusion_lat": 0.0, "bike_id": "aa97d08e8e99a58dc63b2a12ead20570", "fusion_lon": 0.0, "lon": -77.022786, "lat": 38.92695466666667, "is_reserved": 0, "is_disabled": 0, "rental_uris": {"android": "https://dc.lft.to/lastmile_qr_scan", "ios": "https://dc.lft.to/lastmile_qr_scan"}, "name": "aa97d08e8e99a58dc63b2a12ead20570", "type": "electric_scooter"}, {"fusion_lat": 0.0, "bike_id": "0f7a2e6d5c0677949b40a40c72598195", "fusion_lon": 0.0, "lon": -77.0106825, "lat": 38.907225333333336, "is_reserved": 0, "is_disabled": 0, "rental_uris": {"android": "https://dc.lft.to/lastmile_qr_scan", "ios": "https://dc.lft.to/lastmile_qr_scan"}, "name": "0f7a2e6d5c0677949b40a40c72598195", "type": "electric_bike"}, {"fusion_lat": 0.0, "bike_id": "c004609f351083fc65fe0a342f5312a3", "fusion_lon": 0.0, "lon": -76.93301, "lat": 38.9009535, "is_reserved": 0, "is_disabled": 0, "rental_uris": {"android": "https://dc.lft.to/lastmile_qr_scan", "ios": "https://dc.lft.to/lastmile_qr_scan"}, "name": "c004609f351083fc65fe0a342f5312a3", "type": "electric_scooter"}, {"fusion_lat": 0.0, "bike_id": "0af2dd460d0344efc7ef4fd42cdade50", "fusion_lon": 0.0, "lon": -77.02592066666666, "lat": 38.942055833333335, "is_reserved": 0, "is_disabled": 0, "rental_uris": {"android": "https://dc.lft.to/lastmile_qr_scan", "ios": "https://dc.lft.to/lastmile_qr_scan"}, "name": "0af2dd460d0344efc7ef4fd42cdade50", "type": "electric_scooter"}, {"fusion_lat": 0.0, "bike_id": "16d5acef0e5d6892a18e5402a2af5aee", "fusion_lon": 0.0, "lon": -77.0282875, "lat": 38.88727433333333, "is_reserved": 0, "is_disabled": 0, "rental_uris": {"android": "https://dc.lft.to/lastmile_qr_scan", "ios": "https://dc.lft.to/lastmile_qr_scan"}, "name": "16d5acef0e5d6892a18e5402a2af5aee", "type": "electric_scooter"}, {"fusion_lat": 0.0, "bike_id": "ff7ab4ce77344ceb93d3ab7b62b53cad", "fusion_lon": 0.0, "lon": -77.04456416666666, "lat": 38.918806333333336, "is_reserved": 0, "is_disabled": 0, "rental_uris": {"android": "https://dc.lft.to/lastmile_qr_scan", "ios": "https://dc.lft.to/lastmile_qr_scan"}, "name": "ff7ab4ce77344ceb93d3ab7b62b53cad", "type": "electric_scooter"}, {"fusion_lat": 0.0, "bike_id": "390be657731092f7486c5bae3c375cef", "fusion_lon": 0.0, "lon": -77.0265965, "lat": 38.91694066666667, "is_reserved": 0, "is_disabled": 0, "rental_uris": {"android": "https://dc.lft.to/lastmile_qr_scan", "ios": "https://dc.lft.to/lastmile_qr_scan"}, "name": "390be657731092f7486c5bae3c375cef", "type": "electric_scooter"}, {"fusion_lat": 0.0, "bike_id": "849b33ff57ad99c8fc2d154a484ef594", "fusion_lon": 0.0, "lon": -77.03275416666666, "lat": 38.89841416666667, "is_reserved": 0, "is_disabled": 0, "rental_uris": {"android": "https://dc.lft.to/lastmile_qr_scan", "ios": "https://dc.lft.to/lastmile_qr_scan"}, "name": "849b33ff57ad99c8fc2d154a484ef594", "type": "electric_scooter"}, {"fusion_lat": 0.0, "bike_id": "fea00e421ad4e5ec2557ac2722ff35be", "fusion_lon": 0.0, "lon": -77.02191766666667, "lat": 38.894932833333336, "is_reserved": 0, "is_disabled": 0, "rental_uris": {"android": "https://dc.lft.to/lastmile_qr_scan", "ios": "https://dc.lft.to/lastmile_qr_scan"}, "name": "fea00e421ad4e5ec2557ac2722ff35be", "type": "electric_scooter"}, {"fusion_lat": 0.0, "bike_id": "3123cf6af8431fac032019bb5467aab1", "fusion_lon": 0.0, "lon": -77.02581233333333, "lat": 38.887389, "is_reserved": 0, "is_disabled": 0, "rental_uris": {"android": "https://dc.lft.to/lastmile_qr_scan", "ios": "https://dc.lft.to/lastmile_qr_scan"}, "name": "3123cf6af8431fac032019bb5467aab1", "type": "electric_scooter"}, {"fusion_lat": 0.0, "bike_id": "6b81fcd7ec3a8ad9e1153c9ee9b90f8a", "fusion_lon": 0.0, "lon": -77.03263233333334, "lat": 38.93067583333333, "is_reserved": 0, "is_disabled": 0, "rental_uris": {"android": "https://dc.lft.to/lastmile_qr_scan", "ios": "https://dc.lft.to/lastmile_qr_scan"}, "name": "6b81fcd7ec3a8ad9e1153c9ee9b90f8a", "type": "electric_scooter"}, {"fusion_lat": 0.0, "bike_id": "0b206dbb0fb0f03bf69da8a40d6d3942", "fusion_lon": 0.0, "lon": -77.01450383333334, "lat": 38.92977533333333, "is_reserved": 0, "is_disabled": 0, "rental_uris": {"android": "https://dc.lft.to/lastmile_qr_scan", "ios": "https://dc.lft.to/lastmile_qr_scan"}, "name": "0b206dbb0fb0f03bf69da8a40d6d3942", "type": "electric_scooter"}, {"fusion_lat": 0.0, "bike_id": "2e53636121d53095e95fc473cc773c60", "fusion_lon": 0.0, "lon": -76.93362233333333, "lat": 38.88798083333333, "is_reserved": 0, "is_disabled": 0, "rental_uris": {"android": "https://dc.lft.to/lastmile_qr_scan", "ios": "https://dc.lft.to/lastmile_qr_scan"}, "name": "2e53636121d53095e95fc473cc773c60", "type": "electric_scooter"}, {"fusion_lat": 0.0, "bike_id": "09a88f8d83acebe7e066611cdc3341b9", "fusion_lon": 0.0, "lon": -77.03363366666666, "lat": 38.901163833333335, "is_reserved": 0, "is_disabled": 0, "rental_uris": {"android": "https://dc.lft.to/lastmile_qr_scan", "ios": "https://dc.lft.to/lastmile_qr_scan"}, "name": "09a88f8d83acebe7e066611cdc3341b9", "type": "electric_scooter"}, {"fusion_lat": 0.0, "bike_id": "0e104da5433a836f5824d6843bddd82d", "fusion_lon": 0.0, "lon": -77.02794966666667, "lat": 38.91691466666666, "is_reserved": 0, "is_disabled": 0, "rental_uris": {"android": "https://dc.lft.to/lastmile_qr_scan", "ios": "https://dc.lft.to/lastmile_qr_scan"}, "name": "0e104da5433a836f5824d6843bddd82d", "type": "electric_scooter"}, {"fusion_lat": 0.0, "bike_id": "54699266d56c7e411acefc834f1a3cba", "fusion_lon": 0.0, "lon": -77.04614116666667, "lat": 38.90282783333333, "is_reserved": 0, "is_disabled": 0, "rental_uris": {"android": "https://dc.lft.to/lastmile_qr_scan", "ios": "https://dc.lft.to/lastmile_qr_scan"}, "name": "54699266d56c7e411acefc834f1a3cba", "type": "electric_scooter"}, {"fusion_lat": 0.0, "bike_id": "7b427abdf6bed1c9f2f77c2c7dc520f5", "fusion_lon": 0.0, "lon": -77.01189883333333, "lat": 38.900294833333334, "is_reserved": 0, "is_disabled": 0, "rental_uris": {"android": "https://dc.lft.to/lastmile_qr_scan", "ios": "https://dc.lft.to/lastmile_qr_scan"}, "name": "7b427abdf6bed1c9f2f77c2c7dc520f5", "type": "electric_scooter"}, {"fusion_lat": 0.0, "bike_id": "692229f09f6f74324db28936a9c0c3e0", "fusion_lon": 0.0, "lon": -76.994946, "lat": 38.83556883333333, "is_reserved": 0, "is_disabled": 0, "rental_uris": {"android": "https://dc.lft.to/lastmile_qr_scan", "ios": "https://dc.lft.to/lastmile_qr_scan"}, "name": "692229f09f6f74324db28936a9c0c3e0", "type": "electric_scooter"}, {"fusion_lat": 0.0, "bike_id": "fec32e3c02a4b8fecc6b78b6dfd1b391", "fusion_lon": 0.0, "lon": -77.02449266666666, "lat": 38.90261016666667, "is_reserved": 0, "is_disabled": 0, "rental_uris": {"android": "https://dc.lft.to/lastmile_qr_scan", "ios": "https://dc.lft.to/lastmile_qr_scan"}, "name": "fec32e3c02a4b8fecc6b78b6dfd1b391", "type": "electric_scooter"}, {"fusion_lat": 0.0, "bike_id": "dc3ce42d76bee036ef0d46c55d41141a", "fusion_lon": 0.0, "lon": -77.04334616666667, "lat": 38.908152, "is_reserved": 0, "is_disabled": 0, "rental_uris": {"android": "https://dc.lft.to/lastmile_qr_scan", "ios": "https://dc.lft.to/lastmile_qr_scan"}, "name": "dc3ce42d76bee036ef0d46c55d41141a", "type": "electric_scooter"}, {"fusion_lat": 0.0, "bike_id": "8e95d576e34230218a67d31daf4a520c", "fusion_lon": 0.0, "lon": -77.04996483333333, "lat": 38.89232716666667, "is_reserved": 0, "is_disabled": 0, "rental_uris": {"android": "https://dc.lft.to/lastmile_qr_scan", "ios": "https://dc.lft.to/lastmile_qr_scan"}, "name": "8e95d576e34230218a67d31daf4a520c", "type": "electric_scooter"}, {"fusion_lat": 0.0, "bike_id": "bac0c6b6ddd9719fd5713dcefbdaa13d", "fusion_lon": 0.0, "lon": -77.04267933333334, "lat": 38.922358833333334, "is_reserved": 0, "is_disabled": 0, "rental_uris": {"android": "https://dc.lft.to/lastmile_qr_scan", "ios": "https://dc.lft.to/lastmile_qr_scan"}, "name": "bac0c6b6ddd9719fd5713dcefbdaa13d", "type": "electric_scooter"}, {"fusion_lat": 0.0, "bike_id": "43a47abc17a271b2d77456345922515e", "fusion_lon": 0.0, "lon": -77.03855633333333, "lat": 38.9034985, "is_reserved": 0, "is_disabled": 0, "rental_uris": {"android": "https://dc.lft.to/lastmile_qr_scan", "ios": "https://dc.lft.to/lastmile_qr_scan"}, "name": "43a47abc17a271b2d77456345922515e", "type": "electric_scooter"}, {"fusion_lat": 0.0, "bike_id": "ff420979cdda9ed93bc7067263d0a7f9", "fusion_lon": 0.0, "lon": -77.04182816666666, "lat": 38.89253683333333, "is_reserved": 0, "is_disabled": 0, "rental_uris": {"android": "https://dc.lft.to/lastmile_qr_scan", "ios": "https://dc.lft.to/lastmile_qr_scan"}, "name": "ff420979cdda9ed93bc7067263d0a7f9", "type": "electric_scooter"}, {"fusion_lat": 0.0, "bike_id": "779c50d72339eea9a5d1d139a80223cd", "fusion_lon": 0.0, "lon": -77.0289835, "lat": 38.916911, "is_reserved": 0, "is_disabled": 0, "rental_uris": {"android": "https://dc.lft.to/lastmile_qr_scan", "ios": "https://dc.lft.to/lastmile_qr_scan"}, "name": "779c50d72339eea9a5d1d139a80223cd", "type": "electric_scooter"}, {"fusion_lat": 0.0, "bike_id": "36631dcc1d8a74d866317d251c61af69", "fusion_lon": 0.0, "lon": -77.02709883333333, "lat": 38.90663466666667, "is_reserved": 0, "is_disabled": 0, "rental_uris": {"android": "https://dc.lft.to/lastmile_qr_scan", "ios": "https://dc.lft.to/lastmile_qr_scan"}, "name": "36631dcc1d8a74d866317d251c61af69", "type": "electric_scooter"}, {"fusion_lat": 0.0, "bike_id": "2ff5cb7b5fde350798d7628aff9f1f64", "fusion_lon": 0.0, "lon": -76.98788316666666, "lat": 38.8672765, "is_reserved": 0, "is_disabled": 0, "rental_uris": {"android": "https://dc.lft.to/lastmile_qr_scan", "ios": "https://dc.lft.to/lastmile_qr_scan"}, "name": "2ff5cb7b5fde350798d7628aff9f1f64", "type": "electric_scooter"}, {"fusion_lat": 0.0, "bike_id": "81ce5de8528574ee1aa27eca4fcb4dd4", "fusion_lon": 0.0, "lon": -77.0661575, "lat": 38.9121675, "is_reserved": 0, "is_disabled": 0, "rental_uris": {"android": "https://dc.lft.to/lastmile_qr_scan", "ios": "https://dc.lft.to/lastmile_qr_scan"}, "name": "81ce5de8528574ee1aa27eca4fcb4dd4", "type": "electric_scooter"}, {"fusion_lat": 0.0, "bike_id": "4214ad7f9ff9ec2469a15528001cfc30", "fusion_lon": 0.0, "lon": -77.03108666666667, "lat": 38.915606, "is_reserved": 0, "is_disabled": 0, "rental_uris": {"android": "https://dc.lft.to/lastmile_qr_scan", "ios": "https://dc.lft.to/lastmile_qr_scan"}, "name": "4214ad7f9ff9ec2469a15528001cfc30", "type": "electric_scooter"}, {"fusion_lat": 0.0, "bike_id": "602cd6f786258dd30879dae635298503", "fusion_lon": 0.0, "lon": -77.03828466666667, "lat": 38.906746, "is_reserved": 0, "is_disabled": 0, "rental_uris": {"android": "https://dc.lft.to/lastmile_qr_scan", "ios": "https://dc.lft.to/lastmile_qr_scan"}, "name": "602cd6f786258dd30879dae635298503", "type": "electric_scooter"}, {"fusion_lat": 0.0, "bike_id": "3005c091f827e7cc92db2d1f16becd07", "fusion_lon": 0.0, "lon": -77.0243745, "lat": 38.93729416666667, "is_reserved": 0, "is_disabled": 0, "rental_uris": {"android": "https://dc.lft.to/lastmile_qr_scan", "ios": "https://dc.lft.to/lastmile_qr_scan"}, "name": "3005c091f827e7cc92db2d1f16becd07", "type": "electric_scooter"}, {"fusion_lat": 0.0, "bike_id": "a4ad713da6972e66d259bcd770e3b9fe", "fusion_lon": 0.0, "lon": -77.0292435, "lat": 38.9346165, "is_reserved": 0, "is_disabled": 0, "rental_uris": {"android": "https://dc.lft.to/lastmile_qr_scan", "ios": "https://dc.lft.to/lastmile_qr_scan"}, "name": "a4ad713da6972e66d259bcd770e3b9fe", "type": "electric_scooter"}, {"fusion_lat": 0.0, "bike_id": "288da917a203f393dfccb74bb31e9073", "fusion_lon": 0.0, "lon": -77.0383225, "lat": 38.91192816666667, "is_reserved": 0, "is_disabled": 0, "rental_uris": {"android": "https://dc.lft.to/lastmile_qr_scan", "ios": "https://dc.lft.to/lastmile_qr_scan"}, "name": "288da917a203f393dfccb74bb31e9073", "type": "electric_scooter"}, {"fusion_lat": 0.0, "bike_id": "950aac764e9b774909b7db24d4ceb497", "fusion_lon": 0.0, "lon": -77.01951533333333, "lat": 38.92314116666667, "is_reserved": 0, "is_disabled": 0, "rental_uris": {"android": "https://dc.lft.to/lastmile_qr_scan", "ios": "https://dc.lft.to/lastmile_qr_scan"}, "name": "950aac764e9b774909b7db24d4ceb497", "type": "electric_scooter"}, {"fusion_lat": 0.0, "bike_id": "ac2466ed0cfc354453d2370c061df160", "fusion_lon": 0.0, "lon": -76.93753766666667, "lat": 38.890371, "is_reserved": 0, "is_disabled": 0, "rental_uris": {"android": "https://dc.lft.to/lastmile_qr_scan", "ios": "https://dc.lft.to/lastmile_qr_scan"}, "name": "ac2466ed0cfc354453d2370c061df160", "type": "electric_scooter"}, {"fusion_lat": 0.0, "bike_id": "9d54a32880fed7930ea75da3409f0fd8", "fusion_lon": 0.0, "lon": -77.04662666666667, "lat": 38.899511833333335, "is_reserved": 0, "is_disabled": 0, "rental_uris": {"android": "https://dc.lft.to/lastmile_qr_scan", "ios": "https://dc.lft.to/lastmile_qr_scan"}, "name": "9d54a32880fed7930ea75da3409f0fd8", "type": "electric_scooter"}, {"fusion_lat": 0.0, "bike_id": "3ad9ddfa69f39dec8fe953233ed086f2", "fusion_lon": 0.0, "lon": -77.03976766666666, "lat": 38.899013333333336, "is_reserved": 0, "is_disabled": 0, "rental_uris": {"android": "https://dc.lft.to/lastmile_qr_scan", "ios": "https://dc.lft.to/lastmile_qr_scan"}, "name": "3ad9ddfa69f39dec8fe953233ed086f2", "type": "electric_scooter"},