{"data": {"bikes": [{"name": "1a7d2ca24bd978d042b7dcbe7469cb71", "is_reserved": 0, "is_disabled": 0, "lon": -77.35311833333333, "rental_uris": {"android": "https://dc.lft.to/lastmile_qr_scan", "ios": "https://dc.lft.to/lastmile_qr_scan"}, "fusion_lon": 0.0, "lat": 38.9500545, "type": "electric_bike", "fusion_lat": 0.0, "bike_id": "1a7d2ca24bd978d042b7dcbe7469cb71"}, {"name": "fcb437c9dde44c922200bbfd6b30c101", "is_reserved": 0, "is_disabled": 0, "lon": -76.99734516666666, "rental_uris": {"android": "https://dc.lft.to/lastmile_qr_scan", "ios": "https://dc.lft.to/lastmile_qr_scan"}, "fusion_lon": 0.0, "lat": 38.91129516666667, "type": "electric_scooter", "fusion_lat": 0.0, "bike_id": "fcb437c9dde44c922200bbfd6b30c101"}, {"name": "92a90922985ee21dddf985d05282e648", "is_reserved": 0, "is_disabled": 0, "lon": -76.94653266666667, "rental_uris": {"android": "https://dc.lft.to/lastmile_qr_scan", "ios": "https://dc.lft.to/lastmile_qr_scan"}, "fusion_lon": 0.0, "lat": 38.898252666666664, "type": "electric_scooter", "fusion_lat": 0.0, "bike_id": "92a90922985ee21dddf985d05282e648"}, {"name": "7ad656d59c664297ee9a805b464abd28", "is_reserved": 0, "is_disabled": 0, "lon": -77.06344133333333, "rental_uris": {"android": "https://dc.lft.to/lastmile_qr_scan", "ios": "https://dc.lft.to/lastmile_qr_scan"}, "fusion_lon": 0.0, "lat": 38.91337333333333, "type": "electric_scooter", "fusion_lat": 0.0, "bike_id": "7ad656d59c664297ee9a805b464abd28"}, {"name": "100917a290340cce5a58a5d38bbd59f9", "is_reserved": 0, "is_disabled": 0, "lon": -77.04834666666666, "rental_uris": {"android": "https://dc.lft.to/lastmile_qr_scan", "ios": "https://dc.lft.to/lastmile_qr_scan"}, "fusion_lon": 0.0, "lat": 38.898379, "type": "electric_scooter", "fusion_lat": 0.0, "bike_id": "100917a290340cce5a58a5d38bbd59f9"}, {"name": "b10665e6c0a604940e47e35c0044ad0a", "is_reserved": 0, "is_disabled": 0, "lon": -77.0399545, "rental_uris": {"android": "https://dc.lft.to/lastmile_qr_scan", "ios": "https://dc.lft.to/lastmile_qr_scan"}, "fusion_lon": 0.0, "lat": 38.914131833333336, "type": "electric_scooter", "fusion_lat": 0.0, "bike_id": "b10665e6c0a604940e47e35c0044ad0a"}, {"name": "52b143f71c8399924bfbdc2253f72d95", "is_reserved": 0, "is_disabled": 0, "lon": -77.032026, "rental_uris": {"android": "https://dc.lft.to/lastmile_qr_scan", "ios": "https://dc.lft.to/lastmile_qr_scan"}, "fusion_lon": 0.0, "lat": 38.9192265, "type": "electric_scooter", "fusion_lat": 0.0, "bike_id": "52b143f71c8399924bfbdc2253f72d95"}, {"name": "55fc6e298ef46d6d5522bdf9425f1851", "is_reserved": 0, "is_disabled": 0, "lon": -77.03339966666667, "rental_uris": {"android": "https://dc.lft.to/lastmile_qr_scan", "ios": "https://dc.lft.to/lastmile_qr_scan"}, "fusion_lon": 0.0, "lat": 38.91916116666667, "type": "electric_scooter", "fusion_lat": 0.0, "bike_id": "55fc6e298ef46d6d5522bdf9425f1851"}, {"name": "6eddfd537c045a251815d9b5f3b97c41", "is_reserved": 0, "is_disabled": 0, "lon": -77.04112266666667, "rental_uris": {"android": "https://dc.lft.to/lastmile_qr_scan", "ios": "https://dc.lft.to/lastmile_qr_scan"}, "fusion_lon": 0.0, "lat": 38.922297, "type": "electric_scooter", "fusion_lat": 0.0, "bike_id": "6eddfd537c045a251815d9b5f3b97c41"}, {"name": "c1ceaac5bbbf941aafc8162f971809a5", "is_reserved": 0, "is_disabled": 0, "lon": -77.046537, "rental_uris": {"android": "https://dc.lft.to/lastmile_qr_scan", "ios": "https://dc.lft.to/lastmile_qr_scan"}, "fusion_lon": 0.0, "lat": 38.905115, "type": "electric_scooter", "fusion_lat": 0.0, "bike_id": "c1ceaac5bbbf941aafc8162f971809a5"}, {"name": "b19d03f9c2ea342c05ac5565dcdeaaac", "is_reserved": 0, "is_disabled": 0, "lon": -77.0800215, "rental_uris": {"android": "https://dc.lft.to/lastmile_qr_scan", "ios": "https://dc.lft.to/lastmile_qr_scan"}, "fusion_lon": 0.0, "lat": 38.92366033333333, "type": "electric_scooter", "fusion_lat": 0.0, "bike_id": "b19d03f9c2ea342c05ac5565dcdeaaac"}, {"name": "55f76fc3520c63dae8ea95f547adc08e", "is_reserved": 0, "is_disabled": 0, "lon": -77.03286316666667, "rental_uris": {"android": "https://dc.lft.to/lastmile_qr_scan", "ios": "https://dc.lft.to/lastmile_qr_scan"}, "fusion_lon": 0.0, "lat": 38.90960616666667, "type": "electric_scooter", "fusion_lat": 0.0, "bike_id": "55f76fc3520c63dae8ea95f547adc08e"}, {"name": "c7eeb2567c925665ba402ed534a4677a", "is_reserved": 0, "is_disabled": 0, "lon": -76.97332233333333, "rental_uris": {"android": "https://dc.lft.to/lastmile_qr_scan", "ios": "https://dc.lft.to/lastmile_qr_scan"}, "fusion_lon": 0.0, "lat": 38.85067933333333, "type": "electric_bike", "fusion_lat": 0.0, "bike_id": "c7eeb2567c925665ba402ed534a4677a"}, {"name": "f1ba423aa8173cae7f5660e08f008033", "is_reserved": 0, "is_disabled": 0, "lon": -77.039822, "rental_uris": {"android": "https://dc.lft.to/lastmile_qr_scan", "ios": "https://dc.lft.to/lastmile_qr_scan"}, "fusion_lon": 0.0, "lat": 38.90640416666667, "type": "electric_scooter", "fusion_lat": 0.0, "bike_id": "f1ba423aa8173cae7f5660e08f008033"}, {"name": "094f3459de51712dd273e92c48e26245", "is_reserved": 0, "is_disabled": 0, "lon": -77.0243865, "rental_uris": {"android": "https://dc.lft.to/lastmile_qr_scan", "ios": "https://dc.lft.to/lastmile_qr_scan"}, "fusion_lon": 0.0, "lat": 38.92369583333333, "type": "electric_scooter", "fusion_lat": 0.0, "bike_id": "094f3459de51712dd273e92c48e26245"}, {"name": "94b3e79e9c0be07d59d852cf689a73c1", "is_reserved": 0, "is_disabled": 0, "lon": -77.00854183333334, "rental_uris": {"android": "https://dc.lft.to/lastmile_qr_scan", "ios": "https://dc.lft.to/lastmile_qr_scan"}, "fusion_lon": 0.0, "lat": 38.90639083333333, "type": "electric_scooter", "fusion_lat": 0.0, "bike_id": "94b3e79e9c0be07d59d852cf689a73c1"}, {"name": "045a65613882079132dc37404538a566", "is_reserved": 0, "is_disabled": 0, "lon": -76.99483233333333, "rental_uris": {"android": "https://dc.lft.to/lastmile_qr_scan", "ios": "https://dc.lft.to/lastmile_qr_scan"}, "fusion_lon": 0.0, "lat": 38.862171833333335, "type": "electric_scooter", "fusion_lat": 0.0, "bike_id": "045a65613882079132dc37404538a566"}, {"name": "8b243391d1e26d6ca597f5cb04460251", "is_reserved": 0, "is_disabled": 0, "lon": -77.04672366666667, "rental_uris": {"android": "https://dc.lft.to/lastmile_qr_scan", "ios": "https://dc.lft.to/lastmile_qr_scan"}, "fusion_lon": 0.0, "lat": 38.903633666666664, "type": "electric_scooter", "fusion_lat": 0.0, "bike_id": "8b243391d1e26d6ca597f5cb04460251"}, {"name": "f4326ef45e54314aad154512859b1be1", "is_reserved": 0, "is_disabled": 0, "lon": -77.02172016666667, "rental_uris": {"android": "https://dc.lft.to/lastmile_qr_scan", "ios": "https://dc.lft.to/lastmile_qr_scan"}, "fusion_lon": 0.0, "lat": 38.88744666666667, "type": "electric_scooter", "fusion_lat": 0.0, "bike_id": "f4326ef45e54314aad154512859b1be1"}, {"name": "d5732a1fbf5c20dd45d5aa4832e3e9a9", "is_reserved": 0, "is_disabled": 0, "lon": -77.03340816666666, "rental_uris": {"android": "https://dc.lft.to/lastmile_qr_scan", "ios": "https://dc.lft.to/lastmile_qr_scan"}, "fusion_lon": 0.0, "lat": 38.919171666666664, "type": "electric_scooter", "fusion_lat": 0.0, "bike_id": "d5732a1fbf5c20dd45d5aa4832e3e9a9"}, {"name": "7f4c94fb407a3c0f67a9a66ec7fa9612", "is_reserved": 0, "is_disabled": 0, "lon": -77.01961466666667, "rental_uris": {"android": "https://dc.lft.to/lastmile_qr_scan", "ios": "https://dc.lft.to/lastmile_qr_scan"}, "fusion_lon": 0.0, "lat": 38.93580466666667, "type": "electric_scooter", "fusion_lat": 0.0, "bike_id": "7f4c94fb407a3c0f67a9a66ec7fa9612"}, {"name": "421dfcaba3f72f0240f378c8940ab848", "is_reserved": 0, "is_disabled": 0, "lon": -77.0406465, "rental_uris": {"android": "https://dc.lft.to/lastmile_qr_scan", "ios": "https://dc.lft.to/lastmile_qr_scan"}, "fusion_lon": 0.0, "lat": 38.899003, "type": "electric_scooter", "fusion_lat": 0.0, "bike_id": "421dfcaba3f72f0240f378c8940ab848"}, {"name": "ebba186de2035a416c65ef4b92f779fb", "is_reserved": 0, "is_disabled": 0, "lon": -77.02544283333333, "rental_uris": {"android": "https://dc.lft.to/lastmile_qr_scan", "ios": "https://dc.lft.to/lastmile_qr_scan"}, "fusion_lon": 0.0, "lat": 38.920838, "type": "electric_scooter", "fusion_lat": 0.0, "bike_id": "ebba186de2035a416c65ef4b92f779fb"}, {"name": "535d233e8dc6670e87270fef97dbdfd8", "is_reserved": 0, "is_disabled": 0, "lon": -77.05281433333333, "rental_uris": {"android": "https://dc.lft.to/lastmile_qr_scan", "ios": "https://dc.lft.to/lastmile_qr_scan"}, "fusion_lon": 0.0, "lat": 38.922567, "type": "electric_scooter", "fusion_lat": 0.0, "bike_id": "535d233e8dc6670e87270fef97dbdfd8"}, {"name": "dd07693e810bf97de66df13e36c9e0e7", "is_reserved": 0, "is_disabled": 0, "lon": -77.040257, "rental_uris": {"android": "https://dc.lft.to/lastmile_qr_scan", "ios": "https://dc.lft.to/lastmile_qr_scan"}, "fusion_lon": 0.0, "lat": 38.9221105, "type": "electric_scooter", "fusion_lat": 0.0, "bike_id": "dd07693e810bf97de66df13e36c9e0e7"}, {"name": "d2499b6ba6538388eccb99493d06aa20", "is_reserved": 0, "is_disabled": 0, "lon": -77.04996116666666, "rental_uris": {"android": "https://dc.lft.to/lastmile_qr_scan", "ios": "https://dc.lft.to/lastmile_qr_scan"}, "fusion_lon": 0.0, "lat": 38.89730566666667, "type": "electric_scooter", "fusion_lat": 0.0, "bike_id": "d2499b6ba6538388eccb99493d06aa20"}, {"name": "30b9223794cd7c594cfca36c73961fba", "is_reserved": 0, "is_disabled": 0, "lon": -77.0235175, "rental_uris": {"android": "https://dc.lft.to/lastmile_qr_scan", "ios": "https://dc.lft.to/lastmile_qr_scan"}, "fusion_lon": 0.0, "lat": 38.93535966666666, "type": "electric_scooter", "fusion_lat": 0.0, "bike_id": "30b9223794cd7c594cfca36c73961fba"}, {"name": "ee758e1e6be98b1b5b9d6f6ac9b30b5c", "is_reserved": 0, "is_disabled": 0, "lon": -77.0011, "rental_uris": {"android": "https://dc.lft.to/lastmile_qr_scan", "ios": "https://dc.lft.to/lastmile_qr_scan"}, "fusion_lon": 0.0, "lat": 38.917170166666665, "type": "electric_scooter", "fusion_lat": 0.0, "bike_id": "ee758e1e6be98b1b5b9d6f6ac9b30b5c"}, {"name": "8b5b0bc0fb40474a3b051d653efc1019", "is_reserved": 0, "is_disabled": 0, "lon": -77.03224533333334, "rental_uris": {"android": "https://dc.lft.to/lastmile_qr_scan", "ios": "https://dc.lft.to/lastmile_qr_scan"}, "fusion_lon": 0.0, "lat": 38.905248666666665, "type": "electric_scooter", "fusion_lat": 0.0, "bike_id": "8b5b0bc0fb40474a3b051d653efc1019"}, {"name": "40f8b3fc70c5a4492c7a344a12f30bc9", "is_reserved": 0, "is_disabled": 0, "lon": -77.08828016666666, "rental_uris": {"android": "https://dc.lft.to/lastmile_qr_scan", "ios": "https://dc.lft.to/lastmile_qr_scan"}, "fusion_lon": 0.0, "lat": 38.909758333333336, "type": "electric_bike", "fusion_lat": 0.0, "bike_id": "40f8b3fc70c5a4492c7a344a12f30bc9"}, {"name": "a9fc0cc4112393fbe620c4458282d590", "is_reserved": 0, "is_disabled": 0, "lon": -76.98732133333333, "rental_uris": {"android": "https://dc.lft.to/lastmile_qr_scan", "ios": "https://dc.lft.to/lastmile_qr_scan"}, "fusion_lon": 0.0, "lat": 38.8670775, "type": "electric_scooter", "fusion_lat": 0.0, "bike_id": "a9fc0cc4112393fbe620c4458282d590"}, {"name": "582261d73bd48a04c7085308bd3e54c7", "is_reserved": 0, "is_disabled": 0, "lon": -77.0059415, "rental_uris": {"android": "https://dc.lft.to/lastmile_qr_scan", "ios": "https://dc.lft.to/lastmile_qr_scan"}, "fusion_lon": 0.0, "lat": 38.8980485, "type": "electric_bike", "fusion_lat": 0.0, "bike_id": "582261d73bd48a04c7085308bd3e54c7"}, {"name": "65b9a89691d28cc90d36e7315f12504d", "is_reserved": 0, "is_disabled": 0, "lon": -77.04235083333333, "rental_uris": {"android": "https://dc.lft.to/lastmile_qr_scan", "ios": "https://dc.lft.to/lastmile_qr_scan"}, "fusion_lon": 0.0, "lat": 38.909257333333336, "type": "electric_scooter", "fusion_lat": 0.0, "bike_id": "65b9a89691d28cc90d36e7315f12504d"}, {"name": "e8fa6fb8719ab91c027c777f8ce408f5", "is_reserved": 0, "is_disabled": 0, "lon": -77.02903333333333, "rental_uris": {"android": "https://dc.lft.to/lastmile_qr_scan", "ios": "https://dc.lft.to/lastmile_qr_scan"}, "fusion_lon": 0.0, "lat": 38.958492666666665, "type": "electric_scooter", "fusion_lat": 0.0, "bike_id": "e8fa6fb8719ab91c027c777f8ce408f5"}, {"name": "fee05301c646ee182000fabe944e0ff6", "is_reserved": 0, "is_disabled": 0, "lon": -77.0247975, "rental_uris": {"android": "https://dc.lft.to/lastmile_qr_scan", "ios": "https://dc.lft.to/lastmile_qr_scan"}, "fusion_lon": 0.0, "lat": 38.880156666666664, "type": "electric_scooter", "fusion_lat": 0.0, "bike_id": "fee05301c646ee182000fabe944e0ff6"}, {"name": "c7c09ad1aa8c3e8706c03d0cb56f0be8", "is_reserved": 0, "is_disabled": 0, "lon": -77.02431716666666, "rental_uris": {"android": "https://dc.lft.to/lastmile_qr_scan", "ios": "https://dc.lft.to/lastmile_qr_scan"}, "fusion_lon": 0.0, "lat": 38.8952245, "type": "electric_scooter", "fusion_lat": 0.0, "bike_id": "c7c09ad1aa8c3e8706c03d0cb56f0be8"}, {"name": "c15825dbb3f85e3098794ceb06ddea30", "is_reserved": 0, "is_disabled": 0, "lon": -77.02337433333334, "rental_uris": {"android": "https://dc.lft.to/lastmile_qr_scan", "ios": "https://dc.lft.to/lastmile_qr_scan"}, "fusion_lon": 0.0, "lat": 38.885000833333336, "type": "electric_scooter", "fusion_lat": 0.0, "bike_id": "c15825dbb3f85e3098794ceb06ddea30"}, {"name": "c86214b66387a79693c34c8db4824065", "is_reserved": 0, "is_disabled": 0, "lon": -77.0058765, "rental_uris": {"android": "https://dc.lft.to/lastmile_qr_scan", "ios": "https://dc.lft.to/lastmile_qr_scan"}, "fusion_lon": 0.0, "lat": 38.90353983333333, "type": "electric_scooter", "fusion_lat": 0.0, "bike_id": "c86214b66387a79693c34c8db4824065"}, {"name": "8a53fcb2b38cba1ab11d0422996fd194", "is_reserved": 0, "is_disabled": 0, "lon": -76.94155366666666, "rental_uris": {"android": "https://dc.lft.to/lastmile_qr_scan", "ios": "https://dc.lft.to/lastmile_qr_scan"}, "fusion_lon": 0.0, "lat": 38.88364133333333, "type": "electric_scooter", "fusion_lat": 0.0, "bike_id": "8a53fcb2b38cba1ab11d0422996fd194"}, {"name": "becd4a5128438229e6b253c0e86800b2", "is_reserved": 0, "is_disabled": 0, "lon": -77.033868, "rental_uris": {"android": "https://dc.lft.to/lastmile_qr_scan", "ios": "https://dc.lft.to/lastmile_qr_scan"}, "fusion_lon": 0.0, "lat": 38.886622, "type": "electric_scooter", "fusion_lat": 0.0, "bike_id": "becd4a5128438229e6b253c0e86800b2"}, {"name": "9b641003764b7c1355f46a1467d00ac1", "is_reserved": 0, "is_disabled": 0, "lon": -76.98360316666667, "rental_uris": {"android": "https://dc.lft.to/lastmile_qr_scan", "ios": "https://dc.lft.to/lastmile_qr_scan"}, "fusion_lon": 0.0, "lat": 38.8610385, "type": "electric_scooter", "fusion_lat": 0.0, "bike_id": "9b641003764b7c1355f46a1467d00ac1"}, {"name": "eaa2f2830bc24fad31fc17d27714e2ed", "is_reserved": 0, "is_disabled": 0, "lon": -77.0330245, "rental_uris": {"android": "https://dc.lft.to/lastmile_qr_scan", "ios": "https://dc.lft.to/lastmile_qr_scan"}, "fusion_lon": 0.0, "lat": 38.9226445, "type": "electric_scooter", "fusion_lat": 0.0, "bike_id": "eaa2f2830bc24fad31fc17d27714e2ed"}, {"name": "ab83f90121fd1acbad3ed9dcd8b8ead7", "is_reserved": 0, "is_disabled": 0, "lon": -77.04174666666667, "rental_uris": {"android": "https://dc.lft.to/lastmile_qr_scan", "ios": "https://dc.lft.to/lastmile_qr_scan"}, "fusion_lon": 0.0, "lat": 38.9093165, "type": "electric_scooter", "fusion_lat": 0.0, "bike_id": "ab83f90121fd1acbad3ed9dcd8b8ead7"}, {"name": "52942aabe6d79171d7b44e0e2e156648", "is_reserved": 0, "is_disabled": 0, "lon": -77.0690085, "rental_uris": {"android": "https://dc.lft.to/lastmile_qr_scan", "ios": "https://dc.lft.to/lastmile_qr_scan"}, "fusion_lon": 0.0, "lat": 38.907278166666664, "type": "electric_scooter", "fusion_lat": 0.0, "bike_id": "52942aabe6d79171d7b44e0e2e156648"}, {"name": "a634c952f25d3e35f79d60fd5efe0982", "is_reserved": 0, "is_disabled": 0, "lon": -77.0507875, "rental_uris": {"android": "https://dc.lft.to/lastmile_qr_scan", "ios": "https://dc.lft.to/lastmile_qr_scan"}, "fusion_lon": 0.0, "lat": 38.81322433333333, "type": "electric_bike", "fusion_lat": 0.0, "bike_id": "a634c952f25d3e35f79d60fd5efe0982"}, {"name": "d0e34d5599b387d82d61970eb96a43ae", "is_reserved": 0, "is_disabled": 0, "lon": -77.114179, "rental_uris": {"android": "https://dc.lft.to/lastmile_qr_scan", "ios": "https://dc.lft.to/lastmile_qr_scan"}, "fusion_lon": 0.0, "lat": 38.842916333333335, "type": "electric_bike", "fusion_lat": 0.0, "bike_id": "d0e34d5599b387d82d61970eb96a43ae"}, {"name": "f97b46badd6165af8f71c0ff389bb61f", "is_reserved": 0, "is_disabled": 0, "lon": -77.03400883333333, "rental_uris": {"android": "https://dc.lft.to/lastmile_qr_scan", "ios": "https://dc.lft.to/lastmile_qr_scan"}, "fusion_lon": 0.0, "lat": 38.919663166666666, "type": "electric_scooter", "fusion_lat": 0.0, "bike_id": "f97b46badd6165af8f71c0ff389bb61f"}, {"name": "736e9f5046c22f5ff9de2e5b6e57235a", "is_reserved": 0, "is_disabled": 0, "lon": -76.944723, "rental_uris": {"android": "https://dc.lft.to/lastmile_qr_scan", "ios": "https://dc.lft.to/lastmile_qr_scan"}, "fusion_lon": 0.0, "lat": 38.945570000000004, "type": "electric_bike", "fusion_lat": 0.0, "bike_id": "736e9f5046c22f5ff9de2e5b6e57235a"}, {"name": "67f8133ff12657ad97f019da1bf95eeb", "is_reserved": 0, "is_disabled": 0, "lon": -77.07900316666667, "rental_uris": {"android": "https://dc.lft.to/lastmile_qr_scan", "ios": "https://dc.lft.to/lastmile_qr_scan"}, "fusion_lon": 0.0, "lat": 38.83938116666667, "type": "electric_bike", "fusion_lat": 0.0, "bike_id": "67f8133ff12657ad97f019da1bf95eeb"}, {"name": "fc6836acfbf626255afaa7f1a73dbf4b", "is_reserved": 0, "is_disabled": 0, "lon": -77.00820216666666, "rental_uris": {"android": "https://dc.lft.to/lastmile_qr_scan", "ios": "https://dc.lft.to/lastmile_qr_scan"}, "fusion_lon": 0.0, "lat": 38.87958866666666, "type": "electric_scooter", "fusion_lat": 0.0, "bike_id": "fc6836acfbf626255afaa7f1a73dbf4b"}, {"name": "38e5ebf09a4cb69f76610c66054e6614", "is_reserved": 0, "is_disabled": 0, "lon": -76.98149683333334, "rental_uris": {"android": "https://dc.lft.to/lastmile_qr_scan", "ios": "https://dc.lft.to/lastmile_qr_scan"}, "fusion_lon": 0.0, "lat": 38.9596335, "type": "electric_bike", "fusion_lat": 0.0, "bike_id": "38e5ebf09a4cb69f76610c66054e6614"}, {"name": "0e039d912324dd0169743d9fee2b3600", "is_reserved": 0, "is_disabled": 0, "lon": -76.9888315, "rental_uris": {"android": "https://dc.lft.to/lastmile_qr_scan", "ios": "https://dc.lft.to/lastmile_qr_scan"}, "fusion_lon": 0.0, "lat": 38.90637616666667, "type": "electric_scooter", "fusion_lat": 0.0, "bike_id": "0e039d912324dd0169743d9fee2b3600"}, {"name": "17a730fa44a86ff55189b428a7e2d5b5", "is_reserved": 0, "is_disabled": 0, "lon": -77.04656966666667, "rental_uris": {"android": "https://dc.lft.to/lastmile_qr_scan", "ios": "https://dc.lft.to/lastmile_qr_scan"}, "fusion_lon": 0.0, "lat": 38.893384833333336, "type": "electric_scooter", "fusion_lat": 0.0, "bike_id": "17a730fa44a86ff55189b428a7e2d5b5"}, {"name": "b99b9b3383098b6af82be70896f5807b", "is_reserved": 0, "is_disabled": 0, "lon": -77.0437505, "rental_uris": {"android": "https://dc.lft.to/lastmile_qr_scan", "ios": "https://dc.lft.to/lastmile_qr_scan"}, "fusion_lon": 0.0, "lat": 38.925715, "type": "electric_scooter", "fusion_lat": 0.0, "bike_id": "b99b9b3383098b6af82be70896f5807b"}, {"name": "02af1ddc12d1b5929bef7007ee46b64a", "is_reserved": 0, "is_disabled": 0, "lon": -77.08050616666667, "rental_uris": {"android": "https://dc.lft.to/lastmile_qr_scan", "ios": "https://dc.lft.to/lastmile_qr_scan"}, "fusion_lon": 0.0, "lat": 38.848389833333336, "type": "electric_bike", "fusion_lat": 0.0, "bike_id": "02af1ddc12d1b5929bef7007ee46b64a"}, {"name": "b3fb266aaaf09f97f170aacfcf910ebf", "is_reserved": 0, "is_disabled": 0, "lon": -77.04678083333333, "rental_uris": {"android": "https://dc.lft.to/lastmile_qr_scan", "ios": "https://dc.lft.to/lastmile_qr_scan"}, "fusion_lon": 0.0, "lat": 38.921041333333335, "type": "electric_scooter", "fusion_lat": 0.0, "bike_id": "b3fb266aaaf09f97f170aacfcf910ebf"}, {"name": "dd3e5bf07e67d9ae62cc22c9610c8dcc", "is_reserved": 0, "is_disabled": 0, "lon": -77.0267285, "rental_uris": {"android": "https://dc.lft.to/lastmile_qr_scan", "ios": "https://dc.lft.to/lastmile_qr_scan"}, "fusion_lon": 0.0, "lat": 38.91077116666666, "type": "electric_scooter", "fusion_lat": 0.0, "bike_id": "dd3e5bf07e67d9ae62cc22c9610c8dcc"}, {"name": "ca54ab9cfc3279172a2149819b321ef1", "is_reserved": 0, "is_disabled": 0, "lon": -77.04667616666667, "rental_uris": {"android": "https://dc.lft.to/lastmile_qr_scan", "ios": "https://dc.lft.to/lastmile_qr_scan"}, "fusion_lon": 0.0, "lat": 38.8991355, "type": "electric_scooter", "fusion_lat": 0.0, "bike_id": "ca54ab9cfc3279172a2149819b321ef1"}, {"name": "d05d17427f0c12afa0a59fa2750b016a", "is_reserved": 0, "is_disabled": 0, "lon": -76.99459283333333, "rental_uris": {"android": "https://dc.lft.to/lastmile_qr_scan", "ios": "https://dc.lft.to/lastmile_qr_scan"}, "fusion_lon": 0.0, "lat": 38.851643833333334, "type": "electric_scooter", "fusion_lat": 0.0, "bike_id": "d05d17427f0c12afa0a59fa2750b016a"}, {"name": "45c7b80d7741d9205647954c1b34d622", "is_reserved": 0, "is_disabled": 0, "lon": -77.02673783333333, "rental_uris": {"android": "https://dc.lft.to/lastmile_qr_scan", "ios": "https://dc.lft.to/lastmile_qr_scan"}, "fusion_lon": 0.0, "lat": 38.89852416666667, "type": "electric_scooter", "fusion_lat": 0.0, "bike_id": "45c7b80d7741d9205647954c1b34d622"}, {"name": "2e4ff9c0f7a28e29429444429e6d89a0", "is_reserved": 0, "is_disabled": 0, "lon": -77.0116665, "rental_uris": {"android": "https://dc.lft.to/lastmile_qr_scan", "ios": "https://dc.lft.to/lastmile_qr_scan"}, "fusion_lon": 0.0, "lat": 38.871998, "type": "electric_scooter", "fusion_lat": 0.0, "bike_id": "2e4ff9c0f7a28e29429444429e6d89a0"}, {"name": "57f54604d8ae20ab7d723aaada11de64", "is_reserved": 0, "is_disabled": 0, "lon": -77.04641366666667, "rental_uris": {"android": "https://dc.lft.to/lastmile_qr_scan", "ios": "https://dc.lft.to/lastmile_qr_scan"}, "fusion_lon": 0.0, "lat": 38.905643166666664, "type": "electric_scooter", "fusion_lat": 0.0, "bike_id": "57f54604d8ae20ab7d723aaada11de64"}, {"name": "332eceb919430de01cfbc6bd0132af19", "is_reserved": 0, "is_disabled": 0, "lon": -76.98322883333333, "rental_uris": {"android": "https://dc.lft.to/lastmile_qr_scan", "ios": "https://dc.lft.to/lastmile_qr_scan"}, "fusion_lon": 0.0, "lat": 38.888154166666666, "type": "electric_scooter", "fusion_lat": 0.0, "bike_id": "332eceb919430de01cfbc6bd0132af19"}, {"name": "d215e39ab3091f3fc36ce3b5de9a2095", "is_reserved": 0, "is_disabled": 0, "lon": -77.01382866666667, "rental_uris": {"android": "https://dc.lft.to/lastmile_qr_scan", "ios": "https://dc.lft.to/lastmile_qr_scan"}, "fusion_lon": 0.0, "lat": 38.9283965, "type": "electric_scooter", "fusion_lat": 0.0, "bike_id": "d215e39ab3091f3fc36ce3b5de9a2095"}, {"name": "c314a28c2fb89aab51427ac3b515dea0", "is_reserved": 0, "is_disabled": 0, "lon": -76.95109733333334, "rental_uris": {"android": "https://dc.lft.to/lastmile_qr_scan", "ios": "https://dc.lft.to/lastmile_qr_scan"}, "fusion_lon": 0.0, "lat": 38.88791966666667, "type": "electric_scooter", "fusion_lat": 0.0, "bike_id": "c314a28c2fb89aab51427ac3b515dea0"}, {"name": "35cc41dc0bfd3dda7f49c4dcb2c87b1a", "is_reserved": 0, "is_disabled": 0, "lon": -77.001983, "rental_uris": {"android": "https://dc.lft.to/lastmile_qr_scan", "ios": "https://dc.lft.to/lastmile_qr_scan"}, "fusion_lon": 0.0, "lat": 38.902421833333335, "type": "electric_scooter", "fusion_lat": 0.0, "bike_id": "35cc41dc0bfd3dda7f49c4dcb2c87b1a"}, {"name": "a9b649d2aba929953a4f6bd78d72cf18", "is_reserved": 0, "is_disabled": 0, "lon": -77.01616866666667, "rental_uris": {"android": "https://dc.lft.to/lastmile_qr_scan", "ios": "https://dc.lft.to/lastmile_qr_scan"}, "fusion_lon": 0.0, "lat": 38.9060565, "type": "electric_scooter", "fusion_lat": 0.0, "bike_id": "a9b649d2aba929953a4f6bd78d72cf18"}, {"name": "cdd6326a0ab92cdcab0272b7388e7e39", "is_reserved": 0, "is_disabled": 0, "lon": -77.0384115, "rental_uris": {"android": "https://dc.lft.to/lastmile_qr_scan", "ios": "https://dc.lft.to/lastmile_qr_scan"}, "fusion_lon": 0.0, "lat": 38.91147133333333, "type": "electric_scooter", "fusion_lat": 0.0, "bike_id": "cdd6326a0ab92cdcab0272b7388e7e39"}, {"name": "5a8f1117a5fa4a143067105467a12569", "is_reserved": 0, "is_disabled": 0, "lon": -77.05192833333334, "rental_uris": {"android": "https://dc.lft.to/lastmile_qr_scan", "ios": "https://dc.lft.to/lastmile_qr_scan"}, "fusion_lon": 0.0, "lat": 38.92543633333333, "type": "electric_scooter", "fusion_lat": 0.0, "bike_id": "5a8f1117a5fa4a143067105467a12569"}, {"name": "f8dede063e466e8987b7813a08bb37ef", "is_reserved": 0, "is_disabled": 0, "lon": -77.02791583333334, "rental_uris": {"android": "https://dc.lft.to/lastmile_qr_scan", "ios": "https://dc.lft.to/lastmile_qr_scan"}, "fusion_lon": 0.0, "lat": 38.961401333333335, "type": "electric_scooter", "fusion_lat": 0.0, "bike_id": "f8dede063e466e8987b7813a08bb37ef"}, {"name": "3de5c892fde9dad4856d7dfff9a858e7", "is_reserved": 0, "is_disabled": 0, "lon": -77.03188183333333, "rental_uris": {"android": "https://dc.lft.to/lastmile_qr_scan", "ios": "https://dc.lft.to/lastmile_qr_scan"}, "fusion_lon": 0.0, "lat": 38.9134715, "type": "electric_scooter", "fusion_lat": 0.0, "bike_id": "3de5c892fde9dad4856d7dfff9a858e7"}, {"name": "966eb6ab0a97a5567599511e4ead760d", "is_reserved": 0, "is_disabled": 0, "lon": -76.97182666666667, "rental_uris": {"android": "https://dc.lft.to/lastmile_qr_scan", "ios": "https://dc.lft.to/lastmile_qr_scan"}, "fusion_lon": 0.0, "lat": 38.9126315, "type": "electric_scooter", "fusion_lat": 0.0, "bike_id": "966eb6ab0a97a5567599511e4ead760d"}, {"name": "40fab69900e66185d33a558da065a22e", "is_reserved": 0, "is_disabled": 0, "lon": -77.03366416666667, "rental_uris": {"android": "https://dc.lft.to/lastmile_qr_scan", "ios": "https://dc.lft.to/lastmile_qr_scan"}, "fusion_lon": 0.0, "lat": 38.9011955, "type": "electric_scooter", "fusion_lat": 0.0, "bike_id": "40fab69900e66185d33a558da065a22e"}, {"name": "d7e09f53e1f84119d3531b61aaaa1cb8", "is_reserved": 0, "is_disabled": 0, "lon": -77.04090983333333, "rental_uris": {"android": "https://dc.lft.to/lastmile_qr_scan", "ios": "https://dc.lft.to/lastmile_qr_scan"}, "fusion_lon": 0.0, "lat": 38.91705116666667, "type": "electric_scooter", "fusion_lat": 0.0, "bike_id": "d7e09f53e1f84119d3531b61aaaa1cb8"}, {"name": "ba7cb969406542f6549c9677be327ef0", "is_reserved": 0, "is_disabled": 0, "lon": -77.04486983333334, "rental_uris": {"android": "https://dc.lft.to/lastmile_qr_scan", "ios": "https://dc.lft.to/lastmile_qr_scan"}, "fusion_lon": 0.0, "lat": 38.9106855, "type": "electric_scooter", "fusion_lat": 0.0, "bike_id": "ba7cb969406542f6549c9677be327ef0"}, {"name": "6a268708dfa2c9ec152f8f0a20ee5ed7", "is_reserved": 0, "is_disabled": 0, "lon": -77.00712466666667, "rental_uris": {"android": "https://dc.lft.to/lastmile_qr_scan", "ios": "https://dc.lft.to/lastmile_qr_scan"}, "fusion_lon": 0.0, "lat": 38.88491616666667, "type": "electric_scooter", "fusion_lat": 0.0, "bike_id": "6a268708dfa2c9ec152f8f0a20ee5ed7"}, {"name": "9a3b697eb5c04adbd3a051840bf65009", "is_reserved": 0, "is_disabled": 0, "lon": -77.04834183333334, "rental_uris": {"android": "https://dc.lft.to/lastmile_qr_scan", "ios": "https://dc.lft.to/lastmile_qr_scan"}, "fusion_lon": 0.0, "lat": 38.91843516666667, "type": "electric_scooter", "fusion_lat": 0.0, "bike_id": "9a3b697eb5c04adbd3a051840bf65009"}, {"name": "e183c03d4ed9e46bdc844c44e4bdf89e", "is_reserved": 0, "is_disabled": 0, "lon": -77.02896233333334, "rental_uris": {"android": "https://dc.lft.to/lastmile_qr_scan", "ios": "https://dc.lft.to/lastmile_qr_scan"}, "fusion_lon": 0.0, "lat": 38.901393, "type": "electric_scooter", "fusion_lat": 0.0, "bike_id": "e183c03d4ed9e46bdc844c44e4bdf89e"}, {"name": "3817394c7e9dd0a977d1e82a74f32a50", "is_reserved": 0, "is_disabled": 0, "lon": -77.04094116666667, "rental_uris": {"android": "https://dc.lft.to/lastmile_qr_scan", "ios": "https://dc.lft.to/lastmile_qr_scan"}, "fusion_lon": 0.0, "lat": 38.92307433333333, "type": "electric_scooter", "fusion_lat": 0.0, "bike_id": "3817394c7e9dd0a977d1e82a74f32a50"}, {"name": "6d97b7312c584714f3a2b777ff21ced7", "is_reserved": 0, "is_disabled": 0, "lon": -77.01337133333334, "rental_uris": {"android": "https://dc.lft.to/lastmile_qr_scan", "ios": "https://dc.lft.to/lastmile_qr_scan"}, "fusion_lon": 0.0, "lat": 38.881373833333335, "type": "electric_scooter", "fusion_lat": 0.0, "bike_id": "6d97b7312c584714f3a2b777ff21ced7"}, {"name": "07a4d6026ed9cc7aa343df4ac75c0c3c", "is_reserved": 0, "is_disabled": 0, "lon": -77.0434755, "rental_uris": {"android": "https://dc.lft.to/lastmile_qr_scan", "ios": "https://dc.lft.to/lastmile_qr_scan"}, "fusion_lon": 0.0, "lat": 38.910545166666665, "type": "electric_scooter", "fusion_lat": 0.0, "bike_id": "07a4d6026ed9cc7aa343df4ac75c0c3c"}, {"name": "b21314935366a47604b10bb9b78667dd", "is_reserved": 0, "is_disabled": 0, "lon": -77.10506716666667, "rental_uris": {"android": "https://dc.lft.to/lastmile_qr_scan", "ios": "https://dc.lft.to/lastmile_qr_scan"}, "fusion_lon": 0.0, "lat": 38.9284865, "type": "electric_bike", "fusion_lat": 0.0, "bike_id": "b21314935366a47604b10bb9b78667dd"}, {"name": "a286805380b23dd026d662bf6a91bf02", "is_reserved": 0, "is_disabled": 0, "lon": -77.02890316666667, "rental_uris": {"android": "https://dc.lft.to/lastmile_qr_scan", "ios": "https://dc.lft.to/lastmile_qr_scan"}, "fusion_lon": 0.0, "lat": 38.901407, "type": "electric_scooter", "fusion_lat": 0.0, "bike_id": "a286805380b23dd026d662bf6a91bf02"}, {"name": "dbcd9c2b242e6bf082069fc664db1041", "is_reserved": 0, "is_disabled": 0, "lon": -77.01593083333333, "rental_uris": {"android": "https://dc.lft.to/lastmile_qr_scan", "ios": "https://dc.lft.to/lastmile_qr_scan"}, "fusion_lon": 0.0, "lat": 38.876911166666666, "type": "electric_scooter", "fusion_lat": 0.0, "bike_id": "dbcd9c2b242e6bf082069fc664db1041"}, {"name": "6747594913654cf1557a5697b27de1c4", "is_reserved": 0, "is_disabled": 0, "lon": -77.0726545, "rental_uris": {"android": "https://dc.lft.to/lastmile_qr_scan", "ios": "https://dc.lft.to/lastmile_qr_scan"}, "fusion_lon": 0.0, "lat": 38.91332833333333, "type": "electric_scooter", "fusion_lat": 0.0, "bike_id": "6747594913654cf1557a5697b27de1c4"}, {"name": "5fe730be8698da4c1ac847d37ef1cd00", "is_reserved": 0, "is_disabled": 0, "lon": -77.042507, "rental_uris": {"android": "https://dc.lft.to/lastmile_qr_scan", "ios": "https://dc.lft.to/lastmile_qr_scan"}, "fusion_lon": 0.0, "lat": 38.91780283333333, "type": "electric_scooter", "fusion_lat": 0.0, "bike_id": "5fe730be8698da4c1ac847d37ef1cd00"}, {"name": "90bbb91267d2007e3fc924df119f16c2", "is_reserved": 0, "is_disabled": 0, "lon": -77.04290883333333, "rental_uris": {"android": "https://dc.lft.to/lastmile_qr_scan", "ios": "https://dc.lft.to/lastmile_qr_scan"}, "fusion_lon": 0.0, "lat": 38.901202833333336, "type": "electric_scooter", "fusion_lat": 0.0, "bike_id": "90bbb91267d2007e3fc924df119f16c2"}, {"name": "50887ac81a4411a2ea9821a9026bc81a", "is_reserved": 0, "is_disabled": 0, "lon": -77.028552, "rental_uris": {"android": "https://dc.lft.to/lastmile_qr_scan", "ios": "https://dc.lft.to/lastmile_qr_scan"}, "fusion_lon": 0.0, "lat": 38.93265066666667, "type": "electric_scooter", "fusion_lat": 0.0, "bike_id": "50887ac81a4411a2ea9821a9026bc81a"}, {"name": "6c25d09567a1ec10a8761f21c1f29f1d", "is_reserved": 0, "is_disabled": 0, "lon": -77.09552033333334, "rental_uris": {"android": "https://dc.lft.to/lastmile_qr_scan", "ios": "https://dc.lft.to/lastmile_qr_scan"}, "fusion_lon": 0.0, "lat": 38.8380945, "type": "electric_bike", "fusion_lat": 0.0, "bike_id": "6c25d09567a1ec10a8761f21c1f29f1d"}, {"name": "f9f4e15f397ff47802efb389892ed0e5", "is_reserved": 0, "is_disabled": 0, "lon": -77.04356416666667, "rental_uris": {"android": "https://dc.lft.to/lastmile_qr_scan", "ios": "https://dc.lft.to/lastmile_qr_scan"}, "fusion_lon": 0.0, "lat": 38.89834783333333, "type": "electric_scooter", "fusion_lat": 0.0, "bike_id": "f9f4e15f397ff47802efb389892ed0e5"}, {"name": "2276ddfcdffc3031faa79cee87f75590", "is_reserved": 0, "is_disabled": 0, "lon": -77.06593216666667, "rental_uris": {"android": "https://dc.lft.to/lastmile_qr_scan", "ios": "https://dc.lft.to/lastmile_qr_scan"}, "fusion_lon": 0.0, "lat": 38.903503, "type": "electric_scooter", "fusion_lat": 0.0, "bike_id": "2276ddfcdffc3031faa79cee87f75590"}, {"name": "cdefa9d5e66bddd646472ed6a26edeb0", "is_reserved": 0, "is_disabled": 0, "lon": -77.01386166666667, "rental_uris": {"android": "https://dc.lft.to/lastmile_qr_scan", "ios": "https://dc.lft.to/lastmile_qr_scan"}, "fusion_lon": 0.0, "lat": 38.919467166666664, "type": "electric_scooter", "fusion_lat": 0.0, "bike_id": "cdefa9d5e66bddd646472ed6a26edeb0"}, {"name": "6bf14720728d61070531ba7f06d16144", "is_reserved": 0, "is_disabled": 0, "lon": -77.06283416666666, "rental_uris": {"android": "https://dc.lft.to/lastmile_qr_scan", "ios": "https://dc.lft.to/lastmile_qr_scan"}, "fusion_lon": 0.0, "lat": 38.90457683333333, "type": "electric_scooter", "fusion_lat": 0.0, "bike_id": "6bf14720728d61070531ba7f06d16144"}, {"name": "dc2308e75c1d219ba7569554539ed022", "is_reserved": 0, "is_disabled": 0, "lon": -76.95758333333333, "rental_uris": {"android": "https://dc.lft.to/lastmile_qr_scan", "ios": "https://dc.lft.to/lastmile_qr_scan"}, "fusion_lon": 0.0, "lat": 38.8843135, "type": "electric_scooter", "fusion_lat": 0.0, "bike_id": "dc2308e75c1d219ba7569554539ed022"}, {"name": "39ebd3669bca723a231aa78d00cae55d", "is_reserved": 0, "is_disabled": 0, "lon": -77.02494316666667, "rental_uris": {"android": "https://dc.lft.to/lastmile_qr_scan", "ios": "https://dc.lft.to/lastmile_qr_scan"}, "fusion_lon": 0.0, "lat": 38.973723, "type": "electric_bike", "fusion_lat": 0.0, "bike_id": "39ebd3669bca723a231aa78d00cae55d"}, {"name": "c434d66bb9db1529dfec6c9b16d9bfb7", "is_reserved": 0, "is_disabled": 0, "lon": -76.9963185, "rental_uris": {"android": "https://dc.lft.to/lastmile_qr_scan", "ios": "https://dc.lft.to/lastmile_qr_scan"}, "fusion_lon": 0.0, "lat": 38.84622016666667, "type": "electric_scooter", "fusion_lat": 0.0, "bike_id": "c434d66bb9db1529dfec6c9b16d9bfb7"}, {"name": "506d51eae116acf978ef91c1d47c94e0", "is_reserved": 0, "is_disabled": 0, "lon": -77.02695483333333, "rental_uris": {"android": "https://dc.lft.to/lastmile_qr_scan", "ios": "https://dc.lft.to/lastmile_qr_scan"}, "fusion_lon": 0.0, "lat": 38.9084565, "type": "electric_scooter", "fusion_lat": 0.0, "bike_id": "506d51eae116acf978ef91c1d47c94e0"}, {"name": "38c8271d0e557ca48183b642a82c9a02", "is_reserved": 0, "is_disabled": 0, "lon": -77.07098933333333, "rental_uris": {"android": "https://dc.lft.to/lastmile_qr_scan", "ios": "https://dc.lft.to/lastmile_qr_scan"}, "fusion_lon": 0.0, "lat": 38.9197595, "type": "electric_scooter", "fusion_lat": 0.0, "bike_id": "38c8271d0e557ca48183b642a82c9a02"}, {"name": "44ba0aece5752f1d8cda0caa364c8302", "is_reserved": 0, "is_disabled": 0, "lon": -76.9671235, "rental_uris": {"android": "https://dc.lft.to/lastmile_qr_scan", "ios": "https://dc.lft.to/lastmile_qr_scan"}, "fusion_lon": 0.0, "lat": 38.86951533333333, "type": "electric_scooter", "fusion_lat": 0.0, "bike_id": "44ba0aece5752f1d8cda0caa364c8302"}, {"name": "8677d0e209cdc7e291b0ab117a584b6a", "is_reserved": 0, "is_disabled": 0, "lon": -77.04834833333334, "rental_uris": {"android": "https://dc.lft.to/lastmile_qr_scan", "ios": "https://dc.lft.to/lastmile_qr_scan"}, "fusion_lon": 0.0, "lat": 38.9052125, "type": "electric_scooter", "fusion_lat": 0.0, "bike_id": "8677d0e209cdc7e291b0ab117a584b6a"}, {"name": "cf3dc8da0bc87d723f7962ae358f2df6", "is_reserved": 0, "is_disabled": 0, "lon": -76.9901665, "rental_uris": {"android": "https://dc.lft.to/lastmile_qr_scan", "ios": "https://dc.lft.to/lastmile_qr_scan"}, "fusion_lon": 0.0, "lat": 38.861191, "type": "electric_scooter", "fusion_lat": 0.0, "bike_id": "cf3dc8da0bc87d723f7962ae358f2df6"}, {"name": "5f3941c18e068836b0c75a5895967e1b", "is_reserved": 0, "is_disabled": 0, "lon": -77.03917683333333, "rental_uris": {"android": "https://dc.lft.to/lastmile_qr_scan", "ios": "https://dc.lft.to/lastmile_qr_scan"}, "fusion_lon": 0.0, "lat": 38.90483116666667, "type": "electric_scooter", "fusion_lat": 0.0, "bike_id": "5f3941c18e068836b0c75a5895967e1b"}, {"name": "53414ea7e682c9a248a0b3c82d925278", "is_reserved": 0, "is_disabled": 0, "lon": -77.04403316666667, "rental_uris": {"android": "https://dc.lft.to/lastmile_qr_scan", "ios": "https://dc.lft.to/lastmile_qr_scan"}, "fusion_lon": 0.0, "lat": 38.8939895, "type": "electric_scooter", "fusion_lat": 0.0, "bike_id": "53414ea7e682c9a248a0b3c82d925278"}, {"name": "51b4dff3ce51162f2fa9e4584ac936ae", "is_reserved": 0, "is_disabled": 0, "lon": -77.0237455, "rental_uris": {"android": "https://dc.lft.to/lastmile_qr_scan", "ios": "https://dc.lft.to/lastmile_qr_scan"}, "fusion_lon": 0.0, "lat": 38.92042683333333, "type": "electric_scooter", "fusion_lat": 0.0, "bike_id": "51b4dff3ce51162f2fa9e4584ac936ae"}, {"name": "92d84aed194043125c993d43ceb22e61", "is_reserved": 0, "is_disabled": 0, "lon": -76.97192983333333, "rental_uris": {"android": "https://dc.lft.to/lastmile_qr_scan", "ios": "https://dc.lft.to/lastmile_qr_scan"}, "fusion_lon": 0.0, "lat": 38.89250466666667, "type": "electric_bike", "fusion_lat": 0.0, "bike_id": "92d84aed194043125c993d43ceb22e61"}, {"name": "2c0344fd6fdbc19051226458985dee01", "is_reserved": 0, "is_disabled": 0, "lon": -77.03182433333333, "rental_uris": {"android": "https://dc.lft.to/lastmile_qr_scan", "ios": "https://dc.lft.to/lastmile_qr_scan"}, "fusion_lon": 0.0, "lat": 38.90952516666667, "type": "electric_scooter", "fusion_lat": 0.0, "bike_id": "2c0344fd6fdbc19051226458985dee01"}, {"name": "861adef3c2c143fe09ce624dd05a115c", "is_reserved": 0, "is_disabled": 0, "lon": -77.03472016666667, "rental_uris": {"android": "https://dc.lft.to/lastmile_qr_scan", "ios": "https://dc.lft.to/lastmile_qr_scan"}, "fusion_lon": 0.0, "lat": 38.928747666666666, "type": "electric_scooter", "fusion_lat": 0.0, "bike_id": "861adef3c2c143fe09ce624dd05a115c"}, {"name": "26b0e6780015682995e52e9a6801ccbb", "is_reserved": 0, "is_disabled": 0, "lon": -77.00567, "rental_uris": {"android": "https://dc.lft.to/lastmile_qr_scan", "ios": "https://dc.lft.to/lastmile_qr_scan"}, "fusion_lon": 0.0, "lat": 38.88505766666667, "type": "electric_scooter", "fusion_lat": 0.0, "bike_id": "26b0e6780015682995e52e9a6801ccbb"}, {"name": "0441636eb124306e80e1dbefc24fd01b", "is_reserved": 0, "is_disabled": 0, "lon": -76.9868905, "rental_uris": {"android": "https://dc.lft.to/lastmile_qr_scan", "ios": "https://dc.lft.to/lastmile_qr_scan"}, "fusion_lon": 0.0, "lat": 38.8852925, "type": "electric_scooter", "fusion_lat": 0.0, "bike_id": "0441636eb124306e80e1dbefc24fd01b"}, {"name": "15ed86000e8e7dd4a98813b5739ff477", "is_reserved": 0, "is_disabled": 0, "lon": -77.02064883333334, "rental_uris": {"android": "https://dc.lft.to/lastmile_qr_scan", "ios": "https://dc.lft.to/lastmile_qr_scan"}, "fusion_lon": 0.0, "lat": 38.904031333333336, "type": "electric_scooter", "fusion_lat": 0.0, "bike_id": "15ed86000e8e7dd4a98813b5739ff477"}, {"name": "e0ff0bf142068e2f7018da58ce91cfa3", "is_reserved": 0, "is_disabled": 0, "lon": -77.01374283333334, "rental_uris": {"android": "https://dc.lft.to/lastmile_qr_scan", "ios": "https://dc.lft.to/lastmile_qr_scan"}, "fusion_lon": 0.0, "lat": 38.89222483333333, "type": "electric_scooter", "fusion_lat": 0.0, "bike_id": "e0ff0bf142068e2f7018da58ce91cfa3"}, {"name": "8a8763eccdd80d62c305fd0f5d5da502", "is_reserved": 0, "is_disabled": 0, "lon": -77.04346383333333, "rental_uris": {"android": "https://dc.lft.to/lastmile_qr_scan", "ios": "https://dc.lft.to/lastmile_qr_scan"}, "fusion_lon": 0.0, "lat": 38.91060566666667, "type": "electric_scooter", "fusion_lat": 0.0, "bike_id": "8a8763eccdd80d62c305fd0f5d5da502"}, {"name": "a009b2da743206b0f1a2bce082d046bb", "is_reserved": 0, "is_disabled": 0, "lon": -76.98919966666666, "rental_uris": {"android": "https://dc.lft.to/lastmile_qr_scan", "ios": "https://dc.lft.to/lastmile_qr_scan"}, "fusion_lon": 0.0, "lat": 38.9002715, "type": "electric_bike", "fusion_lat": 0.0, "bike_id": "a009b2da743206b0f1a2bce082d046bb"}, {"name": "c0a11e243fada9045488a84613bbc3c9", "is_reserved": 0, "is_disabled": 0, "lon": -77.03793566666667, "rental_uris": {"android": "https://dc.lft.to/lastmile_qr_scan", "ios": "https://dc.lft.to/lastmile_qr_scan"}, "fusion_lon": 0.0, "lat": 38.919844, "type": "electric_scooter", "fusion_lat": 0.0, "bike_id": "c0a11e243fada9045488a84613bbc3c9"}, {"name": "92e15ae818e1b2a3c1b822bf107791ad", "is_reserved": 0, "is_disabled": 0, "lon": -76.99055583333333, "rental_uris": {"android": "https://dc.lft.to/lastmile_qr_scan", "ios": "https://dc.lft.to/lastmile_qr_scan"}, "fusion_lon": 0.0, "lat": 38.85898483333333, "type": "electric_scooter", "fusion_lat": 0.0, "bike_id": "92e15ae818e1b2a3c1b822bf107791ad"}, {"name": "ddab4b36986942bfb22bbb77dfe56cae", "is_reserved": 0, "is_disabled": 0, "lon": -77.00201266666667, "rental_uris": {"android": "https://dc.lft.to/lastmile_qr_scan", "ios": "https://dc.lft.to/lastmile_qr_scan"}, "fusion_lon": 0.0, "lat": 38.90299316666667, "type": "electric_scooter", "fusion_lat": 0.0, "bike_id": "ddab4b36986942bfb22bbb77dfe56cae"}, {"name": "92790f60244513f0954e623cbccb0341", "is_reserved": 0, "is_disabled": 0, "lon": -77.017279, "rental_uris": {"android": "https://dc.lft.to/lastmile_qr_scan", "ios": "https://dc.lft.to/lastmile_qr_scan"}, "fusion_lon": 0.0, "lat": 38.87795333333333, "type": "electric_scooter", "fusion_lat": 0.0, "bike_id": "92790f60244513f0954e623cbccb0341"}, {"name": "6abddce4eb7139a4847279259e410831", "is_reserved": 0, "is_disabled": 0, "lon": -76.9547125, "rental_uris": {"android": "https://dc.lft.to/lastmile_qr_scan", "ios": "https://dc.lft.to/lastmile_qr_scan"}, "fusion_lon": 0.0, "lat": 38.93566883333333, "type": "electric_bike", "fusion_lat": 0.0, "bike_id": "6abddce4eb7139a4847279259e410831"}, {"name": "41f27158c0eeb0739d520153ef453056", "is_reserved": 0, "is_disabled": 0, "lon": -77.01994166666667, "rental_uris": {"android": "https://dc.lft.to/lastmile_qr_scan", "ios": "https://dc.lft.to/lastmile_qr_scan"}, "fusion_lon": 0.0, "lat": 38.88373966666666, "type": "electric_scooter", "fusion_lat": 0.0, "bike_id": "41f27158c0eeb0739d520153ef453056"}, {"name": "6d4f67d5152c03b7bd0e9ef1e9133750", "is_reserved": 0, "is_disabled": 0, "lon": -77.04614033333333, "rental_uris": {"android": "https://dc.lft.to/lastmile_qr_scan", "ios": "https://dc.lft.to/lastmile_qr_scan"}, "fusion_lon": 0.0, "lat": 38.91539916666667, "type": "electric_scooter", "fusion_lat": 0.0, "bike_id": "6d4f67d5152c03b7bd0e9ef1e9133750"}, {"name": "72e1d9930c27d97b80ec037eb9f148e1", "is_reserved": 0, "is_disabled": 0, "lon": -76.97730933333334, "rental_uris": {"android": "https://dc.lft.to/lastmile_qr_scan", "ios": "https://dc.lft.to/lastmile_qr_scan"}, "fusion_lon": 0.0, "lat": 38.872943, "type": "electric_scooter", "fusion_lat": 0.0, "bike_id": "72e1d9930c27d97b80ec037eb9f148e1"}, {"name": "7a708f2c0ac5f47b704c8385afedcbb7", "is_reserved": 0, "is_disabled": 0, "lon": -77.07228883333333, "rental_uris": {"android": "https://dc.lft.to/lastmile_qr_scan", "ios": "https://dc.lft.to/lastmile_qr_scan"}, "fusion_lon": 0.0, "lat": 38.93456166666667, "type": "electric_scooter", "fusion_lat": 0.0, "bike_id": "7a708f2c0ac5f47b704c8385afedcbb7"}, {"name": "18467f32377afa6c309f870eba5dd8b3", "is_reserved": 0, "is_disabled": 0, "lon": -76.99478816666667, "rental_uris": {"android": "https://dc.lft.to/lastmile_qr_scan", "ios": "https://dc.lft.to/lastmile_qr_scan"}, "fusion_lon": 0.0, "lat": 38.86216566666667, "type": "electric_scooter", "fusion_lat": 0.0, "bike_id": "18467f32377afa6c309f870eba5dd8b3"}, {"name": "32c8c7857a8ee68db70e15eeb6b9f9a5", "is_reserved": 0, "is_disabled": 0, "lon": -76.97617166666667, "rental_uris": {"android": "https://dc.lft.to/lastmile_qr_scan", "ios": "https://dc.lft.to/lastmile_qr_scan"}, "fusion_lon": 0.0, "lat": 38.931415, "type": "electric_scooter", "fusion_lat": 0.0, "bike_id": "32c8c7857a8ee68db70e15eeb6b9f9a5"}, {"name": "ff2ea43db22b3857bf20e22f04aeed14", "is_reserved": 0, "is_disabled": 0, "lon": -77.02682383333334, "rental_uris": {"android": "https://dc.lft.to/lastmile_qr_scan", "ios": "https://dc.lft.to/lastmile_qr_scan"}, "fusion_lon": 0.0, "lat": 38.903579666666666, "type": "electric_scooter", "fusion_lat": 0.0, "bike_id": "ff2ea43db22b3857bf20e22f04aeed14"}, {"name": "4809115c60ff636ba890695c3875ca31", "is_reserved": 0, "is_disabled": 0, "lon": -77.052651, "rental_uris": {"android": "https://dc.lft.to/lastmile_qr_scan", "ios": "https://dc.lft.to/lastmile_qr_scan"}, "fusion_lon": 0.0, "lat": 38.89836183333333, "type": "electric_scooter", "fusion_lat": 0.0, "bike_id": "4809115c60ff636ba890695c3875ca31"}, {"name": "e24bf1382e25a0a7183715f6aa748c3d", "is_reserved": 0, "is_disabled": 0, "lon": -77.03845333333334, "rental_uris": {"android": "https://dc.lft.to/lastmile_qr_scan", "ios": "https://dc.lft.to/lastmile_qr_scan"}, "fusion_lon": 0.0, "lat": 38.91209716666667, "type": "electric_scooter", "fusion_lat": 0.0, "bike_id": "e24bf1382e25a0a7183715f6aa748c3d"}, {"name": "a5bded6e6ce8ffabb61c25dfe664f01b", "is_reserved": 0, "is_disabled": 0, "lon": -77.01501116666667, "rental_uris": {"android": "https://dc.lft.to/lastmile_qr_scan", "ios": "https://dc.lft.to/lastmile_qr_scan"}, "fusion_lon": 0.0, "lat": 38.8992465, "type": "electric_scooter", "fusion_lat": 0.0, "bike_id": "a5bded6e6ce8ffabb61c25dfe664f01b"}, {"name": "afb50c35cf86abb3b39f07e98e88164d", "is_reserved": 0, "is_disabled": 0, "lon": -77.1122395, "rental_uris": {"android": "https://dc.lft.to/lastmile_qr_scan", "ios": "https://dc.lft.to/lastmile_qr_scan"}, "fusion_lon": 0.0, "lat": 38.82872483333333, "type": "electric_bike", "fusion_lat": 0.0, "bike_id": "afb50c35cf86abb3b39f07e98e88164d"}, {"name": "85026cfb4667ded417a754af19e79dd8", "is_reserved": 0, "is_disabled": 0, "lon": -76.99949966666667, "rental_uris": {"android": "https://dc.lft.to/lastmile_qr_scan", "ios": "https://dc.lft.to/lastmile_qr_scan"}, "fusion_lon": 0.0, "lat": 38.908647333333334, "type": "electric_scooter", "fusion_lat": 0.0, "bike_id": "85026cfb4667ded417a754af19e79dd8"}, {"name": "0d2fcf6d111e25693951c5ae64d287f6", "is_reserved": 0, "is_disabled": 0, "lon": -76.93161533333334, "rental_uris": {"android": "https://dc.lft.to/lastmile_qr_scan", "ios": "https://dc.lft.to/lastmile_qr_scan"}, "fusion_lon": 0.0, "lat": 38.8987995, "type": "electric_scooter", "fusion_lat": 0.0, "bike_id": "0d2fcf6d111e25693951c5ae64d287f6"}, {"name": "0584df00ff236a8ea66ce8bbac387613", "is_reserved": 0, "is_disabled": 0, "lon": -77.02532833333333, "rental_uris": {"android": "https://dc.lft.to/lastmile_qr_scan", "ios": "https://dc.lft.to/lastmile_qr_scan"}, "fusion_lon": 0.0, "lat": 38.90570533333333, "type": "electric_scooter", "fusion_lat": 0.0, "bike_id": "0584df00ff236a8ea66ce8bbac387613"}, {"name": "dc2a7ad8059891e36eb1c7054d554533", "is_reserved": 0, "is_disabled": 0, "lon": -77.0000305, "rental_uris": {"android": "https://dc.lft.to/lastmile_qr_scan", "ios": "https://dc.lft.to/lastmile_qr_scan"}, "fusion_lon": 0.0, "lat": 38.9002905, "type": "electric_scooter", "fusion_lat": 0.0, "bike_id": "dc2a7ad8059891e36eb1c7054d554533"}, {"name": "8a260ec70d1ceb0cfe65b0b34b5dda73", "is_reserved": 0, "is_disabled": 0, "lon": -77.0033975, "rental_uris": {"android": "https://dc.lft.to/lastmile_qr_scan", "ios": "https://dc.lft.to/lastmile_qr_scan"}, "fusion_lon": 0.0, "lat": 38.8950665, "type": "electric_scooter", "fusion_lat": 0.0, "bike_id": "8a260ec70d1ceb0cfe65b0b34b5dda73"}, {"name": "961adc68d7bde28d185754ae01d4b81b", "is_reserved": 0, "is_disabled": 0, "lon": -76.8749485, "rental_uris": {"android": "https://dc.lft.to/lastmile_qr_scan", "ios": "https://dc.lft.to/lastmile_qr_scan"}, "fusion_lon": 0.0, "lat": 38.99091133333334, "type": "electric_bike", "fusion_lat": 0.0, "bike_id": "961adc68d7bde28d185754ae01d4b81b"}, {"name": "aaaeb89032878536aec41780f873c904", "is_reserved": 0, "is_disabled": 0, "lon": -77.00772516666666, "rental_uris": {"android": "https://dc.lft.to/lastmile_qr_scan", "ios": "https://dc.lft.to/lastmile_qr_scan"}, "fusion_lon": 0.0, "lat": 38.90051, "type": "electric_scooter", "fusion_lat": 0.0, "bike_id": "aaaeb89032878536aec41780f873c904"}, {"name": "190388781f70a116faf3b9635149e76c", "is_reserved": 0, "is_disabled": 0, "lon": -77.02154866666666, "rental_uris": {"android": "https://dc.lft.to/lastmile_qr_scan", "ios": "https://dc.lft.to/lastmile_qr_scan"}, "fusion_lon": 0.0, "lat": 38.92604, "type": "electric_scooter", "fusion_lat": 0.0, "bike_id": "190388781f70a116faf3b9635149e76c"}, {"name": "50bc44048069d734d14db3d158898b04", "is_reserved": 0, "is_disabled": 0, "lon": -77.04005166666667, "rental_uris": {"android": "https://dc.lft.to/lastmile_qr_scan", "ios": "https://dc.lft.to/lastmile_qr_scan"}, "fusion_lon": 0.0, "lat": 38.905864666666666, "type": "electric_scooter", "fusion_lat": 0.0, "bike_id": "50bc44048069d734d14db3d158898b04"}, {"name": "0ef80796b04d636437f0c8d2b26716cd", "is_reserved": 0, "is_disabled": 0, "lon": -76.99211433333333, "rental_uris": {"android": "https://dc.lft.to/lastmile_qr_scan", "ios": "https://dc.lft.to/lastmile_qr_scan"}, "fusion_lon": 0.0, "lat": 38.89518833333333, "type": "electric_scooter", "fusion_lat": 0.0, "bike_id": "0ef80796b04d636437f0c8d2b26716cd"}, {"name": "37fc22ad5ddc4f17b9f04a14d330d392", "is_reserved": 0, "is_disabled": 0, "lon": -77.02671416666666, "rental_uris": {"android": "https://dc.lft.to/lastmile_qr_scan", "ios": "https://dc.lft.to/lastmile_qr_scan"}, "fusion_lon": 0.0, "lat": 38.954871, "type": "electric_bike", "fusion_lat": 0.0, "bike_id": "37fc22ad5ddc4f17b9f04a14d330d392"}, {"name": "652446795af6e08b2fdbdea20977647f", "is_reserved": 0, "is_disabled": 0, "lon": -77.03182716666667, "rental_uris": {"android": "https://dc.lft.to/lastmile_qr_scan", "ios": "https://dc.lft.to/lastmile_qr_scan"}, "fusion_lon": 0.0, "lat": 38.886633333333336, "type": "electric_scooter", "fusion_lat": 0.0, "bike_id": "652446795af6e08b2fdbdea20977647f"}, {"name": "9fd2e548bddc1f91569d25a144ca03d1", "is_reserved": 0, "is_disabled": 0, "lon": -77.01559266666666, "rental_uris": {"android": "https://dc.lft.to/lastmile_qr_scan", "ios": "https://dc.lft.to/lastmile_qr_scan"}, "fusion_lon": 0.0, "lat": 38.91371216666667, "type": "electric_scooter", "fusion_lat": 0.0, "bike_id": "9fd2e548bddc1f91569d25a144ca03d1"}, {"name": "a6d67130a23297bebe2786d95781f01e", "is_reserved": 0, "is_disabled": 0, "lon": -77.04163083333333, "rental_uris": {"android": "https://dc.lft.to/lastmile_qr_scan", "ios": "https://dc.lft.to/lastmile_qr_scan"}, "fusion_lon": 0.0, "lat": 38.907274666666666, "type": "electric_scooter", "fusion_lat": 0.0, "bike_id": "a6d67130a23297bebe2786d95781f01e"}, {"name": "58a5d1f94cc43357a042a4b45dbaa2df", "is_reserved": 0, "is_disabled": 0, "lon": -77.07427283333334, "rental_uris": {"android": "https://dc.lft.to/lastmile_qr_scan", "ios": "https://dc.lft.to/lastmile_qr_scan"}, "fusion_lon": 0.0, "lat": 38.91094966666667, "type": "electric_scooter", "fusion_lat": 0.0, "bike_id": "58a5d1f94cc43357a042a4b45dbaa2df"}, {"name": "82de3cfcbcf4e9d40af8f7b9b93e566f", "is_reserved": 0, "is_disabled": 0, "lon": -77.03186883333333, "rental_uris": {"android": "https://dc.lft.to/lastmile_qr_scan", "ios": "https://dc.lft.to/lastmile_qr_scan"}, "fusion_lon": 0.0, "lat": 38.907765, "type": "electric_scooter", "fusion_lat": 0.0, "bike_id": "82de3cfcbcf4e9d40af8f7b9b93e566f"}, {"name": "5a003dc561ddb261bcd9dc1616093bee", "is_reserved": 0, "is_disabled": 0, "lon": -77.04603533333334, "rental_uris": {"android": "https://dc.lft.to/lastmile_qr_scan", "ios": "https://dc.lft.to/lastmile_qr_scan"}, "fusion_lon": 0.0, "lat": 38.910618666666664, "type": "electric_scooter", "fusion_lat": 0.0, "bike_id": "5a003dc561ddb261bcd9dc1616093bee"}, {"name": "3e5558ea13834778637e849e8c191881", "is_reserved": 0, "is_disabled": 0, "lon": -77.03166483333334, "rental_uris": {"android": "https://dc.lft.to/lastmile_qr_scan", "ios": "https://dc.lft.to/lastmile_qr_scan"}, "fusion_lon": 0.0, "lat": 38.91270433333333, "type": "electric_scooter", "fusion_lat": 0.0, "bike_id": "3e5558ea13834778637e849e8c191881"}, {"name": "626295f388b1035ccde3dfb740f1bba6", "is_reserved": 0, "is_disabled": 0, "lon": -77.00917983333333, "rental_uris": {"android": "https://dc.lft.to/lastmile_qr_scan", "ios": "https://dc.lft.to/lastmile_qr_scan"}, "fusion_lon": 0.0, "lat": 38.954726, "type": "electric_scooter", "fusion_lat": 0.0, "bike_id": "626295f388b1035ccde3dfb740f1bba6"}, {"name": "72976d24c27c8aebec3053f8cfa9f389", "is_reserved": 0, "is_disabled": 0, "lon": -76.993886, "rental_uris": {"android": "https://dc.lft.to/lastmile_qr_scan", "ios": "https://dc.lft.to/lastmile_qr_scan"}, "fusion_lon": 0.0, "lat": 38.8845155, "type": "electric_scooter", "fusion_lat": 0.0, "bike_id": "72976d24c27c8aebec3053f8cfa9f389"}, {"name": "bccf2e7d8f94e576b20b769c4215e520", "is_reserved": 0, "is_disabled": 0, "lon": -77.02231766666667, "rental_uris": {"android": "https://dc.lft.to/lastmile_qr_scan", "ios": "https://dc.lft.to/lastmile_qr_scan"}, "fusion_lon": 0.0, "lat": 38.88770366666667, "type": "electric_scooter", "fusion_lat": 0.0, "bike_id": "bccf2e7d8f94e576b20b769c4215e520"}, {"name": "e3e7864ec3e0a6a8715dc832061a257e", "is_reserved": 0, "is_disabled": 0, "lon": -77.02106516666667, "rental_uris": {"android": "https://dc.lft.to/lastmile_qr_scan", "ios": "https://dc.lft.to/lastmile_qr_scan"}, "fusion_lon": 0.0, "lat": 39.0229715, "type": "electric_bike", "fusion_lat": 0.0, "bike_id": "e3e7864ec3e0a6a8715dc832061a257e"}, {"name": "b743c0423f22871a27c430031d1be0b4", "is_reserved": 0, "is_disabled": 0, "lon": -77.062584, "rental_uris": {"android": "https://dc.lft.to/lastmile_qr_scan", "ios": "https://dc.lft.to/lastmile_qr_scan"}, "fusion_lon": 0.0, "lat": 38.905227833333335, "type": "electric_scooter", "fusion_lat": 0.0, "bike_id": "b743c0423f22871a27c430031d1be0b4"}, {"name": "1e8c57fcbc9735f8cb5affbc71292b20", "is_reserved": 0, "is_disabled": 0, "lon": -77.04674116666666, "rental_uris": {"android": "https://dc.lft.to/lastmile_qr_scan", "ios": "https://dc.lft.to/lastmile_qr_scan"}, "fusion_lon": 0.0, "lat": 38.89554483333333, "type": "electric_scooter", "fusion_lat": 0.0, "bike_id": "1e8c57fcbc9735f8cb5affbc71292b20"}, {"name": "186040af98d41aa86bb1352a126694ee", "is_reserved": 0, "is_disabled": 0, "lon": -77.047816, "rental_uris": {"android": "https://dc.lft.to/lastmile_qr_scan", "ios": "https://dc.lft.to/lastmile_qr_scan"}, "fusion_lon": 0.0, "lat": 38.9051495, "type": "electric_scooter", "fusion_lat": 0.0, "bike_id": "186040af98d41aa86bb1352a126694ee"}, {"name": "c159979352ba6f87cc8da153446c1778", "is_reserved": 0, "is_disabled": 0, "lon": -77.04234816666667, "rental_uris": {"android": "https://dc.lft.to/lastmile_qr_scan", "ios": "https://dc.lft.to/lastmile_qr_scan"}, "fusion_lon": 0.0, "lat": 38.9097635, "type": "electric_scooter", "fusion_lat": 0.0, "bike_id": "c159979352ba6f87cc8da153446c1778"}, {"name": "d5d7248648963b87cd991a50b05a74f8", "is_reserved": 0, "is_disabled": 0, "lon": -77.043788, "rental_uris": {"android": "https://dc.lft.to/lastmile_qr_scan", "ios": "https://dc.lft.to/lastmile_qr_scan"}, "fusion_lon": 0.0, "lat": 38.91657633333333, "type": "electric_scooter", "fusion_lat": 0.0, "bike_id": "d5d7248648963b87cd991a50b05a74f8"}, {"name": "3e86474d2a628817605d7cbd632c6f21", "is_reserved": 0, "is_disabled": 0, "lon": -77.03978083333334, "rental_uris": {"android": "https://dc.lft.to/lastmile_qr_scan", "ios": "https://dc.lft.to/lastmile_qr_scan"}, "fusion_lon": 0.0, "lat": 38.909217, "type": "electric_scooter", "fusion_lat": 0.0, "bike_id": "3e86474d2a628817605d7cbd632c6f21"}, {"name": "06fd7da9f7dfc14ba81120e505d10e24", "is_reserved": 0, "is_disabled": 0, "lon": -77.00584333333333, "rental_uris": {"android": "https://dc.lft.to/lastmile_qr_scan", "ios": "https://dc.lft.to/lastmile_qr_scan"}, "fusion_lon": 0.0, "lat": 38.885333, "type": "electric_scooter", "fusion_lat": 0.0, "bike_id": "06fd7da9f7dfc14ba81120e505d10e24"}, {"name": "43393f6a8a6b38ba2778fcd1fdccad4e", "is_reserved": 0, "is_disabled": 0, "lon": -77.06026916666667, "rental_uris": {"android": "https://dc.lft.to/lastmile_qr_scan", "ios": "https://dc.lft.to/lastmile_qr_scan"}, "fusion_lon": 0.0, "lat": 38.939411666666665, "type": "electric_scooter", "fusion_lat": 0.0, "bike_id": "43393f6a8a6b38ba2778fcd1fdccad4e"}, {"name": "406fab9eec6a9e91075e60277ad32462", "is_reserved": 0, "is_disabled": 0, "lon": -77.12898533333333, "rental_uris": {"android": "https://dc.lft.to/lastmile_qr_scan", "ios": "https://dc.lft.to/lastmile_qr_scan"}, "fusion_lon": 0.0, "lat": 38.86378166666667, "type": "electric_bike", "fusion_lat": 0.0, "bike_id": "406fab9eec6a9e91075e60277ad32462"}, {"name": "c33037effc3776a2177ed1763b358c29", "is_reserved": 0, "is_disabled": 0, "lon": -77.006046, "rental_uris": {"android": "https://dc.lft.to/lastmile_qr_scan", "ios": "https://dc.lft.to/lastmile_qr_scan"}, "fusion_lon": 0.0, "lat": 38.88378816666667, "type": "electric_scooter", "fusion_lat": 0.0, "bike_id": "c33037effc3776a2177ed1763b358c29"}, {"name": "107204c206cd53686fdfb547c99a0bd0", "is_reserved": 0, "is_disabled": 0, "lon": -77.03281666666666, "rental_uris": {"android": "https://dc.lft.to/lastmile_qr_scan", "ios": "https://dc.lft.to/lastmile_qr_scan"}, "fusion_lon": 0.0, "lat": 38.93450716666667, "type": "electric_scooter", "fusion_lat": 0.0, "bike_id": "107204c206cd53686fdfb547c99a0bd0"}, {"name": "3488c616bfc889901b9c2c3fa588ee04", "is_reserved": 0, "is_disabled": 0, "lon": -77.04403966666666, "rental_uris": {"android": "https://dc.lft.to/lastmile_qr_scan", "ios": "https://dc.lft.to/lastmile_qr_scan"}, "fusion_lon": 0.0, "lat": 38.92950183333333, "type": "electric_scooter", "fusion_lat": 0.0, "bike_id": "3488c616bfc889901b9c2c3fa588ee04"}, {"name": "0fba54163873bbb85ea91cf66e02bedd", "is_reserved": 0, "is_disabled": 0, "lon": -77.03190166666667, "rental_uris": {"android": "https://dc.lft.to/lastmile_qr_scan", "ios": "https://dc.lft.to/lastmile_qr_scan"}, "fusion_lon": 0.0, "lat": 38.92915516666667, "type": "electric_scooter", "fusion_lat": 0.0, "bike_id": "0fba54163873bbb85ea91cf66e02bedd"}, {"name": "7b9fca8475e63899a61c41a47017eca3", "is_reserved": 0, "is_disabled": 0, "lon": -77.00183183333333, "rental_uris": {"android": "https://dc.lft.to/lastmile_qr_scan", "ios": "https://dc.lft.to/lastmile_qr_scan"}, "fusion_lon": 0.0, "lat": 38.900340666666665, "type": "electric_scooter", "fusion_lat": 0.0, "bike_id": "7b9fca8475e63899a61c41a47017eca3"}, {"name": "8f9b546ecf51a87d161d8d694a1ab605", "is_reserved": 0, "is_disabled": 0, "lon": -76.97428116666667, "rental_uris": {"android": "https://dc.lft.to/lastmile_qr_scan", "ios": "https://dc.lft.to/lastmile_qr_scan"}, "fusion_lon": 0.0, "lat": 38.86421, "type": "electric_scooter", "fusion_lat": 0.0, "bike_id": "8f9b546ecf51a87d161d8d694a1ab605"}, {"name": "0791737c3c78a64243762f3a2445b362", "is_reserved": 0, "is_disabled": 0, "lon": -77.02049733333334, "rental_uris": {"android": "https://dc.lft.to/lastmile_qr_scan", "ios": "https://dc.lft.to/lastmile_qr_scan"}, "fusion_lon": 0.0, "lat": 38.941232166666666, "type": "electric_scooter", "fusion_lat": 0.0, "bike_id": "0791737c3c78a64243762f3a2445b362"}, {"name": "78e243ae490b03117982107b8d177d6c", "is_reserved": 0, "is_disabled": 0, "lon": -77.03810533333333, "rental_uris": {"android": "https://dc.lft.to/lastmile_qr_scan", "ios": "https://dc.lft.to/lastmile_qr_scan"}, "fusion_lon": 0.0, "lat": 38.90682233333333, "type": "electric_scooter", "fusion_lat": 0.0, "bike_id": "78e243ae490b03117982107b8d177d6c"}, {"name": "8d3c2dd06b94a8292f87ca7cd252a05f", "is_reserved": 0, "is_disabled": 0, "lon": -77.04347316666667, "rental_uris": {"android": "https://dc.lft.to/lastmile_qr_scan", "ios": "https://dc.lft.to/lastmile_qr_scan"}, "fusion_lon": 0.0, "lat": 38.92316683333333, "type": "electric_scooter", "fusion_lat": 0.0, "bike_id": "8d3c2dd06b94a8292f87ca7cd252a05f"}, {"name": "7446bc22fb04dabb4126352305010100", "is_reserved": 0, "is_disabled": 0, "lon": -77.031458, "rental_uris": {"android": "https://dc.lft.to/lastmile_qr_scan", "ios": "https://dc.lft.to/lastmile_qr_scan"}, "fusion_lon": 0.0, "lat": 38.927253, "type": "electric_scooter", "fusion_lat": 0.0, "bike_id": "7446bc22fb04dabb4126352305010100"}, {"name": "34c0d68b2d622ff101d0ef0104077e65", "is_reserved": 0, "is_disabled": 0, "lon": -77.0253795, "rental_uris": {"android": "https://dc.lft.to/lastmile_qr_scan", "ios": "https://dc.lft.to/lastmile_qr_scan"}, "fusion_lon": 0.0, "lat": 38.924022666666666, "type": "electric_scooter", "fusion_lat": 0.0, "bike_id": "34c0d68b2d622ff101d0ef0104077e65"}, {"name": "e62c05f1cc2086edbf2738a15b7c3ea4", "is_reserved": 0, "is_disabled": 0, "lon": -77.00720616666666, "rental_uris": {"android": "https://dc.lft.to/lastmile_qr_scan", "ios": "https://dc.lft.to/lastmile_qr_scan"}, "fusion_lon": 0.0, "lat": 38.87658883333334, "type": "electric_scooter", "fusion_lat": 0.0, "bike_id": "e62c05f1cc2086edbf2738a15b7c3ea4"}, {"name": "8ca5a8dd12a3b764be7c42a06bb90cf9", "is_reserved": 0, "is_disabled": 0, "lon": -77.02656133333333, "rental_uris": {"android": "https://dc.lft.to/lastmile_qr_scan", "ios": "https://dc.lft.to/lastmile_qr_scan"}, "fusion_lon": 0.0, "lat": 38.881102, "type": "electric_scooter", "fusion_lat": 0.0, "bike_id": "8ca5a8dd12a3b764be7c42a06bb90cf9"}, {"name": "0c8bc8b63b52a6e0e5659494f92a17d9", "is_reserved": 0, "is_disabled": 0, "lon": -76.98182383333334, "rental_uris": {"android": "https://dc.lft.to/lastmile_qr_scan", "ios": "https://dc.lft.to/lastmile_qr_scan"}, "fusion_lon": 0.0, "lat": 38.98499566666667, "type": "electric_bike", "fusion_lat": 0.0, "bike_id": "0c8bc8b63b52a6e0e5659494f92a17d9"}, {"name": "b44d4f8e5cede7247a782d1720fd2658", "is_reserved": 0, "is_disabled": 0, "lon": -76.997886, "rental_uris": {"android": "https://dc.lft.to/lastmile_qr_scan", "ios": "https://dc.lft.to/lastmile_qr_scan"}, "fusion_lon": 0.0, "lat": 38.95329733333333, "type": "electric_scooter", "fusion_lat": 0.0, "bike_id": "b44d4f8e5cede7247a782d1720fd2658"}, {"name": "74d7a20248c0d8507d119b41389eb545", "is_reserved": 0, "is_disabled": 0, "lon": -77.02688833333333, "rental_uris": {"android": "https://dc.lft.to/lastmile_qr_scan", "ios": "https://dc.lft.to/lastmile_qr_scan"}, "fusion_lon": 0.0, "lat": 38.9097195, "type": "electric_scooter", "fusion_lat": 0.0, "bike_id": "74d7a20248c0d8507d119b41389eb545"}, {"name": "92852f69aa87b52c50f5043c01342395", "is_reserved": 0, "is_disabled": 0, "lon": -77.03859333333334, "rental_uris": {"android": "https://dc.lft.to/lastmile_qr_scan", "ios": "https://dc.lft.to/lastmile_qr_scan"}, "fusion_lon": 0.0, "lat": 38.918064, "type": "electric_scooter", "fusion_lat": 0.0, "bike_id": "92852f69aa87b52c50f5043c01342395"}, {"name": "2e5cdc1bc0c5680d4214c6348fd8dbb7", "is_reserved": 0, "is_disabled": 0, "lon": -77.03266233333333, "rental_uris": {"android": "https://dc.lft.to/lastmile_qr_scan", "ios": "https://dc.lft.to/lastmile_qr_scan"}, "fusion_lon": 0.0, "lat": 38.93213683333333, "type": "electric_scooter", "fusion_lat": 0.0, "bike_id": "2e5cdc1bc0c5680d4214c6348fd8dbb7"}, {"name": "daa6ac2e1077e739a160e39c33e65daf", "is_reserved": 0, "is_disabled": 0, "lon": -77.01229416666666, "rental_uris": {"android": "https://dc.lft.to/lastmile_qr_scan", "ios": "https://dc.lft.to/lastmile_qr_scan"}, "fusion_lon": 0.0, "lat": 38.893384833333336, "type": "electric_scooter", "fusion_lat": 0.0, "bike_id": "daa6ac2e1077e739a160e39c33e65daf"}, {"name": "90d4c920d744289c8d4e8ed3d4775d22", "is_reserved": 0, "is_disabled": 0, "lon": -76.99738516666666, "rental_uris": {"android": "https://dc.lft.to/lastmile_qr_scan", "ios": "https://dc.lft.to/lastmile_qr_scan"}, "fusion_lon": 0.0, "lat": 38.9203925, "type": "electric_scooter", "fusion_lat": 0.0, "bike_id": "90d4c920d744289c8d4e8ed3d4775d22"}, {"name": "b7faa2ac8a9868bd5c66e3672b79e7e0", "is_reserved": 0, "is_disabled": 0, "lon": -76.9948755, "rental_uris": {"android": "https://dc.lft.to/lastmile_qr_scan", "ios": "https://dc.lft.to/lastmile_qr_scan"}, "fusion_lon": 0.0, "lat": 38.899875333333334, "type": "electric_scooter", "fusion_lat": 0.0, "bike_id": "b7faa2ac8a9868bd5c66e3672b79e7e0"}, {"name": "1de402db4e81ef09dd8fffbf66f563ce", "is_reserved": 0, "is_disabled": 0, "lon": -77.0180105, "rental_uris": {"android": "https://dc.lft.to/lastmile_qr_scan", "ios": "https://dc.lft.to/lastmile_qr_scan"}, "fusion_lon": 0.0, "lat": 38.989908, "type": "electric_bike", "fusion_lat": 0.0, "bike_id": "1de402db4e81ef09dd8fffbf66f563ce"}, {"name": "eb5e9767c9e1704e1252cd5ee93df28d", "is_reserved": 0, "is_disabled": 0, "lon": -77.05996466666667, "rental_uris": {"android": "https://dc.lft.to/lastmile_qr_scan", "ios": "https://dc.lft.to/lastmile_qr_scan"}, "fusion_lon": 0.0, "lat": 38.912009166666664, "type": "electric_scooter", "fusion_lat": 0.0, "bike_id": "eb5e9767c9e1704e1252cd5ee93df28d"}, {"name": "15d98e06d200d51424ad0c56f486e380", "is_reserved": 0, "is_disabled": 0, "lon": -77.03638416666666, "rental_uris": {"android": "https://dc.lft.to/lastmile_qr_scan", "ios": "https://dc.lft.to/lastmile_qr_scan"}, "fusion_lon": 0.0, "lat": 38.9316825, "type": "electric_scooter", "fusion_lat": 0.0, "bike_id": "15d98e06d200d51424ad0c56f486e380"}, {"name": "dbde8e028bb25df6783991aede0b3ea1", "is_reserved": 0, "is_disabled": 0, "lon": -77.0529455, "rental_uris": {"android": "https://dc.lft.to/lastmile_qr_scan", "ios": "https://dc.lft.to/lastmile_qr_scan"}, "fusion_lon": 0.0, "lat": 38.9169385, "type": "electric_scooter", "fusion_lat": 0.0, "bike_id": "dbde8e028bb25df6783991aede0b3ea1"}, {"name": "625603ce4684cbe3f70eceb92d13eec0", "is_reserved": 0, "is_disabled": 0, "lon": -77.02697516666667, "rental_uris": {"android": "https://dc.lft.to/lastmile_qr_scan", "ios": "https://dc.lft.to/lastmile_qr_scan"}, "fusion_lon": 0.0, "lat": 38.908559, "type": "electric_scooter", "fusion_lat": 0.0, "bike_id": "625603ce4684cbe3f70eceb92d13eec0"}, {"name": "c641a1bb71f4bb17888d09afec127aa6", "is_reserved": 0, "is_disabled": 0, "lon": -77.04051816666667, "rental_uris": {"android": "https://dc.lft.to/lastmile_qr_scan", "ios": "https://dc.lft.to/lastmile_qr_scan"}, "fusion_lon": 0.0, "lat": 38.901558, "type": "electric_scooter", "fusion_lat": 0.0, "bike_id": "c641a1bb71f4bb17888d09afec127aa6"}, {"name": "8630f314d63ecbcacbfb7a4487574946", "is_reserved": 0, "is_disabled": 0, "lon": -77.02401816666666, "rental_uris": {"android": "https://dc.lft.to/lastmile_qr_scan", "ios": "https://dc.lft.to/lastmile_qr_scan"}, "fusion_lon": 0.0, "lat": 38.89888916666666, "type": "electric_scooter", "fusion_lat": 0.0, "bike_id": "8630f314d63ecbcacbfb7a4487574946"}, {"name": "e8b7aef571cc8ad06398001e8370b4bd", "is_reserved": 0, "is_disabled": 0, "lon": -76.94766666666666, "rental_uris": {"android": "https://dc.lft.to/lastmile_qr_scan", "ios": "https://dc.lft.to/lastmile_qr_scan"}, "fusion_lon": 0.0, "lat": 38.89671233333333, "type": "electric_scooter", "fusion_lat": 0.0, "bike_id": "e8b7aef571cc8ad06398001e8370b4bd"}, {"name": "5e484e2f54e7cb79238c8d9b0ec9b00f", "is_reserved": 0, "is_disabled": 0, "lon": -77.03640566666667, "rental_uris": {"android": "https://dc.lft.to/lastmile_qr_scan", "ios": "https://dc.lft.to/lastmile_qr_scan"}, "fusion_lon": 0.0, "lat": 38.9161995, "type": "electric_scooter", "fusion_lat": 0.0, "bike_id": "5e484e2f54e7cb79238c8d9b0ec9b00f"}, {"name": "bb95eaed1ad2ab9a2f38f552d16dd478", "is_reserved": 0, "is_disabled": 0, "lon": -77.00205066666666, "rental_uris": {"android": "https://dc.lft.to/lastmile_qr_scan", "ios": "https://dc.lft.to/lastmile_qr_scan"}, "fusion_lon": 0.0, "lat": 38.89498283333333, "type": "electric_scooter", "fusion_lat": 0.0, "bike_id": "bb95eaed1ad2ab9a2f38f552d16dd478"}, {"name": "a241010f5903ea45d20e43e70f92fc59", "is_reserved": 0, "is_disabled": 0, "lon": -77.00191066666666, "rental_uris": {"android": "https://dc.lft.to/lastmile_qr_scan", "ios": "https://dc.lft.to/lastmile_qr_scan"}, "fusion_lon": 0.0, "lat": 38.902884666666665, "type": "electric_scooter", "fusion_lat": 0.0, "bike_id": "a241010f5903ea45d20e43e70f92fc59"}, {"name": "d42f01fcdc1521bb7c46b8fe08dcc5b8", "is_reserved": 0, "is_disabled": 0, "lon": -77.03178216666667, "rental_uris": {"android": "https://dc.lft.to/lastmile_qr_scan", "ios": "https://dc.lft.to/lastmile_qr_scan"}, "fusion_lon": 0.0, "lat": 38.90779666666667, "type": "electric_scooter", "fusion_lat": 0.0, "bike_id": "d42f01fcdc1521bb7c46b8fe08dcc5b8"}, {"name": "4a9b55154f3e47c717dd712eb468fbfe", "is_reserved": 0, "is_disabled": 0, "lon": -77.0381215, "rental_uris": {"android": "https://dc.lft.to/lastmile_qr_scan", "ios": "https://dc.lft.to/lastmile_qr_scan"}, "fusion_lon": 0.0, "lat": 38.920644, "type": "electric_scooter", "fusion_lat": 0.0, "bike_id": "4a9b55154f3e47c717dd712eb468fbfe"}, {"name": "601947c6b57fb0bee4c149342f0beb1e", "is_reserved": 0, "is_disabled": 0, "lon": -77.03838683333333, "rental_uris": {"android": "https://dc.lft.to/lastmile_qr_scan", "ios": "https://dc.lft.to/lastmile_qr_scan"}, "fusion_lon": 0.0, "lat": 38.931113, "type": "electric_scooter", "fusion_lat": 0.0, "bike_id": "601947c6b57fb0bee4c149342f0beb1e"}, {"name": "38b2e666a333e946e35629428e2f3dc6", "is_reserved": 0, "is_disabled": 0, "lon": -77.034153, "rental_uris": {"android": "https://dc.lft.to/lastmile_qr_scan", "ios": "https://dc.lft.to/lastmile_qr_scan"}, "fusion_lon": 0.0, "lat": 38.90424733333333, "type": "electric_scooter", "fusion_lat": 0.0, "bike_id": "38b2e666a333e946e35629428e2f3dc6"}, {"name": "a923bfb2d901c27721c913e6e07185df", "is_reserved": 0, "is_disabled": 0, "lon": -77.008718, "rental_uris": {"android": "https://dc.lft.to/lastmile_qr_scan", "ios": "https://dc.lft.to/lastmile_qr_scan"}, "fusion_lon": 0.0, "lat": 38.87348566666667, "type": "electric_scooter", "fusion_lat": 0.0, "bike_id": "a923bfb2d901c27721c913e6e07185df"}, {"name": "ba7c951d4130af49121591b41ac93f2b", "is_reserved": 0, "is_disabled": 0, "lon": -77.024202, "rental_uris": {"android": "https://dc.lft.to/lastmile_qr_scan", "ios": "https://dc.lft.to/lastmile_qr_scan"}, "fusion_lon": 0.0, "lat": 38.9031195, "type": "electric_scooter", "fusion_lat": 0.0, "bike_id": "ba7c951d4130af49121591b41ac93f2b"}, {"name": "5eb3ae97f86080e3f79bdc8975e95148", "is_reserved": 0, "is_disabled": 0, "lon": -77.03843516666667, "rental_uris": {"android": "https://dc.lft.to/lastmile_qr_scan", "ios": "https://dc.lft.to/lastmile_qr_scan"}, "fusion_lon": 0.0, "lat": 38.917304, "type": "electric_scooter", "fusion_lat": 0.0, "bike_id": "5eb3ae97f86080e3f79bdc8975e95148"}, {"name": "3204fe3cefcf2631e5cbbe080b7b6af2", "is_reserved": 0, "is_disabled": 0, "lon": -77.0523415, "rental_uris": {"android": "https://dc.lft.to/lastmile_qr_scan", "ios": "https://dc.lft.to/lastmile_qr_scan"}, "fusion_lon": 0.0, "lat": 38.89804683333333, "type": "electric_scooter", "fusion_lat": 0.0, "bike_id": "3204fe3cefcf2631e5cbbe080b7b6af2"}, {"name": "3e98822c45fedfc11f58dfaf41c6d58e", "is_reserved": 0, "is_disabled": 0, "lon": -77.06380333333334, "rental_uris": {"android": "https://dc.lft.to/lastmile_qr_scan", "ios": "https://dc.lft.to/lastmile_qr_scan"}, "fusion_lon": 0.0, "lat": 39.01738733333333, "type": "electric_bike", "fusion_lat": 0.0, "bike_id": "3e98822c45fedfc11f58dfaf41c6d58e"}, {"name": "ec193cd572e91320ca60963d62706445", "is_reserved": 0, "is_disabled": 0, "lon": -77.18739333333333, "rental_uris": {"android": "https://dc.lft.to/lastmile_qr_scan", "ios": "https://dc.lft.to/lastmile_qr_scan"}, "fusion_lon": 0.0, "lat": 38.89351166666667, "type": "electric_bike", "fusion_lat": 0.0, "bike_id": "ec193cd572e91320ca60963d62706445"}, {"name": "029eaeed2a8f15f7796f5e23b43c6815", "is_reserved": 0, "is_disabled": 0, "lon": -77.02980066666667, "rental_uris": {"android": "https://dc.lft.to/lastmile_qr_scan", "ios": "https://dc.lft.to/lastmile_qr_scan"}, "fusion_lon": 0.0, "lat": 38.9369765, "type": "electric_bike", "fusion_lat": 0.0, "bike_id": "029eaeed2a8f15f7796f5e23b43c6815"}, {"name": "62000c32b9facfd070bc27ab8cceaa02", "is_reserved": 0, "is_disabled": 0, "lon": -77.03648266666667, "rental_uris": {"android": "https://dc.lft.to/lastmile_qr_scan", "ios": "https://dc.lft.to/lastmile_qr_scan"}, "fusion_lon": 0.0, "lat": 38.916295166666664, "type": "electric_scooter", "fusion_lat": 0.0, "bike_id": "62000c32b9facfd070bc27ab8cceaa02"}, {"name": "a6e5e6aceaf49d6e9c7a6094373ce4d9", "is_reserved": 0, "is_disabled": 0, "lon": -76.98891066666667, "rental_uris": {"android": "https://dc.lft.to/lastmile_qr_scan", "ios": "https://dc.lft.to/lastmile_qr_scan"}, "fusion_lon": 0.0, "lat": 38.866739, "type": "electric_scooter", "fusion_lat": 0.0, "bike_id": "a6e5e6aceaf49d6e9c7a6094373ce4d9"}, {"name": "3e8ea3de05e7f5ddebbf5944dce281d9", "is_reserved": 0, "is_disabled": 0, "lon": -77.01146016666667, "rental_uris": {"android": "https://dc.lft.to/lastmile_qr_scan", "ios": "https://dc.lft.to/lastmile_qr_scan"}, "fusion_lon": 0.0, "lat": 38.895974, "type": "electric_scooter", "fusion_lat": 0.0, "bike_id": "3e8ea3de05e7f5ddebbf5944dce281d9"}, {"name": "ec8284713b192cba25a7f0d248c84184", "is_reserved": 0, "is_disabled": 0, "lon": -77.06398133333333, "rental_uris": {"android": "https://dc.lft.to/lastmile_qr_scan", "ios": "https://dc.lft.to/lastmile_qr_scan"}, "fusion_lon": 0.0, "lat": 38.94418366666667, "type": "electric_scooter", "fusion_lat": 0.0, "bike_id": "ec8284713b192cba25a7f0d248c84184"}, {"name": "88b173e865f6e0431adb6f034693b49c", "is_reserved": 0, "is_disabled": 0, "lon": -77.00576, "rental_uris": {"android": "https://dc.lft.to/lastmile_qr_scan", "ios": "https://dc.lft.to/lastmile_qr_scan"}, "fusion_lon": 0.0, "lat": 38.874047166666664, "type": "electric_bike", "fusion_lat": 0.0, "bike_id": "88b173e865f6e0431adb6f034693b49c"}, {"name": "66948cce5bca6f4f0179ae3b894567ce", "is_reserved": 0, "is_disabled": 0, "lon": -76.949995, "rental_uris": {"android": "https://dc.lft.to/lastmile_qr_scan", "ios": "https://dc.lft.to/lastmile_qr_scan"}, "fusion_lon": 0.0, "lat": 38.89392483333334, "type": "electric_scooter", "fusion_lat": 0.0, "bike_id": "66948cce5bca6f4f0179ae3b894567ce"}, {"name": "ee593ed08dad99e67d1be0d38b59895d", "is_reserved": 0, "is_disabled": 0, "lon": -77.02793166666666, "rental_uris": {"android": "https://dc.lft.to/lastmile_qr_scan", "ios": "https://dc.lft.to/lastmile_qr_scan"}, "fusion_lon": 0.0, "lat": 38.89214583333333, "type": "electric_scooter", "fusion_lat": 0.0, "bike_id": "ee593ed08dad99e67d1be0d38b59895d"}, {"name": "e3307454c1322832f004c56dbb7f4fa4", "is_reserved": 0, "is_disabled": 0, "lon": -77.034374, "rental_uris": {"android": "https://dc.lft.to/lastmile_qr_scan", "ios": "https://dc.lft.to/lastmile_qr_scan"}, "fusion_lon": 0.0, "lat": 38.91795116666667, "type": "electric_scooter", "fusion_lat": 0.0, "bike_id": "e3307454c1322832f004c56dbb7f4fa4"}, {"name": "2b1d699c807888d68224f29eab763c00", "is_reserved": 0, "is_disabled": 0, "lon": -76.960931, "rental_uris": {"android": "https://dc.lft.to/lastmile_qr_scan", "ios": "https://dc.lft.to/lastmile_qr_scan"}, "fusion_lon": 0.0, "lat": 38.91863, "type": "electric_bike", "fusion_lat": 0.0, "bike_id": "2b1d699c807888d68224f29eab763c00"}, {"name": "c420e818d9db78af8101fbd569dd899f", "is_reserved": 0, "is_disabled": 0, "lon": -77.03310933333333, "rental_uris": {"android": "https://dc.lft.to/lastmile_qr_scan", "ios": "https://dc.lft.to/lastmile_qr_scan"}, "fusion_lon": 0.0, "lat": 38.9026105, "type": "electric_scooter", "fusion_lat": 0.0, "bike_id": "c420e818d9db78af8101fbd569dd899f"}, {"name": "caf65a050f367d7abb7f2b9d9eaee051", "is_reserved": 0, "is_disabled": 0, "lon": -77.06074066666666, "rental_uris": {"android": "https://dc.lft.to/lastmile_qr_scan", "ios": "https://dc.lft.to/lastmile_qr_scan"}, "fusion_lon": 0.0, "lat": 38.90529466666667, "type": "electric_scooter", "fusion_lat": 0.0, "bike_id": "caf65a050f367d7abb7f2b9d9eaee051"}, {"name": "1d602550eb9b76ef3160641bbb0abd7d", "is_reserved": 0, "is_disabled": 0, "lon": -77.04040483333333, "rental_uris": {"android": "https://dc.lft.to/lastmile_qr_scan", "ios": "https://dc.lft.to/lastmile_qr_scan"}, "fusion_lon": 0.0, "lat": 38.9128695, "type": "electric_scooter", "fusion_lat": 0.0, "bike_id": "1d602550eb9b76ef3160641bbb0abd7d"}, {"name": "b05953a54b6f9c9538bbb0da9793d6c6", "is_reserved": 0, "is_disabled": 0, "lon": -76.92215933333334, "rental_uris": {"android": "https://dc.lft.to/lastmile_qr_scan", "ios": "https://dc.lft.to/lastmile_qr_scan"}, "fusion_lon": 0.0, "lat": 38.899399833333334, "type": "electric_scooter", "fusion_lat": 0.0, "bike_id": "b05953a54b6f9c9538bbb0da9793d6c6"}, {"name": "46b31bb2541969b046bcef236c738f57", "is_reserved": 0, "is_disabled": 0, "lon": -77.12264783333333, "rental_uris": {"android": "https://dc.lft.to/lastmile_qr_scan", "ios": "https://dc.lft.to/lastmile_qr_scan"}, "fusion_lon": 0.0, "lat": 38.8973645, "type": "electric_bike", "fusion_lat": 0.0, "bike_id": "46b31bb2541969b046bcef236c738f57"}, {"name": "f80770a95d03f8fabd182c2d0121ad98", "is_reserved": 0, "is_disabled": 0, "lon": -77.025635, "rental_uris": {"android": "https://dc.lft.to/lastmile_qr_scan", "ios": "https://dc.lft.to/lastmile_qr_scan"}, "fusion_lon": 0.0, "lat": 38.895211833333335, "type": "electric_scooter", "fusion_lat": 0.0, "bike_id": "f80770a95d03f8fabd182c2d0121ad98"}, {"name": "f7a90702be5f377c660c06b35cf27890", "is_reserved": 0, "is_disabled": 0, "lon": -76.94253466666666, "rental_uris": {"android": "https://dc.lft.to/lastmile_qr_scan", "ios": "https://dc.lft.to/lastmile_qr_scan"}, "fusion_lon": 0.0, "lat": 38.89683866666667, "type": "electric_scooter", "fusion_lat": 0.0, "bike_id": "f7a90702be5f377c660c06b35cf27890"}, {"name": "ecdabb08fef92f032e2eac6b92c76c6e", "is_reserved": 0, "is_disabled": 0, "lon": -77.03263983333333, "rental_uris": {"android": "https://dc.lft.to/lastmile_qr_scan", "ios": "https://dc.lft.to/lastmile_qr_scan"}, "fusion_lon": 0.0, "lat": 38.918193, "type": "electric_scooter", "fusion_lat": 0.0, "bike_id": "ecdabb08fef92f032e2eac6b92c76c6e"}, {"name": "b0440eb3439a8c1a59db831ec42f8754", "is_reserved": 0, "is_disabled": 0, "lon": -77.04386783333334, "rental_uris": {"android": "https://dc.lft.to/lastmile_qr_scan", "ios": "https://dc.lft.to/lastmile_qr_scan"}, "fusion_lon": 0.0, "lat": 38.90646866666667, "type": "electric_scooter", "fusion_lat": 0.0, "bike_id": "b0440eb3439a8c1a59db831ec42f8754"}, {"name": "5ac68146aa7256017c5d3b24b4500812", "is_reserved": 0, "is_disabled": 0, "lon": -77.07353016666667, "rental_uris": {"android": "https://dc.lft.to/lastmile_qr_scan", "ios": "https://dc.lft.to/lastmile_qr_scan"}, "fusion_lon": 0.0, "lat": 38.91104333333333, "type": "electric_scooter", "fusion_lat": 0.0, "bike_id": "5ac68146aa7256017c5d3b24b4500812"}, {"name": "2a5a791ee9bc246384e14a7c607b9e16", "is_reserved": 0, "is_disabled": 0, "lon": -77.038489, "rental_uris": {"android": "https://dc.lft.to/lastmile_qr_scan", "ios": "https://dc.lft.to/lastmile_qr_scan"}, "fusion_lon": 0.0, "lat": 38.9121035, "type": "electric_scooter", "fusion_lat": 0.0, "bike_id": "2a5a791ee9bc246384e14a7c607b9e16"}, {"name": "32af63d873fa62d462842d52c766e28c", "is_reserved": 0, "is_disabled": 0, "lon": -77.02572233333333, "rental_uris": {"android": "https://dc.lft.to/lastmile_qr_scan", "ios": "https://dc.lft.to/lastmile_qr_scan"}, "fusion_lon": 0.0, "lat": 38.925091, "type": "electric_scooter", "fusion_lat": 0.0, "bike_id": "32af63d873fa62d462842d52c766e28c"}, {"name": "d64e76405f981032decbca32ff5bb792", "is_reserved": 0, "is_disabled": 0, "lon": -76.91655983333334, "rental_uris": {"android": "https://dc.lft.to/lastmile_qr_scan", "ios": "https://dc.lft.to/lastmile_qr_scan"}, "fusion_lon": 0.0, "lat": 38.86860883333333, "type": "electric_bike", "fusion_lat": 0.0, "bike_id": "d64e76405f981032decbca32ff5bb792"}, {"name": "0d5bf009e2693754fac78f4d7955d84d", "is_reserved": 0, "is_disabled": 0, "lon": -77.03214633333333, "rental_uris": {"android": "https://dc.lft.to/lastmile_qr_scan", "ios": "https://dc.lft.to/lastmile_qr_scan"}, "fusion_lon": 0.0, "lat": 38.8922585, "type": "electric_scooter", "fusion_lat": 0.0, "bike_id": "0d5bf009e2693754fac78f4d7955d84d"}, {"name": "548f43a16b8e7144eea01132b4c621b0", "is_reserved": 0, "is_disabled": 0, "lon": -76.97510116666666, "rental_uris": {"android": "https://dc.lft.to/lastmile_qr_scan", "ios": "https://dc.lft.to/lastmile_qr_scan"}, "fusion_lon": 0.0, "lat": 38.919370666666666, "type": "electric_bike", "fusion_lat": 0.0, "bike_id": "548f43a16b8e7144eea01132b4c621b0"}, {"name": "29a4656330b95db7bce6acc8a5f9882f", "is_reserved": 0, "is_disabled": 0, "lon": -77.00197116666666, "rental_uris": {"android": "https://dc.lft.to/lastmile_qr_scan", "ios": "https://dc.lft.to/lastmile_qr_scan"}, "fusion_lon": 0.0, "lat": 38.90238516666667, "type": "electric_scooter", "fusion_lat": 0.0, "bike_id": "29a4656330b95db7bce6acc8a5f9882f"}, {"name": "5859d62bf7b91c7e0936b086fbdb32af", "is_reserved": 0, "is_disabled": 0, "lon": -77.08437016666667, "rental_uris": {"android": "https://dc.lft.to/lastmile_qr_scan", "ios": "https://dc.lft.to/lastmile_qr_scan"}, "fusion_lon": 0.0, "lat": 38.8102685, "type": "electric_bike", "fusion_lat": 0.0, "bike_id": "5859d62bf7b91c7e0936b086fbdb32af"}, {"name": "206a02c160f3a642ff6bc6f7e6d49b97", "is_reserved": 0, "is_disabled": 0, "lon": -77.06114133333334, "rental_uris": {"android": "https://dc.lft.to/lastmile_qr_scan", "ios": "https://dc.lft.to/lastmile_qr_scan"}, "fusion_lon": 0.0, "lat": 38.90441916666666, "type": "electric_scooter", "fusion_lat": 0.0, "bike_id": "206a02c160f3a642ff6bc6f7e6d49b97"}, {"name": "88e60d76fcdc8be1f4bd31cf5d2595ce", "is_reserved": 0, "is_disabled": 0, "lon": -77.03284533333333, "rental_uris": {"android": "https://dc.lft.to/lastmile_qr_scan", "ios": "https://dc.lft.to/lastmile_qr_scan"}, "fusion_lon": 0.0, "lat": 38.89906283333333, "type": "electric_scooter", "fusion_lat": 0.0, "bike_id": "88e60d76fcdc8be1f4bd31cf5d2595ce"}, {"name": "80ef9c6a14d0f1ee0ba7434e05a56a7e", "is_reserved": 0, "is_disabled": 0, "lon": -76.99144583333333, "rental_uris": {"android": "https://dc.lft.to/lastmile_qr_scan", "ios": "https://dc.lft.to/lastmile_qr_scan"}, "fusion_lon": 0.0, "lat": 38.88680933333333, "type": "electric_scooter", "fusion_lat": 0.0, "bike_id": "80ef9c6a14d0f1ee0ba7434e05a56a7e"}, {"name": "a70c1a6cf3b456740101a930d6a99152", "is_reserved": 0, "is_disabled": 0, "lon": -77.03655116666667, "rental_uris": {"android": "https://dc.lft.to/lastmile_qr_scan", "ios": "https://dc.lft.to/lastmile_qr_scan"}, "fusion_lon": 0.0, "lat": 38.94199183333333, "type": "electric_scooter", "fusion_lat": 0.0, "bike_id": "a70c1a6cf3b456740101a930d6a99152"}, {"name": "99188bd8fa15f28357f877504445113e", "is_reserved": 0, "is_disabled": 0, "lon": -77.03199083333334, "rental_uris": {"android": "https://dc.lft.to/lastmile_qr_scan", "ios": "https://dc.lft.to/lastmile_qr_scan"}, "fusion_lon": 0.0, "lat": 38.903701833333336, "type": "electric_scooter", "fusion_lat": 0.0, "bike_id": "99188bd8fa15f28357f877504445113e"}, {"name": "f196d3542bec3111ec891c8c86a05c8b", "is_reserved": 0, "is_disabled": 0, "lon": -76.9793045, "rental_uris": {"android": "https://dc.lft.to/lastmile_qr_scan", "ios": "https://dc.lft.to/lastmile_qr_scan"}, "fusion_lon": 0.0, "lat": 38.90241183333333, "type": "electric_scooter", "fusion_lat": 0.0, "bike_id": "f196d3542bec3111ec891c8c86a05c8b"}, {"name": "3504286025fe393684a8b04dcd14dc3f", "is_reserved": 0, "is_disabled": 0, "lon": -76.98826716666667, "rental_uris": {"android": "https://dc.lft.to/lastmile_qr_scan", "ios": "https://dc.lft.to/lastmile_qr_scan"}, "fusion_lon": 0.0, "lat": 38.90053666666667, "type": "electric_scooter", "fusion_lat": 0.0, "bike_id": "3504286025fe393684a8b04dcd14dc3f"}, {"name": "685109cac97703c55c5df938933d5da2", "is_reserved": 0, "is_disabled": 0, "lon": -77.02594183333333, "rental_uris": {"android": "https://dc.lft.to/lastmile_qr_scan", "ios": "https://dc.lft.to/lastmile_qr_scan"}, "fusion_lon": 0.0, "lat": 38.918502333333336, "type": "electric_scooter", "fusion_lat": 0.0, "bike_id": "685109cac97703c55c5df938933d5da2"}, {"name": "86db029abf90518c9c16b858cbcc32d2", "is_reserved": 0, "is_disabled": 0, "lon": -76.98459483333333, "rental_uris": {"android": "https://dc.lft.to/lastmile_qr_scan", "ios": "https://dc.lft.to/lastmile_qr_scan"}, "fusion_lon": 0.0, "lat": 38.88012966666667, "type": "electric_scooter", "fusion_lat": 0.0, "bike_id": "86db029abf90518c9c16b858cbcc32d2"}, {"name": "98b4cf940d9386c8b89e6355af7e8bad", "is_reserved": 0, "is_disabled": 0, "lon": -77.05330166666667, "rental_uris": {"android": "https://dc.lft.to/lastmile_qr_scan", "ios": "https://dc.lft.to/lastmile_qr_scan"}, "fusion_lon": 0.0, "lat": 38.9101025, "type": "electric_scooter", "fusion_lat": 0.0, "bike_id": "98b4cf940d9386c8b89e6355af7e8bad"}, {"name": "7242b11883f7ef68b1f57e6cc0dc9b46", "is_reserved": 0, "is_disabled": 0, "lon": -76.94720866666667, "rental_uris": {"android": "https://dc.lft.to/lastmile_qr_scan", "ios": "https://dc.lft.to/lastmile_qr_scan"}, "fusion_lon": 0.0, "lat": 38.897343166666666, "type": "electric_scooter", "fusion_lat": 0.0, "bike_id": "7242b11883f7ef68b1f57e6cc0dc9b46"}, {"name": "449c509c0514547dfc9b187e1181bcf7", "is_reserved": 0, "is_disabled": 0, "lon": -77.04330983333334, "rental_uris": {"android": "https://dc.lft.to/lastmile_qr_scan", "ios": "https://dc.lft.to/lastmile_qr_scan"}, "fusion_lon": 0.0, "lat": 38.90877116666667, "type": "electric_scooter", "fusion_lat": 0.0, "bike_id": "449c509c0514547dfc9b187e1181bcf7"}, {"name": "99b768a8a5f49a40e063caabd263a8f9", "is_reserved": 0, "is_disabled": 0, "lon": -77.01926083333333, "rental_uris": {"android": "https://dc.lft.to/lastmile_qr_scan", "ios": "https://dc.lft.to/lastmile_qr_scan"}, "fusion_lon": 0.0, "lat": 38.9448025, "type": "electric_scooter", "fusion_lat": 0.0, "bike_id": "99b768a8a5f49a40e063caabd263a8f9"}, {"name": "667b9da3df29d628e26dbf3168e4bfaa", "is_reserved": 0, "is_disabled": 0, "lon": -77.043988, "rental_uris": {"android": "https://dc.lft.to/lastmile_qr_scan", "ios": "https://dc.lft.to/lastmile_qr_scan"}, "fusion_lon": 0.0, "lat": 38.90222516666667, "type": "electric_scooter", "fusion_lat": 0.0, "bike_id": "667b9da3df29d628e26dbf3168e4bfaa"}, {"name": "19407bb86dc3c0f8740156419ff7ca7a", "is_reserved": 0, "is_disabled": 0, "lon": -77.04689183333333, "rental_uris": {"android": "https://dc.lft.to/lastmile_qr_scan", "ios": "https://dc.lft.to/lastmile_qr_scan"}, "fusion_lon": 0.0, "lat": 38.9024725, "type": "electric_scooter", "fusion_lat": 0.0, "bike_id": "19407bb86dc3c0f8740156419ff7ca7a"}, {"name": "5e6e197b58fe4a2e19a4c16e3aa277ff", "is_reserved": 0, "is_disabled": 0, "lon": -77.022436, "rental_uris": {"android": "https://dc.lft.to/lastmile_qr_scan", "ios": "https://dc.lft.to/lastmile_qr_scan"}, "fusion_lon": 0.0, "lat": 38.91650766666667, "type": "electric_scooter", "fusion_lat": 0.0, "bike_id": "5e6e197b58fe4a2e19a4c16e3aa277ff"}, {"name": "bfdc8761c501c9519ae6e2b74a29b64f", "is_reserved": 0, "is_disabled": 0, "lon": -77.04183533333334, "rental_uris": {"android": "https://dc.lft.to/lastmile_qr_scan", "ios": "https://dc.lft.to/lastmile_qr_scan"}, "fusion_lon": 0.0, "lat": 38.9113945, "type": "electric_scooter", "fusion_lat": 0.0, "bike_id": "bfdc8761c501c9519ae6e2b74a29b64f"}, {"name": "a5e84d4da0ec32764333978a758b0ea5", "is_reserved": 0, "is_disabled": 0, "lon": -77.00920016666667, "rental_uris": {"android": "https://dc.lft.to/lastmile_qr_scan", "ios": "https://dc.lft.to/lastmile_qr_scan"}, "fusion_lon": 0.0, "lat": 38.89556616666667, "type": "electric_scooter", "fusion_lat": 0.0, "bike_id": "a5e84d4da0ec32764333978a758b0ea5"}, {"name": "c96d8d4b579912a909004a9f90c6f8d3", "is_reserved": 0, "is_disabled": 0, "lon": -77.00332083333333, "rental_uris": {"android": "https://dc.lft.to/lastmile_qr_scan", "ios": "https://dc.lft.to/lastmile_qr_scan"}, "fusion_lon": 0.0, "lat": 38.896052, "type": "electric_scooter", "fusion_lat": 0.0, "bike_id": "c96d8d4b579912a909004a9f90c6f8d3"}, {"name": "d98172b2fa196c1bd33c350009758818", "is_reserved": 0, "is_disabled": 0, "lon": -77.06839316666667, "rental_uris": {"android": "https://dc.lft.to/lastmile_qr_scan", "ios": "https://dc.lft.to/lastmile_qr_scan"}, "fusion_lon": 0.0, "lat": 38.952085333333336, "type": "electric_scooter", "fusion_lat": 0.0, "bike_id": "d98172b2fa196c1bd33c350009758818"}, {"name": "f9d055200abcf06b2ab603951653e4e6", "is_reserved": 0, "is_disabled": 0, "lon": -76.97989033333333, "rental_uris": {"android": "https://dc.lft.to/lastmile_qr_scan", "ios": "https://dc.lft.to/lastmile_qr_scan"}, "fusion_lon": 0.0, "lat": 38.8876935, "type": "electric_scooter", "fusion_lat": 0.0, "bike_id": "f9d055200abcf06b2ab603951653e4e6"}, {"name": "d3e4a0da9ceb17b112a705ba5c00cb67", "is_reserved": 0, "is_disabled": 0, "lon": -77.03353866666667, "rental_uris": {"android": "https://dc.lft.to/lastmile_qr_scan", "ios": "https://dc.lft.to/lastmile_qr_scan"}, "fusion_lon": 0.0, "lat": 38.89837766666667, "type": "electric_scooter", "fusion_lat": 0.0, "bike_id": "d3e4a0da9ceb17b112a705ba5c00cb67"}, {"name": "3deae0367f6416a2c8a5f64c7cb18e5e", "is_reserved": 0, "is_disabled": 0, "lon": -77.03366183333333, "rental_uris": {"android": "https://dc.lft.to/lastmile_qr_scan", "ios": "https://dc.lft.to/lastmile_qr_scan"}, "fusion_lon": 0.0, "lat": 38.911887, "type": "electric_scooter", "fusion_lat": 0.0, "bike_id": "3deae0367f6416a2c8a5f64c7cb18e5e"}, {"name": "5be08d02390748d2c6115fe64d311613", "is_reserved": 0, "is_disabled": 0, "lon": -77.02230866666666, "rental_uris": {"android": "https://dc.lft.to/lastmile_qr_scan", "ios": "https://dc.lft.to/lastmile_qr_scan"}, "fusion_lon": 0.0, "lat": 38.887681666666666, "type": "electric_scooter", "fusion_lat": 0.0, "bike_id": "5be08d02390748d2c6115fe64d311613"}, {"name": "a68f1e2608646066597ffc7993a6010f", "is_reserved": 0, "is_disabled": 0, "lon": -77.00611033333334, "rental_uris": {"android": "https://dc.lft.to/lastmile_qr_scan", "ios": "https://dc.lft.to/lastmile_qr_scan"}, "fusion_lon": 0.0, "lat": 38.871804833333336, "type": "electric_scooter", "fusion_lat": 0.0, "bike_id": "a68f1e2608646066597ffc7993a6010f"}, {"name": "1f83813163f7ca2311eff8a948fbd7f0", "is_reserved": 0, "is_disabled": 0, "lon": -77.054362, "rental_uris": {"android": "https://dc.lft.to/lastmile_qr_scan", "ios": "https://dc.lft.to/lastmile_qr_scan"}, "fusion_lon": 0.0, "lat": 38.896040666666664, "type": "electric_scooter", "fusion_lat": 0.0, "bike_id": "1f83813163f7ca2311eff8a948fbd7f0"}, {"name": "623657825a26fba450fa6ad5a6dea030", "is_reserved": 0, "is_disabled": 0, "lon": -77.0363715, "rental_uris": {"android": "https://dc.lft.to/lastmile_qr_scan", "ios": "https://dc.lft.to/lastmile_qr_scan"}, "fusion_lon": 0.0, "lat": 38.93166683333333, "type": "electric_scooter", "fusion_lat": 0.0, "bike_id": "623657825a26fba450fa6ad5a6dea030"}, {"name": "8cd24a1d8a8b741c318ac11203b77295", "is_reserved": 0, "is_disabled": 0, "lon": -77.0856975, "rental_uris": {"android": "https://dc.lft.to/lastmile_qr_scan", "ios": "https://dc.lft.to/lastmile_qr_scan"}, "fusion_lon": 0.0, "lat": 38.874249666666664, "type": "electric_bike", "fusion_lat": 0.0, "bike_id": "8cd24a1d8a8b741c318ac11203b77295"}, {"name": "ae73c1888c4b0de25e6cb3fd06a728f8", "is_reserved": 0, "is_disabled": 0, "lon": -77.024984, "rental_uris": {"android": "https://dc.lft.to/lastmile_qr_scan", "ios": "https://dc.lft.to/lastmile_qr_scan"}, "fusion_lon": 0.0, "lat": 38.974028, "type": "electric_bike", "fusion_lat": 0.0, "bike_id": "ae73c1888c4b0de25e6cb3fd06a728f8"}, {"name": "5d5aee04c7d15934683f85fa2544c528", "is_reserved": 0, "is_disabled": 0, "lon": -77.02402183333334, "rental_uris": {"android": "https://dc.lft.to/lastmile_qr_scan", "ios": "https://dc.lft.to/lastmile_qr_scan"}, "fusion_lon": 0.0, "lat": 38.93104183333333, "type": "electric_scooter", "fusion_lat": 0.0, "bike_id": "5d5aee04c7d15934683f85fa2544c528"}, {"name": "0f0142f89d2434bf617bcb4b12dcc8c5", "is_reserved": 0, "is_disabled": 0, "lon": -77.001952, "rental_uris": {"android": "https://dc.lft.to/lastmile_qr_scan", "ios": "https://dc.lft.to/lastmile_qr_scan"}, "fusion_lon": 0.0, "lat": 38.900385166666666, "type": "electric_scooter", "fusion_lat": 0.0, "bike_id": "0f0142f89d2434bf617bcb4b12dcc8c5"}, {"name": "4be4c0de9aaadaeb0ae869ab9f74e20d", "is_reserved": 0, "is_disabled": 0, "lon": -76.98041216666667, "rental_uris": {"android": "https://dc.lft.to/lastmile_qr_scan", "ios": "https://dc.lft.to/lastmile_qr_scan"}, "fusion_lon": 0.0, "lat": 38.916842833333334, "type": "electric_scooter", "fusion_lat": 0.0, "bike_id": "4be4c0de9aaadaeb0ae869ab9f74e20d"}, {"name": "7ee6623e7f54fb8b2fa0cb2bfa6a4b03", "is_reserved": 0, "is_disabled": 0, "lon": -77.00895566666667, "rental_uris": {"android": "https://dc.lft.to/lastmile_qr_scan", "ios": "https://dc.lft.to/lastmile_qr_scan"}, "fusion_lon": 0.0, "lat": 38.9053935, "type": "electric_scooter", "fusion_lat": 0.0, "bike_id": "7ee6623e7f54fb8b2fa0cb2bfa6a4b03"}, {"name": "dde628391e7e886e30544ba5a02f2435", "is_reserved": 0, "is_disabled": 0, "lon": -77.031083, "rental_uris": {"android": "https://dc.lft.to/lastmile_qr_scan", "ios": "https://dc.lft.to/lastmile_qr_scan"}, "fusion_lon": 0.0, "lat": 38.919294666666666, "type": "electric_scooter", "fusion_lat": 0.0, "bike_id": "dde628391e7e886e30544ba5a02f2435"}, {"name": "f1e79f223851703adc3cd6ed9f87df21", "is_reserved": 0, "is_disabled": 0, "lon": -77.0232945, "rental_uris": {"android": "https://dc.lft.to/lastmile_qr_scan", "ios": "https://dc.lft.to/lastmile_qr_scan"}, "fusion_lon": 0.0, "lat": 38.91672583333333, "type": "electric_scooter", "fusion_lat": 0.0, "bike_id": "f1e79f223851703adc3cd6ed9f87df21"}, {"name": "f7a346268aea173f211a0ef6115696f1", "is_reserved": 0, "is_disabled": 0, "lon": -77.03186383333333, "rental_uris": {"android": "https://dc.lft.to/lastmile_qr_scan", "ios": "https://dc.lft.to/lastmile_qr_scan"}, "fusion_lon": 0.0, "lat": 38.903594166666664, "type": "electric_scooter", "fusion_lat": 0.0, "bike_id": "f7a346268aea173f211a0ef6115696f1"}, {"name": "03099fcfddef02567f3ad33f83eee8e6", "is_reserved": 0, "is_disabled": 0, "lon": -76.9652175, "rental_uris": {"android": "https://dc.lft.to/lastmile_qr_scan", "ios": "https://dc.lft.to/lastmile_qr_scan"}, "fusion_lon": 0.0, "lat": 38.874779333333336, "type": "electric_scooter", "fusion_lat": 0.0, "bike_id": "03099fcfddef02567f3ad33f83eee8e6"}, {"name": "7b46069f7c08a1a0b13a802db4971739", "is_reserved": 0, "is_disabled": 0, "lon": -77.03404583333334, "rental_uris": {"android": "https://dc.lft.to/lastmile_qr_scan", "ios": "https://dc.lft.to/lastmile_qr_scan"}, "fusion_lon": 0.0, "lat": 38.919225, "type": "electric_scooter", "fusion_lat": 0.0, "bike_id": "7b46069f7c08a1a0b13a802db4971739"}, {"name": "8cc476e84628814ddf5a73e38ff94312", "is_reserved": 0, "is_disabled": 0, "lon": -77.043204, "rental_uris": {"android": "https://dc.lft.to/lastmile_qr_scan", "ios": "https://dc.lft.to/lastmile_qr_scan"}, "fusion_lon": 0.0, "lat": 38.91113683333333, "type": "electric_scooter", "fusion_lat": 0.0, "bike_id": "8cc476e84628814ddf5a73e38ff94312"}, {"name": "ee71fed89c8245c63015615d9f1f4dd0", "is_reserved": 0, "is_disabled": 0, "lon": -77.04516816666667, "rental_uris": {"android": "https://dc.lft.to/lastmile_qr_scan", "ios": "https://dc.lft.to/lastmile_qr_scan"}, "fusion_lon": 0.0, "lat": 38.90382866666667, "type": "electric_scooter", "fusion_lat": 0.0, "bike_id": "ee71fed89c8245c63015615d9f1f4dd0"}, {"name": "b0b20f288915680bd831473137814f99", "is_reserved": 0, "is_disabled": 0, "lon": -77.03827333333334, "rental_uris": {"android": "https://dc.lft.to/lastmile_qr_scan", "ios": "https://dc.lft.to/lastmile_qr_scan"}, "fusion_lon": 0.0, "lat": 38.90405283333333, "type": "electric_scooter", "fusion_lat": 0.0, "bike_id": "b0b20f288915680bd831473137814f99"}, {"name": "566c166601f478e2c904d52d8a554efa", "is_reserved": 0, "is_disabled": 0, "lon": -77.03832766666666, "rental_uris": {"android": "https://dc.lft.to/lastmile_qr_scan", "ios": "https://dc.lft.to/lastmile_qr_scan"}, "fusion_lon": 0.0, "lat": 38.9112395, "type": "electric_scooter", "fusion_lat": 0.0, "bike_id": "566c166601f478e2c904d52d8a554efa"}, {"name": "421f68e830c76b41c33ac66a9b67be2f", "is_reserved": 0, "is_disabled": 0, "lon": -77.05790883333333, "rental_uris": {"android": "https://dc.lft.to/lastmile_qr_scan", "ios": "https://dc.lft.to/lastmile_qr_scan"}, "fusion_lon": 0.0, "lat": 38.93478866666667, "type": "electric_scooter", "fusion_lat": 0.0, "bike_id": "421f68e830c76b41c33ac66a9b67be2f"}, {"name": "b27011560046545ed7ea0237614b2f4e", "is_reserved": 0, "is_disabled": 0, "lon": -76.98832933333334, "rental_uris": {"android": "https://dc.lft.to/lastmile_qr_scan", "ios": "https://dc.lft.to/lastmile_qr_scan"}, "fusion_lon": 0.0, "lat": 38.900506166666666, "type": "electric_scooter", "fusion_lat": 0.0, "bike_id": "b27011560046545ed7ea0237614b2f4e"}, {"name": "08e723917876c88685cdd0133ae38d47", "is_reserved": 0, "is_disabled": 0, "lon": -77.026363, "rental_uris": {"android": "https://dc.lft.to/lastmile_qr_scan", "ios": "https://dc.lft.to/lastmile_qr_scan"}, "fusion_lon": 0.0, "lat": 38.936716, "type": "electric_bike", "fusion_lat": 0.0, "bike_id": "08e723917876c88685cdd0133ae38d47"}, {"name": "3779719eec9cf6dbb22c42140da4f265", "is_reserved": 0, "is_disabled": 0, "lon": -77.02227516666666, "rental_uris": {"android": "https://dc.lft.to/lastmile_qr_scan", "ios": "https://dc.lft.to/lastmile_qr_scan"}, "fusion_lon": 0.0, "lat": 38.91273616666667, "type": "electric_scooter", "fusion_lat": 0.0, "bike_id": "3779719eec9cf6dbb22c42140da4f265"}, {"name": "9e71a8f78f92501c1b25c47a3758e2c8", "is_reserved": 0, "is_disabled": 0, "lon": -77.08567133333334, "rental_uris": {"android": "https://dc.lft.to/lastmile_qr_scan", "ios": "https://dc.lft.to/lastmile_qr_scan"}, "fusion_lon": 0.0, "lat": 38.87414916666667, "type": "electric_bike", "fusion_lat": 0.0, "bike_id": "9e71a8f78f92501c1b25c47a3758e2c8"}, {"name": "01ad1d0c0e0f87740e951f6a4dacb57c", "is_reserved": 0, "is_disabled": 0, "lon": -76.988203, "rental_uris": {"android": "https://dc.lft.to/lastmile_qr_scan", "ios": "https://dc.lft.to/lastmile_qr_scan"}, "fusion_lon": 0.0, "lat": 38.84267633333333, "type": "electric_bike", "fusion_lat": 0.0, "bike_id": "01ad1d0c0e0f87740e951f6a4dacb57c"}, {"name": "74ccae49ba2bd3f9492b2345bce9987a", "is_reserved": 0, "is_disabled": 0, "lon": -77.04375166666667, "rental_uris": {"android": "https://dc.lft.to/lastmile_qr_scan", "ios": "https://dc.lft.to/lastmile_qr_scan"}, "fusion_lon": 0.0, "lat": 38.91042383333333, "type": "electric_scooter", "fusion_lat": 0.0, "bike_id": "74ccae49ba2bd3f9492b2345bce9987a"}, {"name": "9a9443a860a18399b5f8fdfae55aa99d", "is_reserved": 0, "is_disabled": 0, "lon": -77.00578216666666, "rental_uris": {"android": "https://dc.lft.to/lastmile_qr_scan", "ios": "https://dc.lft.to/lastmile_qr_scan"}, "fusion_lon": 0.0, "lat": 38.87652933333333, "type": "electric_scooter", "fusion_lat": 0.0, "bike_id": "9a9443a860a18399b5f8fdfae55aa99d"}, {"name": "99181f8bd003249d864f29205dd0b473", "is_reserved": 0, "is_disabled": 0, "lon": -77.0532395, "rental_uris": {"android": "https://dc.lft.to/lastmile_qr_scan", "ios": "https://dc.lft.to/lastmile_qr_scan"}, "fusion_lon": 0.0, "lat": 38.90238216666667, "type": "electric_scooter", "fusion_lat": 0.0, "bike_id": "99181f8bd003249d864f29205dd0b473"}, {"name": "196938cfa8a959ebd24f7a9a0115afca", "is_reserved": 0, "is_disabled": 0, "lon": -77.01732483333333, "rental_uris": {"android": "https://dc.lft.to/lastmile_qr_scan", "ios": "https://dc.lft.to/lastmile_qr_scan"}, "fusion_lon": 0.0, "lat": 38.94204083333333, "type": "electric_scooter", "fusion_lat": 0.0, "bike_id": "196938cfa8a959ebd24f7a9a0115afca"}, {"name": "9292c83086d28d32ad9c7ea76526b8bc", "is_reserved": 0, "is_disabled": 0, "lon": -77.00761983333334, "rental_uris": {"android": "https://dc.lft.to/lastmile_qr_scan", "ios": "https://dc.lft.to/lastmile_qr_scan"}, "fusion_lon": 0.0, "lat": 38.91551666666667, "type": "electric_scooter", "fusion_lat": 0.0, "bike_id": "9292c83086d28d32ad9c7ea76526b8bc"},