{"data": {"bikes": [{"is_reserved": 0, "type": "electric_scooter", "fusion_lat": 0.0, "is_disabled": 0, "rental_uris": {"ios": "https://dc.lft.to/lastmile_qr_scan", "android": "https://dc.lft.to/lastmile_qr_scan"}, "bike_id": "1567a91d94ebee898fad63f3535ad73e", "lat": 38.93591583333333, "name": "1567a91d94ebee898fad63f3535ad73e", "lon": -77.07427766666666, "fusion_lon": 0.0}, {"is_reserved": 0, "type": "electric_scooter", "fusion_lat": 0.0, "is_disabled": 0, "rental_uris": {"ios": "https://dc.lft.to/lastmile_qr_scan", "android": "https://dc.lft.to/lastmile_qr_scan"}, "bike_id": "d52b9d83b296f81c6727c7371751981e", "lat": 38.87738433333333, "name": "d52b9d83b296f81c6727c7371751981e", "lon": -77.0060425, "fusion_lon": 0.0}, {"is_reserved": 0, "type": "electric_scooter", "fusion_lat": 0.0, "is_disabled": 0, "rental_uris": {"ios": "https://dc.lft.to/lastmile_qr_scan", "android": "https://dc.lft.to/lastmile_qr_scan"}, "bike_id": "63672749ca8ef4fe428bad4040f5c1d4", "lat": 38.9024245, "name": "63672749ca8ef4fe428bad4040f5c1d4", "lon": -77.039615, "fusion_lon": 0.0}, {"is_reserved": 0, "type": "electric_scooter", "fusion_lat": 0.0, "is_disabled": 0, "rental_uris": {"ios": "https://dc.lft.to/lastmile_qr_scan", "android": "https://dc.lft.to/lastmile_qr_scan"}, "bike_id": "37511cd72e3c0434a615a26addf8590d", "lat": 38.9280135, "name": "37511cd72e3c0434a615a26addf8590d", "lon": -77.03698683333333, "fusion_lon": 0.0}, {"is_reserved": 0, "type": "electric_scooter", "fusion_lat": 0.0, "is_disabled": 0, "rental_uris": {"ios": "https://dc.lft.to/lastmile_qr_scan", "android": "https://dc.lft.to/lastmile_qr_scan"}, "bike_id": "ace43a9947c53ec742a6419070dd56f9", "lat": 38.8934365, "name": "ace43a9947c53ec742a6419070dd56f9", "lon": -76.98560133333334, "fusion_lon": 0.0}, {"is_reserved": 0, "type": "electric_scooter", "fusion_lat": 0.0, "is_disabled": 0, "rental_uris": {"ios": "https://dc.lft.to/lastmile_qr_scan", "android": "https://dc.lft.to/lastmile_qr_scan"}, "bike_id": "039942d8d3cc0eb436fd0c7198a9bc0b", "lat": 38.917092833333335, "name": "039942d8d3cc0eb436fd0c7198a9bc0b", "lon": -77.04045816666667, "fusion_lon": 0.0}, {"is_reserved": 0, "type": "electric_scooter", "fusion_lat": 0.0, "is_disabled": 0, "rental_uris": {"ios": "https://dc.lft.to/lastmile_qr_scan", "android": "https://dc.lft.to/lastmile_qr_scan"}, "bike_id": "3250f1f7038dd3ffcfc0eb7df83b2864", "lat": 38.918830666666665, "name": "3250f1f7038dd3ffcfc0eb7df83b2864", "lon": -77.0357295, "fusion_lon": 0.0}, {"is_reserved": 0, "type": "electric_scooter", "fusion_lat": 0.0, "is_disabled": 0, "rental_uris": {"ios": "https://dc.lft.to/lastmile_qr_scan", "android": "https://dc.lft.to/lastmile_qr_scan"}, "bike_id": "53819f156ae86d910c6ac7ce9043bd97", "lat": 38.957537, "name": "53819f156ae86d910c6ac7ce9043bd97", "lon": -77.02213783333333, "fusion_lon": 0.0}, {"is_reserved": 0, "type": "electric_scooter", "fusion_lat": 0.0, "is_disabled": 0, "rental_uris": {"ios": "https://dc.lft.to/lastmile_qr_scan", "android": "https://dc.lft.to/lastmile_qr_scan"}, "bike_id": "42e5abcb9d01578b41d7898aeb400104", "lat": 38.935322166666666, "name": "42e5abcb9d01578b41d7898aeb400104", "lon": -77.03482833333334, "fusion_lon": 0.0}, {"is_reserved": 0, "type": "electric_scooter", "fusion_lat": 0.0, "is_disabled": 0, "rental_uris": {"ios": "https://dc.lft.to/lastmile_qr_scan", "android": "https://dc.lft.to/lastmile_qr_scan"}, "bike_id": "ca14ab6696e0208d0abcf5e074a42ae9", "lat": 38.921715666666664, "name": "ca14ab6696e0208d0abcf5e074a42ae9", "lon": -77.04025383333334, "fusion_lon": 0.0}, {"is_reserved": 0, "type": "electric_scooter", "fusion_lat": 0.0, "is_disabled": 0, "rental_uris": {"ios": "https://dc.lft.to/lastmile_qr_scan", "android": "https://dc.lft.to/lastmile_qr_scan"}, "bike_id": "edf62e1dfb9e3e05c86c571d728d24e9", "lat": 38.885333833333334, "name": "edf62e1dfb9e3e05c86c571d728d24e9", "lon": -76.9806095, "fusion_lon": 0.0}, {"is_reserved": 0, "type": "electric_scooter", "fusion_lat": 0.0, "is_disabled": 0, "rental_uris": {"ios": "https://dc.lft.to/lastmile_qr_scan", "android": "https://dc.lft.to/lastmile_qr_scan"}, "bike_id": "f762a8d94454ed05140277b684dd456c", "lat": 38.9047165, "name": "f762a8d94454ed05140277b684dd456c", "lon": -77.05336366666667, "fusion_lon": 0.0}, {"is_reserved": 0, "type": "electric_scooter", "fusion_lat": 0.0, "is_disabled": 0, "rental_uris": {"ios": "https://dc.lft.to/lastmile_qr_scan", "android": "https://dc.lft.to/lastmile_qr_scan"}, "bike_id": "7012148a49ef9236b91eabf3dbad83d6", "lat": 38.885156333333335, "name": "7012148a49ef9236b91eabf3dbad83d6", "lon": -76.92444566666667, "fusion_lon": 0.0}, {"is_reserved": 0, "type": "electric_scooter", "fusion_lat": 0.0, "is_disabled": 0, "rental_uris": {"ios": "https://dc.lft.to/lastmile_qr_scan", "android": "https://dc.lft.to/lastmile_qr_scan"}, "bike_id": "df2fc027fcf4392126e3406cb65636d6", "lat": 38.92410516666666, "name": "df2fc027fcf4392126e3406cb65636d6", "lon": -77.02005333333334, "fusion_lon": 0.0}, {"is_reserved": 0, "type": "electric_scooter", "fusion_lat": 0.0, "is_disabled": 0, "rental_uris": {"ios": "https://dc.lft.to/lastmile_qr_scan", "android": "https://dc.lft.to/lastmile_qr_scan"}, "bike_id": "f369835925c672bafefbefd89de7c835", "lat": 38.90259316666667, "name": "f369835925c672bafefbefd89de7c835", "lon": -76.97703233333333, "fusion_lon": 0.0}, {"is_reserved": 0, "type": "electric_bike", "fusion_lat": 0.0, "is_disabled": 0, "rental_uris": {"ios": "https://dc.lft.to/lastmile_qr_scan", "android": "https://dc.lft.to/lastmile_qr_scan"}, "bike_id": "7d10f33ac5a0075c3d47f5745db7b683", "lat": 38.896198166666665, "name": "7d10f33ac5a0075c3d47f5745db7b683", "lon": -76.907493, "fusion_lon": 0.0}, {"is_reserved": 0, "type": "electric_scooter", "fusion_lat": 0.0, "is_disabled": 0, "rental_uris": {"ios": "https://dc.lft.to/lastmile_qr_scan", "android": "https://dc.lft.to/lastmile_qr_scan"}, "bike_id": "dbc4b311be8dc187056de1c62f6f9d68", "lat": 38.90263066666667, "name": "dbc4b311be8dc187056de1c62f6f9d68", "lon": -77.03470033333333, "fusion_lon": 0.0}, {"is_reserved": 0, "type": "electric_scooter", "fusion_lat": 0.0, "is_disabled": 0, "rental_uris": {"ios": "https://dc.lft.to/lastmile_qr_scan", "android": "https://dc.lft.to/lastmile_qr_scan"}, "bike_id": "df87a7ef5b053e13e952fbe6ddaabe93", "lat": 38.9016655, "name": "df87a7ef5b053e13e952fbe6ddaabe93", "lon": -77.02233383333333, "fusion_lon": 0.0}, {"is_reserved": 0, "type": "electric_scooter", "fusion_lat": 0.0, "is_disabled": 0, "rental_uris": {"ios": "https://dc.lft.to/lastmile_qr_scan", "android": "https://dc.lft.to/lastmile_qr_scan"}, "bike_id": "2a299d37f4bf4726a3908b1f19d3543a", "lat": 38.911148833333336, "name": "2a299d37f4bf4726a3908b1f19d3543a", "lon": -77.033649, "fusion_lon": 0.0}, {"is_reserved": 0, "type": "electric_scooter", "fusion_lat": 0.0, "is_disabled": 0, "rental_uris": {"ios": "https://dc.lft.to/lastmile_qr_scan", "android": "https://dc.lft.to/lastmile_qr_scan"}, "bike_id": "ba479783ee2f2f9d7bf8750b63210d34", "lat": 38.92183416666666, "name": "ba479783ee2f2f9d7bf8750b63210d34", "lon": -77.04602816666667, "fusion_lon": 0.0}, {"is_reserved": 0, "type": "electric_scooter", "fusion_lat": 0.0, "is_disabled": 0, "rental_uris": {"ios": "https://dc.lft.to/lastmile_qr_scan", "android": "https://dc.lft.to/lastmile_qr_scan"}, "bike_id": "bd41d0635230e0e1877728eb5eef66b8", "lat": 38.90147266666666, "name": "bd41d0635230e0e1877728eb5eef66b8", "lon": -76.93160683333333, "fusion_lon": 0.0}, {"is_reserved": 0, "type": "electric_scooter", "fusion_lat": 0.0, "is_disabled": 0, "rental_uris": {"ios": "https://dc.lft.to/lastmile_qr_scan", "android": "https://dc.lft.to/lastmile_qr_scan"}, "bike_id": "f1c4611752762015668c46518a934363", "lat": 38.921809333333336, "name": "f1c4611752762015668c46518a934363", "lon": -77.03844333333333, "fusion_lon": 0.0}, {"is_reserved": 0, "type": "electric_bike", "fusion_lat": 0.0, "is_disabled": 0, "rental_uris": {"ios": "https://dc.lft.to/lastmile_qr_scan", "android": "https://dc.lft.to/lastmile_qr_scan"}, "bike_id": "747c7670da9d76420f9654f43a12b169", "lat": 38.906963166666664, "name": "747c7670da9d76420f9654f43a12b169", "lon": -76.952548, "fusion_lon": 0.0}, {"is_reserved": 0, "type": "electric_scooter", "fusion_lat": 0.0, "is_disabled": 0, "rental_uris": {"ios": "https://dc.lft.to/lastmile_qr_scan", "android": "https://dc.lft.to/lastmile_qr_scan"}, "bike_id": "7477540ac8f751c8a5c55bbea36f0180", "lat": 38.90113633333333, "name": "7477540ac8f751c8a5c55bbea36f0180", "lon": -77.0183215, "fusion_lon": 0.0}, {"is_reserved": 0, "type": "electric_scooter", "fusion_lat": 0.0, "is_disabled": 0, "rental_uris": {"ios": "https://dc.lft.to/lastmile_qr_scan", "android": "https://dc.lft.to/lastmile_qr_scan"}, "bike_id": "050468afcd6745563bf51e9ec535fcc6", "lat": 38.96621433333333, "name": "050468afcd6745563bf51e9ec535fcc6", "lon": -77.020032, "fusion_lon": 0.0}, {"is_reserved": 0, "type": "electric_bike", "fusion_lat": 0.0, "is_disabled": 0, "rental_uris": {"ios": "https://dc.lft.to/lastmile_qr_scan", "android": "https://dc.lft.to/lastmile_qr_scan"}, "bike_id": "c01dcba44f7be8ebd86018218b496374", "lat": 38.813355333333334, "name": "c01dcba44f7be8ebd86018218b496374", "lon": -77.05113633333333, "fusion_lon": 0.0}, {"is_reserved": 0, "type": "electric_bike", "fusion_lat": 0.0, "is_disabled": 0, "rental_uris": {"ios": "https://dc.lft.to/lastmile_qr_scan", "android": "https://dc.lft.to/lastmile_qr_scan"}, "bike_id": "ebf4b09207b90904c0aa4198f59f3532", "lat": 38.865576, "name": "ebf4b09207b90904c0aa4198f59f3532", "lon": -76.94150933333333, "fusion_lon": 0.0}, {"is_reserved": 0, "type": "electric_scooter", "fusion_lat": 0.0, "is_disabled": 0, "rental_uris": {"ios": "https://dc.lft.to/lastmile_qr_scan", "android": "https://dc.lft.to/lastmile_qr_scan"}, "bike_id": "e06c81862020490e315f9073abedf417", "lat": 38.9107765, "name": "e06c81862020490e315f9073abedf417", "lon": -77.0161265, "fusion_lon": 0.0}, {"is_reserved": 0, "type": "electric_scooter", "fusion_lat": 0.0, "is_disabled": 0, "rental_uris": {"ios": "https://dc.lft.to/lastmile_qr_scan", "android": "https://dc.lft.to/lastmile_qr_scan"}, "bike_id": "6f2fac95564e9b0e6ca9f44f972aab6c", "lat": 38.9124655, "name": "6f2fac95564e9b0e6ca9f44f972aab6c", "lon": -76.986776, "fusion_lon": 0.0}, {"is_reserved": 0, "type": "electric_scooter", "fusion_lat": 0.0, "is_disabled": 0, "rental_uris": {"ios": "https://dc.lft.to/lastmile_qr_scan", "android": "https://dc.lft.to/lastmile_qr_scan"}, "bike_id": "91f82a2a56a5c9618222518d772593b2", "lat": 38.89775916666667, "name": "91f82a2a56a5c9618222518d772593b2", "lon": -77.0478225, "fusion_lon": 0.0}, {"is_reserved": 0, "type": "electric_scooter", "fusion_lat": 0.0, "is_disabled": 0, "rental_uris": {"ios": "https://dc.lft.to/lastmile_qr_scan", "android": "https://dc.lft.to/lastmile_qr_scan"}, "bike_id": "65fb047a6b12f24629801ec9d329191b", "lat": 38.915584333333335, "name": "65fb047a6b12f24629801ec9d329191b", "lon": -77.0241315, "fusion_lon": 0.0}, {"is_reserved": 0, "type": "electric_scooter", "fusion_lat": 0.0, "is_disabled": 0, "rental_uris": {"ios": "https://dc.lft.to/lastmile_qr_scan", "android": "https://dc.lft.to/lastmile_qr_scan"}, "bike_id": "c2e2ff4bddc03b883c33a44ac43ae622", "lat": 38.93095183333333, "name": "c2e2ff4bddc03b883c33a44ac43ae622", "lon": -77.0255345, "fusion_lon": 0.0}, {"is_reserved": 0, "type": "electric_scooter", "fusion_lat": 0.0, "is_disabled": 0, "rental_uris": {"ios": "https://dc.lft.to/lastmile_qr_scan", "android": "https://dc.lft.to/lastmile_qr_scan"}, "bike_id": "673f7501ba9073cd450baae321df2305", "lat": 38.90967283333333, "name": "673f7501ba9073cd450baae321df2305", "lon": -77.0333345, "fusion_lon": 0.0}, {"is_reserved": 0, "type": "electric_scooter", "fusion_lat": 0.0, "is_disabled": 0, "rental_uris": {"ios": "https://dc.lft.to/lastmile_qr_scan", "android": "https://dc.lft.to/lastmile_qr_scan"}, "bike_id": "a8b99992604b39af745d3216a2202b6a", "lat": 38.905879166666665, "name": "a8b99992604b39af745d3216a2202b6a", "lon": -77.006498, "fusion_lon": 0.0}, {"is_reserved": 0, "type": "electric_scooter", "fusion_lat": 0.0, "is_disabled": 0, "rental_uris": {"ios": "https://dc.lft.to/lastmile_qr_scan", "android": "https://dc.lft.to/lastmile_qr_scan"}, "bike_id": "965c59f4391d18a5bf66f440d5a43f07", "lat": 38.87868983333333, "name": "965c59f4391d18a5bf66f440d5a43f07", "lon": -77.006981, "fusion_lon": 0.0}, {"is_reserved": 0, "type": "electric_scooter", "fusion_lat": 0.0, "is_disabled": 0, "rental_uris": {"ios": "https://dc.lft.to/lastmile_qr_scan", "android": "https://dc.lft.to/lastmile_qr_scan"}, "bike_id": "01dd2dea67902230b64383263554648c", "lat": 38.913372333333335, "name": "01dd2dea67902230b64383263554648c", "lon": -77.03203083333334, "fusion_lon": 0.0}, {"is_reserved": 0, "type": "electric_scooter", "fusion_lat": 0.0, "is_disabled": 0, "rental_uris": {"ios": "https://dc.lft.to/lastmile_qr_scan", "android": "https://dc.lft.to/lastmile_qr_scan"}, "bike_id": "0242fa0e9edadd3652b882fe8461a463", "lat": 38.92106066666667, "name": "0242fa0e9edadd3652b882fe8461a463", "lon": -77.04706133333333, "fusion_lon": 0.0}, {"is_reserved": 0, "type": "electric_scooter", "fusion_lat": 0.0, "is_disabled": 0, "rental_uris": {"ios": "https://dc.lft.to/lastmile_qr_scan", "android": "https://dc.lft.to/lastmile_qr_scan"}, "bike_id": "93dfde35645162d1ca7ab088799ddb81", "lat": 38.93091783333333, "name": "93dfde35645162d1ca7ab088799ddb81", "lon": -77.02672283333334, "fusion_lon": 0.0}, {"is_reserved": 0, "type": "electric_scooter", "fusion_lat": 0.0, "is_disabled": 0, "rental_uris": {"ios": "https://dc.lft.to/lastmile_qr_scan", "android": "https://dc.lft.to/lastmile_qr_scan"}, "bike_id": "47fc70ead75ed74b1a555e3e31e31de3", "lat": 38.914152, "name": "47fc70ead75ed74b1a555e3e31e31de3", "lon": -77.0309535, "fusion_lon": 0.0}, {"is_reserved": 0, "type": "electric_bike", "fusion_lat": 0.0, "is_disabled": 0, "rental_uris": {"ios": "https://dc.lft.to/lastmile_qr_scan", "android": "https://dc.lft.to/lastmile_qr_scan"}, "bike_id": "f63baffea1253cdb5524be1b2c82f50b", "lat": 38.8643925, "name": "f63baffea1253cdb5524be1b2c82f50b", "lon": -76.96988383333333, "fusion_lon": 0.0}, {"is_reserved": 0, "type": "electric_scooter", "fusion_lat": 0.0, "is_disabled": 0, "rental_uris": {"ios": "https://dc.lft.to/lastmile_qr_scan", "android": "https://dc.lft.to/lastmile_qr_scan"}, "bike_id": "7847c7d9b3dc8c4b35a88f9bdcc80086", "lat": 38.90990766666667, "name": "7847c7d9b3dc8c4b35a88f9bdcc80086", "lon": -77.02702416666666, "fusion_lon": 0.0}, {"is_reserved": 0, "type": "electric_scooter", "fusion_lat": 0.0, "is_disabled": 0, "rental_uris": {"ios": "https://dc.lft.to/lastmile_qr_scan", "android": "https://dc.lft.to/lastmile_qr_scan"}, "bike_id": "9a069ba76bd55f01f1b62620af15a975", "lat": 38.887636, "name": "9a069ba76bd55f01f1b62620af15a975", "lon": -77.00041916666666, "fusion_lon": 0.0}, {"is_reserved": 0, "type": "electric_bike", "fusion_lat": 0.0, "is_disabled": 0, "rental_uris": {"ios": "https://dc.lft.to/lastmile_qr_scan", "android": "https://dc.lft.to/lastmile_qr_scan"}, "bike_id": "70c8bd0b1ffd9ad077ad98c05b06b2e6", "lat": 38.925521833333335, "name": "70c8bd0b1ffd9ad077ad98c05b06b2e6", "lon": -77.00142666666666, "fusion_lon": 0.0}, {"is_reserved": 0, "type": "electric_scooter", "fusion_lat": 0.0, "is_disabled": 0, "rental_uris": {"ios": "https://dc.lft.to/lastmile_qr_scan", "android": "https://dc.lft.to/lastmile_qr_scan"}, "bike_id": "8e3139dc8f7a8afbb825f040b9046b96", "lat": 38.92111083333333, "name": "8e3139dc8f7a8afbb825f040b9046b96", "lon": -77.0363945, "fusion_lon": 0.0}, {"is_reserved": 0, "type": "electric_bike", "fusion_lat": 0.0, "is_disabled": 0, "rental_uris": {"ios": "https://dc.lft.to/lastmile_qr_scan", "android": "https://dc.lft.to/lastmile_qr_scan"}, "bike_id": "276f350bf1fe0176ed3c21c851e0d1f1", "lat": 38.9673115, "name": "276f350bf1fe0176ed3c21c851e0d1f1", "lon": -77.08919033333333, "fusion_lon": 0.0}, {"is_reserved": 0, "type": "electric_bike", "fusion_lat": 0.0, "is_disabled": 0, "rental_uris": {"ios": "https://dc.lft.to/lastmile_qr_scan", "android": "https://dc.lft.to/lastmile_qr_scan"}, "bike_id": "90897dc686bc4eb068626c992d1bf062", "lat": 38.850865166666665, "name": "90897dc686bc4eb068626c992d1bf062", "lon": -76.98162416666666, "fusion_lon": 0.0}, {"is_reserved": 0, "type": "electric_bike", "fusion_lat": 0.0, "is_disabled": 0, "rental_uris": {"ios": "https://dc.lft.to/lastmile_qr_scan", "android": "https://dc.lft.to/lastmile_qr_scan"}, "bike_id": "dbc7e51f9cd749ca83b8563df8a094f6", "lat": 38.91453816666667, "name": "dbc7e51f9cd749ca83b8563df8a094f6", "lon": -76.97284783333333, "fusion_lon": 0.0}, {"is_reserved": 0, "type": "electric_scooter", "fusion_lat": 0.0, "is_disabled": 0, "rental_uris": {"ios": "https://dc.lft.to/lastmile_qr_scan", "android": "https://dc.lft.to/lastmile_qr_scan"}, "bike_id": "4992b0ce43de5b074a9be3363cc1be24", "lat": 38.93630816666666, "name": "4992b0ce43de5b074a9be3363cc1be24", "lon": -77.03659483333334, "fusion_lon": 0.0}, {"is_reserved": 0, "type": "electric_bike", "fusion_lat": 0.0, "is_disabled": 0, "rental_uris": {"ios": "https://dc.lft.to/lastmile_qr_scan", "android": "https://dc.lft.to/lastmile_qr_scan"}, "bike_id": "94df6b497c848d173d6dbcf56763799e", "lat": 38.9261075, "name": "94df6b497c848d173d6dbcf56763799e", "lon": -77.02430733333334, "fusion_lon": 0.0}, {"is_reserved": 0, "type": "electric_scooter", "fusion_lat": 0.0, "is_disabled": 0, "rental_uris": {"ios": "https://dc.lft.to/lastmile_qr_scan", "android": "https://dc.lft.to/lastmile_qr_scan"}, "bike_id": "a67126bdd14e18b4000f4fbd2b9c3fef", "lat": 38.90139816666667, "name": "a67126bdd14e18b4000f4fbd2b9c3fef", "lon": -76.97405766666667, "fusion_lon": 0.0}, {"is_reserved": 0, "type": "electric_scooter", "fusion_lat": 0.0, "is_disabled": 0, "rental_uris": {"ios": "https://dc.lft.to/lastmile_qr_scan", "android": "https://dc.lft.to/lastmile_qr_scan"}, "bike_id": "f12ebbb0f2053db4a652de7cf18db78f", "lat": 38.92218166666667, "name": "f12ebbb0f2053db4a652de7cf18db78f", "lon": -77.02029866666666, "fusion_lon": 0.0}, {"is_reserved": 0, "type": "electric_bike", "fusion_lat": 0.0, "is_disabled": 0, "rental_uris": {"ios": "https://dc.lft.to/lastmile_qr_scan", "android": "https://dc.lft.to/lastmile_qr_scan"}, "bike_id": "bb8da973fcf60984d830e2ea68c6ca08", "lat": 38.835826, "name": "bb8da973fcf60984d830e2ea68c6ca08", "lon": -76.99017033333334, "fusion_lon": 0.0}, {"is_reserved": 0, "type": "electric_scooter", "fusion_lat": 0.0, "is_disabled": 0, "rental_uris": {"ios": "https://dc.lft.to/lastmile_qr_scan", "android": "https://dc.lft.to/lastmile_qr_scan"}, "bike_id": "6222a1097a22b4fd8a775ed3f1f133a5", "lat": 38.922396, "name": "6222a1097a22b4fd8a775ed3f1f133a5", "lon": -77.02826266666666, "fusion_lon": 0.0}, {"is_reserved": 0, "type": "electric_scooter", "fusion_lat": 0.0, "is_disabled": 0, "rental_uris": {"ios": "https://dc.lft.to/lastmile_qr_scan", "android": "https://dc.lft.to/lastmile_qr_scan"}, "bike_id": "0bdc2683920b1429332c1d972e8a6bc4", "lat": 38.9417385, "name": "0bdc2683920b1429332c1d972e8a6bc4", "lon": -77.02538033333333, "fusion_lon": 0.0}, {"is_reserved": 0, "type": "electric_scooter", "fusion_lat": 0.0, "is_disabled": 0, "rental_uris": {"ios": "https://dc.lft.to/lastmile_qr_scan", "android": "https://dc.lft.to/lastmile_qr_scan"}, "bike_id": "b1296eb5a740ad501d74b8d7570f80d9", "lat": 38.8966545, "name": "b1296eb5a740ad501d74b8d7570f80d9", "lon": -76.94910783333333, "fusion_lon": 0.0}, {"is_reserved": 0, "type": "electric_scooter", "fusion_lat": 0.0, "is_disabled": 0, "rental_uris": {"ios": "https://dc.lft.to/lastmile_qr_scan", "android": "https://dc.lft.to/lastmile_qr_scan"}, "bike_id": "0b101554cf19978e69e1bd7d63e90ff1", "lat": 38.9216795, "name": "0b101554cf19978e69e1bd7d63e90ff1", "lon": -77.038492, "fusion_lon": 0.0}, {"is_reserved": 0, "type": "electric_scooter", "fusion_lat": 0.0, "is_disabled": 0, "rental_uris": {"ios": "https://dc.lft.to/lastmile_qr_scan", "android": "https://dc.lft.to/lastmile_qr_scan"}, "bike_id": "0467dcab414500d56186c6f92846f8ac", "lat": 38.917397, "name": "0467dcab414500d56186c6f92846f8ac", "lon": -77.068939, "fusion_lon": 0.0}, {"is_reserved": 0, "type": "electric_scooter", "fusion_lat": 0.0, "is_disabled": 0, "rental_uris": {"ios": "https://dc.lft.to/lastmile_qr_scan", "android": "https://dc.lft.to/lastmile_qr_scan"}, "bike_id": "9f1321bb184371341ebf85aac57104c0", "lat": 38.921465166666664, "name": "9f1321bb184371341ebf85aac57104c0", "lon": -77.04588216666667, "fusion_lon": 0.0}, {"is_reserved": 0, "type": "electric_scooter", "fusion_lat": 0.0, "is_disabled": 0, "rental_uris": {"ios": "https://dc.lft.to/lastmile_qr_scan", "android": "https://dc.lft.to/lastmile_qr_scan"}, "bike_id": "6855ad6b1411a91db36f6e8b518806e6", "lat": 38.897408, "name": "6855ad6b1411a91db36f6e8b518806e6", "lon": -77.00073033333334, "fusion_lon": 0.0}, {"is_reserved": 0, "type": "electric_scooter", "fusion_lat": 0.0, "is_disabled": 0, "rental_uris": {"ios": "https://dc.lft.to/lastmile_qr_scan", "android": "https://dc.lft.to/lastmile_qr_scan"}, "bike_id": "7a9dc7391256b798cdad3990bcfab6f9", "lat": 38.94919766666667, "name": "7a9dc7391256b798cdad3990bcfab6f9", "lon": -77.0185725, "fusion_lon": 0.0}, {"is_reserved": 0, "type": "electric_scooter", "fusion_lat": 0.0, "is_disabled": 0, "rental_uris": {"ios": "https://dc.lft.to/lastmile_qr_scan", "android": "https://dc.lft.to/lastmile_qr_scan"}, "bike_id": "97e0f17dbc951408b28c5f859931aed7", "lat": 38.88615733333334, "name": "97e0f17dbc951408b28c5f859931aed7", "lon": -77.0220765, "fusion_lon": 0.0}, {"is_reserved": 0, "type": "electric_scooter", "fusion_lat": 0.0, "is_disabled": 0, "rental_uris": {"ios": "https://dc.lft.to/lastmile_qr_scan", "android": "https://dc.lft.to/lastmile_qr_scan"}, "bike_id": "e52eb947539e9e90763295ac56abc0da", "lat": 38.903031666666664, "name": "e52eb947539e9e90763295ac56abc0da", "lon": -76.9984115, "fusion_lon": 0.0}, {"is_reserved": 0, "type": "electric_scooter", "fusion_lat": 0.0, "is_disabled": 0, "rental_uris": {"ios": "https://dc.lft.to/lastmile_qr_scan", "android": "https://dc.lft.to/lastmile_qr_scan"}, "bike_id": "8f158551eb7f2aa6972173fde4339d6d", "lat": 38.90564783333333, "name": "8f158551eb7f2aa6972173fde4339d6d", "lon": -77.0275805, "fusion_lon": 0.0}, {"is_reserved": 0, "type": "electric_scooter", "fusion_lat": 0.0, "is_disabled": 0, "rental_uris": {"ios": "https://dc.lft.to/lastmile_qr_scan", "android": "https://dc.lft.to/lastmile_qr_scan"}, "bike_id": "d2ba4e8f5880ebc151bc638040acd027", "lat": 38.90362316666667, "name": "d2ba4e8f5880ebc151bc638040acd027", "lon": -77.0401115, "fusion_lon": 0.0}, {"is_reserved": 0, "type": "electric_scooter", "fusion_lat": 0.0, "is_disabled": 0, "rental_uris": {"ios": "https://dc.lft.to/lastmile_qr_scan", "android": "https://dc.lft.to/lastmile_qr_scan"}, "bike_id": "63a4a6b76b0853445fb5f34ecdea4219", "lat": 38.8762975, "name": "63a4a6b76b0853445fb5f34ecdea4219", "lon": -77.00212383333333, "fusion_lon": 0.0}, {"is_reserved": 0, "type": "electric_scooter", "fusion_lat": 0.0, "is_disabled": 0, "rental_uris": {"ios": "https://dc.lft.to/lastmile_qr_scan", "android": "https://dc.lft.to/lastmile_qr_scan"}, "bike_id": "91cce5c4f57620f4d2ecbf9be96684f1", "lat": 38.91264183333333, "name": "91cce5c4f57620f4d2ecbf9be96684f1", "lon": -77.04767483333333, "fusion_lon": 0.0}, {"is_reserved": 0, "type": "electric_scooter", "fusion_lat": 0.0, "is_disabled": 0, "rental_uris": {"ios": "https://dc.lft.to/lastmile_qr_scan", "android": "https://dc.lft.to/lastmile_qr_scan"}, "bike_id": "ad15ba9f25a88a9cf9ed644f2d95cd09", "lat": 38.8877285, "name": "ad15ba9f25a88a9cf9ed644f2d95cd09", "lon": -76.977313, "fusion_lon": 0.0}, {"is_reserved": 0, "type": "electric_scooter", "fusion_lat": 0.0, "is_disabled": 0, "rental_uris": {"ios": "https://dc.lft.to/lastmile_qr_scan", "android": "https://dc.lft.to/lastmile_qr_scan"}, "bike_id": "b3daa2112db93c7dfed3ce003a895efd", "lat": 38.89934816666667, "name": "b3daa2112db93c7dfed3ce003a895efd", "lon": -76.93760716666667, "fusion_lon": 0.0}, {"is_reserved": 0, "type": "electric_scooter", "fusion_lat": 0.0, "is_disabled": 0, "rental_uris": {"ios": "https://dc.lft.to/lastmile_qr_scan", "android": "https://dc.lft.to/lastmile_qr_scan"}, "bike_id": "d96046bc75c8dae3f6780bf251951517", "lat": 38.87186233333333, "name": "d96046bc75c8dae3f6780bf251951517", "lon": -77.00581216666667, "fusion_lon": 0.0}, {"is_reserved": 0, "type": "electric_scooter", "fusion_lat": 0.0, "is_disabled": 0, "rental_uris": {"ios": "https://dc.lft.to/lastmile_qr_scan", "android": "https://dc.lft.to/lastmile_qr_scan"}, "bike_id": "eb3ff48dd74844b370238fed65d92bc7", "lat": 38.88772783333334, "name": "eb3ff48dd74844b370238fed65d92bc7", "lon": -76.97733083333334, "fusion_lon": 0.0}, {"is_reserved": 0, "type": "electric_scooter", "fusion_lat": 0.0, "is_disabled": 0, "rental_uris": {"ios": "https://dc.lft.to/lastmile_qr_scan", "android": "https://dc.lft.to/lastmile_qr_scan"}, "bike_id": "f5cb400fba54c4325b5b2eacc9983066", "lat": 38.924333, "name": "f5cb400fba54c4325b5b2eacc9983066", "lon": -77.0195445, "fusion_lon": 0.0}, {"is_reserved": 0, "type": "electric_scooter", "fusion_lat": 0.0, "is_disabled": 0, "rental_uris": {"ios": "https://dc.lft.to/lastmile_qr_scan", "android": "https://dc.lft.to/lastmile_qr_scan"}, "bike_id": "304473698ec0107cd71ef02b0001845b", "lat": 38.941726, "name": "304473698ec0107cd71ef02b0001845b", "lon": -77.0253835, "fusion_lon": 0.0}, {"is_reserved": 0, "type": "electric_scooter", "fusion_lat": 0.0, "is_disabled": 0, "rental_uris": {"ios": "https://dc.lft.to/lastmile_qr_scan", "android": "https://dc.lft.to/lastmile_qr_scan"}, "bike_id": "a8bb518759b0c96e026b4ce911a35c8a", "lat": 38.90917833333334, "name": "a8bb518759b0c96e026b4ce911a35c8a", "lon": -77.049468, "fusion_lon": 0.0}, {"is_reserved": 0, "type": "electric_scooter", "fusion_lat": 0.0, "is_disabled": 0, "rental_uris": {"ios": "https://dc.lft.to/lastmile_qr_scan", "android": "https://dc.lft.to/lastmile_qr_scan"}, "bike_id": "ba48e463c0f1d8200ecc0b9cf43df072", "lat": 38.9218125, "name": "ba48e463c0f1d8200ecc0b9cf43df072", "lon": -77.04234616666666, "fusion_lon": 0.0}, {"is_reserved": 0, "type": "electric_scooter", "fusion_lat": 0.0, "is_disabled": 0, "rental_uris": {"ios": "https://dc.lft.to/lastmile_qr_scan", "android": "https://dc.lft.to/lastmile_qr_scan"}, "bike_id": "b0f2a31e832fb5e1f3ae3ca43b12f8a6", "lat": 38.94709683333333, "name": "b0f2a31e832fb5e1f3ae3ca43b12f8a6", "lon": -77.01937716666667, "fusion_lon": 0.0}, {"is_reserved": 0, "type": "electric_scooter", "fusion_lat": 0.0, "is_disabled": 0, "rental_uris": {"ios": "https://dc.lft.to/lastmile_qr_scan", "android": "https://dc.lft.to/lastmile_qr_scan"}, "bike_id": "6bb44c6cf58066dab4155388854ab577", "lat": 38.912855, "name": "6bb44c6cf58066dab4155388854ab577", "lon": -77.06799533333333, "fusion_lon": 0.0}, {"is_reserved": 0, "type": "electric_scooter", "fusion_lat": 0.0, "is_disabled": 0, "rental_uris": {"ios": "https://dc.lft.to/lastmile_qr_scan", "android": "https://dc.lft.to/lastmile_qr_scan"}, "bike_id": "dc324d4b31e24f4de9b93df45fc19b80", "lat": 38.909017166666665, "name": "dc324d4b31e24f4de9b93df45fc19b80", "lon": -76.99128433333334, "fusion_lon": 0.0}, {"is_reserved": 0, "type": "electric_bike", "fusion_lat": 0.0, "is_disabled": 0, "rental_uris": {"ios": "https://dc.lft.to/lastmile_qr_scan", "android": "https://dc.lft.to/lastmile_qr_scan"}, "bike_id": "1fff79088507f54770ef87393858a0f6", "lat": 38.804083166666665, "name": "1fff79088507f54770ef87393858a0f6", "lon": -77.11331966666667, "fusion_lon": 0.0}, {"is_reserved": 0, "type": "electric_scooter", "fusion_lat": 0.0, "is_disabled": 0, "rental_uris": {"ios": "https://dc.lft.to/lastmile_qr_scan", "android": "https://dc.lft.to/lastmile_qr_scan"}, "bike_id": "7f8e6c42d28a3959b9684eb24886652a", "lat": 38.874724, "name": "7f8e6c42d28a3959b9684eb24886652a", "lon": -76.9916665, "fusion_lon": 0.0}, {"is_reserved": 0, "type": "electric_scooter", "fusion_lat": 0.0, "is_disabled": 0, "rental_uris": {"ios": "https://dc.lft.to/lastmile_qr_scan", "android": "https://dc.lft.to/lastmile_qr_scan"}, "bike_id": "63b838f73f767647b06a0532fe466bdd", "lat": 38.90689716666667, "name": "63b838f73f767647b06a0532fe466bdd", "lon": -77.01012083333333, "fusion_lon": 0.0}, {"is_reserved": 0, "type": "electric_scooter", "fusion_lat": 0.0, "is_disabled": 0, "rental_uris": {"ios": "https://dc.lft.to/lastmile_qr_scan", "android": "https://dc.lft.to/lastmile_qr_scan"}, "bike_id": "1662a9a4c620451c71ea9778db3f79c6", "lat": 38.932697833333336, "name": "1662a9a4c620451c71ea9778db3f79c6", "lon": -77.0209485, "fusion_lon": 0.0}, {"is_reserved": 0, "type": "electric_scooter", "fusion_lat": 0.0, "is_disabled": 0, "rental_uris": {"ios": "https://dc.lft.to/lastmile_qr_scan", "android": "https://dc.lft.to/lastmile_qr_scan"}, "bike_id": "651a8f23dbe790bcf13dad5e22934d16", "lat": 38.9290915, "name": "651a8f23dbe790bcf13dad5e22934d16", "lon": -77.02163366666667, "fusion_lon": 0.0}, {"is_reserved": 0, "type": "electric_bike", "fusion_lat": 0.0, "is_disabled": 0, "rental_uris": {"ios": "https://dc.lft.to/lastmile_qr_scan", "android": "https://dc.lft.to/lastmile_qr_scan"}, "bike_id": "aba4557fb882f2a37b31decf64f717a7", "lat": 38.8559425, "name": "aba4557fb882f2a37b31decf64f717a7", "lon": -76.9727785, "fusion_lon": 0.0}, {"is_reserved": 0, "type": "electric_bike", "fusion_lat": 0.0, "is_disabled": 0, "rental_uris": {"ios": "https://dc.lft.to/lastmile_qr_scan", "android": "https://dc.lft.to/lastmile_qr_scan"}, "bike_id": "ac02c17ac1b21506d46cd0c8a8f3bc7d", "lat": 38.894270666666664, "name": "ac02c17ac1b21506d46cd0c8a8f3bc7d", "lon": -77.09447916666667, "fusion_lon": 0.0}, {"is_reserved": 0, "type": "electric_scooter", "fusion_lat": 0.0, "is_disabled": 0, "rental_uris": {"ios": "https://dc.lft.to/lastmile_qr_scan", "android": "https://dc.lft.to/lastmile_qr_scan"}, "bike_id": "989ac082987060aa8ce231c0cca23dd9", "lat": 38.9177065, "name": "989ac082987060aa8ce231c0cca23dd9", "lon": -77.04062283333333, "fusion_lon": 0.0}, {"is_reserved": 0, "type": "electric_scooter", "fusion_lat": 0.0, "is_disabled": 0, "rental_uris": {"ios": "https://dc.lft.to/lastmile_qr_scan", "android": "https://dc.lft.to/lastmile_qr_scan"}, "bike_id": "ef92ef0472fd9a780f7acc2a6cafa4e6", "lat": 38.883705166666665, "name": "ef92ef0472fd9a780f7acc2a6cafa4e6", "lon": -76.99516916666667, "fusion_lon": 0.0}, {"is_reserved": 0, "type": "electric_scooter", "fusion_lat": 0.0, "is_disabled": 0, "rental_uris": {"ios": "https://dc.lft.to/lastmile_qr_scan", "android": "https://dc.lft.to/lastmile_qr_scan"}, "bike_id": "3b22e1349313a96339bbe66300e614a3", "lat": 38.90662533333333, "name": "3b22e1349313a96339bbe66300e614a3", "lon": -77.0162975, "fusion_lon": 0.0}, {"is_reserved": 0, "type": "electric_bike", "fusion_lat": 0.0, "is_disabled": 0, "rental_uris": {"ios": "https://dc.lft.to/lastmile_qr_scan", "android": "https://dc.lft.to/lastmile_qr_scan"}, "bike_id": "f4d53d7db3d9cd997f01541a7f2368db", "lat": 38.982239166666666, "name": "f4d53d7db3d9cd997f01541a7f2368db", "lon": -77.0954585, "fusion_lon": 0.0}, {"is_reserved": 0, "type": "electric_bike", "fusion_lat": 0.0, "is_disabled": 0, "rental_uris": {"ios": "https://dc.lft.to/lastmile_qr_scan", "android": "https://dc.lft.to/lastmile_qr_scan"}, "bike_id": "f9c17677a26b330000bbc260ea05bf88", "lat": 38.840893333333334, "name": "f9c17677a26b330000bbc260ea05bf88", "lon": -76.9702875, "fusion_lon": 0.0}, {"is_reserved": 0, "type": "electric_scooter", "fusion_lat": 0.0, "is_disabled": 0, "rental_uris": {"ios": "https://dc.lft.to/lastmile_qr_scan", "android": "https://dc.lft.to/lastmile_qr_scan"}, "bike_id": "9a2565ecc7672967830be4b0b5fa3d35", "lat": 38.8984395, "name": "9a2565ecc7672967830be4b0b5fa3d35", "lon": -77.01881983333334, "fusion_lon": 0.0}, {"is_reserved": 0, "type": "electric_scooter", "fusion_lat": 0.0, "is_disabled": 0, "rental_uris": {"ios": "https://dc.lft.to/lastmile_qr_scan", "android": "https://dc.lft.to/lastmile_qr_scan"}, "bike_id": "c23210f2bfba586a19e672653c74760a", "lat": 38.9121815, "name": "c23210f2bfba586a19e672653c74760a", "lon": -77.0384215, "fusion_lon": 0.0}, {"is_reserved": 0, "type": "electric_bike", "fusion_lat": 0.0, "is_disabled": 0, "rental_uris": {"ios": "https://dc.lft.to/lastmile_qr_scan", "android": "https://dc.lft.to/lastmile_qr_scan"}, "bike_id": "354e5581a6d5292a4c060b3efbb5debb", "lat": 39.0229855, "name": "354e5581a6d5292a4c060b3efbb5debb", "lon": -77.02107766666667, "fusion_lon": 0.0}, {"is_reserved": 0, "type": "electric_scooter", "fusion_lat": 0.0, "is_disabled": 0, "rental_uris": {"ios": "https://dc.lft.to/lastmile_qr_scan", "android": "https://dc.lft.to/lastmile_qr_scan"}, "bike_id": "edb9f48dd988a2ae68ca1eee9cc0e7e5", "lat": 38.919685666666666, "name": "edb9f48dd988a2ae68ca1eee9cc0e7e5", "lon": -77.0421815, "fusion_lon": 0.0}, {"is_reserved": 0, "type": "electric_bike", "fusion_lat": 0.0, "is_disabled": 0, "rental_uris": {"ios": "https://dc.lft.to/lastmile_qr_scan", "android": "https://dc.lft.to/lastmile_qr_scan"}, "bike_id": "d0717c19fbaa4e19a3996a4bc978145a", "lat": 38.9747865, "name": "d0717c19fbaa4e19a3996a4bc978145a", "lon": -76.98674866666667, "fusion_lon": 0.0}, {"is_reserved": 0, "type": "electric_scooter", "fusion_lat": 0.0, "is_disabled": 0, "rental_uris": {"ios": "https://dc.lft.to/lastmile_qr_scan", "android": "https://dc.lft.to/lastmile_qr_scan"}, "bike_id": "3709499774b8abe7bc66fffad82ca124", "lat": 38.928308666666666, "name": "3709499774b8abe7bc66fffad82ca124", "lon": -77.02162683333333, "fusion_lon": 0.0}, {"is_reserved": 0, "type": "electric_scooter", "fusion_lat": 0.0, "is_disabled": 0, "rental_uris": {"ios": "https://dc.lft.to/lastmile_qr_scan", "android": "https://dc.lft.to/lastmile_qr_scan"}, "bike_id": "0703431c29e2b21bdbdf9439e1f349c8", "lat": 38.911811666666665, "name": "0703431c29e2b21bdbdf9439e1f349c8", "lon": -77.029573, "fusion_lon": 0.0}, {"is_reserved": 0, "type": "electric_scooter", "fusion_lat": 0.0, "is_disabled": 0, "rental_uris": {"ios": "https://dc.lft.to/lastmile_qr_scan", "android": "https://dc.lft.to/lastmile_qr_scan"}, "bike_id": "e6e4dcd4fe35b4eaf8d4236063a2e2c5", "lat": 38.9248085, "name": "e6e4dcd4fe35b4eaf8d4236063a2e2c5", "lon": -77.02549283333333, "fusion_lon": 0.0}, {"is_reserved": 0, "type": "electric_scooter", "fusion_lat": 0.0, "is_disabled": 0, "rental_uris": {"ios": "https://dc.lft.to/lastmile_qr_scan", "android": "https://dc.lft.to/lastmile_qr_scan"}, "bike_id": "aaa10ae06cf499940aaaf97e1a831b82", "lat": 38.91974033333334, "name": "aaa10ae06cf499940aaaf97e1a831b82", "lon": -77.07121616666667, "fusion_lon": 0.0}, {"is_reserved": 0, "type": "electric_scooter", "fusion_lat": 0.0, "is_disabled": 0, "rental_uris": {"ios": "https://dc.lft.to/lastmile_qr_scan", "android": "https://dc.lft.to/lastmile_qr_scan"}, "bike_id": "598cba9fdf37b6286fc636d1e0cd1ee4", "lat": 38.921442166666665, "name": "598cba9fdf37b6286fc636d1e0cd1ee4", "lon": -77.04361116666666, "fusion_lon": 0.0}, {"is_reserved": 0, "type": "electric_scooter", "fusion_lat": 0.0, "is_disabled": 0, "rental_uris": {"ios": "https://dc.lft.to/lastmile_qr_scan", "android": "https://dc.lft.to/lastmile_qr_scan"}, "bike_id": "ba332fb1d21d91500153c2e0c9e6f68e", "lat": 38.9159555, "name": "ba332fb1d21d91500153c2e0c9e6f68e", "lon": -76.98384416666667, "fusion_lon": 0.0}, {"is_reserved": 0, "type": "electric_scooter", "fusion_lat": 0.0, "is_disabled": 0, "rental_uris": {"ios": "https://dc.lft.to/lastmile_qr_scan", "android": "https://dc.lft.to/lastmile_qr_scan"}, "bike_id": "c1c8084f338f2b9bb0a394b45c3170a9", "lat": 38.939825, "name": "c1c8084f338f2b9bb0a394b45c3170a9", "lon": -77.02881083333334, "fusion_lon": 0.0}, {"is_reserved": 0, "type": "electric_scooter", "fusion_lat": 0.0, "is_disabled": 0, "rental_uris": {"ios": "https://dc.lft.to/lastmile_qr_scan", "android": "https://dc.lft.to/lastmile_qr_scan"}, "bike_id": "fc0a59af972865be7c0354dfacce2ee1", "lat": 38.894771166666665, "name": "fc0a59af972865be7c0354dfacce2ee1", "lon": -77.02726116666666, "fusion_lon": 0.0}, {"is_reserved": 0, "type": "electric_bike", "fusion_lat": 0.0, "is_disabled": 0, "rental_uris": {"ios": "https://dc.lft.to/lastmile_qr_scan", "android": "https://dc.lft.to/lastmile_qr_scan"}, "bike_id": "f1c6d86d07c8e6f23a4a2aa0bc21dab3", "lat": 38.88283333333333, "name": "f1c6d86d07c8e6f23a4a2aa0bc21dab3", "lon": -76.93238816666667, "fusion_lon": 0.0}, {"is_reserved": 0, "type": "electric_scooter", "fusion_lat": 0.0, "is_disabled": 0, "rental_uris": {"ios": "https://dc.lft.to/lastmile_qr_scan", "android": "https://dc.lft.to/lastmile_qr_scan"}, "bike_id": "17f4cbd44b8ad831d1f46334957ac153", "lat": 38.919158833333334, "name": "17f4cbd44b8ad831d1f46334957ac153", "lon": -77.03174583333333, "fusion_lon": 0.0}, {"is_reserved": 0, "type": "electric_scooter", "fusion_lat": 0.0, "is_disabled": 0, "rental_uris": {"ios": "https://dc.lft.to/lastmile_qr_scan", "android": "https://dc.lft.to/lastmile_qr_scan"}, "bike_id": "b0d46c83e4f6d27b66bcb9d692fbb7ef", "lat": 38.91120866666667, "name": "b0d46c83e4f6d27b66bcb9d692fbb7ef", "lon": -77.00482933333333, "fusion_lon": 0.0}, {"is_reserved": 0, "type": "electric_scooter", "fusion_lat": 0.0, "is_disabled": 0, "rental_uris": {"ios": "https://dc.lft.to/lastmile_qr_scan", "android": "https://dc.lft.to/lastmile_qr_scan"}, "bike_id": "70fe4294b71976fbc9a95784ea124743", "lat": 38.92286816666667, "name": "70fe4294b71976fbc9a95784ea124743", "lon": -77.01995516666666, "fusion_lon": 0.0}, {"is_reserved": 0, "type": "electric_scooter", "fusion_lat": 0.0, "is_disabled": 0, "rental_uris": {"ios": "https://dc.lft.to/lastmile_qr_scan", "android": "https://dc.lft.to/lastmile_qr_scan"}, "bike_id": "c038ae729cd18007829863f897e97141", "lat": 38.9221695, "name": "c038ae729cd18007829863f897e97141", "lon": -77.03305, "fusion_lon": 0.0}, {"is_reserved": 0, "type": "electric_scooter", "fusion_lat": 0.0, "is_disabled": 0, "rental_uris": {"ios": "https://dc.lft.to/lastmile_qr_scan", "android": "https://dc.lft.to/lastmile_qr_scan"}, "bike_id": "1d64e63c37c6da10adc08d4aee08e739", "lat": 38.881275333333335, "name": "1d64e63c37c6da10adc08d4aee08e739", "lon": -76.99344483333333, "fusion_lon": 0.0}, {"is_reserved": 0, "type": "electric_scooter", "fusion_lat": 0.0, "is_disabled": 0, "rental_uris": {"ios": "https://dc.lft.to/lastmile_qr_scan", "android": "https://dc.lft.to/lastmile_qr_scan"}, "bike_id": "5ea307092bfae5d356549e7696e34b26", "lat": 38.901952666666666, "name": "5ea307092bfae5d356549e7696e34b26", "lon": -77.02378266666666, "fusion_lon": 0.0}, {"is_reserved": 0, "type": "electric_scooter", "fusion_lat": 0.0, "is_disabled": 0, "rental_uris": {"ios": "https://dc.lft.to/lastmile_qr_scan", "android": "https://dc.lft.to/lastmile_qr_scan"}, "bike_id": "4f16e9a17f63b61505f732fdbfa40a91", "lat": 38.928331166666666, "name": "4f16e9a17f63b61505f732fdbfa40a91", "lon": -77.03706133333333, "fusion_lon": 0.0}, {"is_reserved": 0, "type": "electric_scooter", "fusion_lat": 0.0, "is_disabled": 0, "rental_uris": {"ios": "https://dc.lft.to/lastmile_qr_scan", "android": "https://dc.lft.to/lastmile_qr_scan"}, "bike_id": "5256c6ce2bf4b006053aeb7250cfa16a", "lat": 38.914674833333336, "name": "5256c6ce2bf4b006053aeb7250cfa16a", "lon": -77.00218683333334, "fusion_lon": 0.0}, {"is_reserved": 0, "type": "electric_scooter", "fusion_lat": 0.0, "is_disabled": 0, "rental_uris": {"ios": "https://dc.lft.to/lastmile_qr_scan", "android": "https://dc.lft.to/lastmile_qr_scan"}, "bike_id": "41bf3e538fcd552aa5cfd209112191ce", "lat": 38.87634083333333, "name": "41bf3e538fcd552aa5cfd209112191ce", "lon": -77.00960466666666, "fusion_lon": 0.0}, {"is_reserved": 0, "type": "electric_scooter", "fusion_lat": 0.0, "is_disabled": 0, "rental_uris": {"ios": "https://dc.lft.to/lastmile_qr_scan", "android": "https://dc.lft.to/lastmile_qr_scan"}, "bike_id": "894aa07d4638d85ae83a06b71e91e225", "lat": 38.904782833333336, "name": "894aa07d4638d85ae83a06b71e91e225", "lon": -77.02804283333333, "fusion_lon": 0.0}, {"is_reserved": 0, "type": "electric_scooter", "fusion_lat": 0.0, "is_disabled": 0, "rental_uris": {"ios": "https://dc.lft.to/lastmile_qr_scan", "android": "https://dc.lft.to/lastmile_qr_scan"}, "bike_id": "59dfcd2b09db58e7910a55a6cebe0fb2", "lat": 38.91936366666667, "name": "59dfcd2b09db58e7910a55a6cebe0fb2", "lon": -77.04504333333334, "fusion_lon": 0.0}, {"is_reserved": 0, "type": "electric_scooter", "fusion_lat": 0.0, "is_disabled": 0, "rental_uris": {"ios": "https://dc.lft.to/lastmile_qr_scan", "android": "https://dc.lft.to/lastmile_qr_scan"}, "bike_id": "309a3009f33ceee82e2d3b0a20da62e4", "lat": 38.90605166666667, "name": "309a3009f33ceee82e2d3b0a20da62e4", "lon": -77.02114916666666, "fusion_lon": 0.0}, {"is_reserved": 0, "type": "electric_scooter", "fusion_lat": 0.0, "is_disabled": 0, "rental_uris": {"ios": "https://dc.lft.to/lastmile_qr_scan", "android": "https://dc.lft.to/lastmile_qr_scan"}, "bike_id": "e283a10b16e6ae1bd6ea66c76a16c812", "lat": 38.88664033333333, "name": "e283a10b16e6ae1bd6ea66c76a16c812", "lon": -76.98563666666666, "fusion_lon": 0.0}, {"is_reserved": 0, "type": "electric_scooter", "fusion_lat": 0.0, "is_disabled": 0, "rental_uris": {"ios": "https://dc.lft.to/lastmile_qr_scan", "android": "https://dc.lft.to/lastmile_qr_scan"}, "bike_id": "355751bb38e6dceb9f094f4ac67a2cc1", "lat": 38.855198666666666, "name": "355751bb38e6dceb9f094f4ac67a2cc1", "lon": -76.99145333333334, "fusion_lon": 0.0}, {"is_reserved": 0, "type": "electric_scooter", "fusion_lat": 0.0, "is_disabled": 0, "rental_uris": {"ios": "https://dc.lft.to/lastmile_qr_scan", "android": "https://dc.lft.to/lastmile_qr_scan"}, "bike_id": "0293c8a6f8c34fcceb864ba3455e55e9", "lat": 38.894732, "name": "0293c8a6f8c34fcceb864ba3455e55e9", "lon": -76.99362516666666, "fusion_lon": 0.0}, {"is_reserved": 0, "type": "electric_scooter", "fusion_lat": 0.0, "is_disabled": 0, "rental_uris": {"ios": "https://dc.lft.to/lastmile_qr_scan", "android": "https://dc.lft.to/lastmile_qr_scan"}, "bike_id": "3aa0fcfe02763f078a5a7068968ae25d", "lat": 38.898387, "name": "3aa0fcfe02763f078a5a7068968ae25d", "lon": -76.94634683333334, "fusion_lon": 0.0}, {"is_reserved": 0, "type": "electric_scooter", "fusion_lat": 0.0, "is_disabled": 0, "rental_uris": {"ios": "https://dc.lft.to/lastmile_qr_scan", "android": "https://dc.lft.to/lastmile_qr_scan"}, "bike_id": "2e356d2fe5b442dfeb138a0f339eeb68", "lat": 38.92061116666667, "name": "2e356d2fe5b442dfeb138a0f339eeb68", "lon": -77.0440115, "fusion_lon": 0.0}, {"is_reserved": 0, "type": "electric_scooter", "fusion_lat": 0.0, "is_disabled": 0, "rental_uris": {"ios": "https://dc.lft.to/lastmile_qr_scan", "android": "https://dc.lft.to/lastmile_qr_scan"}, "bike_id": "3f27fce7c0b76b1a29968712cd839ea3", "lat": 38.9202445, "name": "3f27fce7c0b76b1a29968712cd839ea3", "lon": -77.07134666666667, "fusion_lon": 0.0}, {"is_reserved": 0, "type": "electric_bike", "fusion_lat": 0.0, "is_disabled": 0, "rental_uris": {"ios": "https://dc.lft.to/lastmile_qr_scan", "android": "https://dc.lft.to/lastmile_qr_scan"}, "bike_id": "2fab832ea03e2a693487279161038735", "lat": 38.9127315, "name": "2fab832ea03e2a693487279161038735", "lon": -77.022711, "fusion_lon": 0.0}, {"is_reserved": 0, "type": "electric_scooter", "fusion_lat": 0.0, "is_disabled": 0, "rental_uris": {"ios": "https://dc.lft.to/lastmile_qr_scan", "android": "https://dc.lft.to/lastmile_qr_scan"}, "bike_id": "3f2a5b8d8f4a8cb5f94d4d82a947ac80", "lat": 38.92109933333333, "name": "3f2a5b8d8f4a8cb5f94d4d82a947ac80", "lon": -77.045782, "fusion_lon": 0.0}, {"is_reserved": 0, "type": "electric_scooter", "fusion_lat": 0.0, "is_disabled": 0, "rental_uris": {"ios": "https://dc.lft.to/lastmile_qr_scan", "android": "https://dc.lft.to/lastmile_qr_scan"}, "bike_id": "2a6821d340286763b91b1908b95bfcd0", "lat": 38.89749833333333, "name": "2a6821d340286763b91b1908b95bfcd0", "lon": -77.04166083333334, "fusion_lon": 0.0}, {"is_reserved": 0, "type": "electric_scooter", "fusion_lat": 0.0, "is_disabled": 0, "rental_uris": {"ios": "https://dc.lft.to/lastmile_qr_scan", "android": "https://dc.lft.to/lastmile_qr_scan"}, "bike_id": "1f98adfaae99e5a8c725d419dde5007e", "lat": 38.87847933333333, "name": "1f98adfaae99e5a8c725d419dde5007e", "lon": -77.005646, "fusion_lon": 0.0}, {"is_reserved": 0, "type": "electric_scooter", "fusion_lat": 0.0, "is_disabled": 0, "rental_uris": {"ios": "https://dc.lft.to/lastmile_qr_scan", "android": "https://dc.lft.to/lastmile_qr_scan"}, "bike_id": "2da67cb7a6ec0f78c57337cc502f84e5", "lat": 38.89739466666666, "name": "2da67cb7a6ec0f78c57337cc502f84e5", "lon": -77.02174333333333, "fusion_lon": 0.0}, {"is_reserved": 0, "type": "electric_scooter", "fusion_lat": 0.0, "is_disabled": 0, "rental_uris": {"ios": "https://dc.lft.to/lastmile_qr_scan", "android": "https://dc.lft.to/lastmile_qr_scan"}, "bike_id": "02d166fe564a5567afa6ec9ca069c000", "lat": 38.89195983333333, "name": "02d166fe564a5567afa6ec9ca069c000", "lon": -77.02222066666667, "fusion_lon": 0.0}, {"is_reserved": 0, "type": "electric_scooter", "fusion_lat": 0.0, "is_disabled": 0, "rental_uris": {"ios": "https://dc.lft.to/lastmile_qr_scan", "android": "https://dc.lft.to/lastmile_qr_scan"}, "bike_id": "3a8098a942270b2ef51b6a0bf9bbbc11", "lat": 38.913767166666666, "name": "3a8098a942270b2ef51b6a0bf9bbbc11", "lon": -77.0446545, "fusion_lon": 0.0}, {"is_reserved": 0, "type": "electric_scooter", "fusion_lat": 0.0, "is_disabled": 0, "rental_uris": {"ios": "https://dc.lft.to/lastmile_qr_scan", "android": "https://dc.lft.to/lastmile_qr_scan"}, "bike_id": "e36dc5d7ad5c35e486bc0b96cec20834", "lat": 38.91660483333333, "name": "e36dc5d7ad5c35e486bc0b96cec20834", "lon": -77.02381233333334, "fusion_lon": 0.0}, {"is_reserved": 0, "type": "electric_scooter", "fusion_lat": 0.0, "is_disabled": 0, "rental_uris": {"ios": "https://dc.lft.to/lastmile_qr_scan", "android": "https://dc.lft.to/lastmile_qr_scan"}, "bike_id": "e7b35e3803464ed23cb36bc3c5063ba6", "lat": 38.901436833333335, "name": "e7b35e3803464ed23cb36bc3c5063ba6", "lon": -77.03983916666667, "fusion_lon": 0.0}, {"is_reserved": 0, "type": "electric_scooter", "fusion_lat": 0.0, "is_disabled": 0, "rental_uris": {"ios": "https://dc.lft.to/lastmile_qr_scan", "android": "https://dc.lft.to/lastmile_qr_scan"}, "bike_id": "2e131c3a7f71f87ba5fa82115a813637", "lat": 38.88713883333333, "name": "2e131c3a7f71f87ba5fa82115a813637", "lon": -76.9838145, "fusion_lon": 0.0}, {"is_reserved": 0, "type": "electric_scooter", "fusion_lat": 0.0, "is_disabled": 0, "rental_uris": {"ios": "https://dc.lft.to/lastmile_qr_scan", "android": "https://dc.lft.to/lastmile_qr_scan"}, "bike_id": "abb4a7d78ba9092aa26603f938b74598", "lat": 38.92242566666667, "name": "abb4a7d78ba9092aa26603f938b74598", "lon": -77.01845933333334, "fusion_lon": 0.0}, {"is_reserved": 0, "type": "electric_scooter", "fusion_lat": 0.0, "is_disabled": 0, "rental_uris": {"ios": "https://dc.lft.to/lastmile_qr_scan", "android": "https://dc.lft.to/lastmile_qr_scan"}, "bike_id": "6f14e3dcbfe5d625f49921ee9bdb810f", "lat": 38.919779166666665, "name": "6f14e3dcbfe5d625f49921ee9bdb810f", "lon": -77.02193133333333, "fusion_lon": 0.0}, {"is_reserved": 0, "type": "electric_scooter", "fusion_lat": 0.0, "is_disabled": 0, "rental_uris": {"ios": "https://dc.lft.to/lastmile_qr_scan", "android": "https://dc.lft.to/lastmile_qr_scan"}, "bike_id": "acf21cc580b28af93fd60f8c305a2fad", "lat": 38.947012, "name": "acf21cc580b28af93fd60f8c305a2fad", "lon": -77.03282716666666, "fusion_lon": 0.0}, {"is_reserved": 0, "type": "electric_scooter", "fusion_lat": 0.0, "is_disabled": 0, "rental_uris": {"ios": "https://dc.lft.to/lastmile_qr_scan", "android": "https://dc.lft.to/lastmile_qr_scan"}, "bike_id": "8448f8a3149c00133e582ffa40c9048c", "lat": 38.8929505, "name": "8448f8a3149c00133e582ffa40c9048c", "lon": -77.01234616666666, "fusion_lon": 0.0}, {"is_reserved": 0, "type": "electric_scooter", "fusion_lat": 0.0, "is_disabled": 0, "rental_uris": {"ios": "https://dc.lft.to/lastmile_qr_scan", "android": "https://dc.lft.to/lastmile_qr_scan"}, "bike_id": "fa4cc7e04bfe0a18f80cd0a40cc0f3ad", "lat": 38.9098465, "name": "fa4cc7e04bfe0a18f80cd0a40cc0f3ad", "lon": -77.064947, "fusion_lon": 0.0}, {"is_reserved": 0, "type": "electric_scooter", "fusion_lat": 0.0, "is_disabled": 0, "rental_uris": {"ios": "https://dc.lft.to/lastmile_qr_scan", "android": "https://dc.lft.to/lastmile_qr_scan"}, "bike_id": "e5c0d023ee36ec951fbec1fa23742dfe", "lat": 38.8999715, "name": "e5c0d023ee36ec951fbec1fa23742dfe", "lon": -77.05251933333334, "fusion_lon": 0.0}, {"is_reserved": 0, "type": "electric_scooter", "fusion_lat": 0.0, "is_disabled": 0, "rental_uris": {"ios": "https://dc.lft.to/lastmile_qr_scan", "android": "https://dc.lft.to/lastmile_qr_scan"}, "bike_id": "26c563541ba5822695d049a5dce27011", "lat": 38.95187166666667, "name": "26c563541ba5822695d049a5dce27011", "lon": -77.0261675, "fusion_lon": 0.0}, {"is_reserved": 0, "type": "electric_bike", "fusion_lat": 0.0, "is_disabled": 0, "rental_uris": {"ios": "https://dc.lft.to/lastmile_qr_scan", "android": "https://dc.lft.to/lastmile_qr_scan"}, "bike_id": "9ca02d08038aead0bd0b012a17280764", "lat": 38.90433516666667, "name": "9ca02d08038aead0bd0b012a17280764", "lon": -76.9723005, "fusion_lon": 0.0}, {"is_reserved": 0, "type": "electric_scooter", "fusion_lat": 0.0, "is_disabled": 0, "rental_uris": {"ios": "https://dc.lft.to/lastmile_qr_scan", "android": "https://dc.lft.to/lastmile_qr_scan"}, "bike_id": "765321f7ac0a3565088bfd4072732e02", "lat": 38.911465166666666, "name": "765321f7ac0a3565088bfd4072732e02", "lon": -77.01530366666667, "fusion_lon": 0.0}, {"is_reserved": 0, "type": "electric_scooter", "fusion_lat": 0.0, "is_disabled": 0, "rental_uris": {"ios": "https://dc.lft.to/lastmile_qr_scan", "android": "https://dc.lft.to/lastmile_qr_scan"}, "bike_id": "9ea0bdd88e76961282de7d82ec081d42", "lat": 38.892016, "name": "9ea0bdd88e76961282de7d82ec081d42", "lon": -77.01550616666667, "fusion_lon": 0.0}, {"is_reserved": 0, "type": "electric_scooter", "fusion_lat": 0.0, "is_disabled": 0, "rental_uris": {"ios": "https://dc.lft.to/lastmile_qr_scan", "android": "https://dc.lft.to/lastmile_qr_scan"}, "bike_id": "9cedb08f0c5bafdbeeeafe98f4cf589f", "lat": 38.9422895, "name": "9cedb08f0c5bafdbeeeafe98f4cf589f", "lon": -77.01441483333333, "fusion_lon": 0.0}, {"is_reserved": 0, "type": "electric_scooter", "fusion_lat": 0.0, "is_disabled": 0, "rental_uris": {"ios": "https://dc.lft.to/lastmile_qr_scan", "android": "https://dc.lft.to/lastmile_qr_scan"}, "bike_id": "a5b7f056ce28d04215ba3fb1f62674c4", "lat": 38.914897333333336, "name": "a5b7f056ce28d04215ba3fb1f62674c4", "lon": -77.03439233333333, "fusion_lon": 0.0}, {"is_reserved": 0, "type": "electric_scooter", "fusion_lat": 0.0, "is_disabled": 0, "rental_uris": {"ios": "https://dc.lft.to/lastmile_qr_scan", "android": "https://dc.lft.to/lastmile_qr_scan"}, "bike_id": "5eaf01295afd969ba87e259ea20084a3", "lat": 38.89849133333333, "name": "5eaf01295afd969ba87e259ea20084a3", "lon": -76.92750033333333, "fusion_lon": 0.0}, {"is_reserved": 0, "type": "electric_bike", "fusion_lat": 0.0, "is_disabled": 0, "rental_uris": {"ios": "https://dc.lft.to/lastmile_qr_scan", "android": "https://dc.lft.to/lastmile_qr_scan"}, "bike_id": "6b91a319de125e924879576a02d8705f", "lat": 38.8330125, "name": "6b91a319de125e924879576a02d8705f", "lon": -77.08412516666667, "fusion_lon": 0.0}, {"is_reserved": 0, "type": "electric_scooter", "fusion_lat": 0.0, "is_disabled": 0, "rental_uris": {"ios": "https://dc.lft.to/lastmile_qr_scan", "android": "https://dc.lft.to/lastmile_qr_scan"}, "bike_id": "c74a3800850fc6b38a3d3aba2518abb2", "lat": 38.90055133333333, "name": "c74a3800850fc6b38a3d3aba2518abb2", "lon": -76.993415, "fusion_lon": 0.0}, {"is_reserved": 0, "type": "electric_scooter", "fusion_lat": 0.0, "is_disabled": 0, "rental_uris": {"ios": "https://dc.lft.to/lastmile_qr_scan", "android": "https://dc.lft.to/lastmile_qr_scan"}, "bike_id": "e16ad1b0acaddec0a7d2b517a2b163b0", "lat": 38.88368916666667, "name": "e16ad1b0acaddec0a7d2b517a2b163b0", "lon": -76.995199, "fusion_lon": 0.0}, {"is_reserved": 0, "type": "electric_scooter", "fusion_lat": 0.0, "is_disabled": 0, "rental_uris": {"ios": "https://dc.lft.to/lastmile_qr_scan", "android": "https://dc.lft.to/lastmile_qr_scan"}, "bike_id": "5f57a8b6df0fe1a04670960121ac8166", "lat": 38.95642633333333, "name": "5f57a8b6df0fe1a04670960121ac8166", "lon": -77.028193, "fusion_lon": 0.0}, {"is_reserved": 0, "type": "electric_scooter", "fusion_lat": 0.0, "is_disabled": 0, "rental_uris": {"ios": "https://dc.lft.to/lastmile_qr_scan", "android": "https://dc.lft.to/lastmile_qr_scan"}, "bike_id": "4e16d54f85b923d316a7fdd43b0c5eab", "lat": 38.88604683333333, "name": "4e16d54f85b923d316a7fdd43b0c5eab", "lon": -76.92508833333333, "fusion_lon": 0.0}, {"is_reserved": 0, "type": "electric_scooter", "fusion_lat": 0.0, "is_disabled": 0, "rental_uris": {"ios": "https://dc.lft.to/lastmile_qr_scan", "android": "https://dc.lft.to/lastmile_qr_scan"}, "bike_id": "00379c3e33b6ea29fa77322c3c01bbac", "lat": 38.909704833333336, "name": "00379c3e33b6ea29fa77322c3c01bbac", "lon": -77.02375466666666, "fusion_lon": 0.0}, {"is_reserved": 0, "type": "electric_scooter", "fusion_lat": 0.0, "is_disabled": 0, "rental_uris": {"ios": "https://dc.lft.to/lastmile_qr_scan", "android": "https://dc.lft.to/lastmile_qr_scan"}, "bike_id": "fa54019a031bb11c9309fd7335987a8e", "lat": 38.902575666666664, "name": "fa54019a031bb11c9309fd7335987a8e", "lon": -77.032618, "fusion_lon": 0.0}, {"is_reserved": 0, "type": "electric_scooter", "fusion_lat": 0.0, "is_disabled": 0, "rental_uris": {"ios": "https://dc.lft.to/lastmile_qr_scan", "android": "https://dc.lft.to/lastmile_qr_scan"}, "bike_id": "aca1a6ed50b121cf319742c0c46507dd", "lat": 38.84275783333333, "name": "aca1a6ed50b121cf319742c0c46507dd", "lon": -76.98845733333333, "fusion_lon": 0.0}, {"is_reserved": 0, "type": "electric_scooter", "fusion_lat": 0.0, "is_disabled": 0, "rental_uris": {"ios": "https://dc.lft.to/lastmile_qr_scan", "android": "https://dc.lft.to/lastmile_qr_scan"}, "bike_id": "bacebe4a2d4e85779edd7e9f07e1c145", "lat": 38.90202466666667, "name": "bacebe4a2d4e85779edd7e9f07e1c145", "lon": -77.02367983333333, "fusion_lon": 0.0}, {"is_reserved": 0, "type": "electric_scooter", "fusion_lat": 0.0, "is_disabled": 0, "rental_uris": {"ios": "https://dc.lft.to/lastmile_qr_scan", "android": "https://dc.lft.to/lastmile_qr_scan"}, "bike_id": "895a332722cead805979074b0319d187", "lat": 38.916822833333335, "name": "895a332722cead805979074b0319d187", "lon": -77.024046, "fusion_lon": 0.0}, {"is_reserved": 0, "type": "electric_scooter", "fusion_lat": 0.0, "is_disabled": 0, "rental_uris": {"ios": "https://dc.lft.to/lastmile_qr_scan", "android": "https://dc.lft.to/lastmile_qr_scan"}, "bike_id": "5b6ee32178df49b6dc42857a70ce68f5", "lat": 38.903169, "name": "5b6ee32178df49b6dc42857a70ce68f5", "lon": -76.9779915, "fusion_lon": 0.0}, {"is_reserved": 0, "type": "electric_scooter", "fusion_lat": 0.0, "is_disabled": 0, "rental_uris": {"ios": "https://dc.lft.to/lastmile_qr_scan", "android": "https://dc.lft.to/lastmile_qr_scan"}, "bike_id": "3ea0e352051030b37c54af14c8ce194e", "lat": 38.92319466666667, "name": "3ea0e352051030b37c54af14c8ce194e", "lon": -77.02907816666666, "fusion_lon": 0.0}, {"is_reserved": 0, "type": "electric_scooter", "fusion_lat": 0.0, "is_disabled": 0, "rental_uris": {"ios": "https://dc.lft.to/lastmile_qr_scan", "android": "https://dc.lft.to/lastmile_qr_scan"}, "bike_id": "8e97cb7121871220f4a77a4846c2a542", "lat": 38.924235833333334, "name": "8e97cb7121871220f4a77a4846c2a542", "lon": -77.04476283333334, "fusion_lon": 0.0}, {"is_reserved": 0, "type": "electric_scooter", "fusion_lat": 0.0, "is_disabled": 0, "rental_uris": {"ios": "https://dc.lft.to/lastmile_qr_scan", "android": "https://dc.lft.to/lastmile_qr_scan"}, "bike_id": "8e67962ca520c36ed98898f1b5384cb3", "lat": 38.883038, "name": "8e67962ca520c36ed98898f1b5384cb3", "lon": -76.9348165, "fusion_lon": 0.0}, {"is_reserved": 0, "type": "electric_scooter", "fusion_lat": 0.0, "is_disabled": 0, "rental_uris": {"ios": "https://dc.lft.to/lastmile_qr_scan", "android": "https://dc.lft.to/lastmile_qr_scan"}, "bike_id": "4daf840a6d00e028f285ccff66b93b4e", "lat": 38.905880833333335, "name": "4daf840a6d00e028f285ccff66b93b4e", "lon": -77.0411915, "fusion_lon": 0.0}, {"is_reserved": 0, "type": "electric_scooter", "fusion_lat": 0.0, "is_disabled": 0, "rental_uris": {"ios": "https://dc.lft.to/lastmile_qr_scan", "android": "https://dc.lft.to/lastmile_qr_scan"}, "bike_id": "db0e7e28569cf16a41a55d29d8cc7171", "lat": 38.92416566666667, "name": "db0e7e28569cf16a41a55d29d8cc7171", "lon": -77.02011183333333, "fusion_lon": 0.0}, {"is_reserved": 0, "type": "electric_scooter", "fusion_lat": 0.0, "is_disabled": 0, "rental_uris": {"ios": "https://dc.lft.to/lastmile_qr_scan", "android": "https://dc.lft.to/lastmile_qr_scan"}, "bike_id": "2bcaa01f774c2502ef86b81ac326d514", "lat": 38.91047316666667, "name": "2bcaa01f774c2502ef86b81ac326d514", "lon": -76.99804683333333, "fusion_lon": 0.0}, {"is_reserved": 0, "type": "electric_bike", "fusion_lat": 0.0, "is_disabled": 0, "rental_uris": {"ios": "https://dc.lft.to/lastmile_qr_scan", "android": "https://dc.lft.to/lastmile_qr_scan"}, "bike_id": "257c9cc8bb64e3934ea300306a4be05f", "lat": 39.00647816666667, "name": "257c9cc8bb64e3934ea300306a4be05f", "lon": -76.90020566666666, "fusion_lon": 0.0}, {"is_reserved": 0, "type": "electric_scooter", "fusion_lat": 0.0, "is_disabled": 0, "rental_uris": {"ios": "https://dc.lft.to/lastmile_qr_scan", "android": "https://dc.lft.to/lastmile_qr_scan"}, "bike_id": "c28e96646e171ef6e46b931f044c60a0", "lat": 38.952204333333334, "name": "c28e96646e171ef6e46b931f044c60a0", "lon": -77.08869766666666, "fusion_lon": 0.0}, {"is_reserved": 0, "type": "electric_scooter", "fusion_lat": 0.0, "is_disabled": 0, "rental_uris": {"ios": "https://dc.lft.to/lastmile_qr_scan", "android": "https://dc.lft.to/lastmile_qr_scan"}, "bike_id": "b2e870536fa104d987a46799e2248e60", "lat": 38.905174333333335, "name": "b2e870536fa104d987a46799e2248e60", "lon": -77.017055, "fusion_lon": 0.0}, {"is_reserved": 0, "type": "electric_scooter", "fusion_lat": 0.0, "is_disabled": 0, "rental_uris": {"ios": "https://dc.lft.to/lastmile_qr_scan", "android": "https://dc.lft.to/lastmile_qr_scan"}, "bike_id": "78f4ada2db7c55fb0fd7a46e32d3e045", "lat": 38.9039505, "name": "78f4ada2db7c55fb0fd7a46e32d3e045", "lon": -77.03958816666666, "fusion_lon": 0.0}, {"is_reserved": 0, "type": "electric_scooter", "fusion_lat": 0.0, "is_disabled": 0, "rental_uris": {"ios": "https://dc.lft.to/lastmile_qr_scan", "android": "https://dc.lft.to/lastmile_qr_scan"}, "bike_id": "f8a62bbbb92c52b959044ddda25772e9", "lat": 38.901475833333336, "name": "f8a62bbbb92c52b959044ddda25772e9", "lon": -76.92988783333334, "fusion_lon": 0.0}, {"is_reserved": 0, "type": "electric_scooter", "fusion_lat": 0.0, "is_disabled": 0, "rental_uris": {"ios": "https://dc.lft.to/lastmile_qr_scan", "android": "https://dc.lft.to/lastmile_qr_scan"}, "bike_id": "487c2017b803daec6e456058897473a5", "lat": 38.8800525, "name": "487c2017b803daec6e456058897473a5", "lon": -76.998327, "fusion_lon": 0.0}, {"is_reserved": 0, "type": "electric_scooter", "fusion_lat": 0.0, "is_disabled": 0, "rental_uris": {"ios": "https://dc.lft.to/lastmile_qr_scan", "android": "https://dc.lft.to/lastmile_qr_scan"}, "bike_id": "8587862e5ac65711ad1972515558fd6d", "lat": 38.84276666666667, "name": "8587862e5ac65711ad1972515558fd6d", "lon": -76.98840383333334, "fusion_lon": 0.0}, {"is_reserved": 0, "type": "electric_bike", "fusion_lat": 0.0, "is_disabled": 0, "rental_uris": {"ios": "https://dc.lft.to/lastmile_qr_scan", "android": "https://dc.lft.to/lastmile_qr_scan"}, "bike_id": "6f7a750c0f2012a41950ee7f3f9ede00", "lat": 38.85246583333333, "name": "6f7a750c0f2012a41950ee7f3f9ede00", "lon": -77.11414133333334, "fusion_lon": 0.0}, {"is_reserved": 0, "type": "electric_scooter", "fusion_lat": 0.0, "is_disabled": 0, "rental_uris": {"ios": "https://dc.lft.to/lastmile_qr_scan", "android": "https://dc.lft.to/lastmile_qr_scan"}, "bike_id": "0c5b830e97a47cc32ebcddbaf974af01", "lat": 38.89329983333333, "name": "0c5b830e97a47cc32ebcddbaf974af01", "lon": -76.93926666666667, "fusion_lon": 0.0}, {"is_reserved": 0, "type": "electric_scooter", "fusion_lat": 0.0, "is_disabled": 0, "rental_uris": {"ios": "https://dc.lft.to/lastmile_qr_scan", "android": "https://dc.lft.to/lastmile_qr_scan"}, "bike_id": "5d395c56d108313b4acde12af4e843e1", "lat": 38.90857066666667, "name": "5d395c56d108313b4acde12af4e843e1", "lon": -77.04172716666666, "fusion_lon": 0.0}, {"is_reserved": 0, "type": "electric_bike", "fusion_lat": 0.0, "is_disabled": 0, "rental_uris": {"ios": "https://dc.lft.to/lastmile_qr_scan", "android": "https://dc.lft.to/lastmile_qr_scan"}, "bike_id": "4949927367c8e83e7bb4556f544814ae", "lat": 38.956876666666666, "name": "4949927367c8e83e7bb4556f544814ae", "lon": -77.022323, "fusion_lon": 0.0}, {"is_reserved": 0, "type": "electric_scooter", "fusion_lat": 0.0, "is_disabled": 0, "rental_uris": {"ios": "https://dc.lft.to/lastmile_qr_scan", "android": "https://dc.lft.to/lastmile_qr_scan"}, "bike_id": "454086f01ba42c207b512c990fea8acc", "lat": 38.917540333333335, "name": "454086f01ba42c207b512c990fea8acc", "lon": -77.02114366666666, "fusion_lon": 0.0}, {"is_reserved": 0, "type": "electric_scooter", "fusion_lat": 0.0, "is_disabled": 0, "rental_uris": {"ios": "https://dc.lft.to/lastmile_qr_scan", "android": "https://dc.lft.to/lastmile_qr_scan"}, "bike_id": "5af8e11aa9ef007df7751b5486a4e695", "lat": 38.920928, "name": "5af8e11aa9ef007df7751b5486a4e695", "lon": -77.02223283333333, "fusion_lon": 0.0}, {"is_reserved": 0, "type": "electric_scooter", "fusion_lat": 0.0, "is_disabled": 0, "rental_uris": {"ios": "https://dc.lft.to/lastmile_qr_scan", "android": "https://dc.lft.to/lastmile_qr_scan"}, "bike_id": "c391145e338722a5d56bf47da33d9fae", "lat": 38.89909766666667, "name": "c391145e338722a5d56bf47da33d9fae", "lon": -77.0232545, "fusion_lon": 0.0}, {"is_reserved": 0, "type": "electric_scooter", "fusion_lat": 0.0, "is_disabled": 0, "rental_uris": {"ios": "https://dc.lft.to/lastmile_qr_scan", "android": "https://dc.lft.to/lastmile_qr_scan"}, "bike_id": "2dd6a078a88c199a09512b2f495228a2", "lat": 38.936120333333335, "name": "2dd6a078a88c199a09512b2f495228a2", "lon": -77.03203683333334, "fusion_lon": 0.0}, {"is_reserved": 0, "type": "electric_scooter", "fusion_lat": 0.0, "is_disabled": 0, "rental_uris": {"ios": "https://dc.lft.to/lastmile_qr_scan", "android": "https://dc.lft.to/lastmile_qr_scan"}, "bike_id": "497ebc958f43877c3e8343fe298dce04", "lat": 38.91274516666667, "name": "497ebc958f43877c3e8343fe298dce04", "lon": -77.03651533333333, "fusion_lon": 0.0}, {"is_reserved": 0, "type": "electric_scooter", "fusion_lat": 0.0, "is_disabled": 0, "rental_uris": {"ios": "https://dc.lft.to/lastmile_qr_scan", "android": "https://dc.lft.to/lastmile_qr_scan"}, "bike_id": "08be356808ebd3392477bd86e3d0e488", "lat": 38.89977666666667, "name": "08be356808ebd3392477bd86e3d0e488", "lon": -77.02592866666667, "fusion_lon": 0.0}, {"is_reserved": 0, "type": "electric_scooter", "fusion_lat": 0.0, "is_disabled": 0, "rental_uris": {"ios": "https://dc.lft.to/lastmile_qr_scan", "android": "https://dc.lft.to/lastmile_qr_scan"}, "bike_id": "3d3b93e6518206ae4370a0ea3cb7dcb6", "lat": 38.915674333333335, "name": "3d3b93e6518206ae4370a0ea3cb7dcb6", "lon": -77.0400845, "fusion_lon": 0.0}, {"is_reserved": 0, "type": "electric_scooter", "fusion_lat": 0.0, "is_disabled": 0, "rental_uris": {"ios": "https://dc.lft.to/lastmile_qr_scan", "android": "https://dc.lft.to/lastmile_qr_scan"}, "bike_id": "946436b93b035d9015785f915c313d0b", "lat": 38.936975333333336, "name": "946436b93b035d9015785f915c313d0b", "lon": -77.0560035, "fusion_lon": 0.0}, {"is_reserved": 0, "type": "electric_scooter", "fusion_lat": 0.0, "is_disabled": 0, "rental_uris": {"ios": "https://dc.lft.to/lastmile_qr_scan", "android": "https://dc.lft.to/lastmile_qr_scan"}, "bike_id": "874d787ac45a3d86e4c6b47c3c698672", "lat": 38.88584083333333, "name": "874d787ac45a3d86e4c6b47c3c698672", "lon": -77.012277, "fusion_lon": 0.0}, {"is_reserved": 0, "type": "electric_scooter", "fusion_lat": 0.0, "is_disabled": 0, "rental_uris": {"ios": "https://dc.lft.to/lastmile_qr_scan", "android": "https://dc.lft.to/lastmile_qr_scan"}, "bike_id": "1e3cbeab74a35a931a9133f7edb5f088", "lat": 38.952583833333335, "name": "1e3cbeab74a35a931a9133f7edb5f088", "lon": -77.02078483333334, "fusion_lon": 0.0}, {"is_reserved": 0, "type": "electric_scooter", "fusion_lat": 0.0, "is_disabled": 0, "rental_uris": {"ios": "https://dc.lft.to/lastmile_qr_scan", "android": "https://dc.lft.to/lastmile_qr_scan"}, "bike_id": "dbc4193b95d6fbfe47fd8473f12505ed", "lat": 38.91273616666667, "name": "dbc4193b95d6fbfe47fd8473f12505ed", "lon": -77.010264, "fusion_lon": 0.0}, {"is_reserved": 0, "type": "electric_scooter", "fusion_lat": 0.0, "is_disabled": 0, "rental_uris": {"ios": "https://dc.lft.to/lastmile_qr_scan", "android": "https://dc.lft.to/lastmile_qr_scan"}, "bike_id": "4b54006837a3e38485eb558142adb3b5", "lat": 38.934231, "name": "4b54006837a3e38485eb558142adb3b5", "lon": -77.03288983333333, "fusion_lon": 0.0}, {"is_reserved": 0, "type": "electric_scooter", "fusion_lat": 0.0, "is_disabled": 0, "rental_uris": {"ios": "https://dc.lft.to/lastmile_qr_scan", "android": "https://dc.lft.to/lastmile_qr_scan"}, "bike_id": "2bfe72239df8c8d1b562e4695c5598fc", "lat": 38.8873085, "name": "2bfe72239df8c8d1b562e4695c5598fc", "lon": -76.98377783333333, "fusion_lon": 0.0}, {"is_reserved": 0, "type": "electric_scooter", "fusion_lat": 0.0, "is_disabled": 0, "rental_uris": {"ios": "https://dc.lft.to/lastmile_qr_scan", "android": "https://dc.lft.to/lastmile_qr_scan"}, "bike_id": "8cc96b805820093851d8f0868c6e328f", "lat": 38.95629316666667, "name": "8cc96b805820093851d8f0868c6e328f", "lon": -77.02239366666667, "fusion_lon": 0.0}, {"is_reserved": 0, "type": "electric_scooter", "fusion_lat": 0.0, "is_disabled": 0, "rental_uris": {"ios": "https://dc.lft.to/lastmile_qr_scan", "android": "https://dc.lft.to/lastmile_qr_scan"}, "bike_id": "459e22507bea2ab6230cfc53d1aa97c0", "lat": 38.8995615, "name": "459e22507bea2ab6230cfc53d1aa97c0", "lon": -77.04752466666666, "fusion_lon": 0.0}, {"is_reserved": 0, "type": "electric_scooter", "fusion_lat": 0.0, "is_disabled": 0, "rental_uris": {"ios": "https://dc.lft.to/lastmile_qr_scan", "android": "https://dc.lft.to/lastmile_qr_scan"}, "bike_id": "3436559a4dfd3740389334c14842a4c8", "lat": 38.921859166666664, "name": "3436559a4dfd3740389334c14842a4c8", "lon": -77.0208905, "fusion_lon": 0.0}, {"is_reserved": 0, "type": "electric_scooter", "fusion_lat": 0.0, "is_disabled": 0, "rental_uris": {"ios": "https://dc.lft.to/lastmile_qr_scan", "android": "https://dc.lft.to/lastmile_qr_scan"}, "bike_id": "979fe047c62073a3f2db6dada0d24acc", "lat": 38.91820216666667, "name": "979fe047c62073a3f2db6dada0d24acc", "lon": -77.03339666666666, "fusion_lon": 0.0}, {"is_reserved": 0, "type": "electric_scooter", "fusion_lat": 0.0, "is_disabled": 0, "rental_uris": {"ios": "https://dc.lft.to/lastmile_qr_scan", "android": "https://dc.lft.to/lastmile_qr_scan"}, "bike_id": "bf0d86c755008dc1b77249be1e27b836", "lat": 38.90795683333333, "name": "bf0d86c755008dc1b77249be1e27b836", "lon": -77.00955483333334, "fusion_lon": 0.0}, {"is_reserved": 0, "type": "electric_scooter", "fusion_lat": 0.0, "is_disabled": 0, "rental_uris": {"ios": "https://dc.lft.to/lastmile_qr_scan", "android": "https://dc.lft.to/lastmile_qr_scan"}, "bike_id": "dee52cab989cf95d3505a331381872b7", "lat": 38.909395833333335, "name": "dee52cab989cf95d3505a331381872b7", "lon": -76.99912366666666, "fusion_lon": 0.0}, {"is_reserved": 0, "type": "electric_bike", "fusion_lat": 0.0, "is_disabled": 0, "rental_uris": {"ios": "https://dc.lft.to/lastmile_qr_scan", "android": "https://dc.lft.to/lastmile_qr_scan"}, "bike_id": "d0795ee1582984284a01f6d360a503bb", "lat": 38.86566716666667, "name": "d0795ee1582984284a01f6d360a503bb", "lon": -76.974749, "fusion_lon": 0.0}, {"is_reserved": 0, "type": "electric_scooter", "fusion_lat": 0.0, "is_disabled": 0, "rental_uris": {"ios": "https://dc.lft.to/lastmile_qr_scan", "android": "https://dc.lft.to/lastmile_qr_scan"}, "bike_id": "b9a873dd9028322a3c96161c58e6b4fd", "lat": 38.911644333333335, "name": "b9a873dd9028322a3c96161c58e6b4fd", "lon": -77.04483383333333, "fusion_lon": 0.0}, {"is_reserved": 0, "type": "electric_scooter", "fusion_lat": 0.0, "is_disabled": 0, "rental_uris": {"ios": "https://dc.lft.to/lastmile_qr_scan", "android": "https://dc.lft.to/lastmile_qr_scan"}, "bike_id": "b3978cccfa47f83e7aba5def86dca9f7", "lat": 38.90004283333333, "name": "b3978cccfa47f83e7aba5def86dca9f7", "lon": -77.00392216666667, "fusion_lon": 0.0}, {"is_reserved": 0, "type": "electric_bike", "fusion_lat": 0.0, "is_disabled": 0, "rental_uris": {"ios": "https://dc.lft.to/lastmile_qr_scan", "android": "https://dc.lft.to/lastmile_qr_scan"}, "bike_id": "6ccbf5224630a26b9076d13a9fdb4295", "lat": 38.82429616666667, "name": "6ccbf5224630a26b9076d13a9fdb4295", "lon": -77.1203945, "fusion_lon": 0.0}, {"is_reserved": 0, "type": "electric_scooter", "fusion_lat": 0.0, "is_disabled": 0, "rental_uris": {"ios": "https://dc.lft.to/lastmile_qr_scan", "android": "https://dc.lft.to/lastmile_qr_scan"}, "bike_id": "338804800132d51634cfba85d4aa2d9a", "lat": 38.91701366666667, "name": "338804800132d51634cfba85d4aa2d9a", "lon": -77.03964416666666, "fusion_lon": 0.0}, {"is_reserved": 0, "type": "electric_scooter", "fusion_lat": 0.0, "is_disabled": 0, "rental_uris": {"ios": "https://dc.lft.to/lastmile_qr_scan", "android": "https://dc.lft.to/lastmile_qr_scan"}, "bike_id": "4ca9461e259640fa0211038abd68384e", "lat": 38.885825833333335, "name": "4ca9461e259640fa0211038abd68384e", "lon": -77.0122985, "fusion_lon": 0.0}, {"is_reserved": 0, "type": "electric_scooter", "fusion_lat": 0.0, "is_disabled": 0, "rental_uris": {"ios": "https://dc.lft.to/lastmile_qr_scan", "android": "https://dc.lft.to/lastmile_qr_scan"}, "bike_id": "0830bea2843f70602e5e2061664e8804", "lat": 38.9007625, "name": "0830bea2843f70602e5e2061664e8804", "lon": -77.01336283333333, "fusion_lon": 0.0}, {"is_reserved": 0, "type": "electric_scooter", "fusion_lat": 0.0, "is_disabled": 0, "rental_uris": {"ios": "https://dc.lft.to/lastmile_qr_scan", "android": "https://dc.lft.to/lastmile_qr_scan"}, "bike_id": "621c29e2a96326344842b6b5c911c8fe", "lat": 38.910425333333336, "name": "621c29e2a96326344842b6b5c911c8fe", "lon": -77.010235, "fusion_lon": 0.0}, {"is_reserved": 0, "type": "electric_bike", "fusion_lat": 0.0, "is_disabled": 0, "rental_uris": {"ios": "https://dc.lft.to/lastmile_qr_scan", "android": "https://dc.lft.to/lastmile_qr_scan"}, "bike_id": "50fd60b73dce58f1c512d959f468a3b3", "lat": 38.93037416666667, "name": "50fd60b73dce58f1c512d959f468a3b3", "lon": -77.0556605, "fusion_lon": 0.0}, {"is_reserved": 0, "type": "electric_scooter", "fusion_lat": 0.0, "is_disabled": 0, "rental_uris": {"ios": "https://dc.lft.to/lastmile_qr_scan", "android": "https://dc.lft.to/lastmile_qr_scan"}, "bike_id": "0a72c9dba82998e725900710086b5764", "lat": 38.929042, "name": "0a72c9dba82998e725900710086b5764", "lon": -77.02348366666666, "fusion_lon": 0.0}, {"is_reserved": 0, "type": "electric_scooter", "fusion_lat": 0.0, "is_disabled": 0, "rental_uris": {"ios": "https://dc.lft.to/lastmile_qr_scan", "android": "https://dc.lft.to/lastmile_qr_scan"}, "bike_id": "39cb718825062a277cffc7acfb5a8521", "lat": 38.924731, "name": "39cb718825062a277cffc7acfb5a8521", "lon": -77.02216083333333, "fusion_lon": 0.0}, {"is_reserved": 0, "type": "electric_scooter", "fusion_lat": 0.0, "is_disabled": 0, "rental_uris": {"ios": "https://dc.lft.to/lastmile_qr_scan", "android": "https://dc.lft.to/lastmile_qr_scan"}, "bike_id": "dda772f383df018bdf5b18a191e55321", "lat": 38.90818566666667, "name": "dda772f383df018bdf5b18a191e55321", "lon": -77.08427466666667, "fusion_lon": 0.0}, {"is_reserved": 0, "type": "electric_scooter", "fusion_lat": 0.0, "is_disabled": 0, "rental_uris": {"ios": "https://dc.lft.to/lastmile_qr_scan", "android": "https://dc.lft.to/lastmile_qr_scan"}, "bike_id": "a68c6c4188cfa82b244eacd96cc8665f", "lat": 38.935114666666664, "name": "a68c6c4188cfa82b244eacd96cc8665f", "lon": -77.03674966666667, "fusion_lon": 0.0}, {"is_reserved": 0, "type": "electric_scooter", "fusion_lat": 0.0, "is_disabled": 0, "rental_uris": {"ios": "https://dc.lft.to/lastmile_qr_scan", "android": "https://dc.lft.to/lastmile_qr_scan"}, "bike_id": "423a0f3117ff10296e40a11083e41e3c", "lat": 38.915593333333334, "name": "423a0f3117ff10296e40a11083e41e3c", "lon": -77.03257933333333, "fusion_lon": 0.0}, {"is_reserved": 0, "type": "electric_scooter", "fusion_lat": 0.0, "is_disabled": 0, "rental_uris": {"ios": "https://dc.lft.to/lastmile_qr_scan", "android": "https://dc.lft.to/lastmile_qr_scan"}, "bike_id": "3de73345fa18b1268c698439f3977c35", "lat": 38.915602166666666, "name": "3de73345fa18b1268c698439f3977c35", "lon": -76.98500716666666, "fusion_lon": 0.0}, {"is_reserved": 0, "type": "electric_scooter", "fusion_lat": 0.0, "is_disabled": 0, "rental_uris": {"ios": "https://dc.lft.to/lastmile_qr_scan", "android": "https://dc.lft.to/lastmile_qr_scan"}, "bike_id": "7003c20877e082cf5c727bcd5461c6bd", "lat": 38.9205645, "name": "7003c20877e082cf5c727bcd5461c6bd", "lon": -77.02308966666666, "fusion_lon": 0.0}, {"is_reserved": 0, "type": "electric_scooter", "fusion_lat": 0.0, "is_disabled": 0, "rental_uris": {"ios": "https://dc.lft.to/lastmile_qr_scan", "android": "https://dc.lft.to/lastmile_qr_scan"}, "bike_id": "b9e037956c1fc0a7cda5380b14265933", "lat": 38.919322666666666, "name": "b9e037956c1fc0a7cda5380b14265933", "lon": -77.0305005, "fusion_lon": 0.0}, {"is_reserved": 0, "type": "electric_bike", "fusion_lat": 0.0, "is_disabled": 0, "rental_uris": {"ios": "https://dc.lft.to/lastmile_qr_scan", "android": "https://dc.lft.to/lastmile_qr_scan"}, "bike_id": "e1a259d0d4d8e4b1ee84ad585435b215", "lat": 38.84619266666667, "name": "e1a259d0d4d8e4b1ee84ad585435b215", "lon": -76.9784285, "fusion_lon": 0.0}, {"is_reserved": 0, "type": "electric_scooter", "fusion_lat": 0.0, "is_disabled": 0, "rental_uris": {"ios": "https://dc.lft.to/lastmile_qr_scan", "android": "https://dc.lft.to/lastmile_qr_scan"}, "bike_id": "7758d51d2bad76c3afd790ca1077afb7", "lat": 38.88577683333333, "name": "7758d51d2bad76c3afd790ca1077afb7", "lon": -77.01207083333334, "fusion_lon": 0.0}, {"is_reserved": 0, "type": "electric_scooter", "fusion_lat": 0.0, "is_disabled": 0, "rental_uris": {"ios": "https://dc.lft.to/lastmile_qr_scan", "android": "https://dc.lft.to/lastmile_qr_scan"}, "bike_id": "71aee79e8a2e792a718b1301080c2ea5", "lat": 38.88710533333333, "name": "71aee79e8a2e792a718b1301080c2ea5", "lon": -76.98339466666667, "fusion_lon": 0.0}, {"is_reserved": 0, "type": "electric_scooter", "fusion_lat": 0.0, "is_disabled": 0, "rental_uris": {"ios": "https://dc.lft.to/lastmile_qr_scan", "android": "https://dc.lft.to/lastmile_qr_scan"}, "bike_id": "c75b815b8f944c48db3468f391637da4", "lat": 38.91007783333333, "name": "c75b815b8f944c48db3468f391637da4", "lon": -77.02191683333334, "fusion_lon": 0.0}, {"is_reserved": 0, "type": "electric_scooter", "fusion_lat": 0.0, "is_disabled": 0, "rental_uris": {"ios": "https://dc.lft.to/lastmile_qr_scan", "android": "https://dc.lft.to/lastmile_qr_scan"}, "bike_id": "08760d6d17b81a7924402804a89809a6", "lat": 38.905106, "name": "08760d6d17b81a7924402804a89809a6", "lon": -76.99186733333333, "fusion_lon": 0.0}, {"is_reserved": 0, "type": "electric_scooter", "fusion_lat": 0.0, "is_disabled": 0, "rental_uris": {"ios": "https://dc.lft.to/lastmile_qr_scan", "android": "https://dc.lft.to/lastmile_qr_scan"}, "bike_id": "f74380bc84dd9c58cd7e76a7b9d38b0f", "lat": 38.925952, "name": "f74380bc84dd9c58cd7e76a7b9d38b0f", "lon": -77.02505466666666, "fusion_lon": 0.0}, {"is_reserved": 0, "type": "electric_scooter", "fusion_lat": 0.0, "is_disabled": 0, "rental_uris": {"ios": "https://dc.lft.to/lastmile_qr_scan", "android": "https://dc.lft.to/lastmile_qr_scan"}, "bike_id": "437827c6b26cf12144f80dd7760311aa", "lat": 38.90394033333333, "name": "437827c6b26cf12144f80dd7760311aa", "lon": -77.04010666666667, "fusion_lon": 0.0}, {"is_reserved": 0, "type": "electric_scooter", "fusion_lat": 0.0, "is_disabled": 0, "rental_uris": {"ios": "https://dc.lft.to/lastmile_qr_scan", "android": "https://dc.lft.to/lastmile_qr_scan"}, "bike_id": "94c0f4299de65455fe19a4140b77c7a6", "lat": 38.944941666666665, "name": "94c0f4299de65455fe19a4140b77c7a6", "lon": -77.00741483333333, "fusion_lon": 0.0}, {"is_reserved": 0, "type": "electric_scooter", "fusion_lat": 0.0, "is_disabled": 0, "rental_uris": {"ios": "https://dc.lft.to/lastmile_qr_scan", "android": "https://dc.lft.to/lastmile_qr_scan"}, "bike_id": "a2bdc666793ad7c5832ee279730f642c", "lat": 38.922075166666666, "name": "a2bdc666793ad7c5832ee279730f642c", "lon": -77.018526, "fusion_lon": 0.0}, {"is_reserved": 0, "type": "electric_scooter", "fusion_lat": 0.0, "is_disabled": 0, "rental_uris": {"ios": "https://dc.lft.to/lastmile_qr_scan", "android": "https://dc.lft.to/lastmile_qr_scan"}, "bike_id": "bb07864b35d45a314f07eb193763ddd4", "lat": 38.90178183333333, "name": "bb07864b35d45a314f07eb193763ddd4", "lon": -76.92949166666666, "fusion_lon": 0.0}, {"is_reserved": 0, "type": "electric_scooter", "fusion_lat": 0.0, "is_disabled": 0, "rental_uris": {"ios": "https://dc.lft.to/lastmile_qr_scan", "android": "https://dc.lft.to/lastmile_qr_scan"}, "bike_id": "34b2371aded16b0f63fc05ba83a00aad", "lat": 38.9011455, "name": "34b2371aded16b0f63fc05ba83a00aad", "lon": -77.03448283333333, "fusion_lon": 0.0}, {"is_reserved": 0, "type": "electric_scooter", "fusion_lat": 0.0, "is_disabled": 0, "rental_uris": {"ios": "https://dc.lft.to/lastmile_qr_scan", "android": "https://dc.lft.to/lastmile_qr_scan"}, "bike_id": "9d47b5937d894064169ea86f5c628299", "lat": 38.90271333333333, "name": "9d47b5937d894064169ea86f5c628299", "lon": -77.03925983333333, "fusion_lon": 0.0}, {"is_reserved": 0, "type": "electric_scooter", "fusion_lat": 0.0, "is_disabled": 0, "rental_uris": {"ios": "https://dc.lft.to/lastmile_qr_scan", "android": "https://dc.lft.to/lastmile_qr_scan"}, "bike_id": "af7c8166bb9b31068f3c1b7cb4e10ca5", "lat": 38.9332445, "name": "af7c8166bb9b31068f3c1b7cb4e10ca5", "lon": -77.02400116666666, "fusion_lon": 0.0}, {"is_reserved": 0, "type": "electric_scooter", "fusion_lat": 0.0, "is_disabled": 0, "rental_uris": {"ios": "https://dc.lft.to/lastmile_qr_scan", "android": "https://dc.lft.to/lastmile_qr_scan"}, "bike_id": "6731b491a1a6e79c061cf34352573f53", "lat": 38.8941405, "name": "6731b491a1a6e79c061cf34352573f53", "lon": -77.010835, "fusion_lon": 0.0}, {"is_reserved": 0, "type": "electric_scooter", "fusion_lat": 0.0, "is_disabled": 0, "rental_uris": {"ios": "https://dc.lft.to/lastmile_qr_scan", "android": "https://dc.lft.to/lastmile_qr_scan"}, "bike_id": "7807b3156c4c1396821b96cdcbb0d318", "lat": 38.923776833333335, "name": "7807b3156c4c1396821b96cdcbb0d318", "lon": -77.0313505, "fusion_lon": 0.0}, {"is_reserved": 0, "type": "electric_scooter", "fusion_lat": 0.0, "is_disabled": 0, "rental_uris": {"ios": "https://dc.lft.to/lastmile_qr_scan", "android": "https://dc.lft.to/lastmile_qr_scan"}, "bike_id": "fd8c41fcb121feb54ebf2281bb5f94e8", "lat": 38.909578333333336, "name": "fd8c41fcb121feb54ebf2281bb5f94e8", "lon": -77.0318535, "fusion_lon": 0.0}, {"is_reserved": 0, "type": "electric_scooter", "fusion_lat": 0.0, "is_disabled": 0, "rental_uris": {"ios": "https://dc.lft.to/lastmile_qr_scan", "android": "https://dc.lft.to/lastmile_qr_scan"}, "bike_id": "8fd56d5e02885231b34e30048f425e0a", "lat": 38.92238183333333, "name": "8fd56d5e02885231b34e30048f425e0a", "lon": -76.9884615, "fusion_lon": 0.0}, {"is_reserved": 0, "type": "electric_scooter", "fusion_lat": 0.0, "is_disabled": 0, "rental_uris": {"ios": "https://dc.lft.to/lastmile_qr_scan", "android": "https://dc.lft.to/lastmile_qr_scan"}, "bike_id": "b16644e7a9f5567b45d980845a8acfca", "lat": 38.924847, "name": "b16644e7a9f5567b45d980845a8acfca", "lon": -77.026298, "fusion_lon": 0.0}, {"is_reserved": 0, "type": "electric_scooter", "fusion_lat": 0.0, "is_disabled": 0, "rental_uris": {"ios": "https://dc.lft.to/lastmile_qr_scan", "android": "https://dc.lft.to/lastmile_qr_scan"}, "bike_id": "39495625213b6f5e3a613cfd56d7c70e", "lat": 38.9137085, "name": "39495625213b6f5e3a613cfd56d7c70e", "lon": -77.020583, "fusion_lon": 0.0}, {"is_reserved": 0, "type": "electric_scooter", "fusion_lat": 0.0, "is_disabled": 0, "rental_uris": {"ios": "https://dc.lft.to/lastmile_qr_scan", "android": "https://dc.lft.to/lastmile_qr_scan"}, "bike_id": "76f1c4a4bad864be7469c34a47eb54a6", "lat": 38.905926, "name": "76f1c4a4bad864be7469c34a47eb54a6", "lon": -77.0727645, "fusion_lon": 0.0}, {"is_reserved": 0, "type": "electric_scooter", "fusion_lat": 0.0, "is_disabled": 0, "rental_uris": {"ios": "https://dc.lft.to/lastmile_qr_scan", "android": "https://dc.lft.to/lastmile_qr_scan"}, "bike_id": "605f558fa63635de456fc4e50066e6d7", "lat": 38.917412, "name": "605f558fa63635de456fc4e50066e6d7", "lon": -77.02113083333333, "fusion_lon": 0.0}, {"is_reserved": 0, "type": "electric_scooter", "fusion_lat": 0.0, "is_disabled": 0, "rental_uris": {"ios": "https://dc.lft.to/lastmile_qr_scan", "android": "https://dc.lft.to/lastmile_qr_scan"}, "bike_id": "6ec3f48e7cb4b7fcb08217c1cab22491", "lat": 38.907789, "name": "6ec3f48e7cb4b7fcb08217c1cab22491", "lon": -76.98337566666666, "fusion_lon": 0.0}, {"is_reserved": 0, "type": "electric_scooter", "fusion_lat": 0.0, "is_disabled": 0, "rental_uris": {"ios": "https://dc.lft.to/lastmile_qr_scan", "android": "https://dc.lft.to/lastmile_qr_scan"}, "bike_id": "3b7594c76ab92fff4c2ce98d7424933d", "lat": 38.915164833333336, "name": "3b7594c76ab92fff4c2ce98d7424933d", "lon": -77.07281033333334, "fusion_lon": 0.0}, {"is_reserved": 0, "type": "electric_bike", "fusion_lat": 0.0, "is_disabled": 0, "rental_uris": {"ios": "https://dc.lft.to/lastmile_qr_scan", "android": "https://dc.lft.to/lastmile_qr_scan"}, "bike_id": "1d94a1504a7fc684e4879891215d21be", "lat": 38.888782666666664, "name": "1d94a1504a7fc684e4879891215d21be", "lon": -76.95705933333333, "fusion_lon": 0.0}, {"is_reserved": 0, "type": "electric_scooter", "fusion_lat": 0.0, "is_disabled": 0, "rental_uris": {"ios": "https://dc.lft.to/lastmile_qr_scan", "android": "https://dc.lft.to/lastmile_qr_scan"}, "bike_id": "31982583af60d17f85fdaa74e7e99dfc", "lat": 38.923605, "name": "31982583af60d17f85fdaa74e7e99dfc", "lon": -77.04311783333333, "fusion_lon": 0.0}, {"is_reserved": 0, "type": "electric_scooter", "fusion_lat": 0.0, "is_disabled": 0, "rental_uris": {"ios": "https://dc.lft.to/lastmile_qr_scan", "android": "https://dc.lft.to/lastmile_qr_scan"}, "bike_id": "c2cfaa74cc00dc2c80ee17c1b3efa6e7", "lat": 38.907825333333335, "name": "c2cfaa74cc00dc2c80ee17c1b3efa6e7", "lon": -77.04351866666667, "fusion_lon": 0.0}, {"is_reserved": 0, "type": "electric_scooter", "fusion_lat": 0.0, "is_disabled": 0, "rental_uris": {"ios": "https://dc.lft.to/lastmile_qr_scan", "android": "https://dc.lft.to/lastmile_qr_scan"}, "bike_id": "efd23ad0ae39684abd9746caf000b087", "lat": 38.903754166666666, "name": "efd23ad0ae39684abd9746caf000b087", "lon": -77.01759916666667, "fusion_lon": 0.0}, {"is_reserved": 0, "type": "electric_scooter", "fusion_lat": 0.0, "is_disabled": 0, "rental_uris": {"ios": "https://dc.lft.to/lastmile_qr_scan", "android": "https://dc.lft.to/lastmile_qr_scan"}, "bike_id": "2f2b89aa5980c33b722e143a39bab379", "lat": 38.9209045, "name": "2f2b89aa5980c33b722e143a39bab379", "lon": -77.037154, "fusion_lon": 0.0}, {"is_reserved": 0, "type": "electric_bike", "fusion_lat": 0.0, "is_disabled": 0, "rental_uris": {"ios": "https://dc.lft.to/lastmile_qr_scan", "android": "https://dc.lft.to/lastmile_qr_scan"}, "bike_id": "24453a4f1e17f0f0a5636acc32d9e475", "lat": 38.879582666666664, "name": "24453a4f1e17f0f0a5636acc32d9e475", "lon": -76.93197516666666, "fusion_lon": 0.0}, {"is_reserved": 0, "type": "electric_scooter", "fusion_lat": 0.0, "is_disabled": 0, "rental_uris": {"ios": "https://dc.lft.to/lastmile_qr_scan", "android": "https://dc.lft.to/lastmile_qr_scan"}, "bike_id": "3038e0959104d28e7469b88d2a155a3f", "lat": 38.91560366666667, "name": "3038e0959104d28e7469b88d2a155a3f", "lon": -77.03246716666666, "fusion_lon": 0.0}, {"is_reserved": 0, "type": "electric_scooter", "fusion_lat": 0.0, "is_disabled": 0, "rental_uris": {"ios": "https://dc.lft.to/lastmile_qr_scan", "android": "https://dc.lft.to/lastmile_qr_scan"}, "bike_id": "33a3996ff2e71b6d9be80d9dcff3ca9a", "lat": 38.90280633333333, "name": "33a3996ff2e71b6d9be80d9dcff3ca9a", "lon": -77.06165883333334, "fusion_lon": 0.0}, {"is_reserved": 0, "type": "electric_scooter", "fusion_lat": 0.0, "is_disabled": 0, "rental_uris": {"ios": "https://dc.lft.to/lastmile_qr_scan", "android": "https://dc.lft.to/lastmile_qr_scan"}, "bike_id": "03f09712c2cc07f494970462c4af4c1e", "lat": 38.920379833333335, "name": "03f09712c2cc07f494970462c4af4c1e", "lon": -77.04088966666667, "fusion_lon": 0.0}, {"is_reserved": 0, "type": "electric_bike", "fusion_lat": 0.0, "is_disabled": 0, "rental_uris": {"ios": "https://dc.lft.to/lastmile_qr_scan", "android": "https://dc.lft.to/lastmile_qr_scan"}, "bike_id": "76a6d97c9ed55ce648c241b3b900e91f", "lat": 38.952397833333336, "name": "76a6d97c9ed55ce648c241b3b900e91f", "lon": -76.98246283333333, "fusion_lon": 0.0}, {"is_reserved": 0, "type": "electric_scooter", "fusion_lat": 0.0, "is_disabled": 0, "rental_uris": {"ios": "https://dc.lft.to/lastmile_qr_scan", "android": "https://dc.lft.to/lastmile_qr_scan"}, "bike_id": "538136d4f4ffc9bb8ab487e6d7fb534e", "lat": 38.92058266666667, "name": "538136d4f4ffc9bb8ab487e6d7fb534e", "lon": -77.02304366666667, "fusion_lon": 0.0}, {"is_reserved": 0, "type": "electric_scooter", "fusion_lat": 0.0, "is_disabled": 0, "rental_uris": {"ios": "https://dc.lft.to/lastmile_qr_scan", "android": "https://dc.lft.to/lastmile_qr_scan"}, "bike_id": "f5e22fd75301384046fa5e407628cc55", "lat": 38.900749833333336, "name": "f5e22fd75301384046fa5e407628cc55", "lon": -77.01336866666666, "fusion_lon": 0.0}, {"is_reserved": 0, "type": "electric_bike", "fusion_lat": 0.0, "is_disabled": 0, "rental_uris": {"ios": "https://dc.lft.to/lastmile_qr_scan", "android": "https://dc.lft.to/lastmile_qr_scan"}, "bike_id": "78db2c983518351c41611a0e858494f9", "lat": 38.958809, "name": "78db2c983518351c41611a0e858494f9", "lon": -76.9706185, "fusion_lon": 0.0}, {"is_reserved": 0, "type": "electric_scooter", "fusion_lat": 0.0, "is_disabled": 0, "rental_uris": {"ios": "https://dc.lft.to/lastmile_qr_scan", "android": "https://dc.lft.to/lastmile_qr_scan"}, "bike_id": "b182bcfdfb6ac5cfa120e40fb2ef6d13", "lat": 38.901454666666666, "name": "b182bcfdfb6ac5cfa120e40fb2ef6d13", "lon": -77.01510166666667, "fusion_lon": 0.0}, {"is_reserved": 0, "type": "electric_scooter", "fusion_lat": 0.0, "is_disabled": 0, "rental_uris": {"ios": "https://dc.lft.to/lastmile_qr_scan", "android": "https://dc.lft.to/lastmile_qr_scan"}, "bike_id": "0b0df50e91deb523fb297798b8cf3011", "lat": 38.892306166666664, "name": "0b0df50e91deb523fb297798b8cf3011", "lon": -77.0257555, "fusion_lon": 0.0}, {"is_reserved": 0, "type": "electric_scooter", "fusion_lat": 0.0, "is_disabled": 0, "rental_uris": {"ios": "https://dc.lft.to/lastmile_qr_scan", "android": "https://dc.lft.to/lastmile_qr_scan"}, "bike_id": "441e07b72cacf267a860bd67968ccfb0", "lat": 38.9064475, "name": "441e07b72cacf267a860bd67968ccfb0", "lon": -77.02480033333333, "fusion_lon": 0.0}, {"is_reserved": 0, "type": "electric_scooter", "fusion_lat": 0.0, "is_disabled": 0, "rental_uris": {"ios": "https://dc.lft.to/lastmile_qr_scan", "android": "https://dc.lft.to/lastmile_qr_scan"}, "bike_id": "936f625e172e4974dc74c1da7713742e", "lat": 38.925416166666665, "name": "936f625e172e4974dc74c1da7713742e", "lon": -77.03326283333334, "fusion_lon": 0.0}, {"is_reserved": 0, "type": "electric_scooter", "fusion_lat": 0.0, "is_disabled": 0, "rental_uris": {"ios": "https://dc.lft.to/lastmile_qr_scan", "android": "https://dc.lft.to/lastmile_qr_scan"}, "bike_id": "f68e23659c1657527e1024ef5536a219", "lat": 38.927869, "name": "f68e23659c1657527e1024ef5536a219", "lon": -76.97627383333334, "fusion_lon": 0.0}, {"is_reserved": 0, "type": "electric_scooter", "fusion_lat": 0.0, "is_disabled": 0, "rental_uris": {"ios": "https://dc.lft.to/lastmile_qr_scan", "android": "https://dc.lft.to/lastmile_qr_scan"}, "bike_id": "a5228392543aed99e576e8ea4d3beab1", "lat": 38.9061745, "name": "a5228392543aed99e576e8ea4d3beab1", "lon": -77.05657116666667, "fusion_lon": 0.0}, {"is_reserved": 0, "type": "electric_scooter", "fusion_lat": 0.0, "is_disabled": 0, "rental_uris": {"ios": "https://dc.lft.to/lastmile_qr_scan", "android": "https://dc.lft.to/lastmile_qr_scan"}, "bike_id": "60dd405ef8cf509860d673c2a545282c", "lat": 38.89774966666667, "name": "60dd405ef8cf509860d673c2a545282c", "lon": -77.02734966666667, "fusion_lon": 0.0}, {"is_reserved": 0, "type": "electric_scooter", "fusion_lat": 0.0, "is_disabled": 0, "rental_uris": {"ios": "https://dc.lft.to/lastmile_qr_scan", "android": "https://dc.lft.to/lastmile_qr_scan"}, "bike_id": "e4bf1c7721256ca5fb23d354228ee32f", "lat": 38.9171235, "name": "e4bf1c7721256ca5fb23d354228ee32f", "lon": -77.0088815, "fusion_lon": 0.0}, {"is_reserved": 0, "type": "electric_scooter", "fusion_lat": 0.0, "is_disabled": 0, "rental_uris": {"ios": "https://dc.lft.to/lastmile_qr_scan", "android": "https://dc.lft.to/lastmile_qr_scan"}, "bike_id": "0aae5ff01025b440d78bc9bc8c6c26c3", "lat": 38.95275383333333, "name": "0aae5ff01025b440d78bc9bc8c6c26c3", "lon": -76.99900716666667, "fusion_lon": 0.0}, {"is_reserved": 0, "type": "electric_scooter", "fusion_lat": 0.0, "is_disabled": 0, "rental_uris": {"ios": "https://dc.lft.to/lastmile_qr_scan", "android": "https://dc.lft.to/lastmile_qr_scan"}, "bike_id": "1457b707831bc635887f41c854785412", "lat": 38.91993183333334, "name": "1457b707831bc635887f41c854785412", "lon": -76.973006, "fusion_lon": 0.0}, {"is_reserved": 0, "type": "electric_scooter", "fusion_lat": 0.0, "is_disabled": 0, "rental_uris": {"ios": "https://dc.lft.to/lastmile_qr_scan", "android": "https://dc.lft.to/lastmile_qr_scan"}, "bike_id": "dc47638087358a1606fc4994324ce21a", "lat": 38.908772, "name": "dc47638087358a1606fc4994324ce21a", "lon": -77.04410083333333, "fusion_lon": 0.0}, {"is_reserved": 0, "type": "electric_scooter", "fusion_lat": 0.0, "is_disabled": 0, "rental_uris": {"ios": "https://dc.lft.to/lastmile_qr_scan", "android": "https://dc.lft.to/lastmile_qr_scan"}, "bike_id": "e246ab872a7c2bc875da8dbccf89f7ec", "lat": 38.921274, "name": "e246ab872a7c2bc875da8dbccf89f7ec", "lon": -77.01837183333333, "fusion_lon": 0.0}, {"is_reserved": 0, "type": "electric_scooter", "fusion_lat": 0.0, "is_disabled": 0, "rental_uris": {"ios": "https://dc.lft.to/lastmile_qr_scan", "android": "https://dc.lft.to/lastmile_qr_scan"}, "bike_id": "6f04a4264f0b597daed46869cdf4beb7", "lat": 38.92784366666667, "name": "6f04a4264f0b597daed46869cdf4beb7", "lon": -77.02320233333333, "fusion_lon": 0.0}, {"is_reserved": 0, "type": "electric_scooter", "fusion_lat": 0.0, "is_disabled": 0, "rental_uris": {"ios": "https://dc.lft.to/lastmile_qr_scan", "android": "https://dc.lft.to/lastmile_qr_scan"}, "bike_id": "39e59077fd08c40157794ed65cd25209", "lat": 38.91743616666667, "name": "39e59077fd08c40157794ed65cd25209", "lon": -77.02276933333333, "fusion_lon": 0.0}, {"is_reserved": 0, "type": "electric_scooter", "fusion_lat": 0.0, "is_disabled": 0, "rental_uris": {"ios": "https://dc.lft.to/lastmile_qr_scan", "android": "https://dc.lft.to/lastmile_qr_scan"}, "bike_id": "6dfd99ae4a92a585ef9908926a0bc170", "lat": 38.91924483333333, "name": "6dfd99ae4a92a585ef9908926a0bc170", "lon": -77.02475866666667, "fusion_lon": 0.0}, {"is_reserved": 0, "type": "electric_scooter", "fusion_lat": 0.0, "is_disabled": 0, "rental_uris": {"ios": "https://dc.lft.to/lastmile_qr_scan", "android": "https://dc.lft.to/lastmile_qr_scan"}, "bike_id": "6bb3542782b777a4f41fb5c34de2d1c9", "lat": 38.913447166666664, "name": "6bb3542782b777a4f41fb5c34de2d1c9", "lon": -77.03042983333333, "fusion_lon": 0.0}, {"is_reserved": 0, "type": "electric_scooter", "fusion_lat": 0.0, "is_disabled": 0, "rental_uris": {"ios": "https://dc.lft.to/lastmile_qr_scan", "android": "https://dc.lft.to/lastmile_qr_scan"}, "bike_id": "fccb27c5a8ef99328bc92b2534400c7f", "lat": 38.9008355, "name": "fccb27c5a8ef99328bc92b2534400c7f", "lon": -77.02984516666666, "fusion_lon": 0.0}, {"is_reserved": 0, "type": "electric_scooter", "fusion_lat": 0.0, "is_disabled": 0, "rental_uris": {"ios": "https://dc.lft.to/lastmile_qr_scan", "android": "https://dc.lft.to/lastmile_qr_scan"}, "bike_id": "a03e2e44f2cbe1b47b5c650a36d3c66e", "lat": 38.972406166666666, "name": "a03e2e44f2cbe1b47b5c650a36d3c66e", "lon": -77.02717, "fusion_lon": 0.0}, {"is_reserved": 0, "type": "electric_bike", "fusion_lat": 0.0, "is_disabled": 0, "rental_uris": {"ios": "https://dc.lft.to/lastmile_qr_scan", "android": "https://dc.lft.to/lastmile_qr_scan"}, "bike_id": "260d4a76fcbdfd024b6ae9df46a41c85", "lat": 38.968984, "name": "260d4a76fcbdfd024b6ae9df46a41c85", "lon": -76.95577433333334, "fusion_lon": 0.0}, {"is_reserved": 0, "type": "electric_scooter", "fusion_lat": 0.0, "is_disabled": 0, "rental_uris": {"ios": "https://dc.lft.to/lastmile_qr_scan", "android": "https://dc.lft.to/lastmile_qr_scan"}, "bike_id": "dae4003debae1bc09e50377ad84e5193", "lat": 38.94864183333333, "name": "dae4003debae1bc09e50377ad84e5193", "lon": -77.07880416666667, "fusion_lon": 0.0}, {"is_reserved": 0, "type": "electric_scooter", "fusion_lat": 0.0, "is_disabled": 0, "rental_uris": {"ios": "https://dc.lft.to/lastmile_qr_scan", "android": "https://dc.lft.to/lastmile_qr_scan"}, "bike_id": "74bf936bf94f31f58e850848c49ab7bb", "lat": 38.923088666666665, "name": "74bf936bf94f31f58e850848c49ab7bb", "lon": -76.99780833333334, "fusion_lon": 0.0}, {"is_reserved": 0, "type": "electric_scooter", "fusion_lat": 0.0, "is_disabled": 0, "rental_uris": {"ios": "https://dc.lft.to/lastmile_qr_scan", "android": "https://dc.lft.to/lastmile_qr_scan"}, "bike_id": "8d63baa79053b816bbb1aa1e1b3113dd", "lat": 38.91655933333333, "name": "8d63baa79053b816bbb1aa1e1b3113dd", "lon": -77.04178266666666, "fusion_lon": 0.0}, {"is_reserved": 0, "type": "electric_scooter", "fusion_lat": 0.0, "is_disabled": 0, "rental_uris": {"ios": "https://dc.lft.to/lastmile_qr_scan", "android": "https://dc.lft.to/lastmile_qr_scan"}, "bike_id": "f6cb8bc1b65179fcee77c2f4cd29a60c", "lat": 38.89682833333333, "name": "f6cb8bc1b65179fcee77c2f4cd29a60c", "lon": -77.04327766666667, "fusion_lon": 0.0}, {"is_reserved": 0, "type": "electric_scooter", "fusion_lat": 0.0, "is_disabled": 0, "rental_uris": {"ios": "https://dc.lft.to/lastmile_qr_scan", "android": "https://dc.lft.to/lastmile_qr_scan"}, "bike_id": "eba611b83e82f921ad83fcda0413bf5e", "lat": 38.934334, "name": "eba611b83e82f921ad83fcda0413bf5e", "lon": -77.03272833333334, "fusion_lon": 0.0}, {"is_reserved": 0, "type": "electric_scooter", "fusion_lat": 0.0, "is_disabled": 0, "rental_uris": {"ios": "https://dc.lft.to/lastmile_qr_scan", "android": "https://dc.lft.to/lastmile_qr_scan"}, "bike_id": "15a86a9bf485d93d6bebb9a3ba4bed67", "lat": 38.89737016666667, "name": "15a86a9bf485d93d6bebb9a3ba4bed67", "lon": -77.03064616666667, "fusion_lon": 0.0}, {"is_reserved": 0, "type": "electric_scooter", "fusion_lat": 0.0, "is_disabled": 0, "rental_uris": {"ios": "https://dc.lft.to/lastmile_qr_scan", "android": "https://dc.lft.to/lastmile_qr_scan"}, "bike_id": "ad36f7dcacd24d9e5bed88610773604d", "lat": 38.898803, "name": "ad36f7dcacd24d9e5bed88610773604d", "lon": -76.9318115, "fusion_lon": 0.0}, {"is_reserved": 0, "type": "electric_scooter", "fusion_lat": 0.0, "is_disabled": 0, "rental_uris": {"ios": "https://dc.lft.to/lastmile_qr_scan", "android": "https://dc.lft.to/lastmile_qr_scan"}, "bike_id": "00a2f039aac7c6effacaf7aaaf90045a", "lat": 38.9156285, "name": "00a2f039aac7c6effacaf7aaaf90045a", "lon": -77.0408735, "fusion_lon": 0.0}, {"is_reserved": 0, "type": "electric_scooter", "fusion_lat": 0.0, "is_disabled": 0, "rental_uris": {"ios": "https://dc.lft.to/lastmile_qr_scan", "android": "https://dc.lft.to/lastmile_qr_scan"}, "bike_id": "f2d7e55e99a974d467833fcb7f3749e4", "lat": 38.926768833333334, "name": "f2d7e55e99a974d467833fcb7f3749e4", "lon": -77.026902, "fusion_lon": 0.0}, {"is_reserved": 0, "type": "electric_scooter", "fusion_lat": 0.0, "is_disabled": 0, "rental_uris": {"ios": "https://dc.lft.to/lastmile_qr_scan", "android": "https://dc.lft.to/lastmile_qr_scan"}, "bike_id": "20443102f546803929c395d8e017750e", "lat": 38.87945533333333, "name": "20443102f546803929c395d8e017750e", "lon": -77.01002166666666, "fusion_lon": 0.0}, {"is_reserved": 0, "type": "electric_scooter", "fusion_lat": 0.0, "is_disabled": 0, "rental_uris": {"ios": "https://dc.lft.to/lastmile_qr_scan", "android": "https://dc.lft.to/lastmile_qr_scan"}, "bike_id": "07da6a74e925fc1acf72adc7de123566", "lat": 38.92038933333333, "name": "07da6a74e925fc1acf72adc7de123566", "lon": -77.01967716666667, "fusion_lon": 0.0}, {"is_reserved": 0, "type": "electric_scooter", "fusion_lat": 0.0, "is_disabled": 0, "rental_uris": {"ios": "https://dc.lft.to/lastmile_qr_scan", "android": "https://dc.lft.to/lastmile_qr_scan"}, "bike_id": "fdf93b50c40350ce11b1c4738c969d4a", "lat": 38.907417333333335, "name": "fdf93b50c40350ce11b1c4738c969d4a", "lon": -77.00380966666667, "fusion_lon": 0.0}, {"is_reserved": 0, "type": "electric_scooter", "fusion_lat": 0.0, "is_disabled": 0, "rental_uris": {"ios": "https://dc.lft.to/lastmile_qr_scan", "android": "https://dc.lft.to/lastmile_qr_scan"}, "bike_id": "6d2193e7289b5221b4522660764d39a8", "lat": 38.8742365, "name": "6d2193e7289b5221b4522660764d39a8", "lon": -76.97178233333334, "fusion_lon": 0.0}, {"is_reserved": 0, "type": "electric_scooter", "fusion_lat": 0.0, "is_disabled": 0, "rental_uris": {"ios": "https://dc.lft.to/lastmile_qr_scan", "android": "https://dc.lft.to/lastmile_qr_scan"}, "bike_id": "7793453797214e80ddd454f47ad30c08", "lat": 38.91628816666667, "name": "7793453797214e80ddd454f47ad30c08", "lon": -77.03184016666667, "fusion_lon": 0.0}, {"is_reserved": 0, "type": "electric_scooter", "fusion_lat": 0.0, "is_disabled": 0, "rental_uris": {"ios": "https://dc.lft.to/lastmile_qr_scan", "android": "https://dc.lft.to/lastmile_qr_scan"}, "bike_id": "32fe5c399c44fe62edc1e79a1c7aa6d3", "lat": 38.92898133333333, "name": "32fe5c399c44fe62edc1e79a1c7aa6d3", "lon": -77.03874716666667, "fusion_lon": 0.0}, {"is_reserved": 0, "type": "electric_scooter", "fusion_lat": 0.0, "is_disabled": 0, "rental_uris": {"ios": "https://dc.lft.to/lastmile_qr_scan", "android": "https://dc.lft.to/lastmile_qr_scan"}, "bike_id": "aabcb8be284db0fd2d9945aa121cf5bc", "lat": 38.898584166666666, "name": "aabcb8be284db0fd2d9945aa121cf5bc", "lon": -77.03351666666667, "fusion_lon": 0.0}, {"is_reserved": 0, "type": "electric_scooter", "fusion_lat": 0.0, "is_disabled": 0, "rental_uris": {"ios": "https://dc.lft.to/lastmile_qr_scan", "android": "https://dc.lft.to/lastmile_qr_scan"}, "bike_id": "fad1f920f3fc3f685a9ecb811c841ae7", "lat": 38.910292166666665, "name": "fad1f920f3fc3f685a9ecb811c841ae7", "lon": -77.03834833333333, "fusion_lon": 0.0}, {"is_reserved": 0, "type": "electric_bike", "fusion_lat": 0.0, "is_disabled": 0, "rental_uris": {"ios": "https://dc.lft.to/lastmile_qr_scan", "android": "https://dc.lft.to/lastmile_qr_scan"}, "bike_id": "f5a50b4cb1ccd7e87e6e0a0d21469c68", "lat": 38.87584666666667, "name": "f5a50b4cb1ccd7e87e6e0a0d21469c68", "lon": -77.04755633333333, "fusion_lon": 0.0}, {"is_reserved": 0, "type": "electric_bike", "fusion_lat": 0.0, "is_disabled": 0, "rental_uris": {"ios": "https://dc.lft.to/lastmile_qr_scan", "android": "https://dc.lft.to/lastmile_qr_scan"}, "bike_id": "df1b0979a4c77da1d6f3c8b1d99ade7d", "lat": 38.9982785, "name": "df1b0979a4c77da1d6f3c8b1d99ade7d", "lon": -76.997321, "fusion_lon": 0.0},