{"data": {"bikes": [{"lon": -77.024208, "lat": 38.926053, "name": "98104a48f1e1a950c2154065874ce048", "fusion_lat": 0.0, "fusion_lon": 0.0, "rental_uris": {"android": "https://dc.lft.to/lastmile_qr_scan", "ios": "https://dc.lft.to/lastmile_qr_scan"}, "is_reserved": 0, "is_disabled": 0, "type": "electric_scooter", "bike_id": "98104a48f1e1a950c2154065874ce048"}, {"lon": -76.9490215, "lat": 38.895481333333336, "name": "28488b105240506b29d3e9375f220bc9", "fusion_lat": 0.0, "fusion_lon": 0.0, "rental_uris": {"android": "https://dc.lft.to/lastmile_qr_scan", "ios": "https://dc.lft.to/lastmile_qr_scan"}, "is_reserved": 0, "is_disabled": 0, "type": "electric_scooter", "bike_id": "28488b105240506b29d3e9375f220bc9"}, {"lon": -77.01592216666667, "lat": 38.9576285, "name": "8c06eed4b3c18e97d37fdf43c60fbeaf", "fusion_lat": 0.0, "fusion_lon": 0.0, "rental_uris": {"android": "https://dc.lft.to/lastmile_qr_scan", "ios": "https://dc.lft.to/lastmile_qr_scan"}, "is_reserved": 0, "is_disabled": 0, "type": "electric_scooter", "bike_id": "8c06eed4b3c18e97d37fdf43c60fbeaf"}, {"lon": -77.009214, "lat": 38.90924033333334, "name": "2e4de3525ceca2291034e82796003969", "fusion_lat": 0.0, "fusion_lon": 0.0, "rental_uris": {"android": "https://dc.lft.to/lastmile_qr_scan", "ios": "https://dc.lft.to/lastmile_qr_scan"}, "is_reserved": 0, "is_disabled": 0, "type": "electric_scooter", "bike_id": "2e4de3525ceca2291034e82796003969"}, {"lon": -77.01638483333333, "lat": 38.9293585, "name": "851bf3a35daca4f142d84aded5858d5a", "fusion_lat": 0.0, "fusion_lon": 0.0, "rental_uris": {"android": "https://dc.lft.to/lastmile_qr_scan", "ios": "https://dc.lft.to/lastmile_qr_scan"}, "is_reserved": 0, "is_disabled": 0, "type": "electric_scooter", "bike_id": "851bf3a35daca4f142d84aded5858d5a"}, {"lon": -76.951817, "lat": 38.89133866666667, "name": "3f75916db732c3524badf16841c6d8d3", "fusion_lat": 0.0, "fusion_lon": 0.0, "rental_uris": {"android": "https://dc.lft.to/lastmile_qr_scan", "ios": "https://dc.lft.to/lastmile_qr_scan"}, "is_reserved": 0, "is_disabled": 0, "type": "electric_scooter", "bike_id": "3f75916db732c3524badf16841c6d8d3"}, {"lon": -77.0216715, "lat": 38.9260895, "name": "bf13f9c73c10ce90496cabcae1e5a01b", "fusion_lat": 0.0, "fusion_lon": 0.0, "rental_uris": {"android": "https://dc.lft.to/lastmile_qr_scan", "ios": "https://dc.lft.to/lastmile_qr_scan"}, "is_reserved": 0, "is_disabled": 0, "type": "electric_scooter", "bike_id": "bf13f9c73c10ce90496cabcae1e5a01b"}, {"lon": -77.00870866666666, "lat": 38.9049935, "name": "88d095e795a4f9c13f76989ed69c1dfc", "fusion_lat": 0.0, "fusion_lon": 0.0, "rental_uris": {"android": "https://dc.lft.to/lastmile_qr_scan", "ios": "https://dc.lft.to/lastmile_qr_scan"}, "is_reserved": 0, "is_disabled": 0, "type": "electric_scooter", "bike_id": "88d095e795a4f9c13f76989ed69c1dfc"}, {"lon": -77.0018795, "lat": 38.9076145, "name": "e361ec5713211cc1dae2a6abd09196b9", "fusion_lat": 0.0, "fusion_lon": 0.0, "rental_uris": {"android": "https://dc.lft.to/lastmile_qr_scan", "ios": "https://dc.lft.to/lastmile_qr_scan"}, "is_reserved": 0, "is_disabled": 0, "type": "electric_scooter", "bike_id": "e361ec5713211cc1dae2a6abd09196b9"}, {"lon": -77.10333083333333, "lat": 38.96507866666666, "name": "55dfdd15a24ccaaa2e0849e5506d9ecd", "fusion_lat": 0.0, "fusion_lon": 0.0, "rental_uris": {"android": "https://dc.lft.to/lastmile_qr_scan", "ios": "https://dc.lft.to/lastmile_qr_scan"}, "is_reserved": 0, "is_disabled": 0, "type": "electric_bike", "bike_id": "55dfdd15a24ccaaa2e0849e5506d9ecd"}, {"lon": -77.00050916666666, "lat": 38.888974166666664, "name": "3e83a5ec3fc98a56bf15812f29ccda61", "fusion_lat": 0.0, "fusion_lon": 0.0, "rental_uris": {"android": "https://dc.lft.to/lastmile_qr_scan", "ios": "https://dc.lft.to/lastmile_qr_scan"}, "is_reserved": 0, "is_disabled": 0, "type": "electric_scooter", "bike_id": "3e83a5ec3fc98a56bf15812f29ccda61"}, {"lon": -77.0448665, "lat": 38.911616333333335, "name": "048ad952909a546f00c5fb13f008f582", "fusion_lat": 0.0, "fusion_lon": 0.0, "rental_uris": {"android": "https://dc.lft.to/lastmile_qr_scan", "ios": "https://dc.lft.to/lastmile_qr_scan"}, "is_reserved": 0, "is_disabled": 0, "type": "electric_scooter", "bike_id": "048ad952909a546f00c5fb13f008f582"}, {"lon": -76.94846066666666, "lat": 38.894851833333334, "name": "460b42004bf4235af13409133b16501b", "fusion_lat": 0.0, "fusion_lon": 0.0, "rental_uris": {"android": "https://dc.lft.to/lastmile_qr_scan", "ios": "https://dc.lft.to/lastmile_qr_scan"}, "is_reserved": 0, "is_disabled": 0, "type": "electric_scooter", "bike_id": "460b42004bf4235af13409133b16501b"}, {"lon": -77.099642, "lat": 38.8578845, "name": "d953dc3b225d0f5bcfe689f4ab116966", "fusion_lat": 0.0, "fusion_lon": 0.0, "rental_uris": {"android": "https://dc.lft.to/lastmile_qr_scan", "ios": "https://dc.lft.to/lastmile_qr_scan"}, "is_reserved": 0, "is_disabled": 0, "type": "electric_bike", "bike_id": "d953dc3b225d0f5bcfe689f4ab116966"}, {"lon": -77.02276383333333, "lat": 38.8936915, "name": "34aac76042b0e44687fa22b4802f508f", "fusion_lat": 0.0, "fusion_lon": 0.0, "rental_uris": {"android": "https://dc.lft.to/lastmile_qr_scan", "ios": "https://dc.lft.to/lastmile_qr_scan"}, "is_reserved": 0, "is_disabled": 0, "type": "electric_scooter", "bike_id": "34aac76042b0e44687fa22b4802f508f"}, {"lon": -77.02555033333333, "lat": 38.89222866666667, "name": "522d018cd3cab22b9b366548f0216c97", "fusion_lat": 0.0, "fusion_lon": 0.0, "rental_uris": {"android": "https://dc.lft.to/lastmile_qr_scan", "ios": "https://dc.lft.to/lastmile_qr_scan"}, "is_reserved": 0, "is_disabled": 0, "type": "electric_scooter", "bike_id": "522d018cd3cab22b9b366548f0216c97"}, {"lon": -77.04000883333333, "lat": 38.9140685, "name": "c651994183f2dc2cc052e55f2b1c39d0", "fusion_lat": 0.0, "fusion_lon": 0.0, "rental_uris": {"android": "https://dc.lft.to/lastmile_qr_scan", "ios": "https://dc.lft.to/lastmile_qr_scan"}, "is_reserved": 0, "is_disabled": 0, "type": "electric_scooter", "bike_id": "c651994183f2dc2cc052e55f2b1c39d0"}, {"lon": -77.04905516666666, "lat": 38.913242, "name": "64c29937f5705de6ff01f6ef1bd7a2e3", "fusion_lat": 0.0, "fusion_lon": 0.0, "rental_uris": {"android": "https://dc.lft.to/lastmile_qr_scan", "ios": "https://dc.lft.to/lastmile_qr_scan"}, "is_reserved": 0, "is_disabled": 0, "type": "electric_scooter", "bike_id": "64c29937f5705de6ff01f6ef1bd7a2e3"}, {"lon": -77.01297983333333, "lat": 39.00374566666667, "name": "fd77a9b49ba7b3bc66feb3a144cf5459", "fusion_lat": 0.0, "fusion_lon": 0.0, "rental_uris": {"android": "https://dc.lft.to/lastmile_qr_scan", "ios": "https://dc.lft.to/lastmile_qr_scan"}, "is_reserved": 0, "is_disabled": 0, "type": "electric_bike", "bike_id": "fd77a9b49ba7b3bc66feb3a144cf5459"}, {"lon": -77.03183616666666, "lat": 38.915963166666664, "name": "c3e9719e104bd5587cfdd0a8ba807021", "fusion_lat": 0.0, "fusion_lon": 0.0, "rental_uris": {"android": "https://dc.lft.to/lastmile_qr_scan", "ios": "https://dc.lft.to/lastmile_qr_scan"}, "is_reserved": 0, "is_disabled": 0, "type": "electric_scooter", "bike_id": "c3e9719e104bd5587cfdd0a8ba807021"}, {"lon": -77.0111705, "lat": 38.9035295, "name": "4ed9dc10dbb51cae06f2263cce6ec599", "fusion_lat": 0.0, "fusion_lon": 0.0, "rental_uris": {"android": "https://dc.lft.to/lastmile_qr_scan", "ios": "https://dc.lft.to/lastmile_qr_scan"}, "is_reserved": 0, "is_disabled": 0, "type": "electric_scooter", "bike_id": "4ed9dc10dbb51cae06f2263cce6ec599"}, {"lon": -77.04791883333333, "lat": 38.89361666666667, "name": "954d743f652b6b06d9b727b105af3387", "fusion_lat": 0.0, "fusion_lon": 0.0, "rental_uris": {"android": "https://dc.lft.to/lastmile_qr_scan", "ios": "https://dc.lft.to/lastmile_qr_scan"}, "is_reserved": 0, "is_disabled": 0, "type": "electric_scooter", "bike_id": "954d743f652b6b06d9b727b105af3387"}, {"lon": -77.03152216666666, "lat": 38.89385583333333, "name": "6e56d597415f641a65033f2965fb8862", "fusion_lat": 0.0, "fusion_lon": 0.0, "rental_uris": {"android": "https://dc.lft.to/lastmile_qr_scan", "ios": "https://dc.lft.to/lastmile_qr_scan"}, "is_reserved": 0, "is_disabled": 0, "type": "electric_scooter", "bike_id": "6e56d597415f641a65033f2965fb8862"}, {"lon": -77.0365995, "lat": 38.922967166666666, "name": "6ff9257acf1daebdebc6e3d81a3ec731", "fusion_lat": 0.0, "fusion_lon": 0.0, "rental_uris": {"android": "https://dc.lft.to/lastmile_qr_scan", "ios": "https://dc.lft.to/lastmile_qr_scan"}, "is_reserved": 0, "is_disabled": 0, "type": "electric_scooter", "bike_id": "6ff9257acf1daebdebc6e3d81a3ec731"}, {"lon": -76.99589816666666, "lat": 38.955056666666664, "name": "29e3c2e3013426b33c1aa4937a63b423", "fusion_lat": 0.0, "fusion_lon": 0.0, "rental_uris": {"android": "https://dc.lft.to/lastmile_qr_scan", "ios": "https://dc.lft.to/lastmile_qr_scan"}, "is_reserved": 0, "is_disabled": 0, "type": "electric_scooter", "bike_id": "29e3c2e3013426b33c1aa4937a63b423"}, {"lon": -77.03865866666666, "lat": 38.911704, "name": "e5783c0563fcf25f79226d1aa69641db", "fusion_lat": 0.0, "fusion_lon": 0.0, "rental_uris": {"android": "https://dc.lft.to/lastmile_qr_scan", "ios": "https://dc.lft.to/lastmile_qr_scan"}, "is_reserved": 0, "is_disabled": 0, "type": "electric_scooter", "bike_id": "e5783c0563fcf25f79226d1aa69641db"}, {"lon": -77.0333895, "lat": 38.921588, "name": "9846858cc44679121106791dd2933a22", "fusion_lat": 0.0, "fusion_lon": 0.0, "rental_uris": {"android": "https://dc.lft.to/lastmile_qr_scan", "ios": "https://dc.lft.to/lastmile_qr_scan"}, "is_reserved": 0, "is_disabled": 0, "type": "electric_scooter", "bike_id": "9846858cc44679121106791dd2933a22"}, {"lon": -77.0628635, "lat": 38.9047705, "name": "2828109b0c603efef28518d59c6e50d5", "fusion_lat": 0.0, "fusion_lon": 0.0, "rental_uris": {"android": "https://dc.lft.to/lastmile_qr_scan", "ios": "https://dc.lft.to/lastmile_qr_scan"}, "is_reserved": 0, "is_disabled": 0, "type": "electric_scooter", "bike_id": "2828109b0c603efef28518d59c6e50d5"}, {"lon": -77.00816766666667, "lat": 38.90564666666667, "name": "845dd2b59e2e0fba56a120624daf8516", "fusion_lat": 0.0, "fusion_lon": 0.0, "rental_uris": {"android": "https://dc.lft.to/lastmile_qr_scan", "ios": "https://dc.lft.to/lastmile_qr_scan"}, "is_reserved": 0, "is_disabled": 0, "type": "electric_scooter", "bike_id": "845dd2b59e2e0fba56a120624daf8516"}, {"lon": -77.063439, "lat": 38.906781, "name": "fa603ae7eacc548029ec588e665878ba", "fusion_lat": 0.0, "fusion_lon": 0.0, "rental_uris": {"android": "https://dc.lft.to/lastmile_qr_scan", "ios": "https://dc.lft.to/lastmile_qr_scan"}, "is_reserved": 0, "is_disabled": 0, "type": "electric_scooter", "bike_id": "fa603ae7eacc548029ec588e665878ba"}, {"lon": -77.03302283333333, "lat": 38.956342166666666, "name": "4a6e5cd9fcfc7cf7e308bbed6b7c6c3d", "fusion_lat": 0.0, "fusion_lon": 0.0, "rental_uris": {"android": "https://dc.lft.to/lastmile_qr_scan", "ios": "https://dc.lft.to/lastmile_qr_scan"}, "is_reserved": 0, "is_disabled": 0, "type": "electric_scooter", "bike_id": "4a6e5cd9fcfc7cf7e308bbed6b7c6c3d"}, {"lon": -76.92374533333333, "lat": 38.88366166666667, "name": "9888980b36712f13e006a76bd543199b", "fusion_lat": 0.0, "fusion_lon": 0.0, "rental_uris": {"android": "https://dc.lft.to/lastmile_qr_scan", "ios": "https://dc.lft.to/lastmile_qr_scan"}, "is_reserved": 0, "is_disabled": 0, "type": "electric_bike", "bike_id": "9888980b36712f13e006a76bd543199b"}, {"lon": -77.0285005, "lat": 38.92568816666667, "name": "ca917c7616f64799c9fe382c590e9cf9", "fusion_lat": 0.0, "fusion_lon": 0.0, "rental_uris": {"android": "https://dc.lft.to/lastmile_qr_scan", "ios": "https://dc.lft.to/lastmile_qr_scan"}, "is_reserved": 0, "is_disabled": 0, "type": "electric_scooter", "bike_id": "ca917c7616f64799c9fe382c590e9cf9"}, {"lon": -77.0513465, "lat": 38.90202983333333, "name": "717f5eba32e9a3789417ed94c45528db", "fusion_lat": 0.0, "fusion_lon": 0.0, "rental_uris": {"android": "https://dc.lft.to/lastmile_qr_scan", "ios": "https://dc.lft.to/lastmile_qr_scan"}, "is_reserved": 0, "is_disabled": 0, "type": "electric_scooter", "bike_id": "717f5eba32e9a3789417ed94c45528db"}, {"lon": -76.93176716666666, "lat": 38.898860166666665, "name": "ec89d11d1d5cf2cb154bd19a73c49537", "fusion_lat": 0.0, "fusion_lon": 0.0, "rental_uris": {"android": "https://dc.lft.to/lastmile_qr_scan", "ios": "https://dc.lft.to/lastmile_qr_scan"}, "is_reserved": 0, "is_disabled": 0, "type": "electric_scooter", "bike_id": "ec89d11d1d5cf2cb154bd19a73c49537"}, {"lon": -76.91929516666667, "lat": 38.89069283333333, "name": "de15fa56687c1321b3ac3d2c795d8cc8", "fusion_lat": 0.0, "fusion_lon": 0.0, "rental_uris": {"android": "https://dc.lft.to/lastmile_qr_scan", "ios": "https://dc.lft.to/lastmile_qr_scan"}, "is_reserved": 0, "is_disabled": 0, "type": "electric_scooter", "bike_id": "de15fa56687c1321b3ac3d2c795d8cc8"}, {"lon": -77.02764233333333, "lat": 38.91344333333333, "name": "ce7f37dae1e1379df46a7e6b041b582f", "fusion_lat": 0.0, "fusion_lon": 0.0, "rental_uris": {"android": "https://dc.lft.to/lastmile_qr_scan", "ios": "https://dc.lft.to/lastmile_qr_scan"}, "is_reserved": 0, "is_disabled": 0, "type": "electric_scooter", "bike_id": "ce7f37dae1e1379df46a7e6b041b582f"}, {"lon": -77.03664683333334, "lat": 38.913084833333336, "name": "87c6e4159a1bcac78bab5c700e60b7be", "fusion_lat": 0.0, "fusion_lon": 0.0, "rental_uris": {"android": "https://dc.lft.to/lastmile_qr_scan", "ios": "https://dc.lft.to/lastmile_qr_scan"}, "is_reserved": 0, "is_disabled": 0, "type": "electric_scooter", "bike_id": "87c6e4159a1bcac78bab5c700e60b7be"}, {"lon": -77.039937, "lat": 38.89893283333333, "name": "6360e8e3b1e1e6918ed014353dadddec", "fusion_lat": 0.0, "fusion_lon": 0.0, "rental_uris": {"android": "https://dc.lft.to/lastmile_qr_scan", "ios": "https://dc.lft.to/lastmile_qr_scan"}, "is_reserved": 0, "is_disabled": 0, "type": "electric_scooter", "bike_id": "6360e8e3b1e1e6918ed014353dadddec"}, {"lon": -77.03949566666667, "lat": 38.908128833333336, "name": "4ca616dfdd33693acd7c7fd6b81ccf6f", "fusion_lat": 0.0, "fusion_lon": 0.0, "rental_uris": {"android": "https://dc.lft.to/lastmile_qr_scan", "ios": "https://dc.lft.to/lastmile_qr_scan"}, "is_reserved": 0, "is_disabled": 0, "type": "electric_scooter", "bike_id": "4ca616dfdd33693acd7c7fd6b81ccf6f"}, {"lon": -77.03818766666667, "lat": 38.92057766666667, "name": "30bcb36f7633ce2206c92feac77f4e5b", "fusion_lat": 0.0, "fusion_lon": 0.0, "rental_uris": {"android": "https://dc.lft.to/lastmile_qr_scan", "ios": "https://dc.lft.to/lastmile_qr_scan"}, "is_reserved": 0, "is_disabled": 0, "type": "electric_scooter", "bike_id": "30bcb36f7633ce2206c92feac77f4e5b"}, {"lon": -77.02378616666667, "lat": 38.920513, "name": "35cbea6aa1486949f478cadae4af11fd", "fusion_lat": 0.0, "fusion_lon": 0.0, "rental_uris": {"android": "https://dc.lft.to/lastmile_qr_scan", "ios": "https://dc.lft.to/lastmile_qr_scan"}, "is_reserved": 0, "is_disabled": 0, "type": "electric_scooter", "bike_id": "35cbea6aa1486949f478cadae4af11fd"}, {"lon": -76.9957705, "lat": 38.90024016666667, "name": "ad787dfb884b44b2899c1cf23c36273b", "fusion_lat": 0.0, "fusion_lon": 0.0, "rental_uris": {"android": "https://dc.lft.to/lastmile_qr_scan", "ios": "https://dc.lft.to/lastmile_qr_scan"}, "is_reserved": 0, "is_disabled": 0, "type": "electric_scooter", "bike_id": "ad787dfb884b44b2899c1cf23c36273b"}, {"lon": -77.06423516666666, "lat": 38.910495166666664, "name": "909a3a774118dfa7c8d52cddabdbd6c0", "fusion_lat": 0.0, "fusion_lon": 0.0, "rental_uris": {"android": "https://dc.lft.to/lastmile_qr_scan", "ios": "https://dc.lft.to/lastmile_qr_scan"}, "is_reserved": 0, "is_disabled": 0, "type": "electric_scooter", "bike_id": "909a3a774118dfa7c8d52cddabdbd6c0"}, {"lon": -77.04280983333334, "lat": 38.9072575, "name": "2b5b2a9b4d75ceac6d5daec01b29362f", "fusion_lat": 0.0, "fusion_lon": 0.0, "rental_uris": {"android": "https://dc.lft.to/lastmile_qr_scan", "ios": "https://dc.lft.to/lastmile_qr_scan"}, "is_reserved": 0, "is_disabled": 0, "type": "electric_scooter", "bike_id": "2b5b2a9b4d75ceac6d5daec01b29362f"}, {"lon": -77.03662366666667, "lat": 38.9227895, "name": "8246d21cfa19e0c9a11097c6c1204860", "fusion_lat": 0.0, "fusion_lon": 0.0, "rental_uris": {"android": "https://dc.lft.to/lastmile_qr_scan", "ios": "https://dc.lft.to/lastmile_qr_scan"}, "is_reserved": 0, "is_disabled": 0, "type": "electric_scooter", "bike_id": "8246d21cfa19e0c9a11097c6c1204860"}, {"lon": -77.034185, "lat": 38.92937633333333, "name": "70431f0f8a52c3abb210e5fb5c11c6de", "fusion_lat": 0.0, "fusion_lon": 0.0, "rental_uris": {"android": "https://dc.lft.to/lastmile_qr_scan", "ios": "https://dc.lft.to/lastmile_qr_scan"}, "is_reserved": 0, "is_disabled": 0, "type": "electric_scooter", "bike_id": "70431f0f8a52c3abb210e5fb5c11c6de"}, {"lon": -76.95746733333333, "lat": 38.892156166666666, "name": "9edb3164e8a89f5a2df4db3609c363cd", "fusion_lat": 0.0, "fusion_lon": 0.0, "rental_uris": {"android": "https://dc.lft.to/lastmile_qr_scan", "ios": "https://dc.lft.to/lastmile_qr_scan"}, "is_reserved": 0, "is_disabled": 0, "type": "electric_scooter", "bike_id": "9edb3164e8a89f5a2df4db3609c363cd"}, {"lon": -77.01920583333333, "lat": 38.91656783333333, "name": "776e1a8865e2ddd151eaaa84c04e1c3f", "fusion_lat": 0.0, "fusion_lon": 0.0, "rental_uris": {"android": "https://dc.lft.to/lastmile_qr_scan", "ios": "https://dc.lft.to/lastmile_qr_scan"}, "is_reserved": 0, "is_disabled": 0, "type": "electric_scooter", "bike_id": "776e1a8865e2ddd151eaaa84c04e1c3f"}, {"lon": -77.042171, "lat": 38.921083, "name": "602106da4f299f451c05655bf6019101", "fusion_lat": 0.0, "fusion_lon": 0.0, "rental_uris": {"android": "https://dc.lft.to/lastmile_qr_scan", "ios": "https://dc.lft.to/lastmile_qr_scan"}, "is_reserved": 0, "is_disabled": 0, "type": "electric_scooter", "bike_id": "602106da4f299f451c05655bf6019101"}, {"lon": -77.00059466666667, "lat": 38.873410666666665, "name": "45042e464061160338e518b4fa97eb23", "fusion_lat": 0.0, "fusion_lon": 0.0, "rental_uris": {"android": "https://dc.lft.to/lastmile_qr_scan", "ios": "https://dc.lft.to/lastmile_qr_scan"}, "is_reserved": 0, "is_disabled": 0, "type": "electric_scooter", "bike_id": "45042e464061160338e518b4fa97eb23"}, {"lon": -77.04676016666667, "lat": 38.915685833333335, "name": "c06613cd129c317dc969f86071da1d0e", "fusion_lat": 0.0, "fusion_lon": 0.0, "rental_uris": {"android": "https://dc.lft.to/lastmile_qr_scan", "ios": "https://dc.lft.to/lastmile_qr_scan"}, "is_reserved": 0, "is_disabled": 0, "type": "electric_scooter", "bike_id": "c06613cd129c317dc969f86071da1d0e"}, {"lon": -76.97731833333333, "lat": 38.8727805, "name": "d6e45bb5d7705a4b5d02adb612d0d279", "fusion_lat": 0.0, "fusion_lon": 0.0, "rental_uris": {"android": "https://dc.lft.to/lastmile_qr_scan", "ios": "https://dc.lft.to/lastmile_qr_scan"}, "is_reserved": 0, "is_disabled": 0, "type": "electric_scooter", "bike_id": "d6e45bb5d7705a4b5d02adb612d0d279"}, {"lon": -77.131788, "lat": 38.86906366666667, "name": "027bb77c3c6a0af259376daebf80d17c", "fusion_lat": 0.0, "fusion_lon": 0.0, "rental_uris": {"android": "https://dc.lft.to/lastmile_qr_scan", "ios": "https://dc.lft.to/lastmile_qr_scan"}, "is_reserved": 0, "is_disabled": 0, "type": "electric_bike", "bike_id": "027bb77c3c6a0af259376daebf80d17c"}, {"lon": -76.99643166666667, "lat": 38.93245866666667, "name": "fbc7b225ef7ae3aa00a26866737b040c", "fusion_lat": 0.0, "fusion_lon": 0.0, "rental_uris": {"android": "https://dc.lft.to/lastmile_qr_scan", "ios": "https://dc.lft.to/lastmile_qr_scan"}, "is_reserved": 0, "is_disabled": 0, "type": "electric_bike", "bike_id": "fbc7b225ef7ae3aa00a26866737b040c"}, {"lon": -77.037814, "lat": 38.996935, "name": "30a93bd4f17d194732b0d1de30f2e808", "fusion_lat": 0.0, "fusion_lon": 0.0, "rental_uris": {"android": "https://dc.lft.to/lastmile_qr_scan", "ios": "https://dc.lft.to/lastmile_qr_scan"}, "is_reserved": 0, "is_disabled": 0, "type": "electric_bike", "bike_id": "30a93bd4f17d194732b0d1de30f2e808"}, {"lon": -77.02328933333334, "lat": 38.91981716666667, "name": "7193d1c6193079c55efd57678c432dd1", "fusion_lat": 0.0, "fusion_lon": 0.0, "rental_uris": {"android": "https://dc.lft.to/lastmile_qr_scan", "ios": "https://dc.lft.to/lastmile_qr_scan"}, "is_reserved": 0, "is_disabled": 0, "type": "electric_scooter", "bike_id": "7193d1c6193079c55efd57678c432dd1"}, {"lon": -77.03825566666667, "lat": 38.92168216666666, "name": "a11d4b2160b57581cf5e2984a39c59bb", "fusion_lat": 0.0, "fusion_lon": 0.0, "rental_uris": {"android": "https://dc.lft.to/lastmile_qr_scan", "ios": "https://dc.lft.to/lastmile_qr_scan"}, "is_reserved": 0, "is_disabled": 0, "type": "electric_scooter", "bike_id": "a11d4b2160b57581cf5e2984a39c59bb"}, {"lon": -77.03994333333333, "lat": 38.90721933333333, "name": "0a778496fc0115a11814f3fbe9867095", "fusion_lat": 0.0, "fusion_lon": 0.0, "rental_uris": {"android": "https://dc.lft.to/lastmile_qr_scan", "ios": "https://dc.lft.to/lastmile_qr_scan"}, "is_reserved": 0, "is_disabled": 0, "type": "electric_scooter", "bike_id": "0a778496fc0115a11814f3fbe9867095"}, {"lon": -76.98901516666666, "lat": 38.866900666666666, "name": "70a8321052e565bb2395dcbe7de9ab51", "fusion_lat": 0.0, "fusion_lon": 0.0, "rental_uris": {"android": "https://dc.lft.to/lastmile_qr_scan", "ios": "https://dc.lft.to/lastmile_qr_scan"}, "is_reserved": 0, "is_disabled": 0, "type": "electric_scooter", "bike_id": "70a8321052e565bb2395dcbe7de9ab51"}, {"lon": -77.04304316666666, "lat": 38.922631, "name": "37e1024115c0234cbc14088d5ce21deb", "fusion_lat": 0.0, "fusion_lon": 0.0, "rental_uris": {"android": "https://dc.lft.to/lastmile_qr_scan", "ios": "https://dc.lft.to/lastmile_qr_scan"}, "is_reserved": 0, "is_disabled": 0, "type": "electric_scooter", "bike_id": "37e1024115c0234cbc14088d5ce21deb"}, {"lon": -77.038387, "lat": 38.911892333333334, "name": "4f217c6ae17bc5fd926f1566e22aab7b", "fusion_lat": 0.0, "fusion_lon": 0.0, "rental_uris": {"android": "https://dc.lft.to/lastmile_qr_scan", "ios": "https://dc.lft.to/lastmile_qr_scan"}, "is_reserved": 0, "is_disabled": 0, "type": "electric_scooter", "bike_id": "4f217c6ae17bc5fd926f1566e22aab7b"}, {"lon": -77.03069066666667, "lat": 38.88042466666667, "name": "f0e6a6976df08b1308ee705bac3889de", "fusion_lat": 0.0, "fusion_lon": 0.0, "rental_uris": {"android": "https://dc.lft.to/lastmile_qr_scan", "ios": "https://dc.lft.to/lastmile_qr_scan"}, "is_reserved": 0, "is_disabled": 0, "type": "electric_scooter", "bike_id": "f0e6a6976df08b1308ee705bac3889de"}, {"lon": -77.0269425, "lat": 38.9094495, "name": "5380b408775e5e286d3da3adc3cf3380", "fusion_lat": 0.0, "fusion_lon": 0.0, "rental_uris": {"android": "https://dc.lft.to/lastmile_qr_scan", "ios": "https://dc.lft.to/lastmile_qr_scan"}, "is_reserved": 0, "is_disabled": 0, "type": "electric_scooter", "bike_id": "5380b408775e5e286d3da3adc3cf3380"}, {"lon": -77.04021166666666, "lat": 38.92180116666667, "name": "556bc7d78886ddc9d41e2d960b3dd39f", "fusion_lat": 0.0, "fusion_lon": 0.0, "rental_uris": {"android": "https://dc.lft.to/lastmile_qr_scan", "ios": "https://dc.lft.to/lastmile_qr_scan"}, "is_reserved": 0, "is_disabled": 0, "type": "electric_scooter", "bike_id": "556bc7d78886ddc9d41e2d960b3dd39f"}, {"lon": -77.02821816666666, "lat": 38.9159615, "name": "ea1b641962e6fdae7dafe4a194add370", "fusion_lat": 0.0, "fusion_lon": 0.0, "rental_uris": {"android": "https://dc.lft.to/lastmile_qr_scan", "ios": "https://dc.lft.to/lastmile_qr_scan"}, "is_reserved": 0, "is_disabled": 0, "type": "electric_scooter", "bike_id": "ea1b641962e6fdae7dafe4a194add370"}, {"lon": -77.027189, "lat": 38.89217166666667, "name": "9d377144ab918341c20cf11bf8122a34", "fusion_lat": 0.0, "fusion_lon": 0.0, "rental_uris": {"android": "https://dc.lft.to/lastmile_qr_scan", "ios": "https://dc.lft.to/lastmile_qr_scan"}, "is_reserved": 0, "is_disabled": 0, "type": "electric_scooter", "bike_id": "9d377144ab918341c20cf11bf8122a34"}, {"lon": -77.01111283333333, "lat": 38.90358966666667, "name": "863c81e009b60cb55ffca0fdae3f172b", "fusion_lat": 0.0, "fusion_lon": 0.0, "rental_uris": {"android": "https://dc.lft.to/lastmile_qr_scan", "ios": "https://dc.lft.to/lastmile_qr_scan"}, "is_reserved": 0, "is_disabled": 0, "type": "electric_scooter", "bike_id": "863c81e009b60cb55ffca0fdae3f172b"}, {"lon": -76.96531783333333, "lat": 38.8762785, "name": "5e7d5da8856d25f13e3c25652f5499b1", "fusion_lat": 0.0, "fusion_lon": 0.0, "rental_uris": {"android": "https://dc.lft.to/lastmile_qr_scan", "ios": "https://dc.lft.to/lastmile_qr_scan"}, "is_reserved": 0, "is_disabled": 0, "type": "electric_scooter", "bike_id": "5e7d5da8856d25f13e3c25652f5499b1"}, {"lon": -77.012255, "lat": 38.900288, "name": "b092b0ad3a54edb928688bfe9a6bd449", "fusion_lat": 0.0, "fusion_lon": 0.0, "rental_uris": {"android": "https://dc.lft.to/lastmile_qr_scan", "ios": "https://dc.lft.to/lastmile_qr_scan"}, "is_reserved": 0, "is_disabled": 0, "type": "electric_scooter", "bike_id": "b092b0ad3a54edb928688bfe9a6bd449"}, {"lon": -77.040366, "lat": 38.917036333333336, "name": "1af04c7d5c076c9e9274a977a619a5fc", "fusion_lat": 0.0, "fusion_lon": 0.0, "rental_uris": {"android": "https://dc.lft.to/lastmile_qr_scan", "ios": "https://dc.lft.to/lastmile_qr_scan"}, "is_reserved": 0, "is_disabled": 0, "type": "electric_scooter", "bike_id": "1af04c7d5c076c9e9274a977a619a5fc"}, {"lon": -76.9655435, "lat": 38.950980666666666, "name": "4caa4c77021b1b37722e341f49041bb8", "fusion_lat": 0.0, "fusion_lon": 0.0, "rental_uris": {"android": "https://dc.lft.to/lastmile_qr_scan", "ios": "https://dc.lft.to/lastmile_qr_scan"}, "is_reserved": 0, "is_disabled": 0, "type": "electric_bike", "bike_id": "4caa4c77021b1b37722e341f49041bb8"}, {"lon": -77.04375783333333, "lat": 38.911245, "name": "70a85f3c7dfd8584e08cd902467cda0d", "fusion_lat": 0.0, "fusion_lon": 0.0, "rental_uris": {"android": "https://dc.lft.to/lastmile_qr_scan", "ios": "https://dc.lft.to/lastmile_qr_scan"}, "is_reserved": 0, "is_disabled": 0, "type": "electric_scooter", "bike_id": "70a85f3c7dfd8584e08cd902467cda0d"}, {"lon": -77.01389633333334, "lat": 38.928554, "name": "ab388659b84112bc68a1af6eee5308a0", "fusion_lat": 0.0, "fusion_lon": 0.0, "rental_uris": {"android": "https://dc.lft.to/lastmile_qr_scan", "ios": "https://dc.lft.to/lastmile_qr_scan"}, "is_reserved": 0, "is_disabled": 0, "type": "electric_scooter", "bike_id": "ab388659b84112bc68a1af6eee5308a0"}, {"lon": -77.02188733333334, "lat": 38.90976116666667, "name": "854d8c1309f1927e0607eb797657b033", "fusion_lat": 0.0, "fusion_lon": 0.0, "rental_uris": {"android": "https://dc.lft.to/lastmile_qr_scan", "ios": "https://dc.lft.to/lastmile_qr_scan"}, "is_reserved": 0, "is_disabled": 0, "type": "electric_scooter", "bike_id": "854d8c1309f1927e0607eb797657b033"}, {"lon": -77.07851383333333, "lat": 38.931230666666664, "name": "0fc0845806c2bd92abfbd84a9e820d84", "fusion_lat": 0.0, "fusion_lon": 0.0, "rental_uris": {"android": "https://dc.lft.to/lastmile_qr_scan", "ios": "https://dc.lft.to/lastmile_qr_scan"}, "is_reserved": 0, "is_disabled": 0, "type": "electric_scooter", "bike_id": "0fc0845806c2bd92abfbd84a9e820d84"}, {"lon": -77.00578883333333, "lat": 38.872097833333335, "name": "afc867e03a1629a761bfbee5497fd384", "fusion_lat": 0.0, "fusion_lon": 0.0, "rental_uris": {"android": "https://dc.lft.to/lastmile_qr_scan", "ios": "https://dc.lft.to/lastmile_qr_scan"}, "is_reserved": 0, "is_disabled": 0, "type": "electric_scooter", "bike_id": "afc867e03a1629a761bfbee5497fd384"}, {"lon": -77.00218533333333, "lat": 38.904741666666666, "name": "fec74da981c776c6503742e413a14598", "fusion_lat": 0.0, "fusion_lon": 0.0, "rental_uris": {"android": "https://dc.lft.to/lastmile_qr_scan", "ios": "https://dc.lft.to/lastmile_qr_scan"}, "is_reserved": 0, "is_disabled": 0, "type": "electric_scooter", "bike_id": "fec74da981c776c6503742e413a14598"}, {"lon": -77.04309516666666, "lat": 39.054413, "name": "eda754e7469e20b2ff1f71ff17b22c27", "fusion_lat": 0.0, "fusion_lon": 0.0, "rental_uris": {"android": "https://dc.lft.to/lastmile_qr_scan", "ios": "https://dc.lft.to/lastmile_qr_scan"}, "is_reserved": 0, "is_disabled": 0, "type": "electric_bike", "bike_id": "eda754e7469e20b2ff1f71ff17b22c27"}, {"lon": -76.98902433333333, "lat": 38.86688266666667, "name": "9b67b3a02477f463c14dcc4b091e48ee", "fusion_lat": 0.0, "fusion_lon": 0.0, "rental_uris": {"android": "https://dc.lft.to/lastmile_qr_scan", "ios": "https://dc.lft.to/lastmile_qr_scan"}, "is_reserved": 0, "is_disabled": 0, "type": "electric_scooter", "bike_id": "9b67b3a02477f463c14dcc4b091e48ee"}, {"lon": -77.17845, "lat": 39.08854183333333, "name": "96ec460eca2848c8b31796aa8f15f466", "fusion_lat": 0.0, "fusion_lon": 0.0, "rental_uris": {"android": "https://dc.lft.to/lastmile_qr_scan", "ios": "https://dc.lft.to/lastmile_qr_scan"}, "is_reserved": 0, "is_disabled": 0, "type": "electric_bike", "bike_id": "96ec460eca2848c8b31796aa8f15f466"}, {"lon": -76.9978505, "lat": 38.885493833333335, "name": "606c6acf92df9591a8bf641fbe352c51", "fusion_lat": 0.0, "fusion_lon": 0.0, "rental_uris": {"android": "https://dc.lft.to/lastmile_qr_scan", "ios": "https://dc.lft.to/lastmile_qr_scan"}, "is_reserved": 0, "is_disabled": 0, "type": "electric_scooter", "bike_id": "606c6acf92df9591a8bf641fbe352c51"}, {"lon": -77.01887983333333, "lat": 38.902304, "name": "da2ed60d27b45f74f7067d613c54d48b", "fusion_lat": 0.0, "fusion_lon": 0.0, "rental_uris": {"android": "https://dc.lft.to/lastmile_qr_scan", "ios": "https://dc.lft.to/lastmile_qr_scan"}, "is_reserved": 0, "is_disabled": 0, "type": "electric_scooter", "bike_id": "da2ed60d27b45f74f7067d613c54d48b"}, {"lon": -77.02158233333333, "lat": 38.8921525, "name": "fb9b989c52841dd82052d1acab3d1ea0", "fusion_lat": 0.0, "fusion_lon": 0.0, "rental_uris": {"android": "https://dc.lft.to/lastmile_qr_scan", "ios": "https://dc.lft.to/lastmile_qr_scan"}, "is_reserved": 0, "is_disabled": 0, "type": "electric_scooter", "bike_id": "fb9b989c52841dd82052d1acab3d1ea0"}, {"lon": -77.02712266666667, "lat": 38.94997733333334, "name": "c64a1f4b15bec62c695e7a9e9359c470", "fusion_lat": 0.0, "fusion_lon": 0.0, "rental_uris": {"android": "https://dc.lft.to/lastmile_qr_scan", "ios": "https://dc.lft.to/lastmile_qr_scan"}, "is_reserved": 0, "is_disabled": 0, "type": "electric_scooter", "bike_id": "c64a1f4b15bec62c695e7a9e9359c470"}, {"lon": -77.08217283333333, "lat": 38.935431333333334, "name": "70ad2bc9c38d66620040ab9efcfec1f3", "fusion_lat": 0.0, "fusion_lon": 0.0, "rental_uris": {"android": "https://dc.lft.to/lastmile_qr_scan", "ios": "https://dc.lft.to/lastmile_qr_scan"}, "is_reserved": 0, "is_disabled": 0, "type": "electric_scooter", "bike_id": "70ad2bc9c38d66620040ab9efcfec1f3"}, {"lon": -77.04401283333333, "lat": 38.92237683333333, "name": "82348ee820a702a688a150f426d6da61", "fusion_lat": 0.0, "fusion_lon": 0.0, "rental_uris": {"android": "https://dc.lft.to/lastmile_qr_scan", "ios": "https://dc.lft.to/lastmile_qr_scan"}, "is_reserved": 0, "is_disabled": 0, "type": "electric_scooter", "bike_id": "82348ee820a702a688a150f426d6da61"}, {"lon": -77.03344066666666, "lat": 38.928873333333335, "name": "f01b5cd6c7f8d9d3070c231f663f2565", "fusion_lat": 0.0, "fusion_lon": 0.0, "rental_uris": {"android": "https://dc.lft.to/lastmile_qr_scan", "ios": "https://dc.lft.to/lastmile_qr_scan"}, "is_reserved": 0, "is_disabled": 0, "type": "electric_scooter", "bike_id": "f01b5cd6c7f8d9d3070c231f663f2565"}, {"lon": -77.0390475, "lat": 38.92171533333333, "name": "0837e16b694424fa05b4797f18fb8cb0", "fusion_lat": 0.0, "fusion_lon": 0.0, "rental_uris": {"android": "https://dc.lft.to/lastmile_qr_scan", "ios": "https://dc.lft.to/lastmile_qr_scan"}, "is_reserved": 0, "is_disabled": 0, "type": "electric_scooter", "bike_id": "0837e16b694424fa05b4797f18fb8cb0"}, {"lon": -77.04174033333334, "lat": 38.91603883333333, "name": "3c5b706972f95eb8c12d0a9e89be3351", "fusion_lat": 0.0, "fusion_lon": 0.0, "rental_uris": {"android": "https://dc.lft.to/lastmile_qr_scan", "ios": "https://dc.lft.to/lastmile_qr_scan"}, "is_reserved": 0, "is_disabled": 0, "type": "electric_scooter", "bike_id": "3c5b706972f95eb8c12d0a9e89be3351"}, {"lon": -77.02837483333333, "lat": 38.88768566666667, "name": "b3c2f2a2143f47c9aaa333c2426a7025", "fusion_lat": 0.0, "fusion_lon": 0.0, "rental_uris": {"android": "https://dc.lft.to/lastmile_qr_scan", "ios": "https://dc.lft.to/lastmile_qr_scan"}, "is_reserved": 0, "is_disabled": 0, "type": "electric_scooter", "bike_id": "b3c2f2a2143f47c9aaa333c2426a7025"}, {"lon": -77.01855283333333, "lat": 38.93997983333333, "name": "e5009f59bc5417f96157802bcb318ac9", "fusion_lat": 0.0, "fusion_lon": 0.0, "rental_uris": {"android": "https://dc.lft.to/lastmile_qr_scan", "ios": "https://dc.lft.to/lastmile_qr_scan"}, "is_reserved": 0, "is_disabled": 0, "type": "electric_scooter", "bike_id": "e5009f59bc5417f96157802bcb318ac9"}, {"lon": -77.038305, "lat": 38.90774, "name": "1b8e34d3861f7b6d3eec399052e3df23", "fusion_lat": 0.0, "fusion_lon": 0.0, "rental_uris": {"android": "https://dc.lft.to/lastmile_qr_scan", "ios": "https://dc.lft.to/lastmile_qr_scan"}, "is_reserved": 0, "is_disabled": 0, "type": "electric_scooter", "bike_id": "1b8e34d3861f7b6d3eec399052e3df23"}, {"lon": -77.04244633333333, "lat": 38.909291833333334, "name": "9bdf6102f27774a3699c55d7260b883e", "fusion_lat": 0.0, "fusion_lon": 0.0, "rental_uris": {"android": "https://dc.lft.to/lastmile_qr_scan", "ios": "https://dc.lft.to/lastmile_qr_scan"}, "is_reserved": 0, "is_disabled": 0, "type": "electric_scooter", "bike_id": "9bdf6102f27774a3699c55d7260b883e"}, {"lon": -77.02412933333333, "lat": 38.911043166666666, "name": "6a7a7eff96bfce232fb02eb7a4e4596d", "fusion_lat": 0.0, "fusion_lon": 0.0, "rental_uris": {"android": "https://dc.lft.to/lastmile_qr_scan", "ios": "https://dc.lft.to/lastmile_qr_scan"}, "is_reserved": 0, "is_disabled": 0, "type": "electric_scooter", "bike_id": "6a7a7eff96bfce232fb02eb7a4e4596d"}, {"lon": -77.01698833333333, "lat": 38.92017116666667, "name": "9ef9b43740b2e4308df62f2d3d2bc7a5", "fusion_lat": 0.0, "fusion_lon": 0.0, "rental_uris": {"android": "https://dc.lft.to/lastmile_qr_scan", "ios": "https://dc.lft.to/lastmile_qr_scan"}, "is_reserved": 0, "is_disabled": 0, "type": "electric_scooter", "bike_id": "9ef9b43740b2e4308df62f2d3d2bc7a5"}, {"lon": -77.0014615, "lat": 38.90022966666667, "name": "4ab6931320512a79701f227e69177102", "fusion_lat": 0.0, "fusion_lon": 0.0, "rental_uris": {"android": "https://dc.lft.to/lastmile_qr_scan", "ios": "https://dc.lft.to/lastmile_qr_scan"}, "is_reserved": 0, "is_disabled": 0, "type": "electric_scooter", "bike_id": "4ab6931320512a79701f227e69177102"}, {"lon": -77.02698083333334, "lat": 38.912662, "name": "de20bc115af77c71ed2b19e6fe36b258", "fusion_lat": 0.0, "fusion_lon": 0.0, "rental_uris": {"android": "https://dc.lft.to/lastmile_qr_scan", "ios": "https://dc.lft.to/lastmile_qr_scan"}, "is_reserved": 0, "is_disabled": 0, "type": "electric_scooter", "bike_id": "de20bc115af77c71ed2b19e6fe36b258"}, {"lon": -77.04509983333334, "lat": 38.912804, "name": "0925fe989a3851bcb745846e0ccdf561", "fusion_lat": 0.0, "fusion_lon": 0.0, "rental_uris": {"android": "https://dc.lft.to/lastmile_qr_scan", "ios": "https://dc.lft.to/lastmile_qr_scan"}, "is_reserved": 0, "is_disabled": 0, "type": "electric_scooter", "bike_id": "0925fe989a3851bcb745846e0ccdf561"}, {"lon": -77.04072366666666, "lat": 38.91748916666667, "name": "a4350fa47366c1b10f9c08c4cb99f3f3", "fusion_lat": 0.0, "fusion_lon": 0.0, "rental_uris": {"android": "https://dc.lft.to/lastmile_qr_scan", "ios": "https://dc.lft.to/lastmile_qr_scan"}, "is_reserved": 0, "is_disabled": 0, "type": "electric_scooter", "bike_id": "a4350fa47366c1b10f9c08c4cb99f3f3"}, {"lon": -77.046154, "lat": 38.92238616666667, "name": "b26a93cbcb9497b8443529b6a946670b", "fusion_lat": 0.0, "fusion_lon": 0.0, "rental_uris": {"android": "https://dc.lft.to/lastmile_qr_scan", "ios": "https://dc.lft.to/lastmile_qr_scan"}, "is_reserved": 0, "is_disabled": 0, "type": "electric_scooter", "bike_id": "b26a93cbcb9497b8443529b6a946670b"}, {"lon": -77.017592, "lat": 38.902655333333335, "name": "13ada3d36322f68916e042eadcd20506", "fusion_lat": 0.0, "fusion_lon": 0.0, "rental_uris": {"android": "https://dc.lft.to/lastmile_qr_scan", "ios": "https://dc.lft.to/lastmile_qr_scan"}, "is_reserved": 0, "is_disabled": 0, "type": "electric_scooter", "bike_id": "13ada3d36322f68916e042eadcd20506"}, {"lon": -76.947212, "lat": 38.897317, "name": "76e8197254b4c2605a27886225352fc6", "fusion_lat": 0.0, "fusion_lon": 0.0, "rental_uris": {"android": "https://dc.lft.to/lastmile_qr_scan", "ios": "https://dc.lft.to/lastmile_qr_scan"}, "is_reserved": 0, "is_disabled": 0, "type": "electric_scooter", "bike_id": "76e8197254b4c2605a27886225352fc6"}, {"lon": -77.0477075, "lat": 38.9038515, "name": "b35fee2eb29c8eea9da0bae17ea5ca56", "fusion_lat": 0.0, "fusion_lon": 0.0, "rental_uris": {"android": "https://dc.lft.to/lastmile_qr_scan", "ios": "https://dc.lft.to/lastmile_qr_scan"}, "is_reserved": 0, "is_disabled": 0, "type": "electric_scooter", "bike_id": "b35fee2eb29c8eea9da0bae17ea5ca56"}, {"lon": -77.05860183333333, "lat": 38.9342445, "name": "6cd466744be8bd66f865ee894f145c40", "fusion_lat": 0.0, "fusion_lon": 0.0, "rental_uris": {"android": "https://dc.lft.to/lastmile_qr_scan", "ios": "https://dc.lft.to/lastmile_qr_scan"}, "is_reserved": 0, "is_disabled": 0, "type": "electric_scooter", "bike_id": "6cd466744be8bd66f865ee894f145c40"}, {"lon": -77.033121, "lat": 38.909650166666665, "name": "7c309cf49df4220f254b6180d9886069", "fusion_lat": 0.0, "fusion_lon": 0.0, "rental_uris": {"android": "https://dc.lft.to/lastmile_qr_scan", "ios": "https://dc.lft.to/lastmile_qr_scan"}, "is_reserved": 0, "is_disabled": 0, "type": "electric_scooter", "bike_id": "7c309cf49df4220f254b6180d9886069"}, {"lon": -77.01423133333333, "lat": 38.928187, "name": "028b81ac3244089d123e8108ed7e9a4e", "fusion_lat": 0.0, "fusion_lon": 0.0, "rental_uris": {"android": "https://dc.lft.to/lastmile_qr_scan", "ios": "https://dc.lft.to/lastmile_qr_scan"}, "is_reserved": 0, "is_disabled": 0, "type": "electric_scooter", "bike_id": "028b81ac3244089d123e8108ed7e9a4e"}, {"lon": -77.033371, "lat": 38.91713266666667, "name": "216cc338e257112f89e790a32df49625", "fusion_lat": 0.0, "fusion_lon": 0.0, "rental_uris": {"android": "https://dc.lft.to/lastmile_qr_scan", "ios": "https://dc.lft.to/lastmile_qr_scan"}, "is_reserved": 0, "is_disabled": 0, "type": "electric_scooter", "bike_id": "216cc338e257112f89e790a32df49625"}, {"lon": -77.02820633333333, "lat": 38.88171366666667, "name": "015189d0c4d8ba7e7e173b7bf5a871a1", "fusion_lat": 0.0, "fusion_lon": 0.0, "rental_uris": {"android": "https://dc.lft.to/lastmile_qr_scan", "ios": "https://dc.lft.to/lastmile_qr_scan"}, "is_reserved": 0, "is_disabled": 0, "type": "electric_scooter", "bike_id": "015189d0c4d8ba7e7e173b7bf5a871a1"}, {"lon": -77.02893133333333, "lat": 38.903073, "name": "747e96d823d2690da6c5970bbadb03ec", "fusion_lat": 0.0, "fusion_lon": 0.0, "rental_uris": {"android": "https://dc.lft.to/lastmile_qr_scan", "ios": "https://dc.lft.to/lastmile_qr_scan"}, "is_reserved": 0, "is_disabled": 0, "type": "electric_scooter", "bike_id": "747e96d823d2690da6c5970bbadb03ec"}, {"lon": -76.98715383333334, "lat": 38.86254683333333, "name": "b5416f3f22baa7a5ee402a297ad9dc17", "fusion_lat": 0.0, "fusion_lon": 0.0, "rental_uris": {"android": "https://dc.lft.to/lastmile_qr_scan", "ios": "https://dc.lft.to/lastmile_qr_scan"}, "is_reserved": 0, "is_disabled": 0, "type": "electric_scooter", "bike_id": "b5416f3f22baa7a5ee402a297ad9dc17"}, {"lon": -77.02767666666666, "lat": 38.894653166666664, "name": "9a3151c482d622c1c85c266d6c5d1bad", "fusion_lat": 0.0, "fusion_lon": 0.0, "rental_uris": {"android": "https://dc.lft.to/lastmile_qr_scan", "ios": "https://dc.lft.to/lastmile_qr_scan"}, "is_reserved": 0, "is_disabled": 0, "type": "electric_scooter", "bike_id": "9a3151c482d622c1c85c266d6c5d1bad"}, {"lon": -77.05625766666667, "lat": 38.90526166666667, "name": "e3b69e02b306f35fd0ef23f414fd0796", "fusion_lat": 0.0, "fusion_lon": 0.0, "rental_uris": {"android": "https://dc.lft.to/lastmile_qr_scan", "ios": "https://dc.lft.to/lastmile_qr_scan"}, "is_reserved": 0, "is_disabled": 0, "type": "electric_scooter", "bike_id": "e3b69e02b306f35fd0ef23f414fd0796"}, {"lon": -77.03410166666667, "lat": 38.92271083333333, "name": "65dcc7c60b49eb42979d91ea9bf36748", "fusion_lat": 0.0, "fusion_lon": 0.0, "rental_uris": {"android": "https://dc.lft.to/lastmile_qr_scan", "ios": "https://dc.lft.to/lastmile_qr_scan"}, "is_reserved": 0, "is_disabled": 0, "type": "electric_scooter", "bike_id": "65dcc7c60b49eb42979d91ea9bf36748"}, {"lon": -77.02613066666666, "lat": 38.962012666666666, "name": "cc07a962e949d5954781e91185f78d34", "fusion_lat": 0.0, "fusion_lon": 0.0, "rental_uris": {"android": "https://dc.lft.to/lastmile_qr_scan", "ios": "https://dc.lft.to/lastmile_qr_scan"}, "is_reserved": 0, "is_disabled": 0, "type": "electric_bike", "bike_id": "cc07a962e949d5954781e91185f78d34"}, {"lon": -77.04606683333333, "lat": 38.918001333333336, "name": "5813084a3b2252acf4fb721c49e0c294", "fusion_lat": 0.0, "fusion_lon": 0.0, "rental_uris": {"android": "https://dc.lft.to/lastmile_qr_scan", "ios": "https://dc.lft.to/lastmile_qr_scan"}, "is_reserved": 0, "is_disabled": 0, "type": "electric_scooter", "bike_id": "5813084a3b2252acf4fb721c49e0c294"}, {"lon": -77.0423245, "lat": 38.911076, "name": "80f672065e8ac94cfa836bbe2695b75d", "fusion_lat": 0.0, "fusion_lon": 0.0, "rental_uris": {"android": "https://dc.lft.to/lastmile_qr_scan", "ios": "https://dc.lft.to/lastmile_qr_scan"}, "is_reserved": 0, "is_disabled": 0, "type": "electric_scooter", "bike_id": "80f672065e8ac94cfa836bbe2695b75d"}, {"lon": -77.01334616666666, "lat": 38.966078333333336, "name": "8703928ac74ce1abe9f110a6c17e429e", "fusion_lat": 0.0, "fusion_lon": 0.0, "rental_uris": {"android": "https://dc.lft.to/lastmile_qr_scan", "ios": "https://dc.lft.to/lastmile_qr_scan"}, "is_reserved": 0, "is_disabled": 0, "type": "electric_scooter", "bike_id": "8703928ac74ce1abe9f110a6c17e429e"}, {"lon": -77.09161766666666, "lat": 38.967636666666664, "name": "913a460c854bfd36bc3c194473c8c13b", "fusion_lat": 0.0, "fusion_lon": 0.0, "rental_uris": {"android": "https://dc.lft.to/lastmile_qr_scan", "ios": "https://dc.lft.to/lastmile_qr_scan"}, "is_reserved": 0, "is_disabled": 0, "type": "electric_bike", "bike_id": "913a460c854bfd36bc3c194473c8c13b"}, {"lon": -77.02314483333333, "lat": 38.883402333333336, "name": "555b5d52c137d635072803aea51c206a", "fusion_lat": 0.0, "fusion_lon": 0.0, "rental_uris": {"android": "https://dc.lft.to/lastmile_qr_scan", "ios": "https://dc.lft.to/lastmile_qr_scan"}, "is_reserved": 0, "is_disabled": 0, "type": "electric_scooter", "bike_id": "555b5d52c137d635072803aea51c206a"}, {"lon": -77.03369816666667, "lat": 38.90962966666667, "name": "ed010b973af17f225ad3c19cec7013de", "fusion_lat": 0.0, "fusion_lon": 0.0, "rental_uris": {"android": "https://dc.lft.to/lastmile_qr_scan", "ios": "https://dc.lft.to/lastmile_qr_scan"}, "is_reserved": 0, "is_disabled": 0, "type": "electric_scooter", "bike_id": "ed010b973af17f225ad3c19cec7013de"}, {"lon": -76.9617965, "lat": 38.918539833333334, "name": "876fb4d96b57f65c4146d875d995d116", "fusion_lat": 0.0, "fusion_lon": 0.0, "rental_uris": {"android": "https://dc.lft.to/lastmile_qr_scan", "ios": "https://dc.lft.to/lastmile_qr_scan"}, "is_reserved": 0, "is_disabled": 0, "type": "electric_bike", "bike_id": "876fb4d96b57f65c4146d875d995d116"}, {"lon": -77.0440685, "lat": 38.874178, "name": "941dc5bafc44ab1163e4fd59d2f7357a", "fusion_lat": 0.0, "fusion_lon": 0.0, "rental_uris": {"android": "https://dc.lft.to/lastmile_qr_scan", "ios": "https://dc.lft.to/lastmile_qr_scan"}, "is_reserved": 0, "is_disabled": 0, "type": "electric_scooter", "bike_id": "941dc5bafc44ab1163e4fd59d2f7357a"}, {"lon": -77.03126983333334, "lat": 38.97376033333333, "name": "77d9a09ca15a95a234f55848330005bf", "fusion_lat": 0.0, "fusion_lon": 0.0, "rental_uris": {"android": "https://dc.lft.to/lastmile_qr_scan", "ios": "https://dc.lft.to/lastmile_qr_scan"}, "is_reserved": 0, "is_disabled": 0, "type": "electric_scooter", "bike_id": "77d9a09ca15a95a234f55848330005bf"}, {"lon": -77.03798066666667, "lat": 38.935985, "name": "959e9f9260f0360e48b13035dff9b139", "fusion_lat": 0.0, "fusion_lon": 0.0, "rental_uris": {"android": "https://dc.lft.to/lastmile_qr_scan", "ios": "https://dc.lft.to/lastmile_qr_scan"}, "is_reserved": 0, "is_disabled": 0, "type": "electric_scooter", "bike_id": "959e9f9260f0360e48b13035dff9b139"}, {"lon": -77.033848, "lat": 38.91031483333333, "name": "23aa6f64f8c4cf8ba880c4cf34ce6293", "fusion_lat": 0.0, "fusion_lon": 0.0, "rental_uris": {"android": "https://dc.lft.to/lastmile_qr_scan", "ios": "https://dc.lft.to/lastmile_qr_scan"}, "is_reserved": 0, "is_disabled": 0, "type": "electric_scooter", "bike_id": "23aa6f64f8c4cf8ba880c4cf34ce6293"}, {"lon": -77.056002, "lat": 38.93699866666667, "name": "2224d609838c5069fb530eb3524d28cc", "fusion_lat": 0.0, "fusion_lon": 0.0, "rental_uris": {"android": "https://dc.lft.to/lastmile_qr_scan", "ios": "https://dc.lft.to/lastmile_qr_scan"}, "is_reserved": 0, "is_disabled": 0, "type": "electric_scooter", "bike_id": "2224d609838c5069fb530eb3524d28cc"}, {"lon": -77.03196266666667, "lat": 38.892453, "name": "c5b045e3991275c49fb04b3cc09d9aae", "fusion_lat": 0.0, "fusion_lon": 0.0, "rental_uris": {"android": "https://dc.lft.to/lastmile_qr_scan", "ios": "https://dc.lft.to/lastmile_qr_scan"}, "is_reserved": 0, "is_disabled": 0, "type": "electric_scooter", "bike_id": "c5b045e3991275c49fb04b3cc09d9aae"}, {"lon": -77.04204716666666, "lat": 38.9205025, "name": "fc1d452902fbdbf5403109d84c0b935a", "fusion_lat": 0.0, "fusion_lon": 0.0, "rental_uris": {"android": "https://dc.lft.to/lastmile_qr_scan", "ios": "https://dc.lft.to/lastmile_qr_scan"}, "is_reserved": 0, "is_disabled": 0, "type": "electric_scooter", "bike_id": "fc1d452902fbdbf5403109d84c0b935a"}, {"lon": -77.0176775, "lat": 38.91262, "name": "fd6ae7e1cc617c72b16f46f0eeb28ff9", "fusion_lat": 0.0, "fusion_lon": 0.0, "rental_uris": {"android": "https://dc.lft.to/lastmile_qr_scan", "ios": "https://dc.lft.to/lastmile_qr_scan"}, "is_reserved": 0, "is_disabled": 0, "type": "electric_scooter", "bike_id": "fd6ae7e1cc617c72b16f46f0eeb28ff9"}, {"lon": -77.05266216666666, "lat": 38.91013983333333, "name": "810510aa7b5c1422cfe1c3c5cc0f74d4", "fusion_lat": 0.0, "fusion_lon": 0.0, "rental_uris": {"android": "https://dc.lft.to/lastmile_qr_scan", "ios": "https://dc.lft.to/lastmile_qr_scan"}, "is_reserved": 0, "is_disabled": 0, "type": "electric_scooter", "bike_id": "810510aa7b5c1422cfe1c3c5cc0f74d4"}, {"lon": -77.03816466666666, "lat": 38.91418616666667, "name": "789893a864aa6b68aa34acb15450f223", "fusion_lat": 0.0, "fusion_lon": 0.0, "rental_uris": {"android": "https://dc.lft.to/lastmile_qr_scan", "ios": "https://dc.lft.to/lastmile_qr_scan"}, "is_reserved": 0, "is_disabled": 0, "type": "electric_scooter", "bike_id": "789893a864aa6b68aa34acb15450f223"}, {"lon": -76.97333816666666, "lat": 38.850577666666666, "name": "82f70a2688ece694fe7a484543d6905a", "fusion_lat": 0.0, "fusion_lon": 0.0, "rental_uris": {"android": "https://dc.lft.to/lastmile_qr_scan", "ios": "https://dc.lft.to/lastmile_qr_scan"}, "is_reserved": 0, "is_disabled": 0, "type": "electric_bike", "bike_id": "82f70a2688ece694fe7a484543d6905a"}, {"lon": -77.02184983333333, "lat": 38.9112415, "name": "e347fcba4881eab60079d88de41cdc5b", "fusion_lat": 0.0, "fusion_lon": 0.0, "rental_uris": {"android": "https://dc.lft.to/lastmile_qr_scan", "ios": "https://dc.lft.to/lastmile_qr_scan"}, "is_reserved": 0, "is_disabled": 0, "type": "electric_scooter", "bike_id": "e347fcba4881eab60079d88de41cdc5b"}, {"lon": -77.03797116666667, "lat": 38.919771833333336, "name": "042588c9ff9daf84160634fb8b5f3918", "fusion_lat": 0.0, "fusion_lon": 0.0, "rental_uris": {"android": "https://dc.lft.to/lastmile_qr_scan", "ios": "https://dc.lft.to/lastmile_qr_scan"}, "is_reserved": 0, "is_disabled": 0, "type": "electric_scooter", "bike_id": "042588c9ff9daf84160634fb8b5f3918"}, {"lon": -77.04540683333333, "lat": 38.919353, "name": "ac015755d9fea83a844f970f2362ac89", "fusion_lat": 0.0, "fusion_lon": 0.0, "rental_uris": {"android": "https://dc.lft.to/lastmile_qr_scan", "ios": "https://dc.lft.to/lastmile_qr_scan"}, "is_reserved": 0, "is_disabled": 0, "type": "electric_scooter", "bike_id": "ac015755d9fea83a844f970f2362ac89"}, {"lon": -77.02613566666666, "lat": 38.8840565, "name": "13071217f8d6a4c4d2fab9848651328a", "fusion_lat": 0.0, "fusion_lon": 0.0, "rental_uris": {"android": "https://dc.lft.to/lastmile_qr_scan", "ios": "https://dc.lft.to/lastmile_qr_scan"}, "is_reserved": 0, "is_disabled": 0, "type": "electric_scooter", "bike_id": "13071217f8d6a4c4d2fab9848651328a"}, {"lon": -77.0533035, "lat": 38.90017683333333, "name": "1a3230341b8b9b2e2fcc74af1c844a1d", "fusion_lat": 0.0, "fusion_lon": 0.0, "rental_uris": {"android": "https://dc.lft.to/lastmile_qr_scan", "ios": "https://dc.lft.to/lastmile_qr_scan"}, "is_reserved": 0, "is_disabled": 0, "type": "electric_scooter", "bike_id": "1a3230341b8b9b2e2fcc74af1c844a1d"}, {"lon": -77.02393566666667, "lat": 38.916725666666665, "name": "7573ce9a739e64d2a66ab653dc749ad9", "fusion_lat": 0.0, "fusion_lon": 0.0, "rental_uris": {"android": "https://dc.lft.to/lastmile_qr_scan", "ios": "https://dc.lft.to/lastmile_qr_scan"}, "is_reserved": 0, "is_disabled": 0, "type": "electric_scooter", "bike_id": "7573ce9a739e64d2a66ab653dc749ad9"}, {"lon": -76.99979566666667, "lat": 38.83837783333333, "name": "9a039ce66ad2b6aaf8e526b4fc71ced7", "fusion_lat": 0.0, "fusion_lon": 0.0, "rental_uris": {"android": "https://dc.lft.to/lastmile_qr_scan", "ios": "https://dc.lft.to/lastmile_qr_scan"}, "is_reserved": 0, "is_disabled": 0, "type": "electric_scooter", "bike_id": "9a039ce66ad2b6aaf8e526b4fc71ced7"}, {"lon": -77.02314233333334, "lat": 38.908983, "name": "4cf77ce7da8b33fa6e9ecf74765b04ef", "fusion_lat": 0.0, "fusion_lon": 0.0, "rental_uris": {"android": "https://dc.lft.to/lastmile_qr_scan", "ios": "https://dc.lft.to/lastmile_qr_scan"}, "is_reserved": 0, "is_disabled": 0, "type": "electric_scooter", "bike_id": "4cf77ce7da8b33fa6e9ecf74765b04ef"}, {"lon": -77.03900266666666, "lat": 38.923276333333334, "name": "67c19940ee90884f6eae2d6be475ece4", "fusion_lat": 0.0, "fusion_lon": 0.0, "rental_uris": {"android": "https://dc.lft.to/lastmile_qr_scan", "ios": "https://dc.lft.to/lastmile_qr_scan"}, "is_reserved": 0, "is_disabled": 0, "type": "electric_scooter", "bike_id": "67c19940ee90884f6eae2d6be475ece4"}, {"lon": -77.0429785, "lat": 38.922539, "name": "2f37f3b25fd81f38eedfd27fac9e1588", "fusion_lat": 0.0, "fusion_lon": 0.0, "rental_uris": {"android": "https://dc.lft.to/lastmile_qr_scan", "ios": "https://dc.lft.to/lastmile_qr_scan"}, "is_reserved": 0, "is_disabled": 0, "type": "electric_scooter", "bike_id": "2f37f3b25fd81f38eedfd27fac9e1588"}, {"lon": -77.03924133333334, "lat": 38.91100433333333, "name": "74d7f2ec368c296e9bfdc444260d82e8", "fusion_lat": 0.0, "fusion_lon": 0.0, "rental_uris": {"android": "https://dc.lft.to/lastmile_qr_scan", "ios": "https://dc.lft.to/lastmile_qr_scan"}, "is_reserved": 0, "is_disabled": 0, "type": "electric_scooter", "bike_id": "74d7f2ec368c296e9bfdc444260d82e8"}, {"lon": -76.99011133333333, "lat": 38.865101333333335, "name": "6ef150b9780b53f402eb43090139d06c", "fusion_lat": 0.0, "fusion_lon": 0.0, "rental_uris": {"android": "https://dc.lft.to/lastmile_qr_scan", "ios": "https://dc.lft.to/lastmile_qr_scan"}, "is_reserved": 0, "is_disabled": 0, "type": "electric_scooter", "bike_id": "6ef150b9780b53f402eb43090139d06c"}, {"lon": -77.04866866666667, "lat": 38.901642, "name": "196f7360a3b4b3635527fd0bd7a01ab6", "fusion_lat": 0.0, "fusion_lon": 0.0, "rental_uris": {"android": "https://dc.lft.to/lastmile_qr_scan", "ios": "https://dc.lft.to/lastmile_qr_scan"}, "is_reserved": 0, "is_disabled": 0, "type": "electric_scooter", "bike_id": "196f7360a3b4b3635527fd0bd7a01ab6"}, {"lon": -76.99081516666666, "lat": 38.86053116666667, "name": "b4891167f6c98093ac9b2742052340c7", "fusion_lat": 0.0, "fusion_lon": 0.0, "rental_uris": {"android": "https://dc.lft.to/lastmile_qr_scan", "ios": "https://dc.lft.to/lastmile_qr_scan"}, "is_reserved": 0, "is_disabled": 0, "type": "electric_scooter", "bike_id": "b4891167f6c98093ac9b2742052340c7"}, {"lon": -77.03779883333333, "lat": 38.9120865, "name": "cf155a89ecffaa3c87bfa6b40eab574f", "fusion_lat": 0.0, "fusion_lon": 0.0, "rental_uris": {"android": "https://dc.lft.to/lastmile_qr_scan", "ios": "https://dc.lft.to/lastmile_qr_scan"}, "is_reserved": 0, "is_disabled": 0, "type": "electric_scooter", "bike_id": "cf155a89ecffaa3c87bfa6b40eab574f"}, {"lon": -77.04505866666666, "lat": 38.9037965, "name": "6bd91328e96794bf767b4faf1b2a4f22", "fusion_lat": 0.0, "fusion_lon": 0.0, "rental_uris": {"android": "https://dc.lft.to/lastmile_qr_scan", "ios": "https://dc.lft.to/lastmile_qr_scan"}, "is_reserved": 0, "is_disabled": 0, "type": "electric_scooter", "bike_id": "6bd91328e96794bf767b4faf1b2a4f22"}, {"lon": -77.04383966666667, "lat": 38.925675166666664, "name": "060dba5983bad135fb0941feda229d4b", "fusion_lat": 0.0, "fusion_lon": 0.0, "rental_uris": {"android": "https://dc.lft.to/lastmile_qr_scan", "ios": "https://dc.lft.to/lastmile_qr_scan"}, "is_reserved": 0, "is_disabled": 0, "type": "electric_scooter", "bike_id": "060dba5983bad135fb0941feda229d4b"}, {"lon": -76.9994925, "lat": 38.842874, "name": "ddfb2839d82ad5b2f66c189999727466", "fusion_lat": 0.0, "fusion_lon": 0.0, "rental_uris": {"android": "https://dc.lft.to/lastmile_qr_scan", "ios": "https://dc.lft.to/lastmile_qr_scan"}, "is_reserved": 0, "is_disabled": 0, "type": "electric_scooter", "bike_id": "ddfb2839d82ad5b2f66c189999727466"}, {"lon": -77.0272105, "lat": 38.91811833333333, "name": "67804f7f4ec32f7786fa9a2964671f64", "fusion_lat": 0.0, "fusion_lon": 0.0, "rental_uris": {"android": "https://dc.lft.to/lastmile_qr_scan", "ios": "https://dc.lft.to/lastmile_qr_scan"}, "is_reserved": 0, "is_disabled": 0, "type": "electric_scooter", "bike_id": "67804f7f4ec32f7786fa9a2964671f64"}, {"lon": -77.000247, "lat": 38.91976233333333, "name": "e747d52abad9f729e7b0c43a30d53f03", "fusion_lat": 0.0, "fusion_lon": 0.0, "rental_uris": {"android": "https://dc.lft.to/lastmile_qr_scan", "ios": "https://dc.lft.to/lastmile_qr_scan"}, "is_reserved": 0, "is_disabled": 0, "type": "electric_scooter", "bike_id": "e747d52abad9f729e7b0c43a30d53f03"}, {"lon": -77.019455, "lat": 38.9491885, "name": "eb230a96cda01c455e7402dec91502cf", "fusion_lat": 0.0, "fusion_lon": 0.0, "rental_uris": {"android": "https://dc.lft.to/lastmile_qr_scan", "ios": "https://dc.lft.to/lastmile_qr_scan"}, "is_reserved": 0, "is_disabled": 0, "type": "electric_scooter", "bike_id": "eb230a96cda01c455e7402dec91502cf"}, {"lon": -77.02236783333333, "lat": 38.91114983333333, "name": "3945b88b822c9302722b158ae7361d63", "fusion_lat": 0.0, "fusion_lon": 0.0, "rental_uris": {"android": "https://dc.lft.to/lastmile_qr_scan", "ios": "https://dc.lft.to/lastmile_qr_scan"}, "is_reserved": 0, "is_disabled": 0, "type": "electric_scooter", "bike_id": "3945b88b822c9302722b158ae7361d63"}, {"lon": -77.032029, "lat": 38.9163775, "name": "e544248fb915ad5a7f81317b32727b9b", "fusion_lat": 0.0, "fusion_lon": 0.0, "rental_uris": {"android": "https://dc.lft.to/lastmile_qr_scan", "ios": "https://dc.lft.to/lastmile_qr_scan"}, "is_reserved": 0, "is_disabled": 0, "type": "electric_scooter", "bike_id": "e544248fb915ad5a7f81317b32727b9b"}, {"lon": -77.03327216666666, "lat": 38.89823283333333, "name": "85cb666fb4a2930b05917234c49bb488", "fusion_lat": 0.0, "fusion_lon": 0.0, "rental_uris": {"android": "https://dc.lft.to/lastmile_qr_scan", "ios": "https://dc.lft.to/lastmile_qr_scan"}, "is_reserved": 0, "is_disabled": 0, "type": "electric_scooter", "bike_id": "85cb666fb4a2930b05917234c49bb488"}, {"lon": -77.05122383333334, "lat": 38.905431166666666, "name": "97678543aee3cd25338d70ad9e8fff24", "fusion_lat": 0.0, "fusion_lon": 0.0, "rental_uris": {"android": "https://dc.lft.to/lastmile_qr_scan", "ios": "https://dc.lft.to/lastmile_qr_scan"}, "is_reserved": 0, "is_disabled": 0, "type": "electric_scooter", "bike_id": "97678543aee3cd25338d70ad9e8fff24"}, {"lon": -77.0175895, "lat": 38.87689316666667, "name": "97757e5269193ec4d2b11cd7a6ca2ae2", "fusion_lat": 0.0, "fusion_lon": 0.0, "rental_uris": {"android": "https://dc.lft.to/lastmile_qr_scan", "ios": "https://dc.lft.to/lastmile_qr_scan"}, "is_reserved": 0, "is_disabled": 0, "type": "electric_scooter", "bike_id": "97757e5269193ec4d2b11cd7a6ca2ae2"}, {"lon": -77.04486233333333, "lat": 38.910653333333336, "name": "3f363c55e9a3650dfe13985797b3122b", "fusion_lat": 0.0, "fusion_lon": 0.0, "rental_uris": {"android": "https://dc.lft.to/lastmile_qr_scan", "ios": "https://dc.lft.to/lastmile_qr_scan"}, "is_reserved": 0, "is_disabled": 0, "type": "electric_scooter", "bike_id": "3f363c55e9a3650dfe13985797b3122b"}, {"lon": -77.024356, "lat": 38.9269705, "name": "37964b8d53f89f06f77b48fcf35489ac", "fusion_lat": 0.0, "fusion_lon": 0.0, "rental_uris": {"android": "https://dc.lft.to/lastmile_qr_scan", "ios": "https://dc.lft.to/lastmile_qr_scan"}, "is_reserved": 0, "is_disabled": 0, "type": "electric_scooter", "bike_id": "37964b8d53f89f06f77b48fcf35489ac"}, {"lon": -77.01377833333333, "lat": 38.8982685, "name": "e6a8ba8b81bf4016a74250967c853bd3", "fusion_lat": 0.0, "fusion_lon": 0.0, "rental_uris": {"android": "https://dc.lft.to/lastmile_qr_scan", "ios": "https://dc.lft.to/lastmile_qr_scan"}, "is_reserved": 0, "is_disabled": 0, "type": "electric_scooter", "bike_id": "e6a8ba8b81bf4016a74250967c853bd3"}, {"lon": -76.99842016666666, "lat": 38.888062833333336, "name": "63f0c451e7e1177c4416a4b3e513a013", "fusion_lat": 0.0, "fusion_lon": 0.0, "rental_uris": {"android": "https://dc.lft.to/lastmile_qr_scan", "ios": "https://dc.lft.to/lastmile_qr_scan"}, "is_reserved": 0, "is_disabled": 0, "type": "electric_scooter", "bike_id": "63f0c451e7e1177c4416a4b3e513a013"}, {"lon": -76.98551533333334, "lat": 38.89950116666667, "name": "dee1c91a2a92288a8a806db28542d573", "fusion_lat": 0.0, "fusion_lon": 0.0, "rental_uris": {"android": "https://dc.lft.to/lastmile_qr_scan", "ios": "https://dc.lft.to/lastmile_qr_scan"}, "is_reserved": 0, "is_disabled": 0, "type": "electric_scooter", "bike_id": "dee1c91a2a92288a8a806db28542d573"}, {"lon": -76.97929983333333, "lat": 38.866037166666665, "name": "fb143bd7d95813f96fd2f888a7799d9c", "fusion_lat": 0.0, "fusion_lon": 0.0, "rental_uris": {"android": "https://dc.lft.to/lastmile_qr_scan", "ios": "https://dc.lft.to/lastmile_qr_scan"}, "is_reserved": 0, "is_disabled": 0, "type": "electric_scooter", "bike_id": "fb143bd7d95813f96fd2f888a7799d9c"}, {"lon": -77.02412066666666, "lat": 38.90203533333333, "name": "8f94ef45b876d27fae2a40dac9653efd", "fusion_lat": 0.0, "fusion_lon": 0.0, "rental_uris": {"android": "https://dc.lft.to/lastmile_qr_scan", "ios": "https://dc.lft.to/lastmile_qr_scan"}, "is_reserved": 0, "is_disabled": 0, "type": "electric_scooter", "bike_id": "8f94ef45b876d27fae2a40dac9653efd"}, {"lon": -77.04142833333333, "lat": 38.9229865, "name": "82f114753bcd0a457a3c2b60d6cd6309", "fusion_lat": 0.0, "fusion_lon": 0.0, "rental_uris": {"android": "https://dc.lft.to/lastmile_qr_scan", "ios": "https://dc.lft.to/lastmile_qr_scan"}, "is_reserved": 0, "is_disabled": 0, "type": "electric_scooter", "bike_id": "82f114753bcd0a457a3c2b60d6cd6309"}, {"lon": -77.0272565, "lat": 38.9094765, "name": "65a2be475cbd7873d248048a09a81392", "fusion_lat": 0.0, "fusion_lon": 0.0, "rental_uris": {"android": "https://dc.lft.to/lastmile_qr_scan", "ios": "https://dc.lft.to/lastmile_qr_scan"}, "is_reserved": 0, "is_disabled": 0, "type": "electric_scooter", "bike_id": "65a2be475cbd7873d248048a09a81392"}, {"lon": -77.03977866666666, "lat": 38.89935, "name": "11abd594e7d3c0cc7aa64d9f41fd9c78", "fusion_lat": 0.0, "fusion_lon": 0.0, "rental_uris": {"android": "https://dc.lft.to/lastmile_qr_scan", "ios": "https://dc.lft.to/lastmile_qr_scan"}, "is_reserved": 0, "is_disabled": 0, "type": "electric_scooter", "bike_id": "11abd594e7d3c0cc7aa64d9f41fd9c78"}, {"lon": -77.033038, "lat": 38.9083565, "name": "2d12e398039632322ae7e32512e23b09", "fusion_lat": 0.0, "fusion_lon": 0.0, "rental_uris": {"android": "https://dc.lft.to/lastmile_qr_scan", "ios": "https://dc.lft.to/lastmile_qr_scan"}, "is_reserved": 0, "is_disabled": 0, "type": "electric_scooter", "bike_id": "2d12e398039632322ae7e32512e23b09"}, {"lon": -76.94854216666667, "lat": 38.882882, "name": "ac367d1fde95f071c9155b66b5bf0d6b", "fusion_lat": 0.0, "fusion_lon": 0.0, "rental_uris": {"android": "https://dc.lft.to/lastmile_qr_scan", "ios": "https://dc.lft.to/lastmile_qr_scan"}, "is_reserved": 0, "is_disabled": 0, "type": "electric_scooter", "bike_id": "ac367d1fde95f071c9155b66b5bf0d6b"}, {"lon": -77.059229, "lat": 38.901477166666666, "name": "aa1c30532dad4ab5e978f27f809b24f2", "fusion_lat": 0.0, "fusion_lon": 0.0, "rental_uris": {"android": "https://dc.lft.to/lastmile_qr_scan", "ios": "https://dc.lft.to/lastmile_qr_scan"}, "is_reserved": 0, "is_disabled": 0, "type": "electric_scooter", "bike_id": "aa1c30532dad4ab5e978f27f809b24f2"}, {"lon": -76.93175783333334, "lat": 38.8988415, "name": "4ba2dc23385637b8057c6f268068c6f0", "fusion_lat": 0.0, "fusion_lon": 0.0, "rental_uris": {"android": "https://dc.lft.to/lastmile_qr_scan", "ios": "https://dc.lft.to/lastmile_qr_scan"}, "is_reserved": 0, "is_disabled": 0, "type": "electric_scooter", "bike_id": "4ba2dc23385637b8057c6f268068c6f0"}, {"lon": -77.0336845, "lat": 38.8850565, "name": "39d47e30b37674f6fa1fb7da54692924", "fusion_lat": 0.0, "fusion_lon": 0.0, "rental_uris": {"android": "https://dc.lft.to/lastmile_qr_scan", "ios": "https://dc.lft.to/lastmile_qr_scan"}, "is_reserved": 0, "is_disabled": 0, "type": "electric_scooter", "bike_id": "39d47e30b37674f6fa1fb7da54692924"}, {"lon": -76.98168166666666, "lat": 38.84581983333333, "name": "eeb4d46a2ef21e0cc9be6a519b65566b", "fusion_lat": 0.0, "fusion_lon": 0.0, "rental_uris": {"android": "https://dc.lft.to/lastmile_qr_scan", "ios": "https://dc.lft.to/lastmile_qr_scan"}, "is_reserved": 0, "is_disabled": 0, "type": "electric_bike", "bike_id": "eeb4d46a2ef21e0cc9be6a519b65566b"}, {"lon": -77.0413185, "lat": 38.90618833333333, "name": "5a75dd0bc440c779748a83fe65ebfcd8", "fusion_lat": 0.0, "fusion_lon": 0.0, "rental_uris": {"android": "https://dc.lft.to/lastmile_qr_scan", "ios": "https://dc.lft.to/lastmile_qr_scan"}, "is_reserved": 0, "is_disabled": 0, "type": "electric_scooter", "bike_id": "5a75dd0bc440c779748a83fe65ebfcd8"}, {"lon": -76.9927755, "lat": 38.89691883333333, "name": "cb170e8bf5e27cb92783c0aa14e430d4", "fusion_lat": 0.0, "fusion_lon": 0.0, "rental_uris": {"android": "https://dc.lft.to/lastmile_qr_scan", "ios": "https://dc.lft.to/lastmile_qr_scan"}, "is_reserved": 0, "is_disabled": 0, "type": "electric_scooter", "bike_id": "cb170e8bf5e27cb92783c0aa14e430d4"}, {"lon": -77.10707633333334, "lat": 38.85552233333333, "name": "0d960411550215865aed92c5465fe166", "fusion_lat": 0.0, "fusion_lon": 0.0, "rental_uris": {"android": "https://dc.lft.to/lastmile_qr_scan", "ios": "https://dc.lft.to/lastmile_qr_scan"}, "is_reserved": 0, "is_disabled": 0, "type": "electric_bike", "bike_id": "0d960411550215865aed92c5465fe166"}, {"lon": -77.0402785, "lat": 38.923725166666664, "name": "4749abb982b59d4a02c6ba62ba5c5059", "fusion_lat": 0.0, "fusion_lon": 0.0, "rental_uris": {"android": "https://dc.lft.to/lastmile_qr_scan", "ios": "https://dc.lft.to/lastmile_qr_scan"}, "is_reserved": 0, "is_disabled": 0, "type": "electric_scooter", "bike_id": "4749abb982b59d4a02c6ba62ba5c5059"}, {"lon": -76.94845883333333, "lat": 38.8948075, "name": "8714df99d46bb122191896fa5fc53d6f", "fusion_lat": 0.0, "fusion_lon": 0.0, "rental_uris": {"android": "https://dc.lft.to/lastmile_qr_scan", "ios": "https://dc.lft.to/lastmile_qr_scan"}, "is_reserved": 0, "is_disabled": 0, "type": "electric_scooter", "bike_id": "8714df99d46bb122191896fa5fc53d6f"}, {"lon": -77.0415315, "lat": 38.907438166666665, "name": "a15d82e2709259d2385c7ea496a030ac", "fusion_lat": 0.0, "fusion_lon": 0.0, "rental_uris": {"android": "https://dc.lft.to/lastmile_qr_scan", "ios": "https://dc.lft.to/lastmile_qr_scan"}, "is_reserved": 0, "is_disabled": 0, "type": "electric_scooter", "bike_id": "a15d82e2709259d2385c7ea496a030ac"}, {"lon": -77.06533466666667, "lat": 38.911256, "name": "0af571ecfc298b6ed5657781ee275ba9", "fusion_lat": 0.0, "fusion_lon": 0.0, "rental_uris": {"android": "https://dc.lft.to/lastmile_qr_scan", "ios": "https://dc.lft.to/lastmile_qr_scan"}, "is_reserved": 0, "is_disabled": 0, "type": "electric_scooter", "bike_id": "0af571ecfc298b6ed5657781ee275ba9"}, {"lon": -76.99519483333333, "lat": 38.89472833333333, "name": "31c39cb34d369930069f29dc706259ec", "fusion_lat": 0.0, "fusion_lon": 0.0, "rental_uris": {"android": "https://dc.lft.to/lastmile_qr_scan", "ios": "https://dc.lft.to/lastmile_qr_scan"}, "is_reserved": 0, "is_disabled": 0, "type": "electric_scooter", "bike_id": "31c39cb34d369930069f29dc706259ec"}, {"lon": -77.03227383333333, "lat": 38.938647333333336, "name": "d86c882d71501fae2d45e08be2b81398", "fusion_lat": 0.0, "fusion_lon": 0.0, "rental_uris": {"android": "https://dc.lft.to/lastmile_qr_scan", "ios": "https://dc.lft.to/lastmile_qr_scan"}, "is_reserved": 0, "is_disabled": 0, "type": "electric_scooter", "bike_id": "d86c882d71501fae2d45e08be2b81398"}, {"lon": -77.0320895, "lat": 38.91152616666667, "name": "2bd1433f15179ca34e4b7b72493de876", "fusion_lat": 0.0, "fusion_lon": 0.0, "rental_uris": {"android": "https://dc.lft.to/lastmile_qr_scan", "ios": "https://dc.lft.to/lastmile_qr_scan"}, "is_reserved": 0, "is_disabled": 0, "type": "electric_scooter", "bike_id": "2bd1433f15179ca34e4b7b72493de876"}, {"lon": -77.034596, "lat": 38.907348999999996, "name": "bd276696087e962b492277d49394fac0", "fusion_lat": 0.0, "fusion_lon": 0.0, "rental_uris": {"android": "https://dc.lft.to/lastmile_qr_scan", "ios": "https://dc.lft.to/lastmile_qr_scan"}, "is_reserved": 0, "is_disabled": 0, "type": "electric_scooter", "bike_id": "bd276696087e962b492277d49394fac0"}, {"lon": -77.065285, "lat": 38.934738333333335, "name": "78b4fe413aeb451f6768ac6877707cb4", "fusion_lat": 0.0, "fusion_lon": 0.0, "rental_uris": {"android": "https://dc.lft.to/lastmile_qr_scan", "ios": "https://dc.lft.to/lastmile_qr_scan"}, "is_reserved": 0, "is_disabled": 0, "type": "electric_scooter", "bike_id": "78b4fe413aeb451f6768ac6877707cb4"}, {"lon": -77.03852716666667, "lat": 38.91269833333333, "name": "2bb02e7d304d68d5c79633710a389dc7", "fusion_lat": 0.0, "fusion_lon": 0.0, "rental_uris": {"android": "https://dc.lft.to/lastmile_qr_scan", "ios": "https://dc.lft.to/lastmile_qr_scan"}, "is_reserved": 0, "is_disabled": 0, "type": "electric_scooter", "bike_id": "2bb02e7d304d68d5c79633710a389dc7"}, {"lon": -76.90816566666666, "lat": 38.994456, "name": "5078be3462affb17f6929a66afa921a1", "fusion_lat": 0.0, "fusion_lon": 0.0, "rental_uris": {"android": "https://dc.lft.to/lastmile_qr_scan", "ios": "https://dc.lft.to/lastmile_qr_scan"}, "is_reserved": 0, "is_disabled": 0, "type": "electric_bike", "bike_id": "5078be3462affb17f6929a66afa921a1"}, {"lon": -77.02307316666666, "lat": 38.92706366666667, "name": "b0cd1fd00a89a2835cfbb730a20065f2", "fusion_lat": 0.0, "fusion_lon": 0.0, "rental_uris": {"android": "https://dc.lft.to/lastmile_qr_scan", "ios": "https://dc.lft.to/lastmile_qr_scan"}, "is_reserved": 0, "is_disabled": 0, "type": "electric_scooter", "bike_id": "b0cd1fd00a89a2835cfbb730a20065f2"}, {"lon": -76.98441083333333, "lat": 38.914246166666665, "name": "40f13eefdf755e4205104c3d985d0484", "fusion_lat": 0.0, "fusion_lon": 0.0, "rental_uris": {"android": "https://dc.lft.to/lastmile_qr_scan", "ios": "https://dc.lft.to/lastmile_qr_scan"}, "is_reserved": 0, "is_disabled": 0, "type": "electric_scooter", "bike_id": "40f13eefdf755e4205104c3d985d0484"}, {"lon": -77.09655916666667, "lat": 38.916245333333336, "name": "cc648b1411f6fd1deabf1c76a441aee0", "fusion_lat": 0.0, "fusion_lon": 0.0, "rental_uris": {"android": "https://dc.lft.to/lastmile_qr_scan", "ios": "https://dc.lft.to/lastmile_qr_scan"}, "is_reserved": 0, "is_disabled": 0, "type": "electric_bike", "bike_id": "cc648b1411f6fd1deabf1c76a441aee0"}, {"lon": -77.04823566666667, "lat": 38.91331066666667, "name": "c374c36059901f974cbd3810c476dd4e", "fusion_lat": 0.0, "fusion_lon": 0.0, "rental_uris": {"android": "https://dc.lft.to/lastmile_qr_scan", "ios": "https://dc.lft.to/lastmile_qr_scan"}, "is_reserved": 0, "is_disabled": 0, "type": "electric_scooter", "bike_id": "c374c36059901f974cbd3810c476dd4e"}, {"lon": -77.04870466666667, "lat": 38.89221383333334, "name": "bad51ee0e62ae7bfb8bd464bda0ee05b", "fusion_lat": 0.0, "fusion_lon": 0.0, "rental_uris": {"android": "https://dc.lft.to/lastmile_qr_scan", "ios": "https://dc.lft.to/lastmile_qr_scan"}, "is_reserved": 0, "is_disabled": 0, "type": "electric_scooter", "bike_id": "bad51ee0e62ae7bfb8bd464bda0ee05b"}, {"lon": -77.0321195, "lat": 38.929689, "name": "c78969ff9e8957992b96eb7d539f3c3e", "fusion_lat": 0.0, "fusion_lon": 0.0, "rental_uris": {"android": "https://dc.lft.to/lastmile_qr_scan", "ios": "https://dc.lft.to/lastmile_qr_scan"}, "is_reserved": 0, "is_disabled": 0, "type": "electric_scooter", "bike_id": "c78969ff9e8957992b96eb7d539f3c3e"}, {"lon": -77.02496966666666, "lat": 38.91924866666667, "name": "c71b07c517b6382716583bc051bbb9ba", "fusion_lat": 0.0, "fusion_lon": 0.0, "rental_uris": {"android": "https://dc.lft.to/lastmile_qr_scan", "ios": "https://dc.lft.to/lastmile_qr_scan"}, "is_reserved": 0, "is_disabled": 0, "type": "electric_scooter", "bike_id": "c71b07c517b6382716583bc051bbb9ba"}, {"lon": -77.0461485, "lat": 38.902686833333334, "name": "e2ac1f3b618e0384d5da9d6c3cd95b19", "fusion_lat": 0.0, "fusion_lon": 0.0, "rental_uris": {"android": "https://dc.lft.to/lastmile_qr_scan", "ios": "https://dc.lft.to/lastmile_qr_scan"}, "is_reserved": 0, "is_disabled": 0, "type": "electric_scooter", "bike_id": "e2ac1f3b618e0384d5da9d6c3cd95b19"}, {"lon": -77.04894483333334, "lat": 38.892342166666666, "name": "3ea746fcb144962db8d5c1794b0fa958", "fusion_lat": 0.0, "fusion_lon": 0.0, "rental_uris": {"android": "https://dc.lft.to/lastmile_qr_scan", "ios": "https://dc.lft.to/lastmile_qr_scan"}, "is_reserved": 0, "is_disabled": 0, "type": "electric_scooter", "bike_id": "3ea746fcb144962db8d5c1794b0fa958"}, {"lon": -76.96531183333333, "lat": 38.87627783333333, "name": "68e6a2df4b00eb82215085d3c13f47c5", "fusion_lat": 0.0, "fusion_lon": 0.0, "rental_uris": {"android": "https://dc.lft.to/lastmile_qr_scan", "ios": "https://dc.lft.to/lastmile_qr_scan"}, "is_reserved": 0, "is_disabled": 0, "type": "electric_scooter", "bike_id": "68e6a2df4b00eb82215085d3c13f47c5"}, {"lon": -77.00351416666666, "lat": 38.8965735, "name": "cc68757235bb25b2792a07759ca93669", "fusion_lat": 0.0, "fusion_lon": 0.0, "rental_uris": {"android": "https://dc.lft.to/lastmile_qr_scan", "ios": "https://dc.lft.to/lastmile_qr_scan"}, "is_reserved": 0, "is_disabled": 0, "type": "electric_scooter", "bike_id": "cc68757235bb25b2792a07759ca93669"}, {"lon": -76.99342083333333, "lat": 38.96191266666666, "name": "da585e9497145014132b4bf3b983374d", "fusion_lat": 0.0, "fusion_lon": 0.0, "rental_uris": {"android": "https://dc.lft.to/lastmile_qr_scan", "ios": "https://dc.lft.to/lastmile_qr_scan"}, "is_reserved": 0, "is_disabled": 0, "type": "electric_bike", "bike_id": "da585e9497145014132b4bf3b983374d"}, {"lon": -77.042075, "lat": 38.9231725, "name": "d92c4feb83db107ade0bb4b8fce5189c", "fusion_lat": 0.0, "fusion_lon": 0.0, "rental_uris": {"android": "https://dc.lft.to/lastmile_qr_scan", "ios": "https://dc.lft.to/lastmile_qr_scan"}, "is_reserved": 0, "is_disabled": 0, "type": "electric_scooter", "bike_id": "d92c4feb83db107ade0bb4b8fce5189c"}, {"lon": -77.0187145, "lat": 38.94894683333333, "name": "f9a519673a6647a4f74eea7823a09770", "fusion_lat": 0.0, "fusion_lon": 0.0, "rental_uris": {"android": "https://dc.lft.to/lastmile_qr_scan", "ios": "https://dc.lft.to/lastmile_qr_scan"}, "is_reserved": 0, "is_disabled": 0, "type": "electric_scooter", "bike_id": "f9a519673a6647a4f74eea7823a09770"}, {"lon": -77.029278, "lat": 38.88215366666667, "name": "e47e70800c402fa0f785991e7c98379a", "fusion_lat": 0.0, "fusion_lon": 0.0, "rental_uris": {"android": "https://dc.lft.to/lastmile_qr_scan", "ios": "https://dc.lft.to/lastmile_qr_scan"}, "is_reserved": 0, "is_disabled": 0, "type": "electric_scooter", "bike_id": "e47e70800c402fa0f785991e7c98379a"}, {"lon": -77.05567566666667, "lat": 38.89968966666667, "name": "a3758e06d86c439449c49a245e859841", "fusion_lat": 0.0, "fusion_lon": 0.0, "rental_uris": {"android": "https://dc.lft.to/lastmile_qr_scan", "ios": "https://dc.lft.to/lastmile_qr_scan"}, "is_reserved": 0, "is_disabled": 0, "type": "electric_scooter", "bike_id": "a3758e06d86c439449c49a245e859841"}, {"lon": -77.03342633333334, "lat": 38.8989845, "name": "391305f39ea28a2d3362162a932fa143", "fusion_lat": 0.0, "fusion_lon": 0.0, "rental_uris": {"android": "https://dc.lft.to/lastmile_qr_scan", "ios": "https://dc.lft.to/lastmile_qr_scan"}, "is_reserved": 0, "is_disabled": 0, "type": "electric_scooter", "bike_id": "391305f39ea28a2d3362162a932fa143"}, {"lon": -77.034454, "lat": 38.90714333333333, "name": "e3f36b4e6a15e40d331ada03084039fc", "fusion_lat": 0.0, "fusion_lon": 0.0, "rental_uris": {"android": "https://dc.lft.to/lastmile_qr_scan", "ios": "https://dc.lft.to/lastmile_qr_scan"}, "is_reserved": 0, "is_disabled": 0, "type": "electric_scooter", "bike_id": "e3f36b4e6a15e40d331ada03084039fc"}, {"lon": -77.0399335, "lat": 38.83042983333333, "name": "3ee9762bf7c19851eef8347ef5296581", "fusion_lat": 0.0, "fusion_lon": 0.0, "rental_uris": {"android": "https://dc.lft.to/lastmile_qr_scan", "ios": "https://dc.lft.to/lastmile_qr_scan"}, "is_reserved": 0, "is_disabled": 0, "type": "electric_bike", "bike_id": "3ee9762bf7c19851eef8347ef5296581"}, {"lon": -76.955327, "lat": 38.8886945, "name": "27c7526d21f7804fc4535bb99c6bc9d2", "fusion_lat": 0.0, "fusion_lon": 0.0, "rental_uris": {"android": "https://dc.lft.to/lastmile_qr_scan", "ios": "https://dc.lft.to/lastmile_qr_scan"}, "is_reserved": 0, "is_disabled": 0, "type": "electric_scooter", "bike_id": "27c7526d21f7804fc4535bb99c6bc9d2"}, {"lon": -77.03025716666667, "lat": 38.93480916666667, "name": "ded94fffe798fd7b7a0162b83f34b3e0", "fusion_lat": 0.0, "fusion_lon": 0.0, "rental_uris": {"android": "https://dc.lft.to/lastmile_qr_scan", "ios": "https://dc.lft.to/lastmile_qr_scan"}, "is_reserved": 0, "is_disabled": 0, "type": "electric_bike", "bike_id": "ded94fffe798fd7b7a0162b83f34b3e0"}, {"lon": -77.03008616666666, "lat": 38.900082166666664, "name": "653c0b15d9376336044222df40a5fd13", "fusion_lat": 0.0, "fusion_lon": 0.0, "rental_uris": {"android": "https://dc.lft.to/lastmile_qr_scan", "ios": "https://dc.lft.to/lastmile_qr_scan"}, "is_reserved": 0, "is_disabled": 0, "type": "electric_scooter", "bike_id": "653c0b15d9376336044222df40a5fd13"}, {"lon": -77.0336785, "lat": 38.88758933333333, "name": "d2827e8346e9098745dae3275eace069", "fusion_lat": 0.0, "fusion_lon": 0.0, "rental_uris": {"android": "https://dc.lft.to/lastmile_qr_scan", "ios": "https://dc.lft.to/lastmile_qr_scan"}, "is_reserved": 0, "is_disabled": 0, "type": "electric_scooter", "bike_id": "d2827e8346e9098745dae3275eace069"}, {"lon": -77.04336733333334, "lat": 38.905036833333334, "name": "040ed1201d697397e5d121fa479b58e7", "fusion_lat": 0.0, "fusion_lon": 0.0, "rental_uris": {"android": "https://dc.lft.to/lastmile_qr_scan", "ios": "https://dc.lft.to/lastmile_qr_scan"}, "is_reserved": 0, "is_disabled": 0, "type": "electric_scooter", "bike_id": "040ed1201d697397e5d121fa479b58e7"}, {"lon": -77.01999366666666, "lat": 38.91342816666667, "name": "536ab69c39c88661b8787da7602289d7", "fusion_lat": 0.0, "fusion_lon": 0.0, "rental_uris": {"android": "https://dc.lft.to/lastmile_qr_scan", "ios": "https://dc.lft.to/lastmile_qr_scan"}, "is_reserved": 0, "is_disabled": 0, "type": "electric_scooter", "bike_id": "536ab69c39c88661b8787da7602289d7"}, {"lon": -77.023809, "lat": 38.91156433333333, "name": "31630f27092dca4a9e1c5f8ac4ab91ee", "fusion_lat": 0.0, "fusion_lon": 0.0, "rental_uris": {"android": "https://dc.lft.to/lastmile_qr_scan", "ios": "https://dc.lft.to/lastmile_qr_scan"}, "is_reserved": 0, "is_disabled": 0, "type": "electric_scooter", "bike_id": "31630f27092dca4a9e1c5f8ac4ab91ee"}, {"lon": -77.03188166666666, "lat": 38.893547166666664, "name": "6762b3a7e9ce2f665765d0fc8bd7188a", "fusion_lat": 0.0, "fusion_lon": 0.0, "rental_uris": {"android": "https://dc.lft.to/lastmile_qr_scan", "ios": "https://dc.lft.to/lastmile_qr_scan"}, "is_reserved": 0, "is_disabled": 0, "type": "electric_scooter", "bike_id": "6762b3a7e9ce2f665765d0fc8bd7188a"}, {"lon": -77.002385, "lat": 38.90744766666667, "name": "3c4e3d38efb1f8e5bc35124c143c036b", "fusion_lat": 0.0, "fusion_lon": 0.0, "rental_uris": {"android": "https://dc.lft.to/lastmile_qr_scan", "ios": "https://dc.lft.to/lastmile_qr_scan"}, "is_reserved": 0, "is_disabled": 0, "type": "electric_scooter", "bike_id": "3c4e3d38efb1f8e5bc35124c143c036b"}, {"lon": -76.97252633333333, "lat": 38.957424333333336, "name": "ef5ca2d9d5fac897d60f0ba8a86de7dc", "fusion_lat": 0.0, "fusion_lon": 0.0, "rental_uris": {"android": "https://dc.lft.to/lastmile_qr_scan", "ios": "https://dc.lft.to/lastmile_qr_scan"}, "is_reserved": 0, "is_disabled": 0, "type": "electric_bike", "bike_id": "ef5ca2d9d5fac897d60f0ba8a86de7dc"}, {"lon": -77.076103, "lat": 38.912097, "name": "61d7e8d972bdfa47720f3f51c09e031b", "fusion_lat": 0.0, "fusion_lon": 0.0, "rental_uris": {"android": "https://dc.lft.to/lastmile_qr_scan", "ios": "https://dc.lft.to/lastmile_qr_scan"}, "is_reserved": 0, "is_disabled": 0, "type": "electric_scooter", "bike_id": "61d7e8d972bdfa47720f3f51c09e031b"}, {"lon": -76.956571, "lat": 38.896114833333336, "name": "53d653a8eeb534a855e5eee97f9335c9", "fusion_lat": 0.0, "fusion_lon": 0.0, "rental_uris": {"android": "https://dc.lft.to/lastmile_qr_scan", "ios": "https://dc.lft.to/lastmile_qr_scan"}, "is_reserved": 0, "is_disabled": 0, "type": "electric_scooter", "bike_id": "53d653a8eeb534a855e5eee97f9335c9"}, {"lon": -77.1874125, "lat": 38.893477833333336, "name": "b4fdd39aa7c8df522d5f169650d7780f", "fusion_lat": 0.0, "fusion_lon": 0.0, "rental_uris": {"android": "https://dc.lft.to/lastmile_qr_scan", "ios": "https://dc.lft.to/lastmile_qr_scan"}, "is_reserved": 0, "is_disabled": 0, "type": "electric_bike", "bike_id": "b4fdd39aa7c8df522d5f169650d7780f"}, {"lon": -77.03312283333334, "lat": 38.92556483333333, "name": "3403dd1444a9e01a56a39185c246ae41", "fusion_lat": 0.0, "fusion_lon": 0.0, "rental_uris": {"android": "https://dc.lft.to/lastmile_qr_scan", "ios": "https://dc.lft.to/lastmile_qr_scan"}, "is_reserved": 0, "is_disabled": 0, "type": "electric_scooter", "bike_id": "3403dd1444a9e01a56a39185c246ae41"}, {"lon": -76.94653283333334, "lat": 38.89822933333333, "name": "71882ce03fb7d74c015cfcc36cb97655", "fusion_lat": 0.0, "fusion_lon": 0.0, "rental_uris": {"android": "https://dc.lft.to/lastmile_qr_scan", "ios": "https://dc.lft.to/lastmile_qr_scan"}, "is_reserved": 0, "is_disabled": 0, "type": "electric_scooter", "bike_id": "71882ce03fb7d74c015cfcc36cb97655"}, {"lon": -77.03806833333333, "lat": 38.929956, "name": "80092f3d74135db18a403b2b0bfc44a0", "fusion_lat": 0.0, "fusion_lon": 0.0, "rental_uris": {"android": "https://dc.lft.to/lastmile_qr_scan", "ios": "https://dc.lft.to/lastmile_qr_scan"}, "is_reserved": 0, "is_disabled": 0, "type": "electric_scooter", "bike_id": "80092f3d74135db18a403b2b0bfc44a0"}, {"lon": -77.03825583333334, "lat": 38.9110875, "name": "ec5945cf0d45dca705f7dc62fbc96531", "fusion_lat": 0.0, "fusion_lon": 0.0, "rental_uris": {"android": "https://dc.lft.to/lastmile_qr_scan", "ios": "https://dc.lft.to/lastmile_qr_scan"}, "is_reserved": 0, "is_disabled": 0, "type": "electric_scooter", "bike_id": "ec5945cf0d45dca705f7dc62fbc96531"}, {"lon": -77.00726166666666, "lat": 38.88492766666667, "name": "8940d3da05443feb97cfcbf5c05cc880", "fusion_lat": 0.0, "fusion_lon": 0.0, "rental_uris": {"android": "https://dc.lft.to/lastmile_qr_scan", "ios": "https://dc.lft.to/lastmile_qr_scan"}, "is_reserved": 0, "is_disabled": 0, "type": "electric_scooter", "bike_id": "8940d3da05443feb97cfcbf5c05cc880"}, {"lon": -76.988597, "lat": 38.9002885, "name": "6f9f7bde2e7aef5289309b2dc5ffe385", "fusion_lat": 0.0, "fusion_lon": 0.0, "rental_uris": {"android": "https://dc.lft.to/lastmile_qr_scan", "ios": "https://dc.lft.to/lastmile_qr_scan"}, "is_reserved": 0, "is_disabled": 0, "type": "electric_scooter", "bike_id": "6f9f7bde2e7aef5289309b2dc5ffe385"}, {"lon": -77.02125583333333, "lat": 38.90298333333333, "name": "52b65f422dcd75f95376ea670ebf997a", "fusion_lat": 0.0, "fusion_lon": 0.0, "rental_uris": {"android": "https://dc.lft.to/lastmile_qr_scan", "ios": "https://dc.lft.to/lastmile_qr_scan"}, "is_reserved": 0, "is_disabled": 0, "type": "electric_scooter", "bike_id": "52b65f422dcd75f95376ea670ebf997a"}, {"lon": -77.00757166666666, "lat": 38.87116183333333, "name": "6cabb8df0c037ebd12d884d1ea9389d1", "fusion_lat": 0.0, "fusion_lon": 0.0, "rental_uris": {"android": "https://dc.lft.to/lastmile_qr_scan", "ios": "https://dc.lft.to/lastmile_qr_scan"}, "is_reserved": 0, "is_disabled": 0, "type": "electric_scooter", "bike_id": "6cabb8df0c037ebd12d884d1ea9389d1"}, {"lon": -77.353155, "lat": 38.949969333333335, "name": "292814a058bf795aeab2b1e72ec57822", "fusion_lat": 0.0, "fusion_lon": 0.0, "rental_uris": {"android": "https://dc.lft.to/lastmile_qr_scan", "ios": "https://dc.lft.to/lastmile_qr_scan"}, "is_reserved": 0, "is_disabled": 0, "type": "electric_bike", "bike_id": "292814a058bf795aeab2b1e72ec57822"}, {"lon": -77.00928183333333, "lat": 38.89605533333334, "name": "05771f636638d383153262208a67e8eb", "fusion_lat": 0.0, "fusion_lon": 0.0, "rental_uris": {"android": "https://dc.lft.to/lastmile_qr_scan", "ios": "https://dc.lft.to/lastmile_qr_scan"}, "is_reserved": 0, "is_disabled": 0, "type": "electric_scooter", "bike_id": "05771f636638d383153262208a67e8eb"}, {"lon": -77.03838766666667, "lat": 38.931355833333335, "name": "b1f9e5d056f6601b79f47c96cc20b024", "fusion_lat": 0.0, "fusion_lon": 0.0, "rental_uris": {"android": "https://dc.lft.to/lastmile_qr_scan", "ios": "https://dc.lft.to/lastmile_qr_scan"}, "is_reserved": 0, "is_disabled": 0, "type": "electric_scooter", "bike_id": "b1f9e5d056f6601b79f47c96cc20b024"}, {"lon": -76.9318055, "lat": 38.89879283333333, "name": "b23b5e5a483c6bb2c2293be6f41aaf7a", "fusion_lat": 0.0, "fusion_lon": 0.0, "rental_uris": {"android": "https://dc.lft.to/lastmile_qr_scan", "ios": "https://dc.lft.to/lastmile_qr_scan"}, "is_reserved": 0, "is_disabled": 0, "type": "electric_scooter", "bike_id": "b23b5e5a483c6bb2c2293be6f41aaf7a"}, {"lon": -77.028489, "lat": 38.942599666666666, "name": "988c8ff605bb977bc6ad541a45ce13df", "fusion_lat": 0.0, "fusion_lon": 0.0, "rental_uris": {"android": "https://dc.lft.to/lastmile_qr_scan", "ios": "https://dc.lft.to/lastmile_qr_scan"}, "is_reserved": 0, "is_disabled": 0, "type": "electric_scooter", "bike_id": "988c8ff605bb977bc6ad541a45ce13df"}, {"lon": -77.02722316666667, "lat": 38.909467, "name": "ab4e0db8b47f7d486282ae612b1f6729", "fusion_lat": 0.0, "fusion_lon": 0.0, "rental_uris": {"android": "https://dc.lft.to/lastmile_qr_scan", "ios": "https://dc.lft.to/lastmile_qr_scan"}, "is_reserved": 0, "is_disabled": 0, "type": "electric_scooter", "bike_id": "ab4e0db8b47f7d486282ae612b1f6729"}, {"lon": -77.01743583333334, "lat": 38.877060666666665, "name": "ee857d4f7fce3dddd23b59390f7257a7", "fusion_lat": 0.0, "fusion_lon": 0.0, "rental_uris": {"android": "https://dc.lft.to/lastmile_qr_scan", "ios": "https://dc.lft.to/lastmile_qr_scan"}, "is_reserved": 0, "is_disabled": 0, "type": "electric_scooter", "bike_id": "ee857d4f7fce3dddd23b59390f7257a7"}, {"lon": -76.93180866666667, "lat": 38.898829166666665, "name": "bf60eddf4782ce04c1640122c3f2b593", "fusion_lat": 0.0, "fusion_lon": 0.0, "rental_uris": {"android": "https://dc.lft.to/lastmile_qr_scan", "ios": "https://dc.lft.to/lastmile_qr_scan"}, "is_reserved": 0, "is_disabled": 0, "type": "electric_scooter", "bike_id": "bf60eddf4782ce04c1640122c3f2b593"}, {"lon": -77.0190165, "lat": 38.9099045, "name": "359ea444f2779e2832663756f4211868", "fusion_lat": 0.0, "fusion_lon": 0.0, "rental_uris": {"android": "https://dc.lft.to/lastmile_qr_scan", "ios": "https://dc.lft.to/lastmile_qr_scan"}, "is_reserved": 0, "is_disabled": 0, "type": "electric_scooter", "bike_id": "359ea444f2779e2832663756f4211868"}, {"lon": -77.01659, "lat": 38.88125383333333, "name": "840095231d666748908b17fefaeb3a23", "fusion_lat": 0.0, "fusion_lon": 0.0, "rental_uris": {"android": "https://dc.lft.to/lastmile_qr_scan", "ios": "https://dc.lft.to/lastmile_qr_scan"}, "is_reserved": 0, "is_disabled": 0, "type": "electric_scooter", "bike_id": "840095231d666748908b17fefaeb3a23"}, {"lon": -77.03848783333333, "lat": 38.9181755, "name": "a1d6f1cede4788697be4fe7b98c7fb28", "fusion_lat": 0.0, "fusion_lon": 0.0, "rental_uris": {"android": "https://dc.lft.to/lastmile_qr_scan", "ios": "https://dc.lft.to/lastmile_qr_scan"}, "is_reserved": 0, "is_disabled": 0, "type": "electric_scooter", "bike_id": "a1d6f1cede4788697be4fe7b98c7fb28"}, {"lon": -77.00037016666667, "lat": 38.87636033333333, "name": "0ee4755ffbfd99c1826cf61c5ef2e511", "fusion_lat": 0.0, "fusion_lon": 0.0, "rental_uris": {"android": "https://dc.lft.to/lastmile_qr_scan", "ios": "https://dc.lft.to/lastmile_qr_scan"}, "is_reserved": 0, "is_disabled": 0, "type": "electric_scooter", "bike_id": "0ee4755ffbfd99c1826cf61c5ef2e511"}, {"lon": -77.03379366666667, "lat": 38.921380666666664, "name": "3844be64b5cd6adf84c55ac8b73debcc", "fusion_lat": 0.0, "fusion_lon": 0.0, "rental_uris": {"android": "https://dc.lft.to/lastmile_qr_scan", "ios": "https://dc.lft.to/lastmile_qr_scan"}, "is_reserved": 0, "is_disabled": 0, "type": "electric_scooter", "bike_id": "3844be64b5cd6adf84c55ac8b73debcc"}, {"lon": -77.045396, "lat": 38.913072666666665, "name": "8155f3ee393d4de1ad695140248f2328", "fusion_lat": 0.0, "fusion_lon": 0.0, "rental_uris": {"android": "https://dc.lft.to/lastmile_qr_scan", "ios": "https://dc.lft.to/lastmile_qr_scan"}, "is_reserved": 0, "is_disabled": 0, "type": "electric_scooter", "bike_id": "8155f3ee393d4de1ad695140248f2328"}, {"lon": -77.00509583333333, "lat": 38.875328833333334, "name": "5335fbedb4a5e389ff784caac4a9ac2f", "fusion_lat": 0.0, "fusion_lon": 0.0, "rental_uris": {"android": "https://dc.lft.to/lastmile_qr_scan", "ios": "https://dc.lft.to/lastmile_qr_scan"}, "is_reserved": 0, "is_disabled": 0, "type": "electric_scooter", "bike_id": "5335fbedb4a5e389ff784caac4a9ac2f"}, {"lon": -77.03819066666667, "lat": 38.9255465, "name": "d3b6e2b481c1cc707e346e630b41cd09", "fusion_lat": 0.0, "fusion_lon": 0.0, "rental_uris": {"android": "https://dc.lft.to/lastmile_qr_scan", "ios": "https://dc.lft.to/lastmile_qr_scan"}, "is_reserved": 0, "is_disabled": 0, "type": "electric_scooter", "bike_id": "d3b6e2b481c1cc707e346e630b41cd09"}, {"lon": -77.02810983333333, "lat": 38.89520383333333, "name": "a6c73bdac2cc2f961aecefee0a6b7eaa", "fusion_lat": 0.0, "fusion_lon": 0.0, "rental_uris": {"android": "https://dc.lft.to/lastmile_qr_scan", "ios": "https://dc.lft.to/lastmile_qr_scan"}, "is_reserved": 0, "is_disabled": 0, "type": "electric_scooter", "bike_id": "a6c73bdac2cc2f961aecefee0a6b7eaa"}, {"lon": -77.02064133333333, "lat": 38.92013266666667, "name": "96bc379920a5de158b5802ff2a6989c4", "fusion_lat": 0.0, "fusion_lon": 0.0, "rental_uris": {"android": "https://dc.lft.to/lastmile_qr_scan", "ios": "https://dc.lft.to/lastmile_qr_scan"}, "is_reserved": 0, "is_disabled": 0, "type": "electric_scooter", "bike_id": "96bc379920a5de158b5802ff2a6989c4"}, {"lon": -77.024994, "lat": 38.942851166666664, "name": "268ab3035af289d315454604f45af0ac", "fusion_lat": 0.0, "fusion_lon": 0.0, "rental_uris": {"android": "https://dc.lft.to/lastmile_qr_scan", "ios": "https://dc.lft.to/lastmile_qr_scan"}, "is_reserved": 0, "is_disabled": 0, "type": "electric_scooter", "bike_id": "268ab3035af289d315454604f45af0ac"}, {"lon": -77.01520316666667, "lat": 38.91340566666667, "name": "e5eb482dfd47d47a35d4782f6fd5c723", "fusion_lat": 0.0, "fusion_lon": 0.0, "rental_uris": {"android": "https://dc.lft.to/lastmile_qr_scan", "ios": "https://dc.lft.to/lastmile_qr_scan"}, "is_reserved": 0, "is_disabled": 0, "type": "electric_scooter", "bike_id": "e5eb482dfd47d47a35d4782f6fd5c723"}, {"lon": -76.99886783333334, "lat": 38.9074895, "name": "174d7e52cc96fff8c9c24cefa7ee0928", "fusion_lat": 0.0, "fusion_lon": 0.0, "rental_uris": {"android": "https://dc.lft.to/lastmile_qr_scan", "ios": "https://dc.lft.to/lastmile_qr_scan"}, "is_reserved": 0, "is_disabled": 0, "type": "electric_scooter", "bike_id": "174d7e52cc96fff8c9c24cefa7ee0928"}, {"lon": -77.02663233333334, "lat": 38.938526, "name": "88ac02f32ef3dcfba2ab2f53bc523dfb", "fusion_lat": 0.0, "fusion_lon": 0.0, "rental_uris": {"android": "https://dc.lft.to/lastmile_qr_scan", "ios": "https://dc.lft.to/lastmile_qr_scan"}, "is_reserved": 0, "is_disabled": 0, "type": "electric_bike", "bike_id": "88ac02f32ef3dcfba2ab2f53bc523dfb"}, {"lon": -77.00059516666667, "lat": 38.906969, "name": "cd982922a35b793012802d2032851e79", "fusion_lat": 0.0, "fusion_lon": 0.0, "rental_uris": {"android": "https://dc.lft.to/lastmile_qr_scan", "ios": "https://dc.lft.to/lastmile_qr_scan"}, "is_reserved": 0, "is_disabled": 0, "type": "electric_scooter", "bike_id": "cd982922a35b793012802d2032851e79"}, {"lon": -77.03164533333333, "lat": 38.914132333333335, "name": "210853b34681f36e5437c3bc9b1450be", "fusion_lat": 0.0, "fusion_lon": 0.0, "rental_uris": {"android": "https://dc.lft.to/lastmile_qr_scan", "ios": "https://dc.lft.to/lastmile_qr_scan"}, "is_reserved": 0, "is_disabled": 0, "type": "electric_scooter", "bike_id": "210853b34681f36e5437c3bc9b1450be"}, {"lon": -77.0283435, "lat": 38.89252833333333, "name": "40d1786c061aee29ef6dbd6a0a39d272", "fusion_lat": 0.0, "fusion_lon": 0.0, "rental_uris": {"android": "https://dc.lft.to/lastmile_qr_scan", "ios": "https://dc.lft.to/lastmile_qr_scan"}, "is_reserved": 0, "is_disabled": 0, "type": "electric_scooter", "bike_id": "40d1786c061aee29ef6dbd6a0a39d272"}, {"lon": -77.00209116666667, "lat": 38.905125166666664, "name": "24e07f007c163f7a71ebfe2bacea0c18", "fusion_lat": 0.0, "fusion_lon": 0.0, "rental_uris": {"android": "https://dc.lft.to/lastmile_qr_scan", "ios": "https://dc.lft.to/lastmile_qr_scan"}, "is_reserved": 0, "is_disabled": 0, "type": "electric_scooter", "bike_id": "24e07f007c163f7a71ebfe2bacea0c18"}, {"lon": -76.99171683333333, "lat": 38.879145, "name": "c5d1f9280bc9fc96fd9c7879f913e542", "fusion_lat": 0.0, "fusion_lon": 0.0, "rental_uris": {"android": "https://dc.lft.to/lastmile_qr_scan", "ios": "https://dc.lft.to/lastmile_qr_scan"}, "is_reserved": 0, "is_disabled": 0, "type": "electric_scooter", "bike_id": "c5d1f9280bc9fc96fd9c7879f913e542"}, {"lon": -77.06475216666666, "lat": 38.97376766666667, "name": "697915651d132b554e4f4e62b0e010a9", "fusion_lat": 0.0, "fusion_lon": 0.0, "rental_uris": {"android": "https://dc.lft.to/lastmile_qr_scan", "ios": "https://dc.lft.to/lastmile_qr_scan"}, "is_reserved": 0, "is_disabled": 0, "type": "electric_bike", "bike_id": "697915651d132b554e4f4e62b0e010a9"}, {"lon": -76.999554, "lat": 38.90861233333333, "name": "e330c0d7689887801e81f7a37c407aaf", "fusion_lat": 0.0, "fusion_lon": 0.0, "rental_uris": {"android": "https://dc.lft.to/lastmile_qr_scan", "ios": "https://dc.lft.to/lastmile_qr_scan"}, "is_reserved": 0, "is_disabled": 0, "type": "electric_scooter", "bike_id": "e330c0d7689887801e81f7a37c407aaf"}, {"lon": -76.9977525, "lat": 38.92284316666667, "name": "4a4e734b6802b2c5bad017b222c5efb4", "fusion_lat": 0.0, "fusion_lon": 0.0, "rental_uris": {"android": "https://dc.lft.to/lastmile_qr_scan", "ios": "https://dc.lft.to/lastmile_qr_scan"}, "is_reserved": 0, "is_disabled": 0, "type": "electric_scooter", "bike_id": "4a4e734b6802b2c5bad017b222c5efb4"}, {"lon": -77.0364165, "lat": 38.9161405, "name": "650e6b65b937a96afe496533b6e7f224", "fusion_lat": 0.0, "fusion_lon": 0.0, "rental_uris": {"android": "https://dc.lft.to/lastmile_qr_scan", "ios": "https://dc.lft.to/lastmile_qr_scan"}, "is_reserved": 0, "is_disabled": 0, "type": "electric_scooter", "bike_id": "650e6b65b937a96afe496533b6e7f224"}, {"lon": -77.03178983333333, "lat": 38.918014666666664, "name": "0072449327f75aade65f165968583c5e", "fusion_lat": 0.0, "fusion_lon": 0.0, "rental_uris": {"android": "https://dc.lft.to/lastmile_qr_scan", "ios": "https://dc.lft.to/lastmile_qr_scan"}, "is_reserved": 0, "is_disabled": 0, "type": "electric_scooter", "bike_id": "0072449327f75aade65f165968583c5e"}, {"lon": -77.05323883333334, "lat": 38.90502633333333, "name": "3671260785d63c5520675b247a702050", "fusion_lat": 0.0, "fusion_lon": 0.0, "rental_uris": {"android": "https://dc.lft.to/lastmile_qr_scan", "ios": "https://dc.lft.to/lastmile_qr_scan"}, "is_reserved": 0, "is_disabled": 0, "type": "electric_scooter", "bike_id": "3671260785d63c5520675b247a702050"}, {"lon": -77.01529683333334, "lat": 38.88522583333334, "name": "a662629001cde0b115ccd38a9711bf7d", "fusion_lat": 0.0, "fusion_lon": 0.0, "rental_uris": {"android": "https://dc.lft.to/lastmile_qr_scan", "ios": "https://dc.lft.to/lastmile_qr_scan"}, "is_reserved": 0, "is_disabled": 0, "type": "electric_bike", "bike_id": "a662629001cde0b115ccd38a9711bf7d"}, {"lon": -77.04477066666666, "lat": 38.908838, "name": "0c1b8ad757f41d2777201c8aff386533", "fusion_lat": 0.0, "fusion_lon": 0.0, "rental_uris": {"android": "https://dc.lft.to/lastmile_qr_scan", "ios": "https://dc.lft.to/lastmile_qr_scan"}, "is_reserved": 0, "is_disabled": 0, "type": "electric_scooter", "bike_id": "0c1b8ad757f41d2777201c8aff386533"}, {"lon": -77.03460433333333, "lat": 38.9206375, "name": "e1970ac0ec20ba81bdfd9231791370bd", "fusion_lat": 0.0, "fusion_lon": 0.0, "rental_uris": {"android": "https://dc.lft.to/lastmile_qr_scan", "ios": "https://dc.lft.to/lastmile_qr_scan"}, "is_reserved": 0, "is_disabled": 0, "type": "electric_scooter", "bike_id": "e1970ac0ec20ba81bdfd9231791370bd"}, {"lon": -77.03222683333334, "lat": 38.892262833333334, "name": "218963e8e25cff1137b2791aae4b4326", "fusion_lat": 0.0, "fusion_lon": 0.0, "rental_uris": {"android": "https://dc.lft.to/lastmile_qr_scan", "ios": "https://dc.lft.to/lastmile_qr_scan"}, "is_reserved": 0, "is_disabled": 0, "type": "electric_scooter", "bike_id": "218963e8e25cff1137b2791aae4b4326"}, {"lon": -76.9676645, "lat": 38.8614045, "name": "4e9e8e4be8c4f25359fd56b510615bf1", "fusion_lat": 0.0, "fusion_lon": 0.0, "rental_uris": {"android": "https://dc.lft.to/lastmile_qr_scan", "ios": "https://dc.lft.to/lastmile_qr_scan"}, "is_reserved": 0, "is_disabled": 0, "type": "electric_scooter", "bike_id": "4e9e8e4be8c4f25359fd56b510615bf1"}, {"lon": -76.97092766666667, "lat": 38.8787, "name": "70cb82b411267d9214a5c9c2550d0a0e", "fusion_lat": 0.0, "fusion_lon": 0.0, "rental_uris": {"android": "https://dc.lft.to/lastmile_qr_scan", "ios": "https://dc.lft.to/lastmile_qr_scan"}, "is_reserved": 0, "is_disabled": 0, "type": "electric_scooter", "bike_id": "70cb82b411267d9214a5c9c2550d0a0e"}, {"lon": -76.9836895, "lat": 38.8647875, "name": "bf89339711ecb1d32d83f6ba3941eca1", "fusion_lat": 0.0, "fusion_lon": 0.0, "rental_uris": {"android": "https://dc.lft.to/lastmile_qr_scan", "ios": "https://dc.lft.to/lastmile_qr_scan"}, "is_reserved": 0, "is_disabled": 0, "type": "electric_scooter", "bike_id": "bf89339711ecb1d32d83f6ba3941eca1"}, {"lon": -77.11440816666666, "lat": 38.8523925, "name": "e178156e7c3d0de508ae18646f346998", "fusion_lat": 0.0, "fusion_lon": 0.0, "rental_uris": {"android": "https://dc.lft.to/lastmile_qr_scan", "ios": "https://dc.lft.to/lastmile_qr_scan"}, "is_reserved": 0, "is_disabled": 0, "type": "electric_bike", "bike_id": "e178156e7c3d0de508ae18646f346998"}, {"lon": -77.03379383333333, "lat": 38.90392766666667, "name": "bfb06b8c96c62e430b4555be456617d6", "fusion_lat": 0.0, "fusion_lon": 0.0, "rental_uris": {"android": "https://dc.lft.to/lastmile_qr_scan", "ios": "https://dc.lft.to/lastmile_qr_scan"}, "is_reserved": 0, "is_disabled": 0, "type": "electric_scooter", "bike_id": "bfb06b8c96c62e430b4555be456617d6"}, {"lon": -77.02215816666667, "lat": 38.8876425, "name": "a3ad415c3991c033c89fd464977772ec", "fusion_lat": 0.0, "fusion_lon": 0.0, "rental_uris": {"android": "https://dc.lft.to/lastmile_qr_scan", "ios": "https://dc.lft.to/lastmile_qr_scan"}, "is_reserved": 0, "is_disabled": 0, "type": "electric_scooter", "bike_id": "a3ad415c3991c033c89fd464977772ec"}, {"lon": -77.024919, "lat": 38.938536666666664, "name": "d29b146e741daf2f3220345fc3da44b1", "fusion_lat": 0.0, "fusion_lon": 0.0, "rental_uris": {"android": "https://dc.lft.to/lastmile_qr_scan", "ios": "https://dc.lft.to/lastmile_qr_scan"}, "is_reserved": 0, "is_disabled": 0, "type": "electric_scooter", "bike_id": "d29b146e741daf2f3220345fc3da44b1"}, {"lon": -77.03227016666666, "lat": 38.89216833333333, "name": "ba4e7c772dcd0b3c916ff6a620d2d29b", "fusion_lat": 0.0, "fusion_lon": 0.0, "rental_uris": {"android": "https://dc.lft.to/lastmile_qr_scan", "ios": "https://dc.lft.to/lastmile_qr_scan"}, "is_reserved": 0, "is_disabled": 0, "type": "electric_scooter", "bike_id": "ba4e7c772dcd0b3c916ff6a620d2d29b"}, {"lon": -77.0772805, "lat": 38.9469985, "name": "708fb1535311588d006bffbf5da4adfb", "fusion_lat": 0.0, "fusion_lon": 0.0, "rental_uris": {"android": "https://dc.lft.to/lastmile_qr_scan", "ios": "https://dc.lft.to/lastmile_qr_scan"}, "is_reserved": 0, "is_disabled": 0, "type": "electric_scooter", "bike_id": "708fb1535311588d006bffbf5da4adfb"}, {"lon": -77.03373966666666, "lat": 38.93215633333333, "name": "cd9182091e4a9005d5f8860b2ea57739", "fusion_lat": 0.0, "fusion_lon": 0.0, "rental_uris": {"android": "https://dc.lft.to/lastmile_qr_scan", "ios": "https://dc.lft.to/lastmile_qr_scan"}, "is_reserved": 0, "is_disabled": 0, "type": "electric_scooter", "bike_id": "cd9182091e4a9005d5f8860b2ea57739"}, {"lon": -77.03762416666666, "lat": 38.939649, "name": "4f9e70b26f44e61e2f9b6f3021784762", "fusion_lat": 0.0, "fusion_lon": 0.0, "rental_uris": {"android": "https://dc.lft.to/lastmile_qr_scan", "ios": "https://dc.lft.to/lastmile_qr_scan"}, "is_reserved": 0, "is_disabled": 0, "type": "electric_bike", "bike_id": "4f9e70b26f44e61e2f9b6f3021784762"}, {"lon": -76.97314566666667, "lat": 38.9197975, "name": "3e50bfc12400f2ddc9ba7461de4a9999", "fusion_lat": 0.0, "fusion_lon": 0.0, "rental_uris": {"android": "https://dc.lft.to/lastmile_qr_scan", "ios": "https://dc.lft.to/lastmile_qr_scan"}, "is_reserved": 0, "is_disabled": 0, "type": "electric_scooter", "bike_id": "3e50bfc12400f2ddc9ba7461de4a9999"}, {"lon": -77.02395066666666, "lat": 38.907064166666665, "name": "79165c4d25846dc8cde1ac83039313bd", "fusion_lat": 0.0, "fusion_lon": 0.0, "rental_uris": {"android": "https://dc.lft.to/lastmile_qr_scan", "ios": "https://dc.lft.to/lastmile_qr_scan"}, "is_reserved": 0, "is_disabled": 0, "type": "electric_scooter", "bike_id": "79165c4d25846dc8cde1ac83039313bd"}, {"lon": -77.0060665, "lat": 38.884858666666666, "name": "c445edb28abdf44e4b014dfae34b517b", "fusion_lat": 0.0, "fusion_lon": 0.0, "rental_uris": {"android": "https://dc.lft.to/lastmile_qr_scan", "ios": "https://dc.lft.to/lastmile_qr_scan"}, "is_reserved": 0, "is_disabled": 0, "type": "electric_scooter", "bike_id": "c445edb28abdf44e4b014dfae34b517b"}, {"lon": -77.03270416666666, "lat": 38.93446266666667, "name": "830d1cbb2480d8e6a36b25b3e3501e51", "fusion_lat": 0.0, "fusion_lon": 0.0, "rental_uris": {"android": "https://dc.lft.to/lastmile_qr_scan", "ios": "https://dc.lft.to/lastmile_qr_scan"}, "is_reserved": 0, "is_disabled": 0, "type": "electric_scooter", "bike_id": "830d1cbb2480d8e6a36b25b3e3501e51"}, {"lon": -77.0141605, "lat": 38.890911333333335, "name": "5a7fd16c054e794d372e0c4ee3f73966", "fusion_lat": 0.0, "fusion_lon": 0.0, "rental_uris": {"android": "https://dc.lft.to/lastmile_qr_scan", "ios": "https://dc.lft.to/lastmile_qr_scan"}, "is_reserved": 0, "is_disabled": 0, "type": "electric_scooter", "bike_id": "5a7fd16c054e794d372e0c4ee3f73966"},