{"data": {"bikes": [{"lon": -77.0176175, "bike_id": "7c8190814db225f3cc5515447c891188", "lat": 38.900267666666664, "fusion_lon": 0.0, "fusion_lat": 0.0, "type": "electric_scooter", "name": "7c8190814db225f3cc5515447c891188", "is_disabled": 0, "rental_uris": {"ios": "https://dc.lft.to/lastmile_qr_scan", "android": "https://dc.lft.to/lastmile_qr_scan"}, "is_reserved": 0}, {"lon": -77.02706983333333, "bike_id": "ce484417ee6e403c1575fa3cbd3c7e8c", "lat": 38.89775216666666, "fusion_lon": 0.0, "fusion_lat": 0.0, "type": "electric_scooter", "name": "ce484417ee6e403c1575fa3cbd3c7e8c", "is_disabled": 0, "rental_uris": {"ios": "https://dc.lft.to/lastmile_qr_scan", "android": "https://dc.lft.to/lastmile_qr_scan"}, "is_reserved": 0}, {"lon": -77.04909416666666, "bike_id": "33bb4b1e5eb2fa583670a1b2b64f39a4", "lat": 38.916001, "fusion_lon": 0.0, "fusion_lat": 0.0, "type": "electric_scooter", "name": "33bb4b1e5eb2fa583670a1b2b64f39a4", "is_disabled": 0, "rental_uris": {"ios": "https://dc.lft.to/lastmile_qr_scan", "android": "https://dc.lft.to/lastmile_qr_scan"}, "is_reserved": 0}, {"lon": -77.02579366666667, "bike_id": "daabc193f25102c9edec326ad8fc64f2", "lat": 38.9140495, "fusion_lon": 0.0, "fusion_lat": 0.0, "type": "electric_scooter", "name": "daabc193f25102c9edec326ad8fc64f2", "is_disabled": 0, "rental_uris": {"ios": "https://dc.lft.to/lastmile_qr_scan", "android": "https://dc.lft.to/lastmile_qr_scan"}, "is_reserved": 0}, {"lon": -76.93965333333334, "bike_id": "589d07592ee952d8080cdf15119f0206", "lat": 38.8982965, "fusion_lon": 0.0, "fusion_lat": 0.0, "type": "electric_scooter", "name": "589d07592ee952d8080cdf15119f0206", "is_disabled": 0, "rental_uris": {"ios": "https://dc.lft.to/lastmile_qr_scan", "android": "https://dc.lft.to/lastmile_qr_scan"}, "is_reserved": 0}, {"lon": -76.98233316666666, "bike_id": "8fc55c52001c4f00ab23c368379c1ace", "lat": 38.864667, "fusion_lon": 0.0, "fusion_lat": 0.0, "type": "electric_scooter", "name": "8fc55c52001c4f00ab23c368379c1ace", "is_disabled": 0, "rental_uris": {"ios": "https://dc.lft.to/lastmile_qr_scan", "android": "https://dc.lft.to/lastmile_qr_scan"}, "is_reserved": 0}, {"lon": -77.05315083333333, "bike_id": "a4051631b98f1d32665f72dbff06f02d", "lat": 38.900741833333335, "fusion_lon": 0.0, "fusion_lat": 0.0, "type": "electric_scooter", "name": "a4051631b98f1d32665f72dbff06f02d", "is_disabled": 0, "rental_uris": {"ios": "https://dc.lft.to/lastmile_qr_scan", "android": "https://dc.lft.to/lastmile_qr_scan"}, "is_reserved": 0}, {"lon": -76.99537383333333, "bike_id": "e2cf6d8b212e54d94bb728870e5588e9", "lat": 38.862073333333335, "fusion_lon": 0.0, "fusion_lat": 0.0, "type": "electric_scooter", "name": "e2cf6d8b212e54d94bb728870e5588e9", "is_disabled": 0, "rental_uris": {"ios": "https://dc.lft.to/lastmile_qr_scan", "android": "https://dc.lft.to/lastmile_qr_scan"}, "is_reserved": 0}, {"lon": -77.04706483333334, "bike_id": "36b037490ebbf005f381d7983fe961e0", "lat": 38.922215333333334, "fusion_lon": 0.0, "fusion_lat": 0.0, "type": "electric_scooter", "name": "36b037490ebbf005f381d7983fe961e0", "is_disabled": 0, "rental_uris": {"ios": "https://dc.lft.to/lastmile_qr_scan", "android": "https://dc.lft.to/lastmile_qr_scan"}, "is_reserved": 0}, {"lon": -77.03432933333333, "bike_id": "e1ef1d0c9fdc01f27bcfef5db47e7b39", "lat": 38.96532883333333, "fusion_lon": 0.0, "fusion_lat": 0.0, "type": "electric_bike", "name": "e1ef1d0c9fdc01f27bcfef5db47e7b39", "is_disabled": 0, "rental_uris": {"ios": "https://dc.lft.to/lastmile_qr_scan", "android": "https://dc.lft.to/lastmile_qr_scan"}, "is_reserved": 0}, {"lon": -77.13928633333333, "bike_id": "780bc11eb5a725fa426d34a5b1c17daa", "lat": 38.872969166666664, "fusion_lon": 0.0, "fusion_lat": 0.0, "type": "electric_bike", "name": "780bc11eb5a725fa426d34a5b1c17daa", "is_disabled": 0, "rental_uris": {"ios": "https://dc.lft.to/lastmile_qr_scan", "android": "https://dc.lft.to/lastmile_qr_scan"}, "is_reserved": 0}, {"lon": -77.055708, "bike_id": "9cc02201c6f1ca4fa41e83a7d40ab976", "lat": 38.897308333333335, "fusion_lon": 0.0, "fusion_lat": 0.0, "type": "electric_scooter", "name": "9cc02201c6f1ca4fa41e83a7d40ab976", "is_disabled": 0, "rental_uris": {"ios": "https://dc.lft.to/lastmile_qr_scan", "android": "https://dc.lft.to/lastmile_qr_scan"}, "is_reserved": 0}, {"lon": -77.03055033333334, "bike_id": "f67297769983762b8efb3ceb470233e5", "lat": 38.92677966666667, "fusion_lon": 0.0, "fusion_lat": 0.0, "type": "electric_scooter", "name": "f67297769983762b8efb3ceb470233e5", "is_disabled": 0, "rental_uris": {"ios": "https://dc.lft.to/lastmile_qr_scan", "android": "https://dc.lft.to/lastmile_qr_scan"}, "is_reserved": 0}, {"lon": -76.99030633333334, "bike_id": "ceb5c995f1440f10bc36f6b00dd96adc", "lat": 38.89599183333333, "fusion_lon": 0.0, "fusion_lat": 0.0, "type": "electric_scooter", "name": "ceb5c995f1440f10bc36f6b00dd96adc", "is_disabled": 0, "rental_uris": {"ios": "https://dc.lft.to/lastmile_qr_scan", "android": "https://dc.lft.to/lastmile_qr_scan"}, "is_reserved": 0}, {"lon": -77.03671283333334, "bike_id": "4361cc8795d5741058804bae8e43a5ea", "lat": 38.909561333333336, "fusion_lon": 0.0, "fusion_lat": 0.0, "type": "electric_scooter", "name": "4361cc8795d5741058804bae8e43a5ea", "is_disabled": 0, "rental_uris": {"ios": "https://dc.lft.to/lastmile_qr_scan", "android": "https://dc.lft.to/lastmile_qr_scan"}, "is_reserved": 0}, {"lon": -77.02386066666666, "bike_id": "88e22cf1e185a2abc2f778343384e79f", "lat": 38.905986666666664, "fusion_lon": 0.0, "fusion_lat": 0.0, "type": "electric_scooter", "name": "88e22cf1e185a2abc2f778343384e79f", "is_disabled": 0, "rental_uris": {"ios": "https://dc.lft.to/lastmile_qr_scan", "android": "https://dc.lft.to/lastmile_qr_scan"}, "is_reserved": 0}, {"lon": -77.00977133333333, "bike_id": "f7c90c9c356b6e263a6e6d27b566bc71", "lat": 38.9141525, "fusion_lon": 0.0, "fusion_lat": 0.0, "type": "electric_scooter", "name": "f7c90c9c356b6e263a6e6d27b566bc71", "is_disabled": 0, "rental_uris": {"ios": "https://dc.lft.to/lastmile_qr_scan", "android": "https://dc.lft.to/lastmile_qr_scan"}, "is_reserved": 0}, {"lon": -77.02094683333333, "bike_id": "e6f05bda84422caab278c4c966304e90", "lat": 38.885, "fusion_lon": 0.0, "fusion_lat": 0.0, "type": "electric_scooter", "name": "e6f05bda84422caab278c4c966304e90", "is_disabled": 0, "rental_uris": {"ios": "https://dc.lft.to/lastmile_qr_scan", "android": "https://dc.lft.to/lastmile_qr_scan"}, "is_reserved": 0}, {"lon": -77.03838916666666, "bike_id": "eabc23e681239ca3761622d5d45f9c10", "lat": 38.91034333333333, "fusion_lon": 0.0, "fusion_lat": 0.0, "type": "electric_scooter", "name": "eabc23e681239ca3761622d5d45f9c10", "is_disabled": 0, "rental_uris": {"ios": "https://dc.lft.to/lastmile_qr_scan", "android": "https://dc.lft.to/lastmile_qr_scan"}, "is_reserved": 0}, {"lon": -76.9374755, "bike_id": "a4ed54cd1bc36d78701adcc586190af2", "lat": 38.89047816666667, "fusion_lon": 0.0, "fusion_lat": 0.0, "type": "electric_scooter", "name": "a4ed54cd1bc36d78701adcc586190af2", "is_disabled": 0, "rental_uris": {"ios": "https://dc.lft.to/lastmile_qr_scan", "android": "https://dc.lft.to/lastmile_qr_scan"}, "is_reserved": 0}, {"lon": -77.0373775, "bike_id": "15258df0bd7f99e0f049b73e7d089d06", "lat": 38.928393166666666, "fusion_lon": 0.0, "fusion_lat": 0.0, "type": "electric_scooter", "name": "15258df0bd7f99e0f049b73e7d089d06", "is_disabled": 0, "rental_uris": {"ios": "https://dc.lft.to/lastmile_qr_scan", "android": "https://dc.lft.to/lastmile_qr_scan"}, "is_reserved": 0}, {"lon": -77.03592366666666, "bike_id": "862d25d80f0ca4e3dc24514388cee64f", "lat": 38.926765333333336, "fusion_lon": 0.0, "fusion_lat": 0.0, "type": "electric_scooter", "name": "862d25d80f0ca4e3dc24514388cee64f", "is_disabled": 0, "rental_uris": {"ios": "https://dc.lft.to/lastmile_qr_scan", "android": "https://dc.lft.to/lastmile_qr_scan"}, "is_reserved": 0}, {"lon": -77.02720216666667, "bike_id": "d81a64d02f31f5fc9e808c03edcb4b53", "lat": 38.906648833333335, "fusion_lon": 0.0, "fusion_lat": 0.0, "type": "electric_scooter", "name": "d81a64d02f31f5fc9e808c03edcb4b53", "is_disabled": 0, "rental_uris": {"ios": "https://dc.lft.to/lastmile_qr_scan", "android": "https://dc.lft.to/lastmile_qr_scan"}, "is_reserved": 0}, {"lon": -77.11612766666667, "bike_id": "42d81173e175caa79d66fd880fe8123b", "lat": 38.854934166666666, "fusion_lon": 0.0, "fusion_lat": 0.0, "type": "electric_bike", "name": "42d81173e175caa79d66fd880fe8123b", "is_disabled": 0, "rental_uris": {"ios": "https://dc.lft.to/lastmile_qr_scan", "android": "https://dc.lft.to/lastmile_qr_scan"}, "is_reserved": 0}, {"lon": -77.04323166666667, "bike_id": "bf71a72b4e8ff3822dedb0b860ce2801", "lat": 38.922017333333336, "fusion_lon": 0.0, "fusion_lat": 0.0, "type": "electric_scooter", "name": "bf71a72b4e8ff3822dedb0b860ce2801", "is_disabled": 0, "rental_uris": {"ios": "https://dc.lft.to/lastmile_qr_scan", "android": "https://dc.lft.to/lastmile_qr_scan"}, "is_reserved": 0}, {"lon": -77.02512283333333, "bike_id": "340c5a9322b9d44cdb841d2a824232a9", "lat": 38.92093116666667, "fusion_lon": 0.0, "fusion_lat": 0.0, "type": "electric_scooter", "name": "340c5a9322b9d44cdb841d2a824232a9", "is_disabled": 0, "rental_uris": {"ios": "https://dc.lft.to/lastmile_qr_scan", "android": "https://dc.lft.to/lastmile_qr_scan"}, "is_reserved": 0}, {"lon": -76.98845716666666, "bike_id": "5bf3312180ed0fec5355f4e1a82c1b98", "lat": 38.9012415, "fusion_lon": 0.0, "fusion_lat": 0.0, "type": "electric_scooter", "name": "5bf3312180ed0fec5355f4e1a82c1b98", "is_disabled": 0, "rental_uris": {"ios": "https://dc.lft.to/lastmile_qr_scan", "android": "https://dc.lft.to/lastmile_qr_scan"}, "is_reserved": 0}, {"lon": -77.045016, "bike_id": "b4badad71223fe22562854e1c56bdc98", "lat": 38.9009835, "fusion_lon": 0.0, "fusion_lat": 0.0, "type": "electric_scooter", "name": "b4badad71223fe22562854e1c56bdc98", "is_disabled": 0, "rental_uris": {"ios": "https://dc.lft.to/lastmile_qr_scan", "android": "https://dc.lft.to/lastmile_qr_scan"}, "is_reserved": 0}, {"lon": -77.021501, "bike_id": "aa86de31e35d081d7f45a84d483a9add", "lat": 38.8972155, "fusion_lon": 0.0, "fusion_lat": 0.0, "type": "electric_scooter", "name": "aa86de31e35d081d7f45a84d483a9add", "is_disabled": 0, "rental_uris": {"ios": "https://dc.lft.to/lastmile_qr_scan", "android": "https://dc.lft.to/lastmile_qr_scan"}, "is_reserved": 0}, {"lon": -77.05133066666667, "bike_id": "5865b9bf4d00c3b55406aa87517691c1", "lat": 38.92358183333333, "fusion_lon": 0.0, "fusion_lat": 0.0, "type": "electric_scooter", "name": "5865b9bf4d00c3b55406aa87517691c1", "is_disabled": 0, "rental_uris": {"ios": "https://dc.lft.to/lastmile_qr_scan", "android": "https://dc.lft.to/lastmile_qr_scan"}, "is_reserved": 0}, {"lon": -77.00949533333333, "bike_id": "935c914da6ac90d80d7dd99c7957625c", "lat": 38.8762985, "fusion_lon": 0.0, "fusion_lat": 0.0, "type": "electric_scooter", "name": "935c914da6ac90d80d7dd99c7957625c", "is_disabled": 0, "rental_uris": {"ios": "https://dc.lft.to/lastmile_qr_scan", "android": "https://dc.lft.to/lastmile_qr_scan"}, "is_reserved": 0}, {"lon": -77.07164083333333, "bike_id": "0edee672930fbb728fdab812accedc0e", "lat": 38.9078705, "fusion_lon": 0.0, "fusion_lat": 0.0, "type": "electric_bike", "name": "0edee672930fbb728fdab812accedc0e", "is_disabled": 0, "rental_uris": {"ios": "https://dc.lft.to/lastmile_qr_scan", "android": "https://dc.lft.to/lastmile_qr_scan"}, "is_reserved": 0}, {"lon": -76.99861116666666, "bike_id": "704bfc1994cfcd9a86196ba0d4db1d64", "lat": 38.90245316666667, "fusion_lon": 0.0, "fusion_lat": 0.0, "type": "electric_scooter", "name": "704bfc1994cfcd9a86196ba0d4db1d64", "is_disabled": 0, "rental_uris": {"ios": "https://dc.lft.to/lastmile_qr_scan", "android": "https://dc.lft.to/lastmile_qr_scan"}, "is_reserved": 0}, {"lon": -76.98006616666666, "bike_id": "a5457a11cf08821e5999f7cc1e315be8", "lat": 38.9043105, "fusion_lon": 0.0, "fusion_lat": 0.0, "type": "electric_scooter", "name": "a5457a11cf08821e5999f7cc1e315be8", "is_disabled": 0, "rental_uris": {"ios": "https://dc.lft.to/lastmile_qr_scan", "android": "https://dc.lft.to/lastmile_qr_scan"}, "is_reserved": 0}, {"lon": -76.98111116666666, "bike_id": "a56db0c050efa64bd8f66790509c807a", "lat": 38.90402483333333, "fusion_lon": 0.0, "fusion_lat": 0.0, "type": "electric_scooter", "name": "a56db0c050efa64bd8f66790509c807a", "is_disabled": 0, "rental_uris": {"ios": "https://dc.lft.to/lastmile_qr_scan", "android": "https://dc.lft.to/lastmile_qr_scan"}, "is_reserved": 0}, {"lon": -77.05507066666667, "bike_id": "2837fb6d1190b1bca49366dab4c10ccc", "lat": 38.904429, "fusion_lon": 0.0, "fusion_lat": 0.0, "type": "electric_scooter", "name": "2837fb6d1190b1bca49366dab4c10ccc", "is_disabled": 0, "rental_uris": {"ios": "https://dc.lft.to/lastmile_qr_scan", "android": "https://dc.lft.to/lastmile_qr_scan"}, "is_reserved": 0}, {"lon": -77.043454, "bike_id": "9a8dea4238d96ac8d3f4e0d7f75b04f1", "lat": 38.92196116666667, "fusion_lon": 0.0, "fusion_lat": 0.0, "type": "electric_scooter", "name": "9a8dea4238d96ac8d3f4e0d7f75b04f1", "is_disabled": 0, "rental_uris": {"ios": "https://dc.lft.to/lastmile_qr_scan", "android": "https://dc.lft.to/lastmile_qr_scan"}, "is_reserved": 0}, {"lon": -77.00351966666666, "bike_id": "35675fd623be6e5833ffd00598212cdb", "lat": 38.89930366666667, "fusion_lon": 0.0, "fusion_lat": 0.0, "type": "electric_scooter", "name": "35675fd623be6e5833ffd00598212cdb", "is_disabled": 0, "rental_uris": {"ios": "https://dc.lft.to/lastmile_qr_scan", "android": "https://dc.lft.to/lastmile_qr_scan"}, "is_reserved": 0}, {"lon": -77.02821816666666, "bike_id": "a04e86e449b7d80bf684f5a9b5323a3f", "lat": 38.897377, "fusion_lon": 0.0, "fusion_lat": 0.0, "type": "electric_bike", "name": "a04e86e449b7d80bf684f5a9b5323a3f", "is_disabled": 0, "rental_uris": {"ios": "https://dc.lft.to/lastmile_qr_scan", "android": "https://dc.lft.to/lastmile_qr_scan"}, "is_reserved": 0}, {"lon": -77.033402, "bike_id": "632a24d86145183537b56cbadfd48535", "lat": 38.928716333333334, "fusion_lon": 0.0, "fusion_lat": 0.0, "type": "electric_scooter", "name": "632a24d86145183537b56cbadfd48535", "is_disabled": 0, "rental_uris": {"ios": "https://dc.lft.to/lastmile_qr_scan", "android": "https://dc.lft.to/lastmile_qr_scan"}, "is_reserved": 0}, {"lon": -77.02953033333333, "bike_id": "b5c2e4c994b02cdd139adae1e564e0b0", "lat": 38.921721833333336, "fusion_lon": 0.0, "fusion_lat": 0.0, "type": "electric_scooter", "name": "b5c2e4c994b02cdd139adae1e564e0b0", "is_disabled": 0, "rental_uris": {"ios": "https://dc.lft.to/lastmile_qr_scan", "android": "https://dc.lft.to/lastmile_qr_scan"}, "is_reserved": 0}, {"lon": -77.02703133333333, "bike_id": "59bb6900bbbc5a309660a93ded6cf456", "lat": 38.91646816666667, "fusion_lon": 0.0, "fusion_lat": 0.0, "type": "electric_scooter", "name": "59bb6900bbbc5a309660a93ded6cf456", "is_disabled": 0, "rental_uris": {"ios": "https://dc.lft.to/lastmile_qr_scan", "android": "https://dc.lft.to/lastmile_qr_scan"}, "is_reserved": 0}, {"lon": -77.01983266666667, "bike_id": "e1e459a05d4aaa3762b713e33c4358b4", "lat": 38.915205, "fusion_lon": 0.0, "fusion_lat": 0.0, "type": "electric_scooter", "name": "e1e459a05d4aaa3762b713e33c4358b4", "is_disabled": 0, "rental_uris": {"ios": "https://dc.lft.to/lastmile_qr_scan", "android": "https://dc.lft.to/lastmile_qr_scan"}, "is_reserved": 0}, {"lon": -76.98112533333334, "bike_id": "b88030988bc1b7ff9799c685af4180ba", "lat": 38.915788666666664, "fusion_lon": 0.0, "fusion_lat": 0.0, "type": "electric_scooter", "name": "b88030988bc1b7ff9799c685af4180ba", "is_disabled": 0, "rental_uris": {"ios": "https://dc.lft.to/lastmile_qr_scan", "android": "https://dc.lft.to/lastmile_qr_scan"}, "is_reserved": 0}, {"lon": -77.04015383333333, "bike_id": "1e78821ca240c8385efd9c0f74889b45", "lat": 38.913008, "fusion_lon": 0.0, "fusion_lat": 0.0, "type": "electric_scooter", "name": "1e78821ca240c8385efd9c0f74889b45", "is_disabled": 0, "rental_uris": {"ios": "https://dc.lft.to/lastmile_qr_scan", "android": "https://dc.lft.to/lastmile_qr_scan"}, "is_reserved": 0}, {"lon": -77.02861866666667, "bike_id": "3f6a980f5ab44bf5323afa3fbdeaa24f", "lat": 38.88744966666667, "fusion_lon": 0.0, "fusion_lat": 0.0, "type": "electric_scooter", "name": "3f6a980f5ab44bf5323afa3fbdeaa24f", "is_disabled": 0, "rental_uris": {"ios": "https://dc.lft.to/lastmile_qr_scan", "android": "https://dc.lft.to/lastmile_qr_scan"}, "is_reserved": 0}, {"lon": -77.03449416666666, "bike_id": "3baf7d5abda5bc03064f32345f58bd7a", "lat": 38.909759333333334, "fusion_lon": 0.0, "fusion_lat": 0.0, "type": "electric_scooter", "name": "3baf7d5abda5bc03064f32345f58bd7a", "is_disabled": 0, "rental_uris": {"ios": "https://dc.lft.to/lastmile_qr_scan", "android": "https://dc.lft.to/lastmile_qr_scan"}, "is_reserved": 0}, {"lon": -77.01632883333333, "bike_id": "3bf0d20945be383526b56e48e067d905", "lat": 38.89943916666667, "fusion_lon": 0.0, "fusion_lat": 0.0, "type": "electric_scooter", "name": "3bf0d20945be383526b56e48e067d905", "is_disabled": 0, "rental_uris": {"ios": "https://dc.lft.to/lastmile_qr_scan", "android": "https://dc.lft.to/lastmile_qr_scan"}, "is_reserved": 0}, {"lon": -77.0237785, "bike_id": "d04de63ab164e1e0c5ce0bac0bd15fcb", "lat": 38.89221833333333, "fusion_lon": 0.0, "fusion_lat": 0.0, "type": "electric_scooter", "name": "d04de63ab164e1e0c5ce0bac0bd15fcb", "is_disabled": 0, "rental_uris": {"ios": "https://dc.lft.to/lastmile_qr_scan", "android": "https://dc.lft.to/lastmile_qr_scan"}, "is_reserved": 0}, {"lon": -77.02282216666667, "bike_id": "7b32856b47349a2088b980783c0e1ec4", "lat": 38.926855, "fusion_lon": 0.0, "fusion_lat": 0.0, "type": "electric_scooter", "name": "7b32856b47349a2088b980783c0e1ec4", "is_disabled": 0, "rental_uris": {"ios": "https://dc.lft.to/lastmile_qr_scan", "android": "https://dc.lft.to/lastmile_qr_scan"}, "is_reserved": 0}, {"lon": -76.99175233333334, "bike_id": "66baf9aebf189d784c56a48882fef81b", "lat": 38.88991816666667, "fusion_lon": 0.0, "fusion_lat": 0.0, "type": "electric_scooter", "name": "66baf9aebf189d784c56a48882fef81b", "is_disabled": 0, "rental_uris": {"ios": "https://dc.lft.to/lastmile_qr_scan", "android": "https://dc.lft.to/lastmile_qr_scan"}, "is_reserved": 0}, {"lon": -77.03222, "bike_id": "fa4b0b90360817de03cc834ad423e5d9", "lat": 38.90973483333333, "fusion_lon": 0.0, "fusion_lat": 0.0, "type": "electric_scooter", "name": "fa4b0b90360817de03cc834ad423e5d9", "is_disabled": 0, "rental_uris": {"ios": "https://dc.lft.to/lastmile_qr_scan", "android": "https://dc.lft.to/lastmile_qr_scan"}, "is_reserved": 0}, {"lon": -77.05049133333333, "bike_id": "c32de8f1a5c666a5aeec611eae6794bf", "lat": 38.9239155, "fusion_lon": 0.0, "fusion_lat": 0.0, "type": "electric_scooter", "name": "c32de8f1a5c666a5aeec611eae6794bf", "is_disabled": 0, "rental_uris": {"ios": "https://dc.lft.to/lastmile_qr_scan", "android": "https://dc.lft.to/lastmile_qr_scan"}, "is_reserved": 0}, {"lon": -77.00968416666667, "bike_id": "3ab6d914fe9f42190b1edce74afa650d", "lat": 38.91179616666667, "fusion_lon": 0.0, "fusion_lat": 0.0, "type": "electric_scooter", "name": "3ab6d914fe9f42190b1edce74afa650d", "is_disabled": 0, "rental_uris": {"ios": "https://dc.lft.to/lastmile_qr_scan", "android": "https://dc.lft.to/lastmile_qr_scan"}, "is_reserved": 0}, {"lon": -77.04403483333333, "bike_id": "74ceb409903cdc024ca6a6a9e2958770", "lat": 38.9244705, "fusion_lon": 0.0, "fusion_lat": 0.0, "type": "electric_scooter", "name": "74ceb409903cdc024ca6a6a9e2958770", "is_disabled": 0, "rental_uris": {"ios": "https://dc.lft.to/lastmile_qr_scan", "android": "https://dc.lft.to/lastmile_qr_scan"}, "is_reserved": 0}, {"lon": -77.022346, "bike_id": "f4a5e2246a8e62ca1d2a713d38789dd5", "lat": 38.9261555, "fusion_lon": 0.0, "fusion_lat": 0.0, "type": "electric_scooter", "name": "f4a5e2246a8e62ca1d2a713d38789dd5", "is_disabled": 0, "rental_uris": {"ios": "https://dc.lft.to/lastmile_qr_scan", "android": "https://dc.lft.to/lastmile_qr_scan"}, "is_reserved": 0}, {"lon": -77.02184, "bike_id": "782d3780d7519213a60f5917eb8676a1", "lat": 38.93947083333333, "fusion_lon": 0.0, "fusion_lat": 0.0, "type": "electric_scooter", "name": "782d3780d7519213a60f5917eb8676a1", "is_disabled": 0, "rental_uris": {"ios": "https://dc.lft.to/lastmile_qr_scan", "android": "https://dc.lft.to/lastmile_qr_scan"}, "is_reserved": 0}, {"lon": -77.02109266666666, "bike_id": "8ae456b9090276bbc868fff2d5863746", "lat": 38.906055, "fusion_lon": 0.0, "fusion_lat": 0.0, "type": "electric_scooter", "name": "8ae456b9090276bbc868fff2d5863746", "is_disabled": 0, "rental_uris": {"ios": "https://dc.lft.to/lastmile_qr_scan", "android": "https://dc.lft.to/lastmile_qr_scan"}, "is_reserved": 0}, {"lon": -76.98923233333333, "bike_id": "3bc9e94c70479e26b8002eec65a0d0e7", "lat": 38.85810983333333, "fusion_lon": 0.0, "fusion_lat": 0.0, "type": "electric_scooter", "name": "3bc9e94c70479e26b8002eec65a0d0e7", "is_disabled": 0, "rental_uris": {"ios": "https://dc.lft.to/lastmile_qr_scan", "android": "https://dc.lft.to/lastmile_qr_scan"}, "is_reserved": 0}, {"lon": -76.983713, "bike_id": "0302c7ebaa142c83fc1117673cc4ebca", "lat": 38.914983166666666, "fusion_lon": 0.0, "fusion_lat": 0.0, "type": "electric_scooter", "name": "0302c7ebaa142c83fc1117673cc4ebca", "is_disabled": 0, "rental_uris": {"ios": "https://dc.lft.to/lastmile_qr_scan", "android": "https://dc.lft.to/lastmile_qr_scan"}, "is_reserved": 0}, {"lon": -77.06262333333333, "bike_id": "6b70fb001722fe91a1853aeabac0859f", "lat": 38.90529, "fusion_lon": 0.0, "fusion_lat": 0.0, "type": "electric_scooter", "name": "6b70fb001722fe91a1853aeabac0859f", "is_disabled": 0, "rental_uris": {"ios": "https://dc.lft.to/lastmile_qr_scan", "android": "https://dc.lft.to/lastmile_qr_scan"}, "is_reserved": 0}, {"lon": -77.00205083333333, "bike_id": "96ae4b6db8c3a209f36f46728ff19b48", "lat": 38.90243683333333, "fusion_lon": 0.0, "fusion_lat": 0.0, "type": "electric_scooter", "name": "96ae4b6db8c3a209f36f46728ff19b48", "is_disabled": 0, "rental_uris": {"ios": "https://dc.lft.to/lastmile_qr_scan", "android": "https://dc.lft.to/lastmile_qr_scan"}, "is_reserved": 0}, {"lon": -77.03202483333334, "bike_id": "ef1bc1e3f55227dad506598095880bae", "lat": 38.916738, "fusion_lon": 0.0, "fusion_lat": 0.0, "type": "electric_scooter", "name": "ef1bc1e3f55227dad506598095880bae", "is_disabled": 0, "rental_uris": {"ios": "https://dc.lft.to/lastmile_qr_scan", "android": "https://dc.lft.to/lastmile_qr_scan"}, "is_reserved": 0}, {"lon": -77.05003283333333, "bike_id": "fba82fe60d8b18cf88e2dc599e76b87f", "lat": 38.892358333333334, "fusion_lon": 0.0, "fusion_lat": 0.0, "type": "electric_scooter", "name": "fba82fe60d8b18cf88e2dc599e76b87f", "is_disabled": 0, "rental_uris": {"ios": "https://dc.lft.to/lastmile_qr_scan", "android": "https://dc.lft.to/lastmile_qr_scan"}, "is_reserved": 0}, {"lon": -77.04391016666666, "bike_id": "4cf4287f36fcc1e6af67492bfcec598e", "lat": 39.04716466666667, "fusion_lon": 0.0, "fusion_lat": 0.0, "type": "electric_bike", "name": "4cf4287f36fcc1e6af67492bfcec598e", "is_disabled": 0, "rental_uris": {"ios": "https://dc.lft.to/lastmile_qr_scan", "android": "https://dc.lft.to/lastmile_qr_scan"}, "is_reserved": 0}, {"lon": -77.00929683333334, "bike_id": "d8f82c5336d142f6c4781208d2d1aecb", "lat": 38.918055333333335, "fusion_lon": 0.0, "fusion_lat": 0.0, "type": "electric_scooter", "name": "d8f82c5336d142f6c4781208d2d1aecb", "is_disabled": 0, "rental_uris": {"ios": "https://dc.lft.to/lastmile_qr_scan", "android": "https://dc.lft.to/lastmile_qr_scan"}, "is_reserved": 0}, {"lon": -77.025795, "bike_id": "443e5bc50fcf752c5ec7952d888c3bc6", "lat": 38.90370033333333, "fusion_lon": 0.0, "fusion_lat": 0.0, "type": "electric_scooter", "name": "443e5bc50fcf752c5ec7952d888c3bc6", "is_disabled": 0, "rental_uris": {"ios": "https://dc.lft.to/lastmile_qr_scan", "android": "https://dc.lft.to/lastmile_qr_scan"}, "is_reserved": 0}, {"lon": -77.026368, "bike_id": "bcca5e8b42024450b08b102058d7fda1", "lat": 38.929207, "fusion_lon": 0.0, "fusion_lat": 0.0, "type": "electric_scooter", "name": "bcca5e8b42024450b08b102058d7fda1", "is_disabled": 0, "rental_uris": {"ios": "https://dc.lft.to/lastmile_qr_scan", "android": "https://dc.lft.to/lastmile_qr_scan"}, "is_reserved": 0}, {"lon": -77.02161283333334, "bike_id": "eb633596eb3f277c443216fcbc8b523f", "lat": 38.8921925, "fusion_lon": 0.0, "fusion_lat": 0.0, "type": "electric_scooter", "name": "eb633596eb3f277c443216fcbc8b523f", "is_disabled": 0, "rental_uris": {"ios": "https://dc.lft.to/lastmile_qr_scan", "android": "https://dc.lft.to/lastmile_qr_scan"}, "is_reserved": 0}, {"lon": -77.02527783333333, "bike_id": "d2f1fe7b82f867d9e291d576efae195e", "lat": 38.94302116666667, "fusion_lon": 0.0, "fusion_lat": 0.0, "type": "electric_scooter", "name": "d2f1fe7b82f867d9e291d576efae195e", "is_disabled": 0, "rental_uris": {"ios": "https://dc.lft.to/lastmile_qr_scan", "android": "https://dc.lft.to/lastmile_qr_scan"}, "is_reserved": 0}, {"lon": -77.06138516666667, "bike_id": "482bb7ccb6d87b9f8597e811c2929bdc", "lat": 38.943594166666664, "fusion_lon": 0.0, "fusion_lat": 0.0, "type": "electric_scooter", "name": "482bb7ccb6d87b9f8597e811c2929bdc", "is_disabled": 0, "rental_uris": {"ios": "https://dc.lft.to/lastmile_qr_scan", "android": "https://dc.lft.to/lastmile_qr_scan"}, "is_reserved": 0}, {"lon": -77.03229116666667, "bike_id": "45374ded005343dbc6fc609393647c07", "lat": 38.91405566666667, "fusion_lon": 0.0, "fusion_lat": 0.0, "type": "electric_scooter", "name": "45374ded005343dbc6fc609393647c07", "is_disabled": 0, "rental_uris": {"ios": "https://dc.lft.to/lastmile_qr_scan", "android": "https://dc.lft.to/lastmile_qr_scan"}, "is_reserved": 0}, {"lon": -76.99782633333334, "bike_id": "3b617c7a7853be252c77f6ff806b9855", "lat": 38.91054716666667, "fusion_lon": 0.0, "fusion_lat": 0.0, "type": "electric_scooter", "name": "3b617c7a7853be252c77f6ff806b9855", "is_disabled": 0, "rental_uris": {"ios": "https://dc.lft.to/lastmile_qr_scan", "android": "https://dc.lft.to/lastmile_qr_scan"}, "is_reserved": 0}, {"lon": -77.02293616666667, "bike_id": "cef6f1a58fa335297569d7cc0981c791", "lat": 38.92325866666667, "fusion_lon": 0.0, "fusion_lat": 0.0, "type": "electric_bike", "name": "cef6f1a58fa335297569d7cc0981c791", "is_disabled": 0, "rental_uris": {"ios": "https://dc.lft.to/lastmile_qr_scan", "android": "https://dc.lft.to/lastmile_qr_scan"}, "is_reserved": 0}, {"lon": -77.03525633333334, "bike_id": "389c207c02962c1c1b6678aa706bad5a", "lat": 38.923403666666665, "fusion_lon": 0.0, "fusion_lat": 0.0, "type": "electric_scooter", "name": "389c207c02962c1c1b6678aa706bad5a", "is_disabled": 0, "rental_uris": {"ios": "https://dc.lft.to/lastmile_qr_scan", "android": "https://dc.lft.to/lastmile_qr_scan"}, "is_reserved": 0}, {"lon": -77.0325125, "bike_id": "59f6ede094147f9f93f2148e50720b14", "lat": 38.915621, "fusion_lon": 0.0, "fusion_lat": 0.0, "type": "electric_scooter", "name": "59f6ede094147f9f93f2148e50720b14", "is_disabled": 0, "rental_uris": {"ios": "https://dc.lft.to/lastmile_qr_scan", "android": "https://dc.lft.to/lastmile_qr_scan"}, "is_reserved": 0}, {"lon": -76.970077, "bike_id": "876ea5866a297df9cb56c0df1cde6f5c", "lat": 38.873662833333334, "fusion_lon": 0.0, "fusion_lat": 0.0, "type": "electric_scooter", "name": "876ea5866a297df9cb56c0df1cde6f5c", "is_disabled": 0, "rental_uris": {"ios": "https://dc.lft.to/lastmile_qr_scan", "android": "https://dc.lft.to/lastmile_qr_scan"}, "is_reserved": 0}, {"lon": -77.07793683333334, "bike_id": "f0711ad5d712846ac5cefcfdc0306c46", "lat": 38.99603033333333, "fusion_lon": 0.0, "fusion_lat": 0.0, "type": "electric_bike", "name": "f0711ad5d712846ac5cefcfdc0306c46", "is_disabled": 0, "rental_uris": {"ios": "https://dc.lft.to/lastmile_qr_scan", "android": "https://dc.lft.to/lastmile_qr_scan"}, "is_reserved": 0}, {"lon": -77.0533145, "bike_id": "9f23514b0c56899d427e0574fe5a9140", "lat": 38.907340166666664, "fusion_lon": 0.0, "fusion_lat": 0.0, "type": "electric_scooter", "name": "9f23514b0c56899d427e0574fe5a9140", "is_disabled": 0, "rental_uris": {"ios": "https://dc.lft.to/lastmile_qr_scan", "android": "https://dc.lft.to/lastmile_qr_scan"}, "is_reserved": 0}, {"lon": -77.0012995, "bike_id": "b0e6ccefd12259bed1256ec207429068", "lat": 38.885243, "fusion_lon": 0.0, "fusion_lat": 0.0, "type": "electric_scooter", "name": "b0e6ccefd12259bed1256ec207429068", "is_disabled": 0, "rental_uris": {"ios": "https://dc.lft.to/lastmile_qr_scan", "android": "https://dc.lft.to/lastmile_qr_scan"}, "is_reserved": 0}, {"lon": -77.0248005, "bike_id": "db71275f2c36d673ecbcff0641767f7c", "lat": 38.883700166666664, "fusion_lon": 0.0, "fusion_lat": 0.0, "type": "electric_scooter", "name": "db71275f2c36d673ecbcff0641767f7c", "is_disabled": 0, "rental_uris": {"ios": "https://dc.lft.to/lastmile_qr_scan", "android": "https://dc.lft.to/lastmile_qr_scan"}, "is_reserved": 0}, {"lon": -77.03397916666667, "bike_id": "408395b6c001e7aa9f007707416bb17f", "lat": 38.9602835, "fusion_lon": 0.0, "fusion_lat": 0.0, "type": "electric_bike", "name": "408395b6c001e7aa9f007707416bb17f", "is_disabled": 0, "rental_uris": {"ios": "https://dc.lft.to/lastmile_qr_scan", "android": "https://dc.lft.to/lastmile_qr_scan"}, "is_reserved": 0}, {"lon": -76.99782183333333, "bike_id": "9278dd8dddc4368628bdd186409b78f2", "lat": 38.84430416666667, "fusion_lon": 0.0, "fusion_lat": 0.0, "type": "electric_scooter", "name": "9278dd8dddc4368628bdd186409b78f2", "is_disabled": 0, "rental_uris": {"ios": "https://dc.lft.to/lastmile_qr_scan", "android": "https://dc.lft.to/lastmile_qr_scan"}, "is_reserved": 0}, {"lon": -77.02427566666667, "bike_id": "619f9c7c451ddd897c68cb04113a928f", "lat": 38.927539833333334, "fusion_lon": 0.0, "fusion_lat": 0.0, "type": "electric_scooter", "name": "619f9c7c451ddd897c68cb04113a928f", "is_disabled": 0, "rental_uris": {"ios": "https://dc.lft.to/lastmile_qr_scan", "android": "https://dc.lft.to/lastmile_qr_scan"}, "is_reserved": 0}, {"lon": -77.0208615, "bike_id": "afe996c8cf2ba2cb193c9cc4514555ca", "lat": 38.915888333333335, "fusion_lon": 0.0, "fusion_lat": 0.0, "type": "electric_scooter", "name": "afe996c8cf2ba2cb193c9cc4514555ca", "is_disabled": 0, "rental_uris": {"ios": "https://dc.lft.to/lastmile_qr_scan", "android": "https://dc.lft.to/lastmile_qr_scan"}, "is_reserved": 0}, {"lon": -77.0223455, "bike_id": "5c442cb78d9919b82ac77536a44a742d", "lat": 38.90224333333333, "fusion_lon": 0.0, "fusion_lat": 0.0, "type": "electric_scooter", "name": "5c442cb78d9919b82ac77536a44a742d", "is_disabled": 0, "rental_uris": {"ios": "https://dc.lft.to/lastmile_qr_scan", "android": "https://dc.lft.to/lastmile_qr_scan"}, "is_reserved": 0}, {"lon": -77.070396, "bike_id": "20c3f7d7f6e1cb968d7bcf698152c350", "lat": 38.90618116666667, "fusion_lon": 0.0, "fusion_lat": 0.0, "type": "electric_scooter", "name": "20c3f7d7f6e1cb968d7bcf698152c350", "is_disabled": 0, "rental_uris": {"ios": "https://dc.lft.to/lastmile_qr_scan", "android": "https://dc.lft.to/lastmile_qr_scan"}, "is_reserved": 0}, {"lon": -77.04324216666667, "bike_id": "00a19fd98c5514a8c8c201b5043c7638", "lat": 38.91876216666667, "fusion_lon": 0.0, "fusion_lat": 0.0, "type": "electric_scooter", "name": "00a19fd98c5514a8c8c201b5043c7638", "is_disabled": 0, "rental_uris": {"ios": "https://dc.lft.to/lastmile_qr_scan", "android": "https://dc.lft.to/lastmile_qr_scan"}, "is_reserved": 0}, {"lon": -77.00285666666667, "bike_id": "e66e725d116f2af46bff1c748fa8ef30", "lat": 38.95701783333333, "fusion_lon": 0.0, "fusion_lat": 0.0, "type": "electric_bike", "name": "e66e725d116f2af46bff1c748fa8ef30", "is_disabled": 0, "rental_uris": {"ios": "https://dc.lft.to/lastmile_qr_scan", "android": "https://dc.lft.to/lastmile_qr_scan"}, "is_reserved": 0}, {"lon": -77.1248685, "bike_id": "7f6a6bda414728b0deac3cec76f06d38", "lat": 38.8278355, "fusion_lon": 0.0, "fusion_lat": 0.0, "type": "electric_bike", "name": "7f6a6bda414728b0deac3cec76f06d38", "is_disabled": 0, "rental_uris": {"ios": "https://dc.lft.to/lastmile_qr_scan", "android": "https://dc.lft.to/lastmile_qr_scan"}, "is_reserved": 0}, {"lon": -77.06530183333334, "bike_id": "590ae808521654ef2b840033c6c7fb33", "lat": 38.94749783333334, "fusion_lon": 0.0, "fusion_lat": 0.0, "type": "electric_scooter", "name": "590ae808521654ef2b840033c6c7fb33", "is_disabled": 0, "rental_uris": {"ios": "https://dc.lft.to/lastmile_qr_scan", "android": "https://dc.lft.to/lastmile_qr_scan"}, "is_reserved": 0}, {"lon": -76.984887, "bike_id": "fd10d15f8bea8fa4774f3c3fdced5bcc", "lat": 38.8989865, "fusion_lon": 0.0, "fusion_lat": 0.0, "type": "electric_scooter", "name": "fd10d15f8bea8fa4774f3c3fdced5bcc", "is_disabled": 0, "rental_uris": {"ios": "https://dc.lft.to/lastmile_qr_scan", "android": "https://dc.lft.to/lastmile_qr_scan"}, "is_reserved": 0}, {"lon": -77.02964783333333, "bike_id": "dddd25666b2f137bc6573fb8cd46701a", "lat": 38.9226535, "fusion_lon": 0.0, "fusion_lat": 0.0, "type": "electric_scooter", "name": "dddd25666b2f137bc6573fb8cd46701a", "is_disabled": 0, "rental_uris": {"ios": "https://dc.lft.to/lastmile_qr_scan", "android": "https://dc.lft.to/lastmile_qr_scan"}, "is_reserved": 0}, {"lon": -77.03188866666666, "bike_id": "725a2218e71dfd0823bfa300a7d1ae2d", "lat": 38.9087445, "fusion_lon": 0.0, "fusion_lat": 0.0, "type": "electric_scooter", "name": "725a2218e71dfd0823bfa300a7d1ae2d", "is_disabled": 0, "rental_uris": {"ios": "https://dc.lft.to/lastmile_qr_scan", "android": "https://dc.lft.to/lastmile_qr_scan"}, "is_reserved": 0}, {"lon": -77.000888, "bike_id": "1fb9cba42ae8ed4654db3fc0e6aa2ce1", "lat": 38.894878, "fusion_lon": 0.0, "fusion_lat": 0.0, "type": "electric_scooter", "name": "1fb9cba42ae8ed4654db3fc0e6aa2ce1", "is_disabled": 0, "rental_uris": {"ios": "https://dc.lft.to/lastmile_qr_scan", "android": "https://dc.lft.to/lastmile_qr_scan"}, "is_reserved": 0}, {"lon": -77.03833933333334, "bike_id": "9f14b61250e6968d0cdca7c172127ae0", "lat": 38.908083833333336, "fusion_lon": 0.0, "fusion_lat": 0.0, "type": "electric_scooter", "name": "9f14b61250e6968d0cdca7c172127ae0", "is_disabled": 0, "rental_uris": {"ios": "https://dc.lft.to/lastmile_qr_scan", "android": "https://dc.lft.to/lastmile_qr_scan"}, "is_reserved": 0}, {"lon": -76.96580733333333, "bike_id": "00293b5cb7c88237cd2dc45d89c0c436", "lat": 38.87137416666667, "fusion_lon": 0.0, "fusion_lat": 0.0, "type": "electric_scooter", "name": "00293b5cb7c88237cd2dc45d89c0c436", "is_disabled": 0, "rental_uris": {"ios": "https://dc.lft.to/lastmile_qr_scan", "android": "https://dc.lft.to/lastmile_qr_scan"}, "is_reserved": 0}, {"lon": -77.03063916666666, "bike_id": "1bf6aa4b3f42b3c87d35da8c81458e4f", "lat": 38.924808, "fusion_lon": 0.0, "fusion_lat": 0.0, "type": "electric_scooter", "name": "1bf6aa4b3f42b3c87d35da8c81458e4f", "is_disabled": 0, "rental_uris": {"ios": "https://dc.lft.to/lastmile_qr_scan", "android": "https://dc.lft.to/lastmile_qr_scan"}, "is_reserved": 0}, {"lon": -77.02427866666666, "bike_id": "e3785c2043b4199ffc8d3bed35ece680", "lat": 38.914013, "fusion_lon": 0.0, "fusion_lat": 0.0, "type": "electric_scooter", "name": "e3785c2043b4199ffc8d3bed35ece680", "is_disabled": 0, "rental_uris": {"ios": "https://dc.lft.to/lastmile_qr_scan", "android": "https://dc.lft.to/lastmile_qr_scan"}, "is_reserved": 0}, {"lon": -77.03259333333334, "bike_id": "6d82c9f3a65e633faef001be68e46703", "lat": 38.935571, "fusion_lon": 0.0, "fusion_lat": 0.0, "type": "electric_scooter", "name": "6d82c9f3a65e633faef001be68e46703", "is_disabled": 0, "rental_uris": {"ios": "https://dc.lft.to/lastmile_qr_scan", "android": "https://dc.lft.to/lastmile_qr_scan"}, "is_reserved": 0}, {"lon": -77.00737683333334, "bike_id": "3489b3c42925c3ffa2bf1699899cd69f", "lat": 38.91624983333333, "fusion_lon": 0.0, "fusion_lat": 0.0, "type": "electric_scooter", "name": "3489b3c42925c3ffa2bf1699899cd69f", "is_disabled": 0, "rental_uris": {"ios": "https://dc.lft.to/lastmile_qr_scan", "android": "https://dc.lft.to/lastmile_qr_scan"}, "is_reserved": 0}, {"lon": -76.98719666666666, "bike_id": "6c4d9f1954bf3f5dc60dd228ea5b631a", "lat": 38.8662885, "fusion_lon": 0.0, "fusion_lat": 0.0, "type": "electric_scooter", "name": "6c4d9f1954bf3f5dc60dd228ea5b631a", "is_disabled": 0, "rental_uris": {"ios": "https://dc.lft.to/lastmile_qr_scan", "android": "https://dc.lft.to/lastmile_qr_scan"}, "is_reserved": 0}, {"lon": -77.0142785, "bike_id": "1f46bd5ed81c7318d13068353d925991", "lat": 38.91461966666667, "fusion_lon": 0.0, "fusion_lat": 0.0, "type": "electric_scooter", "name": "1f46bd5ed81c7318d13068353d925991", "is_disabled": 0, "rental_uris": {"ios": "https://dc.lft.to/lastmile_qr_scan", "android": "https://dc.lft.to/lastmile_qr_scan"}, "is_reserved": 0}, {"lon": -77.02028816666666, "bike_id": "01a8404ba6045a57bdc5456560cf33b2", "lat": 38.924428166666665, "fusion_lon": 0.0, "fusion_lat": 0.0, "type": "electric_scooter", "name": "01a8404ba6045a57bdc5456560cf33b2", "is_disabled": 0, "rental_uris": {"ios": "https://dc.lft.to/lastmile_qr_scan", "android": "https://dc.lft.to/lastmile_qr_scan"}, "is_reserved": 0}, {"lon": -77.07432516666667, "bike_id": "7516b62886edbf58fb23bca48b8e9903", "lat": 38.99947433333333, "fusion_lon": 0.0, "fusion_lat": 0.0, "type": "electric_bike", "name": "7516b62886edbf58fb23bca48b8e9903", "is_disabled": 0, "rental_uris": {"ios": "https://dc.lft.to/lastmile_qr_scan", "android": "https://dc.lft.to/lastmile_qr_scan"}, "is_reserved": 0}, {"lon": -77.02468516666667, "bike_id": "04c4fcd5140c9194dbd2b26dcc8c9a86", "lat": 38.89856183333333, "fusion_lon": 0.0, "fusion_lat": 0.0, "type": "electric_bike", "name": "04c4fcd5140c9194dbd2b26dcc8c9a86", "is_disabled": 0, "rental_uris": {"ios": "https://dc.lft.to/lastmile_qr_scan", "android": "https://dc.lft.to/lastmile_qr_scan"}, "is_reserved": 0}, {"lon": -77.058647, "bike_id": "d768300973b7f6ae83b5ef1afe8c0959", "lat": 38.936051166666665, "fusion_lon": 0.0, "fusion_lat": 0.0, "type": "electric_scooter", "name": "d768300973b7f6ae83b5ef1afe8c0959", "is_disabled": 0, "rental_uris": {"ios": "https://dc.lft.to/lastmile_qr_scan", "android": "https://dc.lft.to/lastmile_qr_scan"}, "is_reserved": 0}, {"lon": -76.98349433333334, "bike_id": "eaf4b8a19ec2f3c6236485dfff70139d", "lat": 38.9045225, "fusion_lon": 0.0, "fusion_lat": 0.0, "type": "electric_scooter", "name": "eaf4b8a19ec2f3c6236485dfff70139d", "is_disabled": 0, "rental_uris": {"ios": "https://dc.lft.to/lastmile_qr_scan", "android": "https://dc.lft.to/lastmile_qr_scan"}, "is_reserved": 0}, {"lon": -76.94998083333333, "bike_id": "167d5574e8811ebf67b4ce2f7ec0b247", "lat": 38.8938475, "fusion_lon": 0.0, "fusion_lat": 0.0, "type": "electric_scooter", "name": "167d5574e8811ebf67b4ce2f7ec0b247", "is_disabled": 0, "rental_uris": {"ios": "https://dc.lft.to/lastmile_qr_scan", "android": "https://dc.lft.to/lastmile_qr_scan"}, "is_reserved": 0}, {"lon": -77.01881683333333, "bike_id": "daee97b5937b4dcb5cc270ba7cdb719d", "lat": 38.87682866666667, "fusion_lon": 0.0, "fusion_lat": 0.0, "type": "electric_scooter", "name": "daee97b5937b4dcb5cc270ba7cdb719d", "is_disabled": 0, "rental_uris": {"ios": "https://dc.lft.to/lastmile_qr_scan", "android": "https://dc.lft.to/lastmile_qr_scan"}, "is_reserved": 0}, {"lon": -76.988255, "bike_id": "f3dd5a65aea7988dfbab5a765bb35911", "lat": 38.89076583333333, "fusion_lon": 0.0, "fusion_lat": 0.0, "type": "electric_scooter", "name": "f3dd5a65aea7988dfbab5a765bb35911", "is_disabled": 0, "rental_uris": {"ios": "https://dc.lft.to/lastmile_qr_scan", "android": "https://dc.lft.to/lastmile_qr_scan"}, "is_reserved": 0}, {"lon": -77.04602933333334, "bike_id": "72576af81ad740aaee0b67721900ceb3", "lat": 38.916074, "fusion_lon": 0.0, "fusion_lat": 0.0, "type": "electric_scooter", "name": "72576af81ad740aaee0b67721900ceb3", "is_disabled": 0, "rental_uris": {"ios": "https://dc.lft.to/lastmile_qr_scan", "android": "https://dc.lft.to/lastmile_qr_scan"}, "is_reserved": 0}, {"lon": -77.01367483333334, "bike_id": "1e5a764bd6ddbaffd7aa290652227021", "lat": 38.887067, "fusion_lon": 0.0, "fusion_lat": 0.0, "type": "electric_scooter", "name": "1e5a764bd6ddbaffd7aa290652227021", "is_disabled": 0, "rental_uris": {"ios": "https://dc.lft.to/lastmile_qr_scan", "android": "https://dc.lft.to/lastmile_qr_scan"}, "is_reserved": 0}, {"lon": -77.02394683333333, "bike_id": "e7328b42754950a88e59927c6231138f", "lat": 38.91994966666667, "fusion_lon": 0.0, "fusion_lat": 0.0, "type": "electric_scooter", "name": "e7328b42754950a88e59927c6231138f", "is_disabled": 0, "rental_uris": {"ios": "https://dc.lft.to/lastmile_qr_scan", "android": "https://dc.lft.to/lastmile_qr_scan"}, "is_reserved": 0}, {"lon": -77.02691533333333, "bike_id": "40ab32a0a9cad3b36a40478564c682b5", "lat": 38.90841966666667, "fusion_lon": 0.0, "fusion_lat": 0.0, "type": "electric_scooter", "name": "40ab32a0a9cad3b36a40478564c682b5", "is_disabled": 0, "rental_uris": {"ios": "https://dc.lft.to/lastmile_qr_scan", "android": "https://dc.lft.to/lastmile_qr_scan"}, "is_reserved": 0}, {"lon": -77.02923183333333, "bike_id": "760fc6a87f8c94cdd028f70a426c917b", "lat": 38.89809483333333, "fusion_lon": 0.0, "fusion_lat": 0.0, "type": "electric_scooter", "name": "760fc6a87f8c94cdd028f70a426c917b", "is_disabled": 0, "rental_uris": {"ios": "https://dc.lft.to/lastmile_qr_scan", "android": "https://dc.lft.to/lastmile_qr_scan"}, "is_reserved": 0}, {"lon": -77.053853, "bike_id": "c84d1e4ed5e176722bd3dce971300e61", "lat": 38.927336333333336, "fusion_lon": 0.0, "fusion_lat": 0.0, "type": "electric_scooter", "name": "c84d1e4ed5e176722bd3dce971300e61", "is_disabled": 0, "rental_uris": {"ios": "https://dc.lft.to/lastmile_qr_scan", "android": "https://dc.lft.to/lastmile_qr_scan"}, "is_reserved": 0}, {"lon": -76.99142683333334, "bike_id": "4fa8adcda6c60f13d564147a2d0f9b94", "lat": 38.88243216666667, "fusion_lon": 0.0, "fusion_lat": 0.0, "type": "electric_scooter", "name": "4fa8adcda6c60f13d564147a2d0f9b94", "is_disabled": 0, "rental_uris": {"ios": "https://dc.lft.to/lastmile_qr_scan", "android": "https://dc.lft.to/lastmile_qr_scan"}, "is_reserved": 0}, {"lon": -77.031984, "bike_id": "5d6d9d0ba0fbb6bcfd6e23648b9129c7", "lat": 38.93057, "fusion_lon": 0.0, "fusion_lat": 0.0, "type": "electric_scooter", "name": "5d6d9d0ba0fbb6bcfd6e23648b9129c7", "is_disabled": 0, "rental_uris": {"ios": "https://dc.lft.to/lastmile_qr_scan", "android": "https://dc.lft.to/lastmile_qr_scan"}, "is_reserved": 0}, {"lon": -77.012239, "bike_id": "fb216b853406e609058c74f4ee581676", "lat": 38.9005905, "fusion_lon": 0.0, "fusion_lat": 0.0, "type": "electric_scooter", "name": "fb216b853406e609058c74f4ee581676", "is_disabled": 0, "rental_uris": {"ios": "https://dc.lft.to/lastmile_qr_scan", "android": "https://dc.lft.to/lastmile_qr_scan"}, "is_reserved": 0}, {"lon": -77.00102183333334, "bike_id": "6f10d569aafe14a5a5109fcacca1f7cc", "lat": 38.91632416666667, "fusion_lon": 0.0, "fusion_lat": 0.0, "type": "electric_scooter", "name": "6f10d569aafe14a5a5109fcacca1f7cc", "is_disabled": 0, "rental_uris": {"ios": "https://dc.lft.to/lastmile_qr_scan", "android": "https://dc.lft.to/lastmile_qr_scan"}, "is_reserved": 0}, {"lon": -77.06561583333334, "bike_id": "614decb3ab7bd8056f4ff85ae16ae96a", "lat": 38.883337, "fusion_lon": 0.0, "fusion_lat": 0.0, "type": "electric_bike", "name": "614decb3ab7bd8056f4ff85ae16ae96a", "is_disabled": 0, "rental_uris": {"ios": "https://dc.lft.to/lastmile_qr_scan", "android": "https://dc.lft.to/lastmile_qr_scan"}, "is_reserved": 0}, {"lon": -77.048156, "bike_id": "7e5c8c265deba289019212fb34438650", "lat": 38.907306, "fusion_lon": 0.0, "fusion_lat": 0.0, "type": "electric_scooter", "name": "7e5c8c265deba289019212fb34438650", "is_disabled": 0, "rental_uris": {"ios": "https://dc.lft.to/lastmile_qr_scan", "android": "https://dc.lft.to/lastmile_qr_scan"}, "is_reserved": 0}, {"lon": -77.02086916666667, "bike_id": "da765d310c3f0509943756c33460eb97", "lat": 38.927094833333335, "fusion_lon": 0.0, "fusion_lat": 0.0, "type": "electric_scooter", "name": "da765d310c3f0509943756c33460eb97", "is_disabled": 0, "rental_uris": {"ios": "https://dc.lft.to/lastmile_qr_scan", "android": "https://dc.lft.to/lastmile_qr_scan"}, "is_reserved": 0}, {"lon": -76.99807966666667, "bike_id": "1e3a7b0acd5443e9d110dc7bd3de5a6c", "lat": 38.829177666666666, "fusion_lon": 0.0, "fusion_lat": 0.0, "type": "electric_bike", "name": "1e3a7b0acd5443e9d110dc7bd3de5a6c", "is_disabled": 0, "rental_uris": {"ios": "https://dc.lft.to/lastmile_qr_scan", "android": "https://dc.lft.to/lastmile_qr_scan"}, "is_reserved": 0}, {"lon": -77.03294633333333, "bike_id": "9cfaa7a14105c5e379a98ded760fbbca", "lat": 38.9283675, "fusion_lon": 0.0, "fusion_lat": 0.0, "type": "electric_scooter", "name": "9cfaa7a14105c5e379a98ded760fbbca", "is_disabled": 0, "rental_uris": {"ios": "https://dc.lft.to/lastmile_qr_scan", "android": "https://dc.lft.to/lastmile_qr_scan"}, "is_reserved": 0}, {"lon": -77.11707366666667, "bike_id": "31c6012b2f1bb8e2261d64186d9dd662", "lat": 38.86745583333333, "fusion_lon": 0.0, "fusion_lat": 0.0, "type": "electric_bike", "name": "31c6012b2f1bb8e2261d64186d9dd662", "is_disabled": 0, "rental_uris": {"ios": "https://dc.lft.to/lastmile_qr_scan", "android": "https://dc.lft.to/lastmile_qr_scan"}, "is_reserved": 0}, {"lon": -77.03192733333333, "bike_id": "b82833f3d5246424b6e152696da5eca9", "lat": 38.916385166666664, "fusion_lon": 0.0, "fusion_lat": 0.0, "type": "electric_scooter", "name": "b82833f3d5246424b6e152696da5eca9", "is_disabled": 0, "rental_uris": {"ios": "https://dc.lft.to/lastmile_qr_scan", "android": "https://dc.lft.to/lastmile_qr_scan"}, "is_reserved": 0}, {"lon": -77.043311, "bike_id": "6dd8fae48704f937d767487834720fc8", "lat": 38.9158315, "fusion_lon": 0.0, "fusion_lat": 0.0, "type": "electric_scooter", "name": "6dd8fae48704f937d767487834720fc8", "is_disabled": 0, "rental_uris": {"ios": "https://dc.lft.to/lastmile_qr_scan", "android": "https://dc.lft.to/lastmile_qr_scan"}, "is_reserved": 0}, {"lon": -77.04202383333333, "bike_id": "55253a0952eeecefb7130a6bf780999d", "lat": 38.92295816666667, "fusion_lon": 0.0, "fusion_lat": 0.0, "type": "electric_scooter", "name": "55253a0952eeecefb7130a6bf780999d", "is_disabled": 0, "rental_uris": {"ios": "https://dc.lft.to/lastmile_qr_scan", "android": "https://dc.lft.to/lastmile_qr_scan"}, "is_reserved": 0}, {"lon": -77.01343133333333, "bike_id": "babde358c3358011cd6988445a93de47", "lat": 38.87814633333333, "fusion_lon": 0.0, "fusion_lat": 0.0, "type": "electric_scooter", "name": "babde358c3358011cd6988445a93de47", "is_disabled": 0, "rental_uris": {"ios": "https://dc.lft.to/lastmile_qr_scan", "android": "https://dc.lft.to/lastmile_qr_scan"}, "is_reserved": 0}, {"lon": -77.038498, "bike_id": "d08befa51302696a3685e041587c6dde", "lat": 38.9068295, "fusion_lon": 0.0, "fusion_lat": 0.0, "type": "electric_scooter", "name": "d08befa51302696a3685e041587c6dde", "is_disabled": 0, "rental_uris": {"ios": "https://dc.lft.to/lastmile_qr_scan", "android": "https://dc.lft.to/lastmile_qr_scan"}, "is_reserved": 0}, {"lon": -76.98532, "bike_id": "6c876c656eb43178697f3075b42c78f8", "lat": 38.904620333333334, "fusion_lon": 0.0, "fusion_lat": 0.0, "type": "electric_scooter", "name": "6c876c656eb43178697f3075b42c78f8", "is_disabled": 0, "rental_uris": {"ios": "https://dc.lft.to/lastmile_qr_scan", "android": "https://dc.lft.to/lastmile_qr_scan"}, "is_reserved": 0}, {"lon": -77.0474465, "bike_id": "a11c4e3cad00d32f04d007cae04d6f7a", "lat": 38.917724666666665, "fusion_lon": 0.0, "fusion_lat": 0.0, "type": "electric_scooter", "name": "a11c4e3cad00d32f04d007cae04d6f7a", "is_disabled": 0, "rental_uris": {"ios": "https://dc.lft.to/lastmile_qr_scan", "android": "https://dc.lft.to/lastmile_qr_scan"}, "is_reserved": 0}, {"lon": -76.98840533333333, "bike_id": "5eeb0cd34b6530875cce5c5ffda98871", "lat": 38.90040033333333, "fusion_lon": 0.0, "fusion_lat": 0.0, "type": "electric_scooter", "name": "5eeb0cd34b6530875cce5c5ffda98871", "is_disabled": 0, "rental_uris": {"ios": "https://dc.lft.to/lastmile_qr_scan", "android": "https://dc.lft.to/lastmile_qr_scan"}, "is_reserved": 0}, {"lon": -77.04486016666667, "bike_id": "86449dbb9982b9b4f90dabc6c20903fa", "lat": 38.900155833333336, "fusion_lon": 0.0, "fusion_lat": 0.0, "type": "electric_scooter", "name": "86449dbb9982b9b4f90dabc6c20903fa", "is_disabled": 0, "rental_uris": {"ios": "https://dc.lft.to/lastmile_qr_scan", "android": "https://dc.lft.to/lastmile_qr_scan"}, "is_reserved": 0}, {"lon": -77.034701, "bike_id": "7051ecf8227d24998c958e86a55cdc80", "lat": 38.90732533333333, "fusion_lon": 0.0, "fusion_lat": 0.0, "type": "electric_scooter", "name": "7051ecf8227d24998c958e86a55cdc80", "is_disabled": 0, "rental_uris": {"ios": "https://dc.lft.to/lastmile_qr_scan", "android": "https://dc.lft.to/lastmile_qr_scan"}, "is_reserved": 0}, {"lon": -77.13098566666666, "bike_id": "98fb58ccc750775f3ba9ada17cee506d", "lat": 39.024361, "fusion_lon": 0.0, "fusion_lat": 0.0, "type": "electric_bike", "name": "98fb58ccc750775f3ba9ada17cee506d", "is_disabled": 0, "rental_uris": {"ios": "https://dc.lft.to/lastmile_qr_scan", "android": "https://dc.lft.to/lastmile_qr_scan"}, "is_reserved": 0}, {"lon": -77.03537533333333, "bike_id": "175d64c965a54a24ba98b14cd1915c0e", "lat": 38.924124166666665, "fusion_lon": 0.0, "fusion_lat": 0.0, "type": "electric_scooter", "name": "175d64c965a54a24ba98b14cd1915c0e", "is_disabled": 0, "rental_uris": {"ios": "https://dc.lft.to/lastmile_qr_scan", "android": "https://dc.lft.to/lastmile_qr_scan"}, "is_reserved": 0}, {"lon": -77.00350616666667, "bike_id": "9d9b99074873bf9332de96ed1377526d", "lat": 38.8871965, "fusion_lon": 0.0, "fusion_lat": 0.0, "type": "electric_scooter", "name": "9d9b99074873bf9332de96ed1377526d", "is_disabled": 0, "rental_uris": {"ios": "https://dc.lft.to/lastmile_qr_scan", "android": "https://dc.lft.to/lastmile_qr_scan"}, "is_reserved": 0}, {"lon": -77.029434, "bike_id": "3a7e467b303e87673a6e87fbefb32f4e", "lat": 38.92058883333333, "fusion_lon": 0.0, "fusion_lat": 0.0, "type": "electric_scooter", "name": "3a7e467b303e87673a6e87fbefb32f4e", "is_disabled": 0, "rental_uris": {"ios": "https://dc.lft.to/lastmile_qr_scan", "android": "https://dc.lft.to/lastmile_qr_scan"}, "is_reserved": 0}, {"lon": -77.0111885, "bike_id": "23da81a87712cf021cc65ce8501f5603", "lat": 38.885482, "fusion_lon": 0.0, "fusion_lat": 0.0, "type": "electric_scooter", "name": "23da81a87712cf021cc65ce8501f5603", "is_disabled": 0, "rental_uris": {"ios": "https://dc.lft.to/lastmile_qr_scan", "android": "https://dc.lft.to/lastmile_qr_scan"}, "is_reserved": 0}, {"lon": -77.0365185, "bike_id": "88ba9b6b24f95ffd3d026147c5eedc05", "lat": 38.906966, "fusion_lon": 0.0, "fusion_lat": 0.0, "type": "electric_bike", "name": "88ba9b6b24f95ffd3d026147c5eedc05", "is_disabled": 0, "rental_uris": {"ios": "https://dc.lft.to/lastmile_qr_scan", "android": "https://dc.lft.to/lastmile_qr_scan"}, "is_reserved": 0}, {"lon": -77.05628616666667, "bike_id": "81329a882a15240641c8b145df03d688", "lat": 38.96074683333333, "fusion_lon": 0.0, "fusion_lat": 0.0, "type": "electric_scooter", "name": "81329a882a15240641c8b145df03d688", "is_disabled": 0, "rental_uris": {"ios": "https://dc.lft.to/lastmile_qr_scan", "android": "https://dc.lft.to/lastmile_qr_scan"}, "is_reserved": 0}, {"lon": -76.99840383333333, "bike_id": "9440109bb818bd449bd4cd9327013db5", "lat": 38.9021695, "fusion_lon": 0.0, "fusion_lat": 0.0, "type": "electric_scooter", "name": "9440109bb818bd449bd4cd9327013db5", "is_disabled": 0, "rental_uris": {"ios": "https://dc.lft.to/lastmile_qr_scan", "android": "https://dc.lft.to/lastmile_qr_scan"}, "is_reserved": 0}, {"lon": -77.03477883333333, "bike_id": "57c51af3a8ff5ead0cb91fd024f04244", "lat": 38.9286405, "fusion_lon": 0.0, "fusion_lat": 0.0, "type": "electric_scooter", "name": "57c51af3a8ff5ead0cb91fd024f04244", "is_disabled": 0, "rental_uris": {"ios": "https://dc.lft.to/lastmile_qr_scan", "android": "https://dc.lft.to/lastmile_qr_scan"}, "is_reserved": 0}, {"lon": -77.03887716666667, "bike_id": "4e1e94ef6014794147d194b126ad7ad8", "lat": 38.91009116666667, "fusion_lon": 0.0, "fusion_lat": 0.0, "type": "electric_scooter", "name": "4e1e94ef6014794147d194b126ad7ad8", "is_disabled": 0, "rental_uris": {"ios": "https://dc.lft.to/lastmile_qr_scan", "android": "https://dc.lft.to/lastmile_qr_scan"}, "is_reserved": 0}, {"lon": -76.998624, "bike_id": "8d7fcec27aeeecd63c4d4d133700c017", "lat": 38.900267666666664, "fusion_lon": 0.0, "fusion_lat": 0.0, "type": "electric_scooter", "name": "8d7fcec27aeeecd63c4d4d133700c017", "is_disabled": 0, "rental_uris": {"ios": "https://dc.lft.to/lastmile_qr_scan", "android": "https://dc.lft.to/lastmile_qr_scan"}, "is_reserved": 0}, {"lon": -76.95370183333333, "bike_id": "79467da2bd0b93400dcedb544feed138", "lat": 38.8920095, "fusion_lon": 0.0, "fusion_lat": 0.0, "type": "electric_scooter", "name": "79467da2bd0b93400dcedb544feed138", "is_disabled": 0, "rental_uris": {"ios": "https://dc.lft.to/lastmile_qr_scan", "android": "https://dc.lft.to/lastmile_qr_scan"}, "is_reserved": 0}, {"lon": -77.045764, "bike_id": "e19478ef8adc9e1fc5ea54ff3638381d", "lat": 38.903588166666665, "fusion_lon": 0.0, "fusion_lat": 0.0, "type": "electric_scooter", "name": "e19478ef8adc9e1fc5ea54ff3638381d", "is_disabled": 0, "rental_uris": {"ios": "https://dc.lft.to/lastmile_qr_scan", "android": "https://dc.lft.to/lastmile_qr_scan"}, "is_reserved": 0}, {"lon": -76.96152216666667, "bike_id": "5f08d2b53821d16063328d234c3f940a", "lat": 38.88357333333333, "fusion_lon": 0.0, "fusion_lat": 0.0, "type": "electric_scooter", "name": "5f08d2b53821d16063328d234c3f940a", "is_disabled": 0, "rental_uris": {"ios": "https://dc.lft.to/lastmile_qr_scan", "android": "https://dc.lft.to/lastmile_qr_scan"}, "is_reserved": 0}, {"lon": -77.0420365, "bike_id": "28f34cf50fa9a953c0e14113329efaec", "lat": 38.912651333333336, "fusion_lon": 0.0, "fusion_lat": 0.0, "type": "electric_scooter", "name": "28f34cf50fa9a953c0e14113329efaec", "is_disabled": 0, "rental_uris": {"ios": "https://dc.lft.to/lastmile_qr_scan", "android": "https://dc.lft.to/lastmile_qr_scan"}, "is_reserved": 0}, {"lon": -77.038659, "bike_id": "d8667830ed4241859b7e33cb50fae15d", "lat": 38.94503233333333, "fusion_lon": 0.0, "fusion_lat": 0.0, "type": "electric_scooter", "name": "d8667830ed4241859b7e33cb50fae15d", "is_disabled": 0, "rental_uris": {"ios": "https://dc.lft.to/lastmile_qr_scan", "android": "https://dc.lft.to/lastmile_qr_scan"}, "is_reserved": 0}, {"lon": -77.00582966666667, "bike_id": "0e7dc0d9cf90a9c02a854c4d3b6ad04e", "lat": 38.8844235, "fusion_lon": 0.0, "fusion_lat": 0.0, "type": "electric_scooter", "name": "0e7dc0d9cf90a9c02a854c4d3b6ad04e", "is_disabled": 0, "rental_uris": {"ios": "https://dc.lft.to/lastmile_qr_scan", "android": "https://dc.lft.to/lastmile_qr_scan"}, "is_reserved": 0}, {"lon": -76.9678555, "bike_id": "e847a2d598f2235d33b8389a2540422a", "lat": 38.86851883333333, "fusion_lon": 0.0, "fusion_lat": 0.0, "type": "electric_scooter", "name": "e847a2d598f2235d33b8389a2540422a", "is_disabled": 0, "rental_uris": {"ios": "https://dc.lft.to/lastmile_qr_scan", "android": "https://dc.lft.to/lastmile_qr_scan"}, "is_reserved": 0}, {"lon": -76.98100566666666, "bike_id": "240838b7eb695a8288e5e270154d92c8", "lat": 38.895537833333336, "fusion_lon": 0.0, "fusion_lat": 0.0, "type": "electric_scooter", "name": "240838b7eb695a8288e5e270154d92c8", "is_disabled": 0, "rental_uris": {"ios": "https://dc.lft.to/lastmile_qr_scan", "android": "https://dc.lft.to/lastmile_qr_scan"}, "is_reserved": 0}, {"lon": -77.0377625, "bike_id": "999ff8c0b3edab27f280cf3c32c33995", "lat": 38.929659, "fusion_lon": 0.0, "fusion_lat": 0.0, "type": "electric_scooter", "name": "999ff8c0b3edab27f280cf3c32c33995", "is_disabled": 0, "rental_uris": {"ios": "https://dc.lft.to/lastmile_qr_scan", "android": "https://dc.lft.to/lastmile_qr_scan"}, "is_reserved": 0}, {"lon": -76.98847916666666, "bike_id": "055f7b7a2b00bfea8ae9c96182b09d0b", "lat": 38.9004175, "fusion_lon": 0.0, "fusion_lat": 0.0, "type": "electric_scooter", "name": "055f7b7a2b00bfea8ae9c96182b09d0b", "is_disabled": 0, "rental_uris": {"ios": "https://dc.lft.to/lastmile_qr_scan", "android": "https://dc.lft.to/lastmile_qr_scan"}, "is_reserved": 0}, {"lon": -77.0260045, "bike_id": "0520b6111a1f4e4703afdb7072eaef81", "lat": 38.90495216666667, "fusion_lon": 0.0, "fusion_lat": 0.0, "type": "electric_scooter", "name": "0520b6111a1f4e4703afdb7072eaef81", "is_disabled": 0, "rental_uris": {"ios": "https://dc.lft.to/lastmile_qr_scan", "android": "https://dc.lft.to/lastmile_qr_scan"}, "is_reserved": 0}, {"lon": -77.036787, "bike_id": "5d919fe7d634ad845f353486d01a5d80", "lat": 38.918733833333334, "fusion_lon": 0.0, "fusion_lat": 0.0, "type": "electric_scooter", "name": "5d919fe7d634ad845f353486d01a5d80", "is_disabled": 0, "rental_uris": {"ios": "https://dc.lft.to/lastmile_qr_scan", "android": "https://dc.lft.to/lastmile_qr_scan"}, "is_reserved": 0}, {"lon": -77.021467, "bike_id": "0e57376131e4781c3e14b5dc73fdf6d0", "lat": 38.89405716666667, "fusion_lon": 0.0, "fusion_lat": 0.0, "type": "electric_scooter", "name": "0e57376131e4781c3e14b5dc73fdf6d0", "is_disabled": 0, "rental_uris": {"ios": "https://dc.lft.to/lastmile_qr_scan", "android": "https://dc.lft.to/lastmile_qr_scan"}, "is_reserved": 0}, {"lon": -76.9893445, "bike_id": "6bfb7dbeccd992e0da4024871db55d00", "lat": 38.918362, "fusion_lon": 0.0, "fusion_lat": 0.0, "type": "electric_scooter", "name": "6bfb7dbeccd992e0da4024871db55d00", "is_disabled": 0, "rental_uris": {"ios": "https://dc.lft.to/lastmile_qr_scan", "android": "https://dc.lft.to/lastmile_qr_scan"}, "is_reserved": 0}, {"lon": -77.0194565, "bike_id": "0e8267c6faa34b428bb414ee224ddbec", "lat": 38.924072833333334, "fusion_lon": 0.0, "fusion_lat": 0.0, "type": "electric_scooter", "name": "0e8267c6faa34b428bb414ee224ddbec", "is_disabled": 0, "rental_uris": {"ios": "https://dc.lft.to/lastmile_qr_scan", "android": "https://dc.lft.to/lastmile_qr_scan"}, "is_reserved": 0}, {"lon": -77.04996166666666, "bike_id": "2a81ff7c4ff6481423c15bbfccad0b50", "lat": 38.892301833333335, "fusion_lon": 0.0, "fusion_lat": 0.0, "type": "electric_scooter", "name": "2a81ff7c4ff6481423c15bbfccad0b50", "is_disabled": 0, "rental_uris": {"ios": "https://dc.lft.to/lastmile_qr_scan", "android": "https://dc.lft.to/lastmile_qr_scan"}, "is_reserved": 0}, {"lon": -77.04351333333334, "bike_id": "68da98938059c2554bfa250e3034e8cd", "lat": 38.908009166666666, "fusion_lon": 0.0, "fusion_lat": 0.0, "type": "electric_scooter", "name": "68da98938059c2554bfa250e3034e8cd", "is_disabled": 0, "rental_uris": {"ios": "https://dc.lft.to/lastmile_qr_scan", "android": "https://dc.lft.to/lastmile_qr_scan"}, "is_reserved": 0}, {"lon": -77.05150066666667, "bike_id": "36ef7dd5fb70b9b05aec16cca770e9d9", "lat": 38.898636, "fusion_lon": 0.0, "fusion_lat": 0.0, "type": "electric_scooter", "name": "36ef7dd5fb70b9b05aec16cca770e9d9", "is_disabled": 0, "rental_uris": {"ios": "https://dc.lft.to/lastmile_qr_scan", "android": "https://dc.lft.to/lastmile_qr_scan"}, "is_reserved": 0}, {"lon": -77.03267633333333, "bike_id": "e7968b6372fcf32855f77f475383326e", "lat": 38.9293305, "fusion_lon": 0.0, "fusion_lat": 0.0, "type": "electric_scooter", "name": "e7968b6372fcf32855f77f475383326e", "is_disabled": 0, "rental_uris": {"ios": "https://dc.lft.to/lastmile_qr_scan", "android": "https://dc.lft.to/lastmile_qr_scan"}, "is_reserved": 0}, {"lon": -77.04343233333333, "bike_id": "2b589cb40bd687b1ddbfc36874fce5c8", "lat": 38.908347, "fusion_lon": 0.0, "fusion_lat": 0.0, "type": "electric_scooter", "name": "2b589cb40bd687b1ddbfc36874fce5c8", "is_disabled": 0, "rental_uris": {"ios": "https://dc.lft.to/lastmile_qr_scan", "android": "https://dc.lft.to/lastmile_qr_scan"}, "is_reserved": 0}, {"lon": -77.03489516666667, "bike_id": "19838011727abaad43c830381271d175", "lat": 38.91859933333333, "fusion_lon": 0.0, "fusion_lat": 0.0, "type": "electric_scooter", "name": "19838011727abaad43c830381271d175", "is_disabled": 0, "rental_uris": {"ios": "https://dc.lft.to/lastmile_qr_scan", "android": "https://dc.lft.to/lastmile_qr_scan"}, "is_reserved": 0}, {"lon": -77.00167233333333, "bike_id": "4227ed0858bcd42fcdef626824e92f65", "lat": 38.90744816666667, "fusion_lon": 0.0, "fusion_lat": 0.0, "type": "electric_scooter", "name": "4227ed0858bcd42fcdef626824e92f65", "is_disabled": 0, "rental_uris": {"ios": "https://dc.lft.to/lastmile_qr_scan", "android": "https://dc.lft.to/lastmile_qr_scan"}, "is_reserved": 0}, {"lon": -77.022472, "bike_id": "58050da1506d210f55ef3f403b3a488a", "lat": 38.9209625, "fusion_lon": 0.0, "fusion_lat": 0.0, "type": "electric_scooter", "name": "58050da1506d210f55ef3f403b3a488a", "is_disabled": 0, "rental_uris": {"ios": "https://dc.lft.to/lastmile_qr_scan", "android": "https://dc.lft.to/lastmile_qr_scan"}, "is_reserved": 0}, {"lon": -77.03127033333334, "bike_id": "28983049f55ec5452cb7ad6008d29b00", "lat": 38.914984833333335, "fusion_lon": 0.0, "fusion_lat": 0.0, "type": "electric_scooter", "name": "28983049f55ec5452cb7ad6008d29b00", "is_disabled": 0, "rental_uris": {"ios": "https://dc.lft.to/lastmile_qr_scan", "android": "https://dc.lft.to/lastmile_qr_scan"}, "is_reserved": 0}, {"lon": -77.0153945, "bike_id": "491477f707ef6bad0be3de30f9692863", "lat": 38.887407333333336, "fusion_lon": 0.0, "fusion_lat": 0.0, "type": "electric_scooter", "name": "491477f707ef6bad0be3de30f9692863", "is_disabled": 0, "rental_uris": {"ios": "https://dc.lft.to/lastmile_qr_scan", "android": "https://dc.lft.to/lastmile_qr_scan"}, "is_reserved": 0}, {"lon": -77.0102115, "bike_id": "0da5062d69a9643e7dc3ef93ffccd465", "lat": 38.917107333333334, "fusion_lon": 0.0, "fusion_lat": 0.0, "type": "electric_scooter", "name": "0da5062d69a9643e7dc3ef93ffccd465", "is_disabled": 0, "rental_uris": {"ios": "https://dc.lft.to/lastmile_qr_scan", "android": "https://dc.lft.to/lastmile_qr_scan"}, "is_reserved": 0}, {"lon": -76.94964516666667, "bike_id": "1b0a3b2e7d3d6f865e59c32c4bba1904", "lat": 38.9049815, "fusion_lon": 0.0, "fusion_lat": 0.0, "type": "electric_scooter", "name": "1b0a3b2e7d3d6f865e59c32c4bba1904", "is_disabled": 0, "rental_uris": {"ios": "https://dc.lft.to/lastmile_qr_scan", "android": "https://dc.lft.to/lastmile_qr_scan"}, "is_reserved": 0}, {"lon": -77.04257266666667, "bike_id": "327695f97bc20274a5ae219f6f6203ea", "lat": 38.91038183333333, "fusion_lon": 0.0, "fusion_lat": 0.0, "type": "electric_scooter", "name": "327695f97bc20274a5ae219f6f6203ea", "is_disabled": 0, "rental_uris": {"ios": "https://dc.lft.to/lastmile_qr_scan", "android": "https://dc.lft.to/lastmile_qr_scan"}, "is_reserved": 0}, {"lon": -77.00734966666667, "bike_id": "46bf4a1c1b99ec77baa5aa65c8f20e33", "lat": 38.925394833333335, "fusion_lon": 0.0, "fusion_lat": 0.0, "type": "electric_scooter", "name": "46bf4a1c1b99ec77baa5aa65c8f20e33", "is_disabled": 0, "rental_uris": {"ios": "https://dc.lft.to/lastmile_qr_scan", "android": "https://dc.lft.to/lastmile_qr_scan"}, "is_reserved": 0}, {"lon": -76.957576, "bike_id": "95e2f07b54e1ee3e6302c9d704973cd9", "lat": 38.884313, "fusion_lon": 0.0, "fusion_lat": 0.0, "type": "electric_scooter", "name": "95e2f07b54e1ee3e6302c9d704973cd9", "is_disabled": 0, "rental_uris": {"ios": "https://dc.lft.to/lastmile_qr_scan", "android": "https://dc.lft.to/lastmile_qr_scan"}, "is_reserved": 0}, {"lon": -77.03229816666666, "bike_id": "77b28b9174df64160de7a1f30dfd4f7e", "lat": 38.928595666666666, "fusion_lon": 0.0, "fusion_lat": 0.0, "type": "electric_scooter", "name": "77b28b9174df64160de7a1f30dfd4f7e", "is_disabled": 0, "rental_uris": {"ios": "https://dc.lft.to/lastmile_qr_scan", "android": "https://dc.lft.to/lastmile_qr_scan"}, "is_reserved": 0}, {"lon": -77.030607, "bike_id": "519d22ce6fe46427838375cc55c0fa00", "lat": 38.930968, "fusion_lon": 0.0, "fusion_lat": 0.0, "type": "electric_scooter", "name": "519d22ce6fe46427838375cc55c0fa00", "is_disabled": 0, "rental_uris": {"ios": "https://dc.lft.to/lastmile_qr_scan", "android": "https://dc.lft.to/lastmile_qr_scan"}, "is_reserved": 0}, {"lon": -77.08958233333334, "bike_id": "8b5cf6780beac0a9f52d40b0cd407bb0", "lat": 38.842931, "fusion_lon": 0.0, "fusion_lat": 0.0, "type": "electric_bike", "name": "8b5cf6780beac0a9f52d40b0cd407bb0", "is_disabled": 0, "rental_uris": {"ios": "https://dc.lft.to/lastmile_qr_scan", "android": "https://dc.lft.to/lastmile_qr_scan"}, "is_reserved": 0}, {"lon": -77.028284, "bike_id": "34be9440db7d158cfe42fa168cb8a403", "lat": 38.932391333333335, "fusion_lon": 0.0, "fusion_lat": 0.0, "type": "electric_scooter", "name": "34be9440db7d158cfe42fa168cb8a403", "is_disabled": 0, "rental_uris": {"ios": "https://dc.lft.to/lastmile_qr_scan", "android": "https://dc.lft.to/lastmile_qr_scan"}, "is_reserved": 0}, {"lon": -77.12529016666667, "bike_id": "a196685322e28415cff825ab0dbdd3da", "lat": 39.05637616666667, "fusion_lon": 0.0, "fusion_lat": 0.0, "type": "electric_bike", "name": "a196685322e28415cff825ab0dbdd3da", "is_disabled": 0, "rental_uris": {"ios": "https://dc.lft.to/lastmile_qr_scan", "android": "https://dc.lft.to/lastmile_qr_scan"}, "is_reserved": 0}, {"lon": -77.05907766666667, "bike_id": "16dfbb176d50aabf378cda8fd0543bdd", "lat": 38.903557166666666, "fusion_lon": 0.0, "fusion_lat": 0.0, "type": "electric_scooter", "name": "16dfbb176d50aabf378cda8fd0543bdd", "is_disabled": 0, "rental_uris": {"ios": "https://dc.lft.to/lastmile_qr_scan", "android": "https://dc.lft.to/lastmile_qr_scan"}, "is_reserved": 0}, {"lon": -76.99231733333333, "bike_id": "b2046cbb8b69c17e9d3b6bb9b8d10c83", "lat": 38.904838833333336, "fusion_lon": 0.0, "fusion_lat": 0.0, "type": "electric_scooter", "name": "b2046cbb8b69c17e9d3b6bb9b8d10c83", "is_disabled": 0, "rental_uris": {"ios": "https://dc.lft.to/lastmile_qr_scan", "android": "https://dc.lft.to/lastmile_qr_scan"}, "is_reserved": 0}, {"lon": -77.03623633333333, "bike_id": "4fbaa981e3204abb219a0c0e5a7f5899", "lat": 38.93161666666666, "fusion_lon": 0.0, "fusion_lat": 0.0, "type": "electric_scooter", "name": "4fbaa981e3204abb219a0c0e5a7f5899", "is_disabled": 0, "rental_uris": {"ios": "https://dc.lft.to/lastmile_qr_scan", "android": "https://dc.lft.to/lastmile_qr_scan"}, "is_reserved": 0}, {"lon": -77.00156883333334, "bike_id": "2d39a3edef241c63daae7ab10064251e", "lat": 38.875002333333335, "fusion_lon": 0.0, "fusion_lat": 0.0, "type": "electric_scooter", "name": "2d39a3edef241c63daae7ab10064251e", "is_disabled": 0, "rental_uris": {"ios": "https://dc.lft.to/lastmile_qr_scan", "android": "https://dc.lft.to/lastmile_qr_scan"}, "is_reserved": 0}, {"lon": -77.00317466666667, "bike_id": "5c011d72efbbda923d7d23049ad06231", "lat": 38.918958, "fusion_lon": 0.0, "fusion_lat": 0.0, "type": "electric_scooter", "name": "5c011d72efbbda923d7d23049ad06231", "is_disabled": 0, "rental_uris": {"ios": "https://dc.lft.to/lastmile_qr_scan", "android": "https://dc.lft.to/lastmile_qr_scan"}, "is_reserved": 0}, {"lon": -77.02742583333334, "bike_id": "37bfab4785a26c138e92cae48e1cc1b3", "lat": 38.88145883333333, "fusion_lon": 0.0, "fusion_lat": 0.0, "type": "electric_scooter", "name": "37bfab4785a26c138e92cae48e1cc1b3", "is_disabled": 0, "rental_uris": {"ios": "https://dc.lft.to/lastmile_qr_scan", "android": "https://dc.lft.to/lastmile_qr_scan"}, "is_reserved": 0}, {"lon": -77.03165516666667, "bike_id": "70b27bf171075174986f42f9e29cb738", "lat": 38.896111833333336, "fusion_lon": 0.0, "fusion_lat": 0.0, "type": "electric_scooter", "name": "70b27bf171075174986f42f9e29cb738", "is_disabled": 0, "rental_uris": {"ios": "https://dc.lft.to/lastmile_qr_scan", "android": "https://dc.lft.to/lastmile_qr_scan"}, "is_reserved": 0}, {"lon": -77.02959966666667, "bike_id": "9ad09ed584c8f7baef9c3e93077d708e", "lat": 38.90497766666667, "fusion_lon": 0.0, "fusion_lat": 0.0, "type": "electric_scooter", "name": "9ad09ed584c8f7baef9c3e93077d708e", "is_disabled": 0, "rental_uris": {"ios": "https://dc.lft.to/lastmile_qr_scan", "android": "https://dc.lft.to/lastmile_qr_scan"}, "is_reserved": 0}, {"lon": -77.02404433333334, "bike_id": "07d14c63ae07ca6d6d9afd833e6a55bb", "lat": 38.915249, "fusion_lon": 0.0, "fusion_lat": 0.0, "type": "electric_scooter", "name": "07d14c63ae07ca6d6d9afd833e6a55bb", "is_disabled": 0, "rental_uris": {"ios": "https://dc.lft.to/lastmile_qr_scan", "android": "https://dc.lft.to/lastmile_qr_scan"}, "is_reserved": 0}, {"lon": -76.97627883333334, "bike_id": "6735798c6fbf1cb15e1fba8af417927e", "lat": 38.905706, "fusion_lon": 0.0, "fusion_lat": 0.0, "type": "electric_scooter", "name": "6735798c6fbf1cb15e1fba8af417927e", "is_disabled": 0, "rental_uris": {"ios": "https://dc.lft.to/lastmile_qr_scan", "android": "https://dc.lft.to/lastmile_qr_scan"}, "is_reserved": 0}, {"lon": -77.02284233333333, "bike_id": "f963c012195ce5803a4c11de323fa794", "lat": 38.91660566666667, "fusion_lon": 0.0, "fusion_lat": 0.0, "type": "electric_scooter", "name": "f963c012195ce5803a4c11de323fa794", "is_disabled": 0, "rental_uris": {"ios": "https://dc.lft.to/lastmile_qr_scan", "android": "https://dc.lft.to/lastmile_qr_scan"}, "is_reserved": 0}, {"lon": -77.07453183333334, "bike_id": "4cf9881d6e7f69003a835232a6b297bb", "lat": 38.945103333333336, "fusion_lon": 0.0, "fusion_lat": 0.0, "type": "electric_scooter", "name": "4cf9881d6e7f69003a835232a6b297bb", "is_disabled": 0, "rental_uris": {"ios": "https://dc.lft.to/lastmile_qr_scan", "android": "https://dc.lft.to/lastmile_qr_scan"}, "is_reserved": 0}, {"lon": -77.0443315, "bike_id": "59c07d6fbd02533279cf786215604443", "lat": 38.921656, "fusion_lon": 0.0, "fusion_lat": 0.0, "type": "electric_scooter", "name": "59c07d6fbd02533279cf786215604443", "is_disabled": 0, "rental_uris": {"ios": "https://dc.lft.to/lastmile_qr_scan", "android": "https://dc.lft.to/lastmile_qr_scan"}, "is_reserved": 0}, {"lon": -77.01416366666666, "bike_id": "b8fa2ce6b24df9d1c308829d8b806d44", "lat": 38.92858733333333, "fusion_lon": 0.0, "fusion_lat": 0.0, "type": "electric_scooter", "name": "b8fa2ce6b24df9d1c308829d8b806d44", "is_disabled": 0, "rental_uris": {"ios": "https://dc.lft.to/lastmile_qr_scan", "android": "https://dc.lft.to/lastmile_qr_scan"}, "is_reserved": 0}, {"lon": -76.97727366666666, "bike_id": "e823ff4d22d3a51d0a4839dc19cbf9de", "lat": 38.872885, "fusion_lon": 0.0, "fusion_lat": 0.0, "type": "electric_scooter", "name": "e823ff4d22d3a51d0a4839dc19cbf9de", "is_disabled": 0, "rental_uris": {"ios": "https://dc.lft.to/lastmile_qr_scan", "android": "https://dc.lft.to/lastmile_qr_scan"}, "is_reserved": 0}, {"lon": -77.03854966666667, "bike_id": "93784f4f9710f095ba9ad244568b814e", "lat": 38.932008333333336, "fusion_lon": 0.0, "fusion_lat": 0.0, "type": "electric_scooter", "name": "93784f4f9710f095ba9ad244568b814e", "is_disabled": 0, "rental_uris": {"ios": "https://dc.lft.to/lastmile_qr_scan", "android": "https://dc.lft.to/lastmile_qr_scan"}, "is_reserved": 0}, {"lon": -77.04008516666667, "bike_id": "2e1dda24c724f6f22769814326909dd1", "lat": 38.910023833333334, "fusion_lon": 0.0, "fusion_lat": 0.0, "type": "electric_scooter", "name": "2e1dda24c724f6f22769814326909dd1", "is_disabled": 0, "rental_uris": {"ios": "https://dc.lft.to/lastmile_qr_scan", "android": "https://dc.lft.to/lastmile_qr_scan"}, "is_reserved": 0}, {"lon": -77.04038316666667, "bike_id": "a55e6555e9537334fd24ea04bb5968c8", "lat": 38.918598, "fusion_lon": 0.0, "fusion_lat": 0.0, "type": "electric_scooter", "name": "a55e6555e9537334fd24ea04bb5968c8", "is_disabled": 0, "rental_uris": {"ios": "https://dc.lft.to/lastmile_qr_scan", "android": "https://dc.lft.to/lastmile_qr_scan"}, "is_reserved": 0}, {"lon": -77.03207183333333, "bike_id": "dbb22524de4afd85c52cb3feb0579062", "lat": 38.939703333333334, "fusion_lon": 0.0, "fusion_lat": 0.0, "type": "electric_scooter", "name": "dbb22524de4afd85c52cb3feb0579062", "is_disabled": 0, "rental_uris": {"ios": "https://dc.lft.to/lastmile_qr_scan", "android": "https://dc.lft.to/lastmile_qr_scan"}, "is_reserved": 0}, {"lon": -77.02798233333333, "bike_id": "0e5d544c192fff670d8c64b4bbfc3c13", "lat": 38.9353655, "fusion_lon": 0.0, "fusion_lat": 0.0, "type": "electric_scooter", "name": "0e5d544c192fff670d8c64b4bbfc3c13", "is_disabled": 0, "rental_uris": {"ios": "https://dc.lft.to/lastmile_qr_scan", "android": "https://dc.lft.to/lastmile_qr_scan"}, "is_reserved": 0}, {"lon": -77.02024466666667, "bike_id": "3be2058c85ad2af228da5dbd262d6720", "lat": 38.901456333333336, "fusion_lon": 0.0, "fusion_lat": 0.0, "type": "electric_scooter", "name": "3be2058c85ad2af228da5dbd262d6720", "is_disabled": 0, "rental_uris": {"ios": "https://dc.lft.to/lastmile_qr_scan", "android": "https://dc.lft.to/lastmile_qr_scan"}, "is_reserved": 0}, {"lon": -77.04431383333333, "bike_id": "5af482d1cd20c60b984d0c3a906f84dc", "lat": 38.92132866666667, "fusion_lon": 0.0, "fusion_lat": 0.0, "type": "electric_scooter", "name": "5af482d1cd20c60b984d0c3a906f84dc", "is_disabled": 0, "rental_uris": {"ios": "https://dc.lft.to/lastmile_qr_scan", "android": "https://dc.lft.to/lastmile_qr_scan"}, "is_reserved": 0}, {"lon": -76.98178883333334, "bike_id": "a787e4f83b80c104ce537dae891429df", "lat": 38.89575083333333, "fusion_lon": 0.0, "fusion_lat": 0.0, "type": "electric_scooter", "name": "a787e4f83b80c104ce537dae891429df", "is_disabled": 0, "rental_uris": {"ios": "https://dc.lft.to/lastmile_qr_scan", "android": "https://dc.lft.to/lastmile_qr_scan"}, "is_reserved": 0}, {"lon": -76.933705, "bike_id": "d2361b0c8f7f5aa4be2131fe965df425", "lat": 38.89915466666667, "fusion_lon": 0.0, "fusion_lat": 0.0, "type": "electric_scooter", "name": "d2361b0c8f7f5aa4be2131fe965df425", "is_disabled": 0, "rental_uris": {"ios": "https://dc.lft.to/lastmile_qr_scan", "android": "https://dc.lft.to/lastmile_qr_scan"}, "is_reserved": 0}, {"lon": -77.02293583333334, "bike_id": "c8a87e786172cc7403c96d80511eda18", "lat": 38.909744833333335, "fusion_lon": 0.0, "fusion_lat": 0.0, "type": "electric_scooter", "name": "c8a87e786172cc7403c96d80511eda18", "is_disabled": 0, "rental_uris": {"ios": "https://dc.lft.to/lastmile_qr_scan", "android": "https://dc.lft.to/lastmile_qr_scan"}, "is_reserved": 0}, {"lon": -77.04339083333333, "bike_id": "e2eb59a157fe162a0a9812c1c0829a60", "lat": 38.929605333333335, "fusion_lon": 0.0, "fusion_lat": 0.0, "type": "electric_scooter", "name": "e2eb59a157fe162a0a9812c1c0829a60", "is_disabled": 0, "rental_uris": {"ios": "https://dc.lft.to/lastmile_qr_scan", "android": "https://dc.lft.to/lastmile_qr_scan"}, "is_reserved": 0}, {"lon": -77.03188166666666, "bike_id": "9922271fe6da91b2badaa852bc64e561", "lat": 38.913278166666665, "fusion_lon": 0.0, "fusion_lat": 0.0, "type": "electric_scooter", "name": "9922271fe6da91b2badaa852bc64e561", "is_disabled": 0, "rental_uris": {"ios": "https://dc.lft.to/lastmile_qr_scan", "android": "https://dc.lft.to/lastmile_qr_scan"}, "is_reserved": 0}, {"lon": -77.033397, "bike_id": "c7754cc0e3d69e776e13b7147e2acafd", "lat": 38.896504666666665, "fusion_lon": 0.0, "fusion_lat": 0.0, "type": "electric_scooter", "name": "c7754cc0e3d69e776e13b7147e2acafd", "is_disabled": 0, "rental_uris": {"ios": "https://dc.lft.to/lastmile_qr_scan", "android": "https://dc.lft.to/lastmile_qr_scan"}, "is_reserved": 0}, {"lon": -77.02286283333333, "bike_id": "11c2950835ffdce070e09b3acf4e387a", "lat": 38.909652, "fusion_lon": 0.0, "fusion_lat": 0.0, "type": "electric_scooter", "name": "11c2950835ffdce070e09b3acf4e387a", "is_disabled": 0, "rental_uris": {"ios": "https://dc.lft.to/lastmile_qr_scan", "android": "https://dc.lft.to/lastmile_qr_scan"}, "is_reserved": 0}, {"lon": -77.04098533333334, "bike_id": "0b90b0b8269fe11b19a1d9e92a74409b", "lat": 38.923715, "fusion_lon": 0.0, "fusion_lat": 0.0, "type": "electric_scooter", "name": "0b90b0b8269fe11b19a1d9e92a74409b", "is_disabled": 0, "rental_uris": {"ios": "https://dc.lft.to/lastmile_qr_scan", "android": "https://dc.lft.to/lastmile_qr_scan"}, "is_reserved": 0}, {"lon": -76.994609, "bike_id": "52248f14ee7b6261298aa984fad5df3e", "lat": 38.96615516666667, "fusion_lon": 0.0, "fusion_lat": 0.0, "type": "electric_bike", "name": "52248f14ee7b6261298aa984fad5df3e", "is_disabled": 0, "rental_uris": {"ios": "https://dc.lft.to/lastmile_qr_scan", "android": "https://dc.lft.to/lastmile_qr_scan"}, "is_reserved": 0}, {"lon": -77.008829, "bike_id": "20946c01900ad2201b694e6d95230a75", "lat": 38.90633566666666, "fusion_lon": 0.0, "fusion_lat": 0.0, "type": "electric_scooter", "name": "20946c01900ad2201b694e6d95230a75", "is_disabled": 0, "rental_uris": {"ios": "https://dc.lft.to/lastmile_qr_scan", "android": "https://dc.lft.to/lastmile_qr_scan"}, "is_reserved": 0}, {"lon": -77.00671583333333, "bike_id": "a84e3ab09910068761b35a89a513c87d", "lat": 38.87656, "fusion_lon": 0.0, "fusion_lat": 0.0, "type": "electric_scooter", "name": "a84e3ab09910068761b35a89a513c87d", "is_disabled": 0, "rental_uris": {"ios": "https://dc.lft.to/lastmile_qr_scan", "android": "https://dc.lft.to/lastmile_qr_scan"}, "is_reserved": 0}, {"lon": -77.03444166666667, "bike_id": "ab8d2bbea99baa8eb9fcc741bdfa9415", "lat": 38.90978066666667, "fusion_lon": 0.0, "fusion_lat": 0.0, "type": "electric_scooter", "name": "ab8d2bbea99baa8eb9fcc741bdfa9415", "is_disabled": 0, "rental_uris": {"ios": "https://dc.lft.to/lastmile_qr_scan", "android": "https://dc.lft.to/lastmile_qr_scan"}, "is_reserved": 0}, {"lon": -77.0312365, "bike_id": "f8e75e31569894efa03b9dc34c3fcf69", "lat": 38.91710883333333, "fusion_lon": 0.0, "fusion_lat": 0.0, "type": "electric_scooter", "name": "f8e75e31569894efa03b9dc34c3fcf69", "is_disabled": 0, "rental_uris": {"ios": "https://dc.lft.to/lastmile_qr_scan", "android": "https://dc.lft.to/lastmile_qr_scan"}, "is_reserved": 0}, {"lon": -77.000539, "bike_id": "d955757b1b2d45040e4bb26f6a000334", "lat": 38.89649216666667, "fusion_lon": 0.0, "fusion_lat": 0.0, "type": "electric_scooter", "name": "d955757b1b2d45040e4bb26f6a000334", "is_disabled": 0, "rental_uris": {"ios": "https://dc.lft.to/lastmile_qr_scan", "android": "https://dc.lft.to/lastmile_qr_scan"}, "is_reserved": 0}, {"lon": -76.99543116666666, "bike_id": "a1cca34111b20cd3040c0cf85d74eeb4", "lat": 38.86257783333333, "fusion_lon": 0.0, "fusion_lat": 0.0, "type": "electric_scooter", "name": "a1cca34111b20cd3040c0cf85d74eeb4", "is_disabled": 0, "rental_uris": {"ios": "https://dc.lft.to/lastmile_qr_scan", "android": "https://dc.lft.to/lastmile_qr_scan"}, "is_reserved": 0}, {"lon": -77.0220445, "bike_id": "318d128eb6a7efc2bba69f840cf52b9d", "lat": 38.91128166666667, "fusion_lon": 0.0, "fusion_lat": 0.0, "type": "electric_scooter", "name": "318d128eb6a7efc2bba69f840cf52b9d", "is_disabled": 0, "rental_uris": {"ios": "https://dc.lft.to/lastmile_qr_scan", "android": "https://dc.lft.to/lastmile_qr_scan"}, "is_reserved": 0}, {"lon": -77.03189133333333, "bike_id": "b2a20b3f1271689b01ff3b854cfa0480", "lat": 38.91531033333333, "fusion_lon": 0.0, "fusion_lat": 0.0, "type": "electric_scooter", "name": "b2a20b3f1271689b01ff3b854cfa0480", "is_disabled": 0, "rental_uris": {"ios": "https://dc.lft.to/lastmile_qr_scan", "android": "https://dc.lft.to/lastmile_qr_scan"}, "is_reserved": 0}, {"lon": -77.00834916666666, "bike_id": "05be04fd6e5efcaac16d81372f3c985a", "lat": 38.913406, "fusion_lon": 0.0, "fusion_lat": 0.0, "type": "electric_scooter", "name": "05be04fd6e5efcaac16d81372f3c985a", "is_disabled": 0, "rental_uris": {"ios": "https://dc.lft.to/lastmile_qr_scan", "android": "https://dc.lft.to/lastmile_qr_scan"}, "is_reserved": 0}, {"lon": -77.01318016666667, "bike_id": "2c3babc848e201b403ef1640dcd529bd", "lat": 38.87151766666667, "fusion_lon": 0.0, "fusion_lat": 0.0, "type": "electric_scooter", "name": "2c3babc848e201b403ef1640dcd529bd", "is_disabled": 0, "rental_uris": {"ios": "https://dc.lft.to/lastmile_qr_scan", "android": "https://dc.lft.to/lastmile_qr_scan"}, "is_reserved": 0}, {"lon": -77.09867816666667, "bike_id": "f3d5e7864991c5a1e7fc36910a76cef9", "lat": 38.9496585, "fusion_lon": 0.0, "fusion_lat": 0.0, "type": "electric_scooter", "name": "f3d5e7864991c5a1e7fc36910a76cef9", "is_disabled": 0, "rental_uris": {"ios": "https://dc.lft.to/lastmile_qr_scan", "android": "https://dc.lft.to/lastmile_qr_scan"}, "is_reserved": 0}, {"lon": -77.0220875, "bike_id": "b666fc1045d923d9732a0fabed016149", "lat": 38.896142166666664, "fusion_lon": 0.0, "fusion_lat": 0.0, "type": "electric_scooter", "name": "b666fc1045d923d9732a0fabed016149", "is_disabled": 0, "rental_uris": {"ios": "https://dc.lft.to/lastmile_qr_scan", "android": "https://dc.lft.to/lastmile_qr_scan"}, "is_reserved": 0}, {"lon": -76.99373966666667, "bike_id": "bc8ec55ba092e7a80d40ff5c82ea4443", "lat": 38.87970966666666, "fusion_lon": 0.0, "fusion_lat": 0.0, "type": "electric_scooter", "name": "bc8ec55ba092e7a80d40ff5c82ea4443", "is_disabled": 0, "rental_uris": {"ios": "https://dc.lft.to/lastmile_qr_scan", "android": "https://dc.lft.to/lastmile_qr_scan"}, "is_reserved": 0}, {"lon": -76.99005183333334, "bike_id": "12c458ef324b299851e2ac28630adfbe", "lat": 38.865080666666664, "fusion_lon": 0.0, "fusion_lat": 0.0, "type": "electric_scooter", "name": "12c458ef324b299851e2ac28630adfbe", "is_disabled": 0, "rental_uris": {"ios": "https://dc.lft.to/lastmile_qr_scan", "android": "https://dc.lft.to/lastmile_qr_scan"}, "is_reserved": 0}, {"lon": -77.00375066666666, "bike_id": "38120129d654074022fdfa8bc2663fa9", "lat": 38.897246, "fusion_lon": 0.0, "fusion_lat": 0.0, "type": "electric_scooter", "name": "38120129d654074022fdfa8bc2663fa9", "is_disabled": 0, "rental_uris": {"ios": "https://dc.lft.to/lastmile_qr_scan", "android": "https://dc.lft.to/lastmile_qr_scan"}, "is_reserved": 0}, {"lon": -77.0354765, "bike_id": "3ddcc943078360c509eecb29ac417d62", "lat": 38.917112833333334, "fusion_lon": 0.0, "fusion_lat": 0.0, "type": "electric_scooter", "name": "3ddcc943078360c509eecb29ac417d62", "is_disabled": 0, "rental_uris": {"ios": "https://dc.lft.to/lastmile_qr_scan", "android": "https://dc.lft.to/lastmile_qr_scan"}, "is_reserved": 0}, {"lon": -77.02108716666666, "bike_id": "c92916d697ed55ad45d188082f7613d0", "lat": 38.89735066666667, "fusion_lon": 0.0, "fusion_lat": 0.0, "type": "electric_scooter", "name": "c92916d697ed55ad45d188082f7613d0", "is_disabled": 0, "rental_uris": {"ios": "https://dc.lft.to/lastmile_qr_scan", "android": "https://dc.lft.to/lastmile_qr_scan"}, "is_reserved": 0}, {"lon": -77.03196266666667, "bike_id": "33040b81bdb87ba1d56c28e16b529dc0", "lat": 38.91681666666667, "fusion_lon": 0.0, "fusion_lat": 0.0, "type": "electric_scooter", "name": "33040b81bdb87ba1d56c28e16b529dc0", "is_disabled": 0, "rental_uris": {"ios": "https://dc.lft.to/lastmile_qr_scan", "android": "https://dc.lft.to/lastmile_qr_scan"}, "is_reserved": 0}, {"lon": -77.03197066666667, "bike_id": "4a38ab1c5c5d562c42c16e21e38d4f88", "lat": 38.91681, "fusion_lon": 0.0, "fusion_lat": 0.0, "type": "electric_scooter", "name": "4a38ab1c5c5d562c42c16e21e38d4f88", "is_disabled": 0, "rental_uris": {"ios": "https://dc.lft.to/lastmile_qr_scan", "android": "https://dc.lft.to/lastmile_qr_scan"}, "is_reserved": 0}, {"lon": -77.02213116666667, "bike_id": "ceb892e1153d9a6bc8ea7662db5ad415", "lat": 38.910476333333335, "fusion_lon": 0.0, "fusion_lat": 0.0, "type": "electric_scooter", "name": "ceb892e1153d9a6bc8ea7662db5ad415", "is_disabled": 0, "rental_uris": {"ios": "https://dc.lft.to/lastmile_qr_scan", "android": "https://dc.lft.to/lastmile_qr_scan"}, "is_reserved": 0}, {"lon": -77.0345845, "bike_id": "d6d75361f73b322cb31233b38cd3ee49", "lat": 38.93443083333333, "fusion_lon": 0.0, "fusion_lat": 0.0, "type": "electric_scooter", "name": "d6d75361f73b322cb31233b38cd3ee49", "is_disabled": 0, "rental_uris": {"ios": "https://dc.lft.to/lastmile_qr_scan", "android": "https://dc.lft.to/lastmile_qr_scan"}, "is_reserved": 0}, {"lon": -77.03444616666667, "bike_id": "e8c73848c9fdabf6ac69e5077ef8fdb7", "lat": 38.90949633333334, "fusion_lon": 0.0, "fusion_lat": 0.0, "type": "electric_scooter", "name": "e8c73848c9fdabf6ac69e5077ef8fdb7", "is_disabled": 0, "rental_uris": {"ios": "https://dc.lft.to/lastmile_qr_scan", "android": "https://dc.lft.to/lastmile_qr_scan"}, "is_reserved": 0}, {"lon": -77.02815083333333, "bike_id": "3e0ac3a4fd1cc17b888e2ac1bbaf9df1", "lat": 38.91731266666667, "fusion_lon": 0.0, "fusion_lat": 0.0, "type": "electric_scooter", "name": "3e0ac3a4fd1cc17b888e2ac1bbaf9df1", "is_disabled": 0, "rental_uris": {"ios": "https://dc.lft.to/lastmile_qr_scan", "android": "https://dc.lft.to/lastmile_qr_scan"}, "is_reserved": 0}, {"lon": -77.03463866666667, "bike_id": "fea3846de615e8bc07b39120a72de4b0", "lat": 38.908222, "fusion_lon": 0.0, "fusion_lat": 0.0, "type": "electric_scooter", "name": "fea3846de615e8bc07b39120a72de4b0", "is_disabled": 0, "rental_uris": {"ios": "https://dc.lft.to/lastmile_qr_scan", "android": "https://dc.lft.to/lastmile_qr_scan"}, "is_reserved": 0}, {"lon": -77.0482915, "bike_id": "4ed6028910e233b2518d3c4b24395790", "lat": 38.897609333333335, "fusion_lon": 0.0, "fusion_lat": 0.0, "type": "electric_scooter", "name": "4ed6028910e233b2518d3c4b24395790", "is_disabled": 0, "rental_uris": {"ios": "https://dc.lft.to/lastmile_qr_scan", "android": "https://dc.lft.to/lastmile_qr_scan"}, "is_reserved": 0}, {"lon": -76.98230333333333, "bike_id": "d174a303ab75f56ea96cff6f10a5dc6a", "lat": 38.9165825, "fusion_lon": 0.0, "fusion_lat": 0.0, "type": "electric_scooter", "name": "d174a303ab75f56ea96cff6f10a5dc6a", "is_disabled": 0, "rental_uris": {"ios": "https://dc.lft.to/lastmile_qr_scan", "android": "https://dc.lft.to/lastmile_qr_scan"}, "is_reserved": 0}, {"lon": -77.04984166666667, "bike_id": "57ff241511099d90342d5c87c03f6b0b", "lat": 38.9052095, "fusion_lon": 0.0, "fusion_lat": 0.0, "type": "electric_scooter", "name": "57ff241511099d90342d5c87c03f6b0b", "is_disabled": 0, "rental_uris": {"ios": "https://dc.lft.to/lastmile_qr_scan", "android": "https://dc.lft.to/lastmile_qr_scan"}, "is_reserved": 0}, {"lon": -77.04503533333333, "bike_id": "dd68ad603376357895a02860d438880e", "lat": 38.91105233333333, "fusion_lon": 0.0, "fusion_lat": 0.0, "type": "electric_scooter", "name": "dd68ad603376357895a02860d438880e", "is_disabled": 0, "rental_uris": {"ios": "https://dc.lft.to/lastmile_qr_scan", "android": "https://dc.lft.to/lastmile_qr_scan"}, "is_reserved": 0}, {"lon": -77.0073135, "bike_id": "a3af1153d91252de0f5ac53c1ffdbca6", "lat": 38.95958666666667, "fusion_lon": 0.0, "fusion_lat": 0.0, "type": "electric_scooter", "name": "a3af1153d91252de0f5ac53c1ffdbca6", "is_disabled": 0, "rental_uris": {"ios": "https://dc.lft.to/lastmile_qr_scan", "android": "https://dc.lft.to/lastmile_qr_scan"}, "is_reserved": 0}, {"lon": -77.01625683333333, "bike_id": "b4ab54a00e37982d0e9b53c8768ac8e0", "lat": 38.9071195, "fusion_lon": 0.0, "fusion_lat": 0.0, "type": "electric_scooter", "name": "b4ab54a00e37982d0e9b53c8768ac8e0", "is_disabled": 0, "rental_uris": {"ios": "https://dc.lft.to/lastmile_qr_scan", "android": "https://dc.lft.to/lastmile_qr_scan"}, "is_reserved": 0}, {"lon": -77.046319, "bike_id": "819d96c802aef46b8895979ed57c79a9", "lat": 38.91906316666667, "fusion_lon": 0.0, "fusion_lat": 0.0, "type": "electric_scooter", "name": "819d96c802aef46b8895979ed57c79a9", "is_disabled": 0, "rental_uris": {"ios": "https://dc.lft.to/lastmile_qr_scan", "android": "https://dc.lft.to/lastmile_qr_scan"}, "is_reserved": 0}, {"lon": -77.024861, "bike_id": "592e06dac334637aa8be3f1d2ffa6e5e", "lat": 38.938729333333335, "fusion_lon": 0.0, "fusion_lat": 0.0, "type": "electric_scooter", "name": "592e06dac334637aa8be3f1d2ffa6e5e", "is_disabled": 0, "rental_uris": {"ios": "https://dc.lft.to/lastmile_qr_scan", "android": "https://dc.lft.to/lastmile_qr_scan"}, "is_reserved": 0}, {"lon": -76.990175, "bike_id": "133a657928b31faeb2594c86d15ab302", "lat": 38.89414466666667, "fusion_lon": 0.0, "fusion_lat": 0.0, "type": "electric_scooter", "name": "133a657928b31faeb2594c86d15ab302", "is_disabled": 0, "rental_uris": {"ios": "https://dc.lft.to/lastmile_qr_scan", "android": "https://dc.lft.to/lastmile_qr_scan"}, "is_reserved": 0}, {"lon": -77.041469, "bike_id": "be60e790ee3776435130644a22ddc33c", "lat": 38.90362016666667, "fusion_lon": 0.0, "fusion_lat": 0.0, "type": "electric_scooter", "name": "be60e790ee3776435130644a22ddc33c", "is_disabled": 0, "rental_uris": {"ios": "https://dc.lft.to/lastmile_qr_scan", "android": "https://dc.lft.to/lastmile_qr_scan"}, "is_reserved": 0}, {"lon": -77.0261145, "bike_id": "31a742b7ef108686670935d1e4c2a770", "lat": 38.905665666666664, "fusion_lon": 0.0, "fusion_lat": 0.0, "type": "electric_scooter", "name": "31a742b7ef108686670935d1e4c2a770", "is_disabled": 0, "rental_uris": {"ios": "https://dc.lft.to/lastmile_qr_scan", "android": "https://dc.lft.to/lastmile_qr_scan"}, "is_reserved": 0}, {"lon": -76.974245, "bike_id": "786b8cf4cf6576e29d30eb628a4824b1", "lat": 38.9323795, "fusion_lon": 0.0, "fusion_lat": 0.0, "type": "electric_bike", "name": "786b8cf4cf6576e29d30eb628a4824b1", "is_disabled": 0, "rental_uris": {"ios": "https://dc.lft.to/lastmile_qr_scan", "android": "https://dc.lft.to/lastmile_qr_scan"}, "is_reserved": 0}, {"lon": -77.0049995, "bike_id": "c363380911ed5d208ce8c58fe1e4f8ec", "lat": 38.87917433333333, "fusion_lon": 0.0, "fusion_lat": 0.0, "type": "electric_scooter", "name": "c363380911ed5d208ce8c58fe1e4f8ec", "is_disabled": 0, "rental_uris": {"ios": "https://dc.lft.to/lastmile_qr_scan", "android": "https://dc.lft.to/lastmile_qr_scan"}, "is_reserved": 0}, {"lon": -77.02467916666667, "bike_id": "3ac1e0b360ec6e87ab396e5e4a10c5c5", "lat": 38.902396, "fusion_lon": 0.0, "fusion_lat": 0.0, "type": "electric_scooter", "name": "3ac1e0b360ec6e87ab396e5e4a10c5c5", "is_disabled": 0, "rental_uris": {"ios": "https://dc.lft.to/lastmile_qr_scan", "android": "https://dc.lft.to/lastmile_qr_scan"}, "is_reserved": 0}, {"lon": -76.996461, "bike_id": "bc562456ff84af336de7bcc9267ff306", "lat": 38.88722333333333, "fusion_lon": 0.0, "fusion_lat": 0.0, "type": "electric_scooter", "name": "bc562456ff84af336de7bcc9267ff306", "is_disabled": 0, "rental_uris": {"ios": "https://dc.lft.to/lastmile_qr_scan", "android": "https://dc.lft.to/lastmile_qr_scan"}, "is_reserved": 0}, {"lon": -77.0174615, "bike_id": "281394792a57dd07301f84582240cd8b", "lat": 38.87669833333333, "fusion_lon": 0.0, "fusion_lat": 0.0, "type": "electric_scooter", "name": "281394792a57dd07301f84582240cd8b", "is_disabled": 0, "rental_uris": {"ios": "https://dc.lft.to/lastmile_qr_scan", "android": "https://dc.lft.to/lastmile_qr_scan"}, "is_reserved": 0}, {"lon": -77.038609, "bike_id": "c96749b4793a90a0a8bb08e7e148872c", "lat": 38.912051, "fusion_lon": 0.0, "fusion_lat": 0.0, "type": "electric_scooter", "name": "c96749b4793a90a0a8bb08e7e148872c", "is_disabled": 0, "rental_uris": {"ios": "https://dc.lft.to/lastmile_qr_scan", "android": "https://dc.lft.to/lastmile_qr_scan"}, "is_reserved": 0}, {"lon": -77.0322725, "bike_id": "76fb76373ebdcd158f524c182d2c963b", "lat": 38.914062666666666, "fusion_lon": 0.0, "fusion_lat": 0.0, "type": "electric_scooter", "name": "76fb76373ebdcd158f524c182d2c963b", "is_disabled": 0, "rental_uris": {"ios": "https://dc.lft.to/lastmile_qr_scan", "android": "https://dc.lft.to/lastmile_qr_scan"}, "is_reserved": 0}, {"lon": -77.03870783333333, "bike_id": "bc8fccd7a4312fb13594a9d2cc0d164f", "lat": 38.914155, "fusion_lon": 0.0, "fusion_lat": 0.0, "type": "electric_scooter", "name": "bc8fccd7a4312fb13594a9d2cc0d164f", "is_disabled": 0, "rental_uris": {"ios": "https://dc.lft.to/lastmile_qr_scan", "android": "https://dc.lft.to/lastmile_qr_scan"}, "is_reserved": 0}, {"lon": -77.04329983333334, "bike_id": "1866c45565381ddfefd8d74adb3b7ba1", "lat": 38.918816, "fusion_lon": 0.0, "fusion_lat": 0.0, "type": "electric_scooter", "name": "1866c45565381ddfefd8d74adb3b7ba1", "is_disabled": 0, "rental_uris": {"ios": "https://dc.lft.to/lastmile_qr_scan", "android": "https://dc.lft.to/lastmile_qr_scan"}, "is_reserved": 0}, {"lon": -77.02315033333333, "bike_id": "9ae12e952f9ccbfd368c2fd18b7c1d42", "lat": 38.95522016666666, "fusion_lon": 0.0, "fusion_lat": 0.0, "type": "electric_scooter", "name": "9ae12e952f9ccbfd368c2fd18b7c1d42", "is_disabled": 0, "rental_uris": {"ios": "https://dc.lft.to/lastmile_qr_scan", "android": "https://dc.lft.to/lastmile_qr_scan"}, "is_reserved": 0}, {"lon": -76.98531083333333, "bike_id": "f98f25b035225ff61e0f8cea53c9d398", "lat": 38.8994925, "fusion_lon": 0.0, "fusion_lat": 0.0, "type": "electric_scooter", "name": "f98f25b035225ff61e0f8cea53c9d398", "is_disabled": 0, "rental_uris": {"ios": "https://dc.lft.to/lastmile_qr_scan", "android": "https://dc.lft.to/lastmile_qr_scan"}, "is_reserved": 0}, {"lon": -77.01448616666667, "bike_id": "71041171a4820f9aece3155af228c92e", "lat": 38.91256083333333, "fusion_lon": 0.0, "fusion_lat": 0.0, "type": "electric_scooter", "name": "71041171a4820f9aece3155af228c92e", "is_disabled": 0, "rental_uris": {"ios": "https://dc.lft.to/lastmile_qr_scan", "android": "https://dc.lft.to/lastmile_qr_scan"}, "is_reserved": 0}, {"lon": -76.9457365, "bike_id": "3221f6180591cddda32f469e03f32669", "lat": 38.937459, "fusion_lon": 0.0, "fusion_lat": 0.0, "type": "electric_bike", "name": "3221f6180591cddda32f469e03f32669", "is_disabled": 0, "rental_uris": {"ios": "https://dc.lft.to/lastmile_qr_scan", "android": "https://dc.lft.to/lastmile_qr_scan"}, "is_reserved": 0}, {"lon": -77.0504465, "bike_id": "6f5468ad9277d0c31cf25df632e7ad10", "lat": 38.9236625, "fusion_lon": 0.0, "fusion_lat": 0.0, "type": "electric_scooter", "name": "6f5468ad9277d0c31cf25df632e7ad10", "is_disabled": 0, "rental_uris": {"ios": "https://dc.lft.to/lastmile_qr_scan", "android": "https://dc.lft.to/lastmile_qr_scan"}, "is_reserved": 0}, {"lon": -77.02391416666667, "bike_id": "8c3b934df353ecce6f2c13e8834513e8", "lat": 38.90641683333333, "fusion_lon": 0.0, "fusion_lat": 0.0, "type": "electric_scooter", "name": "8c3b934df353ecce6f2c13e8834513e8", "is_disabled": 0, "rental_uris": {"ios": "https://dc.lft.to/lastmile_qr_scan", "android": "https://dc.lft.to/lastmile_qr_scan"}, "is_reserved": 0}, {"lon": -77.03463983333333, "bike_id": "0c979347c7549942dd2a1ac9d008828d", "lat": 38.916682, "fusion_lon": 0.0, "fusion_lat": 0.0, "type": "electric_scooter", "name": "0c979347c7549942dd2a1ac9d008828d", "is_disabled": 0, "rental_uris": {"ios": "https://dc.lft.to/lastmile_qr_scan", "android": "https://dc.lft.to/lastmile_qr_scan"}, "is_reserved": 0}, {"lon": -77.02164683333334, "bike_id": "e740d3aa0bd625ab87035f208577ce6d", "lat": 38.909709666666664, "fusion_lon": 0.0, "fusion_lat": 0.0, "type": "electric_scooter", "name": "e740d3aa0bd625ab87035f208577ce6d", "is_disabled": 0, "rental_uris": {"ios": "https://dc.lft.to/lastmile_qr_scan", "android": "https://dc.lft.to/lastmile_qr_scan"}, "is_reserved": 0}, {"lon": -77.0240795, "bike_id": "17f153151c7158daf7be38090f2db127", "lat": 38.909399, "fusion_lon": 0.0, "fusion_lat": 0.0, "type": "electric_scooter", "name": "17f153151c7158daf7be38090f2db127", "is_disabled": 0, "rental_uris": {"ios": "https://dc.lft.to/lastmile_qr_scan", "android": "https://dc.lft.to/lastmile_qr_scan"}, "is_reserved": 0}, {"lon": -77.02155433333333, "bike_id": "bacf68dc3409a5ed59d62c9c677b52b2", "lat": 38.879287, "fusion_lon": 0.0, "fusion_lat": 0.0, "type": "electric_scooter", "name": "bacf68dc3409a5ed59d62c9c677b52b2", "is_disabled": 0, "rental_uris": {"ios": "https://dc.lft.to/lastmile_qr_scan", "android": "https://dc.lft.to/lastmile_qr_scan"}, "is_reserved": 0}, {"lon": -76.981728, "bike_id": "0195f125d27c75801e062e91b88837c5", "lat": 38.9044145, "fusion_lon": 0.0, "fusion_lat": 0.0, "type": "electric_scooter", "name": "0195f125d27c75801e062e91b88837c5", "is_disabled": 0, "rental_uris": {"ios": "https://dc.lft.to/lastmile_qr_scan", "android": "https://dc.lft.to/lastmile_qr_scan"}, "is_reserved": 0}, {"lon": -77.021538, "bike_id": "31981d39d37968b07ea1315bfb2b2dd0", "lat": 38.89721183333333, "fusion_lon": 0.0, "fusion_lat": 0.0, "type": "electric_scooter", "name": "31981d39d37968b07ea1315bfb2b2dd0", "is_disabled": 0, "rental_uris": {"ios": "https://dc.lft.to/lastmile_qr_scan", "android": "https://dc.lft.to/lastmile_qr_scan"}, "is_reserved": 0}, {"lon": -76.9810455, "bike_id": "ac62c8982249d3f384c9953214a3cd99", "lat": 38.904047166666665, "fusion_lon": 0.0, "fusion_lat": 0.0, "type": "electric_scooter", "name": "ac62c8982249d3f384c9953214a3cd99", "is_disabled": 0, "rental_uris": {"ios": "https://dc.lft.to/lastmile_qr_scan", "android": "https://dc.lft.to/lastmile_qr_scan"}, "is_reserved": 0}, {"lon": -77.02269933333334, "bike_id": "ac4d50f651aad2f785cf25d2474d4c2c", "lat": 38.894648, "fusion_lon": 0.0, "fusion_lat": 0.0, "type": "electric_scooter", "name": "ac4d50f651aad2f785cf25d2474d4c2c", "is_disabled": 0, "rental_uris": {"ios": "https://dc.lft.to/lastmile_qr_scan", "android": "https://dc.lft.to/lastmile_qr_scan"}, "is_reserved": 0}, {"lon": -77.023467, "bike_id": "4146c3377f5a8e4b088cdacfb0b03577", "lat": 38.922475, "fusion_lon": 0.0, "fusion_lat": 0.0, "type": "electric_scooter", "name": "4146c3377f5a8e4b088cdacfb0b03577", "is_disabled": 0, "rental_uris": {"ios": "https://dc.lft.to/lastmile_qr_scan", "android": "https://dc.lft.to/lastmile_qr_scan"}, "is_reserved": 0}, {"lon": -76.98688916666667, "bike_id": "9b8265d61e5efc6873b857bad91de4ec", "lat": 38.912152666666664, "fusion_lon": 0.0, "fusion_lat": 0.0, "type": "electric_scooter", "name": "9b8265d61e5efc6873b857bad91de4ec", "is_disabled": 0, "rental_uris": {"ios": "https://dc.lft.to/lastmile_qr_scan", "android": "https://dc.lft.to/lastmile_qr_scan"}, "is_reserved": 0}, {"lon": -77.0344385, "bike_id": "58b0139946b26597171e88c3a4942c01", "lat": 38.90547933333333, "fusion_lon": 0.0, "fusion_lat": 0.0, "type": "electric_scooter", "name": "58b0139946b26597171e88c3a4942c01", "is_disabled": 0, "rental_uris": {"ios": "https://dc.lft.to/lastmile_qr_scan", "android": "https://dc.lft.to/lastmile_qr_scan"}, "is_reserved": 0}, {"lon": -76.99449966666667, "bike_id": "bb4711e49a407c33757b73a8b40bbb00", "lat": 38.900244666666666, "fusion_lon": 0.0, "fusion_lat": 0.0, "type": "electric_scooter", "name": "bb4711e49a407c33757b73a8b40bbb00", "is_disabled": 0, "rental_uris": {"ios": "https://dc.lft.to/lastmile_qr_scan", "android": "https://dc.lft.to/lastmile_qr_scan"}, "is_reserved": 0}, {"lon": -77.03493266666666, "bike_id": "1ee519d16dac51ad5de408f488791fbf", "lat": 38.932752, "fusion_lon": 0.0, "fusion_lat": 0.0, "type": "electric_scooter", "name": "1ee519d16dac51ad5de408f488791fbf", "is_disabled": 0, "rental_uris": {"ios": "https://dc.lft.to/lastmile_qr_scan", "android": "https://dc.lft.to/lastmile_qr_scan"}, "is_reserved": 0}, {"lon": -76.945709, "bike_id": "fafd60e80a31fec414f9d59ecb7d621e", "lat": 38.866158166666665, "fusion_lon": 0.0, "fusion_lat": 0.0, "type": "electric_bike", "name": "fafd60e80a31fec414f9d59ecb7d621e", "is_disabled": 0, "rental_uris": {"ios": "https://dc.lft.to/lastmile_qr_scan", "android": "https://dc.lft.to/lastmile_qr_scan"}, "is_reserved": 0}, {"lon": -76.9733155, "bike_id": "32b738ef5f80536cef3563589533dda0", "lat": 38.90410633333333, "fusion_lon": 0.0, "fusion_lat": 0.0, "type": "electric_scooter", "name": "32b738ef5f80536cef3563589533dda0", "is_disabled": 0, "rental_uris": {"ios": "https://dc.lft.to/lastmile_qr_scan", "android": "https://dc.lft.to/lastmile_qr_scan"}, "is_reserved": 0}, {"lon": -76.9823105, "bike_id": "9c4817d4c11fcb8fca6157c45699ed79", "lat": 38.9165625, "fusion_lon": 0.0, "fusion_lat": 0.0, "type": "electric_scooter", "name": "9c4817d4c11fcb8fca6157c45699ed79", "is_disabled": 0, "rental_uris": {"ios": "https://dc.lft.to/lastmile_qr_scan", "android": "https://dc.lft.to/lastmile_qr_scan"}, "is_reserved": 0}, {"lon": -77.002122, "bike_id": "47ae7f551716a08d5b4590bef0749da9", "lat": 38.900382666666665, "fusion_lon": 0.0, "fusion_lat": 0.0, "type": "electric_scooter", "name": "47ae7f551716a08d5b4590bef0749da9", "is_disabled": 0, "rental_uris": {"ios": "https://dc.lft.to/lastmile_qr_scan", "android": "https://dc.lft.to/lastmile_qr_scan"}, "is_reserved": 0}, {"lon": -77.077676, "bike_id": "4811b509e6327c168e6e1333a2448602", "lat": 38.95051633333333, "fusion_lon": 0.0, "fusion_lat": 0.0, "type": "electric_scooter", "name": "4811b509e6327c168e6e1333a2448602", "is_disabled": 0, "rental_uris": {"ios": "https://dc.lft.to/lastmile_qr_scan", "android": "https://dc.lft.to/lastmile_qr_scan"}, "is_reserved": 0},