{"data": {"bikes": [{"fusion_lat": 0.0, "name": "a6678b38d0522d26f0e00dedcfaf6c43", "is_disabled": 0, "rental_uris": {"android": "https://dc.lft.to/lastmile_qr_scan", "ios": "https://dc.lft.to/lastmile_qr_scan"}, "fusion_lon": 0.0, "lat": 38.923149333333335, "bike_id": "a6678b38d0522d26f0e00dedcfaf6c43", "type": "electric_scooter", "is_reserved": 0, "lon": -76.994204}, {"fusion_lat": 0.0, "name": "cfd26c09431c854f7ce484d7265265a1", "is_disabled": 0, "rental_uris": {"android": "https://dc.lft.to/lastmile_qr_scan", "ios": "https://dc.lft.to/lastmile_qr_scan"}, "fusion_lon": 0.0, "lat": 38.890148, "bike_id": "cfd26c09431c854f7ce484d7265265a1", "type": "electric_scooter", "is_reserved": 0, "lon": -76.93739016666666}, {"fusion_lat": 0.0, "name": "d6fadc88a1650b22f312734fd8836ca6", "is_disabled": 0, "rental_uris": {"android": "https://dc.lft.to/lastmile_qr_scan", "ios": "https://dc.lft.to/lastmile_qr_scan"}, "fusion_lon": 0.0, "lat": 38.91552566666667, "bike_id": "d6fadc88a1650b22f312734fd8836ca6", "type": "electric_scooter", "is_reserved": 0, "lon": -77.032432}, {"fusion_lat": 0.0, "name": "eb8c8b58d3543a07a74bb817869f94dc", "is_disabled": 0, "rental_uris": {"android": "https://dc.lft.to/lastmile_qr_scan", "ios": "https://dc.lft.to/lastmile_qr_scan"}, "fusion_lon": 0.0, "lat": 38.8896245, "bike_id": "eb8c8b58d3543a07a74bb817869f94dc", "type": "electric_scooter", "is_reserved": 0, "lon": -77.01505033333333}, {"fusion_lat": 0.0, "name": "9dd6989d2948b02bd283dfd1ce90cbb0", "is_disabled": 0, "rental_uris": {"android": "https://dc.lft.to/lastmile_qr_scan", "ios": "https://dc.lft.to/lastmile_qr_scan"}, "fusion_lon": 0.0, "lat": 38.87687016666667, "bike_id": "9dd6989d2948b02bd283dfd1ce90cbb0", "type": "electric_scooter", "is_reserved": 0, "lon": -77.01756583333334}, {"fusion_lat": 0.0, "name": "9d1baef13210481248c807776036291e", "is_disabled": 0, "rental_uris": {"android": "https://dc.lft.to/lastmile_qr_scan", "ios": "https://dc.lft.to/lastmile_qr_scan"}, "fusion_lon": 0.0, "lat": 38.8846905, "bike_id": "9d1baef13210481248c807776036291e", "type": "electric_scooter", "is_reserved": 0, "lon": -77.02437083333334}, {"fusion_lat": 0.0, "name": "1f15ee31e73201d6ce875fd07b05140b", "is_disabled": 0, "rental_uris": {"android": "https://dc.lft.to/lastmile_qr_scan", "ios": "https://dc.lft.to/lastmile_qr_scan"}, "fusion_lon": 0.0, "lat": 38.9134455, "bike_id": "1f15ee31e73201d6ce875fd07b05140b", "type": "electric_scooter", "is_reserved": 0, "lon": -77.0034505}, {"fusion_lat": 0.0, "name": "75204ccda6f4227f49c6fc8f3a5eabb2", "is_disabled": 0, "rental_uris": {"android": "https://dc.lft.to/lastmile_qr_scan", "ios": "https://dc.lft.to/lastmile_qr_scan"}, "fusion_lon": 0.0, "lat": 38.92458533333333, "bike_id": "75204ccda6f4227f49c6fc8f3a5eabb2", "type": "electric_scooter", "is_reserved": 0, "lon": -77.0240705}, {"fusion_lat": 0.0, "name": "b38defe6bddb5c450f4a6e8a57d42010", "is_disabled": 0, "rental_uris": {"android": "https://dc.lft.to/lastmile_qr_scan", "ios": "https://dc.lft.to/lastmile_qr_scan"}, "fusion_lon": 0.0, "lat": 38.903803333333336, "bike_id": "b38defe6bddb5c450f4a6e8a57d42010", "type": "electric_scooter", "is_reserved": 0, "lon": -76.98483483333334}, {"fusion_lat": 0.0, "name": "f04e867a073200dad658f9a098a3d6d1", "is_disabled": 0, "rental_uris": {"android": "https://dc.lft.to/lastmile_qr_scan", "ios": "https://dc.lft.to/lastmile_qr_scan"}, "fusion_lon": 0.0, "lat": 38.911216833333334, "bike_id": "f04e867a073200dad658f9a098a3d6d1", "type": "electric_scooter", "is_reserved": 0, "lon": -77.04227816666666}, {"fusion_lat": 0.0, "name": "2d07de3b7479dd0655b4e159359e9f87", "is_disabled": 0, "rental_uris": {"android": "https://dc.lft.to/lastmile_qr_scan", "ios": "https://dc.lft.to/lastmile_qr_scan"}, "fusion_lon": 0.0, "lat": 38.9299355, "bike_id": "2d07de3b7479dd0655b4e159359e9f87", "type": "electric_scooter", "is_reserved": 0, "lon": -77.0323355}, {"fusion_lat": 0.0, "name": "f338c5b9e690c8474eaf9ba0bae1602c", "is_disabled": 0, "rental_uris": {"android": "https://dc.lft.to/lastmile_qr_scan", "ios": "https://dc.lft.to/lastmile_qr_scan"}, "fusion_lon": 0.0, "lat": 38.90774533333333, "bike_id": "f338c5b9e690c8474eaf9ba0bae1602c", "type": "electric_scooter", "is_reserved": 0, "lon": -77.03179566666667}, {"fusion_lat": 0.0, "name": "1731c64af6fbaa970ab81e9703f5efd5", "is_disabled": 0, "rental_uris": {"android": "https://dc.lft.to/lastmile_qr_scan", "ios": "https://dc.lft.to/lastmile_qr_scan"}, "fusion_lon": 0.0, "lat": 38.92069516666667, "bike_id": "1731c64af6fbaa970ab81e9703f5efd5", "type": "electric_scooter", "is_reserved": 0, "lon": -77.02709933333334}, {"fusion_lat": 0.0, "name": "8e7a1afd15f9be8ab085d2f9a207b461", "is_disabled": 0, "rental_uris": {"android": "https://dc.lft.to/lastmile_qr_scan", "ios": "https://dc.lft.to/lastmile_qr_scan"}, "fusion_lon": 0.0, "lat": 38.92582066666667, "bike_id": "8e7a1afd15f9be8ab085d2f9a207b461", "type": "electric_scooter", "is_reserved": 0, "lon": -77.02734366666667}, {"fusion_lat": 0.0, "name": "acd03755f275e1262a57da5e2c492769", "is_disabled": 0, "rental_uris": {"android": "https://dc.lft.to/lastmile_qr_scan", "ios": "https://dc.lft.to/lastmile_qr_scan"}, "fusion_lon": 0.0, "lat": 38.90183566666666, "bike_id": "acd03755f275e1262a57da5e2c492769", "type": "electric_scooter", "is_reserved": 0, "lon": -77.0590795}, {"fusion_lat": 0.0, "name": "269f4029842a62a6f5ff0473ea69121a", "is_disabled": 0, "rental_uris": {"android": "https://dc.lft.to/lastmile_qr_scan", "ios": "https://dc.lft.to/lastmile_qr_scan"}, "fusion_lon": 0.0, "lat": 38.92369333333333, "bike_id": "269f4029842a62a6f5ff0473ea69121a", "type": "electric_scooter", "is_reserved": 0, "lon": -77.08152733333333}, {"fusion_lat": 0.0, "name": "d7dba99d00b2c6b0cc193778c3309fb6", "is_disabled": 0, "rental_uris": {"android": "https://dc.lft.to/lastmile_qr_scan", "ios": "https://dc.lft.to/lastmile_qr_scan"}, "fusion_lon": 0.0, "lat": 38.9613075, "bike_id": "d7dba99d00b2c6b0cc193778c3309fb6", "type": "electric_scooter", "is_reserved": 0, "lon": -77.02790366666666}, {"fusion_lat": 0.0, "name": "71e095267d4e0d30e93b30018f2beb8c", "is_disabled": 0, "rental_uris": {"android": "https://dc.lft.to/lastmile_qr_scan", "ios": "https://dc.lft.to/lastmile_qr_scan"}, "fusion_lon": 0.0, "lat": 38.91675716666666, "bike_id": "71e095267d4e0d30e93b30018f2beb8c", "type": "electric_scooter", "is_reserved": 0, "lon": -77.02278566666666}, {"fusion_lat": 0.0, "name": "92e29d69c70cd877fac918b0910066cd", "is_disabled": 0, "rental_uris": {"android": "https://dc.lft.to/lastmile_qr_scan", "ios": "https://dc.lft.to/lastmile_qr_scan"}, "fusion_lon": 0.0, "lat": 38.911266166666664, "bike_id": "92e29d69c70cd877fac918b0910066cd", "type": "electric_scooter", "is_reserved": 0, "lon": -77.021966}, {"fusion_lat": 0.0, "name": "5335b4384b15ef99ccaf7be292f58727", "is_disabled": 0, "rental_uris": {"android": "https://dc.lft.to/lastmile_qr_scan", "ios": "https://dc.lft.to/lastmile_qr_scan"}, "fusion_lon": 0.0, "lat": 38.900271333333336, "bike_id": "5335b4384b15ef99ccaf7be292f58727", "type": "electric_scooter", "is_reserved": 0, "lon": -76.99137916666666}, {"fusion_lat": 0.0, "name": "e1876298282a730a23ac2295f9eafcf0", "is_disabled": 0, "rental_uris": {"android": "https://dc.lft.to/lastmile_qr_scan", "ios": "https://dc.lft.to/lastmile_qr_scan"}, "fusion_lon": 0.0, "lat": 38.923467333333335, "bike_id": "e1876298282a730a23ac2295f9eafcf0", "type": "electric_scooter", "is_reserved": 0, "lon": -76.99252866666667}, {"fusion_lat": 0.0, "name": "45c2cf4296592cc21bf838256fdebe46", "is_disabled": 0, "rental_uris": {"android": "https://dc.lft.to/lastmile_qr_scan", "ios": "https://dc.lft.to/lastmile_qr_scan"}, "fusion_lon": 0.0, "lat": 38.847584833333336, "bike_id": "45c2cf4296592cc21bf838256fdebe46", "type": "electric_scooter", "is_reserved": 0, "lon": -76.9950065}, {"fusion_lat": 0.0, "name": "b865c50baceb61c2f4b65dbb3f38552f", "is_disabled": 0, "rental_uris": {"android": "https://dc.lft.to/lastmile_qr_scan", "ios": "https://dc.lft.to/lastmile_qr_scan"}, "fusion_lon": 0.0, "lat": 38.937094, "bike_id": "b865c50baceb61c2f4b65dbb3f38552f", "type": "electric_scooter", "is_reserved": 0, "lon": -77.061047}, {"fusion_lat": 0.0, "name": "a1017791140e4f06f14cada15bc0d2ed", "is_disabled": 0, "rental_uris": {"android": "https://dc.lft.to/lastmile_qr_scan", "ios": "https://dc.lft.to/lastmile_qr_scan"}, "fusion_lon": 0.0, "lat": 38.94108083333333, "bike_id": "a1017791140e4f06f14cada15bc0d2ed", "type": "electric_scooter", "is_reserved": 0, "lon": -77.0347855}, {"fusion_lat": 0.0, "name": "b55b4eb979c6c9b2be15a22c17520313", "is_disabled": 0, "rental_uris": {"android": "https://dc.lft.to/lastmile_qr_scan", "ios": "https://dc.lft.to/lastmile_qr_scan"}, "fusion_lon": 0.0, "lat": 38.901515, "bike_id": "b55b4eb979c6c9b2be15a22c17520313", "type": "electric_scooter", "is_reserved": 0, "lon": -77.04026416666666}, {"fusion_lat": 0.0, "name": "e002cada7f7a1bcb3051dc780aab655d", "is_disabled": 0, "rental_uris": {"android": "https://dc.lft.to/lastmile_qr_scan", "ios": "https://dc.lft.to/lastmile_qr_scan"}, "fusion_lon": 0.0, "lat": 38.903063833333334, "bike_id": "e002cada7f7a1bcb3051dc780aab655d", "type": "electric_scooter", "is_reserved": 0, "lon": -77.03208366666667}, {"fusion_lat": 0.0, "name": "f3017f012a3d757c897ee19aee5307ca", "is_disabled": 0, "rental_uris": {"android": "https://dc.lft.to/lastmile_qr_scan", "ios": "https://dc.lft.to/lastmile_qr_scan"}, "fusion_lon": 0.0, "lat": 38.88758766666667, "bike_id": "f3017f012a3d757c897ee19aee5307ca", "type": "electric_scooter", "is_reserved": 0, "lon": -76.997906}, {"fusion_lat": 0.0, "name": "64c5a2546595b49a37bf51aade210738", "is_disabled": 0, "rental_uris": {"android": "https://dc.lft.to/lastmile_qr_scan", "ios": "https://dc.lft.to/lastmile_qr_scan"}, "fusion_lon": 0.0, "lat": 38.93583783333333, "bike_id": "64c5a2546595b49a37bf51aade210738", "type": "electric_scooter", "is_reserved": 0, "lon": -77.02378783333333}, {"fusion_lat": 0.0, "name": "19f18e52e0d4c20f4aa6138ccb6b1b30", "is_disabled": 0, "rental_uris": {"android": "https://dc.lft.to/lastmile_qr_scan", "ios": "https://dc.lft.to/lastmile_qr_scan"}, "fusion_lon": 0.0, "lat": 38.9065945, "bike_id": "19f18e52e0d4c20f4aa6138ccb6b1b30", "type": "electric_scooter", "is_reserved": 0, "lon": -77.0294925}, {"fusion_lat": 0.0, "name": "5f59a730f60b7c34306ce6f5e243f621", "is_disabled": 0, "rental_uris": {"android": "https://dc.lft.to/lastmile_qr_scan", "ios": "https://dc.lft.to/lastmile_qr_scan"}, "fusion_lon": 0.0, "lat": 38.8898705, "bike_id": "5f59a730f60b7c34306ce6f5e243f621", "type": "electric_scooter", "is_reserved": 0, "lon": -76.92984683333333}, {"fusion_lat": 0.0, "name": "11e73d70337affa71ff424c012264161", "is_disabled": 0, "rental_uris": {"android": "https://dc.lft.to/lastmile_qr_scan", "ios": "https://dc.lft.to/lastmile_qr_scan"}, "fusion_lon": 0.0, "lat": 38.917027, "bike_id": "11e73d70337affa71ff424c012264161", "type": "electric_scooter", "is_reserved": 0, "lon": -77.02749116666666}, {"fusion_lat": 0.0, "name": "dcfbe7f428723f40193d2b6eb179c652", "is_disabled": 0, "rental_uris": {"android": "https://dc.lft.to/lastmile_qr_scan", "ios": "https://dc.lft.to/lastmile_qr_scan"}, "fusion_lon": 0.0, "lat": 38.94517283333333, "bike_id": "dcfbe7f428723f40193d2b6eb179c652", "type": "electric_scooter", "is_reserved": 0, "lon": -77.03891}, {"fusion_lat": 0.0, "name": "ba8d3116804c539a1e835669daea279f", "is_disabled": 0, "rental_uris": {"android": "https://dc.lft.to/lastmile_qr_scan", "ios": "https://dc.lft.to/lastmile_qr_scan"}, "fusion_lon": 0.0, "lat": 38.9024075, "bike_id": "ba8d3116804c539a1e835669daea279f", "type": "electric_scooter", "is_reserved": 0, "lon": -77.002027}, {"fusion_lat": 0.0, "name": "358582fdc6f8e1bf80b309a3d5352f45", "is_disabled": 0, "rental_uris": {"android": "https://dc.lft.to/lastmile_qr_scan", "ios": "https://dc.lft.to/lastmile_qr_scan"}, "fusion_lon": 0.0, "lat": 38.89897833333333, "bike_id": "358582fdc6f8e1bf80b309a3d5352f45", "type": "electric_scooter", "is_reserved": 0, "lon": -76.9806225}, {"fusion_lat": 0.0, "name": "b6c42ed4a6a1ed37bf6c51fe586eeb5f", "is_disabled": 0, "rental_uris": {"android": "https://dc.lft.to/lastmile_qr_scan", "ios": "https://dc.lft.to/lastmile_qr_scan"}, "fusion_lon": 0.0, "lat": 38.92570583333333, "bike_id": "b6c42ed4a6a1ed37bf6c51fe586eeb5f", "type": "electric_scooter", "is_reserved": 0, "lon": -77.02259883333333}, {"fusion_lat": 0.0, "name": "b01a7fab989491871ff6579d30ba5a43", "is_disabled": 0, "rental_uris": {"android": "https://dc.lft.to/lastmile_qr_scan", "ios": "https://dc.lft.to/lastmile_qr_scan"}, "fusion_lon": 0.0, "lat": 38.935497, "bike_id": "b01a7fab989491871ff6579d30ba5a43", "type": "electric_scooter", "is_reserved": 0, "lon": -77.03464266666667}, {"fusion_lat": 0.0, "name": "b4519946ea3ee79fb3230c64750456cf", "is_disabled": 0, "rental_uris": {"android": "https://dc.lft.to/lastmile_qr_scan", "ios": "https://dc.lft.to/lastmile_qr_scan"}, "fusion_lon": 0.0, "lat": 39.0705255, "bike_id": "b4519946ea3ee79fb3230c64750456cf", "type": "electric_bike", "is_reserved": 0, "lon": -77.11482866666667}, {"fusion_lat": 0.0, "name": "720cb0ff8536b68c06e66eef051436cb", "is_disabled": 0, "rental_uris": {"android": "https://dc.lft.to/lastmile_qr_scan", "ios": "https://dc.lft.to/lastmile_qr_scan"}, "fusion_lon": 0.0, "lat": 38.926371, "bike_id": "720cb0ff8536b68c06e66eef051436cb", "type": "electric_scooter", "is_reserved": 0, "lon": -77.03231066666666}, {"fusion_lat": 0.0, "name": "578378ca15040a994c6bdb0e54cafc36", "is_disabled": 0, "rental_uris": {"android": "https://dc.lft.to/lastmile_qr_scan", "ios": "https://dc.lft.to/lastmile_qr_scan"}, "fusion_lon": 0.0, "lat": 38.88742533333333, "bike_id": "578378ca15040a994c6bdb0e54cafc36", "type": "electric_scooter", "is_reserved": 0, "lon": -77.0257235}, {"fusion_lat": 0.0, "name": "8fd57f81cc68971f8f1784c9fdc78be1", "is_disabled": 0, "rental_uris": {"android": "https://dc.lft.to/lastmile_qr_scan", "ios": "https://dc.lft.to/lastmile_qr_scan"}, "fusion_lon": 0.0, "lat": 38.9241255, "bike_id": "8fd57f81cc68971f8f1784c9fdc78be1", "type": "electric_scooter", "is_reserved": 0, "lon": -77.02107583333333}, {"fusion_lat": 0.0, "name": "ebc94644668638f6b9b412befc0be698", "is_disabled": 0, "rental_uris": {"android": "https://dc.lft.to/lastmile_qr_scan", "ios": "https://dc.lft.to/lastmile_qr_scan"}, "fusion_lon": 0.0, "lat": 38.92170866666667, "bike_id": "ebc94644668638f6b9b412befc0be698", "type": "electric_scooter", "is_reserved": 0, "lon": -77.040065}, {"fusion_lat": 0.0, "name": "040bac0d148359b959bddf9e63829ba6", "is_disabled": 0, "rental_uris": {"android": "https://dc.lft.to/lastmile_qr_scan", "ios": "https://dc.lft.to/lastmile_qr_scan"}, "fusion_lon": 0.0, "lat": 38.90576016666667, "bike_id": "040bac0d148359b959bddf9e63829ba6", "type": "electric_scooter", "is_reserved": 0, "lon": -77.0220355}, {"fusion_lat": 0.0, "name": "398fe3017cc2b929b134bacbd3998866", "is_disabled": 0, "rental_uris": {"android": "https://dc.lft.to/lastmile_qr_scan", "ios": "https://dc.lft.to/lastmile_qr_scan"}, "fusion_lon": 0.0, "lat": 38.905493666666665, "bike_id": "398fe3017cc2b929b134bacbd3998866", "type": "electric_scooter", "is_reserved": 0, "lon": -77.00581516666666}, {"fusion_lat": 0.0, "name": "5e47fa053c010cb4ef96df891ac1cecd", "is_disabled": 0, "rental_uris": {"android": "https://dc.lft.to/lastmile_qr_scan", "ios": "https://dc.lft.to/lastmile_qr_scan"}, "fusion_lon": 0.0, "lat": 38.941259333333335, "bike_id": "5e47fa053c010cb4ef96df891ac1cecd", "type": "electric_scooter", "is_reserved": 0, "lon": -77.0264625}, {"fusion_lat": 0.0, "name": "fd1b2ec8539b2e90918d56a3e4880f2f", "is_disabled": 0, "rental_uris": {"android": "https://dc.lft.to/lastmile_qr_scan", "ios": "https://dc.lft.to/lastmile_qr_scan"}, "fusion_lon": 0.0, "lat": 38.905197666666666, "bike_id": "fd1b2ec8539b2e90918d56a3e4880f2f", "type": "electric_scooter", "is_reserved": 0, "lon": -77.06496166666666}, {"fusion_lat": 0.0, "name": "576971fb05b95716a8286c7e9a1f0666", "is_disabled": 0, "rental_uris": {"android": "https://dc.lft.to/lastmile_qr_scan", "ios": "https://dc.lft.to/lastmile_qr_scan"}, "fusion_lon": 0.0, "lat": 38.881224333333336, "bike_id": "576971fb05b95716a8286c7e9a1f0666", "type": "electric_scooter", "is_reserved": 0, "lon": -77.01628533333333}, {"fusion_lat": 0.0, "name": "c94a4617c5efd56c01bb0a435faf97fd", "is_disabled": 0, "rental_uris": {"android": "https://dc.lft.to/lastmile_qr_scan", "ios": "https://dc.lft.to/lastmile_qr_scan"}, "fusion_lon": 0.0, "lat": 38.902924, "bike_id": "c94a4617c5efd56c01bb0a435faf97fd", "type": "electric_scooter", "is_reserved": 0, "lon": -76.976375}, {"fusion_lat": 0.0, "name": "85d6bcd36f0966969ee362c7b34ad76c", "is_disabled": 0, "rental_uris": {"android": "https://dc.lft.to/lastmile_qr_scan", "ios": "https://dc.lft.to/lastmile_qr_scan"}, "fusion_lon": 0.0, "lat": 38.90131483333333, "bike_id": "85d6bcd36f0966969ee362c7b34ad76c", "type": "electric_scooter", "is_reserved": 0, "lon": -77.030466}, {"fusion_lat": 0.0, "name": "cf4f0cee7f9528f803cecb7e1c5237e0", "is_disabled": 0, "rental_uris": {"android": "https://dc.lft.to/lastmile_qr_scan", "ios": "https://dc.lft.to/lastmile_qr_scan"}, "fusion_lon": 0.0, "lat": 38.807608, "bike_id": "cf4f0cee7f9528f803cecb7e1c5237e0", "type": "electric_bike", "is_reserved": 0, "lon": -77.0947055}, {"fusion_lat": 0.0, "name": "10c89cf9706c0c9247aa34895f1adc90", "is_disabled": 0, "rental_uris": {"android": "https://dc.lft.to/lastmile_qr_scan", "ios": "https://dc.lft.to/lastmile_qr_scan"}, "fusion_lon": 0.0, "lat": 38.916546, "bike_id": "10c89cf9706c0c9247aa34895f1adc90", "type": "electric_scooter", "is_reserved": 0, "lon": -77.0315845}, {"fusion_lat": 0.0, "name": "d0a381148e2746ab55096237e6104a89", "is_disabled": 0, "rental_uris": {"android": "https://dc.lft.to/lastmile_qr_scan", "ios": "https://dc.lft.to/lastmile_qr_scan"}, "fusion_lon": 0.0, "lat": 38.997801833333334, "bike_id": "d0a381148e2746ab55096237e6104a89", "type": "electric_bike", "is_reserved": 0, "lon": -77.04718283333334}, {"fusion_lat": 0.0, "name": "e1af29ceefb30463670e283647242694", "is_disabled": 0, "rental_uris": {"android": "https://dc.lft.to/lastmile_qr_scan", "ios": "https://dc.lft.to/lastmile_qr_scan"}, "fusion_lon": 0.0, "lat": 38.916855166666664, "bike_id": "e1af29ceefb30463670e283647242694", "type": "electric_scooter", "is_reserved": 0, "lon": -77.02814666666667}, {"fusion_lat": 0.0, "name": "460030be349dec6af05ed90dc29273b1", "is_disabled": 0, "rental_uris": {"android": "https://dc.lft.to/lastmile_qr_scan", "ios": "https://dc.lft.to/lastmile_qr_scan"}, "fusion_lon": 0.0, "lat": 38.902747, "bike_id": "460030be349dec6af05ed90dc29273b1", "type": "electric_scooter", "is_reserved": 0, "lon": -77.0437585}, {"fusion_lat": 0.0, "name": "fd0cd178cc69361611e0d3664ddc8a8e", "is_disabled": 0, "rental_uris": {"android": "https://dc.lft.to/lastmile_qr_scan", "ios": "https://dc.lft.to/lastmile_qr_scan"}, "fusion_lon": 0.0, "lat": 38.9314655, "bike_id": "fd0cd178cc69361611e0d3664ddc8a8e", "type": "electric_scooter", "is_reserved": 0, "lon": -77.07854133333333}, {"fusion_lat": 0.0, "name": "f3167e59714472ab6dfddad6a15f5e26", "is_disabled": 0, "rental_uris": {"android": "https://dc.lft.to/lastmile_qr_scan", "ios": "https://dc.lft.to/lastmile_qr_scan"}, "fusion_lon": 0.0, "lat": 38.923185333333336, "bike_id": "f3167e59714472ab6dfddad6a15f5e26", "type": "electric_scooter", "is_reserved": 0, "lon": -77.02072}, {"fusion_lat": 0.0, "name": "8cc7a69a043ea9ad2b272b333c2a4d16", "is_disabled": 0, "rental_uris": {"android": "https://dc.lft.to/lastmile_qr_scan", "ios": "https://dc.lft.to/lastmile_qr_scan"}, "fusion_lon": 0.0, "lat": 38.90717, "bike_id": "8cc7a69a043ea9ad2b272b333c2a4d16", "type": "electric_scooter", "is_reserved": 0, "lon": -77.0481215}, {"fusion_lat": 0.0, "name": "508a759992f26ad7dfb54f893992892d", "is_disabled": 0, "rental_uris": {"android": "https://dc.lft.to/lastmile_qr_scan", "ios": "https://dc.lft.to/lastmile_qr_scan"}, "fusion_lon": 0.0, "lat": 38.9594925, "bike_id": "508a759992f26ad7dfb54f893992892d", "type": "electric_bike", "is_reserved": 0, "lon": -77.0306175}, {"fusion_lat": 0.0, "name": "5f7d0590b907bfc1b23591dc30cb7223", "is_disabled": 0, "rental_uris": {"android": "https://dc.lft.to/lastmile_qr_scan", "ios": "https://dc.lft.to/lastmile_qr_scan"}, "fusion_lon": 0.0, "lat": 38.9078525, "bike_id": "5f7d0590b907bfc1b23591dc30cb7223", "type": "electric_scooter", "is_reserved": 0, "lon": -77.04341933333333}, {"fusion_lat": 0.0, "name": "17dcdb9670c240b2d7ca9de5f716f574", "is_disabled": 0, "rental_uris": {"android": "https://dc.lft.to/lastmile_qr_scan", "ios": "https://dc.lft.to/lastmile_qr_scan"}, "fusion_lon": 0.0, "lat": 38.92407166666667, "bike_id": "17dcdb9670c240b2d7ca9de5f716f574", "type": "electric_scooter", "is_reserved": 0, "lon": -77.0200945}, {"fusion_lat": 0.0, "name": "f8f025a28586a663ea42af432e44e37a", "is_disabled": 0, "rental_uris": {"android": "https://dc.lft.to/lastmile_qr_scan", "ios": "https://dc.lft.to/lastmile_qr_scan"}, "fusion_lon": 0.0, "lat": 38.89193866666667, "bike_id": "f8f025a28586a663ea42af432e44e37a", "type": "electric_scooter", "is_reserved": 0, "lon": -76.99949833333334}, {"fusion_lat": 0.0, "name": "c6a044f459576ff57513f4deda2366e0", "is_disabled": 0, "rental_uris": {"android": "https://dc.lft.to/lastmile_qr_scan", "ios": "https://dc.lft.to/lastmile_qr_scan"}, "fusion_lon": 0.0, "lat": 38.9736535, "bike_id": "c6a044f459576ff57513f4deda2366e0", "type": "electric_scooter", "is_reserved": 0, "lon": -77.01290383333334}, {"fusion_lat": 0.0, "name": "7cfb4468e93ad398b6d56357fcde9670", "is_disabled": 0, "rental_uris": {"android": "https://dc.lft.to/lastmile_qr_scan", "ios": "https://dc.lft.to/lastmile_qr_scan"}, "fusion_lon": 0.0, "lat": 38.90080616666667, "bike_id": "7cfb4468e93ad398b6d56357fcde9670", "type": "electric_scooter", "is_reserved": 0, "lon": -77.049348}, {"fusion_lat": 0.0, "name": "076be77f1d4a52c9ba23dbeaa911b6ee", "is_disabled": 0, "rental_uris": {"android": "https://dc.lft.to/lastmile_qr_scan", "ios": "https://dc.lft.to/lastmile_qr_scan"}, "fusion_lon": 0.0, "lat": 38.88309433333333, "bike_id": "076be77f1d4a52c9ba23dbeaa911b6ee", "type": "electric_scooter", "is_reserved": 0, "lon": -77.01461583333334}, {"fusion_lat": 0.0, "name": "5f05fe8f2ef1cfee62086818bf826c05", "is_disabled": 0, "rental_uris": {"android": "https://dc.lft.to/lastmile_qr_scan", "ios": "https://dc.lft.to/lastmile_qr_scan"}, "fusion_lon": 0.0, "lat": 38.92591133333333, "bike_id": "5f05fe8f2ef1cfee62086818bf826c05", "type": "electric_scooter", "is_reserved": 0, "lon": -77.02475383333334}, {"fusion_lat": 0.0, "name": "d83e40e6389ab564c7882ba30afb7dcf", "is_disabled": 0, "rental_uris": {"android": "https://dc.lft.to/lastmile_qr_scan", "ios": "https://dc.lft.to/lastmile_qr_scan"}, "fusion_lon": 0.0, "lat": 38.92100583333333, "bike_id": "d83e40e6389ab564c7882ba30afb7dcf", "type": "electric_scooter", "is_reserved": 0, "lon": -77.04696166666666}, {"fusion_lat": 0.0, "name": "bf2b6b60e84cd3920bad5b51cd162c7d", "is_disabled": 0, "rental_uris": {"android": "https://dc.lft.to/lastmile_qr_scan", "ios": "https://dc.lft.to/lastmile_qr_scan"}, "fusion_lon": 0.0, "lat": 38.93534316666667, "bike_id": "bf2b6b60e84cd3920bad5b51cd162c7d", "type": "electric_scooter", "is_reserved": 0, "lon": -77.04516166666667}, {"fusion_lat": 0.0, "name": "1e7611b81f088e9c01e2c545f7f46c64", "is_disabled": 0, "rental_uris": {"android": "https://dc.lft.to/lastmile_qr_scan", "ios": "https://dc.lft.to/lastmile_qr_scan"}, "fusion_lon": 0.0, "lat": 38.9035565, "bike_id": "1e7611b81f088e9c01e2c545f7f46c64", "type": "electric_scooter", "is_reserved": 0, "lon": -76.97477833333333}, {"fusion_lat": 0.0, "name": "de964a492a63066362bce9d46d12288e", "is_disabled": 0, "rental_uris": {"android": "https://dc.lft.to/lastmile_qr_scan", "ios": "https://dc.lft.to/lastmile_qr_scan"}, "fusion_lon": 0.0, "lat": 38.909307, "bike_id": "de964a492a63066362bce9d46d12288e", "type": "electric_scooter", "is_reserved": 0, "lon": -77.06252}, {"fusion_lat": 0.0, "name": "5c192306c0f39d909e07004ee2781c3f", "is_disabled": 0, "rental_uris": {"android": "https://dc.lft.to/lastmile_qr_scan", "ios": "https://dc.lft.to/lastmile_qr_scan"}, "fusion_lon": 0.0, "lat": 38.90067966666667, "bike_id": "5c192306c0f39d909e07004ee2781c3f", "type": "electric_scooter", "is_reserved": 0, "lon": -77.0507365}, {"fusion_lat": 0.0, "name": "2bf50b9d45b7e5ad7433fd97507018ac", "is_disabled": 0, "rental_uris": {"android": "https://dc.lft.to/lastmile_qr_scan", "ios": "https://dc.lft.to/lastmile_qr_scan"}, "fusion_lon": 0.0, "lat": 38.93464216666667, "bike_id": "2bf50b9d45b7e5ad7433fd97507018ac", "type": "electric_scooter", "is_reserved": 0, "lon": -77.03398983333334}, {"fusion_lat": 0.0, "name": "7b3f27cc03f39f78dcf7b2f195f24d20", "is_disabled": 0, "rental_uris": {"android": "https://dc.lft.to/lastmile_qr_scan", "ios": "https://dc.lft.to/lastmile_qr_scan"}, "fusion_lon": 0.0, "lat": 38.9382395, "bike_id": "7b3f27cc03f39f78dcf7b2f195f24d20", "type": "electric_scooter", "is_reserved": 0, "lon": -77.0264685}, {"fusion_lat": 0.0, "name": "c5a108d56b8f716f3d8464755f4a6e57", "is_disabled": 0, "rental_uris": {"android": "https://dc.lft.to/lastmile_qr_scan", "ios": "https://dc.lft.to/lastmile_qr_scan"}, "fusion_lon": 0.0, "lat": 38.9388365, "bike_id": "c5a108d56b8f716f3d8464755f4a6e57", "type": "electric_scooter", "is_reserved": 0, "lon": -77.02468633333334}, {"fusion_lat": 0.0, "name": "c785924a6a795d3797a59dc11cf10a55", "is_disabled": 0, "rental_uris": {"android": "https://dc.lft.to/lastmile_qr_scan", "ios": "https://dc.lft.to/lastmile_qr_scan"}, "fusion_lon": 0.0, "lat": 38.907386333333335, "bike_id": "c785924a6a795d3797a59dc11cf10a55", "type": "electric_scooter", "is_reserved": 0, "lon": -77.00955716666667}, {"fusion_lat": 0.0, "name": "0f238d3560f53aba20b0759d1d2bc5b8", "is_disabled": 0, "rental_uris": {"android": "https://dc.lft.to/lastmile_qr_scan", "ios": "https://dc.lft.to/lastmile_qr_scan"}, "fusion_lon": 0.0, "lat": 38.89223716666667, "bike_id": "0f238d3560f53aba20b0759d1d2bc5b8", "type": "electric_scooter", "is_reserved": 0, "lon": -77.03335166666666}, {"fusion_lat": 0.0, "name": "24b8b3a68495b98b26e1d3038c01d198", "is_disabled": 0, "rental_uris": {"android": "https://dc.lft.to/lastmile_qr_scan", "ios": "https://dc.lft.to/lastmile_qr_scan"}, "fusion_lon": 0.0, "lat": 38.92922266666667, "bike_id": "24b8b3a68495b98b26e1d3038c01d198", "type": "electric_scooter", "is_reserved": 0, "lon": -77.02338833333333}, {"fusion_lat": 0.0, "name": "753c167ad80500adf5e73dc0dc3950aa", "is_disabled": 0, "rental_uris": {"android": "https://dc.lft.to/lastmile_qr_scan", "ios": "https://dc.lft.to/lastmile_qr_scan"}, "fusion_lon": 0.0, "lat": 38.923179166666664, "bike_id": "753c167ad80500adf5e73dc0dc3950aa", "type": "electric_scooter", "is_reserved": 0, "lon": -77.02034916666666}, {"fusion_lat": 0.0, "name": "7d3e2b579b50e737ab920eef6eac483e", "is_disabled": 0, "rental_uris": {"android": "https://dc.lft.to/lastmile_qr_scan", "ios": "https://dc.lft.to/lastmile_qr_scan"}, "fusion_lon": 0.0, "lat": 38.930748, "bike_id": "7d3e2b579b50e737ab920eef6eac483e", "type": "electric_scooter", "is_reserved": 0, "lon": -77.07761716666667}, {"fusion_lat": 0.0, "name": "01636defaf51fe357cdfe16fb90b8b6c", "is_disabled": 0, "rental_uris": {"android": "https://dc.lft.to/lastmile_qr_scan", "ios": "https://dc.lft.to/lastmile_qr_scan"}, "fusion_lon": 0.0, "lat": 38.90809433333333, "bike_id": "01636defaf51fe357cdfe16fb90b8b6c", "type": "electric_scooter", "is_reserved": 0, "lon": -77.03436983333333}, {"fusion_lat": 0.0, "name": "5d7aca649edd605ee91a3027786975cf", "is_disabled": 0, "rental_uris": {"android": "https://dc.lft.to/lastmile_qr_scan", "ios": "https://dc.lft.to/lastmile_qr_scan"}, "fusion_lon": 0.0, "lat": 38.90717816666667, "bike_id": "5d7aca649edd605ee91a3027786975cf", "type": "electric_scooter", "is_reserved": 0, "lon": -77.02889333333333}, {"fusion_lat": 0.0, "name": "89f2e4bcf2b090abf207500c6e2e0a2a", "is_disabled": 0, "rental_uris": {"android": "https://dc.lft.to/lastmile_qr_scan", "ios": "https://dc.lft.to/lastmile_qr_scan"}, "fusion_lon": 0.0, "lat": 38.952392333333336, "bike_id": "89f2e4bcf2b090abf207500c6e2e0a2a", "type": "electric_scooter", "is_reserved": 0, "lon": -76.9900505}, {"fusion_lat": 0.0, "name": "4797c581cab47e53cf8a2e6cc464587f", "is_disabled": 0, "rental_uris": {"android": "https://dc.lft.to/lastmile_qr_scan", "ios": "https://dc.lft.to/lastmile_qr_scan"}, "fusion_lon": 0.0, "lat": 38.921669666666666, "bike_id": "4797c581cab47e53cf8a2e6cc464587f", "type": "electric_scooter", "is_reserved": 0, "lon": -77.03371233333333}, {"fusion_lat": 0.0, "name": "1e72c0a09e7f8c8ab59e3f432cc7a1cb", "is_disabled": 0, "rental_uris": {"android": "https://dc.lft.to/lastmile_qr_scan", "ios": "https://dc.lft.to/lastmile_qr_scan"}, "fusion_lon": 0.0, "lat": 38.904074666666666, "bike_id": "1e72c0a09e7f8c8ab59e3f432cc7a1cb", "type": "electric_scooter", "is_reserved": 0, "lon": -76.99007866666666}, {"fusion_lat": 0.0, "name": "72b82c24aafa99d69e31c1f37f196b19", "is_disabled": 0, "rental_uris": {"android": "https://dc.lft.to/lastmile_qr_scan", "ios": "https://dc.lft.to/lastmile_qr_scan"}, "fusion_lon": 0.0, "lat": 38.93525416666667, "bike_id": "72b82c24aafa99d69e31c1f37f196b19", "type": "electric_scooter", "is_reserved": 0, "lon": -77.0326205}, {"fusion_lat": 0.0, "name": "e708580cc2a3b12c998d77c74bd64fd3", "is_disabled": 0, "rental_uris": {"android": "https://dc.lft.to/lastmile_qr_scan", "ios": "https://dc.lft.to/lastmile_qr_scan"}, "fusion_lon": 0.0, "lat": 38.907335, "bike_id": "e708580cc2a3b12c998d77c74bd64fd3", "type": "electric_scooter", "is_reserved": 0, "lon": -77.01223283333333}, {"fusion_lat": 0.0, "name": "32380906c965d61ff0467c18c8e67293", "is_disabled": 0, "rental_uris": {"android": "https://dc.lft.to/lastmile_qr_scan", "ios": "https://dc.lft.to/lastmile_qr_scan"}, "fusion_lon": 0.0, "lat": 38.904085, "bike_id": "32380906c965d61ff0467c18c8e67293", "type": "electric_scooter", "is_reserved": 0, "lon": -76.97330733333334}, {"fusion_lat": 0.0, "name": "4db643bfe3db20a6a60988367443d28f", "is_disabled": 0, "rental_uris": {"android": "https://dc.lft.to/lastmile_qr_scan", "ios": "https://dc.lft.to/lastmile_qr_scan"}, "fusion_lon": 0.0, "lat": 38.9025875, "bike_id": "4db643bfe3db20a6a60988367443d28f", "type": "electric_scooter", "is_reserved": 0, "lon": -76.97453333333333}, {"fusion_lat": 0.0, "name": "05b4887a6adfdb46f8eb727200f847b4", "is_disabled": 0, "rental_uris": {"android": "https://dc.lft.to/lastmile_qr_scan", "ios": "https://dc.lft.to/lastmile_qr_scan"}, "fusion_lon": 0.0, "lat": 38.92072916666667, "bike_id": "05b4887a6adfdb46f8eb727200f847b4", "type": "electric_scooter", "is_reserved": 0, "lon": -77.02413366666667}, {"fusion_lat": 0.0, "name": "b77c45f93828a8de2fa6d5ccecb2e7c7", "is_disabled": 0, "rental_uris": {"android": "https://dc.lft.to/lastmile_qr_scan", "ios": "https://dc.lft.to/lastmile_qr_scan"}, "fusion_lon": 0.0, "lat": 38.860192833333336, "bike_id": "b77c45f93828a8de2fa6d5ccecb2e7c7", "type": "electric_bike", "is_reserved": 0, "lon": -77.12810083333333}, {"fusion_lat": 0.0, "name": "1e9097a3308c0a6fea9b893520e16f05", "is_disabled": 0, "rental_uris": {"android": "https://dc.lft.to/lastmile_qr_scan", "ios": "https://dc.lft.to/lastmile_qr_scan"}, "fusion_lon": 0.0, "lat": 38.9181805, "bike_id": "1e9097a3308c0a6fea9b893520e16f05", "type": "electric_scooter", "is_reserved": 0, "lon": -77.02492616666666}, {"fusion_lat": 0.0, "name": "1a6cd6522a74926f1f8c7be446717c47", "is_disabled": 0, "rental_uris": {"android": "https://dc.lft.to/lastmile_qr_scan", "ios": "https://dc.lft.to/lastmile_qr_scan"}, "fusion_lon": 0.0, "lat": 38.903831, "bike_id": "1a6cd6522a74926f1f8c7be446717c47", "type": "electric_scooter", "is_reserved": 0, "lon": -77.06133266666667}, {"fusion_lat": 0.0, "name": "2381f157404a0dba9da610e38323ff81", "is_disabled": 0, "rental_uris": {"android": "https://dc.lft.to/lastmile_qr_scan", "ios": "https://dc.lft.to/lastmile_qr_scan"}, "fusion_lon": 0.0, "lat": 38.93748816666667, "bike_id": "2381f157404a0dba9da610e38323ff81", "type": "electric_scooter", "is_reserved": 0, "lon": -77.02528}, {"fusion_lat": 0.0, "name": "dbb10a1d311869fef95ea27999251e2d", "is_disabled": 0, "rental_uris": {"android": "https://dc.lft.to/lastmile_qr_scan", "ios": "https://dc.lft.to/lastmile_qr_scan"}, "fusion_lon": 0.0, "lat": 38.902081333333335, "bike_id": "dbb10a1d311869fef95ea27999251e2d", "type": "electric_scooter", "is_reserved": 0, "lon": -77.02203816666666}, {"fusion_lat": 0.0, "name": "7f7a2fbf98eb9d5c3bc1a13ac5649dcb", "is_disabled": 0, "rental_uris": {"android": "https://dc.lft.to/lastmile_qr_scan", "ios": "https://dc.lft.to/lastmile_qr_scan"}, "fusion_lon": 0.0, "lat": 38.900643333333335, "bike_id": "7f7a2fbf98eb9d5c3bc1a13ac5649dcb", "type": "electric_scooter", "is_reserved": 0, "lon": -76.9338575}, {"fusion_lat": 0.0, "name": "722074eb70fcec298063f2306c0dacea", "is_disabled": 0, "rental_uris": {"android": "https://dc.lft.to/lastmile_qr_scan", "ios": "https://dc.lft.to/lastmile_qr_scan"}, "fusion_lon": 0.0, "lat": 38.90695133333333, "bike_id": "722074eb70fcec298063f2306c0dacea", "type": "electric_scooter", "is_reserved": 0, "lon": -77.03586133333333}, {"fusion_lat": 0.0, "name": "c1cee453a026aac2beb328725a862ba4", "is_disabled": 0, "rental_uris": {"android": "https://dc.lft.to/lastmile_qr_scan", "ios": "https://dc.lft.to/lastmile_qr_scan"}, "fusion_lon": 0.0, "lat": 38.90971033333334, "bike_id": "c1cee453a026aac2beb328725a862ba4", "type": "electric_scooter", "is_reserved": 0, "lon": -77.02302666666667}, {"fusion_lat": 0.0, "name": "81c695662b39664f50a4c34261c2ba7f", "is_disabled": 0, "rental_uris": {"android": "https://dc.lft.to/lastmile_qr_scan", "ios": "https://dc.lft.to/lastmile_qr_scan"}, "fusion_lon": 0.0, "lat": 38.8960745, "bike_id": "81c695662b39664f50a4c34261c2ba7f", "type": "electric_scooter", "is_reserved": 0, "lon": -77.049787}, {"fusion_lat": 0.0, "name": "b4eb8ddc18f2649c9a982c4acf43920b", "is_disabled": 0, "rental_uris": {"android": "https://dc.lft.to/lastmile_qr_scan", "ios": "https://dc.lft.to/lastmile_qr_scan"}, "fusion_lon": 0.0, "lat": 38.96203666666667, "bike_id": "b4eb8ddc18f2649c9a982c4acf43920b", "type": "electric_scooter", "is_reserved": 0, "lon": -77.02234116666666}, {"fusion_lat": 0.0, "name": "03870105015cd88c5b973d54bd457444", "is_disabled": 0, "rental_uris": {"android": "https://dc.lft.to/lastmile_qr_scan", "ios": "https://dc.lft.to/lastmile_qr_scan"}, "fusion_lon": 0.0, "lat": 38.84638133333333, "bike_id": "03870105015cd88c5b973d54bd457444", "type": "electric_scooter", "is_reserved": 0, "lon": -76.96921283333333}, {"fusion_lat": 0.0, "name": "079e5b0e98b23de1bdcf33a1faed7c53", "is_disabled": 0, "rental_uris": {"android": "https://dc.lft.to/lastmile_qr_scan", "ios": "https://dc.lft.to/lastmile_qr_scan"}, "fusion_lon": 0.0, "lat": 38.9418345, "bike_id": "079e5b0e98b23de1bdcf33a1faed7c53", "type": "electric_scooter", "is_reserved": 0, "lon": -77.02491866666666}, {"fusion_lat": 0.0, "name": "4d715f62ddcb80e3dd638cdd900b7859", "is_disabled": 0, "rental_uris": {"android": "https://dc.lft.to/lastmile_qr_scan", "ios": "https://dc.lft.to/lastmile_qr_scan"}, "fusion_lon": 0.0, "lat": 38.90075683333333, "bike_id": "4d715f62ddcb80e3dd638cdd900b7859", "type": "electric_scooter", "is_reserved": 0, "lon": -77.04801116666667}, {"fusion_lat": 0.0, "name": "39a51d160f2da8c8ef2ec8795aa4affa", "is_disabled": 0, "rental_uris": {"android": "https://dc.lft.to/lastmile_qr_scan", "ios": "https://dc.lft.to/lastmile_qr_scan"}, "fusion_lon": 0.0, "lat": 38.89566516666667, "bike_id": "39a51d160f2da8c8ef2ec8795aa4affa", "type": "electric_bike", "is_reserved": 0, "lon": -77.127408}, {"fusion_lat": 0.0, "name": "97bc3efe7596cf2e8d87024398cee655", "is_disabled": 0, "rental_uris": {"android": "https://dc.lft.to/lastmile_qr_scan", "ios": "https://dc.lft.to/lastmile_qr_scan"}, "fusion_lon": 0.0, "lat": 38.90692133333334, "bike_id": "97bc3efe7596cf2e8d87024398cee655", "type": "electric_scooter", "is_reserved": 0, "lon": -77.01547083333334}, {"fusion_lat": 0.0, "name": "172ee6283df8d564901274bb150528e7", "is_disabled": 0, "rental_uris": {"android": "https://dc.lft.to/lastmile_qr_scan", "ios": "https://dc.lft.to/lastmile_qr_scan"}, "fusion_lon": 0.0, "lat": 38.90109916666667, "bike_id": "172ee6283df8d564901274bb150528e7", "type": "electric_scooter", "is_reserved": 0, "lon": -77.03390966666667}, {"fusion_lat": 0.0, "name": "691cab82482f8418dc81ad1431d368b8", "is_disabled": 0, "rental_uris": {"android": "https://dc.lft.to/lastmile_qr_scan", "ios": "https://dc.lft.to/lastmile_qr_scan"}, "fusion_lon": 0.0, "lat": 38.92215, "bike_id": "691cab82482f8418dc81ad1431d368b8", "type": "electric_scooter", "is_reserved": 0, "lon": -77.01821966666667}, {"fusion_lat": 0.0, "name": "b6e6d15caf1c908b0c6eccb71b0b508e", "is_disabled": 0, "rental_uris": {"android": "https://dc.lft.to/lastmile_qr_scan", "ios": "https://dc.lft.to/lastmile_qr_scan"}, "fusion_lon": 0.0, "lat": 38.8923135, "bike_id": "b6e6d15caf1c908b0c6eccb71b0b508e", "type": "electric_scooter", "is_reserved": 0, "lon": -77.01708516666666}, {"fusion_lat": 0.0, "name": "e7dc8a497ab34fc1de3fcbad9c572377", "is_disabled": 0, "rental_uris": {"android": "https://dc.lft.to/lastmile_qr_scan", "ios": "https://dc.lft.to/lastmile_qr_scan"}, "fusion_lon": 0.0, "lat": 38.92157666666667, "bike_id": "e7dc8a497ab34fc1de3fcbad9c572377", "type": "electric_scooter", "is_reserved": 0, "lon": -77.033761}, {"fusion_lat": 0.0, "name": "9b0b3db130905b6930543862352a1e46", "is_disabled": 0, "rental_uris": {"android": "https://dc.lft.to/lastmile_qr_scan", "ios": "https://dc.lft.to/lastmile_qr_scan"}, "fusion_lon": 0.0, "lat": 38.928518333333336, "bike_id": "9b0b3db130905b6930543862352a1e46", "type": "electric_scooter", "is_reserved": 0, "lon": -77.02440716666666}, {"fusion_lat": 0.0, "name": "c6d7418b7043680905699aa774192341", "is_disabled": 0, "rental_uris": {"android": "https://dc.lft.to/lastmile_qr_scan", "ios": "https://dc.lft.to/lastmile_qr_scan"}, "fusion_lon": 0.0, "lat": 38.92658466666666, "bike_id": "c6d7418b7043680905699aa774192341", "type": "electric_scooter", "is_reserved": 0, "lon": -77.02427583333333}, {"fusion_lat": 0.0, "name": "393d727ce7f9d3f2558dcbe24254c9b4", "is_disabled": 0, "rental_uris": {"android": "https://dc.lft.to/lastmile_qr_scan", "ios": "https://dc.lft.to/lastmile_qr_scan"}, "fusion_lon": 0.0, "lat": 38.907098500000004, "bike_id": "393d727ce7f9d3f2558dcbe24254c9b4", "type": "electric_scooter", "is_reserved": 0, "lon": -77.00055783333333}, {"fusion_lat": 0.0, "name": "afda23fe5cca15d20dfdfe15c3abc478", "is_disabled": 0, "rental_uris": {"android": "https://dc.lft.to/lastmile_qr_scan", "ios": "https://dc.lft.to/lastmile_qr_scan"}, "fusion_lon": 0.0, "lat": 38.90973, "bike_id": "afda23fe5cca15d20dfdfe15c3abc478", "type": "electric_scooter", "is_reserved": 0, "lon": -77.00892866666666}, {"fusion_lat": 0.0, "name": "233588f4ad163084e2bbaed71b7b2f6c", "is_disabled": 0, "rental_uris": {"android": "https://dc.lft.to/lastmile_qr_scan", "ios": "https://dc.lft.to/lastmile_qr_scan"}, "fusion_lon": 0.0, "lat": 38.90081033333333, "bike_id": "233588f4ad163084e2bbaed71b7b2f6c", "type": "electric_scooter", "is_reserved": 0, "lon": -77.02618566666666}, {"fusion_lat": 0.0, "name": "2d3eb5921dc346e6f211fa846363726b", "is_disabled": 0, "rental_uris": {"android": "https://dc.lft.to/lastmile_qr_scan", "ios": "https://dc.lft.to/lastmile_qr_scan"}, "fusion_lon": 0.0, "lat": 38.9275075, "bike_id": "2d3eb5921dc346e6f211fa846363726b", "type": "electric_scooter", "is_reserved": 0, "lon": -77.0253605}, {"fusion_lat": 0.0, "name": "7f0889c738a35fa2db4237b8d3a0cca0", "is_disabled": 0, "rental_uris": {"android": "https://dc.lft.to/lastmile_qr_scan", "ios": "https://dc.lft.to/lastmile_qr_scan"}, "fusion_lon": 0.0, "lat": 38.887685166666664, "bike_id": "7f0889c738a35fa2db4237b8d3a0cca0", "type": "electric_scooter", "is_reserved": 0, "lon": -76.977488}, {"fusion_lat": 0.0, "name": "b8d2846d550c2252fbf7bc35493ddb11", "is_disabled": 0, "rental_uris": {"android": "https://dc.lft.to/lastmile_qr_scan", "ios": "https://dc.lft.to/lastmile_qr_scan"}, "fusion_lon": 0.0, "lat": 38.85462883333334, "bike_id": "b8d2846d550c2252fbf7bc35493ddb11", "type": "electric_scooter", "is_reserved": 0, "lon": -76.97225416666667}, {"fusion_lat": 0.0, "name": "f1cc3ecb486569eea82b05ecb083a235", "is_disabled": 0, "rental_uris": {"android": "https://dc.lft.to/lastmile_qr_scan", "ios": "https://dc.lft.to/lastmile_qr_scan"}, "fusion_lon": 0.0, "lat": 38.936351, "bike_id": "f1cc3ecb486569eea82b05ecb083a235", "type": "electric_scooter", "is_reserved": 0, "lon": -77.03658483333334}, {"fusion_lat": 0.0, "name": "c62ca27f6f6580e1c2dabfb32d1c6dbd", "is_disabled": 0, "rental_uris": {"android": "https://dc.lft.to/lastmile_qr_scan", "ios": "https://dc.lft.to/lastmile_qr_scan"}, "fusion_lon": 0.0, "lat": 38.892476333333335, "bike_id": "c62ca27f6f6580e1c2dabfb32d1c6dbd", "type": "electric_scooter", "is_reserved": 0, "lon": -77.0334835}, {"fusion_lat": 0.0, "name": "f889fd751766a5b37fc82d0047bdc4fc", "is_disabled": 0, "rental_uris": {"android": "https://dc.lft.to/lastmile_qr_scan", "ios": "https://dc.lft.to/lastmile_qr_scan"}, "fusion_lon": 0.0, "lat": 38.9055395, "bike_id": "f889fd751766a5b37fc82d0047bdc4fc", "type": "electric_scooter", "is_reserved": 0, "lon": -77.03467783333333}, {"fusion_lat": 0.0, "name": "cf6f8cb0769adf47eaa2df1087728397", "is_disabled": 0, "rental_uris": {"android": "https://dc.lft.to/lastmile_qr_scan", "ios": "https://dc.lft.to/lastmile_qr_scan"}, "fusion_lon": 0.0, "lat": 38.879076833333336, "bike_id": "cf6f8cb0769adf47eaa2df1087728397", "type": "electric_scooter", "is_reserved": 0, "lon": -77.008127}, {"fusion_lat": 0.0, "name": "11c848ec9735e173efdbc2ffbce60f22", "is_disabled": 0, "rental_uris": {"android": "https://dc.lft.to/lastmile_qr_scan", "ios": "https://dc.lft.to/lastmile_qr_scan"}, "fusion_lon": 0.0, "lat": 38.9272565, "bike_id": "11c848ec9735e173efdbc2ffbce60f22", "type": "electric_scooter", "is_reserved": 0, "lon": -77.023098}, {"fusion_lat": 0.0, "name": "72aec899325544e4da8845f25bd05f7e", "is_disabled": 0, "rental_uris": {"android": "https://dc.lft.to/lastmile_qr_scan", "ios": "https://dc.lft.to/lastmile_qr_scan"}, "fusion_lon": 0.0, "lat": 38.916877, "bike_id": "72aec899325544e4da8845f25bd05f7e", "type": "electric_scooter", "is_reserved": 0, "lon": -77.03478966666667}, {"fusion_lat": 0.0, "name": "97e1e6e27a2a613ff438293107446f6b", "is_disabled": 0, "rental_uris": {"android": "https://dc.lft.to/lastmile_qr_scan", "ios": "https://dc.lft.to/lastmile_qr_scan"}, "fusion_lon": 0.0, "lat": 38.89920766666667, "bike_id": "97e1e6e27a2a613ff438293107446f6b", "type": "electric_scooter", "is_reserved": 0, "lon": -77.00367483333333}, {"fusion_lat": 0.0, "name": "83be3c8f1385fe232f8d9cd9edf9658c", "is_disabled": 0, "rental_uris": {"android": "https://dc.lft.to/lastmile_qr_scan", "ios": "https://dc.lft.to/lastmile_qr_scan"}, "fusion_lon": 0.0, "lat": 38.92061283333334, "bike_id": "83be3c8f1385fe232f8d9cd9edf9658c", "type": "electric_scooter", "is_reserved": 0, "lon": -76.99861783333333}, {"fusion_lat": 0.0, "name": "02a60210ecf06b8cd170750674faf30c", "is_disabled": 0, "rental_uris": {"android": "https://dc.lft.to/lastmile_qr_scan", "ios": "https://dc.lft.to/lastmile_qr_scan"}, "fusion_lon": 0.0, "lat": 38.9233735, "bike_id": "02a60210ecf06b8cd170750674faf30c", "type": "electric_scooter", "is_reserved": 0, "lon": -77.00188566666667}, {"fusion_lat": 0.0, "name": "80a3951766d2dc9528875956a586b391", "is_disabled": 0, "rental_uris": {"android": "https://dc.lft.to/lastmile_qr_scan", "ios": "https://dc.lft.to/lastmile_qr_scan"}, "fusion_lon": 0.0, "lat": 38.9055675, "bike_id": "80a3951766d2dc9528875956a586b391", "type": "electric_scooter", "is_reserved": 0, "lon": -77.00580666666667}, {"fusion_lat": 0.0, "name": "c8d8717a725de9503730ff66dc8cdc2e", "is_disabled": 0, "rental_uris": {"android": "https://dc.lft.to/lastmile_qr_scan", "ios": "https://dc.lft.to/lastmile_qr_scan"}, "fusion_lon": 0.0, "lat": 38.939208, "bike_id": "c8d8717a725de9503730ff66dc8cdc2e", "type": "electric_scooter", "is_reserved": 0, "lon": -77.02799966666667}, {"fusion_lat": 0.0, "name": "f041cfebf71ba8e1ef030e847ddf2c23", "is_disabled": 0, "rental_uris": {"android": "https://dc.lft.to/lastmile_qr_scan", "ios": "https://dc.lft.to/lastmile_qr_scan"}, "fusion_lon": 0.0, "lat": 38.91033183333333, "bike_id": "f041cfebf71ba8e1ef030e847ddf2c23", "type": "electric_scooter", "is_reserved": 0, "lon": -77.00757816666666}, {"fusion_lat": 0.0, "name": "62264ac0a3fc2c7f44517214a627d1bf", "is_disabled": 0, "rental_uris": {"android": "https://dc.lft.to/lastmile_qr_scan", "ios": "https://dc.lft.to/lastmile_qr_scan"}, "fusion_lon": 0.0, "lat": 38.88399183333333, "bike_id": "62264ac0a3fc2c7f44517214a627d1bf", "type": "electric_scooter", "is_reserved": 0, "lon": -77.02005633333333}, {"fusion_lat": 0.0, "name": "c456728550b49d9ad956efc0ad57bcf3", "is_disabled": 0, "rental_uris": {"android": "https://dc.lft.to/lastmile_qr_scan", "ios": "https://dc.lft.to/lastmile_qr_scan"}, "fusion_lon": 0.0, "lat": 38.90679633333333, "bike_id": "c456728550b49d9ad956efc0ad57bcf3", "type": "electric_scooter", "is_reserved": 0, "lon": -77.02217333333333}, {"fusion_lat": 0.0, "name": "06fb4ec29d52a89194a47923b6e1e0ea", "is_disabled": 0, "rental_uris": {"android": "https://dc.lft.to/lastmile_qr_scan", "ios": "https://dc.lft.to/lastmile_qr_scan"}, "fusion_lon": 0.0, "lat": 38.961391, "bike_id": "06fb4ec29d52a89194a47923b6e1e0ea", "type": "electric_bike", "is_reserved": 0, "lon": -77.03229483333334}, {"fusion_lat": 0.0, "name": "e2d6d7eb19bfc0dcca2d17b0830a7116", "is_disabled": 0, "rental_uris": {"android": "https://dc.lft.to/lastmile_qr_scan", "ios": "https://dc.lft.to/lastmile_qr_scan"}, "fusion_lon": 0.0, "lat": 38.90025, "bike_id": "e2d6d7eb19bfc0dcca2d17b0830a7116", "type": "electric_scooter", "is_reserved": 0, "lon": -76.99139933333333}, {"fusion_lat": 0.0, "name": "07b11dd5bd7d92a301ddabb62ecb560c", "is_disabled": 0, "rental_uris": {"android": "https://dc.lft.to/lastmile_qr_scan", "ios": "https://dc.lft.to/lastmile_qr_scan"}, "fusion_lon": 0.0, "lat": 38.91576233333333, "bike_id": "07b11dd5bd7d92a301ddabb62ecb560c", "type": "electric_scooter", "is_reserved": 0, "lon": -77.01254766666666}, {"fusion_lat": 0.0, "name": "f5892c54d3760f06a1d83d8535f32da7", "is_disabled": 0, "rental_uris": {"android": "https://dc.lft.to/lastmile_qr_scan", "ios": "https://dc.lft.to/lastmile_qr_scan"}, "fusion_lon": 0.0, "lat": 38.919258166666665, "bike_id": "f5892c54d3760f06a1d83d8535f32da7", "type": "electric_scooter", "is_reserved": 0, "lon": -77.0317545}, {"fusion_lat": 0.0, "name": "e8fe448d31bb770b96459e38991d0130", "is_disabled": 0, "rental_uris": {"android": "https://dc.lft.to/lastmile_qr_scan", "ios": "https://dc.lft.to/lastmile_qr_scan"}, "fusion_lon": 0.0, "lat": 38.98791416666667, "bike_id": "e8fe448d31bb770b96459e38991d0130", "type": "electric_bike", "is_reserved": 0, "lon": -77.14101733333334}, {"fusion_lat": 0.0, "name": "77a9d176338fae2e5c1ae87d51d57a0b", "is_disabled": 0, "rental_uris": {"android": "https://dc.lft.to/lastmile_qr_scan", "ios": "https://dc.lft.to/lastmile_qr_scan"}, "fusion_lon": 0.0, "lat": 38.929768833333334, "bike_id": "77a9d176338fae2e5c1ae87d51d57a0b", "type": "electric_scooter", "is_reserved": 0, "lon": -77.0313925}, {"fusion_lat": 0.0, "name": "2b63b276d8fa0c6e9c2b2b8b3088b900", "is_disabled": 0, "rental_uris": {"android": "https://dc.lft.to/lastmile_qr_scan", "ios": "https://dc.lft.to/lastmile_qr_scan"}, "fusion_lon": 0.0, "lat": 38.902552166666666, "bike_id": "2b63b276d8fa0c6e9c2b2b8b3088b900", "type": "electric_scooter", "is_reserved": 0, "lon": -77.06012783333334}, {"fusion_lat": 0.0, "name": "be56f1d877dab9b42cfea078c7d789c7", "is_disabled": 0, "rental_uris": {"android": "https://dc.lft.to/lastmile_qr_scan", "ios": "https://dc.lft.to/lastmile_qr_scan"}, "fusion_lon": 0.0, "lat": 38.94165433333333, "bike_id": "be56f1d877dab9b42cfea078c7d789c7", "type": "electric_bike", "is_reserved": 0, "lon": -77.0018995}, {"fusion_lat": 0.0, "name": "88e7d0bf0f9000a1dd32d2c69228cdfd", "is_disabled": 0, "rental_uris": {"android": "https://dc.lft.to/lastmile_qr_scan", "ios": "https://dc.lft.to/lastmile_qr_scan"}, "fusion_lon": 0.0, "lat": 38.90409, "bike_id": "88e7d0bf0f9000a1dd32d2c69228cdfd", "type": "electric_scooter", "is_reserved": 0, "lon": -76.97331266666667}, {"fusion_lat": 0.0, "name": "2b5740f86cb669feebe7fb38be83e1af", "is_disabled": 0, "rental_uris": {"android": "https://dc.lft.to/lastmile_qr_scan", "ios": "https://dc.lft.to/lastmile_qr_scan"}, "fusion_lon": 0.0, "lat": 38.9416385, "bike_id": "2b5740f86cb669feebe7fb38be83e1af", "type": "electric_bike", "is_reserved": 0, "lon": -76.9665055}, {"fusion_lat": 0.0, "name": "1c8ed55c9dc84b6de90a36c1479eb9ae", "is_disabled": 0, "rental_uris": {"android": "https://dc.lft.to/lastmile_qr_scan", "ios": "https://dc.lft.to/lastmile_qr_scan"}, "fusion_lon": 0.0, "lat": 38.885152833333336, "bike_id": "1c8ed55c9dc84b6de90a36c1479eb9ae", "type": "electric_scooter", "is_reserved": 0, "lon": -76.99762116666666}, {"fusion_lat": 0.0, "name": "cd0b0d8a58b6b30c61e284adbf8ea61e", "is_disabled": 0, "rental_uris": {"android": "https://dc.lft.to/lastmile_qr_scan", "ios": "https://dc.lft.to/lastmile_qr_scan"}, "fusion_lon": 0.0, "lat": 38.92147383333333, "bike_id": "cd0b0d8a58b6b30c61e284adbf8ea61e", "type": "electric_scooter", "is_reserved": 0, "lon": -77.03440383333333}, {"fusion_lat": 0.0, "name": "83d48c726d6c503ca546bebc2d57938c", "is_disabled": 0, "rental_uris": {"android": "https://dc.lft.to/lastmile_qr_scan", "ios": "https://dc.lft.to/lastmile_qr_scan"}, "fusion_lon": 0.0, "lat": 38.910717166666664, "bike_id": "83d48c726d6c503ca546bebc2d57938c", "type": "electric_scooter", "is_reserved": 0, "lon": -77.03664316666666}, {"fusion_lat": 0.0, "name": "5f65ecbb5535e205ea03efbe52ae2832", "is_disabled": 0, "rental_uris": {"android": "https://dc.lft.to/lastmile_qr_scan", "ios": "https://dc.lft.to/lastmile_qr_scan"}, "fusion_lon": 0.0, "lat": 38.874750166666665, "bike_id": "5f65ecbb5535e205ea03efbe52ae2832", "type": "electric_scooter", "is_reserved": 0, "lon": -77.00038733333334}, {"fusion_lat": 0.0, "name": "10b7f79139f6d393087a3dfd38e2d517", "is_disabled": 0, "rental_uris": {"android": "https://dc.lft.to/lastmile_qr_scan", "ios": "https://dc.lft.to/lastmile_qr_scan"}, "fusion_lon": 0.0, "lat": 38.97883, "bike_id": "10b7f79139f6d393087a3dfd38e2d517", "type": "electric_bike", "is_reserved": 0, "lon": -77.06028516666667}, {"fusion_lat": 0.0, "name": "36e9d6494468ba7b97dda0abeff3382a", "is_disabled": 0, "rental_uris": {"android": "https://dc.lft.to/lastmile_qr_scan", "ios": "https://dc.lft.to/lastmile_qr_scan"}, "fusion_lon": 0.0, "lat": 38.92613866666667, "bike_id": "36e9d6494468ba7b97dda0abeff3382a", "type": "electric_scooter", "is_reserved": 0, "lon": -77.04325533333333}, {"fusion_lat": 0.0, "name": "226e52ba473db937ef0f6ce4d1542136", "is_disabled": 0, "rental_uris": {"android": "https://dc.lft.to/lastmile_qr_scan", "ios": "https://dc.lft.to/lastmile_qr_scan"}, "fusion_lon": 0.0, "lat": 38.89513733333333, "bike_id": "226e52ba473db937ef0f6ce4d1542136", "type": "electric_scooter", "is_reserved": 0, "lon": -76.99965316666666}, {"fusion_lat": 0.0, "name": "ab85e6bbd9b3ac730ecdfcb91938f392", "is_disabled": 0, "rental_uris": {"android": "https://dc.lft.to/lastmile_qr_scan", "ios": "https://dc.lft.to/lastmile_qr_scan"}, "fusion_lon": 0.0, "lat": 38.95334716666667, "bike_id": "ab85e6bbd9b3ac730ecdfcb91938f392", "type": "electric_bike", "is_reserved": 0, "lon": -76.9825945}, {"fusion_lat": 0.0, "name": "5cf7758482d2e97c4192d8fe3c48327c", "is_disabled": 0, "rental_uris": {"android": "https://dc.lft.to/lastmile_qr_scan", "ios": "https://dc.lft.to/lastmile_qr_scan"}, "fusion_lon": 0.0, "lat": 38.9072295, "bike_id": "5cf7758482d2e97c4192d8fe3c48327c", "type": "electric_scooter", "is_reserved": 0, "lon": -77.04353833333333}, {"fusion_lat": 0.0, "name": "a6f1ed22f3bdb52a98153801ac92edb7", "is_disabled": 0, "rental_uris": {"android": "https://dc.lft.to/lastmile_qr_scan", "ios": "https://dc.lft.to/lastmile_qr_scan"}, "fusion_lon": 0.0, "lat": 38.942031166666666, "bike_id": "a6f1ed22f3bdb52a98153801ac92edb7", "type": "electric_scooter", "is_reserved": 0, "lon": -77.02589783333333}, {"fusion_lat": 0.0, "name": "7970f929ebf2e68338779da10d4784c4", "is_disabled": 0, "rental_uris": {"android": "https://dc.lft.to/lastmile_qr_scan", "ios": "https://dc.lft.to/lastmile_qr_scan"}, "fusion_lon": 0.0, "lat": 38.918062666666664, "bike_id": "7970f929ebf2e68338779da10d4784c4", "type": "electric_scooter", "is_reserved": 0, "lon": -77.02709916666667}, {"fusion_lat": 0.0, "name": "b15dcf87ffc521142e087fa188698dc0", "is_disabled": 0, "rental_uris": {"android": "https://dc.lft.to/lastmile_qr_scan", "ios": "https://dc.lft.to/lastmile_qr_scan"}, "fusion_lon": 0.0, "lat": 38.90695766666666, "bike_id": "b15dcf87ffc521142e087fa188698dc0", "type": "electric_scooter", "is_reserved": 0, "lon": -77.03773533333333}, {"fusion_lat": 0.0, "name": "df0a09e6dd9f1df0fe9adb4650b7c912", "is_disabled": 0, "rental_uris": {"android": "https://dc.lft.to/lastmile_qr_scan", "ios": "https://dc.lft.to/lastmile_qr_scan"}, "fusion_lon": 0.0, "lat": 38.92741, "bike_id": "df0a09e6dd9f1df0fe9adb4650b7c912", "type": "electric_scooter", "is_reserved": 0, "lon": -77.0364}, {"fusion_lat": 0.0, "name": "a7ec3e0fea8b8508bb5e882bc4cfa66e", "is_disabled": 0, "rental_uris": {"android": "https://dc.lft.to/lastmile_qr_scan", "ios": "https://dc.lft.to/lastmile_qr_scan"}, "fusion_lon": 0.0, "lat": 38.83928516666667, "bike_id": "a7ec3e0fea8b8508bb5e882bc4cfa66e", "type": "electric_bike", "is_reserved": 0, "lon": -77.079138}, {"fusion_lat": 0.0, "name": "54e0e04f14245e19a3ac000ecf0b68e3", "is_disabled": 0, "rental_uris": {"android": "https://dc.lft.to/lastmile_qr_scan", "ios": "https://dc.lft.to/lastmile_qr_scan"}, "fusion_lon": 0.0, "lat": 38.901428333333335, "bike_id": "54e0e04f14245e19a3ac000ecf0b68e3", "type": "electric_scooter", "is_reserved": 0, "lon": -76.98658033333334}, {"fusion_lat": 0.0, "name": "bfc3cb5a5358ce979a05dcbd5e9fbee5", "is_disabled": 0, "rental_uris": {"android": "https://dc.lft.to/lastmile_qr_scan", "ios": "https://dc.lft.to/lastmile_qr_scan"}, "fusion_lon": 0.0, "lat": 38.915588666666665, "bike_id": "bfc3cb5a5358ce979a05dcbd5e9fbee5", "type": "electric_scooter", "is_reserved": 0, "lon": -77.03072516666667}, {"fusion_lat": 0.0, "name": "564555ee48c8ee8a3bfde7acf4db0462", "is_disabled": 0, "rental_uris": {"android": "https://dc.lft.to/lastmile_qr_scan", "ios": "https://dc.lft.to/lastmile_qr_scan"}, "fusion_lon": 0.0, "lat": 38.89876783333333, "bike_id": "564555ee48c8ee8a3bfde7acf4db0462", "type": "electric_scooter", "is_reserved": 0, "lon": -77.03290016666666}, {"fusion_lat": 0.0, "name": "33f03c9960e492cfe88d0b539d477e64", "is_disabled": 0, "rental_uris": {"android": "https://dc.lft.to/lastmile_qr_scan", "ios": "https://dc.lft.to/lastmile_qr_scan"}, "fusion_lon": 0.0, "lat": 38.933360666666665, "bike_id": "33f03c9960e492cfe88d0b539d477e64", "type": "electric_scooter", "is_reserved": 0, "lon": -77.03637866666666}, {"fusion_lat": 0.0, "name": "aa90b9c69cc35e7b2f58427ea0f05aa6", "is_disabled": 0, "rental_uris": {"android": "https://dc.lft.to/lastmile_qr_scan", "ios": "https://dc.lft.to/lastmile_qr_scan"}, "fusion_lon": 0.0, "lat": 38.9079245, "bike_id": "aa90b9c69cc35e7b2f58427ea0f05aa6", "type": "electric_scooter", "is_reserved": 0, "lon": -77.00968633333333}, {"fusion_lat": 0.0, "name": "71c3fc904256c9880417b9df0653b500", "is_disabled": 0, "rental_uris": {"android": "https://dc.lft.to/lastmile_qr_scan", "ios": "https://dc.lft.to/lastmile_qr_scan"}, "fusion_lon": 0.0, "lat": 38.92080083333333, "bike_id": "71c3fc904256c9880417b9df0653b500", "type": "electric_scooter", "is_reserved": 0, "lon": -77.0148285}, {"fusion_lat": 0.0, "name": "8470ada0690a86e00668e3220d71d667", "is_disabled": 0, "rental_uris": {"android": "https://dc.lft.to/lastmile_qr_scan", "ios": "https://dc.lft.to/lastmile_qr_scan"}, "fusion_lon": 0.0, "lat": 38.901660166666666, "bike_id": "8470ada0690a86e00668e3220d71d667", "type": "electric_scooter", "is_reserved": 0, "lon": -77.0200535}, {"fusion_lat": 0.0, "name": "86f45f5ca8b7fca96dcc71a67314389a", "is_disabled": 0, "rental_uris": {"android": "https://dc.lft.to/lastmile_qr_scan", "ios": "https://dc.lft.to/lastmile_qr_scan"}, "fusion_lon": 0.0, "lat": 38.94637433333333, "bike_id": "86f45f5ca8b7fca96dcc71a67314389a", "type": "electric_scooter", "is_reserved": 0, "lon": -77.09538333333333}, {"fusion_lat": 0.0, "name": "e996752d6aebc61f59ae9df672942d54", "is_disabled": 0, "rental_uris": {"android": "https://dc.lft.to/lastmile_qr_scan", "ios": "https://dc.lft.to/lastmile_qr_scan"}, "fusion_lon": 0.0, "lat": 38.95616316666667, "bike_id": "e996752d6aebc61f59ae9df672942d54", "type": "electric_scooter", "is_reserved": 0, "lon": -77.02759783333333}, {"fusion_lat": 0.0, "name": "b00606bfb6f24f2d8ed51685efbf4580", "is_disabled": 0, "rental_uris": {"android": "https://dc.lft.to/lastmile_qr_scan", "ios": "https://dc.lft.to/lastmile_qr_scan"}, "fusion_lon": 0.0, "lat": 38.913457, "bike_id": "b00606bfb6f24f2d8ed51685efbf4580", "type": "electric_scooter", "is_reserved": 0, "lon": -77.042756}, {"fusion_lat": 0.0, "name": "036723a4699af159db20de3c9a655d9b", "is_disabled": 0, "rental_uris": {"android": "https://dc.lft.to/lastmile_qr_scan", "ios": "https://dc.lft.to/lastmile_qr_scan"}, "fusion_lon": 0.0, "lat": 38.90252, "bike_id": "036723a4699af159db20de3c9a655d9b", "type": "electric_scooter", "is_reserved": 0, "lon": -77.0297565}, {"fusion_lat": 0.0, "name": "91e7c824c8a569185e527ca7489b2163", "is_disabled": 0, "rental_uris": {"android": "https://dc.lft.to/lastmile_qr_scan", "ios": "https://dc.lft.to/lastmile_qr_scan"}, "fusion_lon": 0.0, "lat": 38.91567766666667, "bike_id": "91e7c824c8a569185e527ca7489b2163", "type": "electric_scooter", "is_reserved": 0, "lon": -77.04158983333333}, {"fusion_lat": 0.0, "name": "abe89358b90b12f058b7071040a6ab4f", "is_disabled": 0, "rental_uris": {"android": "https://dc.lft.to/lastmile_qr_scan", "ios": "https://dc.lft.to/lastmile_qr_scan"}, "fusion_lon": 0.0, "lat": 38.865147, "bike_id": "abe89358b90b12f058b7071040a6ab4f", "type": "electric_bike", "is_reserved": 0, "lon": -77.12939933333334}, {"fusion_lat": 0.0, "name": "cbb8c62a1ae054737b2c490f40da916f", "is_disabled": 0, "rental_uris": {"android": "https://dc.lft.to/lastmile_qr_scan", "ios": "https://dc.lft.to/lastmile_qr_scan"}, "fusion_lon": 0.0, "lat": 38.9230875, "bike_id": "cbb8c62a1ae054737b2c490f40da916f", "type": "electric_scooter", "is_reserved": 0, "lon": -77.05611966666666}, {"fusion_lat": 0.0, "name": "cc689b2b163c0fdc558358d5c91d7034", "is_disabled": 0, "rental_uris": {"android": "https://dc.lft.to/lastmile_qr_scan", "ios": "https://dc.lft.to/lastmile_qr_scan"}, "fusion_lon": 0.0, "lat": 38.93097433333333, "bike_id": "cc689b2b163c0fdc558358d5c91d7034", "type": "electric_scooter", "is_reserved": 0, "lon": -77.025585}, {"fusion_lat": 0.0, "name": "6f5e2433d16d24023e5a2a269c3bf40a", "is_disabled": 0, "rental_uris": {"android": "https://dc.lft.to/lastmile_qr_scan", "ios": "https://dc.lft.to/lastmile_qr_scan"}, "fusion_lon": 0.0, "lat": 38.92236166666667, "bike_id": "6f5e2433d16d24023e5a2a269c3bf40a", "type": "electric_scooter", "is_reserved": 0, "lon": -77.042493}, {"fusion_lat": 0.0, "name": "478a2e5699ba09795314b833634be389", "is_disabled": 0, "rental_uris": {"android": "https://dc.lft.to/lastmile_qr_scan", "ios": "https://dc.lft.to/lastmile_qr_scan"}, "fusion_lon": 0.0, "lat": 38.907749333333335, "bike_id": "478a2e5699ba09795314b833634be389", "type": "electric_scooter", "is_reserved": 0, "lon": -77.07434266666667}, {"fusion_lat": 0.0, "name": "960dddd843d2105ec3f1d70679e7354b", "is_disabled": 0, "rental_uris": {"android": "https://dc.lft.to/lastmile_qr_scan", "ios": "https://dc.lft.to/lastmile_qr_scan"}, "fusion_lon": 0.0, "lat": 38.9386015, "bike_id": "960dddd843d2105ec3f1d70679e7354b", "type": "electric_scooter", "is_reserved": 0, "lon": -77.0245365}, {"fusion_lat": 0.0, "name": "55788b57a467daf499426497f78a4c6c", "is_disabled": 0, "rental_uris": {"android": "https://dc.lft.to/lastmile_qr_scan", "ios": "https://dc.lft.to/lastmile_qr_scan"}, "fusion_lon": 0.0, "lat": 38.887334333333335, "bike_id": "55788b57a467daf499426497f78a4c6c", "type": "electric_scooter", "is_reserved": 0, "lon": -77.01738}, {"fusion_lat": 0.0, "name": "353c99d3115ce1cc633f5ddcdb701cc1", "is_disabled": 0, "rental_uris": {"android": "https://dc.lft.to/lastmile_qr_scan", "ios": "https://dc.lft.to/lastmile_qr_scan"}, "fusion_lon": 0.0, "lat": 38.897475666666665, "bike_id": "353c99d3115ce1cc633f5ddcdb701cc1", "type": "electric_scooter", "is_reserved": 0, "lon": -77.02727816666666}, {"fusion_lat": 0.0, "name": "e455b465c26e307085d2f0f5db51185f", "is_disabled": 0, "rental_uris": {"android": "https://dc.lft.to/lastmile_qr_scan", "ios": "https://dc.lft.to/lastmile_qr_scan"}, "fusion_lon": 0.0, "lat": 38.9049105, "bike_id": "e455b465c26e307085d2f0f5db51185f", "type": "electric_scooter", "is_reserved": 0, "lon": -76.99681466666667}, {"fusion_lat": 0.0, "name": "61ad7c455466aa0f4bce2a7a26be8b60", "is_disabled": 0, "rental_uris": {"android": "https://dc.lft.to/lastmile_qr_scan", "ios": "https://dc.lft.to/lastmile_qr_scan"}, "fusion_lon": 0.0, "lat": 38.9020905, "bike_id": "61ad7c455466aa0f4bce2a7a26be8b60", "type": "electric_scooter", "is_reserved": 0, "lon": -76.995115}, {"fusion_lat": 0.0, "name": "55193bf0aef36fe57fee80bf80632399", "is_disabled": 0, "rental_uris": {"android": "https://dc.lft.to/lastmile_qr_scan", "ios": "https://dc.lft.to/lastmile_qr_scan"}, "fusion_lon": 0.0, "lat": 38.9023355, "bike_id": "55193bf0aef36fe57fee80bf80632399", "type": "electric_scooter", "is_reserved": 0, "lon": -77.02297083333333}, {"fusion_lat": 0.0, "name": "4f7b4d2e57b650bf6bb42dabc2d08f03", "is_disabled": 0, "rental_uris": {"android": "https://dc.lft.to/lastmile_qr_scan", "ios": "https://dc.lft.to/lastmile_qr_scan"}, "fusion_lon": 0.0, "lat": 38.87475333333333, "bike_id": "4f7b4d2e57b650bf6bb42dabc2d08f03", "type": "electric_scooter", "is_reserved": 0, "lon": -77.01707866666666}, {"fusion_lat": 0.0, "name": "1ba8f4c831ae98ea3099944fb2eeecfc", "is_disabled": 0, "rental_uris": {"android": "https://dc.lft.to/lastmile_qr_scan", "ios": "https://dc.lft.to/lastmile_qr_scan"}, "fusion_lon": 0.0, "lat": 38.9273135, "bike_id": "1ba8f4c831ae98ea3099944fb2eeecfc", "type": "electric_scooter", "is_reserved": 0, "lon": -77.027064}, {"fusion_lat": 0.0, "name": "69a2e56b9da42518f97c6f2158fa4e5f", "is_disabled": 0, "rental_uris": {"android": "https://dc.lft.to/lastmile_qr_scan", "ios": "https://dc.lft.to/lastmile_qr_scan"}, "fusion_lon": 0.0, "lat": 38.8987955, "bike_id": "69a2e56b9da42518f97c6f2158fa4e5f", "type": "electric_scooter", "is_reserved": 0, "lon": -77.026092}, {"fusion_lat": 0.0, "name": "c54bf1553cfe8e270923d4a22898d2a5", "is_disabled": 0, "rental_uris": {"android": "https://dc.lft.to/lastmile_qr_scan", "ios": "https://dc.lft.to/lastmile_qr_scan"}, "fusion_lon": 0.0, "lat": 38.94065466666667, "bike_id": "c54bf1553cfe8e270923d4a22898d2a5", "type": "electric_bike", "is_reserved": 0, "lon": -76.99471333333334}, {"fusion_lat": 0.0, "name": "9a805a64622fbb814143f9429392995f", "is_disabled": 0, "rental_uris": {"android": "https://dc.lft.to/lastmile_qr_scan", "ios": "https://dc.lft.to/lastmile_qr_scan"}, "fusion_lon": 0.0, "lat": 38.932407833333336, "bike_id": "9a805a64622fbb814143f9429392995f", "type": "electric_scooter", "is_reserved": 0, "lon": -77.0386805}, {"fusion_lat": 0.0, "name": "df98343da43bd7353664a7d28bd0f77b", "is_disabled": 0, "rental_uris": {"android": "https://dc.lft.to/lastmile_qr_scan", "ios": "https://dc.lft.to/lastmile_qr_scan"}, "fusion_lon": 0.0, "lat": 38.9381275, "bike_id": "df98343da43bd7353664a7d28bd0f77b", "type": "electric_scooter", "is_reserved": 0, "lon": -77.060197}, {"fusion_lat": 0.0, "name": "55f76bf72b5a97a42e03f03628aeba75", "is_disabled": 0, "rental_uris": {"android": "https://dc.lft.to/lastmile_qr_scan", "ios": "https://dc.lft.to/lastmile_qr_scan"}, "fusion_lon": 0.0, "lat": 38.91976483333333, "bike_id": "55f76bf72b5a97a42e03f03628aeba75", "type": "electric_scooter", "is_reserved": 0, "lon": -77.07099116666667}, {"fusion_lat": 0.0, "name": "f4521a471076383e2958143de67c0c72", "is_disabled": 0, "rental_uris": {"android": "https://dc.lft.to/lastmile_qr_scan", "ios": "https://dc.lft.to/lastmile_qr_scan"}, "fusion_lon": 0.0, "lat": 38.904002166666665, "bike_id": "f4521a471076383e2958143de67c0c72", "type": "electric_scooter", "is_reserved": 0, "lon": -77.05029966666666}, {"fusion_lat": 0.0, "name": "fb4a0c897c1e8e04b1e905d6f8ee0070", "is_disabled": 0, "rental_uris": {"android": "https://dc.lft.to/lastmile_qr_scan", "ios": "https://dc.lft.to/lastmile_qr_scan"}, "fusion_lon": 0.0, "lat": 38.918162833333334, "bike_id": "fb4a0c897c1e8e04b1e905d6f8ee0070", "type": "electric_scooter", "is_reserved": 0, "lon": -77.045143}, {"fusion_lat": 0.0, "name": "8d1e77bc7ea6706da1c4d6571d0a5520", "is_disabled": 0, "rental_uris": {"android": "https://dc.lft.to/lastmile_qr_scan", "ios": "https://dc.lft.to/lastmile_qr_scan"}, "fusion_lon": 0.0, "lat": 38.937043833333334, "bike_id": "8d1e77bc7ea6706da1c4d6571d0a5520", "type": "electric_scooter", "is_reserved": 0, "lon": -77.06106966666667}, {"fusion_lat": 0.0, "name": "41c98e315dcaa4999283b13497d36742", "is_disabled": 0, "rental_uris": {"android": "https://dc.lft.to/lastmile_qr_scan", "ios": "https://dc.lft.to/lastmile_qr_scan"}, "fusion_lon": 0.0, "lat": 38.92037333333333, "bike_id": "41c98e315dcaa4999283b13497d36742", "type": "electric_scooter", "is_reserved": 0, "lon": -77.01761033333334}, {"fusion_lat": 0.0, "name": "6b861508ec961a7582d426887396419d", "is_disabled": 0, "rental_uris": {"android": "https://dc.lft.to/lastmile_qr_scan", "ios": "https://dc.lft.to/lastmile_qr_scan"}, "fusion_lon": 0.0, "lat": 38.89732033333333, "bike_id": "6b861508ec961a7582d426887396419d", "type": "electric_scooter", "is_reserved": 0, "lon": -76.99512033333333}, {"fusion_lat": 0.0, "name": "72d92f13deb1c471b46a4d4b841f044f", "is_disabled": 0, "rental_uris": {"android": "https://dc.lft.to/lastmile_qr_scan", "ios": "https://dc.lft.to/lastmile_qr_scan"}, "fusion_lon": 0.0, "lat": 38.920783, "bike_id": "72d92f13deb1c471b46a4d4b841f044f", "type": "electric_scooter", "is_reserved": 0, "lon": -77.023889}, {"fusion_lat": 0.0, "name": "ed0323e0084107571d13fa98f7a8fafc", "is_disabled": 0, "rental_uris": {"android": "https://dc.lft.to/lastmile_qr_scan", "ios": "https://dc.lft.to/lastmile_qr_scan"}, "fusion_lon": 0.0, "lat": 38.92580316666667, "bike_id": "ed0323e0084107571d13fa98f7a8fafc", "type": "electric_scooter", "is_reserved": 0, "lon": -77.0276145}, {"fusion_lat": 0.0, "name": "9db04054d624d0acb4766caf1784f48a", "is_disabled": 0, "rental_uris": {"android": "https://dc.lft.to/lastmile_qr_scan", "ios": "https://dc.lft.to/lastmile_qr_scan"}, "fusion_lon": 0.0, "lat": 38.962257, "bike_id": "9db04054d624d0acb4766caf1784f48a", "type": "electric_bike", "is_reserved": 0, "lon": -77.02623883333334}, {"fusion_lat": 0.0, "name": "b11992b42732e9a81f890dc5701f2b09", "is_disabled": 0, "rental_uris": {"android": "https://dc.lft.to/lastmile_qr_scan", "ios": "https://dc.lft.to/lastmile_qr_scan"}, "fusion_lon": 0.0, "lat": 38.9225755, "bike_id": "b11992b42732e9a81f890dc5701f2b09", "type": "electric_scooter", "is_reserved": 0, "lon": -77.03523383333334}, {"fusion_lat": 0.0, "name": "9a3471b20e241c8e851289d8f86303db", "is_disabled": 0, "rental_uris": {"android": "https://dc.lft.to/lastmile_qr_scan", "ios": "https://dc.lft.to/lastmile_qr_scan"}, "fusion_lon": 0.0, "lat": 38.898779166666664, "bike_id": "9a3471b20e241c8e851289d8f86303db", "type": "electric_scooter", "is_reserved": 0, "lon": -76.9318415}, {"fusion_lat": 0.0, "name": "90dc0e5816722a020d49fefaa550cab5", "is_disabled": 0, "rental_uris": {"android": "https://dc.lft.to/lastmile_qr_scan", "ios": "https://dc.lft.to/lastmile_qr_scan"}, "fusion_lon": 0.0, "lat": 38.884449833333335, "bike_id": "90dc0e5816722a020d49fefaa550cab5", "type": "electric_scooter", "is_reserved": 0, "lon": -76.9858985}, {"fusion_lat": 0.0, "name": "1417cc668867a276f181b49d5311cf06", "is_disabled": 0, "rental_uris": {"android": "https://dc.lft.to/lastmile_qr_scan", "ios": "https://dc.lft.to/lastmile_qr_scan"}, "fusion_lon": 0.0, "lat": 38.87814933333333, "bike_id": "1417cc668867a276f181b49d5311cf06", "type": "electric_scooter", "is_reserved": 0, "lon": -77.01321066666667}, {"fusion_lat": 0.0, "name": "2c03fed6e8bec618f8322cc91999e483", "is_disabled": 0, "rental_uris": {"android": "https://dc.lft.to/lastmile_qr_scan", "ios": "https://dc.lft.to/lastmile_qr_scan"}, "fusion_lon": 0.0, "lat": 38.9335635, "bike_id": "2c03fed6e8bec618f8322cc91999e483", "type": "electric_scooter", "is_reserved": 0, "lon": -77.0243995}, {"fusion_lat": 0.0, "name": "1b1fd431f6e99bfd7f483cbdf49681bf", "is_disabled": 0, "rental_uris": {"android": "https://dc.lft.to/lastmile_qr_scan", "ios": "https://dc.lft.to/lastmile_qr_scan"}, "fusion_lon": 0.0, "lat": 38.932925166666664, "bike_id": "1b1fd431f6e99bfd7f483cbdf49681bf", "type": "electric_scooter", "is_reserved": 0, "lon": -77.027958}, {"fusion_lat": 0.0, "name": "bd0493fea1a64008293b160190a37049", "is_disabled": 0, "rental_uris": {"android": "https://dc.lft.to/lastmile_qr_scan", "ios": "https://dc.lft.to/lastmile_qr_scan"}, "fusion_lon": 0.0, "lat": 38.8823105, "bike_id": "bd0493fea1a64008293b160190a37049", "type": "electric_scooter", "is_reserved": 0, "lon": -77.0261765}, {"fusion_lat": 0.0, "name": "c9824e9ad8e98d8441eac0830001e04d", "is_disabled": 0, "rental_uris": {"android": "https://dc.lft.to/lastmile_qr_scan", "ios": "https://dc.lft.to/lastmile_qr_scan"}, "fusion_lon": 0.0, "lat": 38.917104, "bike_id": "c9824e9ad8e98d8441eac0830001e04d", "type": "electric_scooter", "is_reserved": 0, "lon": -77.03866916666666}, {"fusion_lat": 0.0, "name": "66395a4686dd92b3d19cea01d93519fc", "is_disabled": 0, "rental_uris": {"android": "https://dc.lft.to/lastmile_qr_scan", "ios": "https://dc.lft.to/lastmile_qr_scan"}, "fusion_lon": 0.0, "lat": 38.9143255, "bike_id": "66395a4686dd92b3d19cea01d93519fc", "type": "electric_scooter", "is_reserved": 0, "lon": -77.06421}, {"fusion_lat": 0.0, "name": "f3ebec49cd731d9de753225f4c3d9cad", "is_disabled": 0, "rental_uris": {"android": "https://dc.lft.to/lastmile_qr_scan", "ios": "https://dc.lft.to/lastmile_qr_scan"}, "fusion_lon": 0.0, "lat": 38.929119666666665, "bike_id": "f3ebec49cd731d9de753225f4c3d9cad", "type": "electric_scooter", "is_reserved": 0, "lon": -77.03745166666667}, {"fusion_lat": 0.0, "name": "40b474b142327266ad69605162bf18e3", "is_disabled": 0, "rental_uris": {"android": "https://dc.lft.to/lastmile_qr_scan", "ios": "https://dc.lft.to/lastmile_qr_scan"}, "fusion_lon": 0.0, "lat": 38.89841916666666, "bike_id": "40b474b142327266ad69605162bf18e3", "type": "electric_scooter", "is_reserved": 0, "lon": -77.02726133333333}, {"fusion_lat": 0.0, "name": "89bc217e634852a598cecb6733cb3393", "is_disabled": 0, "rental_uris": {"android": "https://dc.lft.to/lastmile_qr_scan", "ios": "https://dc.lft.to/lastmile_qr_scan"}, "fusion_lon": 0.0, "lat": 38.928216, "bike_id": "89bc217e634852a598cecb6733cb3393", "type": "electric_scooter", "is_reserved": 0, "lon": -77.03280533333333}, {"fusion_lat": 0.0, "name": "8adcc19f4333f905cfd37c10df63724b", "is_disabled": 0, "rental_uris": {"android": "https://dc.lft.to/lastmile_qr_scan", "ios": "https://dc.lft.to/lastmile_qr_scan"}, "fusion_lon": 0.0, "lat": 38.997508, "bike_id": "8adcc19f4333f905cfd37c10df63724b", "type": "electric_bike", "is_reserved": 0, "lon": -77.02685216666667}, {"fusion_lat": 0.0, "name": "baec12d4aa6e2cc23044bca81e449961", "is_disabled": 0, "rental_uris": {"android": "https://dc.lft.to/lastmile_qr_scan", "ios": "https://dc.lft.to/lastmile_qr_scan"}, "fusion_lon": 0.0, "lat": 38.90287566666667, "bike_id": "baec12d4aa6e2cc23044bca81e449961", "type": "electric_scooter", "is_reserved": 0, "lon": -77.0437495}, {"fusion_lat": 0.0, "name": "2d69e37b79d3e627ed58eaad116c67d7", "is_disabled": 0, "rental_uris": {"android": "https://dc.lft.to/lastmile_qr_scan", "ios": "https://dc.lft.to/lastmile_qr_scan"}, "fusion_lon": 0.0, "lat": 38.9229175, "bike_id": "2d69e37b79d3e627ed58eaad116c67d7", "type": "electric_scooter", "is_reserved": 0, "lon": -77.02343483333334}, {"fusion_lat": 0.0, "name": "c3527ab7af1d2a4574bc133f4545a518", "is_disabled": 0, "rental_uris": {"android": "https://dc.lft.to/lastmile_qr_scan", "ios": "https://dc.lft.to/lastmile_qr_scan"}, "fusion_lon": 0.0, "lat": 38.883088666666666, "bike_id": "c3527ab7af1d2a4574bc133f4545a518", "type": "electric_scooter", "is_reserved": 0, "lon": -77.01384333333333}, {"fusion_lat": 0.0, "name": "03501c643413dda3296318bd6f605e19", "is_disabled": 0, "rental_uris": {"android": "https://dc.lft.to/lastmile_qr_scan", "ios": "https://dc.lft.to/lastmile_qr_scan"}, "fusion_lon": 0.0, "lat": 38.89679066666667, "bike_id": "03501c643413dda3296318bd6f605e19", "type": "electric_scooter", "is_reserved": 0, "lon": -77.05096833333333}, {"fusion_lat": 0.0, "name": "6464899b9a045c1d77cb0c116f7a8fd8", "is_disabled": 0, "rental_uris": {"android": "https://dc.lft.to/lastmile_qr_scan", "ios": "https://dc.lft.to/lastmile_qr_scan"}, "fusion_lon": 0.0, "lat": 38.92447216666667, "bike_id": "6464899b9a045c1d77cb0c116f7a8fd8", "type": "electric_scooter", "is_reserved": 0, "lon": -77.0087775}, {"fusion_lat": 0.0, "name": "c343ebaa2a434415b4795feb1df99b75", "is_disabled": 0, "rental_uris": {"android": "https://dc.lft.to/lastmile_qr_scan", "ios": "https://dc.lft.to/lastmile_qr_scan"}, "fusion_lon": 0.0, "lat": 38.8994675, "bike_id": "c343ebaa2a434415b4795feb1df99b75", "type": "electric_scooter", "is_reserved": 0, "lon": -76.9973435}, {"fusion_lat": 0.0, "name": "8d14d4de107549b1ccccdce9e77155f0", "is_disabled": 0, "rental_uris": {"android": "https://dc.lft.to/lastmile_qr_scan", "ios": "https://dc.lft.to/lastmile_qr_scan"}, "fusion_lon": 0.0, "lat": 38.935827, "bike_id": "8d14d4de107549b1ccccdce9e77155f0", "type": "electric_scooter", "is_reserved": 0, "lon": -77.0335455}, {"fusion_lat": 0.0, "name": "56fe18e8b3e312444a072af7b16f0bc5", "is_disabled": 0, "rental_uris": {"android": "https://dc.lft.to/lastmile_qr_scan", "ios": "https://dc.lft.to/lastmile_qr_scan"}, "fusion_lon": 0.0, "lat": 38.916493333333335, "bike_id": "56fe18e8b3e312444a072af7b16f0bc5", "type": "electric_bike", "is_reserved": 0, "lon": -76.9821905}, {"fusion_lat": 0.0, "name": "d33b693db5f9a717d47d6fa74f56da42", "is_disabled": 0, "rental_uris": {"android": "https://dc.lft.to/lastmile_qr_scan", "ios": "https://dc.lft.to/lastmile_qr_scan"}, "fusion_lon": 0.0, "lat": 38.92683183333333, "bike_id": "d33b693db5f9a717d47d6fa74f56da42", "type": "electric_scooter", "is_reserved": 0, "lon": -77.02255216666667}, {"fusion_lat": 0.0, "name": "419c78b90c5ec62ea86dc706cee5e759", "is_disabled": 0, "rental_uris": {"android": "https://dc.lft.to/lastmile_qr_scan", "ios": "https://dc.lft.to/lastmile_qr_scan"}, "fusion_lon": 0.0, "lat": 38.9111455, "bike_id": "419c78b90c5ec62ea86dc706cee5e759", "type": "electric_scooter", "is_reserved": 0, "lon": -76.99768116666667}, {"fusion_lat": 0.0, "name": "d952e28a2542979584b394aae00264ee", "is_disabled": 0, "rental_uris": {"android": "https://dc.lft.to/lastmile_qr_scan", "ios": "https://dc.lft.to/lastmile_qr_scan"}, "fusion_lon": 0.0, "lat": 38.93060633333333, "bike_id": "d952e28a2542979584b394aae00264ee", "type": "electric_scooter", "is_reserved": 0, "lon": -77.0394915}, {"fusion_lat": 0.0, "name": "ba147c4051ac1a67b335879953363a98", "is_disabled": 0, "rental_uris": {"android": "https://dc.lft.to/lastmile_qr_scan", "ios": "https://dc.lft.to/lastmile_qr_scan"}, "fusion_lon": 0.0, "lat": 38.94979633333333, "bike_id": "ba147c4051ac1a67b335879953363a98", "type": "electric_scooter", "is_reserved": 0, "lon": -77.02699866666667}, {"fusion_lat": 0.0, "name": "2024b46555ea81bfd800bfbb7a815ccd", "is_disabled": 0, "rental_uris": {"android": "https://dc.lft.to/lastmile_qr_scan", "ios": "https://dc.lft.to/lastmile_qr_scan"}, "fusion_lon": 0.0, "lat": 38.868512333333335, "bike_id": "2024b46555ea81bfd800bfbb7a815ccd", "type": "electric_scooter", "is_reserved": 0, "lon": -76.98830116666667}, {"fusion_lat": 0.0, "name": "4c1466acfe6d27adb079809ca688dd09", "is_disabled": 0, "rental_uris": {"android": "https://dc.lft.to/lastmile_qr_scan", "ios": "https://dc.lft.to/lastmile_qr_scan"}, "fusion_lon": 0.0, "lat": 38.94979516666667, "bike_id": "4c1466acfe6d27adb079809ca688dd09", "type": "electric_scooter", "is_reserved": 0, "lon": -77.02698266666667}, {"fusion_lat": 0.0, "name": "c7b76c61df4095928758d34401f1271d", "is_disabled": 0, "rental_uris": {"android": "https://dc.lft.to/lastmile_qr_scan", "ios": "https://dc.lft.to/lastmile_qr_scan"}, "fusion_lon": 0.0, "lat": 38.94517283333333, "bike_id": "c7b76c61df4095928758d34401f1271d", "type": "electric_bike", "is_reserved": 0, "lon": -77.00675466666667}, {"fusion_lat": 0.0, "name": "6efccbee3f07dbeb5e4183bdf54b9bdb", "is_disabled": 0, "rental_uris": {"android": "https://dc.lft.to/lastmile_qr_scan", "ios": "https://dc.lft.to/lastmile_qr_scan"}, "fusion_lon": 0.0, "lat": 38.92541883333333, "bike_id": "6efccbee3f07dbeb5e4183bdf54b9bdb", "type": "electric_scooter", "is_reserved": 0, "lon": -77.051211}, {"fusion_lat": 0.0, "name": "1e4820cc92f5d7f57550c2cef421ffa2", "is_disabled": 0, "rental_uris": {"android": "https://dc.lft.to/lastmile_qr_scan", "ios": "https://dc.lft.to/lastmile_qr_scan"}, "fusion_lon": 0.0, "lat": 38.90800016666667, "bike_id": "1e4820cc92f5d7f57550c2cef421ffa2", "type": "electric_bike", "is_reserved": 0, "lon": -77.01884016666666}, {"fusion_lat": 0.0, "name": "dec485c8b5671795c53313f366852501", "is_disabled": 0, "rental_uris": {"android": "https://dc.lft.to/lastmile_qr_scan", "ios": "https://dc.lft.to/lastmile_qr_scan"}, "fusion_lon": 0.0, "lat": 38.957317333333336, "bike_id": "dec485c8b5671795c53313f366852501", "type": "electric_scooter", "is_reserved": 0, "lon": -77.02404383333334}, {"fusion_lat": 0.0, "name": "12475880066b0bfb533dad04fc3d6814", "is_disabled": 0, "rental_uris": {"android": "https://dc.lft.to/lastmile_qr_scan", "ios": "https://dc.lft.to/lastmile_qr_scan"}, "fusion_lon": 0.0, "lat": 38.8755855, "bike_id": "12475880066b0bfb533dad04fc3d6814", "type": "electric_scooter", "is_reserved": 0, "lon": -77.00749816666666}, {"fusion_lat": 0.0, "name": "7a47972afc97a07aaa1fc373e194b4ea", "is_disabled": 0, "rental_uris": {"android": "https://dc.lft.to/lastmile_qr_scan", "ios": "https://dc.lft.to/lastmile_qr_scan"}, "fusion_lon": 0.0, "lat": 38.906422, "bike_id": "7a47972afc97a07aaa1fc373e194b4ea", "type": "electric_scooter", "is_reserved": 0, "lon": -77.02960983333334}, {"fusion_lat": 0.0, "name": "6a1be46ee29b0666aa06d81b13b883cb", "is_disabled": 0, "rental_uris": {"android": "https://dc.lft.to/lastmile_qr_scan", "ios": "https://dc.lft.to/lastmile_qr_scan"}, "fusion_lon": 0.0, "lat": 38.895178666666666, "bike_id": "6a1be46ee29b0666aa06d81b13b883cb", "type": "electric_scooter", "is_reserved": 0, "lon": -76.98081683333334}, {"fusion_lat": 0.0, "name": "33356661f1d2745c0c6fe20e228ef612", "is_disabled": 0, "rental_uris": {"android": "https://dc.lft.to/lastmile_qr_scan", "ios": "https://dc.lft.to/lastmile_qr_scan"}, "fusion_lon": 0.0, "lat": 38.953455, "bike_id": "33356661f1d2745c0c6fe20e228ef612", "type": "electric_scooter", "is_reserved": 0, "lon": -77.079505}, {"fusion_lat": 0.0, "name": "fc5c0c651c840b752ad147374e6b839b", "is_disabled": 0, "rental_uris": {"android": "https://dc.lft.to/lastmile_qr_scan", "ios": "https://dc.lft.to/lastmile_qr_scan"}, "fusion_lon": 0.0, "lat": 38.935504, "bike_id": "fc5c0c651c840b752ad147374e6b839b", "type": "electric_scooter", "is_reserved": 0, "lon": -77.02225966666667}, {"fusion_lat": 0.0, "name": "3a2e47f8c5efa97d24553db61a5564ae", "is_disabled": 0, "rental_uris": {"android": "https://dc.lft.to/lastmile_qr_scan", "ios": "https://dc.lft.to/lastmile_qr_scan"}, "fusion_lon": 0.0, "lat": 38.959315, "bike_id": "3a2e47f8c5efa97d24553db61a5564ae", "type": "electric_scooter", "is_reserved": 0, "lon": -77.084735}, {"fusion_lat": 0.0, "name": "e37be9c955de2dbcbf3c7458fb290bc1", "is_disabled": 0, "rental_uris": {"android": "https://dc.lft.to/lastmile_qr_scan", "ios": "https://dc.lft.to/lastmile_qr_scan"}, "fusion_lon": 0.0, "lat": 38.89852483333333, "bike_id": "e37be9c955de2dbcbf3c7458fb290bc1", "type": "electric_scooter", "is_reserved": 0, "lon": -76.99273833333334}, {"fusion_lat": 0.0, "name": "61d8259bcb37e34a92953dd8513d6a48", "is_disabled": 0, "rental_uris": {"android": "https://dc.lft.to/lastmile_qr_scan", "ios": "https://dc.lft.to/lastmile_qr_scan"}, "fusion_lon": 0.0, "lat": 38.92507033333333, "bike_id": "61d8259bcb37e34a92953dd8513d6a48", "type": "electric_scooter", "is_reserved": 0, "lon": -77.03797983333334}, {"fusion_lat": 0.0, "name": "ae3c157a227b305793b09610777af90a", "is_disabled": 0, "rental_uris": {"android": "https://dc.lft.to/lastmile_qr_scan", "ios": "https://dc.lft.to/lastmile_qr_scan"}, "fusion_lon": 0.0, "lat": 38.90523266666667, "bike_id": "ae3c157a227b305793b09610777af90a", "type": "electric_scooter", "is_reserved": 0, "lon": -77.05161883333334}, {"fusion_lat": 0.0, "name": "076df68de47692ac23a2247f1c19a457", "is_disabled": 0, "rental_uris": {"android": "https://dc.lft.to/lastmile_qr_scan", "ios": "https://dc.lft.to/lastmile_qr_scan"}, "fusion_lon": 0.0, "lat": 38.888931, "bike_id": "076df68de47692ac23a2247f1c19a457", "type": "electric_bike", "is_reserved": 0, "lon": -77.11527183333334}, {"fusion_lat": 0.0, "name": "3fe9fa7db7fa74931a4077e376586fa1", "is_disabled": 0, "rental_uris": {"android": "https://dc.lft.to/lastmile_qr_scan", "ios": "https://dc.lft.to/lastmile_qr_scan"}, "fusion_lon": 0.0, "lat": 38.8972755, "bike_id": "3fe9fa7db7fa74931a4077e376586fa1", "type": "electric_scooter", "is_reserved": 0, "lon": -77.027273}, {"fusion_lat": 0.0, "name": "775ad2e829f63c0f8e8e89d2a9073c80", "is_disabled": 0, "rental_uris": {"android": "https://dc.lft.to/lastmile_qr_scan", "ios": "https://dc.lft.to/lastmile_qr_scan"}, "fusion_lon": 0.0, "lat": 38.964442, "bike_id": "775ad2e829f63c0f8e8e89d2a9073c80", "type": "electric_scooter", "is_reserved": 0, "lon": -77.02067733333334}, {"fusion_lat": 0.0, "name": "4e958e667a71b566a9d53da5306a5c54", "is_disabled": 0, "rental_uris": {"android": "https://dc.lft.to/lastmile_qr_scan", "ios": "https://dc.lft.to/lastmile_qr_scan"}, "fusion_lon": 0.0, "lat": 38.9010935, "bike_id": "4e958e667a71b566a9d53da5306a5c54", "type": "electric_scooter", "is_reserved": 0, "lon": -77.033759}, {"fusion_lat": 0.0, "name": "d096de34e767fcc1a223f58e7d4ed4d0", "is_disabled": 0, "rental_uris": {"android": "https://dc.lft.to/lastmile_qr_scan", "ios": "https://dc.lft.to/lastmile_qr_scan"}, "fusion_lon": 0.0, "lat": 38.92022, "bike_id": "d096de34e767fcc1a223f58e7d4ed4d0", "type": "electric_scooter", "is_reserved": 0, "lon": -77.02793116666666}, {"fusion_lat": 0.0, "name": "9f2ba10c066dd036aa80d162ba812c1f", "is_disabled": 0, "rental_uris": {"android": "https://dc.lft.to/lastmile_qr_scan", "ios": "https://dc.lft.to/lastmile_qr_scan"}, "fusion_lon": 0.0, "lat": 38.9192465, "bike_id": "9f2ba10c066dd036aa80d162ba812c1f", "type": "electric_scooter", "is_reserved": 0, "lon": -77.03175916666666}, {"fusion_lat": 0.0, "name": "0af16bb076b5556efc29748b2d072abc", "is_disabled": 0, "rental_uris": {"android": "https://dc.lft.to/lastmile_qr_scan", "ios": "https://dc.lft.to/lastmile_qr_scan"}, "fusion_lon": 0.0, "lat": 38.921836166666665, "bike_id": "0af16bb076b5556efc29748b2d072abc", "type": "electric_scooter", "is_reserved": 0, "lon": -77.0423065}, {"fusion_lat": 0.0, "name": "c93a8f821b11715fed0b93e794689083", "is_disabled": 0, "rental_uris": {"android": "https://dc.lft.to/lastmile_qr_scan", "ios": "https://dc.lft.to/lastmile_qr_scan"}, "fusion_lon": 0.0, "lat": 38.934852, "bike_id": "c93a8f821b11715fed0b93e794689083", "type": "electric_scooter", "is_reserved": 0, "lon": -77.03074266666667}, {"fusion_lat": 0.0, "name": "fac994ce908bb63e8ece392e6606c814", "is_disabled": 0, "rental_uris": {"android": "https://dc.lft.to/lastmile_qr_scan", "ios": "https://dc.lft.to/lastmile_qr_scan"}, "fusion_lon": 0.0, "lat": 38.8956075, "bike_id": "fac994ce908bb63e8ece392e6606c814", "type": "electric_scooter", "is_reserved": 0, "lon": -76.9942385}, {"fusion_lat": 0.0, "name": "6186f0f97e9868da0ef1980f5ce28792", "is_disabled": 0, "rental_uris": {"android": "https://dc.lft.to/lastmile_qr_scan", "ios": "https://dc.lft.to/lastmile_qr_scan"}, "fusion_lon": 0.0, "lat": 38.921475, "bike_id": "6186f0f97e9868da0ef1980f5ce28792", "type": "electric_scooter", "is_reserved": 0, "lon": -77.0210095}, {"fusion_lat": 0.0, "name": "45fb087b9cb94cab33c2ebca18ffea46", "is_disabled": 0, "rental_uris": {"android": "https://dc.lft.to/lastmile_qr_scan", "ios": "https://dc.lft.to/lastmile_qr_scan"}, "fusion_lon": 0.0, "lat": 39.014169, "bike_id": "45fb087b9cb94cab33c2ebca18ffea46", "type": "electric_bike", "is_reserved": 0, "lon": -77.045011}, {"fusion_lat": 0.0, "name": "9baa82a5eb5492816e9aaa97b85837a9", "is_disabled": 0, "rental_uris": {"android": "https://dc.lft.to/lastmile_qr_scan", "ios": "https://dc.lft.to/lastmile_qr_scan"}, "fusion_lon": 0.0, "lat": 38.90207266666667, "bike_id": "9baa82a5eb5492816e9aaa97b85837a9", "type": "electric_scooter", "is_reserved": 0, "lon": -77.02365416666666}, {"fusion_lat": 0.0, "name": "6732bbcf9d5498c97897dc4269c290f8", "is_disabled": 0, "rental_uris": {"android": "https://dc.lft.to/lastmile_qr_scan", "ios": "https://dc.lft.to/lastmile_qr_scan"}, "fusion_lon": 0.0, "lat": 38.88517366666667, "bike_id": "6732bbcf9d5498c97897dc4269c290f8", "type": "electric_scooter", "is_reserved": 0, "lon": -76.997479}, {"fusion_lat": 0.0, "name": "7bbd1724acd3ae6d6a755d93c4a43c06", "is_disabled": 0, "rental_uris": {"android": "https://dc.lft.to/lastmile_qr_scan", "ios": "https://dc.lft.to/lastmile_qr_scan"}, "fusion_lon": 0.0, "lat": 38.90837633333334, "bike_id": "7bbd1724acd3ae6d6a755d93c4a43c06", "type": "electric_bike", "is_reserved": 0, "lon": -77.002072}, {"fusion_lat": 0.0, "name": "8ce5ff7abc18b99467c9395ae463ef0b", "is_disabled": 0, "rental_uris": {"android": "https://dc.lft.to/lastmile_qr_scan", "ios": "https://dc.lft.to/lastmile_qr_scan"}, "fusion_lon": 0.0, "lat": 38.917192166666666, "bike_id": "8ce5ff7abc18b99467c9395ae463ef0b", "type": "electric_scooter", "is_reserved": 0, "lon": -77.02810833333334}, {"fusion_lat": 0.0, "name": "f013741542d0607319967d1118ab13d1", "is_disabled": 0, "rental_uris": {"android": "https://dc.lft.to/lastmile_qr_scan", "ios": "https://dc.lft.to/lastmile_qr_scan"}, "fusion_lon": 0.0, "lat": 38.9085005, "bike_id": "f013741542d0607319967d1118ab13d1", "type": "electric_scooter", "is_reserved": 0, "lon": -77.04735383333333}, {"fusion_lat": 0.0, "name": "2282a7ef9e4b2d65a77264e71fe06df3", "is_disabled": 0, "rental_uris": {"android": "https://dc.lft.to/lastmile_qr_scan", "ios": "https://dc.lft.to/lastmile_qr_scan"}, "fusion_lon": 0.0, "lat": 38.90542766666667, "bike_id": "2282a7ef9e4b2d65a77264e71fe06df3", "type": "electric_scooter", "is_reserved": 0, "lon": -77.0466535}, {"fusion_lat": 0.0, "name": "8d0715b14e58b53dbac54973e7e36859", "is_disabled": 0, "rental_uris": {"android": "https://dc.lft.to/lastmile_qr_scan", "ios": "https://dc.lft.to/lastmile_qr_scan"}, "fusion_lon": 0.0, "lat": 38.90973, "bike_id": "8d0715b14e58b53dbac54973e7e36859", "type": "electric_scooter", "is_reserved": 0, "lon": -77.034376}, {"fusion_lat": 0.0, "name": "76001942aa732d168c5f3e1c5ff3e05b", "is_disabled": 0, "rental_uris": {"android": "https://dc.lft.to/lastmile_qr_scan", "ios": "https://dc.lft.to/lastmile_qr_scan"}, "fusion_lon": 0.0, "lat": 38.91567116666667, "bike_id": "76001942aa732d168c5f3e1c5ff3e05b", "type": "electric_scooter", "is_reserved": 0, "lon": -77.04160116666667}, {"fusion_lat": 0.0, "name": "8d62d620af6da5fb7acddd9d8559e610", "is_disabled": 0, "rental_uris": {"android": "https://dc.lft.to/lastmile_qr_scan", "ios": "https://dc.lft.to/lastmile_qr_scan"}, "fusion_lon": 0.0, "lat": 38.9180265, "bike_id": "8d62d620af6da5fb7acddd9d8559e610", "type": "electric_scooter", "is_reserved": 0, "lon": -77.03445366666666}, {"fusion_lat": 0.0, "name": "0da39c0efd001fb09c9dd472367268ce", "is_disabled": 0, "rental_uris": {"android": "https://dc.lft.to/lastmile_qr_scan", "ios": "https://dc.lft.to/lastmile_qr_scan"}, "fusion_lon": 0.0, "lat": 38.902530166666665, "bike_id": "0da39c0efd001fb09c9dd472367268ce", "type": "electric_scooter", "is_reserved": 0, "lon": -77.02869866666667}, {"fusion_lat": 0.0, "name": "5c31c819be90d637346c15f95a93e386", "is_disabled": 0, "rental_uris": {"android": "https://dc.lft.to/lastmile_qr_scan", "ios": "https://dc.lft.to/lastmile_qr_scan"}, "fusion_lon": 0.0, "lat": 38.92065983333333, "bike_id": "5c31c819be90d637346c15f95a93e386", "type": "electric_scooter", "is_reserved": 0, "lon": -77.02441033333334}, {"fusion_lat": 0.0, "name": "3633647f7b691d7140719797dbf05e56", "is_disabled": 0, "rental_uris": {"android": "https://dc.lft.to/lastmile_qr_scan", "ios": "https://dc.lft.to/lastmile_qr_scan"}, "fusion_lon": 0.0, "lat": 38.918012833333336, "bike_id": "3633647f7b691d7140719797dbf05e56", "type": "electric_scooter", "is_reserved": 0, "lon": -77.02707016666666}, {"fusion_lat": 0.0, "name": "5c54aa9daa4d3842496cfdd7ed9e6f0d", "is_disabled": 0, "rental_uris": {"android": "https://dc.lft.to/lastmile_qr_scan", "ios": "https://dc.lft.to/lastmile_qr_scan"}, "fusion_lon": 0.0, "lat": 38.88040816666667, "bike_id": "5c54aa9daa4d3842496cfdd7ed9e6f0d", "type": "electric_scooter", "is_reserved": 0, "lon": -77.01333316666667}, {"fusion_lat": 0.0, "name": "7329cc847e95c86c1f53926d9f7f8786", "is_disabled": 0, "rental_uris": {"android": "https://dc.lft.to/lastmile_qr_scan", "ios": "https://dc.lft.to/lastmile_qr_scan"}, "fusion_lon": 0.0, "lat": 38.87673766666666, "bike_id": "7329cc847e95c86c1f53926d9f7f8786", "type": "electric_bike", "is_reserved": 0, "lon": -77.02095466666667}, {"fusion_lat": 0.0, "name": "306ed3a984f4f3fc18c060b4bb854f9b", "is_disabled": 0, "rental_uris": {"android": "https://dc.lft.to/lastmile_qr_scan", "ios": "https://dc.lft.to/lastmile_qr_scan"}, "fusion_lon": 0.0, "lat": 38.87686933333333, "bike_id": "306ed3a984f4f3fc18c060b4bb854f9b", "type": "electric_bike", "is_reserved": 0, "lon": -77.014628}, {"fusion_lat": 0.0, "name": "6755f837fc560d732c93ca1fa4883ea0", "is_disabled": 0, "rental_uris": {"android": "https://dc.lft.to/lastmile_qr_scan", "ios": "https://dc.lft.to/lastmile_qr_scan"}, "fusion_lon": 0.0, "lat": 38.966211666666666, "bike_id": "6755f837fc560d732c93ca1fa4883ea0", "type": "electric_bike", "is_reserved": 0, "lon": -77.03422466666666}, {"fusion_lat": 0.0, "name": "d685656dfe2b40c0ba841e647eced1d1", "is_disabled": 0, "rental_uris": {"android": "https://dc.lft.to/lastmile_qr_scan", "ios": "https://dc.lft.to/lastmile_qr_scan"}, "fusion_lon": 0.0, "lat": 38.912593, "bike_id": "d685656dfe2b40c0ba841e647eced1d1", "type": "electric_scooter", "is_reserved": 0, "lon": -77.0386775}, {"fusion_lat": 0.0, "name": "53f1090160d7666d89c260d898d9a8a2", "is_disabled": 0, "rental_uris": {"android": "https://dc.lft.to/lastmile_qr_scan", "ios": "https://dc.lft.to/lastmile_qr_scan"}, "fusion_lon": 0.0, "lat": 38.922638666666664, "bike_id": "53f1090160d7666d89c260d898d9a8a2", "type": "electric_scooter", "is_reserved": 0, "lon": -77.03669883333333}, {"fusion_lat": 0.0, "name": "372e0261b3f57ef3a27e54dbd8898384", "is_disabled": 0, "rental_uris": {"android": "https://dc.lft.to/lastmile_qr_scan", "ios": "https://dc.lft.to/lastmile_qr_scan"}, "fusion_lon": 0.0, "lat": 38.935022833333335, "bike_id": "372e0261b3f57ef3a27e54dbd8898384", "type": "electric_scooter", "is_reserved": 0, "lon": -77.02405916666666}, {"fusion_lat": 0.0, "name": "351a445f8ed631dcb9121d1628fd6675", "is_disabled": 0, "rental_uris": {"android": "https://dc.lft.to/lastmile_qr_scan", "ios": "https://dc.lft.to/lastmile_qr_scan"}, "fusion_lon": 0.0, "lat": 38.916274666666666, "bike_id": "351a445f8ed631dcb9121d1628fd6675", "type": "electric_scooter", "is_reserved": 0, "lon": -77.0385115}, {"fusion_lat": 0.0, "name": "a3cf109c3ce3852fdb61dd0027117820", "is_disabled": 0, "rental_uris": {"android": "https://dc.lft.to/lastmile_qr_scan", "ios": "https://dc.lft.to/lastmile_qr_scan"}, "fusion_lon": 0.0, "lat": 38.900787333333334, "bike_id": "a3cf109c3ce3852fdb61dd0027117820", "type": "electric_scooter", "is_reserved": 0, "lon": -77.05836383333333}, {"fusion_lat": 0.0, "name": "d061c23fed9c7d3c28572cf331eb95ea", "is_disabled": 0, "rental_uris": {"android": "https://dc.lft.to/lastmile_qr_scan", "ios": "https://dc.lft.to/lastmile_qr_scan"}, "fusion_lon": 0.0, "lat": 38.909639, "bike_id": "d061c23fed9c7d3c28572cf331eb95ea", "type": "electric_scooter", "is_reserved": 0, "lon": -77.0325185}, {"fusion_lat": 0.0, "name": "5ce7de4eeebe8cea65c1f971c186e805", "is_disabled": 0, "rental_uris": {"android": "https://dc.lft.to/lastmile_qr_scan", "ios": "https://dc.lft.to/lastmile_qr_scan"}, "fusion_lon": 0.0, "lat": 38.92581416666667, "bike_id": "5ce7de4eeebe8cea65c1f971c186e805", "type": "electric_scooter", "is_reserved": 0, "lon": -77.03740466666666}, {"fusion_lat": 0.0, "name": "c6867dfa53151b85d3bea0f9cd37b177", "is_disabled": 0, "rental_uris": {"android": "https://dc.lft.to/lastmile_qr_scan", "ios": "https://dc.lft.to/lastmile_qr_scan"}, "fusion_lon": 0.0, "lat": 38.93406866666667, "bike_id": "c6867dfa53151b85d3bea0f9cd37b177", "type": "electric_scooter", "is_reserved": 0, "lon": -77.04164566666667}, {"fusion_lat": 0.0, "name": "7c90eb3c284d987946229a45785656f6", "is_disabled": 0, "rental_uris": {"android": "https://dc.lft.to/lastmile_qr_scan", "ios": "https://dc.lft.to/lastmile_qr_scan"}, "fusion_lon": 0.0, "lat": 38.906780499999996, "bike_id": "7c90eb3c284d987946229a45785656f6", "type": "electric_scooter", "is_reserved": 0, "lon": -77.07011466666667}, {"fusion_lat": 0.0, "name": "a6efda9025e53f038b2f31a0714b7114", "is_disabled": 0, "rental_uris": {"android": "https://dc.lft.to/lastmile_qr_scan", "ios": "https://dc.lft.to/lastmile_qr_scan"}, "fusion_lon": 0.0, "lat": 38.897259, "bike_id": "a6efda9025e53f038b2f31a0714b7114", "type": "electric_scooter", "is_reserved": 0, "lon": -77.02159983333334}, {"fusion_lat": 0.0, "name": "8119de01afd663625fccbd34e20419f3", "is_disabled": 0, "rental_uris": {"android": "https://dc.lft.to/lastmile_qr_scan", "ios": "https://dc.lft.to/lastmile_qr_scan"}, "fusion_lon": 0.0, "lat": 38.899064833333334, "bike_id": "8119de01afd663625fccbd34e20419f3", "type": "electric_scooter", "is_reserved": 0, "lon": -76.93349}, {"fusion_lat": 0.0, "name": "3c399a9adf2a5e487221b060577a719a", "is_disabled": 0, "rental_uris": {"android": "https://dc.lft.to/lastmile_qr_scan", "ios": "https://dc.lft.to/lastmile_qr_scan"}, "fusion_lon": 0.0, "lat": 38.900179666666666, "bike_id": "3c399a9adf2a5e487221b060577a719a", "type": "electric_scooter", "is_reserved": 0, "lon": -77.00031883333334}, {"fusion_lat": 0.0, "name": "fca44cece2554f598e371f040f5b0118", "is_disabled": 0, "rental_uris": {"android": "https://dc.lft.to/lastmile_qr_scan", "ios": "https://dc.lft.to/lastmile_qr_scan"}, "fusion_lon": 0.0, "lat": 38.938432666666664, "bike_id": "fca44cece2554f598e371f040f5b0118", "type": "electric_scooter", "is_reserved": 0, "lon": -77.06244416666667}, {"fusion_lat": 0.0, "name": "6c11160bb6fd36f9d6f3d559ed526ad1", "is_disabled": 0, "rental_uris": {"android": "https://dc.lft.to/lastmile_qr_scan", "ios": "https://dc.lft.to/lastmile_qr_scan"}, "fusion_lon": 0.0, "lat": 38.9666905, "bike_id": "6c11160bb6fd36f9d6f3d559ed526ad1", "type": "electric_bike", "is_reserved": 0, "lon": -76.97443916666667}, {"fusion_lat": 0.0, "name": "fc9083a2b469c9b8517730346289f0b3", "is_disabled": 0, "rental_uris": {"android": "https://dc.lft.to/lastmile_qr_scan", "ios": "https://dc.lft.to/lastmile_qr_scan"}, "fusion_lon": 0.0, "lat": 38.91999216666667, "bike_id": "fc9083a2b469c9b8517730346289f0b3", "type": "electric_scooter", "is_reserved": 0, "lon": -77.0327825}, {"fusion_lat": 0.0, "name": "4959f141381329ed901d9d4c418ede38", "is_disabled": 0, "rental_uris": {"android": "https://dc.lft.to/lastmile_qr_scan", "ios": "https://dc.lft.to/lastmile_qr_scan"}, "fusion_lon": 0.0, "lat": 38.840867, "bike_id": "4959f141381329ed901d9d4c418ede38", "type": "electric_bike", "is_reserved": 0, "lon": -76.97030033333333}, {"fusion_lat": 0.0, "name": "9c53681850b0e7b77bc3f0c3cb2f0e04", "is_disabled": 0, "rental_uris": {"android": "https://dc.lft.to/lastmile_qr_scan", "ios": "https://dc.lft.to/lastmile_qr_scan"}, "fusion_lon": 0.0, "lat": 38.929894166666664, "bike_id": "9c53681850b0e7b77bc3f0c3cb2f0e04", "type": "electric_scooter", "is_reserved": 0, "lon": -77.03233516666667}, {"fusion_lat": 0.0, "name": "52b0281f2afab4ba69a8b6ea070cf1fb", "is_disabled": 0, "rental_uris": {"android": "https://dc.lft.to/lastmile_qr_scan", "ios": "https://dc.lft.to/lastmile_qr_scan"}, "fusion_lon": 0.0, "lat": 38.915999, "bike_id": "52b0281f2afab4ba69a8b6ea070cf1fb", "type": "electric_scooter", "is_reserved": 0, "lon": -77.04909883333333}, {"fusion_lat": 0.0, "name": "02bf41cd487626e6f2503f3920308110", "is_disabled": 0, "rental_uris": {"android": "https://dc.lft.to/lastmile_qr_scan", "ios": "https://dc.lft.to/lastmile_qr_scan"}, "fusion_lon": 0.0, "lat": 38.9022335, "bike_id": "02bf41cd487626e6f2503f3920308110", "type": "electric_scooter", "is_reserved": 0, "lon": -77.023653}, {"fusion_lat": 0.0, "name": "e370c9feac3eafa1a27bc08a8f5c8bce", "is_disabled": 0, "rental_uris": {"android": "https://dc.lft.to/lastmile_qr_scan", "ios": "https://dc.lft.to/lastmile_qr_scan"}, "fusion_lon": 0.0, "lat": 38.918205, "bike_id": "e370c9feac3eafa1a27bc08a8f5c8bce", "type": "electric_scooter", "is_reserved": 0, "lon": -77.0318885}, {"fusion_lat": 0.0, "name": "578255d649ee59f93f6189cdf3726fa7", "is_disabled": 0, "rental_uris": {"android": "https://dc.lft.to/lastmile_qr_scan", "ios": "https://dc.lft.to/lastmile_qr_scan"}, "fusion_lon": 0.0, "lat": 38.920233333333336, "bike_id": "578255d649ee59f93f6189cdf3726fa7", "type": "electric_scooter", "is_reserved": 0, "lon": -77.07124333333333}, {"fusion_lat": 0.0, "name": "626df29c55d2a8e83a545a83caaf1521", "is_disabled": 0, "rental_uris": {"android": "https://dc.lft.to/lastmile_qr_scan", "ios": "https://dc.lft.to/lastmile_qr_scan"}, "fusion_lon": 0.0, "lat": 38.9261285, "bike_id": "626df29c55d2a8e83a545a83caaf1521", "type": "electric_scooter", "is_reserved": 0, "lon": -77.0432235}, {"fusion_lat": 0.0, "name": "af9f2cdaf3de748b6c87839b9d6dda56", "is_disabled": 0, "rental_uris": {"android": "https://dc.lft.to/lastmile_qr_scan", "ios": "https://dc.lft.to/lastmile_qr_scan"}, "fusion_lon": 0.0, "lat": 38.931186, "bike_id": "af9f2cdaf3de748b6c87839b9d6dda56", "type": "electric_scooter", "is_reserved": 0, "lon": -77.02097966666666}, {"fusion_lat": 0.0, "name": "0355f7166ec7ac1c6865a7c442c0b907", "is_disabled": 0, "rental_uris": {"android": "https://dc.lft.to/lastmile_qr_scan", "ios": "https://dc.lft.to/lastmile_qr_scan"}, "fusion_lon": 0.0, "lat": 38.9411525, "bike_id": "0355f7166ec7ac1c6865a7c442c0b907", "type": "electric_scooter", "is_reserved": 0, "lon": -77.02544666666667}, {"fusion_lat": 0.0, "name": "4e0080027623b4bfb7e228ad09997349", "is_disabled": 0, "rental_uris": {"android": "https://dc.lft.to/lastmile_qr_scan", "ios": "https://dc.lft.to/lastmile_qr_scan"}, "fusion_lon": 0.0, "lat": 38.88362266666667, "bike_id": "4e0080027623b4bfb7e228ad09997349", "type": "electric_scooter", "is_reserved": 0, "lon": -76.94160983333333}, {"fusion_lat": 0.0, "name": "2b2f994d25c6e159f9bb09d259f2e95f", "is_disabled": 0, "rental_uris": {"android": "https://dc.lft.to/lastmile_qr_scan", "ios": "https://dc.lft.to/lastmile_qr_scan"},