{"data": {"bikes": [{"rental_uris": {"android": "https://dc.lft.to/lastmile_qr_scan", "ios": "https://dc.lft.to/lastmile_qr_scan"}, "is_reserved": 0, "is_disabled": 0, "name": "98bc650f97e26194f0837b5df4445fb0", "bike_id": "98bc650f97e26194f0837b5df4445fb0", "fusion_lat": 0.0, "lon": -77.01550916666666, "type": "electric_scooter", "fusion_lon": 0.0, "lat": 38.927845166666664}, {"rental_uris": {"android": "https://dc.lft.to/lastmile_qr_scan", "ios": "https://dc.lft.to/lastmile_qr_scan"}, "is_reserved": 0, "is_disabled": 0, "name": "abc52af4996eafca7c1f43939af618d3", "bike_id": "abc52af4996eafca7c1f43939af618d3", "fusion_lat": 0.0, "lon": -77.048675, "type": "electric_scooter", "fusion_lon": 0.0, "lat": 38.9103295}, {"rental_uris": {"android": "https://dc.lft.to/lastmile_qr_scan", "ios": "https://dc.lft.to/lastmile_qr_scan"}, "is_reserved": 0, "is_disabled": 0, "name": "8509cfe37f30cf9b53011f69979728d4", "bike_id": "8509cfe37f30cf9b53011f69979728d4", "fusion_lat": 0.0, "lon": -77.020239, "type": "electric_scooter", "fusion_lon": 0.0, "lat": 38.924401}, {"rental_uris": {"android": "https://dc.lft.to/lastmile_qr_scan", "ios": "https://dc.lft.to/lastmile_qr_scan"}, "is_reserved": 0, "is_disabled": 0, "name": "2ab6d69e1a86d06df7246d1b71b90572", "bike_id": "2ab6d69e1a86d06df7246d1b71b90572", "fusion_lat": 0.0, "lon": -77.03501316666667, "type": "electric_scooter", "fusion_lon": 0.0, "lat": 38.91879616666667}, {"rental_uris": {"android": "https://dc.lft.to/lastmile_qr_scan", "ios": "https://dc.lft.to/lastmile_qr_scan"}, "is_reserved": 0, "is_disabled": 0, "name": "7ed31d4be5d2851bd1eb5f4f634827be", "bike_id": "7ed31d4be5d2851bd1eb5f4f634827be", "fusion_lat": 0.0, "lon": -77.02427833333333, "type": "electric_scooter", "fusion_lon": 0.0, "lat": 38.92045366666667}, {"rental_uris": {"android": "https://dc.lft.to/lastmile_qr_scan", "ios": "https://dc.lft.to/lastmile_qr_scan"}, "is_reserved": 0, "is_disabled": 0, "name": "0c81f200ca1a2d65af4604874eba6536", "bike_id": "0c81f200ca1a2d65af4604874eba6536", "fusion_lat": 0.0, "lon": -77.00602783333333, "type": "electric_scooter", "fusion_lon": 0.0, "lat": 38.87543433333333}, {"rental_uris": {"android": "https://dc.lft.to/lastmile_qr_scan", "ios": "https://dc.lft.to/lastmile_qr_scan"}, "is_reserved": 0, "is_disabled": 0, "name": "e7548b7145029799a17b92800ac92829", "bike_id": "e7548b7145029799a17b92800ac92829", "fusion_lat": 0.0, "lon": -76.9820935, "type": "electric_bike", "fusion_lon": 0.0, "lat": 38.985089333333335}, {"rental_uris": {"android": "https://dc.lft.to/lastmile_qr_scan", "ios": "https://dc.lft.to/lastmile_qr_scan"}, "is_reserved": 0, "is_disabled": 0, "name": "323deaf9280bf48a8dae726823e17234", "bike_id": "323deaf9280bf48a8dae726823e17234", "fusion_lat": 0.0, "lon": -77.03371683333333, "type": "electric_scooter", "fusion_lon": 0.0, "lat": 38.9002805}, {"rental_uris": {"android": "https://dc.lft.to/lastmile_qr_scan", "ios": "https://dc.lft.to/lastmile_qr_scan"}, "is_reserved": 0, "is_disabled": 0, "name": "3c720dc6073b73689dd068b5304d6492", "bike_id": "3c720dc6073b73689dd068b5304d6492", "fusion_lat": 0.0, "lon": -77.08724466666666, "type": "electric_bike", "fusion_lon": 0.0, "lat": 38.86239883333333}, {"rental_uris": {"android": "https://dc.lft.to/lastmile_qr_scan", "ios": "https://dc.lft.to/lastmile_qr_scan"}, "is_reserved": 0, "is_disabled": 0, "name": "e78055d1baa9fd3e26051c59bb8833d7", "bike_id": "e78055d1baa9fd3e26051c59bb8833d7", "fusion_lat": 0.0, "lon": -77.03564816666666, "type": "electric_scooter", "fusion_lon": 0.0, "lat": 38.924742333333334}, {"rental_uris": {"android": "https://dc.lft.to/lastmile_qr_scan", "ios": "https://dc.lft.to/lastmile_qr_scan"}, "is_reserved": 0, "is_disabled": 0, "name": "6379a82645e898408f6bf32f34e6da0b", "bike_id": "6379a82645e898408f6bf32f34e6da0b", "fusion_lat": 0.0, "lon": -77.07109716666666, "type": "electric_scooter", "fusion_lon": 0.0, "lat": 38.919555}, {"rental_uris": {"android": "https://dc.lft.to/lastmile_qr_scan", "ios": "https://dc.lft.to/lastmile_qr_scan"}, "is_reserved": 0, "is_disabled": 0, "name": "196358b676ea5b8e7d4a3b53f1abea9d", "bike_id": "196358b676ea5b8e7d4a3b53f1abea9d", "fusion_lat": 0.0, "lon": -77.017395, "type": "electric_scooter", "fusion_lon": 0.0, "lat": 38.90258516666667}, {"rental_uris": {"android": "https://dc.lft.to/lastmile_qr_scan", "ios": "https://dc.lft.to/lastmile_qr_scan"}, "is_reserved": 0, "is_disabled": 0, "name": "d8404b8471bb08d26890c66f471c65a6", "bike_id": "d8404b8471bb08d26890c66f471c65a6", "fusion_lat": 0.0, "lon": -77.01555733333333, "type": "electric_scooter", "fusion_lon": 0.0, "lat": 38.918534333333334}, {"rental_uris": {"android": "https://dc.lft.to/lastmile_qr_scan", "ios": "https://dc.lft.to/lastmile_qr_scan"}, "is_reserved": 0, "is_disabled": 0, "name": "e314b6333007c86edc66a593093d79ef", "bike_id": "e314b6333007c86edc66a593093d79ef", "fusion_lat": 0.0, "lon": -77.01651566666666, "type": "electric_scooter", "fusion_lon": 0.0, "lat": 38.9420725}, {"rental_uris": {"android": "https://dc.lft.to/lastmile_qr_scan", "ios": "https://dc.lft.to/lastmile_qr_scan"}, "is_reserved": 0, "is_disabled": 0, "name": "5f7c3aa3daba0ff42633fce9e1958772", "bike_id": "5f7c3aa3daba0ff42633fce9e1958772", "fusion_lat": 0.0, "lon": -77.044344, "type": "electric_scooter", "fusion_lon": 0.0, "lat": 38.9057545}, {"rental_uris": {"android": "https://dc.lft.to/lastmile_qr_scan", "ios": "https://dc.lft.to/lastmile_qr_scan"}, "is_reserved": 0, "is_disabled": 0, "name": "cf4d1c68a21be59fb0a4994dc13a16b1", "bike_id": "cf4d1c68a21be59fb0a4994dc13a16b1", "fusion_lat": 0.0, "lon": -77.02561983333334, "type": "electric_scooter", "fusion_lon": 0.0, "lat": 38.94191333333333}, {"rental_uris": {"android": "https://dc.lft.to/lastmile_qr_scan", "ios": "https://dc.lft.to/lastmile_qr_scan"}, "is_reserved": 0, "is_disabled": 0, "name": "562fbea47d460708187ef7fd2f5cc2a8", "bike_id": "562fbea47d460708187ef7fd2f5cc2a8", "fusion_lat": 0.0, "lon": -76.99941383333334, "type": "electric_scooter", "fusion_lon": 0.0, "lat": 38.90713866666667}, {"rental_uris": {"android": "https://dc.lft.to/lastmile_qr_scan", "ios": "https://dc.lft.to/lastmile_qr_scan"}, "is_reserved": 0, "is_disabled": 0, "name": "4d949c308686563f832d93ffdeff531d", "bike_id": "4d949c308686563f832d93ffdeff531d", "fusion_lat": 0.0, "lon": -77.00346983333333, "type": "electric_scooter", "fusion_lon": 0.0, "lat": 38.87680733333333}, {"rental_uris": {"android": "https://dc.lft.to/lastmile_qr_scan", "ios": "https://dc.lft.to/lastmile_qr_scan"}, "is_reserved": 0, "is_disabled": 0, "name": "47d54b339a552361bcd888704142fb19", "bike_id": "47d54b339a552361bcd888704142fb19", "fusion_lat": 0.0, "lon": -77.04639883333333, "type": "electric_scooter", "fusion_lon": 0.0, "lat": 38.89220816666667}, {"rental_uris": {"android": "https://dc.lft.to/lastmile_qr_scan", "ios": "https://dc.lft.to/lastmile_qr_scan"}, "is_reserved": 0, "is_disabled": 0, "name": "9cc7db363c48c96d8452e0ec3fc88380", "bike_id": "9cc7db363c48c96d8452e0ec3fc88380", "fusion_lat": 0.0, "lon": -77.03703216666666, "type": "electric_scooter", "fusion_lon": 0.0, "lat": 38.926345}, {"rental_uris": {"android": "https://dc.lft.to/lastmile_qr_scan", "ios": "https://dc.lft.to/lastmile_qr_scan"}, "is_reserved": 0, "is_disabled": 0, "name": "3611289bf89d522837f92091c64e7411", "bike_id": "3611289bf89d522837f92091c64e7411", "fusion_lat": 0.0, "lon": -77.02664216666666, "type": "electric_scooter", "fusion_lon": 0.0, "lat": 38.9309765}, {"rental_uris": {"android": "https://dc.lft.to/lastmile_qr_scan", "ios": "https://dc.lft.to/lastmile_qr_scan"}, "is_reserved": 0, "is_disabled": 0, "name": "986f9fd31f059bf63f49f0cb31c957ea", "bike_id": "986f9fd31f059bf63f49f0cb31c957ea", "fusion_lat": 0.0, "lon": -77.0242065, "type": "electric_scooter", "fusion_lon": 0.0, "lat": 38.9182445}, {"rental_uris": {"android": "https://dc.lft.to/lastmile_qr_scan", "ios": "https://dc.lft.to/lastmile_qr_scan"}, "is_reserved": 0, "is_disabled": 0, "name": "3d2cab58b15aa8d68b65b78d6038e047", "bike_id": "3d2cab58b15aa8d68b65b78d6038e047", "fusion_lat": 0.0, "lon": -76.93173866666666, "type": "electric_scooter", "fusion_lon": 0.0, "lat": 38.89884716666667}, {"rental_uris": {"android": "https://dc.lft.to/lastmile_qr_scan", "ios": "https://dc.lft.to/lastmile_qr_scan"}, "is_reserved": 0, "is_disabled": 0, "name": "591fafdbb7abb024b454f76c8ea52c21", "bike_id": "591fafdbb7abb024b454f76c8ea52c21", "fusion_lat": 0.0, "lon": -77.04431716666667, "type": "electric_scooter", "fusion_lon": 0.0, "lat": 38.896076666666666}, {"rental_uris": {"android": "https://dc.lft.to/lastmile_qr_scan", "ios": "https://dc.lft.to/lastmile_qr_scan"}, "is_reserved": 0, "is_disabled": 0, "name": "9a447c11383e4fb60b0b3eab32505838", "bike_id": "9a447c11383e4fb60b0b3eab32505838", "fusion_lat": 0.0, "lon": -77.03627766666666, "type": "electric_scooter", "fusion_lon": 0.0, "lat": 38.936773}, {"rental_uris": {"android": "https://dc.lft.to/lastmile_qr_scan", "ios": "https://dc.lft.to/lastmile_qr_scan"}, "is_reserved": 0, "is_disabled": 0, "name": "6ac40a5c4c7e420030cbe2283c3c1b20", "bike_id": "6ac40a5c4c7e420030cbe2283c3c1b20", "fusion_lat": 0.0, "lon": -77.058212, "type": "electric_scooter", "fusion_lon": 0.0, "lat": 38.93530633333334}, {"rental_uris": {"android": "https://dc.lft.to/lastmile_qr_scan", "ios": "https://dc.lft.to/lastmile_qr_scan"}, "is_reserved": 0, "is_disabled": 0, "name": "1afebc4f4b8a4c67c56e8bcd3564e636", "bike_id": "1afebc4f4b8a4c67c56e8bcd3564e636", "fusion_lat": 0.0, "lon": -77.00018483333334, "type": "electric_scooter", "fusion_lon": 0.0, "lat": 38.91973433333333}, {"rental_uris": {"android": "https://dc.lft.to/lastmile_qr_scan", "ios": "https://dc.lft.to/lastmile_qr_scan"}, "is_reserved": 0, "is_disabled": 0, "name": "3d107ac30571d758e8edb359f11d67c5", "bike_id": "3d107ac30571d758e8edb359f11d67c5", "fusion_lat": 0.0, "lon": -77.0380315, "type": "electric_scooter", "fusion_lon": 0.0, "lat": 38.90677916666667}, {"rental_uris": {"android": "https://dc.lft.to/lastmile_qr_scan", "ios": "https://dc.lft.to/lastmile_qr_scan"}, "is_reserved": 0, "is_disabled": 0, "name": "32bebe8f6958fb5a4ac790b6c27c49c4", "bike_id": "32bebe8f6958fb5a4ac790b6c27c49c4", "fusion_lat": 0.0, "lon": -77.02410116666667, "type": "electric_scooter", "fusion_lon": 0.0, "lat": 38.90975566666667}, {"rental_uris": {"android": "https://dc.lft.to/lastmile_qr_scan", "ios": "https://dc.lft.to/lastmile_qr_scan"}, "is_reserved": 0, "is_disabled": 0, "name": "55206bcf66815ba616f5c69dbc4ae22e", "bike_id": "55206bcf66815ba616f5c69dbc4ae22e", "fusion_lat": 0.0, "lon": -77.027059, "type": "electric_bike", "fusion_lon": 0.0, "lat": 38.8962685}, {"rental_uris": {"android": "https://dc.lft.to/lastmile_qr_scan", "ios": "https://dc.lft.to/lastmile_qr_scan"}, "is_reserved": 0, "is_disabled": 0, "name": "2f962fa44606d9968ea6a780e3922d89", "bike_id": "2f962fa44606d9968ea6a780e3922d89", "fusion_lat": 0.0, "lon": -77.02398916666667, "type": "electric_scooter", "fusion_lon": 0.0, "lat": 38.91648433333334}, {"rental_uris": {"android": "https://dc.lft.to/lastmile_qr_scan", "ios": "https://dc.lft.to/lastmile_qr_scan"}, "is_reserved": 0, "is_disabled": 0, "name": "7eb62c9abb50fc6b33f0298298c931b5", "bike_id": "7eb62c9abb50fc6b33f0298298c931b5", "fusion_lat": 0.0, "lon": -77.024457, "type": "electric_scooter", "fusion_lon": 0.0, "lat": 38.949738333333336}, {"rental_uris": {"android": "https://dc.lft.to/lastmile_qr_scan", "ios": "https://dc.lft.to/lastmile_qr_scan"}, "is_reserved": 0, "is_disabled": 0, "name": "d442de85d349ce88cf62fcdeeae058c2", "bike_id": "d442de85d349ce88cf62fcdeeae058c2", "fusion_lat": 0.0, "lon": -77.03532233333334, "type": "electric_scooter", "fusion_lon": 0.0, "lat": 38.91711383333333}, {"rental_uris": {"android": "https://dc.lft.to/lastmile_qr_scan", "ios": "https://dc.lft.to/lastmile_qr_scan"}, "is_reserved": 0, "is_disabled": 0, "name": "07c35a77bfba2fb314d5233c8f0d845a", "bike_id": "07c35a77bfba2fb314d5233c8f0d845a", "fusion_lat": 0.0, "lon": -77.06947666666667, "type": "electric_bike", "fusion_lon": 0.0, "lat": 38.836278166666666}, {"rental_uris": {"android": "https://dc.lft.to/lastmile_qr_scan", "ios": "https://dc.lft.to/lastmile_qr_scan"}, "is_reserved": 0, "is_disabled": 0, "name": "0a0af766a6763b90b8cb3cb24cc271dd", "bike_id": "0a0af766a6763b90b8cb3cb24cc271dd", "fusion_lat": 0.0, "lon": -76.97330216666667, "type": "electric_scooter", "fusion_lon": 0.0, "lat": 38.90409983333333}, {"rental_uris": {"android": "https://dc.lft.to/lastmile_qr_scan", "ios": "https://dc.lft.to/lastmile_qr_scan"}, "is_reserved": 0, "is_disabled": 0, "name": "1df7fb3534b347b4c9abd12f72cb0286", "bike_id": "1df7fb3534b347b4c9abd12f72cb0286", "fusion_lat": 0.0, "lon": -77.03793466666667, "type": "electric_scooter", "fusion_lon": 0.0, "lat": 38.92575266666667}, {"rental_uris": {"android": "https://dc.lft.to/lastmile_qr_scan", "ios": "https://dc.lft.to/lastmile_qr_scan"}, "is_reserved": 0, "is_disabled": 0, "name": "a03af7a94c7e1fdf407b97ea46830814", "bike_id": "a03af7a94c7e1fdf407b97ea46830814", "fusion_lat": 0.0, "lon": -77.0344045, "type": "electric_scooter", "fusion_lon": 0.0, "lat": 38.9179995}, {"rental_uris": {"android": "https://dc.lft.to/lastmile_qr_scan", "ios": "https://dc.lft.to/lastmile_qr_scan"}, "is_reserved": 0, "is_disabled": 0, "name": "4a7cab4961e345062a2ecd7af93d8f72", "bike_id": "4a7cab4961e345062a2ecd7af93d8f72", "fusion_lat": 0.0, "lon": -77.034454, "type": "electric_scooter", "fusion_lon": 0.0, "lat": 38.90269466666667}, {"rental_uris": {"android": "https://dc.lft.to/lastmile_qr_scan", "ios": "https://dc.lft.to/lastmile_qr_scan"}, "is_reserved": 0, "is_disabled": 0, "name": "d13da6b2fdd094c5fae60cf9e72479c1", "bike_id": "d13da6b2fdd094c5fae60cf9e72479c1", "fusion_lat": 0.0, "lon": -76.92941033333334, "type": "electric_scooter", "fusion_lon": 0.0, "lat": 38.903467666666664}, {"rental_uris": {"android": "https://dc.lft.to/lastmile_qr_scan", "ios": "https://dc.lft.to/lastmile_qr_scan"}, "is_reserved": 0, "is_disabled": 0, "name": "35dd1f3fccd2dab333b41d6f3e09cc22", "bike_id": "35dd1f3fccd2dab333b41d6f3e09cc22", "fusion_lat": 0.0, "lon": -77.04357233333333, "type": "electric_scooter", "fusion_lon": 0.0, "lat": 38.904724333333334}, {"rental_uris": {"android": "https://dc.lft.to/lastmile_qr_scan", "ios": "https://dc.lft.to/lastmile_qr_scan"}, "is_reserved": 0, "is_disabled": 0, "name": "d7a32aad5abc52865a6d1798ba6760e9", "bike_id": "d7a32aad5abc52865a6d1798ba6760e9", "fusion_lat": 0.0, "lon": -77.021749, "type": "electric_scooter", "fusion_lon": 0.0, "lat": 38.892270333333336}, {"rental_uris": {"android": "https://dc.lft.to/lastmile_qr_scan", "ios": "https://dc.lft.to/lastmile_qr_scan"}, "is_reserved": 0, "is_disabled": 0, "name": "526f1986133686693e07a5f62a8a1e59", "bike_id": "526f1986133686693e07a5f62a8a1e59", "fusion_lat": 0.0, "lon": -77.044956, "type": "electric_scooter", "fusion_lon": 0.0, "lat": 38.901712}, {"rental_uris": {"android": "https://dc.lft.to/lastmile_qr_scan", "ios": "https://dc.lft.to/lastmile_qr_scan"}, "is_reserved": 0, "is_disabled": 0, "name": "8d280f0b1f4203133ec483a3e57ab652", "bike_id": "8d280f0b1f4203133ec483a3e57ab652", "fusion_lat": 0.0, "lon": -76.918015, "type": "electric_bike", "fusion_lon": 0.0, "lat": 39.00003}, {"rental_uris": {"android": "https://dc.lft.to/lastmile_qr_scan", "ios": "https://dc.lft.to/lastmile_qr_scan"}, "is_reserved": 0, "is_disabled": 0, "name": "2cb8837811bc36f103ca7d082deace1f", "bike_id": "2cb8837811bc36f103ca7d082deace1f", "fusion_lat": 0.0, "lon": -77.07750033333333, "type": "electric_bike", "fusion_lon": 0.0, "lat": 38.8419115}, {"rental_uris": {"android": "https://dc.lft.to/lastmile_qr_scan", "ios": "https://dc.lft.to/lastmile_qr_scan"}, "is_reserved": 0, "is_disabled": 0, "name": "dd223d65eba6a679783d64c025ea03f0", "bike_id": "dd223d65eba6a679783d64c025ea03f0", "fusion_lat": 0.0, "lon": -77.02375766666667, "type": "electric_scooter", "fusion_lon": 0.0, "lat": 38.920582333333336}, {"rental_uris": {"android": "https://dc.lft.to/lastmile_qr_scan", "ios": "https://dc.lft.to/lastmile_qr_scan"}, "is_reserved": 0, "is_disabled": 0, "name": "e6177f3f8c62c31fe838f1b1a6a87c88", "bike_id": "e6177f3f8c62c31fe838f1b1a6a87c88", "fusion_lat": 0.0, "lon": -77.0476165, "type": "electric_scooter", "fusion_lon": 0.0, "lat": 38.91764233333333}, {"rental_uris": {"android": "https://dc.lft.to/lastmile_qr_scan", "ios": "https://dc.lft.to/lastmile_qr_scan"}, "is_reserved": 0, "is_disabled": 0, "name": "a39b4530e51325be26791747dc44b30a", "bike_id": "a39b4530e51325be26791747dc44b30a", "fusion_lat": 0.0, "lon": -77.03559516666667, "type": "electric_scooter", "fusion_lon": 0.0, "lat": 38.927462}, {"rental_uris": {"android": "https://dc.lft.to/lastmile_qr_scan", "ios": "https://dc.lft.to/lastmile_qr_scan"}, "is_reserved": 0, "is_disabled": 0, "name": "3f184a5c50a890c5fdd17363cf51f43a", "bike_id": "3f184a5c50a890c5fdd17363cf51f43a", "fusion_lat": 0.0, "lon": -77.031978, "type": "electric_scooter", "fusion_lon": 0.0, "lat": 38.90732116666667}, {"rental_uris": {"android": "https://dc.lft.to/lastmile_qr_scan", "ios": "https://dc.lft.to/lastmile_qr_scan"}, "is_reserved": 0, "is_disabled": 0, "name": "d75174dbb8b8d1b887cdaec728560af6", "bike_id": "d75174dbb8b8d1b887cdaec728560af6", "fusion_lat": 0.0, "lon": -77.0348285, "type": "electric_scooter", "fusion_lon": 0.0, "lat": 38.90561566666667}, {"rental_uris": {"android": "https://dc.lft.to/lastmile_qr_scan", "ios": "https://dc.lft.to/lastmile_qr_scan"}, "is_reserved": 0, "is_disabled": 0, "name": "4cc63fff59b9d4b8c29b2b5ebe3873cd", "bike_id": "4cc63fff59b9d4b8c29b2b5ebe3873cd", "fusion_lat": 0.0, "lon": -77.05914516666667, "type": "electric_scooter", "fusion_lon": 0.0, "lat": 38.90485366666667}, {"rental_uris": {"android": "https://dc.lft.to/lastmile_qr_scan", "ios": "https://dc.lft.to/lastmile_qr_scan"}, "is_reserved": 0, "is_disabled": 0, "name": "bd31e745a100c03e608a2f922172d449", "bike_id": "bd31e745a100c03e608a2f922172d449", "fusion_lat": 0.0, "lon": -77.0255515, "type": "electric_scooter", "fusion_lon": 0.0, "lat": 38.95395033333333}, {"rental_uris": {"android": "https://dc.lft.to/lastmile_qr_scan", "ios": "https://dc.lft.to/lastmile_qr_scan"}, "is_reserved": 0, "is_disabled": 0, "name": "6b93918c9f4b819f7810e989d4979e7c", "bike_id": "6b93918c9f4b819f7810e989d4979e7c", "fusion_lat": 0.0, "lon": -76.960865, "type": "electric_bike", "fusion_lon": 0.0, "lat": 38.918559333333334}, {"rental_uris": {"android": "https://dc.lft.to/lastmile_qr_scan", "ios": "https://dc.lft.to/lastmile_qr_scan"}, "is_reserved": 0, "is_disabled": 0, "name": "6034bd35f60d7bd1fdfd7651691d63b5", "bike_id": "6034bd35f60d7bd1fdfd7651691d63b5", "fusion_lat": 0.0, "lon": -77.05617, "type": "electric_scooter", "fusion_lon": 0.0, "lat": 38.92336016666667}, {"rental_uris": {"android": "https://dc.lft.to/lastmile_qr_scan", "ios": "https://dc.lft.to/lastmile_qr_scan"}, "is_reserved": 0, "is_disabled": 0, "name": "b21e8054b618f8ef1ef42280b88a3969", "bike_id": "b21e8054b618f8ef1ef42280b88a3969", "fusion_lat": 0.0, "lon": -77.020625, "type": "electric_bike", "fusion_lon": 0.0, "lat": 38.92843533333333}, {"rental_uris": {"android": "https://dc.lft.to/lastmile_qr_scan", "ios": "https://dc.lft.to/lastmile_qr_scan"}, "is_reserved": 0, "is_disabled": 0, "name": "5a4833531fc149811451d501b880d667", "bike_id": "5a4833531fc149811451d501b880d667", "fusion_lat": 0.0, "lon": -76.99508933333334, "type": "electric_scooter", "fusion_lon": 0.0, "lat": 38.883427833333336}, {"rental_uris": {"android": "https://dc.lft.to/lastmile_qr_scan", "ios": "https://dc.lft.to/lastmile_qr_scan"}, "is_reserved": 0, "is_disabled": 0, "name": "4d8b65dc3afde6c73de4d2a69032e671", "bike_id": "4d8b65dc3afde6c73de4d2a69032e671", "fusion_lat": 0.0, "lon": -77.0401125, "type": "electric_scooter", "fusion_lon": 0.0, "lat": 38.9100085}, {"rental_uris": {"android": "https://dc.lft.to/lastmile_qr_scan", "ios": "https://dc.lft.to/lastmile_qr_scan"}, "is_reserved": 0, "is_disabled": 0, "name": "f28afab3a8572d347d2f30364fea42d6", "bike_id": "f28afab3a8572d347d2f30364fea42d6", "fusion_lat": 0.0, "lon": -76.9872295, "type": "electric_bike", "fusion_lon": 0.0, "lat": 38.863351}, {"rental_uris": {"android": "https://dc.lft.to/lastmile_qr_scan", "ios": "https://dc.lft.to/lastmile_qr_scan"}, "is_reserved": 0, "is_disabled": 0, "name": "be2f5dd2fbecfb384277769891ac9868", "bike_id": "be2f5dd2fbecfb384277769891ac9868", "fusion_lat": 0.0, "lon": -76.988841, "type": "electric_scooter", "fusion_lon": 0.0, "lat": 38.90207783333334}, {"rental_uris": {"android": "https://dc.lft.to/lastmile_qr_scan", "ios": "https://dc.lft.to/lastmile_qr_scan"}, "is_reserved": 0, "is_disabled": 0, "name": "849e2d24682e4e281b5a03c171cb663c", "bike_id": "849e2d24682e4e281b5a03c171cb663c", "fusion_lat": 0.0, "lon": -77.00596516666667, "type": "electric_scooter", "fusion_lon": 0.0, "lat": 38.8764405}, {"rental_uris": {"android": "https://dc.lft.to/lastmile_qr_scan", "ios": "https://dc.lft.to/lastmile_qr_scan"}, "is_reserved": 0, "is_disabled": 0, "name": "e816262b66e896422e4915c70150a116", "bike_id": "e816262b66e896422e4915c70150a116", "fusion_lat": 0.0, "lon": -77.0138875, "type": "electric_scooter", "fusion_lon": 0.0, "lat": 38.87894166666667}, {"rental_uris": {"android": "https://dc.lft.to/lastmile_qr_scan", "ios": "https://dc.lft.to/lastmile_qr_scan"}, "is_reserved": 0, "is_disabled": 0, "name": "a82e20fcd4ab74fe7d558592766d5665", "bike_id": "a82e20fcd4ab74fe7d558592766d5665", "fusion_lat": 0.0, "lon": -76.98741833333334, "type": "electric_scooter", "fusion_lon": 0.0, "lat": 38.8796375}, {"rental_uris": {"android": "https://dc.lft.to/lastmile_qr_scan", "ios": "https://dc.lft.to/lastmile_qr_scan"}, "is_reserved": 0, "is_disabled": 0, "name": "2d77257fffeb4e413a664bf13173b38b", "bike_id": "2d77257fffeb4e413a664bf13173b38b", "fusion_lat": 0.0, "lon": -77.0166805, "type": "electric_scooter", "fusion_lon": 0.0, "lat": 38.881170166666664}, {"rental_uris": {"android": "https://dc.lft.to/lastmile_qr_scan", "ios": "https://dc.lft.to/lastmile_qr_scan"}, "is_reserved": 0, "is_disabled": 0, "name": "cfb19b0c9021cc8abc925c594aec9a31", "bike_id": "cfb19b0c9021cc8abc925c594aec9a31", "fusion_lat": 0.0, "lon": -77.03265333333333, "type": "electric_scooter", "fusion_lon": 0.0, "lat": 38.937401333333334}, {"rental_uris": {"android": "https://dc.lft.to/lastmile_qr_scan", "ios": "https://dc.lft.to/lastmile_qr_scan"}, "is_reserved": 0, "is_disabled": 0, "name": "5577d4a787aa730f4075790b607babe1", "bike_id": "5577d4a787aa730f4075790b607babe1", "fusion_lat": 0.0, "lon": -77.02795416666666, "type": "electric_scooter", "fusion_lon": 0.0, "lat": 38.9231965}, {"rental_uris": {"android": "https://dc.lft.to/lastmile_qr_scan", "ios": "https://dc.lft.to/lastmile_qr_scan"}, "is_reserved": 0, "is_disabled": 0, "name": "8ea352a949706d1e23009fbcefbcf927", "bike_id": "8ea352a949706d1e23009fbcefbcf927", "fusion_lat": 0.0, "lon": -77.022839, "type": "electric_scooter", "fusion_lon": 0.0, "lat": 38.91780283333333}, {"rental_uris": {"android": "https://dc.lft.to/lastmile_qr_scan", "ios": "https://dc.lft.to/lastmile_qr_scan"}, "is_reserved": 0, "is_disabled": 0, "name": "c1043d60de2cb11d51b62fc268e64a29", "bike_id": "c1043d60de2cb11d51b62fc268e64a29", "fusion_lat": 0.0, "lon": -77.0396185, "type": "electric_scooter", "fusion_lon": 0.0, "lat": 38.90025466666667}, {"rental_uris": {"android": "https://dc.lft.to/lastmile_qr_scan", "ios": "https://dc.lft.to/lastmile_qr_scan"}, "is_reserved": 0, "is_disabled": 0, "name": "df326266ff2b99d5b57f69e151d9d9ac", "bike_id": "df326266ff2b99d5b57f69e151d9d9ac", "fusion_lat": 0.0, "lon": -76.9861735, "type": "electric_scooter", "fusion_lon": 0.0, "lat": 38.93828466666667}, {"rental_uris": {"android": "https://dc.lft.to/lastmile_qr_scan", "ios": "https://dc.lft.to/lastmile_qr_scan"}, "is_reserved": 0, "is_disabled": 0, "name": "735f86c6f8e1cf568af43d73782809b2", "bike_id": "735f86c6f8e1cf568af43d73782809b2", "fusion_lat": 0.0, "lon": -77.0952205, "type": "electric_bike", "fusion_lon": 0.0, "lat": 38.8381115}, {"rental_uris": {"android": "https://dc.lft.to/lastmile_qr_scan", "ios": "https://dc.lft.to/lastmile_qr_scan"}, "is_reserved": 0, "is_disabled": 0, "name": "9d9bb21dc1c3ef824e37a43da13f14eb", "bike_id": "9d9bb21dc1c3ef824e37a43da13f14eb", "fusion_lat": 0.0, "lon": -77.02813266666666, "type": "electric_scooter", "fusion_lon": 0.0, "lat": 38.89535816666667}, {"rental_uris": {"android": "https://dc.lft.to/lastmile_qr_scan", "ios": "https://dc.lft.to/lastmile_qr_scan"}, "is_reserved": 0, "is_disabled": 0, "name": "ee7d6859dd5f5906b3923083d927d2ce", "bike_id": "ee7d6859dd5f5906b3923083d927d2ce", "fusion_lat": 0.0, "lon": -77.02543733333333, "type": "electric_scooter", "fusion_lon": 0.0, "lat": 38.9240705}, {"rental_uris": {"android": "https://dc.lft.to/lastmile_qr_scan", "ios": "https://dc.lft.to/lastmile_qr_scan"}, "is_reserved": 0, "is_disabled": 0, "name": "5e74ca0cf509a99f2468d22b830d0593", "bike_id": "5e74ca0cf509a99f2468d22b830d0593", "fusion_lat": 0.0, "lon": -76.94382733333333, "type": "electric_scooter", "fusion_lon": 0.0, "lat": 38.891236666666664}, {"rental_uris": {"android": "https://dc.lft.to/lastmile_qr_scan", "ios": "https://dc.lft.to/lastmile_qr_scan"}, "is_reserved": 0, "is_disabled": 0, "name": "4997c6afe0ec45ebec1cf6fd6e02898a", "bike_id": "4997c6afe0ec45ebec1cf6fd6e02898a", "fusion_lat": 0.0, "lon": -77.00045716666666, "type": "electric_bike", "fusion_lon": 0.0, "lat": 38.8784705}, {"rental_uris": {"android": "https://dc.lft.to/lastmile_qr_scan", "ios": "https://dc.lft.to/lastmile_qr_scan"}, "is_reserved": 0, "is_disabled": 0, "name": "2cc936f04e435816677ce594c290fa1b", "bike_id": "2cc936f04e435816677ce594c290fa1b", "fusion_lat": 0.0, "lon": -77.0540975, "type": "electric_scooter", "fusion_lon": 0.0, "lat": 38.900796166666666}, {"rental_uris": {"android": "https://dc.lft.to/lastmile_qr_scan", "ios": "https://dc.lft.to/lastmile_qr_scan"}, "is_reserved": 0, "is_disabled": 0, "name": "ec02e10e4eacac71fb88fd64d6ff6b88", "bike_id": "ec02e10e4eacac71fb88fd64d6ff6b88", "fusion_lat": 0.0, "lon": -76.930066, "type": "electric_scooter", "fusion_lon": 0.0, "lat": 38.90717033333333}, {"rental_uris": {"android": "https://dc.lft.to/lastmile_qr_scan", "ios": "https://dc.lft.to/lastmile_qr_scan"}, "is_reserved": 0, "is_disabled": 0, "name": "fda186b696550ad05e0161e4b592cf61", "bike_id": "fda186b696550ad05e0161e4b592cf61", "fusion_lat": 0.0, "lon": -77.0424955, "type": "electric_scooter", "fusion_lon": 0.0, "lat": 38.9224235}, {"rental_uris": {"android": "https://dc.lft.to/lastmile_qr_scan", "ios": "https://dc.lft.to/lastmile_qr_scan"}, "is_reserved": 0, "is_disabled": 0, "name": "54fd8290561bea1dac1159d44adae354", "bike_id": "54fd8290561bea1dac1159d44adae354", "fusion_lat": 0.0, "lon": -77.06101183333334, "type": "electric_scooter", "fusion_lon": 0.0, "lat": 38.905316666666664}, {"rental_uris": {"android": "https://dc.lft.to/lastmile_qr_scan", "ios": "https://dc.lft.to/lastmile_qr_scan"}, "is_reserved": 0, "is_disabled": 0, "name": "9bcb348bbb389039a7d7533f3efee195", "bike_id": "9bcb348bbb389039a7d7533f3efee195", "fusion_lat": 0.0, "lon": -77.029467, "type": "electric_scooter", "fusion_lon": 0.0, "lat": 38.9050085}, {"rental_uris": {"android": "https://dc.lft.to/lastmile_qr_scan", "ios": "https://dc.lft.to/lastmile_qr_scan"}, "is_reserved": 0, "is_disabled": 0, "name": "6ca7bec03157fe0c723af5c2e8a193b7", "bike_id": "6ca7bec03157fe0c723af5c2e8a193b7", "fusion_lat": 0.0, "lon": -76.989873, "type": "electric_scooter", "fusion_lon": 0.0, "lat": 38.86434533333333}, {"rental_uris": {"android": "https://dc.lft.to/lastmile_qr_scan", "ios": "https://dc.lft.to/lastmile_qr_scan"}, "is_reserved": 0, "is_disabled": 0, "name": "4f4a60f6a425194d022ed1c5a16d76d7", "bike_id": "4f4a60f6a425194d022ed1c5a16d76d7", "fusion_lat": 0.0, "lon": -76.99519599999999, "type": "electric_scooter", "fusion_lon": 0.0, "lat": 38.88793733333333}, {"rental_uris": {"android": "https://dc.lft.to/lastmile_qr_scan", "ios": "https://dc.lft.to/lastmile_qr_scan"}, "is_reserved": 0, "is_disabled": 0, "name": "4d131e3485bcc6aacb7638bd8822d65c", "bike_id": "4d131e3485bcc6aacb7638bd8822d65c", "fusion_lat": 0.0, "lon": -77.0568375, "type": "electric_scooter", "fusion_lon": 0.0, "lat": 38.90599683333333}, {"rental_uris": {"android": "https://dc.lft.to/lastmile_qr_scan", "ios": "https://dc.lft.to/lastmile_qr_scan"}, "is_reserved": 0, "is_disabled": 0, "name": "cb36b20d377ff4fa1ffd388532751987", "bike_id": "cb36b20d377ff4fa1ffd388532751987", "fusion_lat": 0.0, "lon": -76.96525666666666, "type": "electric_scooter", "fusion_lon": 0.0, "lat": 38.876305}, {"rental_uris": {"android": "https://dc.lft.to/lastmile_qr_scan", "ios": "https://dc.lft.to/lastmile_qr_scan"}, "is_reserved": 0, "is_disabled": 0, "name": "b03dcf0b8b7aa7bec0f7cd5436069528", "bike_id": "b03dcf0b8b7aa7bec0f7cd5436069528", "fusion_lat": 0.0, "lon": -76.98264833333333, "type": "electric_scooter", "fusion_lon": 0.0, "lat": 38.86881016666667}, {"rental_uris": {"android": "https://dc.lft.to/lastmile_qr_scan", "ios": "https://dc.lft.to/lastmile_qr_scan"}, "is_reserved": 0, "is_disabled": 0, "name": "8b8b6c9131d8cada08ed68abab7b8255", "bike_id": "8b8b6c9131d8cada08ed68abab7b8255", "fusion_lat": 0.0, "lon": -77.048684, "type": "electric_scooter", "fusion_lon": 0.0, "lat": 38.899624333333335}, {"rental_uris": {"android": "https://dc.lft.to/lastmile_qr_scan", "ios": "https://dc.lft.to/lastmile_qr_scan"}, "is_reserved": 0, "is_disabled": 0, "name": "cc715e702920069881db30bcaad97cd7", "bike_id": "cc715e702920069881db30bcaad97cd7", "fusion_lat": 0.0, "lon": -77.034139, "type": "electric_scooter", "fusion_lon": 0.0, "lat": 38.930932}, {"rental_uris": {"android": "https://dc.lft.to/lastmile_qr_scan", "ios": "https://dc.lft.to/lastmile_qr_scan"}, "is_reserved": 0, "is_disabled": 0, "name": "48b049a35b264c4eea74ab88d8187594", "bike_id": "48b049a35b264c4eea74ab88d8187594", "fusion_lat": 0.0, "lon": -77.0241945, "type": "electric_bike", "fusion_lon": 0.0, "lat": 38.93704116666667}, {"rental_uris": {"android": "https://dc.lft.to/lastmile_qr_scan", "ios": "https://dc.lft.to/lastmile_qr_scan"}, "is_reserved": 0, "is_disabled": 0, "name": "367bbdd4bf4504b3384dbbb2466fcb58", "bike_id": "367bbdd4bf4504b3384dbbb2466fcb58", "fusion_lat": 0.0, "lon": -77.0354155, "type": "electric_scooter", "fusion_lon": 0.0, "lat": 38.923461333333336}, {"rental_uris": {"android": "https://dc.lft.to/lastmile_qr_scan", "ios": "https://dc.lft.to/lastmile_qr_scan"}, "is_reserved": 0, "is_disabled": 0, "name": "b223c092d5b148ff9727dce779e30b4e", "bike_id": "b223c092d5b148ff9727dce779e30b4e", "fusion_lat": 0.0, "lon": -77.02818216666667, "type": "electric_scooter", "fusion_lon": 0.0, "lat": 38.881791}, {"rental_uris": {"android": "https://dc.lft.to/lastmile_qr_scan", "ios": "https://dc.lft.to/lastmile_qr_scan"}, "is_reserved": 0, "is_disabled": 0, "name": "034bbeef072ba1e429b055fd29084ca2", "bike_id": "034bbeef072ba1e429b055fd29084ca2", "fusion_lat": 0.0, "lon": -77.03614533333334, "type": "electric_scooter", "fusion_lon": 0.0, "lat": 38.937352}, {"rental_uris": {"android": "https://dc.lft.to/lastmile_qr_scan", "ios": "https://dc.lft.to/lastmile_qr_scan"}, "is_reserved": 0, "is_disabled": 0, "name": "a5271c97b99ead2a12a44c631a4cc96b", "bike_id": "a5271c97b99ead2a12a44c631a4cc96b", "fusion_lat": 0.0, "lon": -77.00475416666667, "type": "electric_scooter", "fusion_lon": 0.0, "lat": 38.911441833333335}, {"rental_uris": {"android": "https://dc.lft.to/lastmile_qr_scan", "ios": "https://dc.lft.to/lastmile_qr_scan"}, "is_reserved": 0, "is_disabled": 0, "name": "dc7df9631a7cdefe7be91e3a2ac05b7e", "bike_id": "dc7df9631a7cdefe7be91e3a2ac05b7e", "fusion_lat": 0.0, "lon": -77.0344155, "type": "electric_scooter", "fusion_lon": 0.0, "lat": 38.92220716666667}, {"rental_uris": {"android": "https://dc.lft.to/lastmile_qr_scan", "ios": "https://dc.lft.to/lastmile_qr_scan"}, "is_reserved": 0, "is_disabled": 0, "name": "82e87cb09c62cfd4be6c712ddcaf8ff9", "bike_id": "82e87cb09c62cfd4be6c712ddcaf8ff9", "fusion_lat": 0.0, "lon": -77.03247516666667, "type": "electric_scooter", "fusion_lon": 0.0, "lat": 38.91710333333333}, {"rental_uris": {"android": "https://dc.lft.to/lastmile_qr_scan", "ios": "https://dc.lft.to/lastmile_qr_scan"}, "is_reserved": 0, "is_disabled": 0, "name": "723f758642e7883a6a36ef0c794b2404", "bike_id": "723f758642e7883a6a36ef0c794b2404", "fusion_lat": 0.0, "lon": -77.0405415, "type": "electric_scooter", "fusion_lon": 0.0, "lat": 38.90140733333333}, {"rental_uris": {"android": "https://dc.lft.to/lastmile_qr_scan", "ios": "https://dc.lft.to/lastmile_qr_scan"}, "is_reserved": 0, "is_disabled": 0, "name": "bf92c7c7532838df16603cf435dcc3fe", "bike_id": "bf92c7c7532838df16603cf435dcc3fe", "fusion_lat": 0.0, "lon": -77.00200483333333, "type": "electric_scooter", "fusion_lon": 0.0, "lat": 38.902391}, {"rental_uris": {"android": "https://dc.lft.to/lastmile_qr_scan", "ios": "https://dc.lft.to/lastmile_qr_scan"}, "is_reserved": 0, "is_disabled": 0, "name": "d0fab7154483e8678b85345aec2054e0", "bike_id": "d0fab7154483e8678b85345aec2054e0", "fusion_lat": 0.0, "lon": -77.0014315, "type": "electric_scooter", "fusion_lon": 0.0, "lat": 38.907673833333334}, {"rental_uris": {"android": "https://dc.lft.to/lastmile_qr_scan", "ios": "https://dc.lft.to/lastmile_qr_scan"}, "is_reserved": 0, "is_disabled": 0, "name": "333c15e489e9c0fb0a8cedb95a0ed25e", "bike_id": "333c15e489e9c0fb0a8cedb95a0ed25e", "fusion_lat": 0.0, "lon": -77.001972, "type": "electric_scooter", "fusion_lon": 0.0, "lat": 38.90036933333333}, {"rental_uris": {"android": "https://dc.lft.to/lastmile_qr_scan", "ios": "https://dc.lft.to/lastmile_qr_scan"}, "is_reserved": 0, "is_disabled": 0, "name": "5321a080e4645b9dc38bcff5569c085b", "bike_id": "5321a080e4645b9dc38bcff5569c085b", "fusion_lat": 0.0, "lon": -77.04327483333333, "type": "electric_scooter", "fusion_lon": 0.0, "lat": 38.89220666666667}, {"rental_uris": {"android": "https://dc.lft.to/lastmile_qr_scan", "ios": "https://dc.lft.to/lastmile_qr_scan"}, "is_reserved": 0, "is_disabled": 0, "name": "3192642bc8641d0154d06c946d8cf996", "bike_id": "3192642bc8641d0154d06c946d8cf996", "fusion_lat": 0.0, "lon": -77.01454466666667, "type": "electric_scooter", "fusion_lon": 0.0, "lat": 38.91767683333333}, {"rental_uris": {"android": "https://dc.lft.to/lastmile_qr_scan", "ios": "https://dc.lft.to/lastmile_qr_scan"}, "is_reserved": 0, "is_disabled": 0, "name": "11f6ef2f82a9471624f8374662b93b83", "bike_id": "11f6ef2f82a9471624f8374662b93b83", "fusion_lat": 0.0, "lon": -77.08534216666666, "type": "electric_bike", "fusion_lon": 0.0, "lat": 38.856652833333335}, {"rental_uris": {"android": "https://dc.lft.to/lastmile_qr_scan", "ios": "https://dc.lft.to/lastmile_qr_scan"}, "is_reserved": 0, "is_disabled": 0, "name": "4734f9e607cc265ae06c9bc47463b970", "bike_id": "4734f9e607cc265ae06c9bc47463b970", "fusion_lat": 0.0, "lon": -77.02161216666667, "type": "electric_scooter", "fusion_lon": 0.0, "lat": 38.92494166666667}, {"rental_uris": {"android": "https://dc.lft.to/lastmile_qr_scan", "ios": "https://dc.lft.to/lastmile_qr_scan"}, "is_reserved": 0, "is_disabled": 0, "name": "82dccb330a74fe03147535981c29d0cd", "bike_id": "82dccb330a74fe03147535981c29d0cd", "fusion_lat": 0.0, "lon": -77.018332, "type": "electric_scooter", "fusion_lon": 0.0, "lat": 38.90954583333333}, {"rental_uris": {"android": "https://dc.lft.to/lastmile_qr_scan", "ios": "https://dc.lft.to/lastmile_qr_scan"}, "is_reserved": 0, "is_disabled": 0, "name": "9969be7ff57aa0d583e0f6ca6aba9571", "bike_id": "9969be7ff57aa0d583e0f6ca6aba9571", "fusion_lat": 0.0, "lon": -76.98512133333334, "type": "electric_scooter", "fusion_lon": 0.0, "lat": 38.900518166666664}, {"rental_uris": {"android": "https://dc.lft.to/lastmile_qr_scan", "ios": "https://dc.lft.to/lastmile_qr_scan"}, "is_reserved": 0, "is_disabled": 0, "name": "8593760a2a09510e4b08b768f4369e7a", "bike_id": "8593760a2a09510e4b08b768f4369e7a", "fusion_lat": 0.0, "lon": -77.06177116666667, "type": "electric_scooter", "fusion_lon": 0.0, "lat": 38.941235166666665}, {"rental_uris": {"android": "https://dc.lft.to/lastmile_qr_scan", "ios": "https://dc.lft.to/lastmile_qr_scan"}, "is_reserved": 0, "is_disabled": 0, "name": "d98108b7f654a1269c728cdfdccad105", "bike_id": "d98108b7f654a1269c728cdfdccad105", "fusion_lat": 0.0, "lon": -77.04351183333333, "type": "electric_scooter", "fusion_lon": 0.0, "lat": 38.91130733333333}, {"rental_uris": {"android": "https://dc.lft.to/lastmile_qr_scan", "ios": "https://dc.lft.to/lastmile_qr_scan"}, "is_reserved": 0, "is_disabled": 0, "name": "ed13f34c225b57943ce304dd46f3f6e2", "bike_id": "ed13f34c225b57943ce304dd46f3f6e2", "fusion_lat": 0.0, "lon": -76.948758, "type": "electric_scooter", "fusion_lon": 0.0, "lat": 38.8949685}, {"rental_uris": {"android": "https://dc.lft.to/lastmile_qr_scan", "ios": "https://dc.lft.to/lastmile_qr_scan"}, "is_reserved": 0, "is_disabled": 0, "name": "bad1a0beafeb87b81c786a79c4957358", "bike_id": "bad1a0beafeb87b81c786a79c4957358", "fusion_lat": 0.0, "lon": -77.0386825, "type": "electric_scooter", "fusion_lon": 0.0, "lat": 38.917113}, {"rental_uris": {"android": "https://dc.lft.to/lastmile_qr_scan", "ios": "https://dc.lft.to/lastmile_qr_scan"}, "is_reserved": 0, "is_disabled": 0, "name": "69635077aa37117ed0d7bc28d8982c8f", "bike_id": "69635077aa37117ed0d7bc28d8982c8f", "fusion_lat": 0.0, "lon": -77.04378866666667, "type": "electric_scooter", "fusion_lon": 0.0, "lat": 38.92052366666667}, {"rental_uris": {"android": "https://dc.lft.to/lastmile_qr_scan", "ios": "https://dc.lft.to/lastmile_qr_scan"}, "is_reserved": 0, "is_disabled": 0, "name": "358ecf17845e893e816d31740f4628f9", "bike_id": "358ecf17845e893e816d31740f4628f9", "fusion_lat": 0.0, "lon": -77.0968875, "type": "electric_bike", "fusion_lon": 0.0, "lat": 38.80740433333333}, {"rental_uris": {"android": "https://dc.lft.to/lastmile_qr_scan", "ios": "https://dc.lft.to/lastmile_qr_scan"}, "is_reserved": 0, "is_disabled": 0, "name": "1f141616e219f22ea26d407ad9a239dc", "bike_id": "1f141616e219f22ea26d407ad9a239dc", "fusion_lat": 0.0, "lon": -77.03676083333333, "type": "electric_scooter", "fusion_lon": 0.0, "lat": 38.906928666666666}, {"rental_uris": {"android": "https://dc.lft.to/lastmile_qr_scan", "ios": "https://dc.lft.to/lastmile_qr_scan"}, "is_reserved": 0, "is_disabled": 0, "name": "b44fbb0aaa814924376512027d01123c", "bike_id": "b44fbb0aaa814924376512027d01123c", "fusion_lat": 0.0, "lon": -77.0467865, "type": "electric_scooter", "fusion_lon": 0.0, "lat": 38.892209666666666}, {"rental_uris": {"android": "https://dc.lft.to/lastmile_qr_scan", "ios": "https://dc.lft.to/lastmile_qr_scan"}, "is_reserved": 0, "is_disabled": 0, "name": "67e2eb3204403a9700885a54b0673a8d", "bike_id": "67e2eb3204403a9700885a54b0673a8d", "fusion_lat": 0.0, "lon": -77.00583233333333, "type": "electric_scooter", "fusion_lon": 0.0, "lat": 38.87545633333333}, {"rental_uris": {"android": "https://dc.lft.to/lastmile_qr_scan", "ios": "https://dc.lft.to/lastmile_qr_scan"}, "is_reserved": 0, "is_disabled": 0, "name": "e86603921da40239c0619f0bf36f7895", "bike_id": "e86603921da40239c0619f0bf36f7895", "fusion_lat": 0.0, "lon": -77.01942616666666, "type": "electric_scooter", "fusion_lon": 0.0, "lat": 38.92435966666667}, {"rental_uris": {"android": "https://dc.lft.to/lastmile_qr_scan", "ios": "https://dc.lft.to/lastmile_qr_scan"}, "is_reserved": 0, "is_disabled": 0, "name": "1714af20e3bdd00bd0ec8b304a2f06c5", "bike_id": "1714af20e3bdd00bd0ec8b304a2f06c5", "fusion_lat": 0.0, "lon": -77.04362783333333, "type": "electric_scooter", "fusion_lon": 0.0, "lat": 38.922479}, {"rental_uris": {"android": "https://dc.lft.to/lastmile_qr_scan", "ios": "https://dc.lft.to/lastmile_qr_scan"}, "is_reserved": 0, "is_disabled": 0, "name": "6fac6b41d95df17c25793f21fb42987a", "bike_id": "6fac6b41d95df17c25793f21fb42987a", "fusion_lat": 0.0, "lon": -77.0151955, "type": "electric_scooter", "fusion_lon": 0.0, "lat": 38.8728635}, {"rental_uris": {"android": "https://dc.lft.to/lastmile_qr_scan", "ios": "https://dc.lft.to/lastmile_qr_scan"}, "is_reserved": 0, "is_disabled": 0, "name": "166651e7cedc4405539637e58aa5c488", "bike_id": "166651e7cedc4405539637e58aa5c488", "fusion_lat": 0.0, "lon": -77.00881883333334, "type": "electric_scooter", "fusion_lon": 0.0, "lat": 38.924668833333335}, {"rental_uris": {"android": "https://dc.lft.to/lastmile_qr_scan", "ios": "https://dc.lft.to/lastmile_qr_scan"}, "is_reserved": 0, "is_disabled": 0, "name": "70eacaaa44c651dc6ad6401ab8951486", "bike_id": "70eacaaa44c651dc6ad6401ab8951486", "fusion_lat": 0.0, "lon": -77.0319815, "type": "electric_scooter", "fusion_lon": 0.0, "lat": 38.91028416666666}, {"rental_uris": {"android": "https://dc.lft.to/lastmile_qr_scan", "ios": "https://dc.lft.to/lastmile_qr_scan"}, "is_reserved": 0, "is_disabled": 0, "name": "bad0f46a4767fdb0ee2dd4e5bad69cef", "bike_id": "bad0f46a4767fdb0ee2dd4e5bad69cef", "fusion_lat": 0.0, "lon": -77.0349945, "type": "electric_scooter", "fusion_lon": 0.0, "lat": 38.918749}, {"rental_uris": {"android": "https://dc.lft.to/lastmile_qr_scan", "ios": "https://dc.lft.to/lastmile_qr_scan"}, "is_reserved": 0, "is_disabled": 0, "name": "3b8442765bbc0879f9352223ad4e20bf", "bike_id": "3b8442765bbc0879f9352223ad4e20bf", "fusion_lat": 0.0, "lon": -77.02971883333333, "type": "electric_scooter", "fusion_lon": 0.0, "lat": 38.90711833333334}, {"rental_uris": {"android": "https://dc.lft.to/lastmile_qr_scan", "ios": "https://dc.lft.to/lastmile_qr_scan"}, "is_reserved": 0, "is_disabled": 0, "name": "5348478c98ec744810fb0fd39bad2123", "bike_id": "5348478c98ec744810fb0fd39bad2123", "fusion_lat": 0.0, "lon": -77.03756983333334, "type": "electric_scooter", "fusion_lon": 0.0, "lat": 38.91267933333334}, {"rental_uris": {"android": "https://dc.lft.to/lastmile_qr_scan", "ios": "https://dc.lft.to/lastmile_qr_scan"}, "is_reserved": 0, "is_disabled": 0, "name": "1458ecbf2ce7cf5defa52a7dde635109", "bike_id": "1458ecbf2ce7cf5defa52a7dde635109", "fusion_lat": 0.0, "lon": -77.233899, "type": "electric_bike", "fusion_lon": 0.0, "lat": 38.87169266666667}, {"rental_uris": {"android": "https://dc.lft.to/lastmile_qr_scan", "ios": "https://dc.lft.to/lastmile_qr_scan"}, "is_reserved": 0, "is_disabled": 0, "name": "12e41aa9d0fcb49ce62c100949e09272", "bike_id": "12e41aa9d0fcb49ce62c100949e09272", "fusion_lat": 0.0, "lon": -77.02426666666666, "type": "electric_scooter", "fusion_lon": 0.0, "lat": 38.93367216666667}, {"rental_uris": {"android": "https://dc.lft.to/lastmile_qr_scan", "ios": "https://dc.lft.to/lastmile_qr_scan"}, "is_reserved": 0, "is_disabled": 0, "name": "1fe5cb59cf5512ffda2aeb14c7362f9e", "bike_id": "1fe5cb59cf5512ffda2aeb14c7362f9e", "fusion_lat": 0.0, "lon": -77.03201033333333, "type": "electric_scooter", "fusion_lon": 0.0, "lat": 38.90732883333333}, {"rental_uris": {"android": "https://dc.lft.to/lastmile_qr_scan", "ios": "https://dc.lft.to/lastmile_qr_scan"}, "is_reserved": 0, "is_disabled": 0, "name": "5952c51798735a687e966c0b6b40f968", "bike_id": "5952c51798735a687e966c0b6b40f968", "fusion_lat": 0.0, "lon": -77.050397, "type": "electric_scooter", "fusion_lon": 0.0, "lat": 38.923632833333336}, {"rental_uris": {"android": "https://dc.lft.to/lastmile_qr_scan", "ios": "https://dc.lft.to/lastmile_qr_scan"}, "is_reserved": 0, "is_disabled": 0, "name": "c59436804339d2d50ec94741f048df48", "bike_id": "c59436804339d2d50ec94741f048df48", "fusion_lat": 0.0, "lon": -77.02235283333333, "type": "electric_scooter", "fusion_lon": 0.0, "lat": 38.912434833333336}, {"rental_uris": {"android": "https://dc.lft.to/lastmile_qr_scan", "ios": "https://dc.lft.to/lastmile_qr_scan"}, "is_reserved": 0, "is_disabled": 0, "name": "8d68a7fbcb8959d2b700676083c679b5", "bike_id": "8d68a7fbcb8959d2b700676083c679b5", "fusion_lat": 0.0, "lon": -77.0019775, "type": "electric_scooter", "fusion_lon": 0.0, "lat": 38.902349}, {"rental_uris": {"android": "https://dc.lft.to/lastmile_qr_scan", "ios": "https://dc.lft.to/lastmile_qr_scan"}, "is_reserved": 0, "is_disabled": 0, "name": "34c92f85f634a45601616d5806c21bee", "bike_id": "34c92f85f634a45601616d5806c21bee", "fusion_lat": 0.0, "lon": -77.03071383333334, "type": "electric_scooter", "fusion_lon": 0.0, "lat": 38.898393166666665}, {"rental_uris": {"android": "https://dc.lft.to/lastmile_qr_scan", "ios": "https://dc.lft.to/lastmile_qr_scan"}, "is_reserved": 0, "is_disabled": 0, "name": "fc48af1e2de30f8bbe03cdfd419f1b48", "bike_id": "fc48af1e2de30f8bbe03cdfd419f1b48", "fusion_lat": 0.0, "lon": -76.99077816666667, "type": "electric_scooter", "fusion_lon": 0.0, "lat": 38.8556435}, {"rental_uris": {"android": "https://dc.lft.to/lastmile_qr_scan", "ios": "https://dc.lft.to/lastmile_qr_scan"}, "is_reserved": 0, "is_disabled": 0, "name": "66b92fc6098523f63140faf766e1a836", "bike_id": "66b92fc6098523f63140faf766e1a836", "fusion_lat": 0.0, "lon": -77.02125066666666, "type": "electric_bike", "fusion_lon": 0.0, "lat": 38.935769666666666}, {"rental_uris": {"android": "https://dc.lft.to/lastmile_qr_scan", "ios": "https://dc.lft.to/lastmile_qr_scan"}, "is_reserved": 0, "is_disabled": 0, "name": "c6fd9746f82aa1d82b5821e990fececa", "bike_id": "c6fd9746f82aa1d82b5821e990fececa", "fusion_lat": 0.0, "lon": -77.01642466666667, "type": "electric_scooter", "fusion_lon": 0.0, "lat": 38.903817833333335}, {"rental_uris": {"android": "https://dc.lft.to/lastmile_qr_scan", "ios": "https://dc.lft.to/lastmile_qr_scan"}, "is_reserved": 0, "is_disabled": 0, "name": "d2729950a281e651589a2dc784b73d0a", "bike_id": "d2729950a281e651589a2dc784b73d0a", "fusion_lat": 0.0, "lon": -77.021934, "type": "electric_scooter", "fusion_lon": 0.0, "lat": 38.914775}, {"rental_uris": {"android": "https://dc.lft.to/lastmile_qr_scan", "ios": "https://dc.lft.to/lastmile_qr_scan"}, "is_reserved": 0, "is_disabled": 0, "name": "709bb00692b4396836ee899d7272bb33", "bike_id": "709bb00692b4396836ee899d7272bb33", "fusion_lat": 0.0, "lon": -77.018611, "type": "electric_scooter", "fusion_lon": 0.0, "lat": 38.95150666666667}, {"rental_uris": {"android": "https://dc.lft.to/lastmile_qr_scan", "ios": "https://dc.lft.to/lastmile_qr_scan"}, "is_reserved": 0, "is_disabled": 0, "name": "1c30018bcd0ee2c303687928cc844341", "bike_id": "1c30018bcd0ee2c303687928cc844341", "fusion_lat": 0.0, "lon": -77.02489916666667, "type": "electric_scooter", "fusion_lon": 0.0, "lat": 38.917488666666664}, {"rental_uris": {"android": "https://dc.lft.to/lastmile_qr_scan", "ios": "https://dc.lft.to/lastmile_qr_scan"}, "is_reserved": 0, "is_disabled": 0, "name": "2ca6c94075ab6d0f69c6b829fa85389e", "bike_id": "2ca6c94075ab6d0f69c6b829fa85389e", "fusion_lat": 0.0, "lon": -76.98568066666667, "type": "electric_scooter", "fusion_lon": 0.0, "lat": 38.907034}, {"rental_uris": {"android": "https://dc.lft.to/lastmile_qr_scan", "ios": "https://dc.lft.to/lastmile_qr_scan"}, "is_reserved": 0, "is_disabled": 0, "name": "7541287a7312f9b81bdb1280ab9a5c84", "bike_id": "7541287a7312f9b81bdb1280ab9a5c84", "fusion_lat": 0.0, "lon": -77.02204066666667, "type": "electric_bike", "fusion_lon": 0.0, "lat": 38.96487416666667}, {"rental_uris": {"android": "https://dc.lft.to/lastmile_qr_scan", "ios": "https://dc.lft.to/lastmile_qr_scan"}, "is_reserved": 0, "is_disabled": 0, "name": "6875b77dbde81c0c05f71a4d203a1738", "bike_id": "6875b77dbde81c0c05f71a4d203a1738", "fusion_lat": 0.0, "lon": -77.034527, "type": "electric_scooter", "fusion_lon": 0.0, "lat": 38.92154933333333}, {"rental_uris": {"android": "https://dc.lft.to/lastmile_qr_scan", "ios": "https://dc.lft.to/lastmile_qr_scan"}, "is_reserved": 0, "is_disabled": 0, "name": "ac97624285808180a2f8ff516426f4a7", "bike_id": "ac97624285808180a2f8ff516426f4a7", "fusion_lat": 0.0, "lon": -77.018567, "type": "electric_scooter", "fusion_lon": 0.0, "lat": 38.94919483333334}, {"rental_uris": {"android": "https://dc.lft.to/lastmile_qr_scan", "ios": "https://dc.lft.to/lastmile_qr_scan"}, "is_reserved": 0, "is_disabled": 0, "name": "64e862e7b108fd1a337559eb4884b239", "bike_id": "64e862e7b108fd1a337559eb4884b239", "fusion_lat": 0.0, "lon": -77.035851, "type": "electric_bike", "fusion_lon": 0.0, "lat": 38.992259833333335}, {"rental_uris": {"android": "https://dc.lft.to/lastmile_qr_scan", "ios": "https://dc.lft.to/lastmile_qr_scan"}, "is_reserved": 0, "is_disabled": 0, "name": "0bee6ed8e7c7d963582d02e9e6b5f09f", "bike_id": "0bee6ed8e7c7d963582d02e9e6b5f09f", "fusion_lat": 0.0, "lon": -77.01374583333333, "type": "electric_scooter", "fusion_lon": 0.0, "lat": 38.87604733333333}, {"rental_uris": {"android": "https://dc.lft.to/lastmile_qr_scan", "ios": "https://dc.lft.to/lastmile_qr_scan"}, "is_reserved": 0, "is_disabled": 0, "name": "84fed9011caebd37ce1414bec766fd2a", "bike_id": "84fed9011caebd37ce1414bec766fd2a", "fusion_lat": 0.0, "lon": -77.01945333333333, "type": "electric_scooter", "fusion_lon": 0.0, "lat": 38.924189}, {"rental_uris": {"android": "https://dc.lft.to/lastmile_qr_scan", "ios": "https://dc.lft.to/lastmile_qr_scan"}, "is_reserved": 0, "is_disabled": 0, "name": "46c8a9ccc264f032eb89cc15b145d71c", "bike_id": "46c8a9ccc264f032eb89cc15b145d71c", "fusion_lat": 0.0, "lon": -77.00276933333333, "type": "electric_bike", "fusion_lon": 0.0, "lat": 38.83815033333333}, {"rental_uris": {"android": "https://dc.lft.to/lastmile_qr_scan", "ios": "https://dc.lft.to/lastmile_qr_scan"}, "is_reserved": 0, "is_disabled": 0, "name": "c2b743115709cc5ee5784715a6302200", "bike_id": "c2b743115709cc5ee5784715a6302200", "fusion_lat": 0.0, "lon": -76.98532266666666, "type": "electric_scooter", "fusion_lon": 0.0, "lat": 38.90011666666667}, {"rental_uris": {"android": "https://dc.lft.to/lastmile_qr_scan", "ios": "https://dc.lft.to/lastmile_qr_scan"}, "is_reserved": 0, "is_disabled": 0, "name": "309b324f08ca216283442ce32448e4bb", "bike_id": "309b324f08ca216283442ce32448e4bb", "fusion_lat": 0.0, "lon": -77.02720933333333, "type": "electric_scooter", "fusion_lon": 0.0, "lat": 38.90685416666667}, {"rental_uris": {"android": "https://dc.lft.to/lastmile_qr_scan", "ios": "https://dc.lft.to/lastmile_qr_scan"}, "is_reserved": 0, "is_disabled": 0, "name": "63c91ab94ce4c87e6a13ed46976c33fc", "bike_id": "63c91ab94ce4c87e6a13ed46976c33fc", "fusion_lat": 0.0, "lon": -77.05933133333333, "type": "electric_scooter", "fusion_lon": 0.0, "lat": 38.90160216666666}, {"rental_uris": {"android": "https://dc.lft.to/lastmile_qr_scan", "ios": "https://dc.lft.to/lastmile_qr_scan"}, "is_reserved": 0, "is_disabled": 0, "name": "f1c4925ee585d0ef513759748c6aea71", "bike_id": "f1c4925ee585d0ef513759748c6aea71", "fusion_lat": 0.0, "lon": -77.03162866666666, "type": "electric_scooter", "fusion_lon": 0.0, "lat": 38.91640866666667}, {"rental_uris": {"android": "https://dc.lft.to/lastmile_qr_scan", "ios": "https://dc.lft.to/lastmile_qr_scan"}, "is_reserved": 0, "is_disabled": 0, "name": "0222f9f9cf53963e3f9f21b17111cee1", "bike_id": "0222f9f9cf53963e3f9f21b17111cee1", "fusion_lat": 0.0, "lon": -77.02785783333333, "type": "electric_scooter", "fusion_lon": 0.0, "lat": 38.961619666666664}, {"rental_uris": {"android": "https://dc.lft.to/lastmile_qr_scan", "ios": "https://dc.lft.to/lastmile_qr_scan"}, "is_reserved": 0, "is_disabled": 0, "name": "2403b704ec83194e5a2dc89f7ba41767", "bike_id": "2403b704ec83194e5a2dc89f7ba41767", "fusion_lat": 0.0, "lon": -76.963217, "type": "electric_bike", "fusion_lon": 0.0, "lat": 38.9389525}, {"rental_uris": {"android": "https://dc.lft.to/lastmile_qr_scan", "ios": "https://dc.lft.to/lastmile_qr_scan"}, "is_reserved": 0, "is_disabled": 0, "name": "1f772816a15edb87736a8d05b83461d3", "bike_id": "1f772816a15edb87736a8d05b83461d3", "fusion_lat": 0.0, "lon": -77.026943, "type": "electric_scooter", "fusion_lon": 0.0, "lat": 38.91674116666667}, {"rental_uris": {"android": "https://dc.lft.to/lastmile_qr_scan", "ios": "https://dc.lft.to/lastmile_qr_scan"}, "is_reserved": 0, "is_disabled": 0, "name": "f932ceb6c844c37cc65cd61034e1f4df", "bike_id": "f932ceb6c844c37cc65cd61034e1f4df", "fusion_lat": 0.0, "lon": -76.9874135, "type": "electric_scooter", "fusion_lon": 0.0, "lat": 38.879609}, {"rental_uris": {"android": "https://dc.lft.to/lastmile_qr_scan", "ios": "https://dc.lft.to/lastmile_qr_scan"}, "is_reserved": 0, "is_disabled": 0, "name": "68c0ea75c0e3405010a5013a03969126", "bike_id": "68c0ea75c0e3405010a5013a03969126", "fusion_lat": 0.0, "lon": -77.00379716666667, "type": "electric_bike", "fusion_lon": 0.0, "lat": 38.83605716666667}, {"rental_uris": {"android": "https://dc.lft.to/lastmile_qr_scan", "ios": "https://dc.lft.to/lastmile_qr_scan"}, "is_reserved": 0, "is_disabled": 0, "name": "6d3d507f53835234a9f49968a367d9d7", "bike_id": "6d3d507f53835234a9f49968a367d9d7", "fusion_lat": 0.0, "lon": -77.020745, "type": "electric_scooter", "fusion_lon": 0.0, "lat": 38.93022116666667}, {"rental_uris": {"android": "https://dc.lft.to/lastmile_qr_scan", "ios": "https://dc.lft.to/lastmile_qr_scan"}, "is_reserved": 0, "is_disabled": 0, "name": "0e483d80577f81bc0a640f085a9f9aba", "bike_id": "0e483d80577f81bc0a640f085a9f9aba", "fusion_lat": 0.0, "lon": -77.03314766666666, "type": "electric_scooter", "fusion_lon": 0.0, "lat": 38.900202}, {"rental_uris": {"android": "https://dc.lft.to/lastmile_qr_scan", "ios": "https://dc.lft.to/lastmile_qr_scan"}, "is_reserved": 0, "is_disabled": 0, "name": "1a3172f40250f2f99fbfccbd23ebf8f9", "bike_id": "1a3172f40250f2f99fbfccbd23ebf8f9", "fusion_lat": 0.0, "lon": -77.02826783333333, "type": "electric_scooter", "fusion_lon": 0.0, "lat": 38.899501666666666}, {"rental_uris": {"android": "https://dc.lft.to/lastmile_qr_scan", "ios": "https://dc.lft.to/lastmile_qr_scan"}, "is_reserved": 0, "is_disabled": 0, "name": "f94e5956612058152668fecd19b80649", "bike_id": "f94e5956612058152668fecd19b80649", "fusion_lat": 0.0, "lon": -77.0280045, "type": "electric_scooter", "fusion_lon": 0.0, "lat": 38.892323}, {"rental_uris": {"android": "https://dc.lft.to/lastmile_qr_scan", "ios": "https://dc.lft.to/lastmile_qr_scan"}, "is_reserved": 0, "is_disabled": 0, "name": "227a18a53a413c13548e1dedf8cac65a", "bike_id": "227a18a53a413c13548e1dedf8cac65a", "fusion_lat": 0.0, "lon": -77.041362, "type": "electric_scooter", "fusion_lon": 0.0, "lat": 38.93070766666666}, {"rental_uris": {"android": "https://dc.lft.to/lastmile_qr_scan", "ios": "https://dc.lft.to/lastmile_qr_scan"}, "is_reserved": 0, "is_disabled": 0, "name": "1bc0e839d804e113f753d339561966db", "bike_id": "1bc0e839d804e113f753d339561966db", "fusion_lat": 0.0, "lon": -77.0434585, "type": "electric_scooter", "fusion_lon": 0.0, "lat": 38.904489833333336}, {"rental_uris": {"android": "https://dc.lft.to/lastmile_qr_scan", "ios": "https://dc.lft.to/lastmile_qr_scan"}, "is_reserved": 0, "is_disabled": 0, "name": "76e1eed79b56089c9e67e2b6766412e3", "bike_id": "76e1eed79b56089c9e67e2b6766412e3", "fusion_lat": 0.0, "lon": -77.03482083333333, "type": "electric_scooter", "fusion_lon": 0.0, "lat": 38.901339666666665}, {"rental_uris": {"android": "https://dc.lft.to/lastmile_qr_scan", "ios": "https://dc.lft.to/lastmile_qr_scan"}, "is_reserved": 0, "is_disabled": 0, "name": "8fbc9081d3f5c0aaaabee71623aaa307", "bike_id": "8fbc9081d3f5c0aaaabee71623aaa307", "fusion_lat": 0.0, "lon": -77.18301216666667, "type": "electric_bike", "fusion_lon": 0.0, "lat": 38.89071583333333}, {"rental_uris": {"android": "https://dc.lft.to/lastmile_qr_scan", "ios": "https://dc.lft.to/lastmile_qr_scan"}, "is_reserved": 0, "is_disabled": 0, "name": "54c0aa15262e886968514aa88587234c", "bike_id": "54c0aa15262e886968514aa88587234c", "fusion_lat": 0.0, "lon": -77.0232875, "type": "electric_scooter", "fusion_lon": 0.0, "lat": 38.9304665}, {"rental_uris": {"android": "https://dc.lft.to/lastmile_qr_scan", "ios": "https://dc.lft.to/lastmile_qr_scan"}, "is_reserved": 0, "is_disabled": 0, "name": "2b471eba85607aaab70ccabed9e1695a", "bike_id": "2b471eba85607aaab70ccabed9e1695a", "fusion_lat": 0.0, "lon": -76.97339833333334, "type": "electric_bike", "fusion_lon": 0.0, "lat": 38.8655335}, {"rental_uris": {"android": "https://dc.lft.to/lastmile_qr_scan", "ios": "https://dc.lft.to/lastmile_qr_scan"}, "is_reserved": 0, "is_disabled": 0, "name": "b3829c9a7f0d9a30b9f99fba0e4ef06c", "bike_id": "b3829c9a7f0d9a30b9f99fba0e4ef06c", "fusion_lat": 0.0, "lon": -77.02870083333333, "type": "electric_scooter", "fusion_lon": 0.0, "lat": 38.91253583333334}, {"rental_uris": {"android": "https://dc.lft.to/lastmile_qr_scan", "ios": "https://dc.lft.to/lastmile_qr_scan"}, "is_reserved": 0, "is_disabled": 0, "name": "4b9aef720732dbe68e4db5efc2b519c1", "bike_id": "4b9aef720732dbe68e4db5efc2b519c1", "fusion_lat": 0.0, "lon": -77.02950183333333, "type": "electric_scooter", "fusion_lon": 0.0, "lat": 38.905032}, {"rental_uris": {"android": "https://dc.lft.to/lastmile_qr_scan", "ios": "https://dc.lft.to/lastmile_qr_scan"}, "is_reserved": 0, "is_disabled": 0, "name": "cd1731d86a7eec7ecbf9ddef853483c4", "bike_id": "cd1731d86a7eec7ecbf9ddef853483c4", "fusion_lat": 0.0, "lon": -77.03468216666667, "type": "electric_scooter", "fusion_lon": 0.0, "lat": 38.90436783333333}, {"rental_uris": {"android": "https://dc.lft.to/lastmile_qr_scan", "ios": "https://dc.lft.to/lastmile_qr_scan"}, "is_reserved": 0, "is_disabled": 0, "name": "fad6aad2462a8721eb52f3a54b09e3d6", "bike_id": "fad6aad2462a8721eb52f3a54b09e3d6", "fusion_lat": 0.0, "lon": -77.0006195, "type": "electric_scooter", "fusion_lon": 0.0, "lat": 38.88112866666667}, {"rental_uris": {"android": "https://dc.lft.to/lastmile_qr_scan", "ios": "https://dc.lft.to/lastmile_qr_scan"}, "is_reserved": 0, "is_disabled": 0, "name": "18111fcfc71bbfdb6df74982f7e20e64", "bike_id": "18111fcfc71bbfdb6df74982f7e20e64", "fusion_lat": 0.0, "lon": -77.04349483333333, "type": "electric_scooter", "fusion_lon": 0.0, "lat": 38.911028333333334}, {"rental_uris": {"android": "https://dc.lft.to/lastmile_qr_scan", "ios": "https://dc.lft.to/lastmile_qr_scan"}, "is_reserved": 0, "is_disabled": 0, "name": "6696720c28de49f9a94b495cad3ab47a", "bike_id": "6696720c28de49f9a94b495cad3ab47a", "fusion_lat": 0.0, "lon": -77.03386233333333, "type": "electric_scooter", "fusion_lon": 0.0, "lat": 38.9215045}, {"rental_uris": {"android": "https://dc.lft.to/lastmile_qr_scan", "ios": "https://dc.lft.to/lastmile_qr_scan"}, "is_reserved": 0, "is_disabled": 0, "name": "7927555f60d09463e82cd6bc7a6b45bc", "bike_id": "7927555f60d09463e82cd6bc7a6b45bc", "fusion_lat": 0.0, "lon": -77.051159, "type": "electric_scooter", "fusion_lon": 0.0, "lat": 38.9234255}, {"rental_uris": {"android": "https://dc.lft.to/lastmile_qr_scan", "ios": "https://dc.lft.to/lastmile_qr_scan"}, "is_reserved": 0, "is_disabled": 0, "name": "340677f4b4a76e5d0508c9bd37f91f6d", "bike_id": "340677f4b4a76e5d0508c9bd37f91f6d", "fusion_lat": 0.0, "lon": -77.00410483333333, "type": "electric_bike", "fusion_lon": 0.0, "lat": 38.98544366666667}, {"rental_uris": {"android": "https://dc.lft.to/lastmile_qr_scan", "ios": "https://dc.lft.to/lastmile_qr_scan"}, "is_reserved": 0, "is_disabled": 0, "name": "9af00722479ee0bc899b4350663e020c", "bike_id": "9af00722479ee0bc899b4350663e020c", "fusion_lat": 0.0, "lon": -76.99098133333334, "type": "electric_bike", "fusion_lon": 0.0, "lat": 38.804782}, {"rental_uris": {"android": "https://dc.lft.to/lastmile_qr_scan", "ios": "https://dc.lft.to/lastmile_qr_scan"}, "is_reserved": 0, "is_disabled": 0, "name": "f6e7aa2fce9998f76682b36f6b546431", "bike_id": "f6e7aa2fce9998f76682b36f6b546431", "fusion_lat": 0.0, "lon": -77.03320016666666, "type": "electric_scooter", "fusion_lon": 0.0, "lat": 38.921405}, {"rental_uris": {"android": "https://dc.lft.to/lastmile_qr_scan", "ios": "https://dc.lft.to/lastmile_qr_scan"}, "is_reserved": 0, "is_disabled": 0, "name": "49802f5e71d953b932f66991b47c3c1a", "bike_id": "49802f5e71d953b932f66991b47c3c1a", "fusion_lat": 0.0, "lon": -77.04530466666667, "type": "electric_scooter", "fusion_lon": 0.0, "lat": 38.899631}, {"rental_uris": {"android": "https://dc.lft.to/lastmile_qr_scan", "ios": "https://dc.lft.to/lastmile_qr_scan"}, "is_reserved": 0, "is_disabled": 0, "name": "c0abbc2e49da201b3891c49a407900fb", "bike_id": "c0abbc2e49da201b3891c49a407900fb", "fusion_lat": 0.0, "lon": -77.010962, "type": "electric_scooter", "fusion_lon": 0.0, "lat": 38.8954175}, {"rental_uris": {"android": "https://dc.lft.to/lastmile_qr_scan", "ios": "https://dc.lft.to/lastmile_qr_scan"}, "is_reserved": 0, "is_disabled": 0, "name": "b65c81aea5fc369012ac1bf3d2dd4e45", "bike_id": "b65c81aea5fc369012ac1bf3d2dd4e45", "fusion_lat": 0.0, "lon": -76.98633433333333, "type": "electric_scooter", "fusion_lon": 0.0, "lat": 38.88039166666667}, {"rental_uris": {"android": "https://dc.lft.to/lastmile_qr_scan", "ios": "https://dc.lft.to/lastmile_qr_scan"}, "is_reserved": 0, "is_disabled": 0, "name": "7a4cc1b4775dcaae279cc9f9dee0a4d7", "bike_id": "7a4cc1b4775dcaae279cc9f9dee0a4d7", "fusion_lat": 0.0, "lon": -76.93210566666667, "type": "electric_scooter", "fusion_lon": 0.0, "lat": 38.896663333333336}, {"rental_uris": {"android": "https://dc.lft.to/lastmile_qr_scan", "ios": "https://dc.lft.to/lastmile_qr_scan"}, "is_reserved": 0, "is_disabled": 0, "name": "6fb058d1de0bece37c494c0d8c914bd9", "bike_id": "6fb058d1de0bece37c494c0d8c914bd9", "fusion_lat": 0.0, "lon": -77.08018283333334, "type": "electric_bike", "fusion_lon": 0.0, "lat": 38.9577255}, {"rental_uris": {"android": "https://dc.lft.to/lastmile_qr_scan", "ios": "https://dc.lft.to/lastmile_qr_scan"}, "is_reserved": 0, "is_disabled": 0, "name": "d198ce6cda0fdc8eba72081e8fa9140c", "bike_id": "d198ce6cda0fdc8eba72081e8fa9140c", "fusion_lat": 0.0, "lon": -77.0277835, "type": "electric_scooter", "fusion_lon": 0.0, "lat": 38.9621775}, {"rental_uris": {"android": "https://dc.lft.to/lastmile_qr_scan", "ios": "https://dc.lft.to/lastmile_qr_scan"}, "is_reserved": 0, "is_disabled": 0, "name": "6871bd58e96401f1ad15c1d9bc860fff", "bike_id": "6871bd58e96401f1ad15c1d9bc860fff", "fusion_lat": 0.0, "lon": -77.02393933333333, "type": "electric_scooter", "fusion_lon": 0.0, "lat": 38.92400933333333}, {"rental_uris": {"android": "https://dc.lft.to/lastmile_qr_scan", "ios": "https://dc.lft.to/lastmile_qr_scan"}, "is_reserved": 0, "is_disabled": 0, "name": "ad1adfaa72c72d2c706732ba4e71b3cc", "bike_id": "ad1adfaa72c72d2c706732ba4e71b3cc", "fusion_lat": 0.0, "lon": -77.09830066666666, "type": "electric_bike", "fusion_lon": 0.0, "lat": 38.85015683333334}, {"rental_uris": {"android": "https://dc.lft.to/lastmile_qr_scan", "ios": "https://dc.lft.to/lastmile_qr_scan"}, "is_reserved": 0, "is_disabled": 0, "name": "b1f9a73f01e5b317faae5ed285a5f773", "bike_id": "b1f9a73f01e5b317faae5ed285a5f773", "fusion_lat": 0.0, "lon": -77.05753316666667, "type": "electric_scooter", "fusion_lon": 0.0, "lat": 38.9245365}, {"rental_uris": {"android": "https://dc.lft.to/lastmile_qr_scan", "ios": "https://dc.lft.to/lastmile_qr_scan"}, "is_reserved": 0, "is_disabled": 0, "name": "1548f909957b4309f97de68301f7c65f", "bike_id": "1548f909957b4309f97de68301f7c65f", "fusion_lat": 0.0, "lon": -77.04732583333333, "type": "electric_scooter", "fusion_lon": 0.0, "lat": 38.895496}, {"rental_uris": {"android": "https://dc.lft.to/lastmile_qr_scan", "ios": "https://dc.lft.to/lastmile_qr_scan"}, "is_reserved": 0, "is_disabled": 0, "name": "a8d88503001c86795884b2cd60b39d18", "bike_id": "a8d88503001c86795884b2cd60b39d18", "fusion_lat": 0.0, "lon": -77.02321383333333, "type": "electric_scooter", "fusion_lon": 0.0, "lat": 38.940181}, {"rental_uris": {"android": "https://dc.lft.to/lastmile_qr_scan", "ios": "https://dc.lft.to/lastmile_qr_scan"}, "is_reserved": 0, "is_disabled": 0, "name": "2f0e179dc49c736d0c74cae94f65f3c1", "bike_id": "2f0e179dc49c736d0c74cae94f65f3c1", "fusion_lat": 0.0, "lon": -77.023234, "type": "electric_scooter", "fusion_lon": 0.0, "lat": 38.91836033333333}, {"rental_uris": {"android": "https://dc.lft.to/lastmile_qr_scan", "ios": "https://dc.lft.to/lastmile_qr_scan"}, "is_reserved": 0, "is_disabled": 0, "name": "206c6dc3fddf931f7b745f69071d5f7c", "bike_id": "206c6dc3fddf931f7b745f69071d5f7c", "fusion_lat": 0.0, "lon": -77.0499255, "type": "electric_scooter", "fusion_lon": 0.0, "lat": 38.905441}, {"rental_uris": {"android": "https://dc.lft.to/lastmile_qr_scan", "ios": "https://dc.lft.to/lastmile_qr_scan"}, "is_reserved": 0, "is_disabled": 0, "name": "3f7586d5149780749e39687ef915d3fc", "bike_id": "3f7586d5149780749e39687ef915d3fc", "fusion_lat": 0.0, "lon": -77.033976, "type": "electric_scooter", "fusion_lon": 0.0, "lat": 38.919235}, {"rental_uris": {"android": "https://dc.lft.to/lastmile_qr_scan", "ios": "https://dc.lft.to/lastmile_qr_scan"}, "is_reserved": 0, "is_disabled": 0, "name": "c8c98ee8282e8df180eafb40d4746d68", "bike_id": "c8c98ee8282e8df180eafb40d4746d68", "fusion_lat": 0.0, "lon": -77.03846916666667, "type": "electric_scooter", "fusion_lon": 0.0, "lat": 38.909477333333335}, {"rental_uris": {"android": "https://dc.lft.to/lastmile_qr_scan", "ios": "https://dc.lft.to/lastmile_qr_scan"}, "is_reserved": 0, "is_disabled": 0, "name": "b10b362099c556d11d66a3e6f85ecf6a", "bike_id": "b10b362099c556d11d66a3e6f85ecf6a", "fusion_lat": 0.0, "lon": -77.03057783333334, "type": "electric_scooter", "fusion_lon": 0.0, "lat": 38.923714}, {"rental_uris": {"android": "https://dc.lft.to/lastmile_qr_scan", "ios": "https://dc.lft.to/lastmile_qr_scan"}, "is_reserved": 0, "is_disabled": 0, "name": "d5039fa923889ed598e1ab37935860dc", "bike_id": "d5039fa923889ed598e1ab37935860dc", "fusion_lat": 0.0, "lon": -76.93186533333333, "type": "electric_scooter", "fusion_lon": 0.0, "lat": 38.898543833333335}, {"rental_uris": {"android": "https://dc.lft.to/lastmile_qr_scan", "ios": "https://dc.lft.to/lastmile_qr_scan"}, "is_reserved": 0, "is_disabled": 0, "name": "6d487a2a1f2c96e030157d908261cabf", "bike_id": "6d487a2a1f2c96e030157d908261cabf", "fusion_lat": 0.0, "lon": -77.06285833333334, "type": "electric_scooter", "fusion_lon": 0.0, "lat": 38.96495266666667}, {"rental_uris": {"android": "https://dc.lft.to/lastmile_qr_scan", "ios": "https://dc.lft.to/lastmile_qr_scan"}, "is_reserved": 0, "is_disabled": 0, "name": "5a21ee9f7c87dd33e01d6c4d4c4752f7", "bike_id": "5a21ee9f7c87dd33e01d6c4d4c4752f7", "fusion_lat": 0.0, "lon": -77.01187466666667, "type": "electric_scooter", "fusion_lon": 0.0, "lat": 38.9001345}, {"rental_uris": {"android": "https://dc.lft.to/lastmile_qr_scan", "ios": "https://dc.lft.to/lastmile_qr_scan"}, "is_reserved": 0, "is_disabled": 0, "name": "22d8d6e7d95c5b5b97be163a36621513", "bike_id": "22d8d6e7d95c5b5b97be163a36621513", "fusion_lat": 0.0, "lon": -76.996382, "type": "electric_scooter", "fusion_lon": 0.0, "lat": 38.905243}, {"rental_uris": {"android": "https://dc.lft.to/lastmile_qr_scan", "ios": "https://dc.lft.to/lastmile_qr_scan"}, "is_reserved": 0, "is_disabled": 0, "name": "c5f2e61650967fd8bc4dd5245401c47d", "bike_id": "c5f2e61650967fd8bc4dd5245401c47d", "fusion_lat": 0.0, "lon": -77.06353783333333, "type": "electric_scooter", "fusion_lon": 0.0, "lat": 38.94437816666667}, {"rental_uris": {"android": "https://dc.lft.to/lastmile_qr_scan", "ios": "https://dc.lft.to/lastmile_qr_scan"}, "is_reserved": 0, "is_disabled": 0, "name": "7d5014708363f32eb7e55f5655dfa27b", "bike_id": "7d5014708363f32eb7e55f5655dfa27b", "fusion_lat": 0.0, "lon": -77.06883583333334, "type": "electric_scooter", "fusion_lon": 0.0, "lat": 38.90532066666667}, {"rental_uris": {"android": "https://dc.lft.to/lastmile_qr_scan", "ios": "https://dc.lft.to/lastmile_qr_scan"}, "is_reserved": 0, "is_disabled": 0, "name": "aba2cc45db821e1e3b9649d80641b33a", "bike_id": "aba2cc45db821e1e3b9649d80641b33a", "fusion_lat": 0.0, "lon": -77.021491, "type": "electric_scooter", "fusion_lon": 0.0, "lat": 38.8874245}, {"rental_uris": {"android": "https://dc.lft.to/lastmile_qr_scan", "ios": "https://dc.lft.to/lastmile_qr_scan"}, "is_reserved": 0, "is_disabled": 0, "name": "31110191c56d59bcde066eb395aed7ab", "bike_id": "31110191c56d59bcde066eb395aed7ab", "fusion_lat": 0.0, "lon": -77.03194316666666, "type": "electric_scooter", "fusion_lon": 0.0, "lat": 38.904134}, {"rental_uris": {"android": "https://dc.lft.to/lastmile_qr_scan", "ios": "https://dc.lft.to/lastmile_qr_scan"}, "is_reserved": 0, "is_disabled": 0, "name": "86d40f52eb441e3fd3c1476aa5ce2f59", "bike_id": "86d40f52eb441e3fd3c1476aa5ce2f59", "fusion_lat": 0.0, "lon": -77.03258783333334, "type": "electric_bike", "fusion_lon": 0.0, "lat": 38.935166833333334}, {"rental_uris": {"android": "https://dc.lft.to/lastmile_qr_scan", "ios": "https://dc.lft.to/lastmile_qr_scan"}, "is_reserved": 0, "is_disabled": 0, "name": "061d1fcc15c3f0117c97494ee64c3343", "bike_id": "061d1fcc15c3f0117c97494ee64c3343", "fusion_lat": 0.0, "lon": -77.0439115, "type": "electric_scooter", "fusion_lon": 0.0, "lat": 38.901411333333336}, {"rental_uris": {"android": "https://dc.lft.to/lastmile_qr_scan", "ios": "https://dc.lft.to/lastmile_qr_scan"}, "is_reserved": 0, "is_disabled": 0, "name": "6ca8c30472c0c3e82291df34449ba945", "bike_id": "6ca8c30472c0c3e82291df34449ba945", "fusion_lat": 0.0, "lon": -77.03515733333333, "type": "electric_scooter", "fusion_lon": 0.0, "lat": 38.9359265}, {"rental_uris": {"android": "https://dc.lft.to/lastmile_qr_scan", "ios": "https://dc.lft.to/lastmile_qr_scan"}, "is_reserved": 0, "is_disabled": 0, "name": "f591fe91987868f9cc5445077f51bf60", "bike_id": "f591fe91987868f9cc5445077f51bf60", "fusion_lat": 0.0, "lon": -77.0411465, "type": "electric_scooter", "fusion_lon": 0.0, "lat": 38.91187466666667}, {"rental_uris": {"android": "https://dc.lft.to/lastmile_qr_scan", "ios": "https://dc.lft.to/lastmile_qr_scan"}, "is_reserved": 0, "is_disabled": 0, "name": "95c3c84d64da43183a2cf0abdc36b06e", "bike_id": "95c3c84d64da43183a2cf0abdc36b06e", "fusion_lat": 0.0, "lon": -77.02783016666666, "type": "electric_scooter", "fusion_lon": 0.0, "lat": 38.918179333333335}, {"rental_uris": {"android": "https://dc.lft.to/lastmile_qr_scan", "ios": "https://dc.lft.to/lastmile_qr_scan"}, "is_reserved": 0, "is_disabled": 0, "name": "91b79f0a25435782275fbfc3aea0f9fb", "bike_id": "91b79f0a25435782275fbfc3aea0f9fb", "fusion_lat": 0.0, "lon": -77.027851, "type": "electric_scooter", "fusion_lon": 0.0, "lat": 38.962192333333334}, {"rental_uris": {"android": "https://dc.lft.to/lastmile_qr_scan", "ios": "https://dc.lft.to/lastmile_qr_scan"}, "is_reserved": 0, "is_disabled": 0, "name": "fc5d88fa8d509499349e60bdf728afbb", "bike_id": "fc5d88fa8d509499349e60bdf728afbb", "fusion_lat": 0.0, "lon": -77.03202733333333, "type": "electric_scooter", "fusion_lon": 0.0, "lat": 38.91609233333333}, {"rental_uris": {"android": "https://dc.lft.to/lastmile_qr_scan", "ios": "https://dc.lft.to/lastmile_qr_scan"}, "is_reserved": 0, "is_disabled": 0, "name": "5710ba0968023bf1e4cd7477f935b357", "bike_id": "5710ba0968023bf1e4cd7477f935b357", "fusion_lat": 0.0, "lon": -77.07188666666667, "type": "electric_scooter", "fusion_lon": 0.0, "lat": 38.907607}, {"rental_uris": {"android": "https://dc.lft.to/lastmile_qr_scan", "ios": "https://dc.lft.to/lastmile_qr_scan"}, "is_reserved": 0, "is_disabled": 0, "name": "20f9f63607291881bd07db7f02baa3d3", "bike_id": "20f9f63607291881bd07db7f02baa3d3", "fusion_lat": 0.0, "lon": -77.04749816666667, "type": "electric_scooter", "fusion_lon": 0.0, "lat": 38.900291333333335}, {"rental_uris": {"android": "https://dc.lft.to/lastmile_qr_scan", "ios": "https://dc.lft.to/lastmile_qr_scan"}, "is_reserved": 0, "is_disabled": 0, "name": "3a11c3fe6f6b6328bc5ca53d5a115ce3", "bike_id": "3a11c3fe6f6b6328bc5ca53d5a115ce3", "fusion_lat": 0.0, "lon": -77.021086, "type": "electric_scooter", "fusion_lon": 0.0, "lat": 38.90604016666666}, {"rental_uris": {"android": "https://dc.lft.to/lastmile_qr_scan", "ios": "https://dc.lft.to/lastmile_qr_scan"}, "is_reserved": 0, "is_disabled": 0, "name": "5baf0503bac185d9e1b24fee5e49f3f6", "bike_id": "5baf0503bac185d9e1b24fee5e49f3f6", "fusion_lat": 0.0, "lon": -77.020441, "type": "electric_scooter", "fusion_lon": 0.0, "lat": 38.92178283333333}, {"rental_uris": {"android": "https://dc.lft.to/lastmile_qr_scan", "ios": "https://dc.lft.to/lastmile_qr_scan"}, "is_reserved": 0, "is_disabled": 0, "name": "0ff40815934df667174f508537ddd941", "bike_id": "0ff40815934df667174f508537ddd941", "fusion_lat": 0.0, "lon": -77.02696533333334, "type": "electric_scooter", "fusion_lon": 0.0, "lat": 38.949776166666666}, {"rental_uris": {"android": "https://dc.lft.to/lastmile_qr_scan", "ios": "https://dc.lft.to/lastmile_qr_scan"}, "is_reserved": 0, "is_disabled": 0, "name": "249b6dda9703438c9d40c9913657041a", "bike_id": "249b6dda9703438c9d40c9913657041a", "fusion_lat": 0.0, "lon": -76.99596016666666, "type": "electric_scooter", "fusion_lon": 0.0, "lat": 38.884273666666665}, {"rental_uris": {"android": "https://dc.lft.to/lastmile_qr_scan", "ios": "https://dc.lft.to/lastmile_qr_scan"}, "is_reserved": 0, "is_disabled": 0, "name": "8c0db06992447a945f14376f7090afe0", "bike_id": "8c0db06992447a945f14376f7090afe0", "fusion_lat": 0.0, "lon": -77.03610483333334, "type": "electric_scooter", "fusion_lon": 0.0, "lat": 38.923331166666664}, {"rental_uris": {"android": "https://dc.lft.to/lastmile_qr_scan", "ios": "https://dc.lft.to/lastmile_qr_scan"}, "is_reserved": 0, "is_disabled": 0, "name": "f2599c9f5d0f496750105ecfae12ab40", "bike_id": "f2599c9f5d0f496750105ecfae12ab40", "fusion_lat": 0.0, "lon": -77.029766, "type": "electric_scooter", "fusion_lon": 0.0, "lat": 38.918849}, {"rental_uris": {"android": "https://dc.lft.to/lastmile_qr_scan", "ios": "https://dc.lft.to/lastmile_qr_scan"}, "is_reserved": 0, "is_disabled": 0, "name": "131c5b8bc21b22f6964769da68493c00", "bike_id": "131c5b8bc21b22f6964769da68493c00", "fusion_lat": 0.0, "lon": -77.02407433333333, "type": "electric_scooter", "fusion_lon": 0.0, "lat": 38.89634216666666}, {"rental_uris": {"android": "https://dc.lft.to/lastmile_qr_scan", "ios": "https://dc.lft.to/lastmile_qr_scan"}, "is_reserved": 0, "is_disabled": 0, "name": "cc434858ea72609f5d38f4d713d928b0", "bike_id": "cc434858ea72609f5d38f4d713d928b0", "fusion_lat": 0.0, "lon": -77.0451255, "type": "electric_scooter", "fusion_lon": 0.0, "lat": 38.916049}, {"rental_uris": {"android": "https://dc.lft.to/lastmile_qr_scan", "ios": "https://dc.lft.to/lastmile_qr_scan"}, "is_reserved": 0, "is_disabled": 0, "name": "829d020f68343d023458826b09a44738", "bike_id": "829d020f68343d023458826b09a44738", "fusion_lat": 0.0, "lon": -77.0221235, "type": "electric_scooter", "fusion_lon": 0.0, "lat": 38.899772}, {"rental_uris": {"android": "https://dc.lft.to/lastmile_qr_scan", "ios": "https://dc.lft.to/lastmile_qr_scan"}, "is_reserved": 0, "is_disabled": 0, "name": "98b835911689c70c2fc22ca090d73e7e", "bike_id": "98b835911689c70c2fc22ca090d73e7e", "fusion_lat": 0.0, "lon": -77.03254833333334, "type": "electric_scooter", "fusion_lon": 0.0, "lat": 38.92068}, {"rental_uris": {"android": "https://dc.lft.to/lastmile_qr_scan", "ios": "https://dc.lft.to/lastmile_qr_scan"}, "is_reserved": 0, "is_disabled": 0, "name": "ab90140fd08ed7cd372d026c50ca3e9f", "bike_id": "ab90140fd08ed7cd372d026c50ca3e9f", "fusion_lat": 0.0, "lon": -77.02004966666667, "type": "electric_scooter", "fusion_lon": 0.0, "lat": 38.91154566666667}, {"rental_uris": {"android": "https://dc.lft.to/lastmile_qr_scan", "ios": "https://dc.lft.to/lastmile_qr_scan"}, "is_reserved": 0, "is_disabled": 0, "name": "d82b5096a2f41eca4e82158a5849efdc", "bike_id": "d82b5096a2f41eca4e82158a5849efdc", "fusion_lat": 0.0, "lon": -76.98701616666666, "type": "electric_scooter", "fusion_lon": 0.0, "lat": 38.8596155}, {"rental_uris": {"android": "https://dc.lft.to/lastmile_qr_scan", "ios": "https://dc.lft.to/lastmile_qr_scan"}, "is_reserved": 0, "is_disabled": 0, "name": "407d0560ec75dfd046cb92ca38be957a", "bike_id": "407d0560ec75dfd046cb92ca38be957a", "fusion_lat": 0.0, "lon": -77.03163833333333, "type": "electric_scooter", "fusion_lon": 0.0, "lat": 38.8921925}, {"rental_uris": {"android": "https://dc.lft.to/lastmile_qr_scan", "ios": "https://dc.lft.to/lastmile_qr_scan"}, "is_reserved": 0, "is_disabled": 0, "name": "95587d5a105ff2aa1f6c3f65b1ab18ef", "bike_id": "95587d5a105ff2aa1f6c3f65b1ab18ef", "fusion_lat": 0.0, "lon": -77.024137, "type": "electric_scooter", "fusion_lon": 0.0, "lat": 38.92658766666667}, {"rental_uris": {"android": "https://dc.lft.to/lastmile_qr_scan", "ios": "https://dc.lft.to/lastmile_qr_scan"}, "is_reserved": 0, "is_disabled": 0, "name": "8fe02b1a5262e886a625b43bce112c57", "bike_id": "8fe02b1a5262e886a625b43bce112c57", "fusion_lat": 0.0, "lon": -76.95449883333333, "type": "electric_scooter", "fusion_lon": 0.0, "lat": 38.883896166666666}, {"rental_uris": {"android": "https://dc.lft.to/lastmile_qr_scan", "ios": "https://dc.lft.to/lastmile_qr_scan"}, "is_reserved": 0, "is_disabled": 0, "name": "21e0b191735dd663375171b2cf4c7ac5", "bike_id": "21e0b191735dd663375171b2cf4c7ac5", "fusion_lat": 0.0, "lon": -76.9738015, "type": "electric_scooter", "fusion_lon": 0.0, "lat": 38.850005333333335}, {"rental_uris": {"android": "https://dc.lft.to/lastmile_qr_scan", "ios": "https://dc.lft.to/lastmile_qr_scan"}, "is_reserved": 0, "is_disabled": 0, "name": "fbc982f049d45fa178fad71b8cfe7341", "bike_id": "fbc982f049d45fa178fad71b8cfe7341", "fusion_lat": 0.0, "lon": -77.03227083333333, "type": "electric_scooter", "fusion_lon": 0.0, "lat": 38.90974633333333}, {"rental_uris": {"android": "https://dc.lft.to/lastmile_qr_scan", "ios": "https://dc.lft.to/lastmile_qr_scan"}, "is_reserved": 0, "is_disabled": 0, "name": "4d598b3cfbe97423d2bac1bf7613c6aa", "bike_id": "4d598b3cfbe97423d2bac1bf7613c6aa", "fusion_lat": 0.0, "lon": -77.02727716666666, "type": "electric_scooter", "fusion_lon": 0.0, "lat": 38.91817966666667}, {"rental_uris": {"android": "https://dc.lft.to/lastmile_qr_scan", "ios": "https://dc.lft.to/lastmile_qr_scan"}, "is_reserved": 0, "is_disabled": 0, "name": "8b97dcfd2aaa26e53479c1d9d4516e88", "bike_id": "8b97dcfd2aaa26e53479c1d9d4516e88", "fusion_lat": 0.0, "lon": -77.02487216666667, "type": "electric_scooter", "fusion_lon": 0.0, "lat": 38.94183266666667}, {"rental_uris": {"android": "https://dc.lft.to/lastmile_qr_scan", "ios": "https://dc.lft.to/lastmile_qr_scan"}, "is_reserved": 0, "is_disabled": 0, "name": "f60dfcf47e0e01ef9bd32b9d7d1998b9", "bike_id": "f60dfcf47e0e01ef9bd32b9d7d1998b9", "fusion_lat": 0.0, "lon": -77.033204, "type": "electric_scooter", "fusion_lon": 0.0, "lat": 38.900277833333334}, {"rental_uris": {"android": "https://dc.lft.to/lastmile_qr_scan", "ios": "https://dc.lft.to/lastmile_qr_scan"}, "is_reserved": 0, "is_disabled": 0, "name": "7627264e62a8c7621d52303c704656e1", "bike_id": "7627264e62a8c7621d52303c704656e1", "fusion_lat": 0.0, "lon": -77.05190083333333, "type": "electric_scooter", "fusion_lon": 0.0, "lat": 38.90317116666667}, {"rental_uris": {"android": "https://dc.lft.to/lastmile_qr_scan", "ios": "https://dc.lft.to/lastmile_qr_scan"}, "is_reserved": 0, "is_disabled": 0, "name": "734a0ee39ac6c8b2210d0626540dba0a", "bike_id": "734a0ee39ac6c8b2210d0626540dba0a", "fusion_lat": 0.0, "lon": -77.04499783333333, "type": "electric_scooter", "fusion_lon": 0.0, "lat": 38.892237333333334}, {"rental_uris": {"android": "https://dc.lft.to/lastmile_qr_scan", "ios": "https://dc.lft.to/lastmile_qr_scan"}, "is_reserved": 0, "is_disabled": 0, "name": "a1c9362bf3d644bf6fed49009e396b8c", "bike_id": "a1c9362bf3d644bf6fed49009e396b8c", "fusion_lat": 0.0, "lon": -77.0403135, "type": "electric_scooter", "fusion_lon": 0.0, "lat": 38.912879}, {"rental_uris": {"android": "https://dc.lft.to/lastmile_qr_scan", "ios": "https://dc.lft.to/lastmile_qr_scan"}, "is_reserved": 0, "is_disabled": 0, "name": "505642d899dd3c4d7641a23c5f7a6ec5", "bike_id": "505642d899dd3c4d7641a23c5f7a6ec5", "fusion_lat": 0.0, "lon": -76.98015283333334, "type": "electric_bike", "fusion_lon": 0.0, "lat": 38.85320433333333}, {"rental_uris": {"android": "https://dc.lft.to/lastmile_qr_scan", "ios": "https://dc.lft.to/lastmile_qr_scan"}, "is_reserved": 0, "is_disabled": 0, "name": "1da94d2978cbef13daaabf74e2189eef", "bike_id": "1da94d2978cbef13daaabf74e2189eef", "fusion_lat": 0.0, "lon": -77.03321716666666, "type": "electric_scooter", "fusion_lon": 0.0, "lat": 38.898855166666664}, {"rental_uris": {"android": "https://dc.lft.to/lastmile_qr_scan", "ios": "https://dc.lft.to/lastmile_qr_scan"}, "is_reserved": 0, "is_disabled": 0, "name": "f9801536113b1e851ddaa731978da10f", "bike_id": "f9801536113b1e851ddaa731978da10f", "fusion_lat": 0.0, "lon": -77.04230833333334, "type": "electric_scooter", "fusion_lon": 0.0, "lat": 38.9110935}, {"rental_uris": {"android": "https://dc.lft.to/lastmile_qr_scan", "ios": "https://dc.lft.to/lastmile_qr_scan"}, "is_reserved": 0, "is_disabled": 0, "name": "37e746026fb34cb37f1adf3418d6dda7", "bike_id": "37e746026fb34cb37f1adf3418d6dda7", "fusion_lat": 0.0, "lon": -77.020953, "type": "electric_scooter", "fusion_lon": 0.0, "lat": 38.932623}, {"rental_uris": {"android": "https://dc.lft.to/lastmile_qr_scan", "ios": "https://dc.lft.to/lastmile_qr_scan"}, "is_reserved": 0, "is_disabled": 0, "name": "1405c80fa9f98c60469a2c2bdd2eab36", "bike_id": "1405c80fa9f98c60469a2c2bdd2eab36", "fusion_lat": 0.0, "lon": -77.02274283333334, "type": "electric_scooter", "fusion_lon": 0.0, "lat": 38.899929166666666}, {"rental_uris": {"android": "https://dc.lft.to/lastmile_qr_scan", "ios": "https://dc.lft.to/lastmile_qr_scan"}, "is_reserved": 0, "is_disabled": 0, "name": "63c65e084ce0c6ed1bef5f87d7dd5d50", "bike_id": "63c65e084ce0c6ed1bef5f87d7dd5d50", "fusion_lat": 0.0, "lon": -76.98242816666666, "type": "electric_bike", "fusion_lon": 0.0, "lat": 38.952391}, {"rental_uris": {"android": "https://dc.lft.to/lastmile_qr_scan", "ios": "https://dc.lft.to/lastmile_qr_scan"}, "is_reserved": 0, "is_disabled": 0, "name": "4babd22581d4f9d6b5b9a0596f961e27", "bike_id": "4babd22581d4f9d6b5b9a0596f961e27", "fusion_lat": 0.0, "lon": -77.0300545, "type": "electric_bike", "fusion_lon": 0.0, "lat": 38.900211}, {"rental_uris": {"android": "https://dc.lft.to/lastmile_qr_scan", "ios": "https://dc.lft.to/lastmile_qr_scan"}, "is_reserved": 0, "is_disabled": 0, "name": "a60f8b15073a8c2c29283b5872018246", "bike_id": "a60f8b15073a8c2c29283b5872018246", "fusion_lat": 0.0, "lon": -77.03457733333333, "type": "electric_scooter", "fusion_lon": 0.0, "lat": 38.90737816666667}, {"rental_uris": {"android": "https://dc.lft.to/lastmile_qr_scan", "ios": "https://dc.lft.to/lastmile_qr_scan"}, "is_reserved": 0, "is_disabled": 0, "name": "0ac71f1415339dec56fb6717ccf1d8d0", "bike_id": "0ac71f1415339dec56fb6717ccf1d8d0", "fusion_lat": 0.0, "lon": -77.02946566666667, "type": "electric_scooter", "fusion_lon": 0.0, "lat": 38.90663816666667}, {"rental_uris": {"android": "https://dc.lft.to/lastmile_qr_scan", "ios": "https://dc.lft.to/lastmile_qr_scan"}, "is_reserved": 0, "is_disabled": 0, "name": "2bef7d59ed6fcc7d33fc848f8c5b1c08", "bike_id": "2bef7d59ed6fcc7d33fc848f8c5b1c08", "fusion_lat": 0.0, "lon": -77.05117216666666, "type": "electric_scooter", "fusion_lon": 0.0, "lat": 38.923437666666665}, {"rental_uris": {"android": "https://dc.lft.to/lastmile_qr_scan", "ios": "https://dc.lft.to/lastmile_qr_scan"}, "is_reserved": 0, "is_disabled": 0, "name": "79dba6e2a68a645b775fd83a4fd3a197", "bike_id": "79dba6e2a68a645b775fd83a4fd3a197", "fusion_lat": 0.0, "lon": -77.04241916666666, "type": "electric_scooter", "fusion_lon": 0.0, "lat": 38.921546666666664}, {"rental_uris": {"android": "https://dc.lft.to/lastmile_qr_scan", "ios": "https://dc.lft.to/lastmile_qr_scan"}, "is_reserved": 0, "is_disabled": 0, "name": "5d1a4567f0ced6310b79eefa2331081a", "bike_id": "5d1a4567f0ced6310b79eefa2331081a", "fusion_lat": 0.0, "lon": -77.03830633333334, "type": "electric_scooter", "fusion_lon": 0.0, "lat": 38.90998616666667}, {"rental_uris": {"android": "https://dc.lft.to/lastmile_qr_scan", "ios": "https://dc.lft.to/lastmile_qr_scan"}, "is_reserved": 0, "is_disabled": 0, "name": "f01fb4252da9234cddb5e1a01debb4c6", "bike_id": "f01fb4252da9234cddb5e1a01debb4c6", "fusion_lat": 0.0, "lon": -77.08961, "type": "electric_bike", "fusion_lon": 0.0, "lat": 38.841044}, {"rental_uris": {"android": "https://dc.lft.to/lastmile_qr_scan", "ios": "https://dc.lft.to/lastmile_qr_scan"}, "is_reserved": 0, "is_disabled": 0, "name": "eb7055ac2716acfa8733d4ab1d679310", "bike_id": "eb7055ac2716acfa8733d4ab1d679310", "fusion_lat": 0.0, "lon": -76.947111, "type": "electric_scooter", "fusion_lon": 0.0, "lat": 38.8908585}, {"rental_uris": {"android": "https://dc.lft.to/lastmile_qr_scan", "ios": "https://dc.lft.to/lastmile_qr_scan"}, "is_reserved": 0, "is_disabled": 0, "name": "6abe467c8447c911bb351a54b62040c5", "bike_id": "6abe467c8447c911bb351a54b62040c5", "fusion_lat": 0.0, "lon": -77.01969966666667, "type": "electric_scooter", "fusion_lon": 0.0, "lat": 38.91299566666667}, {"rental_uris": {"android": "https://dc.lft.to/lastmile_qr_scan", "ios": "https://dc.lft.to/lastmile_qr_scan"}, "is_reserved": 0, "is_disabled": 0, "name": "0fddcc785a429dcd56fc679c9e5d641f", "bike_id": "0fddcc785a429dcd56fc679c9e5d641f", "fusion_lat": 0.0, "lon": -76.95743866666666, "type": "electric_bike", "fusion_lon": 0.0, "lat": 38.888579}, {"rental_uris": {"android": "https://dc.lft.to/lastmile_qr_scan", "ios": "https://dc.lft.to/lastmile_qr_scan"}, "is_reserved": 0, "is_disabled": 0, "name": "687b69d2af6e0aa30f41cb8a4bb603d3", "bike_id": "687b69d2af6e0aa30f41cb8a4bb603d3", "fusion_lat": 0.0, "lon": -77.027014, "type": "electric_scooter", "fusion_lon": 0.0, "lat": 38.94941983333333}, {"rental_uris": {"android": "https://dc.lft.to/lastmile_qr_scan", "ios": "https://dc.lft.to/lastmile_qr_scan"}, "is_reserved": 0, "is_disabled": 0, "name": "ac2b60c21697964f0b027f049e756eb4", "bike_id": "ac2b60c21697964f0b027f049e756eb4", "fusion_lat": 0.0, "lon": -77.02800766666667, "type": "electric_scooter", "fusion_lon": 0.0, "lat": 38.910992}, {"rental_uris": {"android": "https://dc.lft.to/lastmile_qr_scan", "ios": "https://dc.lft.to/lastmile_qr_scan"}, "is_reserved": 0, "is_disabled": 0, "name": "7704dabe4d0bd9aa8176bd95ee61c52f", "bike_id": "7704dabe4d0bd9aa8176bd95ee61c52f", "fusion_lat": 0.0, "lon": -77.00242016666667, "type": "electric_bike", "fusion_lon": 0.0, "lat": 38.91125266666667}, {"rental_uris": {"android": "https://dc.lft.to/lastmile_qr_scan", "ios": "https://dc.lft.to/lastmile_qr_scan"}, "is_reserved": 0, "is_disabled": 0, "name": "035cebff949c2e1a59d2333b39497b97", "bike_id": "035cebff949c2e1a59d2333b39497b97", "fusion_lat": 0.0, "lon": -76.98354583333334, "type": "electric_scooter", "fusion_lon": 0.0, "lat": 38.887296}, {"rental_uris": {"android": "https://dc.lft.to/lastmile_qr_scan", "ios": "https://dc.lft.to/lastmile_qr_scan"}, "is_reserved": 0, "is_disabled": 0, "name": "631d9e2010e3069273176a69477c6e97", "bike_id": "631d9e2010e3069273176a69477c6e97", "fusion_lat": 0.0, "lon": -77.04609283333333, "type": "electric_scooter", "fusion_lon": 0.0, "lat": 38.92232766666667}, {"rental_uris": {"android": "https://dc.lft.to/lastmile_qr_scan", "ios": "https://dc.lft.to/lastmile_qr_scan"}, "is_reserved": 0, "is_disabled": 0, "name": "9423d4738ce8900ef26c492f226e5ecd", "bike_id": "9423d4738ce8900ef26c492f226e5ecd", "fusion_lat": 0.0, "lon": -77.009255, "type": "electric_scooter", "fusion_lon": 0.0, "lat": 38.91377766666667}, {"rental_uris": {"android": "https://dc.lft.to/lastmile_qr_scan", "ios": "https://dc.lft.to/lastmile_qr_scan"}, "is_reserved": 0, "is_disabled": 0, "name": "58d0a21bd37325d5c367e4b3f61da340", "bike_id": "58d0a21bd37325d5c367e4b3f61da340", "fusion_lat": 0.0, "lon": -77.03666616666666, "type": "electric_scooter", "fusion_lon": 0.0, "lat": 38.9227315}, {"rental_uris": {"android": "https://dc.lft.to/lastmile_qr_scan", "ios": "https://dc.lft.to/lastmile_qr_scan"}, "is_reserved": 0, "is_disabled": 0, "name": "c67fc213f391ea4f72c5516f1a3a7fa6", "bike_id": "c67fc213f391ea4f72c5516f1a3a7fa6", "fusion_lat": 0.0, "lon": -76.99623983333333, "type": "electric_scooter", "fusion_lon": 0.0, "lat": 38.900446}, {"rental_uris": {"android": "https://dc.lft.to/lastmile_qr_scan", "ios": "https://dc.lft.to/lastmile_qr_scan"}, "is_reserved": 0, "is_disabled": 0, "name": "560b3338e9e370346650aa849b7f7da9", "bike_id": "560b3338e9e370346650aa849b7f7da9", "fusion_lat": 0.0, "lon": -77.02885233333333, "type": "electric_scooter", "fusion_lon": 0.0, "lat": 38.926711166666664}, {"rental_uris": {"android": "https://dc.lft.to/lastmile_qr_scan", "ios": "https://dc.lft.to/lastmile_qr_scan"}, "is_reserved": 0, "is_disabled": 0, "name": "51dafd4126413f1413540d44dcc1edc0", "bike_id": "51dafd4126413f1413540d44dcc1edc0", "fusion_lat": 0.0, "lon": -77.0253275, "type": "electric_scooter", "fusion_lon": 0.0, "lat": 38.88324716666666}, {"rental_uris": {"android": "https://dc.lft.to/lastmile_qr_scan", "ios": "https://dc.lft.to/lastmile_qr_scan"}, "is_reserved": 0, "is_disabled": 0, "name": "17b68e666a15b752b7a746d51b11376c", "bike_id": "17b68e666a15b752b7a746d51b11376c", "fusion_lat": 0.0, "lon": -77.04010333333333, "type": "electric_scooter", "fusion_lon": 0.0, "lat": 38.924335666666664}, {"rental_uris": {"android": "https://dc.lft.to/lastmile_qr_scan", "ios": "https://dc.lft.to/lastmile_qr_scan"}, "is_reserved": 0, "is_disabled": 0, "name": "7f82285669d42738942c5bafc80b4490", "bike_id": "7f82285669d42738942c5bafc80b4490", "fusion_lat": 0.0, "lon": -77.03221366666666, "type": "electric_scooter", "fusion_lon": 0.0, "lat": 38.925494}, {"rental_uris": {"android": "https://dc.lft.to/lastmile_qr_scan", "ios": "https://dc.lft.to/lastmile_qr_scan"}, "is_reserved": 0, "is_disabled": 0, "name": "fe7fbec58f1db213aeac90cf64079196", "bike_id": "fe7fbec58f1db213aeac90cf64079196", "fusion_lat": 0.0, "lon": -76.986381, "type": "electric_scooter", "fusion_lon": 0.0, "lat": 38.8550785}, {"rental_uris": {"android": "https://dc.lft.to/lastmile_qr_scan", "ios": "https://dc.lft.to/lastmile_qr_scan"}, "is_reserved": 0, "is_disabled": 0, "name": "bb132063d65ed520b56582827c5ce507", "bike_id": "bb132063d65ed520b56582827c5ce507", "fusion_lat": 0.0, "lon": -77.03531066666666, "type": "electric_scooter", "fusion_lon": 0.0, "lat": 38.92472166666667}, {"rental_uris": {"android": "https://dc.lft.to/lastmile_qr_scan", "ios": "https://dc.lft.to/lastmile_qr_scan"}, "is_reserved": 0, "is_disabled": 0, "name": "63b6c4fae2822a3d53d62fba0ad5c80a", "bike_id": "63b6c4fae2822a3d53d62fba0ad5c80a", "fusion_lat": 0.0, "lon": -77.0432975, "type": "electric_scooter", "fusion_lon": 0.0, "lat": 38.896997166666665}, {"rental_uris": {"android": "https://dc.lft.to/lastmile_qr_scan", "ios": "https://dc.lft.to/lastmile_qr_scan"}, "is_reserved": 0, "is_disabled": 0, "name": "2e56f384be7ed5adbccb91dd70e9df60", "bike_id": "2e56f384be7ed5adbccb91dd70e9df60", "fusion_lat": 0.0, "lon": -76.94705833333333, "type": "electric_scooter", "fusion_lon": 0.0, "lat": 38.89770383333333}, {"rental_uris": {"android": "https://dc.lft.to/lastmile_qr_scan", "ios": "https://dc.lft.to/lastmile_qr_scan"}, "is_reserved": 0, "is_disabled": 0, "name": "7977fcd53a94012c6b4561651d74ed23", "bike_id": "7977fcd53a94012c6b4561651d74ed23", "fusion_lat": 0.0, "lon": -76.9858045, "type": "electric_scooter", "fusion_lon": 0.0, "lat": 38.9001595}, {"rental_uris": {"android": "https://dc.lft.to/lastmile_qr_scan", "ios": "https://dc.lft.to/lastmile_qr_scan"}, "is_reserved": 0, "is_disabled": 0, "name": "5ac095830333c300244b826086193cc7", "bike_id": "5ac095830333c300244b826086193cc7", "fusion_lat": 0.0, "lon": -77.03639933333334, "type": "electric_scooter", "fusion_lon": 0.0, "lat": 38.916267500000004}, {"rental_uris": {"android": "https://dc.lft.to/lastmile_qr_scan", "ios": "https://dc.lft.to/lastmile_qr_scan"}, "is_reserved": 0, "is_disabled": 0, "name": "1d68f4bd55eeda40d997262d13c9a87d", "bike_id": "1d68f4bd55eeda40d997262d13c9a87d", "fusion_lat": 0.0, "lon": -77.0240405, "type": "electric_scooter", "fusion_lon": 0.0, "lat": 38.91267416666667}, {"rental_uris": {"android": "https://dc.lft.to/lastmile_qr_scan", "ios": "https://dc.lft.to/lastmile_qr_scan"}, "is_reserved": 0, "is_disabled": 0, "name": "d78e7702f1a4bcbc67c7e952c21b4b21", "bike_id": "d78e7702f1a4bcbc67c7e952c21b4b21", "fusion_lat": 0.0, "lon": -77.01844716666666, "type": "electric_scooter", "fusion_lon": 0.0, "lat": 38.909557}, {"rental_uris": {"android": "https://dc.lft.to/lastmile_qr_scan", "ios": "https://dc.lft.to/lastmile_qr_scan"}, "is_reserved": 0, "is_disabled": 0, "name": "aa48c5fd17f77665f68e08e15dea2174", "bike_id": "aa48c5fd17f77665f68e08e15dea2174", "fusion_lat": 0.0, "lon": -77.03666683333333, "type": "electric_scooter", "fusion_lon": 0.0, "lat": 38.923865666666664}, {"rental_uris": {"android": "https://dc.lft.to/lastmile_qr_scan", "ios": "https://dc.lft.to/lastmile_qr_scan"}, "is_reserved": 0, "is_disabled": 0, "name": "b4180187bef5b3c03cb65e4869689c58", "bike_id": "b4180187bef5b3c03cb65e4869689c58", "fusion_lat": 0.0, "lon": -77.022995, "type": "electric_scooter", "fusion_lon": 0.0, "lat": 38.917899}, {"rental_uris": {"android": "https://dc.lft.to/lastmile_qr_scan", "ios": "https://dc.lft.to/lastmile_qr_scan"}, "is_reserved": 0, "is_disabled": 0, "name": "87412156ef6fddf53a4f7b414ddb9eb6", "bike_id": "87412156ef6fddf53a4f7b414ddb9eb6", "fusion_lat": 0.0, "lon": -77.01997433333334, "type": "electric_scooter", "fusion_lon": 0.0, "lat": 38.900464666666664}, {"rental_uris": {"android": "https://dc.lft.to/lastmile_qr_scan", "ios": "https://dc.lft.to/lastmile_qr_scan"}, "is_reserved": 0, "is_disabled": 0, "name": "7657618aff35f2d92b6d0b93b5cfa01c", "bike_id": "7657618aff35f2d92b6d0b93b5cfa01c", "fusion_lat": 0.0, "lon": -77.029342, "type": "electric_scooter", "fusion_lon": 0.0, "lat": 38.9206265}, {"rental_uris": {"android": "https://dc.lft.to/lastmile_qr_scan", "ios": "https://dc.lft.to/lastmile_qr_scan"}, "is_reserved": 0, "is_disabled": 0, "name": "91544275d4624df66ee6bc958db831f8", "bike_id": "91544275d4624df66ee6bc958db831f8", "fusion_lat": 0.0, "lon": -77.03039716666666, "type": "electric_scooter", "fusion_lon": 0.0, "lat": 38.930994}, {"rental_uris": {"android": "https://dc.lft.to/lastmile_qr_scan", "ios": "https://dc.lft.to/lastmile_qr_scan"}, "is_reserved": 0, "is_disabled": 0, "name": "6dbd6d228c80e2dd57a3664362ca3a62", "bike_id": "6dbd6d228c80e2dd57a3664362ca3a62", "fusion_lat": 0.0, "lon": -77.04863133333333, "type": "electric_scooter", "fusion_lon": 0.0, "lat": 38.90028366666667}, {"rental_uris": {"android": "https://dc.lft.to/lastmile_qr_scan", "ios": "https://dc.lft.to/lastmile_qr_scan"}, "is_reserved": 0, "is_disabled": 0, "name": "3d3058b4e5cf972f733783a50651483c", "bike_id": "3d3058b4e5cf972f733783a50651483c", "fusion_lat": 0.0, "lon": -77.02552916666667, "type": "electric_scooter", "fusion_lon": 0.0, "lat": 38.8919595}, {"rental_uris": {"android": "https://dc.lft.to/lastmile_qr_scan", "ios": "https://dc.lft.to/lastmile_qr_scan"}, "is_reserved": 0, "is_disabled": 0, "name": "71e23fbcd0a63ee078554bfb709102f9", "bike_id": "71e23fbcd0a63ee078554bfb709102f9", "fusion_lat": 0.0, "lon": -77.02608016666667, "type": "electric_scooter", "fusion_lon": 0.0, "lat": 38.90414716666667}, {"rental_uris": {"android": "https://dc.lft.to/lastmile_qr_scan", "ios": "https://dc.lft.to/lastmile_qr_scan"}, "is_reserved": 0, "is_disabled": 0, "name": "b2027fce993eb4852303919c1349a4b1", "bike_id": "b2027fce993eb4852303919c1349a4b1", "fusion_lat": 0.0, "lon": -77.0019815, "type": "electric_scooter", "fusion_lon": 0.0, "lat": 38.90237783333333}, {"rental_uris": {"android": "https://dc.lft.to/lastmile_qr_scan", "ios": "https://dc.lft.to/lastmile_qr_scan"}, "is_reserved": 0, "is_disabled": 0, "name": "f7eb9f6e422f6c584bed76cc06e3252d", "bike_id": "f7eb9f6e422f6c584bed76cc06e3252d", "fusion_lat": 0.0, "lon": -76.9957525, "type": "electric_bike", "fusion_lon": 0.0, "lat": 38.83156866666667}, {"rental_uris": {"android": "https://dc.lft.to/lastmile_qr_scan", "ios": "https://dc.lft.to/lastmile_qr_scan"}, "is_reserved": 0, "is_disabled": 0, "name": "5b997b35a751458f2a79828b4047ebbf", "bike_id": "5b997b35a751458f2a79828b4047ebbf", "fusion_lat": 0.0, "lon": -76.98094916666666, "type": "electric_bike", "fusion_lon": 0.0, "lat": 38.9535615}, {"rental_uris": {"android": "https://dc.lft.to/lastmile_qr_scan", "ios": "https://dc.lft.to/lastmile_qr_scan"}, "is_reserved": 0, "is_disabled": 0, "name": "0f7337be0ef8f1487bcd028fcf4ffc0f", "bike_id": "0f7337be0ef8f1487bcd028fcf4ffc0f", "fusion_lat": 0.0, "lon": -77.01515166666667, "type": "electric_scooter", "fusion_lon": 0.0, "lat": 38.887360666666666}, {"rental_uris": {"android": "https://dc.lft.to/lastmile_qr_scan", "ios": "https://dc.lft.to/lastmile_qr_scan"}, "is_reserved": 0, "is_disabled": 0, "name": "9743a1d9509ec9fe4888cfc2ebfcf990", "bike_id": "9743a1d9509ec9fe4888cfc2ebfcf990", "fusion_lat": 0.0, "lon": -77.03883983333333, "type": "electric_scooter", "fusion_lon": 0.0, "lat": 38.918484666666664}, {"rental_uris": {"android": "https://dc.lft.to/lastmile_qr_scan", "ios": "https://dc.lft.to/lastmile_qr_scan"}, "is_reserved": 0, "is_disabled": 0, "name": "e1b01ffcd5eaec18d38bb276f69537fa", "bike_id": "e1b01ffcd5eaec18d38bb276f69537fa", "fusion_lat": 0.0, "lon": -77.025224, "type": "electric_scooter", "fusion_lon": 0.0, "lat": 38.920971}, {"rental_uris": {"android": "https://dc.lft.to/lastmile_qr_scan", "ios": "https://dc.lft.to/lastmile_qr_scan"}, "is_reserved": 0, "is_disabled": 0, "name": "9a02ebf0424b4b8f31fe588f04f0029c", "bike_id": "9a02ebf0424b4b8f31fe588f04f0029c", "fusion_lat": 0.0, "lon": -77.04656416666667, "type": "electric_scooter", "fusion_lon": 0.0, "lat": 38.893431166666666}, {"rental_uris": {"android": "https://dc.lft.to/lastmile_qr_scan", "ios": "https://dc.lft.to/lastmile_qr_scan"}, "is_reserved": 0, "is_disabled": 0, "name": "bc55034e7133fd3bfc81bc874d38e950", "bike_id": "bc55034e7133fd3bfc81bc874d38e950", "fusion_lat": 0.0, "lon": -77.02153833333334, "type": "electric_scooter", "fusion_lon": 0.0, "lat": 38.9246335}, {"rental_uris": {"android": "https://dc.lft.to/lastmile_qr_scan", "ios": "https://dc.lft.to/lastmile_qr_scan"}, "is_reserved": 0, "is_disabled": 0, "name": "ab43ed69bf7c4f994a4aa4859435b452", "bike_id": "ab43ed69bf7c4f994a4aa4859435b452", "fusion_lat": 0.0, "lon": -77.0330165, "type": "electric_scooter", "fusion_lon": 0.0, "lat": 38.89913266666667}, {"rental_uris": {"android": "https://dc.lft.to/lastmile_qr_scan", "ios": "https://dc.lft.to/lastmile_qr_scan"}, "is_reserved": 0, "is_disabled": 0, "name": "c33fd96de90edec56fea00833ff238ed", "bike_id": "c33fd96de90edec56fea00833ff238ed", "fusion_lat": 0.0, "lon": -77.0091415, "type": "electric_scooter", "fusion_lon": 0.0, "lat": 38.895529333333336}, {"rental_uris": {"android": "https://dc.lft.to/lastmile_qr_scan", "ios": "https://dc.lft.to/lastmile_qr_scan"}, "is_reserved": 0, "is_disabled": 0, "name": "5c15d615fb187b72db5cb0114714b0cd", "bike_id": "5c15d615fb187b72db5cb0114714b0cd", "fusion_lat": 0.0, "lon": -76.9535145, "type": "electric_scooter", "fusion_lon": 0.0, "lat": 38.8895435}, {"rental_uris": {"android": "https://dc.lft.to/lastmile_qr_scan", "ios": "https://dc.lft.to/lastmile_qr_scan"}, "is_reserved": 0, "is_disabled": 0, "name": "8d9cddf070594d273e4e550576000d84", "bike_id": "8d9cddf070594d273e4e550576000d84", "fusion_lat": 0.0, "lon": -77.021717, "type": "electric_scooter", "fusion_lon": 0.0, "lat": 38.92606466666667}, {"rental_uris": {"android": "https://dc.lft.to/lastmile_qr_scan", "ios": "https://dc.lft.to/lastmile_qr_scan"}, "is_reserved": 0, "is_disabled": 0, "name": "0416355cc16fe94ace81a30df3dba082", "bike_id": "0416355cc16fe94ace81a30df3dba082", "fusion_lat": 0.0, "lon": -77.031409, "type": "electric_scooter", "fusion_lon": 0.0, "lat": 38.922359166666666}, {"rental_uris": {"android": "https://dc.lft.to/lastmile_qr_scan", "ios": "https://dc.lft.to/lastmile_qr_scan"}, "is_reserved": 0, "is_disabled": 0, "name": "557f47a706f0df4f0a8e843b28aa9bfa", "bike_id": "557f47a706f0df4f0a8e843b28aa9bfa", "fusion_lat": 0.0, "lon": -77.00728483333333, "type": "electric_scooter", "fusion_lon": 0.0, "lat": 38.91190983333333}, {"rental_uris": {"android": "https://dc.lft.to/lastmile_qr_scan", "ios": "https://dc.lft.to/lastmile_qr_scan"}, "is_reserved": 0, "is_disabled": 0, "name": "e7388d135b8d09c4836bfe2685b980db", "bike_id": "e7388d135b8d09c4836bfe2685b980db", "fusion_lat": 0.0, "lon": -77.03669466666666, "type": "electric_scooter", "fusion_lon": 0.0, "lat": 38.903381},