{"data": {"bikes": [{"is_reserved": 0, "fusion_lon": 0.0, "fusion_lat": 0.0, "name": "0352413fe31d590821ebaaca1eb40dad", "type": "electric_scooter", "is_disabled": 0, "lat": 38.95631616666667, "rental_uris": {"android": "https://dc.lft.to/lastmile_qr_scan", "ios": "https://dc.lft.to/lastmile_qr_scan"}, "bike_id": "0352413fe31d590821ebaaca1eb40dad", "lon": -77.02455033333334}, {"is_reserved": 0, "fusion_lon": 0.0, "fusion_lat": 0.0, "name": "5f289dc0f79b78f875fbc7ba9b2168ab", "type": "electric_scooter", "is_disabled": 0, "lat": 38.9154955, "rental_uris": {"android": "https://dc.lft.to/lastmile_qr_scan", "ios": "https://dc.lft.to/lastmile_qr_scan"}, "bike_id": "5f289dc0f79b78f875fbc7ba9b2168ab", "lon": -77.01197116666667}, {"is_reserved": 0, "fusion_lon": 0.0, "fusion_lat": 0.0, "name": "a834c03e7a60f384750fa25d7103635a", "type": "electric_scooter", "is_disabled": 0, "lat": 38.8979575, "rental_uris": {"android": "https://dc.lft.to/lastmile_qr_scan", "ios": "https://dc.lft.to/lastmile_qr_scan"}, "bike_id": "a834c03e7a60f384750fa25d7103635a", "lon": -77.0449185}, {"is_reserved": 0, "fusion_lon": 0.0, "fusion_lat": 0.0, "name": "47f3655a89e23abd258d5118e1c9fa17", "type": "electric_scooter", "is_disabled": 0, "lat": 38.91984033333333, "rental_uris": {"android": "https://dc.lft.to/lastmile_qr_scan", "ios": "https://dc.lft.to/lastmile_qr_scan"}, "bike_id": "47f3655a89e23abd258d5118e1c9fa17", "lon": -77.02174183333334}, {"is_reserved": 0, "fusion_lon": 0.0, "fusion_lat": 0.0, "name": "fcdbaf61e311faa070f206221fc60210", "type": "electric_scooter", "is_disabled": 0, "lat": 38.90952433333333, "rental_uris": {"android": "https://dc.lft.to/lastmile_qr_scan", "ios": "https://dc.lft.to/lastmile_qr_scan"}, "bike_id": "fcdbaf61e311faa070f206221fc60210", "lon": -77.03402483333333}, {"is_reserved": 0, "fusion_lon": 0.0, "fusion_lat": 0.0, "name": "6832b31b7c68632c670a87b1b2156f7e", "type": "electric_scooter", "is_disabled": 0, "lat": 38.918961, "rental_uris": {"android": "https://dc.lft.to/lastmile_qr_scan", "ios": "https://dc.lft.to/lastmile_qr_scan"}, "bike_id": "6832b31b7c68632c670a87b1b2156f7e", "lon": -77.02113833333334}, {"is_reserved": 0, "fusion_lon": 0.0, "fusion_lat": 0.0, "name": "26c0f97cc24150a3cd74ac5b98b2f23e", "type": "electric_bike", "is_disabled": 0, "lat": 38.946695166666665, "rental_uris": {"android": "https://dc.lft.to/lastmile_qr_scan", "ios": "https://dc.lft.to/lastmile_qr_scan"}, "bike_id": "26c0f97cc24150a3cd74ac5b98b2f23e", "lon": -76.98314316666666}, {"is_reserved": 0, "fusion_lon": 0.0, "fusion_lat": 0.0, "name": "fc2bf033c012875984efb655d050b301", "type": "electric_scooter", "is_disabled": 0, "lat": 38.90724733333333, "rental_uris": {"android": "https://dc.lft.to/lastmile_qr_scan", "ios": "https://dc.lft.to/lastmile_qr_scan"}, "bike_id": "fc2bf033c012875984efb655d050b301", "lon": -77.04968416666667}, {"is_reserved": 0, "fusion_lon": 0.0, "fusion_lat": 0.0, "name": "813d92e0ee8e5842cf4479aa7a6ed4e8", "type": "electric_bike", "is_disabled": 0, "lat": 38.8521155, "rental_uris": {"android": "https://dc.lft.to/lastmile_qr_scan", "ios": "https://dc.lft.to/lastmile_qr_scan"}, "bike_id": "813d92e0ee8e5842cf4479aa7a6ed4e8", "lon": -77.10133333333333}, {"is_reserved": 0, "fusion_lon": 0.0, "fusion_lat": 0.0, "name": "2a6bfdd375c20fcf6388ee0a8178b80e", "type": "electric_scooter", "is_disabled": 0, "lat": 38.93239333333333, "rental_uris": {"android": "https://dc.lft.to/lastmile_qr_scan", "ios": "https://dc.lft.to/lastmile_qr_scan"}, "bike_id": "2a6bfdd375c20fcf6388ee0a8178b80e", "lon": -77.03413766666667}, {"is_reserved": 0, "fusion_lon": 0.0, "fusion_lat": 0.0, "name": "b6082ae7dc8783ad030f4b81983f07a3", "type": "electric_scooter", "is_disabled": 0, "lat": 38.899141166666666, "rental_uris": {"android": "https://dc.lft.to/lastmile_qr_scan", "ios": "https://dc.lft.to/lastmile_qr_scan"}, "bike_id": "b6082ae7dc8783ad030f4b81983f07a3", "lon": -76.93358166666667}, {"is_reserved": 0, "fusion_lon": 0.0, "fusion_lat": 0.0, "name": "b101e9d6e3dfe5373926bffbc531ce85", "type": "electric_scooter", "is_disabled": 0, "lat": 38.89858916666667, "rental_uris": {"android": "https://dc.lft.to/lastmile_qr_scan", "ios": "https://dc.lft.to/lastmile_qr_scan"}, "bike_id": "b101e9d6e3dfe5373926bffbc531ce85", "lon": -77.0417935}, {"is_reserved": 0, "fusion_lon": 0.0, "fusion_lat": 0.0, "name": "7bdca915fe33226c6825de2db57e0534", "type": "electric_scooter", "is_disabled": 0, "lat": 38.92821633333333, "rental_uris": {"android": "https://dc.lft.to/lastmile_qr_scan", "ios": "https://dc.lft.to/lastmile_qr_scan"}, "bike_id": "7bdca915fe33226c6825de2db57e0534", "lon": -77.02278066666666}, {"is_reserved": 0, "fusion_lon": 0.0, "fusion_lat": 0.0, "name": "3b63506d1ad2a721d1b598333adf7119", "type": "electric_bike", "is_disabled": 0, "lat": 38.8996355, "rental_uris": {"android": "https://dc.lft.to/lastmile_qr_scan", "ios": "https://dc.lft.to/lastmile_qr_scan"}, "bike_id": "3b63506d1ad2a721d1b598333adf7119", "lon": -76.986925}, {"is_reserved": 0, "fusion_lon": 0.0, "fusion_lat": 0.0, "name": "9063857b3c0c36e1610c8a00c38d4236", "type": "electric_scooter", "is_disabled": 0, "lat": 38.90043083333333, "rental_uris": {"android": "https://dc.lft.to/lastmile_qr_scan", "ios": "https://dc.lft.to/lastmile_qr_scan"}, "bike_id": "9063857b3c0c36e1610c8a00c38d4236", "lon": -77.00207283333333}, {"is_reserved": 0, "fusion_lon": 0.0, "fusion_lat": 0.0, "name": "4f7c7ab1a0c55833555ab7a1b4694c68", "type": "electric_bike", "is_disabled": 0, "lat": 38.936257833333336, "rental_uris": {"android": "https://dc.lft.to/lastmile_qr_scan", "ios": "https://dc.lft.to/lastmile_qr_scan"}, "bike_id": "4f7c7ab1a0c55833555ab7a1b4694c68", "lon": -77.09015583333333}, {"is_reserved": 0, "fusion_lon": 0.0, "fusion_lat": 0.0, "name": "d2c7c10e159da14b5b472f34e5982dc4", "type": "electric_scooter", "is_disabled": 0, "lat": 38.89013416666667, "rental_uris": {"android": "https://dc.lft.to/lastmile_qr_scan", "ios": "https://dc.lft.to/lastmile_qr_scan"}, "bike_id": "d2c7c10e159da14b5b472f34e5982dc4", "lon": -76.937286}, {"is_reserved": 0, "fusion_lon": 0.0, "fusion_lat": 0.0, "name": "8190c2f6d958397882d3c61f772177d7", "type": "electric_scooter", "is_disabled": 0, "lat": 38.910858, "rental_uris": {"android": "https://dc.lft.to/lastmile_qr_scan", "ios": "https://dc.lft.to/lastmile_qr_scan"}, "bike_id": "8190c2f6d958397882d3c61f772177d7", "lon": -76.99266866666666}, {"is_reserved": 0, "fusion_lon": 0.0, "fusion_lat": 0.0, "name": "3c88205994fefd3525e4b14b8d3c0cca", "type": "electric_scooter", "is_disabled": 0, "lat": 38.91899816666667, "rental_uris": {"android": "https://dc.lft.to/lastmile_qr_scan", "ios": "https://dc.lft.to/lastmile_qr_scan"}, "bike_id": "3c88205994fefd3525e4b14b8d3c0cca", "lon": -77.02089283333333}, {"is_reserved": 0, "fusion_lon": 0.0, "fusion_lat": 0.0, "name": "6d2fdf54793d2d61a4972f4ace00761d", "type": "electric_bike", "is_disabled": 0, "lat": 38.801260666666664, "rental_uris": {"android": "https://dc.lft.to/lastmile_qr_scan", "ios": "https://dc.lft.to/lastmile_qr_scan"}, "bike_id": "6d2fdf54793d2d61a4972f4ace00761d", "lon": -77.070473}, {"is_reserved": 0, "fusion_lon": 0.0, "fusion_lat": 0.0, "name": "7d5f4eb25f87da9e17550a9d41f4d2f9", "type": "electric_scooter", "is_disabled": 0, "lat": 38.930964333333336, "rental_uris": {"android": "https://dc.lft.to/lastmile_qr_scan", "ios": "https://dc.lft.to/lastmile_qr_scan"}, "bike_id": "7d5f4eb25f87da9e17550a9d41f4d2f9", "lon": -77.0381705}, {"is_reserved": 0, "fusion_lon": 0.0, "fusion_lat": 0.0, "name": "3d51bc627952be7440d36b1f48605ba6", "type": "electric_scooter", "is_disabled": 0, "lat": 38.91575866666667, "rental_uris": {"android": "https://dc.lft.to/lastmile_qr_scan", "ios": "https://dc.lft.to/lastmile_qr_scan"}, "bike_id": "3d51bc627952be7440d36b1f48605ba6", "lon": -77.031961}, {"is_reserved": 0, "fusion_lon": 0.0, "fusion_lat": 0.0, "name": "66fe426cf04efbbe6b6da8c6d2d49c9a", "type": "electric_scooter", "is_disabled": 0, "lat": 38.87931966666667, "rental_uris": {"android": "https://dc.lft.to/lastmile_qr_scan", "ios": "https://dc.lft.to/lastmile_qr_scan"}, "bike_id": "66fe426cf04efbbe6b6da8c6d2d49c9a", "lon": -77.00403316666667}, {"is_reserved": 0, "fusion_lon": 0.0, "fusion_lat": 0.0, "name": "228975ce593f9a59f5bc5940011053b8", "type": "electric_scooter", "is_disabled": 0, "lat": 38.902844, "rental_uris": {"android": "https://dc.lft.to/lastmile_qr_scan", "ios": "https://dc.lft.to/lastmile_qr_scan"}, "bike_id": "228975ce593f9a59f5bc5940011053b8", "lon": -77.03365066666667}, {"is_reserved": 0, "fusion_lon": 0.0, "fusion_lat": 0.0, "name": "c59d2a25c4c1138a7997fb969bacf48c", "type": "electric_scooter", "is_disabled": 0, "lat": 38.93653533333333, "rental_uris": {"android": "https://dc.lft.to/lastmile_qr_scan", "ios": "https://dc.lft.to/lastmile_qr_scan"}, "bike_id": "c59d2a25c4c1138a7997fb969bacf48c", "lon": -77.02637166666666}, {"is_reserved": 0, "fusion_lon": 0.0, "fusion_lat": 0.0, "name": "a77df20896d68e10d3d1946cf1121c4e", "type": "electric_scooter", "is_disabled": 0, "lat": 38.91631616666667, "rental_uris": {"android": "https://dc.lft.to/lastmile_qr_scan", "ios": "https://dc.lft.to/lastmile_qr_scan"}, "bike_id": "a77df20896d68e10d3d1946cf1121c4e", "lon": -77.010859}, {"is_reserved": 0, "fusion_lon": 0.0, "fusion_lat": 0.0, "name": "a432e156ed3b6299a6135178ce4ab3eb", "type": "electric_scooter", "is_disabled": 0, "lat": 38.9023905, "rental_uris": {"android": "https://dc.lft.to/lastmile_qr_scan", "ios": "https://dc.lft.to/lastmile_qr_scan"}, "bike_id": "a432e156ed3b6299a6135178ce4ab3eb", "lon": -77.04387733333333}, {"is_reserved": 0, "fusion_lon": 0.0, "fusion_lat": 0.0, "name": "a7c224c08607bee38564a0b970c11533", "type": "electric_scooter", "is_disabled": 0, "lat": 38.907255166666666, "rental_uris": {"android": "https://dc.lft.to/lastmile_qr_scan", "ios": "https://dc.lft.to/lastmile_qr_scan"}, "bike_id": "a7c224c08607bee38564a0b970c11533", "lon": -77.0163605}, {"is_reserved": 0, "fusion_lon": 0.0, "fusion_lat": 0.0, "name": "761bd8d151d99a5b073493728b4b4790", "type": "electric_scooter", "is_disabled": 0, "lat": 38.92412783333333, "rental_uris": {"android": "https://dc.lft.to/lastmile_qr_scan", "ios": "https://dc.lft.to/lastmile_qr_scan"}, "bike_id": "761bd8d151d99a5b073493728b4b4790", "lon": -77.02007716666667}, {"is_reserved": 0, "fusion_lon": 0.0, "fusion_lat": 0.0, "name": "0b7f8b94aefcf2720d45affc8896e39b", "type": "electric_scooter", "is_disabled": 0, "lat": 38.90152416666667, "rental_uris": {"android": "https://dc.lft.to/lastmile_qr_scan", "ios": "https://dc.lft.to/lastmile_qr_scan"}, "bike_id": "0b7f8b94aefcf2720d45affc8896e39b", "lon": -76.99026066666667}, {"is_reserved": 0, "fusion_lon": 0.0, "fusion_lat": 0.0, "name": "c145ae45a0681c22d4d8918f6f31afb1", "type": "electric_scooter", "is_disabled": 0, "lat": 38.92892583333333, "rental_uris": {"android": "https://dc.lft.to/lastmile_qr_scan", "ios": "https://dc.lft.to/lastmile_qr_scan"}, "bike_id": "c145ae45a0681c22d4d8918f6f31afb1", "lon": -77.01632116666667}, {"is_reserved": 0, "fusion_lon": 0.0, "fusion_lat": 0.0, "name": "5b0ce2146c479a3caceaab114975835a", "type": "electric_bike", "is_disabled": 0, "lat": 38.86939133333333, "rental_uris": {"android": "https://dc.lft.to/lastmile_qr_scan", "ios": "https://dc.lft.to/lastmile_qr_scan"}, "bike_id": "5b0ce2146c479a3caceaab114975835a", "lon": -77.09462766666667}, {"is_reserved": 0, "fusion_lon": 0.0, "fusion_lat": 0.0, "name": "33fc17562174cd82542fb0306fa99b6f", "type": "electric_scooter", "is_disabled": 0, "lat": 38.872007333333336, "rental_uris": {"android": "https://dc.lft.to/lastmile_qr_scan", "ios": "https://dc.lft.to/lastmile_qr_scan"}, "bike_id": "33fc17562174cd82542fb0306fa99b6f", "lon": -77.00571633333334}, {"is_reserved": 0, "fusion_lon": 0.0, "fusion_lat": 0.0, "name": "2ab74a2b7d059b644f6f0d1fef9b50ff", "type": "electric_scooter", "is_disabled": 0, "lat": 38.905968333333334, "rental_uris": {"android": "https://dc.lft.to/lastmile_qr_scan", "ios": "https://dc.lft.to/lastmile_qr_scan"}, "bike_id": "2ab74a2b7d059b644f6f0d1fef9b50ff", "lon": -77.06299833333334}, {"is_reserved": 0, "fusion_lon": 0.0, "fusion_lat": 0.0, "name": "996bc27804f10dc0d4bcafa627566574", "type": "electric_scooter", "is_disabled": 0, "lat": 38.914624, "rental_uris": {"android": "https://dc.lft.to/lastmile_qr_scan", "ios": "https://dc.lft.to/lastmile_qr_scan"}, "bike_id": "996bc27804f10dc0d4bcafa627566574", "lon": -77.0456265}, {"is_reserved": 0, "fusion_lon": 0.0, "fusion_lat": 0.0, "name": "0fca4d4acf24855059a2081fd1fc7153", "type": "electric_scooter", "is_disabled": 0, "lat": 38.89221033333333, "rental_uris": {"android": "https://dc.lft.to/lastmile_qr_scan", "ios": "https://dc.lft.to/lastmile_qr_scan"}, "bike_id": "0fca4d4acf24855059a2081fd1fc7153", "lon": -77.023496}, {"is_reserved": 0, "fusion_lon": 0.0, "fusion_lat": 0.0, "name": "8b5d68a3f345ed5db4cb034b61b4ef20", "type": "electric_scooter", "is_disabled": 0, "lat": 38.89312, "rental_uris": {"android": "https://dc.lft.to/lastmile_qr_scan", "ios": "https://dc.lft.to/lastmile_qr_scan"}, "bike_id": "8b5d68a3f345ed5db4cb034b61b4ef20", "lon": -77.0500075}, {"is_reserved": 0, "fusion_lon": 0.0, "fusion_lat": 0.0, "name": "d6f697f9813fca9d5685a77d426c3dbd", "type": "electric_scooter", "is_disabled": 0, "lat": 38.89021833333334, "rental_uris": {"android": "https://dc.lft.to/lastmile_qr_scan", "ios": "https://dc.lft.to/lastmile_qr_scan"}, "bike_id": "d6f697f9813fca9d5685a77d426c3dbd", "lon": -76.93699666666667}, {"is_reserved": 0, "fusion_lon": 0.0, "fusion_lat": 0.0, "name": "55c9637cff8868641d9233ff06c31f9b", "type": "electric_scooter", "is_disabled": 0, "lat": 38.899017, "rental_uris": {"android": "https://dc.lft.to/lastmile_qr_scan", "ios": "https://dc.lft.to/lastmile_qr_scan"}, "bike_id": "55c9637cff8868641d9233ff06c31f9b", "lon": -77.02184883333334}, {"is_reserved": 0, "fusion_lon": 0.0, "fusion_lat": 0.0, "name": "831e7fa986ada21258effadba1d05233", "type": "electric_scooter", "is_disabled": 0, "lat": 38.906868333333335, "rental_uris": {"android": "https://dc.lft.to/lastmile_qr_scan", "ios": "https://dc.lft.to/lastmile_qr_scan"}, "bike_id": "831e7fa986ada21258effadba1d05233", "lon": -77.0377285}, {"is_reserved": 0, "fusion_lon": 0.0, "fusion_lat": 0.0, "name": "84f535b7a1787cf04923e73fcead290f", "type": "electric_scooter", "is_disabled": 0, "lat": 38.90271883333333, "rental_uris": {"android": "https://dc.lft.to/lastmile_qr_scan", "ios": "https://dc.lft.to/lastmile_qr_scan"}, "bike_id": "84f535b7a1787cf04923e73fcead290f", "lon": -77.03034516666666}, {"is_reserved": 0, "fusion_lon": 0.0, "fusion_lat": 0.0, "name": "63028f541815f02ea45802dc88a18346", "type": "electric_scooter", "is_disabled": 0, "lat": 38.91795333333334, "rental_uris": {"android": "https://dc.lft.to/lastmile_qr_scan", "ios": "https://dc.lft.to/lastmile_qr_scan"}, "bike_id": "63028f541815f02ea45802dc88a18346", "lon": -77.03214383333334}, {"is_reserved": 0, "fusion_lon": 0.0, "fusion_lat": 0.0, "name": "327d8e61c6fbf5bfb7d80c0c7d59ad71", "type": "electric_scooter", "is_disabled": 0, "lat": 38.87544883333333, "rental_uris": {"android": "https://dc.lft.to/lastmile_qr_scan", "ios": "https://dc.lft.to/lastmile_qr_scan"}, "bike_id": "327d8e61c6fbf5bfb7d80c0c7d59ad71", "lon": -77.00587983333334}, {"is_reserved": 0, "fusion_lon": 0.0, "fusion_lat": 0.0, "name": "49ee0222b95777cc391e193216227cd3", "type": "electric_scooter", "is_disabled": 0, "lat": 38.908132, "rental_uris": {"android": "https://dc.lft.to/lastmile_qr_scan", "ios": "https://dc.lft.to/lastmile_qr_scan"}, "bike_id": "49ee0222b95777cc391e193216227cd3", "lon": -77.03837666666666}, {"is_reserved": 0, "fusion_lon": 0.0, "fusion_lat": 0.0, "name": "d1a6c32634fe39b58d6e1a489ee4f9a3", "type": "electric_scooter", "is_disabled": 0, "lat": 38.922673, "rental_uris": {"android": "https://dc.lft.to/lastmile_qr_scan", "ios": "https://dc.lft.to/lastmile_qr_scan"}, "bike_id": "d1a6c32634fe39b58d6e1a489ee4f9a3", "lon": -77.0425585}, {"is_reserved": 0, "fusion_lon": 0.0, "fusion_lat": 0.0, "name": "fa83c9ef60ca40fb763fbeefa7fbe7bf", "type": "electric_scooter", "is_disabled": 0, "lat": 38.890161, "rental_uris": {"android": "https://dc.lft.to/lastmile_qr_scan", "ios": "https://dc.lft.to/lastmile_qr_scan"}, "bike_id": "fa83c9ef60ca40fb763fbeefa7fbe7bf", "lon": -76.93734216666667}, {"is_reserved": 0, "fusion_lon": 0.0, "fusion_lat": 0.0, "name": "b8dbabad23b755c78846f39c64b9444b", "type": "electric_scooter", "is_disabled": 0, "lat": 38.89797316666667, "rental_uris": {"android": "https://dc.lft.to/lastmile_qr_scan", "ios": "https://dc.lft.to/lastmile_qr_scan"}, "bike_id": "b8dbabad23b755c78846f39c64b9444b", "lon": -77.04018466666666}, {"is_reserved": 0, "fusion_lon": 0.0, "fusion_lat": 0.0, "name": "4942ad70fe750eff47c8fc808b51b2fd", "type": "electric_scooter", "is_disabled": 0, "lat": 38.934847500000004, "rental_uris": {"android": "https://dc.lft.to/lastmile_qr_scan", "ios": "https://dc.lft.to/lastmile_qr_scan"}, "bike_id": "4942ad70fe750eff47c8fc808b51b2fd", "lon": -77.06479116666667}, {"is_reserved": 0, "fusion_lon": 0.0, "fusion_lat": 0.0, "name": "9bcae18075ce163dad1bde15514702d4", "type": "electric_scooter", "is_disabled": 0, "lat": 38.907093333333336, "rental_uris": {"android": "https://dc.lft.to/lastmile_qr_scan", "ios": "https://dc.lft.to/lastmile_qr_scan"}, "bike_id": "9bcae18075ce163dad1bde15514702d4", "lon": -77.04193733333334}, {"is_reserved": 0, "fusion_lon": 0.0, "fusion_lat": 0.0, "name": "de744981a88fdaf811b05e65fdb488b5", "type": "electric_scooter", "is_disabled": 0, "lat": 38.90536616666667, "rental_uris": {"android": "https://dc.lft.to/lastmile_qr_scan", "ios": "https://dc.lft.to/lastmile_qr_scan"}, "bike_id": "de744981a88fdaf811b05e65fdb488b5", "lon": -77.04191183333333}, {"is_reserved": 0, "fusion_lon": 0.0, "fusion_lat": 0.0, "name": "6500577e8dbafd6bfea1a3cb320ffd75", "type": "electric_scooter", "is_disabled": 0, "lat": 38.95198766666667, "rental_uris": {"android": "https://dc.lft.to/lastmile_qr_scan", "ios": "https://dc.lft.to/lastmile_qr_scan"}, "bike_id": "6500577e8dbafd6bfea1a3cb320ffd75", "lon": -77.02730666666666}, {"is_reserved": 0, "fusion_lon": 0.0, "fusion_lat": 0.0, "name": "1ec96abe907ecbd74957786b1863bbc0", "type": "electric_scooter", "is_disabled": 0, "lat": 38.90341633333333, "rental_uris": {"android": "https://dc.lft.to/lastmile_qr_scan", "ios": "https://dc.lft.to/lastmile_qr_scan"}, "bike_id": "1ec96abe907ecbd74957786b1863bbc0", "lon": -77.00580783333334}, {"is_reserved": 0, "fusion_lon": 0.0, "fusion_lat": 0.0, "name": "3c9b1e38ba3648e460dacf66024e6b24", "type": "electric_scooter", "is_disabled": 0, "lat": 38.90725316666666, "rental_uris": {"android": "https://dc.lft.to/lastmile_qr_scan", "ios": "https://dc.lft.to/lastmile_qr_scan"}, "bike_id": "3c9b1e38ba3648e460dacf66024e6b24", "lon": -77.04809183333333}, {"is_reserved": 0, "fusion_lon": 0.0, "fusion_lat": 0.0, "name": "965c82869d43f0aba5dd977c0349f19d", "type": "electric_scooter", "is_disabled": 0, "lat": 38.931629, "rental_uris": {"android": "https://dc.lft.to/lastmile_qr_scan", "ios": "https://dc.lft.to/lastmile_qr_scan"}, "bike_id": "965c82869d43f0aba5dd977c0349f19d", "lon": -77.0560275}, {"is_reserved": 0, "fusion_lon": 0.0, "fusion_lat": 0.0, "name": "b8ed88f45adb604cae568de5cf622870", "type": "electric_scooter", "is_disabled": 0, "lat": 38.9233675, "rental_uris": {"android": "https://dc.lft.to/lastmile_qr_scan", "ios": "https://dc.lft.to/lastmile_qr_scan"}, "bike_id": "b8ed88f45adb604cae568de5cf622870", "lon": -77.04786666666666}, {"is_reserved": 0, "fusion_lon": 0.0, "fusion_lat": 0.0, "name": "47420ca76317af3be1c275733066c3e9", "type": "electric_scooter", "is_disabled": 0, "lat": 38.922515, "rental_uris": {"android": "https://dc.lft.to/lastmile_qr_scan", "ios": "https://dc.lft.to/lastmile_qr_scan"}, "bike_id": "47420ca76317af3be1c275733066c3e9", "lon": -77.01954566666667}, {"is_reserved": 0, "fusion_lon": 0.0, "fusion_lat": 0.0, "name": "39bf75432b50c4ec6777929a9589fa18", "type": "electric_scooter", "is_disabled": 0, "lat": 38.88598266666666, "rental_uris": {"android": "https://dc.lft.to/lastmile_qr_scan", "ios": "https://dc.lft.to/lastmile_qr_scan"}, "bike_id": "39bf75432b50c4ec6777929a9589fa18", "lon": -76.99627566666666}, {"is_reserved": 0, "fusion_lon": 0.0, "fusion_lat": 0.0, "name": "de489b7ef388bc17ef139e52ecd98213", "type": "electric_scooter", "is_disabled": 0, "lat": 38.908386, "rental_uris": {"android": "https://dc.lft.to/lastmile_qr_scan", "ios": "https://dc.lft.to/lastmile_qr_scan"}, "bike_id": "de489b7ef388bc17ef139e52ecd98213", "lon": -77.03940983333334}, {"is_reserved": 0, "fusion_lon": 0.0, "fusion_lat": 0.0, "name": "9ac313b5c57274a72eb4c193b35413f3", "type": "electric_scooter", "is_disabled": 0, "lat": 38.878024, "rental_uris": {"android": "https://dc.lft.to/lastmile_qr_scan", "ios": "https://dc.lft.to/lastmile_qr_scan"}, "bike_id": "9ac313b5c57274a72eb4c193b35413f3", "lon": -76.93083983333334}, {"is_reserved": 0, "fusion_lon": 0.0, "fusion_lat": 0.0, "name": "91018a2bf4bf68a125e9b464f760d7ab", "type": "electric_scooter", "is_disabled": 0, "lat": 38.91721116666667, "rental_uris": {"android": "https://dc.lft.to/lastmile_qr_scan", "ios": "https://dc.lft.to/lastmile_qr_scan"}, "bike_id": "91018a2bf4bf68a125e9b464f760d7ab", "lon": -77.02962283333333}, {"is_reserved": 0, "fusion_lon": 0.0, "fusion_lat": 0.0, "name": "6f722092bd46a413953f788468d71600", "type": "electric_scooter", "is_disabled": 0, "lat": 38.914972666666664, "rental_uris": {"android": "https://dc.lft.to/lastmile_qr_scan", "ios": "https://dc.lft.to/lastmile_qr_scan"}, "bike_id": "6f722092bd46a413953f788468d71600", "lon": -77.01854683333333}, {"is_reserved": 0, "fusion_lon": 0.0, "fusion_lat": 0.0, "name": "e4026da6a9617d01443b0a04e466e7a7", "type": "electric_scooter", "is_disabled": 0, "lat": 38.901503166666664, "rental_uris": {"android": "https://dc.lft.to/lastmile_qr_scan", "ios": "https://dc.lft.to/lastmile_qr_scan"}, "bike_id": "e4026da6a9617d01443b0a04e466e7a7", "lon": -77.0461465}, {"is_reserved": 0, "fusion_lon": 0.0, "fusion_lat": 0.0, "name": "822b98f5fb0dfc834880e492ec8f3c86", "type": "electric_scooter", "is_disabled": 0, "lat": 38.865051, "rental_uris": {"android": "https://dc.lft.to/lastmile_qr_scan", "ios": "https://dc.lft.to/lastmile_qr_scan"}, "bike_id": "822b98f5fb0dfc834880e492ec8f3c86", "lon": -76.99000016666666}, {"is_reserved": 0, "fusion_lon": 0.0, "fusion_lat": 0.0, "name": "3044f556fd2ec6ce633ee80aa46c080e", "type": "electric_scooter", "is_disabled": 0, "lat": 38.923386, "rental_uris": {"android": "https://dc.lft.to/lastmile_qr_scan", "ios": "https://dc.lft.to/lastmile_qr_scan"}, "bike_id": "3044f556fd2ec6ce633ee80aa46c080e", "lon": -77.0430325}, {"is_reserved": 0, "fusion_lon": 0.0, "fusion_lat": 0.0, "name": "32eb5c03b139864996318915a79be570", "type": "electric_scooter", "is_disabled": 0, "lat": 38.939575833333336, "rental_uris": {"android": "https://dc.lft.to/lastmile_qr_scan", "ios": "https://dc.lft.to/lastmile_qr_scan"}, "bike_id": "32eb5c03b139864996318915a79be570", "lon": -77.027426}, {"is_reserved": 0, "fusion_lon": 0.0, "fusion_lat": 0.0, "name": "5a3f69a3573751ab585687cba1facdda", "type": "electric_scooter", "is_disabled": 0, "lat": 38.905539833333336, "rental_uris": {"android": "https://dc.lft.to/lastmile_qr_scan", "ios": "https://dc.lft.to/lastmile_qr_scan"}, "bike_id": "5a3f69a3573751ab585687cba1facdda", "lon": -77.04140966666667}, {"is_reserved": 0, "fusion_lon": 0.0, "fusion_lat": 0.0, "name": "00b7b795baf97556839b098851eae454", "type": "electric_scooter", "is_disabled": 0, "lat": 38.91036316666667, "rental_uris": {"android": "https://dc.lft.to/lastmile_qr_scan", "ios": "https://dc.lft.to/lastmile_qr_scan"}, "bike_id": "00b7b795baf97556839b098851eae454", "lon": -76.99338516666667}, {"is_reserved": 0, "fusion_lon": 0.0, "fusion_lat": 0.0, "name": "39ac0e7771973c5bf453e302062252d7", "type": "electric_scooter", "is_disabled": 0, "lat": 38.935395, "rental_uris": {"android": "https://dc.lft.to/lastmile_qr_scan", "ios": "https://dc.lft.to/lastmile_qr_scan"}, "bike_id": "39ac0e7771973c5bf453e302062252d7", "lon": -77.05739983333333}, {"is_reserved": 0, "fusion_lon": 0.0, "fusion_lat": 0.0, "name": "b39d5b20609a2f577f5a7b06d29df932", "type": "electric_scooter", "is_disabled": 0, "lat": 38.8922135, "rental_uris": {"android": "https://dc.lft.to/lastmile_qr_scan", "ios": "https://dc.lft.to/lastmile_qr_scan"}, "bike_id": "b39d5b20609a2f577f5a7b06d29df932", "lon": -77.04261366666667}, {"is_reserved": 0, "fusion_lon": 0.0, "fusion_lat": 0.0, "name": "44b990c9363b842b6efc7e97f68b1b91", "type": "electric_scooter", "is_disabled": 0, "lat": 38.900181833333335, "rental_uris": {"android": "https://dc.lft.to/lastmile_qr_scan", "ios": "https://dc.lft.to/lastmile_qr_scan"}, "bike_id": "44b990c9363b842b6efc7e97f68b1b91", "lon": -77.00701833333333}, {"is_reserved": 0, "fusion_lon": 0.0, "fusion_lat": 0.0, "name": "d30919b525d411ce5fbb6c0d468be331", "type": "electric_scooter", "is_disabled": 0, "lat": 38.923195166666666, "rental_uris": {"android": "https://dc.lft.to/lastmile_qr_scan", "ios": "https://dc.lft.to/lastmile_qr_scan"}, "bike_id": "d30919b525d411ce5fbb6c0d468be331", "lon": -77.026874}, {"is_reserved": 0, "fusion_lon": 0.0, "fusion_lat": 0.0, "name": "a348a6789a86bd001fcaebdb738f449a", "type": "electric_scooter", "is_disabled": 0, "lat": 38.91558, "rental_uris": {"android": "https://dc.lft.to/lastmile_qr_scan", "ios": "https://dc.lft.to/lastmile_qr_scan"}, "bike_id": "a348a6789a86bd001fcaebdb738f449a", "lon": -77.0316325}, {"is_reserved": 0, "fusion_lon": 0.0, "fusion_lat": 0.0, "name": "79d181c78ea8b1b96768a7c5d37483b2", "type": "electric_scooter", "is_disabled": 0, "lat": 38.911073, "rental_uris": {"android": "https://dc.lft.to/lastmile_qr_scan", "ios": "https://dc.lft.to/lastmile_qr_scan"}, "bike_id": "79d181c78ea8b1b96768a7c5d37483b2", "lon": -77.04467666666666}, {"is_reserved": 0, "fusion_lon": 0.0, "fusion_lat": 0.0, "name": "f5fe28117da36049a03ba899809c2326", "type": "electric_scooter", "is_disabled": 0, "lat": 38.864173666666666, "rental_uris": {"android": "https://dc.lft.to/lastmile_qr_scan", "ios": "https://dc.lft.to/lastmile_qr_scan"}, "bike_id": "f5fe28117da36049a03ba899809c2326", "lon": -77.01214616666667}, {"is_reserved": 0, "fusion_lon": 0.0, "fusion_lat": 0.0, "name": "deef41cc6fea40ee85174c1c2b1d7003", "type": "electric_scooter", "is_disabled": 0, "lat": 38.92145083333333, "rental_uris": {"android": "https://dc.lft.to/lastmile_qr_scan", "ios": "https://dc.lft.to/lastmile_qr_scan"}, "bike_id": "deef41cc6fea40ee85174c1c2b1d7003", "lon": -77.01811216666667}, {"is_reserved": 0, "fusion_lon": 0.0, "fusion_lat": 0.0, "name": "4d6662663f0fbbb72d52b7e3c43600c7", "type": "electric_scooter", "is_disabled": 0, "lat": 38.9006915, "rental_uris": {"android": "https://dc.lft.to/lastmile_qr_scan", "ios": "https://dc.lft.to/lastmile_qr_scan"}, "bike_id": "4d6662663f0fbbb72d52b7e3c43600c7", "lon": -77.0433415}, {"is_reserved": 0, "fusion_lon": 0.0, "fusion_lat": 0.0, "name": "8a9323d5fa902ce2cfc0790e83a3427c", "type": "electric_scooter", "is_disabled": 0, "lat": 38.8638495, "rental_uris": {"android": "https://dc.lft.to/lastmile_qr_scan", "ios": "https://dc.lft.to/lastmile_qr_scan"}, "bike_id": "8a9323d5fa902ce2cfc0790e83a3427c", "lon": -76.9892575}, {"is_reserved": 0, "fusion_lon": 0.0, "fusion_lat": 0.0, "name": "cf98f88afe9ed04de341ba0bbb44cdbb", "type": "electric_scooter", "is_disabled": 0, "lat": 38.904877166666665, "rental_uris": {"android": "https://dc.lft.to/lastmile_qr_scan", "ios": "https://dc.lft.to/lastmile_qr_scan"}, "bike_id": "cf98f88afe9ed04de341ba0bbb44cdbb", "lon": -77.060155}, {"is_reserved": 0, "fusion_lon": 0.0, "fusion_lat": 0.0, "name": "d8bd04f7a0b3cf72f6a9fabb18328986", "type": "electric_scooter", "is_disabled": 0, "lat": 38.927451166666664, "rental_uris": {"android": "https://dc.lft.to/lastmile_qr_scan", "ios": "https://dc.lft.to/lastmile_qr_scan"}, "bike_id": "d8bd04f7a0b3cf72f6a9fabb18328986", "lon": -77.025318}, {"is_reserved": 0, "fusion_lon": 0.0, "fusion_lat": 0.0, "name": "466818e05d457fe180188ef3013abf7b", "type": "electric_bike", "is_disabled": 0, "lat": 38.962225333333336, "rental_uris": {"android": "https://dc.lft.to/lastmile_qr_scan", "ios": "https://dc.lft.to/lastmile_qr_scan"}, "bike_id": "466818e05d457fe180188ef3013abf7b", "lon": -77.0263145}, {"is_reserved": 0, "fusion_lon": 0.0, "fusion_lat": 0.0, "name": "23af23903fff82fc4c539e9ca17fd210", "type": "electric_scooter", "is_disabled": 0, "lat": 38.905237, "rental_uris": {"android": "https://dc.lft.to/lastmile_qr_scan", "ios": "https://dc.lft.to/lastmile_qr_scan"}, "bike_id": "23af23903fff82fc4c539e9ca17fd210", "lon": -77.06471366666666}, {"is_reserved": 0, "fusion_lon": 0.0, "fusion_lat": 0.0, "name": "581ad948461e4df9dbf7ebbc714eec75", "type": "electric_bike", "is_disabled": 0, "lat": 38.9316815, "rental_uris": {"android": "https://dc.lft.to/lastmile_qr_scan", "ios": "https://dc.lft.to/lastmile_qr_scan"}, "bike_id": "581ad948461e4df9dbf7ebbc714eec75", "lon": -76.88398683333334}, {"is_reserved": 0, "fusion_lon": 0.0, "fusion_lat": 0.0, "name": "cb6e0835776e9ed8266436b4f0de3136", "type": "electric_scooter", "is_disabled": 0, "lat": 38.9022995, "rental_uris": {"android": "https://dc.lft.to/lastmile_qr_scan", "ios": "https://dc.lft.to/lastmile_qr_scan"}, "bike_id": "cb6e0835776e9ed8266436b4f0de3136", "lon": -77.04354483333333}, {"is_reserved": 0, "fusion_lon": 0.0, "fusion_lat": 0.0, "name": "2b5105a83f2c8c56ab41cf32375efa84", "type": "electric_bike", "is_disabled": 0, "lat": 38.9544275, "rental_uris": {"android": "https://dc.lft.to/lastmile_qr_scan", "ios": "https://dc.lft.to/lastmile_qr_scan"}, "bike_id": "2b5105a83f2c8c56ab41cf32375efa84", "lon": -76.9891}, {"is_reserved": 0, "fusion_lon": 0.0, "fusion_lat": 0.0, "name": "fc22b62be11ef1173b83b2902a25a2af", "type": "electric_bike", "is_disabled": 0, "lat": 38.953319, "rental_uris": {"android": "https://dc.lft.to/lastmile_qr_scan", "ios": "https://dc.lft.to/lastmile_qr_scan"}, "bike_id": "fc22b62be11ef1173b83b2902a25a2af", "lon": -76.9825145}, {"is_reserved": 0, "fusion_lon": 0.0, "fusion_lat": 0.0, "name": "1e1239e3884ea5040926ab3eba7c489c", "type": "electric_bike", "is_disabled": 0, "lat": 39.05496433333333, "rental_uris": {"android": "https://dc.lft.to/lastmile_qr_scan", "ios": "https://dc.lft.to/lastmile_qr_scan"}, "bike_id": "1e1239e3884ea5040926ab3eba7c489c", "lon": -77.04646933333333}, {"is_reserved": 0, "fusion_lon": 0.0, "fusion_lat": 0.0, "name": "137427326bad6bf8154f3373db13b53f", "type": "electric_bike", "is_disabled": 0, "lat": 38.9296495, "rental_uris": {"android": "https://dc.lft.to/lastmile_qr_scan", "ios": "https://dc.lft.to/lastmile_qr_scan"}, "bike_id": "137427326bad6bf8154f3373db13b53f", "lon": -77.18560633333334}, {"is_reserved": 0, "fusion_lon": 0.0, "fusion_lat": 0.0, "name": "4a79de16c1cece16ac01b4a533941334", "type": "electric_scooter", "is_disabled": 0, "lat": 38.886072166666665, "rental_uris": {"android": "https://dc.lft.to/lastmile_qr_scan", "ios": "https://dc.lft.to/lastmile_qr_scan"}, "bike_id": "4a79de16c1cece16ac01b4a533941334", "lon": -76.99508566666667}, {"is_reserved": 0, "fusion_lon": 0.0, "fusion_lat": 0.0, "name": "9ef1a113ea1681310223bea70add4a89", "type": "electric_scooter", "is_disabled": 0, "lat": 38.9339795, "rental_uris": {"android": "https://dc.lft.to/lastmile_qr_scan", "ios": "https://dc.lft.to/lastmile_qr_scan"}, "bike_id": "9ef1a113ea1681310223bea70add4a89", "lon": -77.0398745}, {"is_reserved": 0, "fusion_lon": 0.0, "fusion_lat": 0.0, "name": "3db5828c9680c458d83f78908ee64efa", "type": "electric_scooter", "is_disabled": 0, "lat": 38.90136966666667, "rental_uris": {"android": "https://dc.lft.to/lastmile_qr_scan", "ios": "https://dc.lft.to/lastmile_qr_scan"}, "bike_id": "3db5828c9680c458d83f78908ee64efa", "lon": -77.0499655}, {"is_reserved": 0, "fusion_lon": 0.0, "fusion_lat": 0.0, "name": "5b38e7e328b62b965b1ca548928ef3a2", "type": "electric_scooter", "is_disabled": 0, "lat": 38.91793366666667, "rental_uris": {"android": "https://dc.lft.to/lastmile_qr_scan", "ios": "https://dc.lft.to/lastmile_qr_scan"}, "bike_id": "5b38e7e328b62b965b1ca548928ef3a2", "lon": -77.03455466666666}, {"is_reserved": 0, "fusion_lon": 0.0, "fusion_lat": 0.0, "name": "9927fb0328e5c99322912098f2302217", "type": "electric_bike", "is_disabled": 0, "lat": 38.886769666666666, "rental_uris": {"android": "https://dc.lft.to/lastmile_qr_scan", "ios": "https://dc.lft.to/lastmile_qr_scan"}, "bike_id": "9927fb0328e5c99322912098f2302217", "lon": -77.00206266666666}, {"is_reserved": 0, "fusion_lon": 0.0, "fusion_lat": 0.0, "name": "16586f04cbc21a51a5925748c74ddf67", "type": "electric_scooter", "is_disabled": 0, "lat": 38.8923195, "rental_uris": {"android": "https://dc.lft.to/lastmile_qr_scan", "ios": "https://dc.lft.to/lastmile_qr_scan"}, "bike_id": "16586f04cbc21a51a5925748c74ddf67", "lon": -77.05003583333334}, {"is_reserved": 0, "fusion_lon": 0.0, "fusion_lat": 0.0, "name": "47b16662ea98ddcf5943ceb416ca6960", "type": "electric_scooter", "is_disabled": 0, "lat": 38.907085, "rental_uris": {"android": "https://dc.lft.to/lastmile_qr_scan", "ios": "https://dc.lft.to/lastmile_qr_scan"}, "bike_id": "47b16662ea98ddcf5943ceb416ca6960", "lon": -77.04178116666667}, {"is_reserved": 0, "fusion_lon": 0.0, "fusion_lat": 0.0, "name": "2c5def15f6f016d39722e90050354fc6", "type": "electric_scooter", "is_disabled": 0, "lat": 38.925033166666665, "rental_uris": {"android": "https://dc.lft.to/lastmile_qr_scan", "ios": "https://dc.lft.to/lastmile_qr_scan"}, "bike_id": "2c5def15f6f016d39722e90050354fc6", "lon": -77.03874766666667}, {"is_reserved": 0, "fusion_lon": 0.0, "fusion_lat": 0.0, "name": "c5d0eaff9d78b803a1bbf6fc6898c906", "type": "electric_scooter", "is_disabled": 0, "lat": 38.9191635, "rental_uris": {"android": "https://dc.lft.to/lastmile_qr_scan", "ios": "https://dc.lft.to/lastmile_qr_scan"}, "bike_id": "c5d0eaff9d78b803a1bbf6fc6898c906", "lon": -77.0312655}, {"is_reserved": 0, "fusion_lon": 0.0, "fusion_lat": 0.0, "name": "a07fe62a3b844d7325caad3570ec9a28", "type": "electric_scooter", "is_disabled": 0, "lat": 38.89777733333333, "rental_uris": {"android": "https://dc.lft.to/lastmile_qr_scan", "ios": "https://dc.lft.to/lastmile_qr_scan"}, "bike_id": "a07fe62a3b844d7325caad3570ec9a28", "lon": -77.05019716666666}, {"is_reserved": 0, "fusion_lon": 0.0, "fusion_lat": 0.0, "name": "eb9b019d74777dcb5106b40388ea403b", "type": "electric_scooter", "is_disabled": 0, "lat": 38.919203833333334, "rental_uris": {"android": "https://dc.lft.to/lastmile_qr_scan", "ios": "https://dc.lft.to/lastmile_qr_scan"}, "bike_id": "eb9b019d74777dcb5106b40388ea403b", "lon": -77.02509116666667}, {"is_reserved": 0, "fusion_lon": 0.0, "fusion_lat": 0.0, "name": "e8e298b12dd8ac02a29cce42cc5a8817", "type": "electric_scooter", "is_disabled": 0, "lat": 38.91794133333333, "rental_uris": {"android": "https://dc.lft.to/lastmile_qr_scan", "ios": "https://dc.lft.to/lastmile_qr_scan"}, "bike_id": "e8e298b12dd8ac02a29cce42cc5a8817", "lon": -77.04021183333333}, {"is_reserved": 0, "fusion_lon": 0.0, "fusion_lat": 0.0, "name": "e3e348169a2ce31c00fea3505028889c", "type": "electric_scooter", "is_disabled": 0, "lat": 38.89219883333333, "rental_uris": {"android": "https://dc.lft.to/lastmile_qr_scan", "ios": "https://dc.lft.to/lastmile_qr_scan"}, "bike_id": "e3e348169a2ce31c00fea3505028889c", "lon": -77.02347133333333}, {"is_reserved": 0, "fusion_lon": 0.0, "fusion_lat": 0.0, "name": "3ec65ffb9e505443d0785d77685a89bc", "type": "electric_scooter", "is_disabled": 0, "lat": 38.9063235, "rental_uris": {"android": "https://dc.lft.to/lastmile_qr_scan", "ios": "https://dc.lft.to/lastmile_qr_scan"}, "bike_id": "3ec65ffb9e505443d0785d77685a89bc", "lon": -77.04788683333334}, {"is_reserved": 0, "fusion_lon": 0.0, "fusion_lat": 0.0, "name": "17bf7e1db5cfcac10f0ed9eadc437fd8", "type": "electric_scooter", "is_disabled": 0, "lat": 38.899159166666664, "rental_uris": {"android": "https://dc.lft.to/lastmile_qr_scan", "ios": "https://dc.lft.to/lastmile_qr_scan"}, "bike_id": "17bf7e1db5cfcac10f0ed9eadc437fd8", "lon": -76.93385733333334}, {"is_reserved": 0, "fusion_lon": 0.0, "fusion_lat": 0.0, "name": "eb8933736ffbbd196f6381a1cbbbfcfc", "type": "electric_bike", "is_disabled": 0, "lat": 39.06297083333333, "rental_uris": {"android": "https://dc.lft.to/lastmile_qr_scan", "ios": "https://dc.lft.to/lastmile_qr_scan"}, "bike_id": "eb8933736ffbbd196f6381a1cbbbfcfc", "lon": -77.04979983333334}, {"is_reserved": 0, "fusion_lon": 0.0, "fusion_lat": 0.0, "name": "ca709b8533becea7fee95be37125b6b6", "type": "electric_scooter", "is_disabled": 0, "lat": 38.92118833333333, "rental_uris": {"android": "https://dc.lft.to/lastmile_qr_scan", "ios": "https://dc.lft.to/lastmile_qr_scan"}, "bike_id": "ca709b8533becea7fee95be37125b6b6", "lon": -77.01770383333333}, {"is_reserved": 0, "fusion_lon": 0.0, "fusion_lat": 0.0, "name": "63f9cf0540408a9a82725e50fe81be4a", "type": "electric_scooter", "is_disabled": 0, "lat": 38.90654983333334, "rental_uris": {"android": "https://dc.lft.to/lastmile_qr_scan", "ios": "https://dc.lft.to/lastmile_qr_scan"}, "bike_id": "63f9cf0540408a9a82725e50fe81be4a", "lon": -77.04884216666666}, {"is_reserved": 0, "fusion_lon": 0.0, "fusion_lat": 0.0, "name": "d92b865242041ab77295588fd7dc23d7", "type": "electric_scooter", "is_disabled": 0, "lat": 38.898272166666665, "rental_uris": {"android": "https://dc.lft.to/lastmile_qr_scan", "ios": "https://dc.lft.to/lastmile_qr_scan"}, "bike_id": "d92b865242041ab77295588fd7dc23d7", "lon": -76.94650233333333}, {"is_reserved": 0, "fusion_lon": 0.0, "fusion_lat": 0.0, "name": "dc7f8f26c15e15b738582b6dc534842f", "type": "electric_scooter", "is_disabled": 0, "lat": 38.8950545, "rental_uris": {"android": "https://dc.lft.to/lastmile_qr_scan", "ios": "https://dc.lft.to/lastmile_qr_scan"}, "bike_id": "dc7f8f26c15e15b738582b6dc534842f", "lon": -77.04672933333333}, {"is_reserved": 0, "fusion_lon": 0.0, "fusion_lat": 0.0, "name": "ade2b3253727739bee83405ddd8131b5", "type": "electric_scooter", "is_disabled": 0, "lat": 38.886020333333335, "rental_uris": {"android": "https://dc.lft.to/lastmile_qr_scan", "ios": "https://dc.lft.to/lastmile_qr_scan"}, "bike_id": "ade2b3253727739bee83405ddd8131b5", "lon": -76.9909515}, {"is_reserved": 0, "fusion_lon": 0.0, "fusion_lat": 0.0, "name": "6399e513e0fd71a011f1bdfeb30602a2", "type": "electric_scooter", "is_disabled": 0, "lat": 38.90679183333334, "rental_uris": {"android": "https://dc.lft.to/lastmile_qr_scan", "ios": "https://dc.lft.to/lastmile_qr_scan"}, "bike_id": "6399e513e0fd71a011f1bdfeb30602a2", "lon": -77.0385485}, {"is_reserved": 0, "fusion_lon": 0.0, "fusion_lat": 0.0, "name": "5c059e3dff85d454b1d0cf3d644618a5", "type": "electric_scooter", "is_disabled": 0, "lat": 38.9026215, "rental_uris": {"android": "https://dc.lft.to/lastmile_qr_scan", "ios": "https://dc.lft.to/lastmile_qr_scan"}, "bike_id": "5c059e3dff85d454b1d0cf3d644618a5", "lon": -77.04172016666666}, {"is_reserved": 0, "fusion_lon": 0.0, "fusion_lat": 0.0, "name": "4edd0168355e6b9eff2685b08730dd8b", "type": "electric_scooter", "is_disabled": 0, "lat": 38.881214, "rental_uris": {"android": "https://dc.lft.to/lastmile_qr_scan", "ios": "https://dc.lft.to/lastmile_qr_scan"}, "bike_id": "4edd0168355e6b9eff2685b08730dd8b", "lon": -77.01677466666666}, {"is_reserved": 0, "fusion_lon": 0.0, "fusion_lat": 0.0, "name": "103f4b16e3ed4e6317a88b4538e5c3e9", "type": "electric_scooter", "is_disabled": 0, "lat": 38.9042565, "rental_uris": {"android": "https://dc.lft.to/lastmile_qr_scan", "ios": "https://dc.lft.to/lastmile_qr_scan"}, "bike_id": "103f4b16e3ed4e6317a88b4538e5c3e9", "lon": -77.05320466666667}, {"is_reserved": 0, "fusion_lon": 0.0, "fusion_lat": 0.0, "name": "e1fce3861f53c01eb28753c3de91fc58", "type": "electric_scooter", "is_disabled": 0, "lat": 38.91615016666667, "rental_uris": {"android": "https://dc.lft.to/lastmile_qr_scan", "ios": "https://dc.lft.to/lastmile_qr_scan"}, "bike_id": "e1fce3861f53c01eb28753c3de91fc58", "lon": -77.0220355}, {"is_reserved": 0, "fusion_lon": 0.0, "fusion_lat": 0.0, "name": "b7b5c965283505eea0b30a3944678f59", "type": "electric_scooter", "is_disabled": 0, "lat": 38.908409666666664, "rental_uris": {"android": "https://dc.lft.to/lastmile_qr_scan", "ios": "https://dc.lft.to/lastmile_qr_scan"}, "bike_id": "b7b5c965283505eea0b30a3944678f59", "lon": -77.03848616666667}, {"is_reserved": 0, "fusion_lon": 0.0, "fusion_lat": 0.0, "name": "4697c77d37cfc89063efbbc352bbd386", "type": "electric_scooter", "is_disabled": 0, "lat": 38.89607866666667, "rental_uris": {"android": "https://dc.lft.to/lastmile_qr_scan", "ios": "https://dc.lft.to/lastmile_qr_scan"}, "bike_id": "4697c77d37cfc89063efbbc352bbd386", "lon": -77.04552866666667}, {"is_reserved": 0, "fusion_lon": 0.0, "fusion_lat": 0.0, "name": "c6412493f9f06cb89472e770da8158ca", "type": "electric_scooter", "is_disabled": 0, "lat": 38.86255233333333, "rental_uris": {"android": "https://dc.lft.to/lastmile_qr_scan", "ios": "https://dc.lft.to/lastmile_qr_scan"}, "bike_id": "c6412493f9f06cb89472e770da8158ca", "lon": -76.9951435}, {"is_reserved": 0, "fusion_lon": 0.0, "fusion_lat": 0.0, "name": "10169a6d58e222c4fd3a46f52a47747b", "type": "electric_scooter", "is_disabled": 0, "lat": 38.9155375, "rental_uris": {"android": "https://dc.lft.to/lastmile_qr_scan", "ios": "https://dc.lft.to/lastmile_qr_scan"}, "bike_id": "10169a6d58e222c4fd3a46f52a47747b", "lon": -77.02207433333334}, {"is_reserved": 0, "fusion_lon": 0.0, "fusion_lat": 0.0, "name": "c946269144943df41820cde3ef31882e", "type": "electric_scooter", "is_disabled": 0, "lat": 38.887389666666664, "rental_uris": {"android": "https://dc.lft.to/lastmile_qr_scan", "ios": "https://dc.lft.to/lastmile_qr_scan"}, "bike_id": "c946269144943df41820cde3ef31882e", "lon": -77.02210716666667}, {"is_reserved": 0, "fusion_lon": 0.0, "fusion_lat": 0.0, "name": "9ac16a51c3f4bd225c48d57476621adb", "type": "electric_scooter", "is_disabled": 0, "lat": 38.90408433333333, "rental_uris": {"android": "https://dc.lft.to/lastmile_qr_scan", "ios": "https://dc.lft.to/lastmile_qr_scan"}, "bike_id": "9ac16a51c3f4bd225c48d57476621adb", "lon": -76.97330266666667}, {"is_reserved": 0, "fusion_lon": 0.0, "fusion_lat": 0.0, "name": "27d40426bc4a5bd73de8855bdb816f8a", "type": "electric_scooter", "is_disabled": 0, "lat": 38.906397, "rental_uris": {"android": "https://dc.lft.to/lastmile_qr_scan", "ios": "https://dc.lft.to/lastmile_qr_scan"}, "bike_id": "27d40426bc4a5bd73de8855bdb816f8a", "lon": -77.04656066666666}, {"is_reserved": 0, "fusion_lon": 0.0, "fusion_lat": 0.0, "name": "d87f1aa69ef87670074cdd187cbb2e37", "type": "electric_scooter", "is_disabled": 0, "lat": 38.92185633333333, "rental_uris": {"android": "https://dc.lft.to/lastmile_qr_scan", "ios": "https://dc.lft.to/lastmile_qr_scan"}, "bike_id": "d87f1aa69ef87670074cdd187cbb2e37", "lon": -77.04348216666666}, {"is_reserved": 0, "fusion_lon": 0.0, "fusion_lat": 0.0, "name": "9fffc213c4da784173b6c3324e9bc6da", "type": "electric_scooter", "is_disabled": 0, "lat": 38.90630516666667, "rental_uris": {"android": "https://dc.lft.to/lastmile_qr_scan", "ios": "https://dc.lft.to/lastmile_qr_scan"}, "bike_id": "9fffc213c4da784173b6c3324e9bc6da", "lon": -77.03870783333333}, {"is_reserved": 0, "fusion_lon": 0.0, "fusion_lat": 0.0, "name": "9368400955b910b8c803b23a1ef504b7", "type": "electric_scooter", "is_disabled": 0, "lat": 38.90199233333333, "rental_uris": {"android": "https://dc.lft.to/lastmile_qr_scan", "ios": "https://dc.lft.to/lastmile_qr_scan"}, "bike_id": "9368400955b910b8c803b23a1ef504b7", "lon": -77.048099}, {"is_reserved": 0, "fusion_lon": 0.0, "fusion_lat": 0.0, "name": "1909f646063ee45f36e7862436b7a8b6", "type": "electric_scooter", "is_disabled": 0, "lat": 38.90379316666667, "rental_uris": {"android": "https://dc.lft.to/lastmile_qr_scan", "ios": "https://dc.lft.to/lastmile_qr_scan"}, "bike_id": "1909f646063ee45f36e7862436b7a8b6", "lon": -77.0449535}, {"is_reserved": 0, "fusion_lon": 0.0, "fusion_lat": 0.0, "name": "6390dc3634928269b781b60469b8c56f", "type": "electric_scooter", "is_disabled": 0, "lat": 38.91689066666667, "rental_uris": {"android": "https://dc.lft.to/lastmile_qr_scan", "ios": "https://dc.lft.to/lastmile_qr_scan"}, "bike_id": "6390dc3634928269b781b60469b8c56f", "lon": -77.03826416666666}, {"is_reserved": 0, "fusion_lon": 0.0, "fusion_lat": 0.0, "name": "ea0d66225a8d2bd62d0b951933a2867b", "type": "electric_scooter", "is_disabled": 0, "lat": 38.93026183333333, "rental_uris": {"android": "https://dc.lft.to/lastmile_qr_scan", "ios": "https://dc.lft.to/lastmile_qr_scan"}, "bike_id": "ea0d66225a8d2bd62d0b951933a2867b", "lon": -77.06310033333334}, {"is_reserved": 0, "fusion_lon": 0.0, "fusion_lat": 0.0, "name": "19b43fd6592a3bd93a0e87cdb62d98b0", "type": "electric_bike", "is_disabled": 0, "lat": 38.83236333333333, "rental_uris": {"android": "https://dc.lft.to/lastmile_qr_scan", "ios": "https://dc.lft.to/lastmile_qr_scan"}, "bike_id": "19b43fd6592a3bd93a0e87cdb62d98b0", "lon": -76.94613716666667}, {"is_reserved": 0, "fusion_lon": 0.0, "fusion_lat": 0.0, "name": "b96fc4a9b26306bc7a30ce175ccdcd51", "type": "electric_bike", "is_disabled": 0, "lat": 39.05049183333333, "rental_uris": {"android": "https://dc.lft.to/lastmile_qr_scan", "ios": "https://dc.lft.to/lastmile_qr_scan"}, "bike_id": "b96fc4a9b26306bc7a30ce175ccdcd51", "lon": -77.05152533333333}, {"is_reserved": 0, "fusion_lon": 0.0, "fusion_lat": 0.0, "name": "2e7933820569b4763df94111ec5a725a", "type": "electric_scooter", "is_disabled": 0, "lat": 38.899855, "rental_uris": {"android": "https://dc.lft.to/lastmile_qr_scan", "ios": "https://dc.lft.to/lastmile_qr_scan"}, "bike_id": "2e7933820569b4763df94111ec5a725a", "lon": -77.04168033333333}, {"is_reserved": 0, "fusion_lon": 0.0, "fusion_lat": 0.0, "name": "54def7a082057ee4e3528b30ba90de9f", "type": "electric_scooter", "is_disabled": 0, "lat": 38.902631, "rental_uris": {"android": "https://dc.lft.to/lastmile_qr_scan", "ios": "https://dc.lft.to/lastmile_qr_scan"}, "bike_id": "54def7a082057ee4e3528b30ba90de9f", "lon": -77.03348816666667}, {"is_reserved": 0, "fusion_lon": 0.0, "fusion_lat": 0.0, "name": "d3cf801bc4420418579b5cccd35aacd4", "type": "electric_scooter", "is_disabled": 0, "lat": 38.885044666666666, "rental_uris": {"android": "https://dc.lft.to/lastmile_qr_scan", "ios": "https://dc.lft.to/lastmile_qr_scan"}, "bike_id": "d3cf801bc4420418579b5cccd35aacd4", "lon": -77.005632}, {"is_reserved": 0, "fusion_lon": 0.0, "fusion_lat": 0.0, "name": "8e207c94d89eb64285a4a742b99b3384", "type": "electric_scooter", "is_disabled": 0, "lat": 38.9340395, "rental_uris": {"android": "https://dc.lft.to/lastmile_qr_scan", "ios": "https://dc.lft.to/lastmile_qr_scan"}, "bike_id": "8e207c94d89eb64285a4a742b99b3384", "lon": -77.03276633333333}, {"is_reserved": 0, "fusion_lon": 0.0, "fusion_lat": 0.0, "name": "2c4f71e74ba9ccf734b822f26121834e", "type": "electric_bike", "is_disabled": 0, "lat": 38.962191, "rental_uris": {"android": "https://dc.lft.to/lastmile_qr_scan", "ios": "https://dc.lft.to/lastmile_qr_scan"}, "bike_id": "2c4f71e74ba9ccf734b822f26121834e", "lon": -77.0262855}, {"is_reserved": 0, "fusion_lon": 0.0, "fusion_lat": 0.0, "name": "90e2372b94c831ea9957d3dafecaa3a6", "type": "electric_scooter", "is_disabled": 0, "lat": 38.926887666666666, "rental_uris": {"android": "https://dc.lft.to/lastmile_qr_scan", "ios": "https://dc.lft.to/lastmile_qr_scan"}, "bike_id": "90e2372b94c831ea9957d3dafecaa3a6", "lon": -77.0377255}, {"is_reserved": 0, "fusion_lon": 0.0, "fusion_lat": 0.0, "name": "a7c45844b09b3a0d60c72b286cb007a2", "type": "electric_scooter", "is_disabled": 0, "lat": 38.914540833333334, "rental_uris": {"android": "https://dc.lft.to/lastmile_qr_scan", "ios": "https://dc.lft.to/lastmile_qr_scan"}, "bike_id": "a7c45844b09b3a0d60c72b286cb007a2", "lon": -77.022784}, {"is_reserved": 0, "fusion_lon": 0.0, "fusion_lat": 0.0, "name": "a13ac9fae2716f55409c5741a58a18b2", "type": "electric_bike", "is_disabled": 0, "lat": 38.8120365, "rental_uris": {"android": "https://dc.lft.to/lastmile_qr_scan", "ios": "https://dc.lft.to/lastmile_qr_scan"}, "bike_id": "a13ac9fae2716f55409c5741a58a18b2", "lon": -77.108328}, {"is_reserved": 0, "fusion_lon": 0.0, "fusion_lat": 0.0, "name": "f8bda339fef7c52878afe646ad19a8f5", "type": "electric_scooter", "is_disabled": 0, "lat": 38.899832833333335, "rental_uris": {"android": "https://dc.lft.to/lastmile_qr_scan", "ios": "https://dc.lft.to/lastmile_qr_scan"}, "bike_id": "f8bda339fef7c52878afe646ad19a8f5", "lon": -77.04155366666667}, {"is_reserved": 0, "fusion_lon": 0.0, "fusion_lat": 0.0, "name": "c07f1a6bf3ce45cfa03f86d215f2b93b", "type": "electric_scooter", "is_disabled": 0, "lat": 38.906016, "rental_uris": {"android": "https://dc.lft.to/lastmile_qr_scan", "ios": "https://dc.lft.to/lastmile_qr_scan"}, "bike_id": "c07f1a6bf3ce45cfa03f86d215f2b93b", "lon": -77.0211105}, {"is_reserved": 0, "fusion_lon": 0.0, "fusion_lat": 0.0, "name": "b716afc59819170eb799e5865f0aacb5", "type": "electric_scooter", "is_disabled": 0, "lat": 38.885306, "rental_uris": {"android": "https://dc.lft.to/lastmile_qr_scan", "ios": "https://dc.lft.to/lastmile_qr_scan"}, "bike_id": "b716afc59819170eb799e5865f0aacb5", "lon": -76.99607683333333}, {"is_reserved": 0, "fusion_lon": 0.0, "fusion_lat": 0.0, "name": "79aa694ac23935397da949612a341c5d", "type": "electric_scooter", "is_disabled": 0, "lat": 38.896775833333336, "rental_uris": {"android": "https://dc.lft.to/lastmile_qr_scan", "ios": "https://dc.lft.to/lastmile_qr_scan"}, "bike_id": "79aa694ac23935397da949612a341c5d", "lon": -77.00487566666666}, {"is_reserved": 0, "fusion_lon": 0.0, "fusion_lat": 0.0, "name": "b0bc5aa24a9161f75249b7addba21212", "type": "electric_scooter", "is_disabled": 0, "lat": 38.913998666666664, "rental_uris": {"android": "https://dc.lft.to/lastmile_qr_scan", "ios": "https://dc.lft.to/lastmile_qr_scan"}, "bike_id": "b0bc5aa24a9161f75249b7addba21212", "lon": -77.03250133333333}, {"is_reserved": 0, "fusion_lon": 0.0, "fusion_lat": 0.0, "name": "049c198602efc5cbc0829e0ba612b596", "type": "electric_scooter", "is_disabled": 0, "lat": 38.8845675, "rental_uris": {"android": "https://dc.lft.to/lastmile_qr_scan", "ios": "https://dc.lft.to/lastmile_qr_scan"}, "bike_id": "049c198602efc5cbc0829e0ba612b596", "lon": -76.92620983333333}, {"is_reserved": 0, "fusion_lon": 0.0, "fusion_lat": 0.0, "name": "a3b9e8204286cac193faee5a2b3974cf", "type": "electric_bike", "is_disabled": 0, "lat": 38.9387105, "rental_uris": {"android": "https://dc.lft.to/lastmile_qr_scan", "ios": "https://dc.lft.to/lastmile_qr_scan"}, "bike_id": "a3b9e8204286cac193faee5a2b3974cf", "lon": -76.94292833333333}, {"is_reserved": 0, "fusion_lon": 0.0, "fusion_lat": 0.0, "name": "092218e6833a4b425c6c35445fae586d", "type": "electric_scooter", "is_disabled": 0, "lat": 38.91697083333333, "rental_uris": {"android": "https://dc.lft.to/lastmile_qr_scan", "ios": "https://dc.lft.to/lastmile_qr_scan"}, "bike_id": "092218e6833a4b425c6c35445fae586d", "lon": -77.03037083333334}, {"is_reserved": 0, "fusion_lon": 0.0, "fusion_lat": 0.0, "name": "8196cb04f717b24cef25a486027f19f5", "type": "electric_scooter", "is_disabled": 0, "lat": 38.92880516666666, "rental_uris": {"android": "https://dc.lft.to/lastmile_qr_scan", "ios": "https://dc.lft.to/lastmile_qr_scan"}, "bike_id": "8196cb04f717b24cef25a486027f19f5", "lon": -77.03335516666667}, {"is_reserved": 0, "fusion_lon": 0.0, "fusion_lat": 0.0, "name": "eba510661784e3352bc9a22a7d7e6e0e", "type": "electric_scooter", "is_disabled": 0, "lat": 38.91313616666667, "rental_uris": {"android": "https://dc.lft.to/lastmile_qr_scan", "ios": "https://dc.lft.to/lastmile_qr_scan"}, "bike_id": "eba510661784e3352bc9a22a7d7e6e0e", "lon": -77.04532616666667}, {"is_reserved": 0, "fusion_lon": 0.0, "fusion_lat": 0.0, "name": "3da8006c971898630622be7d7783813c", "type": "electric_scooter", "is_disabled": 0, "lat": 38.905268666666665, "rental_uris": {"android": "https://dc.lft.to/lastmile_qr_scan", "ios": "https://dc.lft.to/lastmile_qr_scan"}, "bike_id": "3da8006c971898630622be7d7783813c", "lon": -77.05068683333333}, {"is_reserved": 0, "fusion_lon": 0.0, "fusion_lat": 0.0, "name": "6ffd202e31c64d99a22385fa98643f85", "type": "electric_scooter", "is_disabled": 0, "lat": 38.87291833333333, "rental_uris": {"android": "https://dc.lft.to/lastmile_qr_scan", "ios": "https://dc.lft.to/lastmile_qr_scan"}, "bike_id": "6ffd202e31c64d99a22385fa98643f85", "lon": -77.00983233333334}, {"is_reserved": 0, "fusion_lon": 0.0, "fusion_lat": 0.0, "name": "7c66eecfef127c794d246e36bc01ccd3", "type": "electric_scooter", "is_disabled": 0, "lat": 38.916647166666664, "rental_uris": {"android": "https://dc.lft.to/lastmile_qr_scan", "ios": "https://dc.lft.to/lastmile_qr_scan"}, "bike_id": "7c66eecfef127c794d246e36bc01ccd3", "lon": -77.03849016666666}, {"is_reserved": 0, "fusion_lon": 0.0, "fusion_lat": 0.0, "name": "b3ad2f579ab85065e8b69b2939b8f868", "type": "electric_scooter", "is_disabled": 0, "lat": 38.886059833333334, "rental_uris": {"android": "https://dc.lft.to/lastmile_qr_scan", "ios": "https://dc.lft.to/lastmile_qr_scan"}, "bike_id": "b3ad2f579ab85065e8b69b2939b8f868", "lon": -76.99511166666667}, {"is_reserved": 0, "fusion_lon": 0.0, "fusion_lat": 0.0, "name": "b03c2e8d1d46c4d39dd433f24d720036", "type": "electric_scooter", "is_disabled": 0, "lat": 38.899617, "rental_uris": {"android": "https://dc.lft.to/lastmile_qr_scan", "ios": "https://dc.lft.to/lastmile_qr_scan"}, "bike_id": "b03c2e8d1d46c4d39dd433f24d720036", "lon": -77.0211155}, {"is_reserved": 0, "fusion_lon": 0.0, "fusion_lat": 0.0, "name": "772044a31f2650a2286c12d7f8a5db8e", "type": "electric_scooter", "is_disabled": 0, "lat": 38.9097155, "rental_uris": {"android": "https://dc.lft.to/lastmile_qr_scan", "ios": "https://dc.lft.to/lastmile_qr_scan"}, "bike_id": "772044a31f2650a2286c12d7f8a5db8e", "lon": -77.03412066666667}, {"is_reserved": 0, "fusion_lon": 0.0, "fusion_lat": 0.0, "name": "62dd0358c2517b20286a330a3d9ae79f", "type": "electric_scooter", "is_disabled": 0, "lat": 38.89180616666667, "rental_uris": {"android": "https://dc.lft.to/lastmile_qr_scan", "ios": "https://dc.lft.to/lastmile_qr_scan"}, "bike_id": "62dd0358c2517b20286a330a3d9ae79f", "lon": -76.9119385}, {"is_reserved": 0, "fusion_lon": 0.0, "fusion_lat": 0.0, "name": "aed19d96f24576f38f0240c5fb547db8", "type": "electric_scooter", "is_disabled": 0, "lat": 38.920485, "rental_uris": {"android": "https://dc.lft.to/lastmile_qr_scan", "ios": "https://dc.lft.to/lastmile_qr_scan"}, "bike_id": "aed19d96f24576f38f0240c5fb547db8", "lon": -77.025772}, {"is_reserved": 0, "fusion_lon": 0.0, "fusion_lat": 0.0, "name": "dceb960e8215b03bdbe5e80bcf4bf5b0", "type": "electric_scooter", "is_disabled": 0, "lat": 38.90111183333333, "rental_uris": {"android": "https://dc.lft.to/lastmile_qr_scan", "ios": "https://dc.lft.to/lastmile_qr_scan"}, "bike_id": "dceb960e8215b03bdbe5e80bcf4bf5b0", "lon": -77.04353483333334}, {"is_reserved": 0, "fusion_lon": 0.0, "fusion_lat": 0.0, "name": "83c13cde505571010250958887a22569", "type": "electric_scooter", "is_disabled": 0, "lat": 38.91472016666667, "rental_uris": {"android": "https://dc.lft.to/lastmile_qr_scan", "ios": "https://dc.lft.to/lastmile_qr_scan"}, "bike_id": "83c13cde505571010250958887a22569", "lon": -77.02093683333334}, {"is_reserved": 0, "fusion_lon": 0.0, "fusion_lat": 0.0, "name": "48b6d405923c3d2658617e3d69f418b8", "type": "electric_scooter", "is_disabled": 0, "lat": 38.9128485, "rental_uris": {"android": "https://dc.lft.to/lastmile_qr_scan", "ios": "https://dc.lft.to/lastmile_qr_scan"}, "bike_id": "48b6d405923c3d2658617e3d69f418b8", "lon": -77.04508383333334}, {"is_reserved": 0, "fusion_lon": 0.0, "fusion_lat": 0.0, "name": "cffa87c8bc773ae8259fa6a7b049cb6a", "type": "electric_scooter", "is_disabled": 0, "lat": 38.871627, "rental_uris": {"android": "https://dc.lft.to/lastmile_qr_scan", "ios": "https://dc.lft.to/lastmile_qr_scan"}, "bike_id": "cffa87c8bc773ae8259fa6a7b049cb6a", "lon": -76.97743116666666}, {"is_reserved": 0, "fusion_lon": 0.0, "fusion_lat": 0.0, "name": "0805e94f9b1dc9f35d8bc921b82bb80d", "type": "electric_scooter", "is_disabled": 0, "lat": 38.900874333333334, "rental_uris": {"android": "https://dc.lft.to/lastmile_qr_scan", "ios": "https://dc.lft.to/lastmile_qr_scan"}, "bike_id": "0805e94f9b1dc9f35d8bc921b82bb80d", "lon": -77.04876283333333}, {"is_reserved": 0, "fusion_lon": 0.0, "fusion_lat": 0.0, "name": "da68c1a44d82a94fba186043362c146d", "type": "electric_scooter", "is_disabled": 0, "lat": 38.88725266666667, "rental_uris": {"android": "https://dc.lft.to/lastmile_qr_scan", "ios": "https://dc.lft.to/lastmile_qr_scan"}, "bike_id": "da68c1a44d82a94fba186043362c146d", "lon": -77.02832666666667}, {"is_reserved": 0, "fusion_lon": 0.0, "fusion_lat": 0.0, "name": "b609b09855c03865295403ccd1fe02fb", "type": "electric_scooter", "is_disabled": 0, "lat": 38.86660533333333, "rental_uris": {"android": "https://dc.lft.to/lastmile_qr_scan", "ios": "https://dc.lft.to/lastmile_qr_scan"}, "bike_id": "b609b09855c03865295403ccd1fe02fb", "lon": -76.98878066666667}, {"is_reserved": 0, "fusion_lon": 0.0, "fusion_lat": 0.0, "name": "c6c8691f43b81ed527367916c8d4d5d9", "type": "electric_scooter", "is_disabled": 0, "lat": 38.901982, "rental_uris": {"android": "https://dc.lft.to/lastmile_qr_scan", "ios": "https://dc.lft.to/lastmile_qr_scan"}, "bike_id": "c6c8691f43b81ed527367916c8d4d5d9", "lon": -77.01255483333334}, {"is_reserved": 0, "fusion_lon": 0.0, "fusion_lat": 0.0, "name": "a2ae9b176fbc79085332ad059a273374", "type": "electric_scooter", "is_disabled": 0, "lat": 38.932324333333334, "rental_uris": {"android": "https://dc.lft.to/lastmile_qr_scan", "ios": "https://dc.lft.to/lastmile_qr_scan"}, "bike_id": "a2ae9b176fbc79085332ad059a273374", "lon": -77.038664}, {"is_reserved": 0, "fusion_lon": 0.0, "fusion_lat": 0.0, "name": "63b154bbacb30f2b2cc029953f0a4900", "type": "electric_scooter", "is_disabled": 0, "lat": 38.90453616666667, "rental_uris": {"android": "https://dc.lft.to/lastmile_qr_scan", "ios": "https://dc.lft.to/lastmile_qr_scan"}, "bike_id": "63b154bbacb30f2b2cc029953f0a4900", "lon": -77.03262083333334}, {"is_reserved": 0, "fusion_lon": 0.0, "fusion_lat": 0.0, "name": "83f9266806caf9e66d86e54c7e07c720", "type": "electric_scooter", "is_disabled": 0, "lat": 38.878332666666665, "rental_uris": {"android": "https://dc.lft.to/lastmile_qr_scan", "ios": "https://dc.lft.to/lastmile_qr_scan"}, "bike_id": "83f9266806caf9e66d86e54c7e07c720", "lon": -76.96302}, {"is_reserved": 0, "fusion_lon": 0.0, "fusion_lat": 0.0, "name": "7f9a88ee051428e433e49e86df2e67b8", "type": "electric_scooter", "is_disabled": 0, "lat": 38.869960166666665, "rental_uris": {"android": "https://dc.lft.to/lastmile_qr_scan", "ios": "https://dc.lft.to/lastmile_qr_scan"}, "bike_id": "7f9a88ee051428e433e49e86df2e67b8", "lon": -76.9759045}, {"is_reserved": 0, "fusion_lon": 0.0, "fusion_lat": 0.0, "name": "8e954c6a6305101f030b664e1994f30d", "type": "electric_scooter", "is_disabled": 0, "lat": 38.923352, "rental_uris": {"android": "https://dc.lft.to/lastmile_qr_scan", "ios": "https://dc.lft.to/lastmile_qr_scan"}, "bike_id": "8e954c6a6305101f030b664e1994f30d", "lon": -77.04323583333333}, {"is_reserved": 0, "fusion_lon": 0.0, "fusion_lat": 0.0, "name": "5f5b5a745bd4d67217022789d200a5ef", "type": "electric_scooter", "is_disabled": 0, "lat": 38.98453883333333, "rental_uris": {"android": "https://dc.lft.to/lastmile_qr_scan", "ios": "https://dc.lft.to/lastmile_qr_scan"}, "bike_id": "5f5b5a745bd4d67217022789d200a5ef", "lon": -77.02643183333333}, {"is_reserved": 0, "fusion_lon": 0.0, "fusion_lat": 0.0, "name": "cd512b9dc71b67c2582a1e0fdbab4bbc", "type": "electric_scooter", "is_disabled": 0, "lat": 38.9149455, "rental_uris": {"android": "https://dc.lft.to/lastmile_qr_scan", "ios": "https://dc.lft.to/lastmile_qr_scan"}, "bike_id": "cd512b9dc71b67c2582a1e0fdbab4bbc", "lon": -77.0146945}, {"is_reserved": 0, "fusion_lon": 0.0, "fusion_lat": 0.0, "name": "3999504bd19752ef512515c251cd3a62", "type": "electric_scooter", "is_disabled": 0, "lat": 38.905575666666664, "rental_uris": {"android": "https://dc.lft.to/lastmile_qr_scan", "ios": "https://dc.lft.to/lastmile_qr_scan"}, "bike_id": "3999504bd19752ef512515c251cd3a62", "lon": -77.043257}, {"is_reserved": 0, "fusion_lon": 0.0, "fusion_lat": 0.0, "name": "b569cfe49b6028166060d6994a423e51", "type": "electric_bike", "is_disabled": 0, "lat": 39.05281016666667, "rental_uris": {"android": "https://dc.lft.to/lastmile_qr_scan", "ios": "https://dc.lft.to/lastmile_qr_scan"}, "bike_id": "b569cfe49b6028166060d6994a423e51", "lon": -77.0806755}, {"is_reserved": 0, "fusion_lon": 0.0, "fusion_lat": 0.0, "name": "25df53cc2c3f9e1bfef8332de15e523d", "type": "electric_scooter", "is_disabled": 0, "lat": 38.924372, "rental_uris": {"android": "https://dc.lft.to/lastmile_qr_scan", "ios": "https://dc.lft.to/lastmile_qr_scan"}, "bike_id": "25df53cc2c3f9e1bfef8332de15e523d", "lon": -77.052005}, {"is_reserved": 0, "fusion_lon": 0.0, "fusion_lat": 0.0, "name": "5441f3a424a12da20cddeb555557f0d5", "type": "electric_scooter", "is_disabled": 0, "lat": 38.90862466666667, "rental_uris": {"android": "https://dc.lft.to/lastmile_qr_scan", "ios": "https://dc.lft.to/lastmile_qr_scan"}, "bike_id": "5441f3a424a12da20cddeb555557f0d5", "lon": -77.04586416666666}, {"is_reserved": 0, "fusion_lon": 0.0, "fusion_lat": 0.0, "name": "4b49ca3fdcebadfc417a8f2852d98b9f", "type": "electric_scooter", "is_disabled": 0, "lat": 38.923084333333335, "rental_uris": {"android": "https://dc.lft.to/lastmile_qr_scan", "ios": "https://dc.lft.to/lastmile_qr_scan"}, "bike_id": "4b49ca3fdcebadfc417a8f2852d98b9f", "lon": -77.031174}, {"is_reserved": 0, "fusion_lon": 0.0, "fusion_lat": 0.0, "name": "1b9d62cfd94d7b2e7bee7f22785ee1c8", "type": "electric_scooter", "is_disabled": 0, "lat": 38.870795333333334, "rental_uris": {"android": "https://dc.lft.to/lastmile_qr_scan", "ios": "https://dc.lft.to/lastmile_qr_scan"}, "bike_id": "1b9d62cfd94d7b2e7bee7f22785ee1c8", "lon": -76.98923816666667}, {"is_reserved": 0, "fusion_lon": 0.0, "fusion_lat": 0.0, "name": "113620b4553d85f5560cef0a1170b967", "type": "electric_scooter", "is_disabled": 0, "lat": 38.93187616666667, "rental_uris": {"android": "https://dc.lft.to/lastmile_qr_scan", "ios": "https://dc.lft.to/lastmile_qr_scan"}, "bike_id": "113620b4553d85f5560cef0a1170b967", "lon": -77.0413885}, {"is_reserved": 0, "fusion_lon": 0.0, "fusion_lat": 0.0, "name": "a52725d899fedca0283c1e706dba1c1c", "type": "electric_scooter", "is_disabled": 0, "lat": 38.906376333333334, "rental_uris": {"android": "https://dc.lft.to/lastmile_qr_scan", "ios": "https://dc.lft.to/lastmile_qr_scan"}, "bike_id": "a52725d899fedca0283c1e706dba1c1c", "lon": -77.03916066666666}, {"is_reserved": 0, "fusion_lon": 0.0, "fusion_lat": 0.0, "name": "270e7054ce47bc5a4ab8704dc9bc80cd", "type": "electric_scooter", "is_disabled": 0, "lat": 38.918184333333336, "rental_uris": {"android": "https://dc.lft.to/lastmile_qr_scan", "ios": "https://dc.lft.to/lastmile_qr_scan"}, "bike_id": "270e7054ce47bc5a4ab8704dc9bc80cd", "lon": -77.03249883333334}, {"is_reserved": 0, "fusion_lon": 0.0, "fusion_lat": 0.0, "name": "a6fc659572e536045f8a25a38f792bd8", "type": "electric_scooter", "is_disabled": 0, "lat": 38.89225066666667, "rental_uris": {"android": "https://dc.lft.to/lastmile_qr_scan", "ios": "https://dc.lft.to/lastmile_qr_scan"}, "bike_id": "a6fc659572e536045f8a25a38f792bd8", "lon": -77.02338833333333}, {"is_reserved": 0, "fusion_lon": 0.0, "fusion_lat": 0.0, "name": "4ae9a3156c22e7850f0bd71c8029cc32", "type": "electric_scooter", "is_disabled": 0, "lat": 38.915739333333335, "rental_uris": {"android": "https://dc.lft.to/lastmile_qr_scan", "ios": "https://dc.lft.to/lastmile_qr_scan"}, "bike_id": "4ae9a3156c22e7850f0bd71c8029cc32", "lon": -77.03190016666667}, {"is_reserved": 0, "fusion_lon": 0.0, "fusion_lat": 0.0, "name": "34d908eae5ace72f0a10f4dd62f0e55c", "type": "electric_scooter", "is_disabled": 0, "lat": 38.916075166666666, "rental_uris": {"android": "https://dc.lft.to/lastmile_qr_scan", "ios": "https://dc.lft.to/lastmile_qr_scan"}, "bike_id": "34d908eae5ace72f0a10f4dd62f0e55c", "lon": -77.02301016666667}, {"is_reserved": 0, "fusion_lon": 0.0, "fusion_lat": 0.0, "name": "f3835a2831e4a1dfa6b2a4c9f62bf30e", "type": "electric_scooter", "is_disabled": 0, "lat": 38.88264933333333, "rental_uris": {"android": "https://dc.lft.to/lastmile_qr_scan", "ios": "https://dc.lft.to/lastmile_qr_scan"}, "bike_id": "f3835a2831e4a1dfa6b2a4c9f62bf30e", "lon": -77.00592433333334}, {"is_reserved": 0, "fusion_lon": 0.0, "fusion_lat": 0.0, "name": "e90ed1071fad6e1a9b069072a3a575bf", "type": "electric_bike", "is_disabled": 0, "lat": 38.900548, "rental_uris": {"android": "https://dc.lft.to/lastmile_qr_scan", "ios": "https://dc.lft.to/lastmile_qr_scan"}, "bike_id": "e90ed1071fad6e1a9b069072a3a575bf", "lon": -77.047987}, {"is_reserved": 0, "fusion_lon": 0.0, "fusion_lat": 0.0, "name": "fa5a0bbd25a7218aaeafdf896da5e371", "type": "electric_scooter", "is_disabled": 0, "lat": 38.924710166666664, "rental_uris": {"android": "https://dc.lft.to/lastmile_qr_scan", "ios": "https://dc.lft.to/lastmile_qr_scan"}, "bike_id": "fa5a0bbd25a7218aaeafdf896da5e371", "lon": -77.02202466666667}, {"is_reserved": 0, "fusion_lon": 0.0, "fusion_lat": 0.0, "name": "de8236964e5f68aabf1afae615494aa9", "type": "electric_scooter", "is_disabled": 0, "lat": 38.945203, "rental_uris": {"android": "https://dc.lft.to/lastmile_qr_scan", "ios": "https://dc.lft.to/lastmile_qr_scan"}, "bike_id": "de8236964e5f68aabf1afae615494aa9", "lon": -77.01979633333333}, {"is_reserved": 0, "fusion_lon": 0.0, "fusion_lat": 0.0, "name": "ed5b046ba9b23ffb191bea86d3996c58", "type": "electric_scooter", "is_disabled": 0, "lat": 38.89882733333334, "rental_uris": {"android": "https://dc.lft.to/lastmile_qr_scan", "ios": "https://dc.lft.to/lastmile_qr_scan"}, "bike_id": "ed5b046ba9b23ffb191bea86d3996c58", "lon": -77.013668}, {"is_reserved": 0, "fusion_lon": 0.0, "fusion_lat": 0.0, "name": "849e1d059e5da019e1e8d1a03ceac5a8", "type": "electric_scooter", "is_disabled": 0, "lat": 38.94217233333333, "rental_uris": {"android": "https://dc.lft.to/lastmile_qr_scan", "ios": "https://dc.lft.to/lastmile_qr_scan"}, "bike_id": "849e1d059e5da019e1e8d1a03ceac5a8", "lon": -77.02505066666667}, {"is_reserved": 0, "fusion_lon": 0.0, "fusion_lat": 0.0, "name": "b61cb994342410bb26a590ffec92911a", "type": "electric_scooter", "is_disabled": 0, "lat": 38.911010166666664, "rental_uris": {"android": "https://dc.lft.to/lastmile_qr_scan", "ios": "https://dc.lft.to/lastmile_qr_scan"}, "bike_id": "b61cb994342410bb26a590ffec92911a", "lon": -77.0197955}, {"is_reserved": 0, "fusion_lon": 0.0, "fusion_lat": 0.0, "name": "d826c99374c3818decee157978ca7c57", "type": "electric_scooter", "is_disabled": 0, "lat": 38.916542666666665, "rental_uris": {"android": "https://dc.lft.to/lastmile_qr_scan", "ios": "https://dc.lft.to/lastmile_qr_scan"}, "bike_id": "d826c99374c3818decee157978ca7c57", "lon": -77.0319675}, {"is_reserved": 0, "fusion_lon": 0.0, "fusion_lat": 0.0, "name": "d326a3a74d63318021c260a67d596cfd", "type": "electric_scooter", "is_disabled": 0, "lat": 38.922341, "rental_uris": {"android": "https://dc.lft.to/lastmile_qr_scan", "ios": "https://dc.lft.to/lastmile_qr_scan"}, "bike_id": "d326a3a74d63318021c260a67d596cfd", "lon": -77.02182733333333}, {"is_reserved": 0, "fusion_lon": 0.0, "fusion_lat": 0.0, "name": "495dfc3118832c815f19b14762d4ef61", "type": "electric_scooter", "is_disabled": 0, "lat": 38.9408735, "rental_uris": {"android": "https://dc.lft.to/lastmile_qr_scan", "ios": "https://dc.lft.to/lastmile_qr_scan"}, "bike_id": "495dfc3118832c815f19b14762d4ef61", "lon": -77.02717566666666}, {"is_reserved": 0, "fusion_lon": 0.0, "fusion_lat": 0.0, "name": "c8bb1021fb0367399adba19cf0b5c687", "type": "electric_scooter", "is_disabled": 0, "lat": 38.9215015, "rental_uris": {"android": "https://dc.lft.to/lastmile_qr_scan", "ios": "https://dc.lft.to/lastmile_qr_scan"}, "bike_id": "c8bb1021fb0367399adba19cf0b5c687", "lon": -77.01810383333333}, {"is_reserved": 0, "fusion_lon": 0.0, "fusion_lat": 0.0, "name": "994b0c8d4c77bd08084c28daee802ca0", "type": "electric_scooter", "is_disabled": 0, "lat": 38.90534666666667, "rental_uris": {"android": "https://dc.lft.to/lastmile_qr_scan", "ios": "https://dc.lft.to/lastmile_qr_scan"}, "bike_id": "994b0c8d4c77bd08084c28daee802ca0", "lon": -77.062835}, {"is_reserved": 0, "fusion_lon": 0.0, "fusion_lat": 0.0, "name": "1a34d0b8591d97414d9428dcd65ee1f5", "type": "electric_scooter", "is_disabled": 0, "lat": 38.914184166666665, "rental_uris": {"android": "https://dc.lft.to/lastmile_qr_scan", "ios": "https://dc.lft.to/lastmile_qr_scan"}, "bike_id": "1a34d0b8591d97414d9428dcd65ee1f5", "lon": -77.029532}, {"is_reserved": 0, "fusion_lon": 0.0, "fusion_lat": 0.0, "name": "57d3f8ca7ba93cb2e709d12385b7adec", "type": "electric_scooter", "is_disabled": 0, "lat": 38.8716705, "rental_uris": {"android": "https://dc.lft.to/lastmile_qr_scan", "ios": "https://dc.lft.to/lastmile_qr_scan"}, "bike_id": "57d3f8ca7ba93cb2e709d12385b7adec", "lon": -76.9774495}, {"is_reserved": 0, "fusion_lon": 0.0, "fusion_lat": 0.0, "name": "d269afec0c24c1dc7120899fe8e4fdcb", "type": "electric_scooter", "is_disabled": 0, "lat": 38.906734666666665, "rental_uris": {"android": "https://dc.lft.to/lastmile_qr_scan", "ios": "https://dc.lft.to/lastmile_qr_scan"}, "bike_id": "d269afec0c24c1dc7120899fe8e4fdcb", "lon": -77.03835333333333}, {"is_reserved": 0, "fusion_lon": 0.0, "fusion_lat": 0.0, "name": "a4203e258e1ca90a3eee8017f59e077b", "type": "electric_bike", "is_disabled": 0, "lat": 38.913115833333336, "rental_uris": {"android": "https://dc.lft.to/lastmile_qr_scan", "ios": "https://dc.lft.to/lastmile_qr_scan"}, "bike_id": "a4203e258e1ca90a3eee8017f59e077b", "lon": -77.2230085}, {"is_reserved": 0, "fusion_lon": 0.0, "fusion_lat": 0.0, "name": "fbdd5c81174238b63943f7892eaa450d", "type": "electric_scooter", "is_disabled": 0, "lat": 38.916802833333335, "rental_uris": {"android": "https://dc.lft.to/lastmile_qr_scan", "ios": "https://dc.lft.to/lastmile_qr_scan"}, "bike_id": "fbdd5c81174238b63943f7892eaa450d", "lon": -77.02329066666667}, {"is_reserved": 0, "fusion_lon": 0.0, "fusion_lat": 0.0, "name": "807264047d781b624e8f8129fa5693e0", "type": "electric_scooter", "is_disabled": 0, "lat": 38.91023966666667, "rental_uris": {"android": "https://dc.lft.to/lastmile_qr_scan", "ios": "https://dc.lft.to/lastmile_qr_scan"}, "bike_id": "807264047d781b624e8f8129fa5693e0", "lon": -77.03432316666667}, {"is_reserved": 0, "fusion_lon": 0.0, "fusion_lat": 0.0, "name": "bf347bcfa71c60372a6069f8ba1d649a", "type": "electric_scooter", "is_disabled": 0, "lat": 38.895988333333335, "rental_uris": {"android": "https://dc.lft.to/lastmile_qr_scan", "ios": "https://dc.lft.to/lastmile_qr_scan"}, "bike_id": "bf347bcfa71c60372a6069f8ba1d649a", "lon": -76.99032166666667}, {"is_reserved": 0, "fusion_lon": 0.0, "fusion_lat": 0.0, "name": "6f958c2ef779c9723d7c6f86850f82d8", "type": "electric_scooter", "is_disabled": 0, "lat": 38.887764, "rental_uris": {"android": "https://dc.lft.to/lastmile_qr_scan", "ios": "https://dc.lft.to/lastmile_qr_scan"}, "bike_id": "6f958c2ef779c9723d7c6f86850f82d8", "lon": -76.95517033333333}, {"is_reserved": 0, "fusion_lon": 0.0, "fusion_lat": 0.0, "name": "5268adca099ca6c4a3b08d4f9abcd098", "type": "electric_scooter", "is_disabled": 0, "lat": 38.90002283333333, "rental_uris": {"android": "https://dc.lft.to/lastmile_qr_scan", "ios": "https://dc.lft.to/lastmile_qr_scan"}, "bike_id": "5268adca099ca6c4a3b08d4f9abcd098", "lon": -76.9983925}, {"is_reserved": 0, "fusion_lon": 0.0, "fusion_lat": 0.0, "name": "e0f8363fbf009b2798b6e6a7a007ffe2", "type": "electric_bike", "is_disabled": 0, "lat": 38.90554516666667, "rental_uris": {"android": "https://dc.lft.to/lastmile_qr_scan", "ios": "https://dc.lft.to/lastmile_qr_scan"}, "bike_id": "e0f8363fbf009b2798b6e6a7a007ffe2", "lon": -77.049239}, {"is_reserved": 0, "fusion_lon": 0.0, "fusion_lat": 0.0, "name": "db45f5c7cfdc37eac5ab5e25f2c25e29", "type": "electric_scooter", "is_disabled": 0, "lat": 38.892284333333336, "rental_uris": {"android": "https://dc.lft.to/lastmile_qr_scan", "ios": "https://dc.lft.to/lastmile_qr_scan"}, "bike_id": "db45f5c7cfdc37eac5ab5e25f2c25e29", "lon": -77.04334066666667}, {"is_reserved": 0, "fusion_lon": 0.0, "fusion_lat": 0.0, "name": "84f7559c550f7466119c1c6d5cf0cba9", "type": "electric_bike", "is_disabled": 0, "lat": 39.01369533333333, "rental_uris": {"android": "https://dc.lft.to/lastmile_qr_scan", "ios": "https://dc.lft.to/lastmile_qr_scan"}, "bike_id": "84f7559c550f7466119c1c6d5cf0cba9", "lon": -76.92130583333334}, {"is_reserved": 0, "fusion_lon": 0.0, "fusion_lat": 0.0, "name": "1a21e7db9dd1425d016aabe4ed267c8f", "type": "electric_scooter", "is_disabled": 0, "lat": 38.92322816666667, "rental_uris": {"android": "https://dc.lft.to/lastmile_qr_scan", "ios": "https://dc.lft.to/lastmile_qr_scan"}, "bike_id": "1a21e7db9dd1425d016aabe4ed267c8f", "lon": -77.01952483333334}, {"is_reserved": 0, "fusion_lon": 0.0, "fusion_lat": 0.0, "name": "6793a8b0a196910a7cf94a0198551750", "type": "electric_scooter", "is_disabled": 0, "lat": 38.92340383333333, "rental_uris": {"android": "https://dc.lft.to/lastmile_qr_scan", "ios": "https://dc.lft.to/lastmile_qr_scan"}, "bike_id": "6793a8b0a196910a7cf94a0198551750", "lon": -77.00915166666667}, {"is_reserved": 0, "fusion_lon": 0.0, "fusion_lat": 0.0, "name": "81c4c38a0eb070e3dd9c843facc0a304", "type": "electric_scooter", "is_disabled": 0, "lat": 38.843110833333334, "rental_uris": {"android": "https://dc.lft.to/lastmile_qr_scan", "ios": "https://dc.lft.to/lastmile_qr_scan"}, "bike_id": "81c4c38a0eb070e3dd9c843facc0a304", "lon": -76.99934233333333}, {"is_reserved": 0, "fusion_lon": 0.0, "fusion_lat": 0.0, "name": "fc7cfafea213b8fb1d7a0152675c9340", "type": "electric_scooter", "is_disabled": 0, "lat": 38.9303335, "rental_uris": {"android": "https://dc.lft.to/lastmile_qr_scan", "ios": "https://dc.lft.to/lastmile_qr_scan"}, "bike_id": "fc7cfafea213b8fb1d7a0152675c9340", "lon": -77.01949633333334}, {"is_reserved": 0, "fusion_lon": 0.0, "fusion_lat": 0.0, "name": "866a48968f62256566ff9c5704d4db74", "type": "electric_scooter", "is_disabled": 0, "lat": 38.885990166666666, "rental_uris": {"android": "https://dc.lft.to/lastmile_qr_scan", "ios": "https://dc.lft.to/lastmile_qr_scan"}, "bike_id": "866a48968f62256566ff9c5704d4db74", "lon": -77.012431}, {"is_reserved": 0, "fusion_lon": 0.0, "fusion_lat": 0.0, "name": "d92e3c80523713ebf1bf80999903605e", "type": "electric_scooter", "is_disabled": 0, "lat": 38.89895083333333, "rental_uris": {"android": "https://dc.lft.to/lastmile_qr_scan", "ios": "https://dc.lft.to/lastmile_qr_scan"}, "bike_id": "d92e3c80523713ebf1bf80999903605e", "lon": -77.025936}, {"is_reserved": 0, "fusion_lon": 0.0, "fusion_lat": 0.0, "name": "0f3457a24ac43bb72059f841655c341a", "type": "electric_scooter", "is_disabled": 0, "lat": 38.880495833333335, "rental_uris": {"android": "https://dc.lft.to/lastmile_qr_scan", "ios": "https://dc.lft.to/lastmile_qr_scan"}, "bike_id": "0f3457a24ac43bb72059f841655c341a", "lon": -76.93214316666666}, {"is_reserved": 0, "fusion_lon": 0.0, "fusion_lat": 0.0, "name": "92029871256ae5630462cbeced9fc313", "type": "electric_scooter", "is_disabled": 0, "lat": 38.90318233333333, "rental_uris": {"android": "https://dc.lft.to/lastmile_qr_scan", "ios": "https://dc.lft.to/lastmile_qr_scan"}, "bike_id": "92029871256ae5630462cbeced9fc313", "lon": -77.01892116666667}, {"is_reserved": 0, "fusion_lon": 0.0, "fusion_lat": 0.0, "name": "f9d9901fc2a0cfac1d0dd14b3b8dfc80", "type": "electric_scooter", "is_disabled": 0, "lat": 38.892197333333336, "rental_uris": {"android": "https://dc.lft.to/lastmile_qr_scan", "ios": "https://dc.lft.to/lastmile_qr_scan"}, "bike_id": "f9d9901fc2a0cfac1d0dd14b3b8dfc80", "lon": -77.02226883333333}, {"is_reserved": 0, "fusion_lon": 0.0, "fusion_lat": 0.0, "name": "b86d27fa463db8d804aa4a3cd9034d79", "type": "electric_scooter", "is_disabled": 0, "lat": 38.897348, "rental_uris": {"android": "https://dc.lft.to/lastmile_qr_scan", "ios": "https://dc.lft.to/lastmile_qr_scan"}, "bike_id": "b86d27fa463db8d804aa4a3cd9034d79", "lon": -77.007508}, {"is_reserved": 0, "fusion_lon": 0.0, "fusion_lat": 0.0, "name": "41303e1c6f343d7630b0b50149bc35a7", "type": "electric_scooter", "is_disabled": 0, "lat": 38.914898, "rental_uris": {"android": "https://dc.lft.to/lastmile_qr_scan", "ios": "https://dc.lft.to/lastmile_qr_scan"}, "bike_id": "41303e1c6f343d7630b0b50149bc35a7", "lon": -77.04155066666667}, {"is_reserved": 0, "fusion_lon": 0.0, "fusion_lat": 0.0, "name": "403069e2813808725792a94766bd6f36", "type": "electric_scooter", "is_disabled": 0, "lat": 38.90377016666667, "rental_uris": {"android": "https://dc.lft.to/lastmile_qr_scan", "ios": "https://dc.lft.to/lastmile_qr_scan"}, "bike_id": "403069e2813808725792a94766bd6f36", "lon": -77.04556183333334}, {"is_reserved": 0, "fusion_lon": 0.0, "fusion_lat": 0.0, "name": "7d99af6b0f8bc66a230260582ccfe604", "type": "electric_scooter", "is_disabled": 0, "lat": 38.90712933333333, "rental_uris": {"android": "https://dc.lft.to/lastmile_qr_scan", "ios": "https://dc.lft.to/lastmile_qr_scan"}, "bike_id": "7d99af6b0f8bc66a230260582ccfe604", "lon": -77.00322666666666}, {"is_reserved": 0, "fusion_lon": 0.0, "fusion_lat": 0.0, "name": "60580c3dfc375994835ff875c926a4c6", "type": "electric_scooter", "is_disabled": 0, "lat": 38.87989183333333, "rental_uris": {"android": "https://dc.lft.to/lastmile_qr_scan", "ios": "https://dc.lft.to/lastmile_qr_scan"}, "bike_id": "60580c3dfc375994835ff875c926a4c6", "lon": -77.0240835}, {"is_reserved": 0, "fusion_lon": 0.0, "fusion_lat": 0.0, "name": "446a02cfd5df36dd0ca80cd96187c2fe", "type": "electric_bike", "is_disabled": 0, "lat": 38.929039333333336, "rental_uris": {"android": "https://dc.lft.to/lastmile_qr_scan", "ios": "https://dc.lft.to/lastmile_qr_scan"}, "bike_id": "446a02cfd5df36dd0ca80cd96187c2fe", "lon": -77.03251466666667}, {"is_reserved": 0, "fusion_lon": 0.0, "fusion_lat": 0.0, "name": "2b08f3fc820171bbf80ee30716aa05ea", "type": "electric_scooter", "is_disabled": 0, "lat": 38.90846, "rental_uris": {"android": "https://dc.lft.to/lastmile_qr_scan", "ios": "https://dc.lft.to/lastmile_qr_scan"}, "bike_id": "2b08f3fc820171bbf80ee30716aa05ea", "lon": -77.04285966666667}, {"is_reserved": 0, "fusion_lon": 0.0, "fusion_lat": 0.0, "name": "86130802bb5a52668892db98857ef002", "type": "electric_scooter", "is_disabled": 0, "lat": 38.900363166666665, "rental_uris": {"android": "https://dc.lft.to/lastmile_qr_scan", "ios": "https://dc.lft.to/lastmile_qr_scan"}, "bike_id": "86130802bb5a52668892db98857ef002", "lon": -76.9961745}, {"is_reserved": 0, "fusion_lon": 0.0, "fusion_lat": 0.0, "name": "b08acf7f3e901b105f732e0d1a1aaed0", "type": "electric_scooter", "is_disabled": 0, "lat": 38.890403166666665, "rental_uris": {"android": "https://dc.lft.to/lastmile_qr_scan", "ios": "https://dc.lft.to/lastmile_qr_scan"}, "bike_id": "b08acf7f3e901b105f732e0d1a1aaed0", "lon": -76.9375165}, {"is_reserved": 0, "fusion_lon": 0.0, "fusion_lat": 0.0, "name": "9ece56ef323b2f113f10f6a79951f8cb", "type": "electric_scooter", "is_disabled": 0, "lat": 38.90646433333333, "rental_uris": {"android": "https://dc.lft.to/lastmile_qr_scan", "ios": "https://dc.lft.to/lastmile_qr_scan"}, "bike_id": "9ece56ef323b2f113f10f6a79951f8cb", "lon": -77.04658816666667}, {"is_reserved": 0, "fusion_lon": 0.0, "fusion_lat": 0.0, "name": "218f792bbac08912fc59b5a08b98a393", "type": "electric_scooter", "is_disabled": 0, "lat": 38.91119, "rental_uris": {"android": "https://dc.lft.to/lastmile_qr_scan", "ios": "https://dc.lft.to/lastmile_qr_scan"}, "bike_id": "218f792bbac08912fc59b5a08b98a393", "lon": -77.03145766666667}, {"is_reserved": 0, "fusion_lon": 0.0, "fusion_lat": 0.0, "name": "a6e408d4af0808ff4b34f476bae1006a", "type": "electric_scooter", "is_disabled": 0, "lat": 38.9008205, "rental_uris": {"android": "https://dc.lft.to/lastmile_qr_scan", "ios": "https://dc.lft.to/lastmile_qr_scan"}, "bike_id": "a6e408d4af0808ff4b34f476bae1006a", "lon": -77.048764}, {"is_reserved": 0, "fusion_lon": 0.0, "fusion_lat": 0.0, "name": "672d2a59008e8cea89d046540c959a24", "type": "electric_bike", "is_disabled": 0, "lat": 38.85787033333333, "rental_uris": {"android": "https://dc.lft.to/lastmile_qr_scan", "ios": "https://dc.lft.to/lastmile_qr_scan"}, "bike_id": "672d2a59008e8cea89d046540c959a24", "lon": -77.120187}, {"is_reserved": 0, "fusion_lon": 0.0, "fusion_lat": 0.0, "name": "22aae5f241a3e790653c353b06830d88", "type": "electric_scooter", "is_disabled": 0, "lat": 38.922594333333336, "rental_uris": {"android": "https://dc.lft.to/lastmile_qr_scan", "ios": "https://dc.lft.to/lastmile_qr_scan"}, "bike_id": "22aae5f241a3e790653c353b06830d88", "lon": -77.01917016666667}, {"is_reserved": 0, "fusion_lon": 0.0, "fusion_lat": 0.0, "name": "25ddd72940aeba46d89215388493cb5d", "type": "electric_bike", "is_disabled": 0, "lat": 38.878751333333334, "rental_uris": {"android": "https://dc.lft.to/lastmile_qr_scan", "ios": "https://dc.lft.to/lastmile_qr_scan"}, "bike_id": "25ddd72940aeba46d89215388493cb5d", "lon": -76.99013383333333}, {"is_reserved": 0, "fusion_lon": 0.0, "fusion_lat": 0.0, "name": "84734dce3afdf8fe1a7d5efb76ac6dfd", "type": "electric_scooter", "is_disabled": 0, "lat": 38.905623, "rental_uris": {"android": "https://dc.lft.to/lastmile_qr_scan", "ios": "https://dc.lft.to/lastmile_qr_scan"}, "bike_id": "84734dce3afdf8fe1a7d5efb76ac6dfd", "lon": -77.02507566666667}, {"is_reserved": 0, "fusion_lon": 0.0, "fusion_lat": 0.0, "name": "5cba62890683c3f1c49d43f2ecfeb4c3", "type": "electric_scooter", "is_disabled": 0, "lat": 38.89345183333333, "rental_uris": {"android": "https://dc.lft.to/lastmile_qr_scan", "ios": "https://dc.lft.to/lastmile_qr_scan"}, "bike_id": "5cba62890683c3f1c49d43f2ecfeb4c3", "lon": -77.01725783333333}, {"is_reserved": 0, "fusion_lon": 0.0, "fusion_lat": 0.0, "name": "f5ce74f0805145808c3f7032a08ab1fb", "type": "electric_scooter", "is_disabled": 0, "lat": 38.905612833333336, "rental_uris": {"android": "https://dc.lft.to/lastmile_qr_scan", "ios": "https://dc.lft.to/lastmile_qr_scan"}, "bike_id": "f5ce74f0805145808c3f7032a08ab1fb", "lon": -77.04324116666666}, {"is_reserved": 0, "fusion_lon": 0.0, "fusion_lat": 0.0, "name": "f4bd6b7c145ac1feb43e820d6c7a41e0", "type": "electric_scooter", "is_disabled": 0, "lat": 38.921619666666665, "rental_uris": {"android": "https://dc.lft.to/lastmile_qr_scan", "ios": "https://dc.lft.to/lastmile_qr_scan"}, "bike_id": "f4bd6b7c145ac1feb43e820d6c7a41e0", "lon": -77.03336033333333}, {"is_reserved": 0, "fusion_lon": 0.0, "fusion_lat": 0.0, "name": "292fd18245fabef689cac9492b822d97", "type": "electric_scooter", "is_disabled": 0, "lat": 38.945113666666664, "rental_uris": {"android": "https://dc.lft.to/lastmile_qr_scan", "ios": "https://dc.lft.to/lastmile_qr_scan"}, "bike_id": "292fd18245fabef689cac9492b822d97", "lon": -77.03319133333333}, {"is_reserved": 0, "fusion_lon": 0.0, "fusion_lat": 0.0, "name": "4ccd51e1040df7f5b1a4c8f631b4504e", "type": "electric_scooter", "is_disabled": 0, "lat": 38.909215, "rental_uris": {"android": "https://dc.lft.to/lastmile_qr_scan", "ios": "https://dc.lft.to/lastmile_qr_scan"}, "bike_id": "4ccd51e1040df7f5b1a4c8f631b4504e", "lon": -77.0443}, {"is_reserved": 0, "fusion_lon": 0.0, "fusion_lat": 0.0, "name": "ba2f04358bea84db83f32ee3f4b55128", "type": "electric_bike", "is_disabled": 0, "lat": 38.8589475, "rental_uris": {"android": "https://dc.lft.to/lastmile_qr_scan", "ios": "https://dc.lft.to/lastmile_qr_scan"}, "bike_id": "ba2f04358bea84db83f32ee3f4b55128", "lon": -77.118622}, {"is_reserved": 0, "fusion_lon": 0.0, "fusion_lat": 0.0, "name": "460db3869a282809401ab4165fdadf99", "type": "electric_scooter", "is_disabled": 0, "lat": 38.90792716666667, "rental_uris": {"android": "https://dc.lft.to/lastmile_qr_scan", "ios": "https://dc.lft.to/lastmile_qr_scan"}, "bike_id": "460db3869a282809401ab4165fdadf99", "lon": -77.038631}, {"is_reserved": 0, "fusion_lon": 0.0, "fusion_lat": 0.0, "name": "c38688f0751b1390f61481b4f8a7d7b0", "type": "electric_scooter", "is_disabled": 0, "lat": 38.903766, "rental_uris": {"android": "https://dc.lft.to/lastmile_qr_scan", "ios": "https://dc.lft.to/lastmile_qr_scan"}, "bike_id": "c38688f0751b1390f61481b4f8a7d7b0", "lon": -77.0342875}, {"is_reserved": 0, "fusion_lon": 0.0, "fusion_lat": 0.0, "name": "14ab85c734c5795121933d0b5e4b8def", "type": "electric_scooter", "is_disabled": 0, "lat": 38.90633533333333, "rental_uris": {"android": "https://dc.lft.to/lastmile_qr_scan", "ios": "https://dc.lft.to/lastmile_qr_scan"}, "bike_id": "14ab85c734c5795121933d0b5e4b8def", "lon": -77.0385645}, {"is_reserved": 0, "fusion_lon": 0.0, "fusion_lat": 0.0, "name": "35c49d381ac55f094627176967ee5cce", "type": "electric_scooter", "is_disabled": 0, "lat": 38.9111865, "rental_uris": {"android": "https://dc.lft.to/lastmile_qr_scan", "ios": "https://dc.lft.to/lastmile_qr_scan"}, "bike_id": "35c49d381ac55f094627176967ee5cce", "lon": -77.031549}, {"is_reserved": 0, "fusion_lon": 0.0, "fusion_lat": 0.0, "name": "adba91cb07defb333291d309487b9912", "type": "electric_scooter", "is_disabled": 0, "lat": 38.90608866666667, "rental_uris": {"android": "https://dc.lft.to/lastmile_qr_scan", "ios": "https://dc.lft.to/lastmile_qr_scan"}, "bike_id": "adba91cb07defb333291d309487b9912", "lon": -76.99276316666666}, {"is_reserved": 0, "fusion_lon": 0.0, "fusion_lat": 0.0, "name": "6010d23dc5f12f00071ec88d4d6ea39b", "type": "electric_scooter", "is_disabled": 0, "lat": 38.907205, "rental_uris": {"android": "https://dc.lft.to/lastmile_qr_scan", "ios": "https://dc.lft.to/lastmile_qr_scan"}, "bike_id": "6010d23dc5f12f00071ec88d4d6ea39b", "lon": -77.03820533333334}, {"is_reserved": 0, "fusion_lon": 0.0, "fusion_lat": 0.0, "name": "ebc263c30594cfca5fda298127de6277", "type": "electric_scooter", "is_disabled": 0, "lat": 38.8923625, "rental_uris": {"android": "https://dc.lft.to/lastmile_qr_scan", "ios": "https://dc.lft.to/lastmile_qr_scan"}, "bike_id": "ebc263c30594cfca5fda298127de6277", "lon": -77.03181566666666}, {"is_reserved": 0, "fusion_lon": 0.0, "fusion_lat": 0.0, "name": "4f7309c4881ba4a952bbc352da3391a0", "type": "electric_scooter", "is_disabled": 0, "lat": 38.89219033333333, "rental_uris": {"android": "https://dc.lft.to/lastmile_qr_scan", "ios": "https://dc.lft.to/lastmile_qr_scan"}, "bike_id": "4f7309c4881ba4a952bbc352da3391a0", "lon": -77.02630916666666}, {"is_reserved": 0, "fusion_lon": 0.0, "fusion_lat": 0.0, "name": "59858533248934ee0e403ed55f182396", "type": "electric_scooter", "is_disabled": 0, "lat": 38.90273916666666, "rental_uris": {"android": "https://dc.lft.to/lastmile_qr_scan", "ios": "https://dc.lft.to/lastmile_qr_scan"}, "bike_id": "59858533248934ee0e403ed55f182396", "lon": -77.03460233333334}, {"is_reserved": 0, "fusion_lon": 0.0, "fusion_lat": 0.0, "name": "197922eaaacee09ffa8d40c5f1d3a65c", "type": "electric_scooter", "is_disabled": 0, "lat": 38.934416666666664, "rental_uris": {"android": "https://dc.lft.to/lastmile_qr_scan", "ios": "https://dc.lft.to/lastmile_qr_scan"}, "bike_id": "197922eaaacee09ffa8d40c5f1d3a65c", "lon": -76.99877766666667}, {"is_reserved": 0, "fusion_lon": 0.0, "fusion_lat": 0.0, "name": "2b57463919ba71c3960272d13e07ae1f", "type": "electric_bike", "is_disabled": 0, "lat": 38.96276833333334, "rental_uris": {"android": "https://dc.lft.to/lastmile_qr_scan", "ios": "https://dc.lft.to/lastmile_qr_scan"}, "bike_id": "2b57463919ba71c3960272d13e07ae1f", "lon": -77.01455033333333}, {"is_reserved": 0, "fusion_lon": 0.0, "fusion_lat": 0.0, "name": "f84114874cad269c14ed3d05dacd56eb", "type": "electric_scooter", "is_disabled": 0, "lat": 38.922847, "rental_uris": {"android": "https://dc.lft.to/lastmile_qr_scan", "ios": "https://dc.lft.to/lastmile_qr_scan"}, "bike_id": "f84114874cad269c14ed3d05dacd56eb", "lon": -77.04258266666666}, {"is_reserved": 0, "fusion_lon": 0.0, "fusion_lat": 0.0, "name": "5a129fc8b5c49d019dd6372b1c87693b", "type": "electric_scooter", "is_disabled": 0, "lat": 38.900606333333336, "rental_uris": {"android": "https://dc.lft.to/lastmile_qr_scan", "ios": "https://dc.lft.to/lastmile_qr_scan"}, "bike_id": "5a129fc8b5c49d019dd6372b1c87693b", "lon": -76.94691083333333}, {"is_reserved": 0, "fusion_lon": 0.0, "fusion_lat": 0.0, "name": "2a74c60da01f99d69dbe67d2ad9dcf6d", "type": "electric_bike", "is_disabled": 0, "lat": 38.95173916666667, "rental_uris": {"android": "https://dc.lft.to/lastmile_qr_scan", "ios": "https://dc.lft.to/lastmile_qr_scan"}, "bike_id": "2a74c60da01f99d69dbe67d2ad9dcf6d", "lon": -76.977295}, {"is_reserved": 0, "fusion_lon": 0.0, "fusion_lat": 0.0, "name": "da1ae4a545474448d1441143f2bf5a2a", "type": "electric_scooter", "is_disabled": 0, "lat": 38.864705666666666, "rental_uris": {"android": "https://dc.lft.to/lastmile_qr_scan", "ios": "https://dc.lft.to/lastmile_qr_scan"}, "bike_id": "da1ae4a545474448d1441143f2bf5a2a", "lon": -76.98232183333333}, {"is_reserved": 0, "fusion_lon": 0.0, "fusion_lat": 0.0, "name": "e484302c6f48e35170e625d4a56c8a78", "type": "electric_bike", "is_disabled": 0, "lat": 38.85938066666667, "rental_uris": {"android": "https://dc.lft.to/lastmile_qr_scan", "ios": "https://dc.lft.to/lastmile_qr_scan"}, "bike_id": "e484302c6f48e35170e625d4a56c8a78", "lon": -77.1182715}, {"is_reserved": 0, "fusion_lon": 0.0, "fusion_lat": 0.0, "name": "8699b47b4c307f2b56de7ff13cec352f", "type": "electric_scooter", "is_disabled": 0, "lat": 38.95614, "rental_uris": {"android": "https://dc.lft.to/lastmile_qr_scan", "ios": "https://dc.lft.to/lastmile_qr_scan"}, "bike_id": "8699b47b4c307f2b56de7ff13cec352f", "lon": -77.027802}, {"is_reserved": 0, "fusion_lon": 0.0, "fusion_lat": 0.0, "name": "e4e66c77551b21c2488aba970ec7f402", "type": "electric_scooter", "is_disabled": 0, "lat": 38.90984783333333, "rental_uris": {"android": "https://dc.lft.to/lastmile_qr_scan", "ios": "https://dc.lft.to/lastmile_qr_scan"}, "bike_id": "e4e66c77551b21c2488aba970ec7f402", "lon": -77.04874033333333}, {"is_reserved": 0, "fusion_lon": 0.0, "fusion_lat": 0.0, "name": "926ddb49a84f70ab0ddf216c772d461c", "type": "electric_scooter", "is_disabled": 0, "lat": 38.908506833333334, "rental_uris": {"android": "https://dc.lft.to/lastmile_qr_scan", "ios": "https://dc.lft.to/lastmile_qr_scan"}, "bike_id": "926ddb49a84f70ab0ddf216c772d461c", "lon": -77.038478}, {"is_reserved": 0, "fusion_lon": 0.0, "fusion_lat": 0.0, "name": "0ce8224053e9f746bf13dc6be4e8027c", "type": "electric_scooter", "is_disabled": 0, "lat": 38.913670833333335, "rental_uris": {"android": "https://dc.lft.to/lastmile_qr_scan", "ios": "https://dc.lft.to/lastmile_qr_scan"}, "bike_id": "0ce8224053e9f746bf13dc6be4e8027c", "lon": -77.0455495}, {"is_reserved": 0, "fusion_lon": 0.0, "fusion_lat": 0.0, "name": "afea7ced05471c3dd72e2f5f37866e74", "type": "electric_bike", "is_disabled": 0, "lat": 38.8236745, "rental_uris": {"android": "https://dc.lft.to/lastmile_qr_scan", "ios": "https://dc.lft.to/lastmile_qr_scan"}, "bike_id": "afea7ced05471c3dd72e2f5f37866e74", "lon": -77.00210366666667}, {"is_reserved": 0, "fusion_lon": 0.0, "fusion_lat": 0.0, "name": "b9fd4bd16b09c84157d1a4ca0f78283e", "type": "electric_scooter", "is_disabled": 0, "lat": 38.886084333333336, "rental_uris": {"android": "https://dc.lft.to/lastmile_qr_scan", "ios": "https://dc.lft.to/lastmile_qr_scan"}, "bike_id": "b9fd4bd16b09c84157d1a4ca0f78283e", "lon": -77.00136033333334}, {"is_reserved": 0, "fusion_lon": 0.0, "fusion_lat": 0.0, "name": "093698c7e07abd2998df0f951d57bd17", "type": "electric_scooter", "is_disabled": 0, "lat": 38.94411433333333, "rental_uris": {"android": "https://dc.lft.to/lastmile_qr_scan", "ios": "https://dc.lft.to/lastmile_qr_scan"}, "bike_id": "093698c7e07abd2998df0f951d57bd17", "lon": -77.02017366666666}, {"is_reserved": 0, "fusion_lon": 0.0, "fusion_lat": 0.0, "name": "43198cad8274feb14a281c4ee983e7fb", "type": "electric_bike", "is_disabled": 0, "lat": 38.969615833333336, "rental_uris": {"android": "https://dc.lft.to/lastmile_qr_scan", "ios": "https://dc.lft.to/lastmile_qr_scan"}, "bike_id": "43198cad8274feb14a281c4ee983e7fb", "lon": -76.95747966666667}, {"is_reserved": 0, "fusion_lon": 0.0, "fusion_lat": 0.0, "name": "66e281974bc13a81012f1a8e52695e4f", "type": "electric_scooter", "is_disabled": 0, "lat": 38.92482833333333, "rental_uris": {"android": "https://dc.lft.to/lastmile_qr_scan", "ios": "https://dc.lft.to/lastmile_qr_scan"}, "bike_id": "66e281974bc13a81012f1a8e52695e4f", "lon": -77.02724}, {"is_reserved": 0, "fusion_lon": 0.0, "fusion_lat": 0.0, "name": "c2877390ffbd5a300f1b17a8df959684", "type": "electric_scooter", "is_disabled": 0, "lat": 38.917354, "rental_uris": {"android": "https://dc.lft.to/lastmile_qr_scan", "ios": "https://dc.lft.to/lastmile_qr_scan"}, "bike_id": "c2877390ffbd5a300f1b17a8df959684", "lon": -77.03643966666667}, {"is_reserved": 0, "fusion_lon": 0.0, "fusion_lat": 0.0, "name": "f939437a00f94513310d85870c28ad5f", "type": "electric_scooter", "is_disabled": 0, "lat": 38.905059666666666, "rental_uris": {"android": "https://dc.lft.to/lastmile_qr_scan", "ios": "https://dc.lft.to/lastmile_qr_scan"}, "bike_id": "f939437a00f94513310d85870c28ad5f", "lon": -77.0466235}, {"is_reserved": 0, "fusion_lon": 0.0, "fusion_lat": 0.0, "name": "8191832ddcfe911c0739ca9e822afcfe", "type": "electric_scooter", "is_disabled": 0, "lat": 38.921854, "rental_uris": {"android": "https://dc.lft.to/lastmile_qr_scan", "ios": "https://dc.lft.to/lastmile_qr_scan"}, "bike_id": "8191832ddcfe911c0739ca9e822afcfe", "lon": -77.02655233333333}, {"is_reserved": 0, "fusion_lon": 0.0, "fusion_lat": 0.0, "name": "5afbe6a24b992b7eaf96a9da8bdf5620", "type": "electric_scooter", "is_disabled": 0, "lat": 38.92513316666667, "rental_uris": {"android": "https://dc.lft.to/lastmile_qr_scan", "ios": "https://dc.lft.to/lastmile_qr_scan"}, "bike_id": "5afbe6a24b992b7eaf96a9da8bdf5620", "lon": -77.03868716666666}, {"is_reserved": 0, "fusion_lon": 0.0, "fusion_lat": 0.0, "name": "d48f4c22d9af9673b08c96ea74291116", "type": "electric_bike", "is_disabled": 0, "lat": 38.938167, "rental_uris": {"android": "https://dc.lft.to/lastmile_qr_scan", "ios": "https://dc.lft.to/lastmile_qr_scan"}, "bike_id": "d48f4c22d9af9673b08c96ea74291116", "lon": -77.0685975}, {"is_reserved": 0, "fusion_lon": 0.0, "fusion_lat": 0.0, "name": "6b573e66bd19adca6b2d591a74eeff5c", "type": "electric_scooter", "is_disabled": 0, "lat": 38.93086866666667, "rental_uris": {"android": "https://dc.lft.to/lastmile_qr_scan", "ios": "https://dc.lft.to/lastmile_qr_scan"}, "bike_id": "6b573e66bd19adca6b2d591a74eeff5c", "lon": -76.99610133333333}, {"is_reserved": 0, "fusion_lon": 0.0, "fusion_lat": 0.0, "name": "79dc4fc3ad4cbc2f12f48a7562151027", "type": "electric_scooter", "is_disabled": 0, "lat": 38.924755166666664, "rental_uris": {"android": "https://dc.lft.to/lastmile_qr_scan", "ios": "https://dc.lft.to/lastmile_qr_scan"}, "bike_id": "79dc4fc3ad4cbc2f12f48a7562151027", "lon": -77.0391905}, {"is_reserved": 0, "fusion_lon": 0.0, "fusion_lat": 0.0, "name": "4c2046ed9f9d2a8bca801727afae2de7", "type": "electric_scooter", "is_disabled": 0, "lat": 38.87664133333333, "rental_uris": {"android": "https://dc.lft.to/lastmile_qr_scan", "ios": "https://dc.lft.to/lastmile_qr_scan"}, "bike_id": "4c2046ed9f9d2a8bca801727afae2de7", "lon": -77.01948666666667}, {"is_reserved": 0, "fusion_lon": 0.0, "fusion_lat": 0.0, "name": "115679b3e2cb32e13a00ecf3d26cff56", "type": "electric_scooter", "is_disabled": 0, "lat": 38.916955, "rental_uris": {"android": "https://dc.lft.to/lastmile_qr_scan", "ios": "https://dc.lft.to/lastmile_qr_scan"}, "bike_id": "115679b3e2cb32e13a00ecf3d26cff56", "lon": -77.037682}, {"is_reserved": 0, "fusion_lon": 0.0, "fusion_lat": 0.0, "name": "c67dc601881aba1895cd012633ba7439", "type": "electric_scooter", "is_disabled": 0, "lat": 38.894861, "rental_uris": {"android": "https://dc.lft.to/lastmile_qr_scan", "ios": "https://dc.lft.to/lastmile_qr_scan"}, "bike_id": "c67dc601881aba1895cd012633ba7439", "lon": -77.0225595}, {"is_reserved": 0, "fusion_lon": 0.0, "fusion_lat": 0.0, "name": "8dff748ac468d8bfb9935321151abf8c", "type": "electric_scooter", "is_disabled": 0, "lat": 38.87731316666667, "rental_uris": {"android": "https://dc.lft.to/lastmile_qr_scan", "ios": "https://dc.lft.to/lastmile_qr_scan"}, "bike_id": "8dff748ac468d8bfb9935321151abf8c", "lon": -77.00594833333334}, {"is_reserved": 0, "fusion_lon": 0.0, "fusion_lat": 0.0, "name": "d0484d6cb4688f56ecdc9e802eaa1ab2", "type": "electric_scooter", "is_disabled": 0, "lat": 38.912673166666664, "rental_uris": {"android": "https://dc.lft.to/lastmile_qr_scan", "ios": "https://dc.lft.to/lastmile_qr_scan"}, "bike_id": "d0484d6cb4688f56ecdc9e802eaa1ab2", "lon": -77.012972}, {"is_reserved": 0, "fusion_lon": 0.0, "fusion_lat": 0.0, "name": "4fb362e3d764c8b913d6b75973f58750", "type": "electric_bike", "is_disabled": 0, "lat": 38.8191475, "rental_uris": {"android": "https://dc.lft.to/lastmile_qr_scan", "ios": "https://dc.lft.to/lastmile_qr_scan"}, "bike_id": "4fb362e3d764c8b913d6b75973f58750", "lon": -76.9991215}, {"is_reserved": 0, "fusion_lon": 0.0, "fusion_lat": 0.0, "name": "790394d53eec1863254a94b4e7932bcd", "type": "electric_scooter", "is_disabled": 0, "lat": 38.892350666666665, "rental_uris": {"android": "https://dc.lft.to/lastmile_qr_scan", "ios": "https://dc.lft.to/lastmile_qr_scan"}, "bike_id": "790394d53eec1863254a94b4e7932bcd", "lon": -77.03205416666667}, {"is_reserved": 0, "fusion_lon": 0.0, "fusion_lat": 0.0, "name": "17ebe2ea6e84ef2a97dc461cbc3f2adf", "type": "electric_scooter", "is_disabled": 0, "lat": 38.90048916666667, "rental_uris": {"android": "https://dc.lft.to/lastmile_qr_scan", "ios": "https://dc.lft.to/lastmile_qr_scan"}, "bike_id": "17ebe2ea6e84ef2a97dc461cbc3f2adf", "lon": -77.04357733333333}, {"is_reserved": 0, "fusion_lon": 0.0, "fusion_lat": 0.0, "name": "42ce0339bc1de6340822dea4f5e4bd51", "type": "electric_scooter", "is_disabled": 0, "lat": 38.924705833333334, "rental_uris": {"android": "https://dc.lft.to/lastmile_qr_scan", "ios": "https://dc.lft.to/lastmile_qr_scan"}, "bike_id": "42ce0339bc1de6340822dea4f5e4bd51", "lon": -77.022015}, {"is_reserved": 0, "fusion_lon": 0.0, "fusion_lat": 0.0, "name": "c2e5371269ab00a98d3140d137e08017", "type": "electric_scooter", "is_disabled": 0, "lat": 38.973767, "rental_uris": {"android": "https://dc.lft.to/lastmile_qr_scan", "ios": "https://dc.lft.to/lastmile_qr_scan"}, "bike_id": "c2e5371269ab00a98d3140d137e08017", "lon": -77.01809616666667}, {"is_reserved": 0, "fusion_lon": 0.0, "fusion_lat": 0.0, "name": "6370aef6e674345069991437d2f39260", "type": "electric_scooter", "is_disabled": 0, "lat": 38.87008983333333, "rental_uris": {"android": "https://dc.lft.to/lastmile_qr_scan", "ios": "https://dc.lft.to/lastmile_qr_scan"}, "bike_id": "6370aef6e674345069991437d2f39260", "lon": -76.9808175}, {"is_reserved": 0, "fusion_lon": 0.0, "fusion_lat": 0.0, "name": "96d46973c1603293ebbe33fb207f3484", "type": "electric_scooter", "is_disabled": 0, "lat": 38.9031, "rental_uris": {"android": "https://dc.lft.to/lastmile_qr_scan", "ios": "https://dc.lft.to/lastmile_qr_scan"}, "bike_id": "96d46973c1603293ebbe33fb207f3484", "lon": -77.038409}, {"is_reserved": 0, "fusion_lon": 0.0, "fusion_lat": 0.0, "name": "be2d3c2133cda868da234d2569d3e065", "type": "electric_scooter", "is_disabled": 0, "lat": 38.914190166666664, "rental_uris": {"android": "https://dc.lft.to/lastmile_qr_scan", "ios": "https://dc.lft.to/lastmile_qr_scan"}, "bike_id": "be2d3c2133cda868da234d2569d3e065", "lon": -77.03149783333333}, {"is_reserved": 0, "fusion_lon": 0.0, "fusion_lat": 0.0, "name": "170cb483bfc10151ee0d406360ceee8f", "type": "electric_scooter", "is_disabled": 0, "lat": 38.9261095, "rental_uris": {"android": "https://dc.lft.to/lastmile_qr_scan", "ios": "https://dc.lft.to/lastmile_qr_scan"}, "bike_id": "170cb483bfc10151ee0d406360ceee8f", "lon": -77.021563},