{"data": {"bikes": [{"lat": 38.931695, "fusion_lon": 0.0, "lon": -76.8840405, "is_disabled": 0, "type": "electric_bike", "name": "ff85f3ddfa23413e31e8c5825d0a570c", "fusion_lat": 0.0, "rental_uris": {"android": "https://dc.lft.to/lastmile_qr_scan", "ios": "https://dc.lft.to/lastmile_qr_scan"}, "bike_id": "ff85f3ddfa23413e31e8c5825d0a570c", "is_reserved": 0}, {"lat": 38.90845733333333, "fusion_lon": 0.0, "lon": -77.02698266666667, "is_disabled": 0, "type": "electric_scooter", "name": "8c26a4faf338e1f3e81f24fb1e58da14", "fusion_lat": 0.0, "rental_uris": {"android": "https://dc.lft.to/lastmile_qr_scan", "ios": "https://dc.lft.to/lastmile_qr_scan"}, "bike_id": "8c26a4faf338e1f3e81f24fb1e58da14", "is_reserved": 0}, {"lat": 38.92238016666667, "fusion_lon": 0.0, "lon": -77.03666583333333, "is_disabled": 0, "type": "electric_scooter", "name": "3051a641c5fc0f13976822d62849d95d", "fusion_lat": 0.0, "rental_uris": {"android": "https://dc.lft.to/lastmile_qr_scan", "ios": "https://dc.lft.to/lastmile_qr_scan"}, "bike_id": "3051a641c5fc0f13976822d62849d95d", "is_reserved": 0}, {"lat": 38.8648275, "fusion_lon": 0.0, "lon": -76.9774065, "is_disabled": 0, "type": "electric_bike", "name": "8b1d7092b56a78f0754d3be974cfd87a", "fusion_lat": 0.0, "rental_uris": {"android": "https://dc.lft.to/lastmile_qr_scan", "ios": "https://dc.lft.to/lastmile_qr_scan"}, "bike_id": "8b1d7092b56a78f0754d3be974cfd87a", "is_reserved": 0}, {"lat": 38.929668, "fusion_lon": 0.0, "lon": -77.18562516666667, "is_disabled": 0, "type": "electric_bike", "name": "1e34e491d71165d7399c5c2127b69329", "fusion_lat": 0.0, "rental_uris": {"android": "https://dc.lft.to/lastmile_qr_scan", "ios": "https://dc.lft.to/lastmile_qr_scan"}, "bike_id": "1e34e491d71165d7399c5c2127b69329", "is_reserved": 0}, {"lat": 38.89409083333334, "fusion_lon": 0.0, "lon": -77.02435466666667, "is_disabled": 0, "type": "electric_scooter", "name": "bf9dd09223cf719172c6c79d18787dee", "fusion_lat": 0.0, "rental_uris": {"android": "https://dc.lft.to/lastmile_qr_scan", "ios": "https://dc.lft.to/lastmile_qr_scan"}, "bike_id": "bf9dd09223cf719172c6c79d18787dee", "is_reserved": 0}, {"lat": 39.05498816666667, "fusion_lon": 0.0, "lon": -77.04646466666667, "is_disabled": 0, "type": "electric_bike", "name": "5dd48ff01ab8c440cddc8c4ea9759a8d", "fusion_lat": 0.0, "rental_uris": {"android": "https://dc.lft.to/lastmile_qr_scan", "ios": "https://dc.lft.to/lastmile_qr_scan"}, "bike_id": "5dd48ff01ab8c440cddc8c4ea9759a8d", "is_reserved": 0}, {"lat": 38.9543975, "fusion_lon": 0.0, "lon": -76.98919, "is_disabled": 0, "type": "electric_bike", "name": "071aa4d6db3399634f7366d98bf9bf6b", "fusion_lat": 0.0, "rental_uris": {"android": "https://dc.lft.to/lastmile_qr_scan", "ios": "https://dc.lft.to/lastmile_qr_scan"}, "bike_id": "071aa4d6db3399634f7366d98bf9bf6b", "is_reserved": 0}, {"lat": 38.886057, "fusion_lon": 0.0, "lon": -76.99508166666666, "is_disabled": 0, "type": "electric_scooter", "name": "cc83849ef4a05c5e63014733f500ef09", "fusion_lat": 0.0, "rental_uris": {"android": "https://dc.lft.to/lastmile_qr_scan", "ios": "https://dc.lft.to/lastmile_qr_scan"}, "bike_id": "cc83849ef4a05c5e63014733f500ef09", "is_reserved": 0}, {"lat": 38.90721083333333, "fusion_lon": 0.0, "lon": -77.038827, "is_disabled": 0, "type": "electric_scooter", "name": "51a447091c39079025041af23bef1c30", "fusion_lat": 0.0, "rental_uris": {"android": "https://dc.lft.to/lastmile_qr_scan", "ios": "https://dc.lft.to/lastmile_qr_scan"}, "bike_id": "51a447091c39079025041af23bef1c30", "is_reserved": 0}, {"lat": 38.92610966666667, "fusion_lon": 0.0, "lon": -77.02165883333333, "is_disabled": 0, "type": "electric_scooter", "name": "de0ab91735bc8a71e764fa76f8c99f83", "fusion_lat": 0.0, "rental_uris": {"android": "https://dc.lft.to/lastmile_qr_scan", "ios": "https://dc.lft.to/lastmile_qr_scan"}, "bike_id": "de0ab91735bc8a71e764fa76f8c99f83", "is_reserved": 0}, {"lat": 38.905451666666664, "fusion_lon": 0.0, "lon": -77.0325295, "is_disabled": 0, "type": "electric_scooter", "name": "933efcb754e5b33ae1462905f738df25", "fusion_lat": 0.0, "rental_uris": {"android": "https://dc.lft.to/lastmile_qr_scan", "ios": "https://dc.lft.to/lastmile_qr_scan"}, "bike_id": "933efcb754e5b33ae1462905f738df25", "is_reserved": 0}, {"lat": 38.90087316666666, "fusion_lon": 0.0, "lon": -76.93027283333333, "is_disabled": 0, "type": "electric_scooter", "name": "60588157d89de787ed0606fa774d6fba", "fusion_lat": 0.0, "rental_uris": {"android": "https://dc.lft.to/lastmile_qr_scan", "ios": "https://dc.lft.to/lastmile_qr_scan"}, "bike_id": "60588157d89de787ed0606fa774d6fba", "is_reserved": 0}, {"lat": 38.8553645, "fusion_lon": 0.0, "lon": -76.98420683333333, "is_disabled": 0, "type": "electric_scooter", "name": "d12a4c3454baab88d7323bd27ef4ab0d", "fusion_lat": 0.0, "rental_uris": {"android": "https://dc.lft.to/lastmile_qr_scan", "ios": "https://dc.lft.to/lastmile_qr_scan"}, "bike_id": "d12a4c3454baab88d7323bd27ef4ab0d", "is_reserved": 0}, {"lat": 38.90235783333333, "fusion_lon": 0.0, "lon": -77.026123, "is_disabled": 0, "type": "electric_scooter", "name": "d5747e57b181284aa4a313a06c902492", "fusion_lat": 0.0, "rental_uris": {"android": "https://dc.lft.to/lastmile_qr_scan", "ios": "https://dc.lft.to/lastmile_qr_scan"}, "bike_id": "d5747e57b181284aa4a313a06c902492", "is_reserved": 0}, {"lat": 38.902479166666666, "fusion_lon": 0.0, "lon": -77.00202133333333, "is_disabled": 0, "type": "electric_scooter", "name": "9bf81b9c3d1159e3ee53b95c2c5931f2", "fusion_lat": 0.0, "rental_uris": {"android": "https://dc.lft.to/lastmile_qr_scan", "ios": "https://dc.lft.to/lastmile_qr_scan"}, "bike_id": "9bf81b9c3d1159e3ee53b95c2c5931f2", "is_reserved": 0}, {"lat": 38.872025666666666, "fusion_lon": 0.0, "lon": -76.9783535, "is_disabled": 0, "type": "electric_scooter", "name": "d45a8a6c86fcd1c7445ab05cfa21cbf0", "fusion_lat": 0.0, "rental_uris": {"android": "https://dc.lft.to/lastmile_qr_scan", "ios": "https://dc.lft.to/lastmile_qr_scan"}, "bike_id": "d45a8a6c86fcd1c7445ab05cfa21cbf0", "is_reserved": 0}, {"lat": 38.91103783333333, "fusion_lon": 0.0, "lon": -77.02179066666666, "is_disabled": 0, "type": "electric_scooter", "name": "86c80cc1b1727402d8938417452408b5", "fusion_lat": 0.0, "rental_uris": {"android": "https://dc.lft.to/lastmile_qr_scan", "ios": "https://dc.lft.to/lastmile_qr_scan"}, "bike_id": "86c80cc1b1727402d8938417452408b5", "is_reserved": 0}, {"lat": 38.884846, "fusion_lon": 0.0, "lon": -76.9261575, "is_disabled": 0, "type": "electric_scooter", "name": "f37b40fc786e47f30243b35fe89bc59a", "fusion_lat": 0.0, "rental_uris": {"android": "https://dc.lft.to/lastmile_qr_scan", "ios": "https://dc.lft.to/lastmile_qr_scan"}, "bike_id": "f37b40fc786e47f30243b35fe89bc59a", "is_reserved": 0}, {"lat": 38.8830765, "fusion_lon": 0.0, "lon": -77.01756783333333, "is_disabled": 0, "type": "electric_scooter", "name": "09f2fede96f8d249732600d1020ba11f", "fusion_lat": 0.0, "rental_uris": {"android": "https://dc.lft.to/lastmile_qr_scan", "ios": "https://dc.lft.to/lastmile_qr_scan"}, "bike_id": "09f2fede96f8d249732600d1020ba11f", "is_reserved": 0}, {"lat": 38.89270616666667, "fusion_lon": 0.0, "lon": -77.04878083333334, "is_disabled": 0, "type": "electric_scooter", "name": "31528ece3b244792715eee15b745024d", "fusion_lat": 0.0, "rental_uris": {"android": "https://dc.lft.to/lastmile_qr_scan", "ios": "https://dc.lft.to/lastmile_qr_scan"}, "bike_id": "31528ece3b244792715eee15b745024d", "is_reserved": 0}, {"lat": 38.95057966666667, "fusion_lon": 0.0, "lon": -77.08013683333333, "is_disabled": 0, "type": "electric_scooter", "name": "fcec688aba23b1a2b971cc0d5b594eaa", "fusion_lat": 0.0, "rental_uris": {"android": "https://dc.lft.to/lastmile_qr_scan", "ios": "https://dc.lft.to/lastmile_qr_scan"}, "bike_id": "fcec688aba23b1a2b971cc0d5b594eaa", "is_reserved": 0}, {"lat": 38.9442725, "fusion_lon": 0.0, "lon": -77.02603416666666, "is_disabled": 0, "type": "electric_scooter", "name": "25b6537594d91f6c413d4893bfd9bd70", "fusion_lat": 0.0, "rental_uris": {"android": "https://dc.lft.to/lastmile_qr_scan", "ios": "https://dc.lft.to/lastmile_qr_scan"}, "bike_id": "25b6537594d91f6c413d4893bfd9bd70", "is_reserved": 0}, {"lat": 38.892299333333334, "fusion_lon": 0.0, "lon": -77.03188983333334, "is_disabled": 0, "type": "electric_scooter", "name": "a2524c3681020c0f03b48a93a242e522", "fusion_lat": 0.0, "rental_uris": {"android": "https://dc.lft.to/lastmile_qr_scan", "ios": "https://dc.lft.to/lastmile_qr_scan"}, "bike_id": "a2524c3681020c0f03b48a93a242e522", "is_reserved": 0}, {"lat": 38.9072885, "fusion_lon": 0.0, "lon": -77.03462633333334, "is_disabled": 0, "type": "electric_scooter", "name": "fedcd7fddf6282c4e42c974c254fb79e", "fusion_lat": 0.0, "rental_uris": {"android": "https://dc.lft.to/lastmile_qr_scan", "ios": "https://dc.lft.to/lastmile_qr_scan"}, "bike_id": "fedcd7fddf6282c4e42c974c254fb79e", "is_reserved": 0}, {"lat": 38.90550483333333, "fusion_lon": 0.0, "lon": -77.03930016666666, "is_disabled": 0, "type": "electric_scooter", "name": "a89b96c5ed6ae8a9f167665c2ca0ecb2", "fusion_lat": 0.0, "rental_uris": {"android": "https://dc.lft.to/lastmile_qr_scan", "ios": "https://dc.lft.to/lastmile_qr_scan"}, "bike_id": "a89b96c5ed6ae8a9f167665c2ca0ecb2", "is_reserved": 0}, {"lat": 38.95936416666667, "fusion_lon": 0.0, "lon": -77.031329, "is_disabled": 0, "type": "electric_scooter", "name": "34c5f43ce8130acb39105acd0330ce83", "fusion_lat": 0.0, "rental_uris": {"android": "https://dc.lft.to/lastmile_qr_scan", "ios": "https://dc.lft.to/lastmile_qr_scan"}, "bike_id": "34c5f43ce8130acb39105acd0330ce83", "is_reserved": 0}, {"lat": 38.912768, "fusion_lon": 0.0, "lon": -77.02251616666666, "is_disabled": 0, "type": "electric_scooter", "name": "b02385c5a97fecd277e163ef309079c1", "fusion_lat": 0.0, "rental_uris": {"android": "https://dc.lft.to/lastmile_qr_scan", "ios": "https://dc.lft.to/lastmile_qr_scan"}, "bike_id": "b02385c5a97fecd277e163ef309079c1", "is_reserved": 0}, {"lat": 38.927060833333336, "fusion_lon": 0.0, "lon": -77.02409183333333, "is_disabled": 0, "type": "electric_scooter", "name": "779a0b3394ef97df669d77640a40a62a", "fusion_lat": 0.0, "rental_uris": {"android": "https://dc.lft.to/lastmile_qr_scan", "ios": "https://dc.lft.to/lastmile_qr_scan"}, "bike_id": "779a0b3394ef97df669d77640a40a62a", "is_reserved": 0}, {"lat": 38.942927, "fusion_lon": 0.0, "lon": -77.02175033333333, "is_disabled": 0, "type": "electric_scooter", "name": "697a90445befd4d79fceb7e018ca2cd4", "fusion_lat": 0.0, "rental_uris": {"android": "https://dc.lft.to/lastmile_qr_scan", "ios": "https://dc.lft.to/lastmile_qr_scan"}, "bike_id": "697a90445befd4d79fceb7e018ca2cd4", "is_reserved": 0}, {"lat": 38.899534, "fusion_lon": 0.0, "lon": -77.03377716666667, "is_disabled": 0, "type": "electric_scooter", "name": "21087e39496de25f01497e41ea9798c5", "fusion_lat": 0.0, "rental_uris": {"android": "https://dc.lft.to/lastmile_qr_scan", "ios": "https://dc.lft.to/lastmile_qr_scan"}, "bike_id": "21087e39496de25f01497e41ea9798c5", "is_reserved": 0}, {"lat": 38.87175383333334, "fusion_lon": 0.0, "lon": -77.00628016666667, "is_disabled": 0, "type": "electric_scooter", "name": "988ff4722993fcd4114b025bec9c66eb", "fusion_lat": 0.0, "rental_uris": {"android": "https://dc.lft.to/lastmile_qr_scan", "ios": "https://dc.lft.to/lastmile_qr_scan"}, "bike_id": "988ff4722993fcd4114b025bec9c66eb", "is_reserved": 0}, {"lat": 38.902701, "fusion_lon": 0.0, "lon": -77.00349716666666, "is_disabled": 0, "type": "electric_scooter", "name": "a426df1aea64d9f40dfccbbdc203030e", "fusion_lat": 0.0, "rental_uris": {"android": "https://dc.lft.to/lastmile_qr_scan", "ios": "https://dc.lft.to/lastmile_qr_scan"}, "bike_id": "a426df1aea64d9f40dfccbbdc203030e", "is_reserved": 0}, {"lat": 38.873608, "fusion_lon": 0.0, "lon": -76.9701015, "is_disabled": 0, "type": "electric_scooter", "name": "45dc485d61369c2c9c2912be57db70ba", "fusion_lat": 0.0, "rental_uris": {"android": "https://dc.lft.to/lastmile_qr_scan", "ios": "https://dc.lft.to/lastmile_qr_scan"}, "bike_id": "45dc485d61369c2c9c2912be57db70ba", "is_reserved": 0}, {"lat": 38.918856, "fusion_lon": 0.0, "lon": -77.04821666666666, "is_disabled": 0, "type": "electric_scooter", "name": "0f7e30dd4bab3c235fa6ca8651a9c04b", "fusion_lat": 0.0, "rental_uris": {"android": "https://dc.lft.to/lastmile_qr_scan", "ios": "https://dc.lft.to/lastmile_qr_scan"}, "bike_id": "0f7e30dd4bab3c235fa6ca8651a9c04b", "is_reserved": 0}, {"lat": 38.906237833333336, "fusion_lon": 0.0, "lon": -77.0059615, "is_disabled": 0, "type": "electric_scooter", "name": "b545a65f66a444484048e7f79092849c", "fusion_lat": 0.0, "rental_uris": {"android": "https://dc.lft.to/lastmile_qr_scan", "ios": "https://dc.lft.to/lastmile_qr_scan"}, "bike_id": "b545a65f66a444484048e7f79092849c", "is_reserved": 0}, {"lat": 38.92165133333334, "fusion_lon": 0.0, "lon": -77.03381616666667, "is_disabled": 0, "type": "electric_scooter", "name": "b12175d27ec34bdf1dd2247b1956ca1e", "fusion_lat": 0.0, "rental_uris": {"android": "https://dc.lft.to/lastmile_qr_scan", "ios": "https://dc.lft.to/lastmile_qr_scan"}, "bike_id": "b12175d27ec34bdf1dd2247b1956ca1e", "is_reserved": 0}, {"lat": 38.854397, "fusion_lon": 0.0, "lon": -77.08327766666666, "is_disabled": 0, "type": "electric_bike", "name": "8e3c93681bb695d0373d35fa536cc9d5", "fusion_lat": 0.0, "rental_uris": {"android": "https://dc.lft.to/lastmile_qr_scan", "ios": "https://dc.lft.to/lastmile_qr_scan"}, "bike_id": "8e3c93681bb695d0373d35fa536cc9d5", "is_reserved": 0}, {"lat": 38.875410333333335, "fusion_lon": 0.0, "lon": -77.0058795, "is_disabled": 0, "type": "electric_scooter", "name": "32118f5e17ca25a96b2f49be428b8ef1", "fusion_lat": 0.0, "rental_uris": {"android": "https://dc.lft.to/lastmile_qr_scan", "ios": "https://dc.lft.to/lastmile_qr_scan"}, "bike_id": "32118f5e17ca25a96b2f49be428b8ef1", "is_reserved": 0}, {"lat": 38.887359000000004, "fusion_lon": 0.0, "lon": -77.02385083333333, "is_disabled": 0, "type": "electric_scooter", "name": "ff514ad71fcb0b5638d91816a8bbd28d", "fusion_lat": 0.0, "rental_uris": {"android": "https://dc.lft.to/lastmile_qr_scan", "ios": "https://dc.lft.to/lastmile_qr_scan"}, "bike_id": "ff514ad71fcb0b5638d91816a8bbd28d", "is_reserved": 0}, {"lat": 38.926435833333336, "fusion_lon": 0.0, "lon": -77.03478783333334, "is_disabled": 0, "type": "electric_scooter", "name": "689d9896759800190bda6f19ba4947d8", "fusion_lat": 0.0, "rental_uris": {"android": "https://dc.lft.to/lastmile_qr_scan", "ios": "https://dc.lft.to/lastmile_qr_scan"}, "bike_id": "689d9896759800190bda6f19ba4947d8", "is_reserved": 0}, {"lat": 38.85761266666667, "fusion_lon": 0.0, "lon": -76.98762233333333, "is_disabled": 0, "type": "electric_bike", "name": "ab9f9acbdd30ef99905d0604b8e5c409", "fusion_lat": 0.0, "rental_uris": {"android": "https://dc.lft.to/lastmile_qr_scan", "ios": "https://dc.lft.to/lastmile_qr_scan"}, "bike_id": "ab9f9acbdd30ef99905d0604b8e5c409", "is_reserved": 0}, {"lat": 38.9387755, "fusion_lon": 0.0, "lon": -77.0237815, "is_disabled": 0, "type": "electric_scooter", "name": "d907b1433f2d3ab6d66f3ac7e7d56005", "fusion_lat": 0.0, "rental_uris": {"android": "https://dc.lft.to/lastmile_qr_scan", "ios": "https://dc.lft.to/lastmile_qr_scan"}, "bike_id": "d907b1433f2d3ab6d66f3ac7e7d56005", "is_reserved": 0}, {"lat": 38.927917, "fusion_lon": 0.0, "lon": -77.02119233333333, "is_disabled": 0, "type": "electric_scooter", "name": "e25dff9eefeb2f667072f2036e52ff10", "fusion_lat": 0.0, "rental_uris": {"android": "https://dc.lft.to/lastmile_qr_scan", "ios": "https://dc.lft.to/lastmile_qr_scan"}, "bike_id": "e25dff9eefeb2f667072f2036e52ff10", "is_reserved": 0}, {"lat": 38.892218166666666, "fusion_lon": 0.0, "lon": -77.04502866666667, "is_disabled": 0, "type": "electric_scooter", "name": "779570cacd2b25065c882ddc5f0453ed", "fusion_lat": 0.0, "rental_uris": {"android": "https://dc.lft.to/lastmile_qr_scan", "ios": "https://dc.lft.to/lastmile_qr_scan"}, "bike_id": "779570cacd2b25065c882ddc5f0453ed", "is_reserved": 0}, {"lat": 38.90646, "fusion_lon": 0.0, "lon": -77.0414365, "is_disabled": 0, "type": "electric_scooter", "name": "e4f616727116d7c27a11499e8a81b622", "fusion_lat": 0.0, "rental_uris": {"android": "https://dc.lft.to/lastmile_qr_scan", "ios": "https://dc.lft.to/lastmile_qr_scan"}, "bike_id": "e4f616727116d7c27a11499e8a81b622", "is_reserved": 0}, {"lat": 38.8728315, "fusion_lon": 0.0, "lon": -76.9773305, "is_disabled": 0, "type": "electric_scooter", "name": "6ed275238192076e584024443301c8f8", "fusion_lat": 0.0, "rental_uris": {"android": "https://dc.lft.to/lastmile_qr_scan", "ios": "https://dc.lft.to/lastmile_qr_scan"}, "bike_id": "6ed275238192076e584024443301c8f8", "is_reserved": 0}, {"lat": 38.88769583333333, "fusion_lon": 0.0, "lon": -77.01772733333334, "is_disabled": 0, "type": "electric_scooter", "name": "b1e9a453ef4b8eb0c51bf5941dff1f0e", "fusion_lat": 0.0, "rental_uris": {"android": "https://dc.lft.to/lastmile_qr_scan", "ios": "https://dc.lft.to/lastmile_qr_scan"}, "bike_id": "b1e9a453ef4b8eb0c51bf5941dff1f0e", "is_reserved": 0}, {"lat": 38.90865383333333, "fusion_lon": 0.0, "lon": -77.04862983333334, "is_disabled": 0, "type": "electric_scooter", "name": "89e0dce13d3b60475ab1edf7491415d3", "fusion_lat": 0.0, "rental_uris": {"android": "https://dc.lft.to/lastmile_qr_scan", "ios": "https://dc.lft.to/lastmile_qr_scan"}, "bike_id": "89e0dce13d3b60475ab1edf7491415d3", "is_reserved": 0}, {"lat": 38.89220733333333, "fusion_lon": 0.0, "lon": -77.03346283333333, "is_disabled": 0, "type": "electric_scooter", "name": "b80497840e34a03b0317b31270388a93", "fusion_lat": 0.0, "rental_uris": {"android": "https://dc.lft.to/lastmile_qr_scan", "ios": "https://dc.lft.to/lastmile_qr_scan"}, "bike_id": "b80497840e34a03b0317b31270388a93", "is_reserved": 0}, {"lat": 38.922585, "fusion_lon": 0.0, "lon": -77.0703385, "is_disabled": 0, "type": "electric_scooter", "name": "82ad58111730ed494aed9e9c1c6d4464", "fusion_lat": 0.0, "rental_uris": {"android": "https://dc.lft.to/lastmile_qr_scan", "ios": "https://dc.lft.to/lastmile_qr_scan"}, "bike_id": "82ad58111730ed494aed9e9c1c6d4464", "is_reserved": 0}, {"lat": 38.926050833333335, "fusion_lon": 0.0, "lon": -77.02159883333333, "is_disabled": 0, "type": "electric_scooter", "name": "64caa55c56b75054277cbe6db0a63785", "fusion_lat": 0.0, "rental_uris": {"android": "https://dc.lft.to/lastmile_qr_scan", "ios": "https://dc.lft.to/lastmile_qr_scan"}, "bike_id": "64caa55c56b75054277cbe6db0a63785", "is_reserved": 0}, {"lat": 38.94311366666667, "fusion_lon": 0.0, "lon": -77.01732783333334, "is_disabled": 0, "type": "electric_scooter", "name": "19ca8b26bb07ef7b34eb9a4b227d7bfc", "fusion_lat": 0.0, "rental_uris": {"android": "https://dc.lft.to/lastmile_qr_scan", "ios": "https://dc.lft.to/lastmile_qr_scan"}, "bike_id": "19ca8b26bb07ef7b34eb9a4b227d7bfc", "is_reserved": 0}, {"lat": 38.8851035, "fusion_lon": 0.0, "lon": -76.997464, "is_disabled": 0, "type": "electric_scooter", "name": "db4f4fbde957a0337c92f86b4bed672e", "fusion_lat": 0.0, "rental_uris": {"android": "https://dc.lft.to/lastmile_qr_scan", "ios": "https://dc.lft.to/lastmile_qr_scan"}, "bike_id": "db4f4fbde957a0337c92f86b4bed672e", "is_reserved": 0}, {"lat": 38.89940683333333, "fusion_lon": 0.0, "lon": -77.01455566666667, "is_disabled": 0, "type": "electric_scooter", "name": "610d4c20147d996b6f8980874662d22f", "fusion_lat": 0.0, "rental_uris": {"android": "https://dc.lft.to/lastmile_qr_scan", "ios": "https://dc.lft.to/lastmile_qr_scan"}, "bike_id": "610d4c20147d996b6f8980874662d22f", "is_reserved": 0}, {"lat": 38.916926833333335, "fusion_lon": 0.0, "lon": -77.03317966666667, "is_disabled": 0, "type": "electric_scooter", "name": "c8be8a9d3992ef6dc99b52d23d159f0b", "fusion_lat": 0.0, "rental_uris": {"android": "https://dc.lft.to/lastmile_qr_scan", "ios": "https://dc.lft.to/lastmile_qr_scan"}, "bike_id": "c8be8a9d3992ef6dc99b52d23d159f0b", "is_reserved": 0}, {"lat": 38.904221166666666, "fusion_lon": 0.0, "lon": -77.0435765, "is_disabled": 0, "type": "electric_scooter", "name": "a456000b8a2f39a6941bba89d95e7ba8", "fusion_lat": 0.0, "rental_uris": {"android": "https://dc.lft.to/lastmile_qr_scan", "ios": "https://dc.lft.to/lastmile_qr_scan"}, "bike_id": "a456000b8a2f39a6941bba89d95e7ba8", "is_reserved": 0}, {"lat": 38.90638083333333, "fusion_lon": 0.0, "lon": -77.0691165, "is_disabled": 0, "type": "electric_scooter", "name": "109261812a343a5200efe16fa7893985", "fusion_lat": 0.0, "rental_uris": {"android": "https://dc.lft.to/lastmile_qr_scan", "ios": "https://dc.lft.to/lastmile_qr_scan"}, "bike_id": "109261812a343a5200efe16fa7893985", "is_reserved": 0}, {"lat": 38.900635333333334, "fusion_lon": 0.0, "lon": -77.04532916666666, "is_disabled": 0, "type": "electric_scooter", "name": "e80838f09a97a78f97194d606b23f9ef", "fusion_lat": 0.0, "rental_uris": {"android": "https://dc.lft.to/lastmile_qr_scan", "ios": "https://dc.lft.to/lastmile_qr_scan"}, "bike_id": "e80838f09a97a78f97194d606b23f9ef", "is_reserved": 0}, {"lat": 38.934263333333334, "fusion_lon": 0.0, "lon": -77.044114, "is_disabled": 0, "type": "electric_scooter", "name": "55d9a089580fed3d7174ecbb0ade36d4", "fusion_lat": 0.0, "rental_uris": {"android": "https://dc.lft.to/lastmile_qr_scan", "ios": "https://dc.lft.to/lastmile_qr_scan"}, "bike_id": "55d9a089580fed3d7174ecbb0ade36d4", "is_reserved": 0}, {"lat": 38.901480166666666, "fusion_lon": 0.0, "lon": -77.043577, "is_disabled": 0, "type": "electric_scooter", "name": "0a385425f3ffa00631e5cc7cb54a0c6c", "fusion_lat": 0.0, "rental_uris": {"android": "https://dc.lft.to/lastmile_qr_scan", "ios": "https://dc.lft.to/lastmile_qr_scan"}, "bike_id": "0a385425f3ffa00631e5cc7cb54a0c6c", "is_reserved": 0}, {"lat": 38.9222395, "fusion_lon": 0.0, "lon": -77.0366555, "is_disabled": 0, "type": "electric_scooter", "name": "cb038e1b2f8449dc29f1ec4d8775ea20", "fusion_lat": 0.0, "rental_uris": {"android": "https://dc.lft.to/lastmile_qr_scan", "ios": "https://dc.lft.to/lastmile_qr_scan"}, "bike_id": "cb038e1b2f8449dc29f1ec4d8775ea20", "is_reserved": 0}, {"lat": 38.900280333333335, "fusion_lon": 0.0, "lon": -77.01171866666667, "is_disabled": 0, "type": "electric_scooter", "name": "1cf83b13db9b7438523ac529060cbaa6", "fusion_lat": 0.0, "rental_uris": {"android": "https://dc.lft.to/lastmile_qr_scan", "ios": "https://dc.lft.to/lastmile_qr_scan"}, "bike_id": "1cf83b13db9b7438523ac529060cbaa6", "is_reserved": 0}, {"lat": 38.90431783333333, "fusion_lon": 0.0, "lon": -77.04488916666666, "is_disabled": 0, "type": "electric_scooter", "name": "bcf32b1483565459e48b891f1d2e4830", "fusion_lat": 0.0, "rental_uris": {"android": "https://dc.lft.to/lastmile_qr_scan", "ios": "https://dc.lft.to/lastmile_qr_scan"}, "bike_id": "bcf32b1483565459e48b891f1d2e4830", "is_reserved": 0}, {"lat": 38.906154, "fusion_lon": 0.0, "lon": -77.03959433333333, "is_disabled": 0, "type": "electric_scooter", "name": "e0a6dc3327a08149d4c240224bfbbe0e", "fusion_lat": 0.0, "rental_uris": {"android": "https://dc.lft.to/lastmile_qr_scan", "ios": "https://dc.lft.to/lastmile_qr_scan"}, "bike_id": "e0a6dc3327a08149d4c240224bfbbe0e", "is_reserved": 0}, {"lat": 38.89221166666667, "fusion_lon": 0.0, "lon": -77.0022125, "is_disabled": 0, "type": "electric_scooter", "name": "5b328c22d1ad8bdffefde3c798d87d46", "fusion_lat": 0.0, "rental_uris": {"android": "https://dc.lft.to/lastmile_qr_scan", "ios": "https://dc.lft.to/lastmile_qr_scan"}, "bike_id": "5b328c22d1ad8bdffefde3c798d87d46", "is_reserved": 0}, {"lat": 38.88081483333333, "fusion_lon": 0.0, "lon": -76.985163, "is_disabled": 0, "type": "electric_bike", "name": "41cd54137fe18ade1aad82d48684e586", "fusion_lat": 0.0, "rental_uris": {"android": "https://dc.lft.to/lastmile_qr_scan", "ios": "https://dc.lft.to/lastmile_qr_scan"}, "bike_id": "41cd54137fe18ade1aad82d48684e586", "is_reserved": 0}, {"lat": 38.90554816666667, "fusion_lon": 0.0, "lon": -77.05018116666666, "is_disabled": 0, "type": "electric_scooter", "name": "86132b8137d346d6254a3b89434e3717", "fusion_lat": 0.0, "rental_uris": {"android": "https://dc.lft.to/lastmile_qr_scan", "ios": "https://dc.lft.to/lastmile_qr_scan"}, "bike_id": "86132b8137d346d6254a3b89434e3717", "is_reserved": 0}, {"lat": 38.91235666666667, "fusion_lon": 0.0, "lon": -77.044866, "is_disabled": 0, "type": "electric_scooter", "name": "858856dc0487ca1bd82ddb93166c5e3a", "fusion_lat": 0.0, "rental_uris": {"android": "https://dc.lft.to/lastmile_qr_scan", "ios": "https://dc.lft.to/lastmile_qr_scan"}, "bike_id": "858856dc0487ca1bd82ddb93166c5e3a", "is_reserved": 0}, {"lat": 38.90667766666667, "fusion_lon": 0.0, "lon": -77.03862883333333, "is_disabled": 0, "type": "electric_scooter", "name": "8599df5754aa6478e69db0ec59d2bbef", "fusion_lat": 0.0, "rental_uris": {"android": "https://dc.lft.to/lastmile_qr_scan", "ios": "https://dc.lft.to/lastmile_qr_scan"}, "bike_id": "8599df5754aa6478e69db0ec59d2bbef", "is_reserved": 0}, {"lat": 38.89719066666667, "fusion_lon": 0.0, "lon": -77.00935883333334, "is_disabled": 0, "type": "electric_scooter", "name": "d656294881069fa936a85d805ebbcdf1", "fusion_lat": 0.0, "rental_uris": {"android": "https://dc.lft.to/lastmile_qr_scan", "ios": "https://dc.lft.to/lastmile_qr_scan"}, "bike_id": "d656294881069fa936a85d805ebbcdf1", "is_reserved": 0}, {"lat": 38.9226095, "fusion_lon": 0.0, "lon": -77.019582, "is_disabled": 0, "type": "electric_scooter", "name": "1d52f1a2ded47805a7ba102aa363ddbd", "fusion_lat": 0.0, "rental_uris": {"android": "https://dc.lft.to/lastmile_qr_scan", "ios": "https://dc.lft.to/lastmile_qr_scan"}, "bike_id": "1d52f1a2ded47805a7ba102aa363ddbd", "is_reserved": 0}, {"lat": 38.9169715, "fusion_lon": 0.0, "lon": -77.0322395, "is_disabled": 0, "type": "electric_scooter", "name": "260ead4d314a10be1094ca7c9ebbe556", "fusion_lat": 0.0, "rental_uris": {"android": "https://dc.lft.to/lastmile_qr_scan", "ios": "https://dc.lft.to/lastmile_qr_scan"}, "bike_id": "260ead4d314a10be1094ca7c9ebbe556", "is_reserved": 0}, {"lat": 38.909517, "fusion_lon": 0.0, "lon": -77.04259116666667, "is_disabled": 0, "type": "electric_scooter", "name": "3655ba367c31aaffc869b81900338472", "fusion_lat": 0.0, "rental_uris": {"android": "https://dc.lft.to/lastmile_qr_scan", "ios": "https://dc.lft.to/lastmile_qr_scan"}, "bike_id": "3655ba367c31aaffc869b81900338472", "is_reserved": 0}, {"lat": 38.92758033333333, "fusion_lon": 0.0, "lon": -77.02416183333334, "is_disabled": 0, "type": "electric_scooter", "name": "cba7adcbd4dcd9d723580f8b5ea32f63", "fusion_lat": 0.0, "rental_uris": {"android": "https://dc.lft.to/lastmile_qr_scan", "ios": "https://dc.lft.to/lastmile_qr_scan"}, "bike_id": "cba7adcbd4dcd9d723580f8b5ea32f63", "is_reserved": 0}, {"lat": 38.86212866666666, "fusion_lon": 0.0, "lon": -76.9947505, "is_disabled": 0, "type": "electric_scooter", "name": "e5fa48db3d40302376e4c54c687c3380", "fusion_lat": 0.0, "rental_uris": {"android": "https://dc.lft.to/lastmile_qr_scan", "ios": "https://dc.lft.to/lastmile_qr_scan"}, "bike_id": "e5fa48db3d40302376e4c54c687c3380", "is_reserved": 0}, {"lat": 38.925193166666666, "fusion_lon": 0.0, "lon": -77.050482, "is_disabled": 0, "type": "electric_scooter", "name": "c26f19dd3cd2fa77fb90ea58d7aa3b79", "fusion_lat": 0.0, "rental_uris": {"android": "https://dc.lft.to/lastmile_qr_scan", "ios": "https://dc.lft.to/lastmile_qr_scan"}, "bike_id": "c26f19dd3cd2fa77fb90ea58d7aa3b79", "is_reserved": 0}, {"lat": 38.924812, "fusion_lon": 0.0, "lon": -77.02203833333333, "is_disabled": 0, "type": "electric_scooter", "name": "2d55c791f416c54f00147143aa445cf4", "fusion_lat": 0.0, "rental_uris": {"android": "https://dc.lft.to/lastmile_qr_scan", "ios": "https://dc.lft.to/lastmile_qr_scan"}, "bike_id": "2d55c791f416c54f00147143aa445cf4", "is_reserved": 0}, {"lat": 38.885070166666665, "fusion_lon": 0.0, "lon": -76.99852283333334, "is_disabled": 0, "type": "electric_scooter", "name": "7363595c81808fbf6d41a5d2cda3dd4a", "fusion_lat": 0.0, "rental_uris": {"android": "https://dc.lft.to/lastmile_qr_scan", "ios": "https://dc.lft.to/lastmile_qr_scan"}, "bike_id": "7363595c81808fbf6d41a5d2cda3dd4a", "is_reserved": 0}, {"lat": 38.89241483333333, "fusion_lon": 0.0, "lon": -77.0416055, "is_disabled": 0, "type": "electric_scooter", "name": "073a81c9a639e65734a9f8402a230bfb", "fusion_lat": 0.0, "rental_uris": {"android": "https://dc.lft.to/lastmile_qr_scan", "ios": "https://dc.lft.to/lastmile_qr_scan"}, "bike_id": "073a81c9a639e65734a9f8402a230bfb", "is_reserved": 0}, {"lat": 38.906409333333336, "fusion_lon": 0.0, "lon": -77.048634, "is_disabled": 0, "type": "electric_scooter", "name": "c8fc0a1259eef91e53796b9007fbc359", "fusion_lat": 0.0, "rental_uris": {"android": "https://dc.lft.to/lastmile_qr_scan", "ios": "https://dc.lft.to/lastmile_qr_scan"}, "bike_id": "c8fc0a1259eef91e53796b9007fbc359", "is_reserved": 0}, {"lat": 38.852077333333334, "fusion_lon": 0.0, "lon": -77.10136416666667, "is_disabled": 0, "type": "electric_bike", "name": "3c41517e55430596ce710179990fca13", "fusion_lat": 0.0, "rental_uris": {"android": "https://dc.lft.to/lastmile_qr_scan", "ios": "https://dc.lft.to/lastmile_qr_scan"}, "bike_id": "3c41517e55430596ce710179990fca13", "is_reserved": 0}, {"lat": 38.92143266666667, "fusion_lon": 0.0, "lon": -77.03504033333333, "is_disabled": 0, "type": "electric_scooter", "name": "5735f3de3c67835bb165c4289a5e8f7a", "fusion_lat": 0.0, "rental_uris": {"android": "https://dc.lft.to/lastmile_qr_scan", "ios": "https://dc.lft.to/lastmile_qr_scan"}, "bike_id": "5735f3de3c67835bb165c4289a5e8f7a", "is_reserved": 0}, {"lat": 38.956229666666665, "fusion_lon": 0.0, "lon": -77.02460233333333, "is_disabled": 0, "type": "electric_scooter", "name": "48a926ece610b23011560c31ded74fca", "fusion_lat": 0.0, "rental_uris": {"android": "https://dc.lft.to/lastmile_qr_scan", "ios": "https://dc.lft.to/lastmile_qr_scan"}, "bike_id": "48a926ece610b23011560c31ded74fca", "is_reserved": 0}, {"lat": 38.8977935, "fusion_lon": 0.0, "lon": -77.04478966666667, "is_disabled": 0, "type": "electric_scooter", "name": "9bb22218596774c6ca781fb62de96e0b", "fusion_lat": 0.0, "rental_uris": {"android": "https://dc.lft.to/lastmile_qr_scan", "ios": "https://dc.lft.to/lastmile_qr_scan"}, "bike_id": "9bb22218596774c6ca781fb62de96e0b", "is_reserved": 0}, {"lat": 38.935683833333336, "fusion_lon": 0.0, "lon": -77.02121333333334, "is_disabled": 0, "type": "electric_scooter", "name": "f121f82e78cdf5953d095770ae5aadab", "fusion_lat": 0.0, "rental_uris": {"android": "https://dc.lft.to/lastmile_qr_scan", "ios": "https://dc.lft.to/lastmile_qr_scan"}, "bike_id": "f121f82e78cdf5953d095770ae5aadab", "is_reserved": 0}, {"lat": 38.8870825, "fusion_lon": 0.0, "lon": -77.022097, "is_disabled": 0, "type": "electric_scooter", "name": "6deb28627ceff182d13454fd7159ff8f", "fusion_lat": 0.0, "rental_uris": {"android": "https://dc.lft.to/lastmile_qr_scan", "ios": "https://dc.lft.to/lastmile_qr_scan"}, "bike_id": "6deb28627ceff182d13454fd7159ff8f", "is_reserved": 0}, {"lat": 38.89922166666667, "fusion_lon": 0.0, "lon": -76.93336683333334, "is_disabled": 0, "type": "electric_scooter", "name": "c75ad14d04c91ff4a00f2c417f382552", "fusion_lat": 0.0, "rental_uris": {"android": "https://dc.lft.to/lastmile_qr_scan", "ios": "https://dc.lft.to/lastmile_qr_scan"}, "bike_id": "c75ad14d04c91ff4a00f2c417f382552", "is_reserved": 0}, {"lat": 38.9178255, "fusion_lon": 0.0, "lon": -77.04281216666666, "is_disabled": 0, "type": "electric_scooter", "name": "a8e3f604effe789dc5571deffc41118d", "fusion_lat": 0.0, "rental_uris": {"android": "https://dc.lft.to/lastmile_qr_scan", "ios": "https://dc.lft.to/lastmile_qr_scan"}, "bike_id": "a8e3f604effe789dc5571deffc41118d", "is_reserved": 0}, {"lat": 38.9466455, "fusion_lon": 0.0, "lon": -76.98306266666667, "is_disabled": 0, "type": "electric_bike", "name": "d2a8aa2f5c049b9aba2c828f04cad99b", "fusion_lat": 0.0, "rental_uris": {"android": "https://dc.lft.to/lastmile_qr_scan", "ios": "https://dc.lft.to/lastmile_qr_scan"}, "bike_id": "d2a8aa2f5c049b9aba2c828f04cad99b", "is_reserved": 0}, {"lat": 38.902285666666664, "fusion_lon": 0.0, "lon": -77.04341516666666, "is_disabled": 0, "type": "electric_scooter", "name": "e613788ba1c135e27131b525148e0f50", "fusion_lat": 0.0, "rental_uris": {"android": "https://dc.lft.to/lastmile_qr_scan", "ios": "https://dc.lft.to/lastmile_qr_scan"}, "bike_id": "e613788ba1c135e27131b525148e0f50", "is_reserved": 0}, {"lat": 38.89366916666667, "fusion_lon": 0.0, "lon": -76.949826, "is_disabled": 0, "type": "electric_scooter", "name": "db2d76b7e0f63094411250efab9ce941", "fusion_lat": 0.0, "rental_uris": {"android": "https://dc.lft.to/lastmile_qr_scan", "ios": "https://dc.lft.to/lastmile_qr_scan"}, "bike_id": "db2d76b7e0f63094411250efab9ce941", "is_reserved": 0}, {"lat": 38.9934425, "fusion_lon": 0.0, "lon": -77.11580266666667, "is_disabled": 0, "type": "electric_bike", "name": "96237f7a169812979a8e1f64c0e1f7e1", "fusion_lat": 0.0, "rental_uris": {"android": "https://dc.lft.to/lastmile_qr_scan", "ios": "https://dc.lft.to/lastmile_qr_scan"}, "bike_id": "96237f7a169812979a8e1f64c0e1f7e1", "is_reserved": 0}, {"lat": 38.8928955, "fusion_lon": 0.0, "lon": -77.01221816666667, "is_disabled": 0, "type": "electric_scooter", "name": "0fff271824861991622b5452dfa143e9", "fusion_lat": 0.0, "rental_uris": {"android": "https://dc.lft.to/lastmile_qr_scan", "ios": "https://dc.lft.to/lastmile_qr_scan"}, "bike_id": "0fff271824861991622b5452dfa143e9", "is_reserved": 0}, {"lat": 38.92725883333333, "fusion_lon": 0.0, "lon": -77.03668916666666, "is_disabled": 0, "type": "electric_scooter", "name": "0f7d2bf61d4ba2824dd90419037c8e79", "fusion_lat": 0.0, "rental_uris": {"android": "https://dc.lft.to/lastmile_qr_scan", "ios": "https://dc.lft.to/lastmile_qr_scan"}, "bike_id": "0f7d2bf61d4ba2824dd90419037c8e79", "is_reserved": 0}, {"lat": 38.90263733333333, "fusion_lon": 0.0, "lon": -77.04616433333334, "is_disabled": 0, "type": "electric_scooter", "name": "38468d099f2ddae81e95b39851b17281", "fusion_lat": 0.0, "rental_uris": {"android": "https://dc.lft.to/lastmile_qr_scan", "ios": "https://dc.lft.to/lastmile_qr_scan"}, "bike_id": "38468d099f2ddae81e95b39851b17281", "is_reserved": 0}, {"lat": 38.899866, "fusion_lon": 0.0, "lon": -77.03172766666667, "is_disabled": 0, "type": "electric_scooter", "name": "df567a04b156b1496427d1d2579543ab", "fusion_lat": 0.0, "rental_uris": {"android": "https://dc.lft.to/lastmile_qr_scan", "ios": "https://dc.lft.to/lastmile_qr_scan"}, "bike_id": "df567a04b156b1496427d1d2579543ab", "is_reserved": 0}, {"lat": 38.917318, "fusion_lon": 0.0, "lon": -77.04154683333333, "is_disabled": 0, "type": "electric_scooter", "name": "f792ea8cb715290f18f8c4073fded87e", "fusion_lat": 0.0, "rental_uris": {"android": "https://dc.lft.to/lastmile_qr_scan", "ios": "https://dc.lft.to/lastmile_qr_scan"}, "bike_id": "f792ea8cb715290f18f8c4073fded87e", "is_reserved": 0}, {"lat": 38.8455955, "fusion_lon": 0.0, "lon": -77.06690033333334, "is_disabled": 0, "type": "electric_bike", "name": "07759698caa00f2ec9889138288e520c", "fusion_lat": 0.0, "rental_uris": {"android": "https://dc.lft.to/lastmile_qr_scan", "ios": "https://dc.lft.to/lastmile_qr_scan"}, "bike_id": "07759698caa00f2ec9889138288e520c", "is_reserved": 0}, {"lat": 38.8923645, "fusion_lon": 0.0, "lon": -77.023823, "is_disabled": 0, "type": "electric_scooter", "name": "6dbb2eadbeee1d82843a54ebde285ca2", "fusion_lat": 0.0, "rental_uris": {"android": "https://dc.lft.to/lastmile_qr_scan", "ios": "https://dc.lft.to/lastmile_qr_scan"}, "bike_id": "6dbb2eadbeee1d82843a54ebde285ca2", "is_reserved": 0}, {"lat": 38.866485833333336, "fusion_lon": 0.0, "lon": -76.9850055, "is_disabled": 0, "type": "electric_scooter", "name": "c2639156c1abb5eddd5d392882ce35fb", "fusion_lat": 0.0, "rental_uris": {"android": "https://dc.lft.to/lastmile_qr_scan", "ios": "https://dc.lft.to/lastmile_qr_scan"}, "bike_id": "c2639156c1abb5eddd5d392882ce35fb", "is_reserved": 0}, {"lat": 38.922207, "fusion_lon": 0.0, "lon": -77.04247783333334, "is_disabled": 0, "type": "electric_scooter", "name": "6768226ab769984172edd88e339fb694", "fusion_lat": 0.0, "rental_uris": {"android": "https://dc.lft.to/lastmile_qr_scan", "ios": "https://dc.lft.to/lastmile_qr_scan"}, "bike_id": "6768226ab769984172edd88e339fb694", "is_reserved": 0}, {"lat": 38.9302225, "fusion_lon": 0.0, "lon": -77.05531633333334, "is_disabled": 0, "type": "electric_scooter", "name": "7a926a58487810d890fc2b48fd294262", "fusion_lat": 0.0, "rental_uris": {"android": "https://dc.lft.to/lastmile_qr_scan", "ios": "https://dc.lft.to/lastmile_qr_scan"}, "bike_id": "7a926a58487810d890fc2b48fd294262", "is_reserved": 0}, {"lat": 38.866553333333336, "fusion_lon": 0.0, "lon": -76.98882016666667, "is_disabled": 0, "type": "electric_scooter", "name": "ad93b4f1cfe1e12e541ea0e6e2cd979b", "fusion_lat": 0.0, "rental_uris": {"android": "https://dc.lft.to/lastmile_qr_scan", "ios": "https://dc.lft.to/lastmile_qr_scan"}, "bike_id": "ad93b4f1cfe1e12e541ea0e6e2cd979b", "is_reserved": 0}, {"lat": 38.89474716666667, "fusion_lon": 0.0, "lon": -77.01078216666667, "is_disabled": 0, "type": "electric_scooter", "name": "1c523c91f22a3a59d8e2d44d7aafc66e", "fusion_lat": 0.0, "rental_uris": {"android": "https://dc.lft.to/lastmile_qr_scan", "ios": "https://dc.lft.to/lastmile_qr_scan"}, "bike_id": "1c523c91f22a3a59d8e2d44d7aafc66e", "is_reserved": 0}, {"lat": 38.834939, "fusion_lon": 0.0, "lon": -77.006848, "is_disabled": 0, "type": "electric_scooter", "name": "1ccb1c5822008cdc81b38e8b885fd286", "fusion_lat": 0.0, "rental_uris": {"android": "https://dc.lft.to/lastmile_qr_scan", "ios": "https://dc.lft.to/lastmile_qr_scan"}, "bike_id": "1ccb1c5822008cdc81b38e8b885fd286", "is_reserved": 0}, {"lat": 38.8814615, "fusion_lon": 0.0, "lon": -76.99491733333333, "is_disabled": 0, "type": "electric_scooter", "name": "f248b24736119e54c01446a722a7584d", "fusion_lat": 0.0, "rental_uris": {"android": "https://dc.lft.to/lastmile_qr_scan", "ios": "https://dc.lft.to/lastmile_qr_scan"}, "bike_id": "f248b24736119e54c01446a722a7584d", "is_reserved": 0}, {"lat": 38.89504216666667, "fusion_lon": 0.0, "lon": -76.93479216666667, "is_disabled": 0, "type": "electric_scooter", "name": "388c8224fa1b59ccc2e024fe914eda71", "fusion_lat": 0.0, "rental_uris": {"android": "https://dc.lft.to/lastmile_qr_scan", "ios": "https://dc.lft.to/lastmile_qr_scan"}, "bike_id": "388c8224fa1b59ccc2e024fe914eda71", "is_reserved": 0}, {"lat": 38.926167, "fusion_lon": 0.0, "lon": -77.04327866666667, "is_disabled": 0, "type": "electric_scooter", "name": "4356b32f9e881ae6b9f3fc8eab0702ff", "fusion_lat": 0.0, "rental_uris": {"android": "https://dc.lft.to/lastmile_qr_scan", "ios": "https://dc.lft.to/lastmile_qr_scan"}, "bike_id": "4356b32f9e881ae6b9f3fc8eab0702ff", "is_reserved": 0}, {"lat": 38.90091616666667, "fusion_lon": 0.0, "lon": -77.05740916666667, "is_disabled": 0, "type": "electric_scooter", "name": "2095376508f845fc491d41dc280cd09a", "fusion_lat": 0.0, "rental_uris": {"android": "https://dc.lft.to/lastmile_qr_scan", "ios": "https://dc.lft.to/lastmile_qr_scan"}, "bike_id": "2095376508f845fc491d41dc280cd09a", "is_reserved": 0}, {"lat": 38.93184316666667, "fusion_lon": 0.0, "lon": -77.03654016666667, "is_disabled": 0, "type": "electric_scooter", "name": "cbeacd8abb6cfb61b55c6dbea01e2311", "fusion_lat": 0.0, "rental_uris": {"android": "https://dc.lft.to/lastmile_qr_scan", "ios": "https://dc.lft.to/lastmile_qr_scan"}, "bike_id": "cbeacd8abb6cfb61b55c6dbea01e2311", "is_reserved": 0}, {"lat": 38.917087333333335, "fusion_lon": 0.0, "lon": -77.02604533333333, "is_disabled": 0, "type": "electric_scooter", "name": "efba7251faeaf013cac69ac414ebaba0", "fusion_lat": 0.0, "rental_uris": {"android": "https://dc.lft.to/lastmile_qr_scan", "ios": "https://dc.lft.to/lastmile_qr_scan"}, "bike_id": "efba7251faeaf013cac69ac414ebaba0", "is_reserved": 0}, {"lat": 38.892382833333336, "fusion_lon": 0.0, "lon": -77.027752, "is_disabled": 0, "type": "electric_scooter", "name": "415eb1efa2993d0113d5fd337832fd63", "fusion_lat": 0.0, "rental_uris": {"android": "https://dc.lft.to/lastmile_qr_scan", "ios": "https://dc.lft.to/lastmile_qr_scan"}, "bike_id": "415eb1efa2993d0113d5fd337832fd63", "is_reserved": 0}, {"lat": 38.8987795, "fusion_lon": 0.0, "lon": -77.03970583333333, "is_disabled": 0, "type": "electric_scooter", "name": "852c84738967ae2fd5c3fad6613bb37f", "fusion_lat": 0.0, "rental_uris": {"android": "https://dc.lft.to/lastmile_qr_scan", "ios": "https://dc.lft.to/lastmile_qr_scan"}, "bike_id": "852c84738967ae2fd5c3fad6613bb37f", "is_reserved": 0}, {"lat": 38.837812166666666, "fusion_lon": 0.0, "lon": -76.99760366666666, "is_disabled": 0, "type": "electric_bike", "name": "d28323f0293478cef8e3f96b9ce754c2", "fusion_lat": 0.0, "rental_uris": {"android": "https://dc.lft.to/lastmile_qr_scan", "ios": "https://dc.lft.to/lastmile_qr_scan"}, "bike_id": "d28323f0293478cef8e3f96b9ce754c2", "is_reserved": 0}, {"lat": 38.90179166666667, "fusion_lon": 0.0, "lon": -76.928686, "is_disabled": 0, "type": "electric_scooter", "name": "3627221a2cb0d1e85188e52bfb7bbfaa", "fusion_lat": 0.0, "rental_uris": {"android": "https://dc.lft.to/lastmile_qr_scan", "ios": "https://dc.lft.to/lastmile_qr_scan"}, "bike_id": "3627221a2cb0d1e85188e52bfb7bbfaa", "is_reserved": 0}, {"lat": 38.90251716666667, "fusion_lon": 0.0, "lon": -77.0390265, "is_disabled": 0, "type": "electric_scooter", "name": "3675fba041aee309df42e3c56ad4071d", "fusion_lat": 0.0, "rental_uris": {"android": "https://dc.lft.to/lastmile_qr_scan", "ios": "https://dc.lft.to/lastmile_qr_scan"}, "bike_id": "3675fba041aee309df42e3c56ad4071d", "is_reserved": 0}, {"lat": 38.905577, "fusion_lon": 0.0, "lon": -77.047183, "is_disabled": 0, "type": "electric_scooter", "name": "68b280c25e8b5b1dc9c0cc82dbc5dd4a", "fusion_lat": 0.0, "rental_uris": {"android": "https://dc.lft.to/lastmile_qr_scan", "ios": "https://dc.lft.to/lastmile_qr_scan"}, "bike_id": "68b280c25e8b5b1dc9c0cc82dbc5dd4a", "is_reserved": 0}, {"lat": 38.92286383333333, "fusion_lon": 0.0, "lon": -77.07317516666667, "is_disabled": 0, "type": "electric_scooter", "name": "8e5cf21223c663694c89021a27bff7ef", "fusion_lat": 0.0, "rental_uris": {"android": "https://dc.lft.to/lastmile_qr_scan", "ios": "https://dc.lft.to/lastmile_qr_scan"}, "bike_id": "8e5cf21223c663694c89021a27bff7ef", "is_reserved": 0}, {"lat": 38.911805, "fusion_lon": 0.0, "lon": -77.03525833333333, "is_disabled": 0, "type": "electric_scooter", "name": "ff2c4c6a46a684f1cb466b5148ad788a", "fusion_lat": 0.0, "rental_uris": {"android": "https://dc.lft.to/lastmile_qr_scan", "ios": "https://dc.lft.to/lastmile_qr_scan"}, "bike_id": "ff2c4c6a46a684f1cb466b5148ad788a", "is_reserved": 0}, {"lat": 38.84992866666666, "fusion_lon": 0.0, "lon": -76.98345483333334, "is_disabled": 0, "type": "electric_scooter", "name": "e12e98a302b3b9df9f34cc6d2a5bea1f", "fusion_lat": 0.0, "rental_uris": {"android": "https://dc.lft.to/lastmile_qr_scan", "ios": "https://dc.lft.to/lastmile_qr_scan"}, "bike_id": "e12e98a302b3b9df9f34cc6d2a5bea1f", "is_reserved": 0}, {"lat": 38.906936333333334, "fusion_lon": 0.0, "lon": -77.0715715, "is_disabled": 0, "type": "electric_scooter", "name": "218212a9a41cf0f49c3ee876bb2254ab", "fusion_lat": 0.0, "rental_uris": {"android": "https://dc.lft.to/lastmile_qr_scan", "ios": "https://dc.lft.to/lastmile_qr_scan"}, "bike_id": "218212a9a41cf0f49c3ee876bb2254ab", "is_reserved": 0}, {"lat": 38.9059125, "fusion_lon": 0.0, "lon": -77.02205933333333, "is_disabled": 0, "type": "electric_scooter", "name": "5e14610144c6c92663fd547f73050634", "fusion_lat": 0.0, "rental_uris": {"android": "https://dc.lft.to/lastmile_qr_scan", "ios": "https://dc.lft.to/lastmile_qr_scan"}, "bike_id": "5e14610144c6c92663fd547f73050634", "is_reserved": 0}, {"lat": 38.90880033333333, "fusion_lon": 0.0, "lon": -76.9986565, "is_disabled": 0, "type": "electric_scooter", "name": "346828c954d082838404da71bc46f622", "fusion_lat": 0.0, "rental_uris": {"android": "https://dc.lft.to/lastmile_qr_scan", "ios": "https://dc.lft.to/lastmile_qr_scan"}, "bike_id": "346828c954d082838404da71bc46f622", "is_reserved": 0}, {"lat": 38.86213716666666, "fusion_lon": 0.0, "lon": -76.9947905, "is_disabled": 0, "type": "electric_scooter", "name": "ac18074dd8d1e13b8d4a18de60c28ab7", "fusion_lat": 0.0, "rental_uris": {"android": "https://dc.lft.to/lastmile_qr_scan", "ios": "https://dc.lft.to/lastmile_qr_scan"}, "bike_id": "ac18074dd8d1e13b8d4a18de60c28ab7", "is_reserved": 0}, {"lat": 38.940768, "fusion_lon": 0.0, "lon": -77.02548466666667, "is_disabled": 0, "type": "electric_scooter", "name": "31ac604605f767e8c7e7a209f609ec98", "fusion_lat": 0.0, "rental_uris": {"android": "https://dc.lft.to/lastmile_qr_scan", "ios": "https://dc.lft.to/lastmile_qr_scan"}, "bike_id": "31ac604605f767e8c7e7a209f609ec98", "is_reserved": 0}, {"lat": 38.900876, "fusion_lon": 0.0, "lon": -77.02028366666667, "is_disabled": 0, "type": "electric_scooter", "name": "76e8e36bf817364a991d155b92c04df5", "fusion_lat": 0.0, "rental_uris": {"android": "https://dc.lft.to/lastmile_qr_scan", "ios": "https://dc.lft.to/lastmile_qr_scan"}, "bike_id": "76e8e36bf817364a991d155b92c04df5", "is_reserved": 0}, {"lat": 38.916227, "fusion_lon": 0.0, "lon": -77.03182016666666, "is_disabled": 0, "type": "electric_scooter", "name": "f5da73348e4ac7cb8aaadd4e53c5de44", "fusion_lat": 0.0, "rental_uris": {"android": "https://dc.lft.to/lastmile_qr_scan", "ios": "https://dc.lft.to/lastmile_qr_scan"}, "bike_id": "f5da73348e4ac7cb8aaadd4e53c5de44", "is_reserved": 0}, {"lat": 38.87152433333333, "fusion_lon": 0.0, "lon": -76.977304, "is_disabled": 0, "type": "electric_scooter", "name": "e63a720a6265cbfb38a9ab850d263360", "fusion_lat": 0.0, "rental_uris": {"android": "https://dc.lft.to/lastmile_qr_scan", "ios": "https://dc.lft.to/lastmile_qr_scan"}, "bike_id": "e63a720a6265cbfb38a9ab850d263360", "is_reserved": 0}, {"lat": 38.906259666666664, "fusion_lon": 0.0, "lon": -77.00583516666667, "is_disabled": 0, "type": "electric_scooter", "name": "a77b6ccaef9d055f876e6340e1eef530", "fusion_lat": 0.0, "rental_uris": {"android": "https://dc.lft.to/lastmile_qr_scan", "ios": "https://dc.lft.to/lastmile_qr_scan"}, "bike_id": "a77b6ccaef9d055f876e6340e1eef530", "is_reserved": 0}, {"lat": 38.9138625, "fusion_lon": 0.0, "lon": -77.03315816666667, "is_disabled": 0, "type": "electric_scooter", "name": "5b4bdccf5399f14499dc682a8b6c5c15", "fusion_lat": 0.0, "rental_uris": {"android": "https://dc.lft.to/lastmile_qr_scan", "ios": "https://dc.lft.to/lastmile_qr_scan"}, "bike_id": "5b4bdccf5399f14499dc682a8b6c5c15", "is_reserved": 0}, {"lat": 38.8999385, "fusion_lon": 0.0, "lon": -77.03176233333333, "is_disabled": 0, "type": "electric_scooter", "name": "06b98133498882e00c632c9acfae18d0", "fusion_lat": 0.0, "rental_uris": {"android": "https://dc.lft.to/lastmile_qr_scan", "ios": "https://dc.lft.to/lastmile_qr_scan"}, "bike_id": "06b98133498882e00c632c9acfae18d0", "is_reserved": 0}, {"lat": 38.942161666666664, "fusion_lon": 0.0, "lon": -77.025021, "is_disabled": 0, "type": "electric_scooter", "name": "37d86453039c96e1a10ebf495ad20cfa", "fusion_lat": 0.0, "rental_uris": {"android": "https://dc.lft.to/lastmile_qr_scan", "ios": "https://dc.lft.to/lastmile_qr_scan"}, "bike_id": "37d86453039c96e1a10ebf495ad20cfa", "is_reserved": 0}, {"lat": 38.936746166666666, "fusion_lon": 0.0, "lon": -77.03413266666666, "is_disabled": 0, "type": "electric_scooter", "name": "a7ad1fc016a5e174e3a7a686ac25dc97", "fusion_lat": 0.0, "rental_uris": {"android": "https://dc.lft.to/lastmile_qr_scan", "ios": "https://dc.lft.to/lastmile_qr_scan"}, "bike_id": "a7ad1fc016a5e174e3a7a686ac25dc97", "is_reserved": 0}, {"lat": 38.9305665, "fusion_lon": 0.0, "lon": -77.03812033333334, "is_disabled": 0, "type": "electric_scooter", "name": "45323dff011ef52533aaf5c2dff72c21", "fusion_lat": 0.0, "rental_uris": {"android": "https://dc.lft.to/lastmile_qr_scan", "ios": "https://dc.lft.to/lastmile_qr_scan"}, "bike_id": "45323dff011ef52533aaf5c2dff72c21", "is_reserved": 0}, {"lat": 38.920471666666664, "fusion_lon": 0.0, "lon": -76.9894845, "is_disabled": 0, "type": "electric_scooter", "name": "28eade5082e964db2e7d677bd154d624", "fusion_lat": 0.0, "rental_uris": {"android": "https://dc.lft.to/lastmile_qr_scan", "ios": "https://dc.lft.to/lastmile_qr_scan"}, "bike_id": "28eade5082e964db2e7d677bd154d624", "is_reserved": 0}, {"lat": 38.926901666666666, "fusion_lon": 0.0, "lon": -77.02298883333333, "is_disabled": 0, "type": "electric_scooter", "name": "1ac42d6dee1f1b6ebc9798b86ffb1597", "fusion_lat": 0.0, "rental_uris": {"android": "https://dc.lft.to/lastmile_qr_scan", "ios": "https://dc.lft.to/lastmile_qr_scan"}, "bike_id": "1ac42d6dee1f1b6ebc9798b86ffb1597", "is_reserved": 0}, {"lat": 38.82955183333333, "fusion_lon": 0.0, "lon": -77.1235315, "is_disabled": 0, "type": "electric_bike", "name": "ceaefdb2c95e818ac47096d81ba45e19", "fusion_lat": 0.0, "rental_uris": {"android": "https://dc.lft.to/lastmile_qr_scan", "ios": "https://dc.lft.to/lastmile_qr_scan"}, "bike_id": "ceaefdb2c95e818ac47096d81ba45e19", "is_reserved": 0}, {"lat": 38.927501666666664, "fusion_lon": 0.0, "lon": -77.02151933333333, "is_disabled": 0, "type": "electric_scooter", "name": "5ab1638095e173aac5e3e4a20309fc14", "fusion_lat": 0.0, "rental_uris": {"android": "https://dc.lft.to/lastmile_qr_scan", "ios": "https://dc.lft.to/lastmile_qr_scan"}, "bike_id": "5ab1638095e173aac5e3e4a20309fc14", "is_reserved": 0}, {"lat": 38.899558166666665, "fusion_lon": 0.0, "lon": -77.04125616666667, "is_disabled": 0, "type": "electric_scooter", "name": "e621bab01ef3d6b55814664628f630e9", "fusion_lat": 0.0, "rental_uris": {"android": "https://dc.lft.to/lastmile_qr_scan", "ios": "https://dc.lft.to/lastmile_qr_scan"}, "bike_id": "e621bab01ef3d6b55814664628f630e9", "is_reserved": 0}, {"lat": 38.926131833333336, "fusion_lon": 0.0, "lon": -77.0216415, "is_disabled": 0, "type": "electric_scooter", "name": "6c56b5ae5812d3d2118c3b4a5f16c31e", "fusion_lat": 0.0, "rental_uris": {"android": "https://dc.lft.to/lastmile_qr_scan", "ios": "https://dc.lft.to/lastmile_qr_scan"}, "bike_id": "6c56b5ae5812d3d2118c3b4a5f16c31e", "is_reserved": 0}, {"lat": 38.9267895, "fusion_lon": 0.0, "lon": -77.0149365, "is_disabled": 0, "type": "electric_scooter", "name": "2767cb6c38876036efa9f03c243fee72", "fusion_lat": 0.0, "rental_uris": {"android": "https://dc.lft.to/lastmile_qr_scan", "ios": "https://dc.lft.to/lastmile_qr_scan"}, "bike_id": "2767cb6c38876036efa9f03c243fee72", "is_reserved": 0}, {"lat": 38.92639, "fusion_lon": 0.0, "lon": -77.03471383333333, "is_disabled": 0, "type": "electric_scooter", "name": "1869e5afdc31ce7e563975ccf804aafa", "fusion_lat": 0.0, "rental_uris": {"android": "https://dc.lft.to/lastmile_qr_scan", "ios": "https://dc.lft.to/lastmile_qr_scan"}, "bike_id": "1869e5afdc31ce7e563975ccf804aafa", "is_reserved": 0}, {"lat": 38.899934333333334, "fusion_lon": 0.0, "lon": -77.03387966666666, "is_disabled": 0, "type": "electric_bike", "name": "7c3cbf4c6597608cdae09c225cc53686", "fusion_lat": 0.0, "rental_uris": {"android": "https://dc.lft.to/lastmile_qr_scan", "ios": "https://dc.lft.to/lastmile_qr_scan"}, "bike_id": "7c3cbf4c6597608cdae09c225cc53686", "is_reserved": 0}, {"lat": 38.92341566666666, "fusion_lon": 0.0, "lon": -77.019063, "is_disabled": 0, "type": "electric_scooter", "name": "a72e5e8974553333b5ab8ea0e5ede92a", "fusion_lat": 0.0, "rental_uris": {"android": "https://dc.lft.to/lastmile_qr_scan", "ios": "https://dc.lft.to/lastmile_qr_scan"}, "bike_id": "a72e5e8974553333b5ab8ea0e5ede92a", "is_reserved": 0}, {"lat": 38.8812265, "fusion_lon": 0.0, "lon": -76.99008833333333, "is_disabled": 0, "type": "electric_scooter", "name": "0c9c097fa0f22ae6a4f4065567e01476", "fusion_lat": 0.0, "rental_uris": {"android": "https://dc.lft.to/lastmile_qr_scan", "ios": "https://dc.lft.to/lastmile_qr_scan"}, "bike_id": "0c9c097fa0f22ae6a4f4065567e01476", "is_reserved": 0}, {"lat": 38.9106505, "fusion_lon": 0.0, "lon": -77.05315933333333, "is_disabled": 0, "type": "electric_scooter", "name": "162bd209f7950bc9df8869d662c38f3f", "fusion_lat": 0.0, "rental_uris": {"android": "https://dc.lft.to/lastmile_qr_scan", "ios": "https://dc.lft.to/lastmile_qr_scan"}, "bike_id": "162bd209f7950bc9df8869d662c38f3f", "is_reserved": 0}, {"lat": 38.902486833333334, "fusion_lon": 0.0, "lon": -77.03468366666667, "is_disabled": 0, "type": "electric_scooter", "name": "76d20ba5a5f8535c505478df5eaceea6", "fusion_lat": 0.0, "rental_uris": {"android": "https://dc.lft.to/lastmile_qr_scan", "ios": "https://dc.lft.to/lastmile_qr_scan"}, "bike_id": "76d20ba5a5f8535c505478df5eaceea6", "is_reserved": 0}, {"lat": 38.96726983333333, "fusion_lon": 0.0, "lon": -77.01857566666666, "is_disabled": 0, "type": "electric_scooter", "name": "bee993902e10a9fd317f2de31b37fdf1", "fusion_lat": 0.0, "rental_uris": {"android": "https://dc.lft.to/lastmile_qr_scan", "ios": "https://dc.lft.to/lastmile_qr_scan"}, "bike_id": "bee993902e10a9fd317f2de31b37fdf1", "is_reserved": 0}, {"lat": 38.906598, "fusion_lon": 0.0, "lon": -77.0480685, "is_disabled": 0, "type": "electric_scooter", "name": "c5043d248cfb6e9fac14699d552e0a29", "fusion_lat": 0.0, "rental_uris": {"android": "https://dc.lft.to/lastmile_qr_scan", "ios": "https://dc.lft.to/lastmile_qr_scan"}, "bike_id": "c5043d248cfb6e9fac14699d552e0a29", "is_reserved": 0}, {"lat": 38.892465666666666, "fusion_lon": 0.0, "lon": -77.01723533333333, "is_disabled": 0, "type": "electric_scooter", "name": "83837e6de03d329c2becd86f0712987c", "fusion_lat": 0.0, "rental_uris": {"android": "https://dc.lft.to/lastmile_qr_scan", "ios": "https://dc.lft.to/lastmile_qr_scan"}, "bike_id": "83837e6de03d329c2becd86f0712987c", "is_reserved": 0}, {"lat": 38.87330683333333, "fusion_lon": 0.0, "lon": -77.1061475, "is_disabled": 0, "type": "electric_bike", "name": "9a326cfd87cd4bd6a4703e76e2e51cab", "fusion_lat": 0.0, "rental_uris": {"android": "https://dc.lft.to/lastmile_qr_scan", "ios": "https://dc.lft.to/lastmile_qr_scan"}, "bike_id": "9a326cfd87cd4bd6a4703e76e2e51cab", "is_reserved": 0}, {"lat": 38.89362083333333, "fusion_lon": 0.0, "lon": -77.00342466666666, "is_disabled": 0, "type": "electric_scooter", "name": "a0e06c25f0b593ba1b574802c771e57e", "fusion_lat": 0.0, "rental_uris": {"android": "https://dc.lft.to/lastmile_qr_scan", "ios": "https://dc.lft.to/lastmile_qr_scan"}, "bike_id": "a0e06c25f0b593ba1b574802c771e57e", "is_reserved": 0}, {"lat": 38.91876466666667, "fusion_lon": 0.0, "lon": -77.02969866666666, "is_disabled": 0, "type": "electric_scooter", "name": "cbaed3d326282f8cc654dc98ddc71f68", "fusion_lat": 0.0, "rental_uris": {"android": "https://dc.lft.to/lastmile_qr_scan", "ios": "https://dc.lft.to/lastmile_qr_scan"}, "bike_id": "cbaed3d326282f8cc654dc98ddc71f68", "is_reserved": 0}, {"lat": 38.937379666666665, "fusion_lon": 0.0, "lon": -77.03618383333334, "is_disabled": 0, "type": "electric_scooter", "name": "39a6656bc376e83c99edc6ba1f5108f4", "fusion_lat": 0.0, "rental_uris": {"android": "https://dc.lft.to/lastmile_qr_scan", "ios": "https://dc.lft.to/lastmile_qr_scan"}, "bike_id": "39a6656bc376e83c99edc6ba1f5108f4", "is_reserved": 0}, {"lat": 39.056332833333336, "fusion_lon": 0.0, "lon": -77.12529416666666, "is_disabled": 0, "type": "electric_bike", "name": "6b0fb774e39104d19570408bca57cc55", "fusion_lat": 0.0, "rental_uris": {"android": "https://dc.lft.to/lastmile_qr_scan", "ios": "https://dc.lft.to/lastmile_qr_scan"}, "bike_id": "6b0fb774e39104d19570408bca57cc55", "is_reserved": 0}, {"lat": 38.92216366666667, "fusion_lon": 0.0, "lon": -77.0221275, "is_disabled": 0, "type": "electric_scooter", "name": "cb93294497006a4075e1c555d3663095", "fusion_lat": 0.0, "rental_uris": {"android": "https://dc.lft.to/lastmile_qr_scan", "ios": "https://dc.lft.to/lastmile_qr_scan"}, "bike_id": "cb93294497006a4075e1c555d3663095", "is_reserved": 0}, {"lat": 38.9011105, "fusion_lon": 0.0, "lon": -77.05005266666667, "is_disabled": 0, "type": "electric_scooter", "name": "9cccf029de8007913922000ebb2af350", "fusion_lat": 0.0, "rental_uris": {"android": "https://dc.lft.to/lastmile_qr_scan", "ios": "https://dc.lft.to/lastmile_qr_scan"}, "bike_id": "9cccf029de8007913922000ebb2af350", "is_reserved": 0}, {"lat": 38.8875405, "fusion_lon": 0.0, "lon": -76.98681516666667, "is_disabled": 0, "type": "electric_scooter", "name": "1075be5cd8c0fcb7adc834bb22e431db", "fusion_lat": 0.0, "rental_uris": {"android": "https://dc.lft.to/lastmile_qr_scan", "ios": "https://dc.lft.to/lastmile_qr_scan"}, "bike_id": "1075be5cd8c0fcb7adc834bb22e431db", "is_reserved": 0}, {"lat": 38.918827666666665, "fusion_lon": 0.0, "lon": -77.02964666666666, "is_disabled": 0, "type": "electric_scooter", "name": "d68cd27f9b127917eb5621ed1d30684a", "fusion_lat": 0.0, "rental_uris": {"android": "https://dc.lft.to/lastmile_qr_scan", "ios": "https://dc.lft.to/lastmile_qr_scan"}, "bike_id": "d68cd27f9b127917eb5621ed1d30684a", "is_reserved": 0}, {"lat": 38.94506966666667, "fusion_lon": 0.0, "lon": -77.07455116666667, "is_disabled": 0, "type": "electric_scooter", "name": "8197dfccc45a6873057daba8d9cff0b9", "fusion_lat": 0.0, "rental_uris": {"android": "https://dc.lft.to/lastmile_qr_scan", "ios": "https://dc.lft.to/lastmile_qr_scan"}, "bike_id": "8197dfccc45a6873057daba8d9cff0b9", "is_reserved": 0}, {"lat": 38.84313433333333, "fusion_lon": 0.0, "lon": -76.99933066666667, "is_disabled": 0, "type": "electric_scooter", "name": "849015537aaf5eed4edf08cc26eb8b43", "fusion_lat": 0.0, "rental_uris": {"android": "https://dc.lft.to/lastmile_qr_scan", "ios": "https://dc.lft.to/lastmile_qr_scan"}, "bike_id": "849015537aaf5eed4edf08cc26eb8b43", "is_reserved": 0}, {"lat": 38.904776166666664, "fusion_lon": 0.0, "lon": -77.03853733333334, "is_disabled": 0, "type": "electric_scooter", "name": "36d9f487ff3aa5e2c88c33cda6efd380", "fusion_lat": 0.0, "rental_uris": {"android": "https://dc.lft.to/lastmile_qr_scan", "ios": "https://dc.lft.to/lastmile_qr_scan"}, "bike_id": "36d9f487ff3aa5e2c88c33cda6efd380", "is_reserved": 0}, {"lat": 38.895028333333336, "fusion_lon": 0.0, "lon": -76.934726, "is_disabled": 0, "type": "electric_scooter", "name": "8861b32140a616afe016830cc04ed71c", "fusion_lat": 0.0, "rental_uris": {"android": "https://dc.lft.to/lastmile_qr_scan", "ios": "https://dc.lft.to/lastmile_qr_scan"}, "bike_id": "8861b32140a616afe016830cc04ed71c", "is_reserved": 0}, {"lat": 38.892481333333336, "fusion_lon": 0.0, "lon": -77.01722933333333, "is_disabled": 0, "type": "electric_scooter", "name": "fa437d24a16fb0e91c9152786f6b12d2", "fusion_lat": 0.0, "rental_uris": {"android": "https://dc.lft.to/lastmile_qr_scan", "ios": "https://dc.lft.to/lastmile_qr_scan"}, "bike_id": "fa437d24a16fb0e91c9152786f6b12d2", "is_reserved": 0}, {"lat": 38.90606283333334, "fusion_lon": 0.0, "lon": -77.0411625, "is_disabled": 0, "type": "electric_scooter", "name": "c1c9a3447174b00ef948eb16e7a1299e", "fusion_lat": 0.0, "rental_uris": {"android": "https://dc.lft.to/lastmile_qr_scan", "ios": "https://dc.lft.to/lastmile_qr_scan"}, "bike_id": "c1c9a3447174b00ef948eb16e7a1299e", "is_reserved": 0}, {"lat": 38.936029166666664, "fusion_lon": 0.0, "lon": -77.02922, "is_disabled": 0, "type": "electric_scooter", "name": "39e94d9740c11e905ba6b49ae5ac55cc", "fusion_lat": 0.0, "rental_uris": {"android": "https://dc.lft.to/lastmile_qr_scan", "ios": "https://dc.lft.to/lastmile_qr_scan"}, "bike_id": "39e94d9740c11e905ba6b49ae5ac55cc", "is_reserved": 0}, {"lat": 38.8985305, "fusion_lon": 0.0, "lon": -77.02857766666666, "is_disabled": 0, "type": "electric_scooter", "name": "030da7e9b9de1de37be927c55f8fda34", "fusion_lat": 0.0, "rental_uris": {"android": "https://dc.lft.to/lastmile_qr_scan", "ios": "https://dc.lft.to/lastmile_qr_scan"}, "bike_id": "030da7e9b9de1de37be927c55f8fda34", "is_reserved": 0}, {"lat": 38.844274166666665, "fusion_lon": 0.0, "lon": -76.99782066666667, "is_disabled": 0, "type": "electric_scooter", "name": "6747da3bf338a9c6b0d559e6a1f69ace", "fusion_lat": 0.0, "rental_uris": {"android": "https://dc.lft.to/lastmile_qr_scan", "ios": "https://dc.lft.to/lastmile_qr_scan"}, "bike_id": "6747da3bf338a9c6b0d559e6a1f69ace", "is_reserved": 0}, {"lat": 38.919144833333334, "fusion_lon": 0.0, "lon": -77.04469133333333, "is_disabled": 0, "type": "electric_scooter", "name": "07795396c902f45154ef752ceadbafb3", "fusion_lat": 0.0, "rental_uris": {"android": "https://dc.lft.to/lastmile_qr_scan", "ios": "https://dc.lft.to/lastmile_qr_scan"}, "bike_id": "07795396c902f45154ef752ceadbafb3", "is_reserved": 0}, {"lat": 38.9089515, "fusion_lon": 0.0, "lon": -77.04148733333334, "is_disabled": 0, "type": "electric_scooter", "name": "5c013e568b609cd12e129ea9aa65d7d0", "fusion_lat": 0.0, "rental_uris": {"android": "https://dc.lft.to/lastmile_qr_scan", "ios": "https://dc.lft.to/lastmile_qr_scan"}, "bike_id": "5c013e568b609cd12e129ea9aa65d7d0", "is_reserved": 0}, {"lat": 38.918089, "fusion_lon": 0.0, "lon": -77.03028116666667, "is_disabled": 0, "type": "electric_scooter", "name": "ce13d3f4a61b6f03dd669aecd3e4157c", "fusion_lat": 0.0, "rental_uris": {"android": "https://dc.lft.to/lastmile_qr_scan", "ios": "https://dc.lft.to/lastmile_qr_scan"}, "bike_id": "ce13d3f4a61b6f03dd669aecd3e4157c", "is_reserved": 0}, {"lat": 38.9110525, "fusion_lon": 0.0, "lon": -77.0218125, "is_disabled": 0, "type": "electric_scooter", "name": "dd5be934b84bc983c28d1ddea568c2b9", "fusion_lat": 0.0, "rental_uris": {"android": "https://dc.lft.to/lastmile_qr_scan", "ios": "https://dc.lft.to/lastmile_qr_scan"}, "bike_id": "dd5be934b84bc983c28d1ddea568c2b9", "is_reserved": 0}, {"lat": 38.83699433333334, "fusion_lon": 0.0, "lon": -77.00571883333333, "is_disabled": 0, "type": "electric_scooter", "name": "e787fb1033993326be1aed4d534abeaf", "fusion_lat": 0.0, "rental_uris": {"android": "https://dc.lft.to/lastmile_qr_scan", "ios": "https://dc.lft.to/lastmile_qr_scan"}, "bike_id": "e787fb1033993326be1aed4d534abeaf", "is_reserved": 0}, {"lat": 38.94110216666667, "fusion_lon": 0.0, "lon": -77.0153005, "is_disabled": 0, "type": "electric_scooter", "name": "548e45855e3abe319bc4fb8bcc773086", "fusion_lat": 0.0, "rental_uris": {"android": "https://dc.lft.to/lastmile_qr_scan", "ios": "https://dc.lft.to/lastmile_qr_scan"}, "bike_id": "548e45855e3abe319bc4fb8bcc773086", "is_reserved": 0}, {"lat": 38.9051335, "fusion_lon": 0.0, "lon": -77.06142516666667, "is_disabled": 0, "type": "electric_scooter", "name": "5ef11c98d782456a0b8006677183e85f", "fusion_lat": 0.0, "rental_uris": {"android": "https://dc.lft.to/lastmile_qr_scan", "ios": "https://dc.lft.to/lastmile_qr_scan"}, "bike_id": "5ef11c98d782456a0b8006677183e85f", "is_reserved": 0}, {"lat": 38.887493166666665, "fusion_lon": 0.0, "lon": -77.033641, "is_disabled": 0, "type": "electric_scooter", "name": "10fe04f993e356e8970f094ab6f05020", "fusion_lat": 0.0, "rental_uris": {"android": "https://dc.lft.to/lastmile_qr_scan", "ios": "https://dc.lft.to/lastmile_qr_scan"}, "bike_id": "10fe04f993e356e8970f094ab6f05020", "is_reserved": 0}, {"lat": 38.98161016666667, "fusion_lon": 0.0, "lon": -77.02658833333334, "is_disabled": 0, "type": "electric_bike", "name": "a57bb2ae499a2c68db17f04438ccaab6", "fusion_lat": 0.0, "rental_uris": {"android": "https://dc.lft.to/lastmile_qr_scan", "ios": "https://dc.lft.to/lastmile_qr_scan"}, "bike_id": "a57bb2ae499a2c68db17f04438ccaab6", "is_reserved": 0}, {"lat": 38.922578333333334, "fusion_lon": 0.0, "lon": -77.03527316666667, "is_disabled": 0, "type": "electric_scooter", "name": "18230970bfcbb7fe8ebac75db6b1fdb1", "fusion_lat": 0.0, "rental_uris": {"android": "https://dc.lft.to/lastmile_qr_scan", "ios": "https://dc.lft.to/lastmile_qr_scan"}, "bike_id": "18230970bfcbb7fe8ebac75db6b1fdb1", "is_reserved": 0}, {"lat": 38.9696075, "fusion_lon": 0.0, "lon": -76.957492, "is_disabled": 0, "type": "electric_bike", "name": "c8e63b473a4008faa0a606b4feeea291", "fusion_lat": 0.0, "rental_uris": {"android": "https://dc.lft.to/lastmile_qr_scan", "ios": "https://dc.lft.to/lastmile_qr_scan"}, "bike_id": "c8e63b473a4008faa0a606b4feeea291", "is_reserved": 0}, {"lat": 38.883979833333335, "fusion_lon": 0.0, "lon": -77.01779533333334, "is_disabled": 0, "type": "electric_scooter", "name": "a38e251e413f8ee8a55eb6ecb7fa97cd", "fusion_lat": 0.0, "rental_uris": {"android": "https://dc.lft.to/lastmile_qr_scan", "ios": "https://dc.lft.to/lastmile_qr_scan"}, "bike_id": "a38e251e413f8ee8a55eb6ecb7fa97cd", "is_reserved": 0}, {"lat": 38.9225405, "fusion_lon": 0.0, "lon": -77.03059883333333, "is_disabled": 0, "type": "electric_scooter", "name": "aa850458122c3e36445ea5f34cc87d76", "fusion_lat": 0.0, "rental_uris": {"android": "https://dc.lft.to/lastmile_qr_scan", "ios": "https://dc.lft.to/lastmile_qr_scan"}, "bike_id": "aa850458122c3e36445ea5f34cc87d76", "is_reserved": 0}, {"lat": 38.90235966666667, "fusion_lon": 0.0, "lon": -77.0282255, "is_disabled": 0, "type": "electric_scooter", "name": "36fb2bf23a8925caf887b4ff8ecd8b66", "fusion_lat": 0.0, "rental_uris": {"android": "https://dc.lft.to/lastmile_qr_scan", "ios": "https://dc.lft.to/lastmile_qr_scan"}, "bike_id": "36fb2bf23a8925caf887b4ff8ecd8b66", "is_reserved": 0}, {"lat": 38.8601765, "fusion_lon": 0.0, "lon": -76.985169, "is_disabled": 0, "type": "electric_scooter", "name": "9394847b87122618aeb2624fb6d3a988", "fusion_lat": 0.0, "rental_uris": {"android": "https://dc.lft.to/lastmile_qr_scan", "ios": "https://dc.lft.to/lastmile_qr_scan"}, "bike_id": "9394847b87122618aeb2624fb6d3a988", "is_reserved": 0}, {"lat": 38.92754583333333, "fusion_lon": 0.0, "lon": -77.03278183333333, "is_disabled": 0, "type": "electric_scooter", "name": "18f9889852ac8b36dced231cf6b602c7", "fusion_lat": 0.0, "rental_uris": {"android": "https://dc.lft.to/lastmile_qr_scan", "ios": "https://dc.lft.to/lastmile_qr_scan"}, "bike_id": "18f9889852ac8b36dced231cf6b602c7", "is_reserved": 0}, {"lat": 38.89977666666667, "fusion_lon": 0.0, "lon": -77.006664, "is_disabled": 0, "type": "electric_scooter", "name": "dd1f6c47a5b52857b9a51f723ace44b7", "fusion_lat": 0.0, "rental_uris": {"android": "https://dc.lft.to/lastmile_qr_scan", "ios": "https://dc.lft.to/lastmile_qr_scan"}, "bike_id": "dd1f6c47a5b52857b9a51f723ace44b7", "is_reserved": 0}, {"lat": 38.904833333333336, "fusion_lon": 0.0, "lon": -77.04662716666667, "is_disabled": 0, "type": "electric_scooter", "name": "57b3ace8da83e69b74313f456685fbbd", "fusion_lat": 0.0, "rental_uris": {"android": "https://dc.lft.to/lastmile_qr_scan", "ios": "https://dc.lft.to/lastmile_qr_scan"}, "bike_id": "57b3ace8da83e69b74313f456685fbbd", "is_reserved": 0}, {"lat": 38.9168955, "fusion_lon": 0.0, "lon": -77.025977, "is_disabled": 0, "type": "electric_scooter", "name": "f6bff79fca611abe7c8185b2f193e0c5", "fusion_lat": 0.0, "rental_uris": {"android": "https://dc.lft.to/lastmile_qr_scan", "ios": "https://dc.lft.to/lastmile_qr_scan"}, "bike_id": "f6bff79fca611abe7c8185b2f193e0c5", "is_reserved": 0}, {"lat": 38.9051385, "fusion_lon": 0.0, "lon": -77.04820833333333, "is_disabled": 0, "type": "electric_scooter", "name": "746d419c2d786ec39b3498946c8d6cf8", "fusion_lat": 0.0, "rental_uris": {"android": "https://dc.lft.to/lastmile_qr_scan", "ios": "https://dc.lft.to/lastmile_qr_scan"}, "bike_id": "746d419c2d786ec39b3498946c8d6cf8", "is_reserved": 0}, {"lat": 38.9293565, "fusion_lon": 0.0, "lon": -77.03276116666666, "is_disabled": 0, "type": "electric_scooter", "name": "f9c1d441b188b841cb2b2caed5817a6c", "fusion_lat": 0.0, "rental_uris": {"android": "https://dc.lft.to/lastmile_qr_scan", "ios": "https://dc.lft.to/lastmile_qr_scan"}, "bike_id": "f9c1d441b188b841cb2b2caed5817a6c", "is_reserved": 0}, {"lat": 38.921668, "fusion_lon": 0.0, "lon": -77.03821516666666, "is_disabled": 0, "type": "electric_scooter", "name": "f97ca80a632e173b3f4f35ecfe5fe1b8", "fusion_lat": 0.0, "rental_uris": {"android": "https://dc.lft.to/lastmile_qr_scan", "ios": "https://dc.lft.to/lastmile_qr_scan"}, "bike_id": "f97ca80a632e173b3f4f35ecfe5fe1b8", "is_reserved": 0}, {"lat": 38.899147666666664, "fusion_lon": 0.0, "lon": -76.933805, "is_disabled": 0, "type": "electric_scooter", "name": "675904b87c46c321e91734ca9413f88d", "fusion_lat": 0.0, "rental_uris": {"android": "https://dc.lft.to/lastmile_qr_scan", "ios": "https://dc.lft.to/lastmile_qr_scan"}, "bike_id": "675904b87c46c321e91734ca9413f88d", "is_reserved": 0}, {"lat": 38.8991345, "fusion_lon": 0.0, "lon": -76.93387133333333, "is_disabled": 0, "type": "electric_scooter", "name": "cc393e68f03a66a395e2f2d327380c0a", "fusion_lat": 0.0, "rental_uris": {"android": "https://dc.lft.to/lastmile_qr_scan", "ios": "https://dc.lft.to/lastmile_qr_scan"}, "bike_id": "cc393e68f03a66a395e2f2d327380c0a", "is_reserved": 0}, {"lat": 38.91555566666667, "fusion_lon": 0.0, "lon": -77.03132816666667, "is_disabled": 0, "type": "electric_scooter", "name": "9f8883c7214b4684dfd7f4138c378bc0", "fusion_lat": 0.0, "rental_uris": {"android": "https://dc.lft.to/lastmile_qr_scan", "ios": "https://dc.lft.to/lastmile_qr_scan"}, "bike_id": "9f8883c7214b4684dfd7f4138c378bc0", "is_reserved": 0}, {"lat": 38.89249483333333, "fusion_lon": 0.0, "lon": -77.04668633333333, "is_disabled": 0, "type": "electric_scooter", "name": "9c2f8a1480620c5110b2509edaa27798", "fusion_lat": 0.0, "rental_uris": {"android": "https://dc.lft.to/lastmile_qr_scan", "ios": "https://dc.lft.to/lastmile_qr_scan"}, "bike_id": "9c2f8a1480620c5110b2509edaa27798", "is_reserved": 0}, {"lat": 38.8921845, "fusion_lon": 0.0, "lon": -77.023539, "is_disabled": 0, "type": "electric_scooter", "name": "6984f795602d1d121065b7ed16cebd4e", "fusion_lat": 0.0, "rental_uris": {"android": "https://dc.lft.to/lastmile_qr_scan", "ios": "https://dc.lft.to/lastmile_qr_scan"}, "bike_id": "6984f795602d1d121065b7ed16cebd4e", "is_reserved": 0}, {"lat": 38.92680166666667, "fusion_lon": 0.0, "lon": -77.0299685, "is_disabled": 0, "type": "electric_scooter", "name": "8d32f6c16763c04379d1799e329e678b", "fusion_lat": 0.0, "rental_uris": {"android": "https://dc.lft.to/lastmile_qr_scan", "ios": "https://dc.lft.to/lastmile_qr_scan"}, "bike_id": "8d32f6c16763c04379d1799e329e678b", "is_reserved": 0}, {"lat": 38.88302733333333, "fusion_lon": 0.0, "lon": -76.97869133333333, "is_disabled": 0, "type": "electric_scooter", "name": "f67b991fc6b54daddc88d37fc3ff7529", "fusion_lat": 0.0, "rental_uris": {"android": "https://dc.lft.to/lastmile_qr_scan", "ios": "https://dc.lft.to/lastmile_qr_scan"}, "bike_id": "f67b991fc6b54daddc88d37fc3ff7529", "is_reserved": 0}, {"lat": 39.0629585, "fusion_lon": 0.0, "lon": -77.04986933333333, "is_disabled": 0, "type": "electric_bike", "name": "4d9dc634c7ea60b801daf98d56094da6", "fusion_lat": 0.0, "rental_uris": {"android": "https://dc.lft.to/lastmile_qr_scan", "ios": "https://dc.lft.to/lastmile_qr_scan"}, "bike_id": "4d9dc634c7ea60b801daf98d56094da6", "is_reserved": 0}, {"lat": 38.903492166666666, "fusion_lon": 0.0, "lon": -77.02816066666666, "is_disabled": 0, "type": "electric_scooter", "name": "4f8ebaa1e38969a60db0d6c83d6d6280", "fusion_lat": 0.0, "rental_uris": {"android": "https://dc.lft.to/lastmile_qr_scan", "ios": "https://dc.lft.to/lastmile_qr_scan"}, "bike_id": "4f8ebaa1e38969a60db0d6c83d6d6280", "is_reserved": 0}, {"lat": 38.89958433333334, "fusion_lon": 0.0, "lon": -77.05001833333333, "is_disabled": 0, "type": "electric_scooter", "name": "4a0be10bba2784d704e41458c16d9a1d", "fusion_lat": 0.0, "rental_uris": {"android": "https://dc.lft.to/lastmile_qr_scan", "ios": "https://dc.lft.to/lastmile_qr_scan"}, "bike_id": "4a0be10bba2784d704e41458c16d9a1d", "is_reserved": 0}, {"lat": 38.924033333333334, "fusion_lon": 0.0, "lon": -77.05178966666666, "is_disabled": 0, "type": "electric_scooter", "name": "41e6d800cb4222d91fed73ba012f30a2", "fusion_lat": 0.0, "rental_uris": {"android": "https://dc.lft.to/lastmile_qr_scan", "ios": "https://dc.lft.to/lastmile_qr_scan"}, "bike_id": "41e6d800cb4222d91fed73ba012f30a2", "is_reserved": 0}, {"lat": 38.8934195, "fusion_lon": 0.0, "lon": -77.04640366666666, "is_disabled": 0, "type": "electric_scooter", "name": "23ee8a82fe8b3717649f419ebc1c16bf", "fusion_lat": 0.0, "rental_uris": {"android": "https://dc.lft.to/lastmile_qr_scan", "ios": "https://dc.lft.to/lastmile_qr_scan"}, "bike_id": "23ee8a82fe8b3717649f419ebc1c16bf", "is_reserved": 0}, {"lat": 38.90646533333334, "fusion_lon": 0.0, "lon": -77.04819283333333, "is_disabled": 0, "type": "electric_scooter", "name": "995c0390d9dc896e6a21c9108d9da56b", "fusion_lat": 0.0, "rental_uris": {"android": "https://dc.lft.to/lastmile_qr_scan", "ios": "https://dc.lft.to/lastmile_qr_scan"}, "bike_id": "995c0390d9dc896e6a21c9108d9da56b", "is_reserved": 0}, {"lat": 38.9036585, "fusion_lon": 0.0, "lon": -77.04486783333333, "is_disabled": 0, "type": "electric_scooter", "name": "7b47d22821cab3379085a73698a30f45", "fusion_lat": 0.0, "rental_uris": {"android": "https://dc.lft.to/lastmile_qr_scan", "ios": "https://dc.lft.to/lastmile_qr_scan"}, "bike_id": "7b47d22821cab3379085a73698a30f45", "is_reserved": 0}, {"lat": 38.9117885, "fusion_lon": 0.0, "lon": -77.03818633333333, "is_disabled": 0, "type": "electric_scooter", "name": "a406383e73efe55c6c9a1c426545ca5e", "fusion_lat": 0.0, "rental_uris": {"android": "https://dc.lft.to/lastmile_qr_scan", "ios": "https://dc.lft.to/lastmile_qr_scan"}, "bike_id": "a406383e73efe55c6c9a1c426545ca5e", "is_reserved": 0}, {"lat": 38.887058, "fusion_lon": 0.0, "lon": -77.01370866666667, "is_disabled": 0, "type": "electric_scooter", "name": "403194c69fb62133cd369514d95d505f", "fusion_lat": 0.0, "rental_uris": {"android": "https://dc.lft.to/lastmile_qr_scan", "ios": "https://dc.lft.to/lastmile_qr_scan"}, "bike_id": "403194c69fb62133cd369514d95d505f", "is_reserved": 0}, {"lat": 39.02433116666667, "fusion_lon": 0.0, "lon": -77.13102816666667, "is_disabled": 0, "type": "electric_bike", "name": "4c926d76590b9c9b099f856924a2f292", "fusion_lat": 0.0, "rental_uris": {"android": "https://dc.lft.to/lastmile_qr_scan", "ios": "https://dc.lft.to/lastmile_qr_scan"}, "bike_id": "4c926d76590b9c9b099f856924a2f292", "is_reserved": 0}, {"lat": 38.910477666666665, "fusion_lon": 0.0, "lon": -77.04372333333333, "is_disabled": 0, "type": "electric_scooter", "name": "5d9132481021c9269b9a93fdac1d8469", "fusion_lat": 0.0, "rental_uris": {"android": "https://dc.lft.to/lastmile_qr_scan", "ios": "https://dc.lft.to/lastmile_qr_scan"}, "bike_id": "5d9132481021c9269b9a93fdac1d8469", "is_reserved": 0}, {"lat": 38.86446216666667, "fusion_lon": 0.0, "lon": -76.97757116666666, "is_disabled": 0, "type": "electric_scooter", "name": "1119e6c9e0d46198b02b160ad6b6cca2", "fusion_lat": 0.0, "rental_uris": {"android": "https://dc.lft.to/lastmile_qr_scan", "ios": "https://dc.lft.to/lastmile_qr_scan"}, "bike_id": "1119e6c9e0d46198b02b160ad6b6cca2", "is_reserved": 0}, {"lat": 38.88316116666667, "fusion_lon": 0.0, "lon": -77.01759966666667, "is_disabled": 0, "type": "electric_scooter", "name": "8ceb5bdc62b82842387f057d7438b102", "fusion_lat": 0.0, "rental_uris": {"android": "https://dc.lft.to/lastmile_qr_scan", "ios": "https://dc.lft.to/lastmile_qr_scan"}, "bike_id": "8ceb5bdc62b82842387f057d7438b102", "is_reserved": 0}, {"lat": 38.9276935, "fusion_lon": 0.0, "lon": -77.02782333333333, "is_disabled": 0, "type": "electric_scooter", "name": "3d5da246566109480c50b76993b06a2c", "fusion_lat": 0.0, "rental_uris": {"android": "https://dc.lft.to/lastmile_qr_scan", "ios": "https://dc.lft.to/lastmile_qr_scan"}, "bike_id": "3d5da246566109480c50b76993b06a2c", "is_reserved": 0}, {"lat": 38.918437, "fusion_lon": 0.0, "lon": -76.96559333333333, "is_disabled": 0, "type": "electric_scooter", "name": "3221956bb69cea275379942ade719952", "fusion_lat": 0.0, "rental_uris": {"android": "https://dc.lft.to/lastmile_qr_scan", "ios": "https://dc.lft.to/lastmile_qr_scan"}, "bike_id": "3221956bb69cea275379942ade719952", "is_reserved": 0}, {"lat": 38.94781566666666, "fusion_lon": 0.0, "lon": -76.97212016666667, "is_disabled": 0, "type": "electric_bike", "name": "67945d1d2aa745aa3dbe5a4e315cbc67", "fusion_lat": 0.0, "rental_uris": {"android": "https://dc.lft.to/lastmile_qr_scan", "ios": "https://dc.lft.to/lastmile_qr_scan"}, "bike_id": "67945d1d2aa745aa3dbe5a4e315cbc67", "is_reserved": 0}, {"lat": 38.92234083333334, "fusion_lon": 0.0, "lon": -77.023333, "is_disabled": 0, "type": "electric_scooter", "name": "6c9385e34fbfaaa41c7f52e748643a16", "fusion_lat": 0.0, "rental_uris": {"android": "https://dc.lft.to/lastmile_qr_scan", "ios": "https://dc.lft.to/lastmile_qr_scan"}, "bike_id": "6c9385e34fbfaaa41c7f52e748643a16", "is_reserved": 0}, {"lat": 38.91955333333333, "fusion_lon": 0.0, "lon": -77.02388516666667, "is_disabled": 0, "type": "electric_scooter", "name": "70a3eb0607bba5c1497afd61183b6a9e", "fusion_lat": 0.0, "rental_uris": {"android": "https://dc.lft.to/lastmile_qr_scan", "ios": "https://dc.lft.to/lastmile_qr_scan"}, "bike_id": "70a3eb0607bba5c1497afd61183b6a9e", "is_reserved": 0}, {"lat": 38.923101833333334, "fusion_lon": 0.0, "lon": -77.04459133333333, "is_disabled": 0, "type": "electric_scooter", "name": "3167bae6d2afae220f4c949b4ec556b9", "fusion_lat": 0.0, "rental_uris": {"android": "https://dc.lft.to/lastmile_qr_scan", "ios": "https://dc.lft.to/lastmile_qr_scan"}, "bike_id": "3167bae6d2afae220f4c949b4ec556b9", "is_reserved": 0}, {"lat": 38.874629, "fusion_lon": 0.0, "lon": -77.00963616666667, "is_disabled": 0, "type": "electric_scooter", "name": "49539a1bc2a7b49ca8316021bf82bd0f", "fusion_lat": 0.0, "rental_uris": {"android": "https://dc.lft.to/lastmile_qr_scan", "ios": "https://dc.lft.to/lastmile_qr_scan"}, "bike_id": "49539a1bc2a7b49ca8316021bf82bd0f", "is_reserved": 0}, {"lat": 38.903041, "fusion_lon": 0.0, "lon": -77.05899833333334, "is_disabled": 0, "type": "electric_scooter", "name": "643b97c5c856fede068f7ad2dc49feea", "fusion_lat": 0.0, "rental_uris": {"android": "https://dc.lft.to/lastmile_qr_scan", "ios": "https://dc.lft.to/lastmile_qr_scan"}, "bike_id": "643b97c5c856fede068f7ad2dc49feea", "is_reserved": 0}, {"lat": 38.9032655, "fusion_lon": 0.0, "lon": -77.0434875, "is_disabled": 0, "type": "electric_scooter", "name": "e69f38e75f201e4ba19a90a825178231", "fusion_lat": 0.0, "rental_uris": {"android": "https://dc.lft.to/lastmile_qr_scan", "ios": "https://dc.lft.to/lastmile_qr_scan"}, "bike_id": "e69f38e75f201e4ba19a90a825178231", "is_reserved": 0}, {"lat": 38.9199165, "fusion_lon": 0.0, "lon": -77.03220383333333, "is_disabled": 0, "type": "electric_scooter", "name": "97a63b511297885a4c0fb0b434d7f827", "fusion_lat": 0.0, "rental_uris": {"android": "https://dc.lft.to/lastmile_qr_scan", "ios": "https://dc.lft.to/lastmile_qr_scan"}, "bike_id": "97a63b511297885a4c0fb0b434d7f827", "is_reserved": 0}, {"lat": 38.920550666666664, "fusion_lon": 0.0, "lon": -77.02869016666666, "is_disabled": 0, "type": "electric_scooter", "name": "bc0a1779699ff6230a44300f9e1ff478", "fusion_lat": 0.0, "rental_uris": {"android": "https://dc.lft.to/lastmile_qr_scan", "ios": "https://dc.lft.to/lastmile_qr_scan"}, "bike_id": "bc0a1779699ff6230a44300f9e1ff478", "is_reserved": 0}, {"lat": 38.877308666666664, "fusion_lon": 0.0, "lon": -76.9810725, "is_disabled": 0, "type": "electric_bike", "name": "babb70bad1e9e45a48145bd6aec1246e", "fusion_lat": 0.0, "rental_uris": {"android": "https://dc.lft.to/lastmile_qr_scan", "ios": "https://dc.lft.to/lastmile_qr_scan"}, "bike_id": "babb70bad1e9e45a48145bd6aec1246e", "is_reserved": 0}, {"lat": 38.93459883333333, "fusion_lon": 0.0, "lon": -77.05782816666667, "is_disabled": 0, "type": "electric_scooter", "name": "16986966f65f8fbdd9dd569f99b924cb", "fusion_lat": 0.0, "rental_uris": {"android": "https://dc.lft.to/lastmile_qr_scan", "ios": "https://dc.lft.to/lastmile_qr_scan"}, "bike_id": "16986966f65f8fbdd9dd569f99b924cb", "is_reserved": 0}, {"lat": 38.8605745, "fusion_lon": 0.0, "lon": -76.9842235, "is_disabled": 0, "type": "electric_scooter", "name": "37c8c7920bd2190f48fd898c6c40789f", "fusion_lat": 0.0, "rental_uris": {"android": "https://dc.lft.to/lastmile_qr_scan", "ios": "https://dc.lft.to/lastmile_qr_scan"}, "bike_id": "37c8c7920bd2190f48fd898c6c40789f", "is_reserved": 0}, {"lat": 38.984368833333335, "fusion_lon": 0.0, "lon": -77.09683266666667, "is_disabled": 0, "type": "electric_bike", "name": "2cd55977a8125a9360bd737eae5d78f2", "fusion_lat": 0.0, "rental_uris": {"android": "https://dc.lft.to/lastmile_qr_scan", "ios": "https://dc.lft.to/lastmile_qr_scan"}, "bike_id": "2cd55977a8125a9360bd737eae5d78f2", "is_reserved": 0}, {"lat": 38.8804445, "fusion_lon": 0.0, "lon": -77.019912, "is_disabled": 0, "type": "electric_scooter", "name": "832f9533ed1fd617b47447bde6addd5e", "fusion_lat": 0.0, "rental_uris": {"android": "https://dc.lft.to/lastmile_qr_scan", "ios": "https://dc.lft.to/lastmile_qr_scan"}, "bike_id": "832f9533ed1fd617b47447bde6addd5e", "is_reserved": 0}, {"lat": 38.946622166666664, "fusion_lon": 0.0, "lon": -77.00602366666666, "is_disabled": 0, "type": "electric_scooter", "name": "9f18758cef62ee97798687d8a0f11960", "fusion_lat": 0.0, "rental_uris": {"android": "https://dc.lft.to/lastmile_qr_scan", "ios": "https://dc.lft.to/lastmile_qr_scan"}, "bike_id": "9f18758cef62ee97798687d8a0f11960", "is_reserved": 0}, {"lat": 38.922857, "fusion_lon": 0.0, "lon": -77.02134333333333, "is_disabled": 0, "type": "electric_scooter", "name": "488b1b2b25c21e0a829c2a54aa14e6aa", "fusion_lat": 0.0, "rental_uris": {"android": "https://dc.lft.to/lastmile_qr_scan", "ios": "https://dc.lft.to/lastmile_qr_scan"}, "bike_id": "488b1b2b25c21e0a829c2a54aa14e6aa", "is_reserved": 0}, {"lat": 38.89840516666667, "fusion_lon": 0.0, "lon": -76.94640966666667, "is_disabled": 0, "type": "electric_scooter", "name": "ec99419ee46cf22123bdfe1d80d3bcfa", "fusion_lat": 0.0, "rental_uris": {"android": "https://dc.lft.to/lastmile_qr_scan", "ios": "https://dc.lft.to/lastmile_qr_scan"}, "bike_id": "ec99419ee46cf22123bdfe1d80d3bcfa", "is_reserved": 0}, {"lat": 38.892207666666664, "fusion_lon": 0.0, "lon": -77.0468255, "is_disabled": 0, "type": "electric_scooter", "name": "a0f6999b933303a7f618d07e6ad96065", "fusion_lat": 0.0, "rental_uris": {"android": "https://dc.lft.to/lastmile_qr_scan", "ios": "https://dc.lft.to/lastmile_qr_scan"}, "bike_id": "a0f6999b933303a7f618d07e6ad96065", "is_reserved": 0}, {"lat": 38.9156965, "fusion_lon": 0.0, "lon": -77.03788983333334, "is_disabled": 0, "type": "electric_scooter", "name": "f21fb8e93f652ede0087853a796b6ab6", "fusion_lat": 0.0, "rental_uris": {"android": "https://dc.lft.to/lastmile_qr_scan", "ios": "https://dc.lft.to/lastmile_qr_scan"}, "bike_id": "f21fb8e93f652ede0087853a796b6ab6", "is_reserved": 0}, {"lat": 38.893151833333334, "fusion_lon": 0.0, "lon": -77.049992, "is_disabled": 0, "type": "electric_scooter", "name": "4877febe98ef6aabd51ca9e29e896a3a", "fusion_lat": 0.0, "rental_uris": {"android": "https://dc.lft.to/lastmile_qr_scan", "ios": "https://dc.lft.to/lastmile_qr_scan"}, "bike_id": "4877febe98ef6aabd51ca9e29e896a3a", "is_reserved": 0}, {"lat": 38.90150583333333, "fusion_lon": 0.0, "lon": -77.04464466666667, "is_disabled": 0, "type": "electric_scooter", "name": "12f6e62191fe1575cd849f2e81d3e497", "fusion_lat": 0.0, "rental_uris": {"android": "https://dc.lft.to/lastmile_qr_scan", "ios": "https://dc.lft.to/lastmile_qr_scan"}, "bike_id": "12f6e62191fe1575cd849f2e81d3e497", "is_reserved": 0}, {"lat": 38.890174333333334, "fusion_lon": 0.0, "lon": -76.936987, "is_disabled": 0, "type": "electric_scooter", "name": "e96b918585c9ae329f6fd251504c6da7", "fusion_lat": 0.0, "rental_uris": {"android": "https://dc.lft.to/lastmile_qr_scan", "ios": "https://dc.lft.to/lastmile_qr_scan"}, "bike_id": "e96b918585c9ae329f6fd251504c6da7", "is_reserved": 0}, {"lat": 38.89217416666666, "fusion_lon": 0.0, "lon": -77.02350216666666, "is_disabled": 0, "type": "electric_scooter", "name": "a6d42b163f9e5a8e36ce11a0d773738c", "fusion_lat": 0.0, "rental_uris": {"android": "https://dc.lft.to/lastmile_qr_scan", "ios": "https://dc.lft.to/lastmile_qr_scan"}, "bike_id": "a6d42b163f9e5a8e36ce11a0d773738c", "is_reserved": 0}, {"lat": 38.90028916666667, "fusion_lon": 0.0, "lon": -77.00220933333334, "is_disabled": 0, "type": "electric_scooter", "name": "8085bf65cacba5cd75d7130c52a6ae83", "fusion_lat": 0.0, "rental_uris": {"android": "https://dc.lft.to/lastmile_qr_scan", "ios": "https://dc.lft.to/lastmile_qr_scan"}, "bike_id": "8085bf65cacba5cd75d7130c52a6ae83", "is_reserved": 0}, {"lat": 38.892739666666664, "fusion_lon": 0.0, "lon": -77.031765, "is_disabled": 0, "type": "electric_scooter", "name": "b0639cf0377750a6f4343ccf89198ee1", "fusion_lat": 0.0, "rental_uris": {"android": "https://dc.lft.to/lastmile_qr_scan", "ios": "https://dc.lft.to/lastmile_qr_scan"}, "bike_id": "b0639cf0377750a6f4343ccf89198ee1", "is_reserved": 0}, {"lat": 38.916907333333334, "fusion_lon": 0.0, "lon": -77.025984, "is_disabled": 0, "type": "electric_scooter", "name": "7d086c5fe865952d01212ec273160274", "fusion_lat": 0.0, "rental_uris": {"android": "https://dc.lft.to/lastmile_qr_scan", "ios": "https://dc.lft.to/lastmile_qr_scan"}, "bike_id": "7d086c5fe865952d01212ec273160274", "is_reserved": 0}, {"lat": 38.869386666666664, "fusion_lon": 0.0, "lon": -77.0946865, "is_disabled": 0, "type": "electric_bike", "name": "64ef44d92faa311fc4433da6ef8ac09b", "fusion_lat": 0.0, "rental_uris": {"android": "https://dc.lft.to/lastmile_qr_scan", "ios": "https://dc.lft.to/lastmile_qr_scan"}, "bike_id": "64ef44d92faa311fc4433da6ef8ac09b", "is_reserved": 0}, {"lat": 38.90357016666667, "fusion_lon": 0.0, "lon": -77.00726666666667, "is_disabled": 0, "type": "electric_scooter", "name": "bfb1e6395f3c510cd2023207d17e2f12", "fusion_lat": 0.0, "rental_uris": {"android": "https://dc.lft.to/lastmile_qr_scan", "ios": "https://dc.lft.to/lastmile_qr_scan"}, "bike_id": "bfb1e6395f3c510cd2023207d17e2f12", "is_reserved": 0}, {"lat": 38.871954833333334, "fusion_lon": 0.0, "lon": -77.00569966666667, "is_disabled": 0, "type": "electric_scooter", "name": "195cd248c80dc740a009f6ad65b8e51a", "fusion_lat": 0.0, "rental_uris": {"android": "https://dc.lft.to/lastmile_qr_scan", "ios": "https://dc.lft.to/lastmile_qr_scan"}, "bike_id": "195cd248c80dc740a009f6ad65b8e51a", "is_reserved": 0}, {"lat": 38.9183255, "fusion_lon": 0.0, "lon": -77.03156466666667, "is_disabled": 0, "type": "electric_scooter", "name": "0f3121cac9787ab12a3af29f09ed549e", "fusion_lat": 0.0, "rental_uris": {"android": "https://dc.lft.to/lastmile_qr_scan", "ios": "https://dc.lft.to/lastmile_qr_scan"}, "bike_id": "0f3121cac9787ab12a3af29f09ed549e", "is_reserved": 0}, {"lat": 38.90151616666667, "fusion_lon": 0.0, "lon": -77.0319205, "is_disabled": 0, "type": "electric_scooter", "name": "6dab6f1e22347c48bb96227d0918be3a", "fusion_lat": 0.0, "rental_uris": {"android": "https://dc.lft.to/lastmile_qr_scan", "ios": "https://dc.lft.to/lastmile_qr_scan"}, "bike_id": "6dab6f1e22347c48bb96227d0918be3a", "is_reserved": 0}, {"lat": 38.9115705, "fusion_lon": 0.0, "lon": -77.07268333333333, "is_disabled": 0, "type": "electric_scooter", "name": "f22b23a6f51cb78dcf5da7092da171eb", "fusion_lat": 0.0, "rental_uris": {"android": "https://dc.lft.to/lastmile_qr_scan", "ios": "https://dc.lft.to/lastmile_qr_scan"}, "bike_id": "f22b23a6f51cb78dcf5da7092da171eb", "is_reserved": 0}, {"lat": 38.90919616666667, "fusion_lon": 0.0, "lon": -77.03120333333334, "is_disabled": 0, "type": "electric_scooter", "name": "07cd68bc8b907d15f8390aae3b609668", "fusion_lat": 0.0, "rental_uris": {"android": "https://dc.lft.to/lastmile_qr_scan", "ios": "https://dc.lft.to/lastmile_qr_scan"}, "bike_id": "07cd68bc8b907d15f8390aae3b609668", "is_reserved": 0}, {"lat": 38.924342333333335, "fusion_lon": 0.0, "lon": -77.02140533333333, "is_disabled": 0, "type": "electric_scooter", "name": "efad42fcc83dd231a06a21d98dc9d5bb", "fusion_lat": 0.0, "rental_uris": {"android": "https://dc.lft.to/lastmile_qr_scan", "ios": "https://dc.lft.to/lastmile_qr_scan"}, "bike_id": "efad42fcc83dd231a06a21d98dc9d5bb", "is_reserved": 0}, {"lat": 38.905379, "fusion_lon": 0.0, "lon": -77.05001916666667, "is_disabled": 0, "type": "electric_scooter", "name": "b023c185e6e558348cd202f9346c0cd4", "fusion_lat": 0.0, "rental_uris": {"android": "https://dc.lft.to/lastmile_qr_scan", "ios": "https://dc.lft.to/lastmile_qr_scan"}, "bike_id": "b023c185e6e558348cd202f9346c0cd4", "is_reserved": 0}, {"lat": 38.894176, "fusion_lon": 0.0, "lon": -77.02417783333334, "is_disabled": 0, "type": "electric_scooter", "name": "da5ac3667c54750911fc620a92c756c1", "fusion_lat": 0.0, "rental_uris": {"android": "https://dc.lft.to/lastmile_qr_scan", "ios": "https://dc.lft.to/lastmile_qr_scan"}, "bike_id": "da5ac3667c54750911fc620a92c756c1", "is_reserved": 0}, {"lat": 38.9281235, "fusion_lon": 0.0, "lon": -77.05454716666667, "is_disabled": 0, "type": "electric_scooter", "name": "94fd9279614a199fefcb2f66747beb03", "fusion_lat": 0.0, "rental_uris": {"android": "https://dc.lft.to/lastmile_qr_scan", "ios": "https://dc.lft.to/lastmile_qr_scan"}, "bike_id": "94fd9279614a199fefcb2f66747beb03", "is_reserved": 0}, {"lat": 38.94978416666667, "fusion_lon": 0.0, "lon": -77.02709866666666, "is_disabled": 0, "type": "electric_scooter", "name": "5552ac27ef98d7471062e0af8fe0c588", "fusion_lat": 0.0, "rental_uris": {"android": "https://dc.lft.to/lastmile_qr_scan", "ios": "https://dc.lft.to/lastmile_qr_scan"}, "bike_id": "5552ac27ef98d7471062e0af8fe0c588", "is_reserved": 0}, {"lat": 38.90547766666667, "fusion_lon": 0.0, "lon": -77.00580633333334, "is_disabled": 0, "type": "electric_scooter", "name": "cc316fb3a4c9310fb8a3f270882e7fbf", "fusion_lat": 0.0, "rental_uris": {"android": "https://dc.lft.to/lastmile_qr_scan", "ios": "https://dc.lft.to/lastmile_qr_scan"}, "bike_id": "cc316fb3a4c9310fb8a3f270882e7fbf", "is_reserved": 0}, {"lat": 38.866602666666665, "fusion_lon": 0.0, "lon": -76.9849795, "is_disabled": 0, "type": "electric_scooter", "name": "b21a1daaedac92fa4523f1d74e3b9414", "fusion_lat": 0.0, "rental_uris": {"android": "https://dc.lft.to/lastmile_qr_scan", "ios": "https://dc.lft.to/lastmile_qr_scan"}, "bike_id": "b21a1daaedac92fa4523f1d74e3b9414", "is_reserved": 0}, {"lat": 38.98283766666667, "fusion_lon": 0.0, "lon": -77.02595033333333, "is_disabled": 0, "type": "electric_scooter", "name": "08c49d14a067f37b52a47efc6a70487d", "fusion_lat": 0.0, "rental_uris": {"android": "https://dc.lft.to/lastmile_qr_scan", "ios": "https://dc.lft.to/lastmile_qr_scan"}, "bike_id": "08c49d14a067f37b52a47efc6a70487d", "is_reserved": 0}, {"lat": 38.898298, "fusion_lon": 0.0, "lon": -77.00761933333334, "is_disabled": 0, "type": "electric_scooter", "name": "229dccb29904947f8723ec8a614c2f17", "fusion_lat": 0.0, "rental_uris": {"android": "https://dc.lft.to/lastmile_qr_scan", "ios": "https://dc.lft.to/lastmile_qr_scan"}, "bike_id": "229dccb29904947f8723ec8a614c2f17", "is_reserved": 0}, {"lat": 38.900385666666665, "fusion_lon": 0.0, "lon": -76.98054516666667, "is_disabled": 0, "type": "electric_scooter", "name": "76d46907ed4ca1931abe951d7e86ff00", "fusion_lat": 0.0, "rental_uris": {"android": "https://dc.lft.to/lastmile_qr_scan", "ios": "https://dc.lft.to/lastmile_qr_scan"}, "bike_id": "76d46907ed4ca1931abe951d7e86ff00", "is_reserved": 0}, {"lat": 38.86515216666667, "fusion_lon": 0.0, "lon": -76.97334166666667, "is_disabled": 0, "type": "electric_bike", "name": "962f35d4c3e31d317a766262d06a1635", "fusion_lat": 0.0, "rental_uris": {"android": "https://dc.lft.to/lastmile_qr_scan", "ios": "https://dc.lft.to/lastmile_qr_scan"}, "bike_id": "962f35d4c3e31d317a766262d06a1635", "is_reserved": 0}, {"lat": 38.94175633333333, "fusion_lon": 0.0, "lon": -77.02558233333333, "is_disabled": 0, "type": "electric_scooter", "name": "3e3ba1d447f1853662bd2d666fb03b1b", "fusion_lat": 0.0, "rental_uris": {"android": "https://dc.lft.to/lastmile_qr_scan", "ios": "https://dc.lft.to/lastmile_qr_scan"}, "bike_id": "3e3ba1d447f1853662bd2d666fb03b1b", "is_reserved": 0}, {"lat": 38.91947833333333, "fusion_lon": 0.0, "lon": -77.01790866666667, "is_disabled": 0, "type": "electric_scooter", "name": "133a90760fd1bf4e7f627b04320ca021", "fusion_lat": 0.0, "rental_uris": {"android": "https://dc.lft.to/lastmile_qr_scan", "ios": "https://dc.lft.to/lastmile_qr_scan"}, "bike_id": "133a90760fd1bf4e7f627b04320ca021", "is_reserved": 0}, {"lat": 38.901336666666666, "fusion_lon": 0.0, "lon": -77.04037666666666, "is_disabled": 0, "type": "electric_scooter", "name": "a311c14c36dc05f83b1b5dbf0d774929", "fusion_lat": 0.0, "rental_uris": {"android": "https://dc.lft.to/lastmile_qr_scan", "ios": "https://dc.lft.to/lastmile_qr_scan"}, "bike_id": "a311c14c36dc05f83b1b5dbf0d774929", "is_reserved": 0}, {"lat": 38.9310205, "fusion_lon": 0.0, "lon": -77.03637533333334, "is_disabled": 0, "type": "electric_scooter", "name": "8eecaebdedde5799957758cccdcc980f", "fusion_lat": 0.0, "rental_uris": {"android": "https://dc.lft.to/lastmile_qr_scan", "ios": "https://dc.lft.to/lastmile_qr_scan"}, "bike_id": "8eecaebdedde5799957758cccdcc980f", "is_reserved": 0}, {"lat": 38.91528066666667, "fusion_lon": 0.0, "lon": -77.04629233333333, "is_disabled": 0, "type": "electric_scooter", "name": "ac238d13b70cc0db4bee6aa83ce42727", "fusion_lat": 0.0, "rental_uris": {"android": "https://dc.lft.to/lastmile_qr_scan", "ios": "https://dc.lft.to/lastmile_qr_scan"}, "bike_id": "ac238d13b70cc0db4bee6aa83ce42727", "is_reserved": 0}, {"lat": 38.863574, "fusion_lon": 0.0, "lon": -76.9907355, "is_disabled": 0, "type": "electric_scooter", "name": "c3eabb46a5468dc18270ad6a474528c9", "fusion_lat": 0.0, "rental_uris": {"android": "https://dc.lft.to/lastmile_qr_scan", "ios": "https://dc.lft.to/lastmile_qr_scan"}, "bike_id": "c3eabb46a5468dc18270ad6a474528c9", "is_reserved": 0}, {"lat": 38.887372, "fusion_lon": 0.0, "lon": -77.01749283333334, "is_disabled": 0, "type": "electric_scooter", "name": "b3160ecef57791e81cbe758f07765888", "fusion_lat": 0.0, "rental_uris": {"android": "https://dc.lft.to/lastmile_qr_scan", "ios": "https://dc.lft.to/lastmile_qr_scan"}, "bike_id": "b3160ecef57791e81cbe758f07765888", "is_reserved": 0}, {"lat": 38.87470033333334, "fusion_lon": 0.0, "lon": -77.00515516666667, "is_disabled": 0, "type": "electric_scooter", "name": "50e381f5096216149107f6fea2afa435", "fusion_lat": 0.0, "rental_uris": {"android": "https://dc.lft.to/lastmile_qr_scan", "ios": "https://dc.lft.to/lastmile_qr_scan"}, "bike_id": "50e381f5096216149107f6fea2afa435", "is_reserved": 0}, {"lat": 38.9003205, "fusion_lon": 0.0, "lon": -77.024762, "is_disabled": 0, "type": "electric_scooter", "name": "bcccb41c169e0cf538aaf56c898386c7", "fusion_lat": 0.0, "rental_uris": {"android": "https://dc.lft.to/lastmile_qr_scan", "ios": "https://dc.lft.to/lastmile_qr_scan"}, "bike_id": "bcccb41c169e0cf538aaf56c898386c7", "is_reserved": 0}, {"lat": 38.91102133333333, "fusion_lon": 0.0, "lon": -77.04263183333333, "is_disabled": 0, "type": "electric_scooter", "name": "9581e6a67e158c746382f7512c0ed723", "fusion_lat": 0.0, "rental_uris": {"android": "https://dc.lft.to/lastmile_qr_scan", "ios": "https://dc.lft.to/lastmile_qr_scan"}, "bike_id": "9581e6a67e158c746382f7512c0ed723", "is_reserved": 0}, {"lat": 38.901041166666666, "fusion_lon": 0.0, "lon": -77.04016683333333, "is_disabled": 0, "type": "electric_scooter", "name": "b782526d2cf121b361e294e14ced56a6", "fusion_lat": 0.0, "rental_uris": {"android": "https://dc.lft.to/lastmile_qr_scan", "ios": "https://dc.lft.to/lastmile_qr_scan"}, "bike_id": "b782526d2cf121b361e294e14ced56a6", "is_reserved": 0}, {"lat": 38.90667366666667, "fusion_lon": 0.0, "lon": -77.0388835, "is_disabled": 0, "type": "electric_scooter", "name": "97298d9c43d7c03476dc338dd2e8019e", "fusion_lat": 0.0, "rental_uris": {"android": "https://dc.lft.to/lastmile_qr_scan", "ios": "https://dc.lft.to/lastmile_qr_scan"}, "bike_id": "97298d9c43d7c03476dc338dd2e8019e", "is_reserved": 0}, {"lat": 38.905551, "fusion_lon": 0.0, "lon": -77.04339266666666, "is_disabled": 0, "type": "electric_scooter", "name": "0aa843fdaadcd334eedc1de100580f5b", "fusion_lat": 0.0, "rental_uris": {"android": "https://dc.lft.to/lastmile_qr_scan", "ios": "https://dc.lft.to/lastmile_qr_scan"}, "bike_id": "0aa843fdaadcd334eedc1de100580f5b", "is_reserved": 0}, {"lat": 38.903808166666664, "fusion_lon": 0.0, "lon": -77.03329933333333, "is_disabled": 0, "type": "electric_scooter", "name": "ba8804efafcfcb474f8a32ceb7e625f3", "fusion_lat": 0.0, "rental_uris": {"android": "https://dc.lft.to/lastmile_qr_scan", "ios": "https://dc.lft.to/lastmile_qr_scan"}, "bike_id": "ba8804efafcfcb474f8a32ceb7e625f3", "is_reserved": 0}, {"lat": 38.855131666666665, "fusion_lon": 0.0, "lon": -76.9842635, "is_disabled": 0, "type": "electric_bike", "name": "b11a58c4aab068c6b22f7444097ef547", "fusion_lat": 0.0, "rental_uris": {"android": "https://dc.lft.to/lastmile_qr_scan", "ios": "https://dc.lft.to/lastmile_qr_scan"}, "bike_id": "b11a58c4aab068c6b22f7444097ef547", "is_reserved": 0}, {"lat": 38.89875933333333, "fusion_lon": 0.0, "lon": -77.02583016666667, "is_disabled": 0, "type": "electric_scooter", "name": "dd1b9fca46aeaba549947c3d8f0a3dc2", "fusion_lat": 0.0, "rental_uris": {"android": "https://dc.lft.to/lastmile_qr_scan", "ios": "https://dc.lft.to/lastmile_qr_scan"}, "bike_id": "dd1b9fca46aeaba549947c3d8f0a3dc2", "is_reserved": 0}, {"lat": 38.9174115, "fusion_lon": 0.0, "lon": -77.03209883333334, "is_disabled": 0, "type": "electric_scooter", "name": "282159d7b8757c9f318745bb43ada46d", "fusion_lat": 0.0, "rental_uris": {"android": "https://dc.lft.to/lastmile_qr_scan", "ios": "https://dc.lft.to/lastmile_qr_scan"}, "bike_id": "282159d7b8757c9f318745bb43ada46d", "is_reserved": 0}, {"lat": 38.9678765, "fusion_lon": 0.0, "lon": -77.0003465, "is_disabled": 0, "type": "electric_bike", "name": "2482043b21a4c7ef8e9725cac2dfaa31", "fusion_lat": 0.0, "rental_uris": {"android": "https://dc.lft.to/lastmile_qr_scan", "ios": "https://dc.lft.to/lastmile_qr_scan"}, "bike_id": "2482043b21a4c7ef8e9725cac2dfaa31", "is_reserved": 0}, {"lat": 38.90745483333333, "fusion_lon": 0.0, "lon": -77.0034715, "is_disabled": 0, "type": "electric_scooter", "name": "74bfc46271fa785e1ca85a01a0ffff1c", "fusion_lat": 0.0, "rental_uris": {"android": "https://dc.lft.to/lastmile_qr_scan", "ios": "https://dc.lft.to/lastmile_qr_scan"}, "bike_id": "74bfc46271fa785e1ca85a01a0ffff1c", "is_reserved": 0}, {"lat": 38.91250483333334, "fusion_lon": 0.0, "lon": -77.02229566666666, "is_disabled": 0, "type": "electric_scooter", "name": "66ef9ae48e1bc0ccf1a8023802ae6d09", "fusion_lat": 0.0, "rental_uris": {"android": "https://dc.lft.to/lastmile_qr_scan", "ios": "https://dc.lft.to/lastmile_qr_scan"}, "bike_id": "66ef9ae48e1bc0ccf1a8023802ae6d09", "is_reserved": 0}, {"lat": 38.89220983333333, "fusion_lon": 0.0, "lon": -77.032175, "is_disabled": 0, "type": "electric_scooter", "name": "86b384bd7b74730f51506b44ac9d847d", "fusion_lat": 0.0, "rental_uris": {"android": "https://dc.lft.to/lastmile_qr_scan", "ios": "https://dc.lft.to/lastmile_qr_scan"}, "bike_id": "86b384bd7b74730f51506b44ac9d847d", "is_reserved": 0}, {"lat": 38.902413, "fusion_lon": 0.0, "lon": -77.01760616666667, "is_disabled": 0, "type": "electric_scooter", "name": "8b308142d377c366341aa4e081ecd49e", "fusion_lat": 0.0, "rental_uris": {"android": "https://dc.lft.to/lastmile_qr_scan", "ios": "https://dc.lft.to/lastmile_qr_scan"}, "bike_id": "8b308142d377c366341aa4e081ecd49e", "is_reserved": 0}, {"lat": 38.88518533333333, "fusion_lon": 0.0, "lon": -77.02103466666667, "is_disabled": 0, "type": "electric_scooter", "name": "12c6470c4410206934e08d8a94116681", "fusion_lat": 0.0, "rental_uris": {"android": "https://dc.lft.to/lastmile_qr_scan", "ios": "https://dc.lft.to/lastmile_qr_scan"}, "bike_id": "12c6470c4410206934e08d8a94116681", "is_reserved": 0}, {"lat": 38.90531583333333, "fusion_lon": 0.0, "lon": -77.061882, "is_disabled": 0, "type": "electric_scooter", "name": "0c6aa12ab5dd8522277e9238b8339f36", "fusion_lat": 0.0, "rental_uris": {"android": "https://dc.lft.to/lastmile_qr_scan", "ios": "https://dc.lft.to/lastmile_qr_scan"}, "bike_id": "0c6aa12ab5dd8522277e9238b8339f36", "is_reserved": 0}, {"lat": 38.90023983333333, "fusion_lon": 0.0, "lon": -76.98442516666667, "is_disabled": 0, "type": "electric_scooter", "name": "258a526279a67c694f2bc048fd553327", "fusion_lat": 0.0, "rental_uris": {"android": "https://dc.lft.to/lastmile_qr_scan", "ios": "https://dc.lft.to/lastmile_qr_scan"}, "bike_id": "258a526279a67c694f2bc048fd553327", "is_reserved": 0},