{"data": {"bikes": [{"is_disabled": 0, "fusion_lat": 0.0, "lat": 38.94442166666666, "type": "electric_scooter", "lon": -77.063517, "is_reserved": 0, "fusion_lon": 0.0, "bike_id": "bccc5956db3139e1ed32d5c826c79ea9", "name": "bccc5956db3139e1ed32d5c826c79ea9", "rental_uris": {"ios": "https://dc.lft.to/lastmile_qr_scan", "android": "https://dc.lft.to/lastmile_qr_scan"}}, {"is_disabled": 0, "fusion_lat": 0.0, "lat": 38.904902, "type": "electric_scooter", "lon": -77.06019716666667, "is_reserved": 0, "fusion_lon": 0.0, "bike_id": "68b81cd41ba73c8162f8f370c55ffd50", "name": "68b81cd41ba73c8162f8f370c55ffd50", "rental_uris": {"ios": "https://dc.lft.to/lastmile_qr_scan", "android": "https://dc.lft.to/lastmile_qr_scan"}}, {"is_disabled": 0, "fusion_lat": 0.0, "lat": 39.0388245, "type": "electric_bike", "lon": -76.99041233333334, "is_reserved": 0, "fusion_lon": 0.0, "bike_id": "776c57a470060123db358df1f2718a68", "name": "776c57a470060123db358df1f2718a68", "rental_uris": {"ios": "https://dc.lft.to/lastmile_qr_scan", "android": "https://dc.lft.to/lastmile_qr_scan"}}, {"is_disabled": 0, "fusion_lat": 0.0, "lat": 38.94232, "type": "electric_scooter", "lon": -77.0153555, "is_reserved": 0, "fusion_lon": 0.0, "bike_id": "633c075fcf0a8c8ee490b7c018391ff9", "name": "633c075fcf0a8c8ee490b7c018391ff9", "rental_uris": {"ios": "https://dc.lft.to/lastmile_qr_scan", "android": "https://dc.lft.to/lastmile_qr_scan"}}, {"is_disabled": 0, "fusion_lat": 0.0, "lat": 38.897656, "type": "electric_scooter", "lon": -76.9855065, "is_reserved": 0, "fusion_lon": 0.0, "bike_id": "318f6592b1345ffa690055ff4c37ec93", "name": "318f6592b1345ffa690055ff4c37ec93", "rental_uris": {"ios": "https://dc.lft.to/lastmile_qr_scan", "android": "https://dc.lft.to/lastmile_qr_scan"}}, {"is_disabled": 0, "fusion_lat": 0.0, "lat": 38.90512783333333, "type": "electric_scooter", "lon": -77.05138783333334, "is_reserved": 0, "fusion_lon": 0.0, "bike_id": "cfba4e7c276c5787ddfb40c544129e79", "name": "cfba4e7c276c5787ddfb40c544129e79", "rental_uris": {"ios": "https://dc.lft.to/lastmile_qr_scan", "android": "https://dc.lft.to/lastmile_qr_scan"}}, {"is_disabled": 0, "fusion_lat": 0.0, "lat": 38.942053, "type": "electric_bike", "lon": -77.01825716666667, "is_reserved": 0, "fusion_lon": 0.0, "bike_id": "1f83e37ac3032e23ae4ac498ef5feaf9", "name": "1f83e37ac3032e23ae4ac498ef5feaf9", "rental_uris": {"ios": "https://dc.lft.to/lastmile_qr_scan", "android": "https://dc.lft.to/lastmile_qr_scan"}}, {"is_disabled": 0, "fusion_lat": 0.0, "lat": 38.85808216666667, "type": "electric_scooter", "lon": -76.9865145, "is_reserved": 0, "fusion_lon": 0.0, "bike_id": "24120c584d4094e709816ccb4cac599e", "name": "24120c584d4094e709816ccb4cac599e", "rental_uris": {"ios": "https://dc.lft.to/lastmile_qr_scan", "android": "https://dc.lft.to/lastmile_qr_scan"}}, {"is_disabled": 0, "fusion_lat": 0.0, "lat": 38.90798, "type": "electric_scooter", "lon": -77.03418966666666, "is_reserved": 0, "fusion_lon": 0.0, "bike_id": "9452f766b0c2ce48e157016d08f12e28", "name": "9452f766b0c2ce48e157016d08f12e28", "rental_uris": {"ios": "https://dc.lft.to/lastmile_qr_scan", "android": "https://dc.lft.to/lastmile_qr_scan"}}, {"is_disabled": 0, "fusion_lat": 0.0, "lat": 38.9056055, "type": "electric_scooter", "lon": -77.03472683333334, "is_reserved": 0, "fusion_lon": 0.0, "bike_id": "86cb4d132a295e98a1c56e193faf4d12", "name": "86cb4d132a295e98a1c56e193faf4d12", "rental_uris": {"ios": "https://dc.lft.to/lastmile_qr_scan", "android": "https://dc.lft.to/lastmile_qr_scan"}}, {"is_disabled": 0, "fusion_lat": 0.0, "lat": 38.89224633333333, "type": "electric_scooter", "lon": -77.024428, "is_reserved": 0, "fusion_lon": 0.0, "bike_id": "0b6037629d6d64fddf860e09b41fe479", "name": "0b6037629d6d64fddf860e09b41fe479", "rental_uris": {"ios": "https://dc.lft.to/lastmile_qr_scan", "android": "https://dc.lft.to/lastmile_qr_scan"}}, {"is_disabled": 0, "fusion_lat": 0.0, "lat": 38.92341033333334, "type": "electric_scooter", "lon": -77.01899116666667, "is_reserved": 0, "fusion_lon": 0.0, "bike_id": "f2419e0579786f636eb171e437f79fdb", "name": "f2419e0579786f636eb171e437f79fdb", "rental_uris": {"ios": "https://dc.lft.to/lastmile_qr_scan", "android": "https://dc.lft.to/lastmile_qr_scan"}}, {"is_disabled": 0, "fusion_lat": 0.0, "lat": 38.9101355, "type": "electric_scooter", "lon": -76.99387583333333, "is_reserved": 0, "fusion_lon": 0.0, "bike_id": "4cda334426c03d792598968e43e1dce8", "name": "4cda334426c03d792598968e43e1dce8", "rental_uris": {"ios": "https://dc.lft.to/lastmile_qr_scan", "android": "https://dc.lft.to/lastmile_qr_scan"}}, {"is_disabled": 0, "fusion_lat": 0.0, "lat": 38.870989, "type": "electric_scooter", "lon": -77.01204733333333, "is_reserved": 0, "fusion_lon": 0.0, "bike_id": "98d6e576d5d15501914ccb0d63b2fa39", "name": "98d6e576d5d15501914ccb0d63b2fa39", "rental_uris": {"ios": "https://dc.lft.to/lastmile_qr_scan", "android": "https://dc.lft.to/lastmile_qr_scan"}}, {"is_disabled": 0, "fusion_lat": 0.0, "lat": 38.88337416666667, "type": "electric_scooter", "lon": -77.0314785, "is_reserved": 0, "fusion_lon": 0.0, "bike_id": "97a664c4d25f1af434e18c1cc9816fbf", "name": "97a664c4d25f1af434e18c1cc9816fbf", "rental_uris": {"ios": "https://dc.lft.to/lastmile_qr_scan", "android": "https://dc.lft.to/lastmile_qr_scan"}}, {"is_disabled": 0, "fusion_lat": 0.0, "lat": 38.91337883333333, "type": "electric_scooter", "lon": -77.00227816666667, "is_reserved": 0, "fusion_lon": 0.0, "bike_id": "d3067d3fbcbd7e7372d9373a3a49df9e", "name": "d3067d3fbcbd7e7372d9373a3a49df9e", "rental_uris": {"ios": "https://dc.lft.to/lastmile_qr_scan", "android": "https://dc.lft.to/lastmile_qr_scan"}}, {"is_disabled": 0, "fusion_lat": 0.0, "lat": 38.908133666666664, "type": "electric_scooter", "lon": -77.0433995, "is_reserved": 0, "fusion_lon": 0.0, "bike_id": "3600587206cdc72da93a737f5f4affb9", "name": "3600587206cdc72da93a737f5f4affb9", "rental_uris": {"ios": "https://dc.lft.to/lastmile_qr_scan", "android": "https://dc.lft.to/lastmile_qr_scan"}}, {"is_disabled": 0, "fusion_lat": 0.0, "lat": 38.86107633333334, "type": "electric_scooter", "lon": -76.9676955, "is_reserved": 0, "fusion_lon": 0.0, "bike_id": "fe88f2556766c8450596f7e7d56c34cd", "name": "fe88f2556766c8450596f7e7d56c34cd", "rental_uris": {"ios": "https://dc.lft.to/lastmile_qr_scan", "android": "https://dc.lft.to/lastmile_qr_scan"}}, {"is_disabled": 0, "fusion_lat": 0.0, "lat": 38.91274266666667, "type": "electric_scooter", "lon": -77.03071783333333, "is_reserved": 0, "fusion_lon": 0.0, "bike_id": "39f35617b8fe0033e9801a2b6271db6d", "name": "39f35617b8fe0033e9801a2b6271db6d", "rental_uris": {"ios": "https://dc.lft.to/lastmile_qr_scan", "android": "https://dc.lft.to/lastmile_qr_scan"}}, {"is_disabled": 0, "fusion_lat": 0.0, "lat": 38.905918166666666, "type": "electric_scooter", "lon": -77.065167, "is_reserved": 0, "fusion_lon": 0.0, "bike_id": "9f618a15aa47742107ebaed49acc1193", "name": "9f618a15aa47742107ebaed49acc1193", "rental_uris": {"ios": "https://dc.lft.to/lastmile_qr_scan", "android": "https://dc.lft.to/lastmile_qr_scan"}}, {"is_disabled": 0, "fusion_lat": 0.0, "lat": 38.907670333333336, "type": "electric_scooter", "lon": -77.04355183333334, "is_reserved": 0, "fusion_lon": 0.0, "bike_id": "5f86a62235186e3fe07d09634a5e16f7", "name": "5f86a62235186e3fe07d09634a5e16f7", "rental_uris": {"ios": "https://dc.lft.to/lastmile_qr_scan", "android": "https://dc.lft.to/lastmile_qr_scan"}}, {"is_disabled": 0, "fusion_lat": 0.0, "lat": 38.861051833333335, "type": "electric_scooter", "lon": -76.98363616666667, "is_reserved": 0, "fusion_lon": 0.0, "bike_id": "267e8df80d184fba4d05923e9674d320", "name": "267e8df80d184fba4d05923e9674d320", "rental_uris": {"ios": "https://dc.lft.to/lastmile_qr_scan", "android": "https://dc.lft.to/lastmile_qr_scan"}}, {"is_disabled": 0, "fusion_lat": 0.0, "lat": 38.897796, "type": "electric_scooter", "lon": -77.03178633333333, "is_reserved": 0, "fusion_lon": 0.0, "bike_id": "f01079ab414879bf603df9895163bd38", "name": "f01079ab414879bf603df9895163bd38", "rental_uris": {"ios": "https://dc.lft.to/lastmile_qr_scan", "android": "https://dc.lft.to/lastmile_qr_scan"}}, {"is_disabled": 0, "fusion_lat": 0.0, "lat": 38.89077416666667, "type": "electric_scooter", "lon": -76.98359483333333, "is_reserved": 0, "fusion_lon": 0.0, "bike_id": "72825f8c6528757ec2fba546ad69df4a", "name": "72825f8c6528757ec2fba546ad69df4a", "rental_uris": {"ios": "https://dc.lft.to/lastmile_qr_scan", "android": "https://dc.lft.to/lastmile_qr_scan"}}, {"is_disabled": 0, "fusion_lat": 0.0, "lat": 38.905558166666665, "type": "electric_scooter", "lon": -77.024874, "is_reserved": 0, "fusion_lon": 0.0, "bike_id": "fd599c9bade175c5053479dd3155684f", "name": "fd599c9bade175c5053479dd3155684f", "rental_uris": {"ios": "https://dc.lft.to/lastmile_qr_scan", "android": "https://dc.lft.to/lastmile_qr_scan"}}, {"is_disabled": 0, "fusion_lat": 0.0, "lat": 38.936845166666664, "type": "electric_scooter", "lon": -77.036273, "is_reserved": 0, "fusion_lon": 0.0, "bike_id": "ea32aaf2985c3951edca71c97f7f937e", "name": "ea32aaf2985c3951edca71c97f7f937e", "rental_uris": {"ios": "https://dc.lft.to/lastmile_qr_scan", "android": "https://dc.lft.to/lastmile_qr_scan"}}, {"is_disabled": 0, "fusion_lat": 0.0, "lat": 38.899413833333334, "type": "electric_scooter", "lon": -77.040497, "is_reserved": 0, "fusion_lon": 0.0, "bike_id": "0e80a5bb725736dc5295ea525a9b9d56", "name": "0e80a5bb725736dc5295ea525a9b9d56", "rental_uris": {"ios": "https://dc.lft.to/lastmile_qr_scan", "android": "https://dc.lft.to/lastmile_qr_scan"}}, {"is_disabled": 0, "fusion_lat": 0.0, "lat": 38.9297275, "type": "electric_scooter", "lon": -77.02824733333334, "is_reserved": 0, "fusion_lon": 0.0, "bike_id": "1f0b606a53fdadb5dfdcc00f495698c9", "name": "1f0b606a53fdadb5dfdcc00f495698c9", "rental_uris": {"ios": "https://dc.lft.to/lastmile_qr_scan", "android": "https://dc.lft.to/lastmile_qr_scan"}}, {"is_disabled": 0, "fusion_lat": 0.0, "lat": 38.905575166666665, "type": "electric_scooter", "lon": -77.03833716666666, "is_reserved": 0, "fusion_lon": 0.0, "bike_id": "3e407a6fcc4ea2f7a8ec2b6c5c38bdc1", "name": "3e407a6fcc4ea2f7a8ec2b6c5c38bdc1", "rental_uris": {"ios": "https://dc.lft.to/lastmile_qr_scan", "android": "https://dc.lft.to/lastmile_qr_scan"}}, {"is_disabled": 0, "fusion_lat": 0.0, "lat": 38.907169333333336, "type": "electric_scooter", "lon": -77.043528, "is_reserved": 0, "fusion_lon": 0.0, "bike_id": "def15c8aed963119bc05fd8111f49742", "name": "def15c8aed963119bc05fd8111f49742", "rental_uris": {"ios": "https://dc.lft.to/lastmile_qr_scan", "android": "https://dc.lft.to/lastmile_qr_scan"}}, {"is_disabled": 0, "fusion_lat": 0.0, "lat": 38.914811, "type": "electric_bike", "lon": -76.98371433333334, "is_reserved": 0, "fusion_lon": 0.0, "bike_id": "4578d9cb21eac29e32c612d618464285", "name": "4578d9cb21eac29e32c612d618464285", "rental_uris": {"ios": "https://dc.lft.to/lastmile_qr_scan", "android": "https://dc.lft.to/lastmile_qr_scan"}}, {"is_disabled": 0, "fusion_lat": 0.0, "lat": 38.94632566666667, "type": "electric_scooter", "lon": -77.02523066666667, "is_reserved": 0, "fusion_lon": 0.0, "bike_id": "c7665b5b8c3e3a9ac08024b8df6f948e", "name": "c7665b5b8c3e3a9ac08024b8df6f948e", "rental_uris": {"ios": "https://dc.lft.to/lastmile_qr_scan", "android": "https://dc.lft.to/lastmile_qr_scan"}}, {"is_disabled": 0, "fusion_lat": 0.0, "lat": 38.88199683333333, "type": "electric_scooter", "lon": -77.005988, "is_reserved": 0, "fusion_lon": 0.0, "bike_id": "71f83a6bd7ebb6278e36c6412d29a4a4", "name": "71f83a6bd7ebb6278e36c6412d29a4a4", "rental_uris": {"ios": "https://dc.lft.to/lastmile_qr_scan", "android": "https://dc.lft.to/lastmile_qr_scan"}}, {"is_disabled": 0, "fusion_lat": 0.0, "lat": 38.9268225, "type": "electric_scooter", "lon": -77.09574516666666, "is_reserved": 0, "fusion_lon": 0.0, "bike_id": "d4a358a4a0e558b07a7683fdaa54d3d3", "name": "d4a358a4a0e558b07a7683fdaa54d3d3", "rental_uris": {"ios": "https://dc.lft.to/lastmile_qr_scan", "android": "https://dc.lft.to/lastmile_qr_scan"}}, {"is_disabled": 0, "fusion_lat": 0.0, "lat": 38.899558666666664, "type": "electric_scooter", "lon": -77.04773916666667, "is_reserved": 0, "fusion_lon": 0.0, "bike_id": "004b78a68003fd16f5f5cde61ef46b33", "name": "004b78a68003fd16f5f5cde61ef46b33", "rental_uris": {"ios": "https://dc.lft.to/lastmile_qr_scan", "android": "https://dc.lft.to/lastmile_qr_scan"}}, {"is_disabled": 0, "fusion_lat": 0.0, "lat": 38.94332133333333, "type": "electric_scooter", "lon": -77.03259316666667, "is_reserved": 0, "fusion_lon": 0.0, "bike_id": "f6a7587042e1e3073a6291eb910dc12b", "name": "f6a7587042e1e3073a6291eb910dc12b", "rental_uris": {"ios": "https://dc.lft.to/lastmile_qr_scan", "android": "https://dc.lft.to/lastmile_qr_scan"}}, {"is_disabled": 0, "fusion_lat": 0.0, "lat": 38.892329833333335, "type": "electric_scooter", "lon": -77.02206516666666, "is_reserved": 0, "fusion_lon": 0.0, "bike_id": "2e92eda32d851a7348090dd7a62cea27", "name": "2e92eda32d851a7348090dd7a62cea27", "rental_uris": {"ios": "https://dc.lft.to/lastmile_qr_scan", "android": "https://dc.lft.to/lastmile_qr_scan"}}, {"is_disabled": 0, "fusion_lat": 0.0, "lat": 38.9134745, "type": "electric_scooter", "lon": -77.0106665, "is_reserved": 0, "fusion_lon": 0.0, "bike_id": "0a84bf7f84ed72fb4c76939f7f8f0aac", "name": "0a84bf7f84ed72fb4c76939f7f8f0aac", "rental_uris": {"ios": "https://dc.lft.to/lastmile_qr_scan", "android": "https://dc.lft.to/lastmile_qr_scan"}}, {"is_disabled": 0, "fusion_lat": 0.0, "lat": 38.920810833333334, "type": "electric_scooter", "lon": -77.04214033333334, "is_reserved": 0, "fusion_lon": 0.0, "bike_id": "bccb3ec88d475c0bd9c34659a35439ae", "name": "bccb3ec88d475c0bd9c34659a35439ae", "rental_uris": {"ios": "https://dc.lft.to/lastmile_qr_scan", "android": "https://dc.lft.to/lastmile_qr_scan"}}, {"is_disabled": 0, "fusion_lat": 0.0, "lat": 38.936197666666665, "type": "electric_scooter", "lon": -77.05711483333333, "is_reserved": 0, "fusion_lon": 0.0, "bike_id": "f03c322ed2972877f86b13bcaff9a097", "name": "f03c322ed2972877f86b13bcaff9a097", "rental_uris": {"ios": "https://dc.lft.to/lastmile_qr_scan", "android": "https://dc.lft.to/lastmile_qr_scan"}}, {"is_disabled": 0, "fusion_lat": 0.0, "lat": 38.891986, "type": "electric_scooter", "lon": -77.02379883333333, "is_reserved": 0, "fusion_lon": 0.0, "bike_id": "de7d83ae857ad7dae859aaf141b0d543", "name": "de7d83ae857ad7dae859aaf141b0d543", "rental_uris": {"ios": "https://dc.lft.to/lastmile_qr_scan", "android": "https://dc.lft.to/lastmile_qr_scan"}}, {"is_disabled": 0, "fusion_lat": 0.0, "lat": 38.9223185, "type": "electric_scooter", "lon": -77.03349133333333, "is_reserved": 0, "fusion_lon": 0.0, "bike_id": "e3785333618901b8cbc77b67569a013c", "name": "e3785333618901b8cbc77b67569a013c", "rental_uris": {"ios": "https://dc.lft.to/lastmile_qr_scan", "android": "https://dc.lft.to/lastmile_qr_scan"}}, {"is_disabled": 0, "fusion_lat": 0.0, "lat": 38.91191283333333, "type": "electric_scooter", "lon": -77.00388433333333, "is_reserved": 0, "fusion_lon": 0.0, "bike_id": "16ec6d1634f5485f809fed5320d5b8d2", "name": "16ec6d1634f5485f809fed5320d5b8d2", "rental_uris": {"ios": "https://dc.lft.to/lastmile_qr_scan", "android": "https://dc.lft.to/lastmile_qr_scan"}}, {"is_disabled": 0, "fusion_lat": 0.0, "lat": 38.931731666666664, "type": "electric_scooter", "lon": -77.028381, "is_reserved": 0, "fusion_lon": 0.0, "bike_id": "71a512b7a519b9803d852e92ae0becde", "name": "71a512b7a519b9803d852e92ae0becde", "rental_uris": {"ios": "https://dc.lft.to/lastmile_qr_scan", "android": "https://dc.lft.to/lastmile_qr_scan"}}, {"is_disabled": 0, "fusion_lat": 0.0, "lat": 38.90671783333333, "type": "electric_scooter", "lon": -77.00051533333334, "is_reserved": 0, "fusion_lon": 0.0, "bike_id": "175d44b0eb8d973b98899ee724b992ef", "name": "175d44b0eb8d973b98899ee724b992ef", "rental_uris": {"ios": "https://dc.lft.to/lastmile_qr_scan", "android": "https://dc.lft.to/lastmile_qr_scan"}}, {"is_disabled": 0, "fusion_lat": 0.0, "lat": 38.89352, "type": "electric_scooter", "lon": -77.01598833333334, "is_reserved": 0, "fusion_lon": 0.0, "bike_id": "4ee54086a9831f2cf87f89be2c57e63b", "name": "4ee54086a9831f2cf87f89be2c57e63b", "rental_uris": {"ios": "https://dc.lft.to/lastmile_qr_scan", "android": "https://dc.lft.to/lastmile_qr_scan"}}, {"is_disabled": 0, "fusion_lat": 0.0, "lat": 38.9119645, "type": "electric_scooter", "lon": -77.010614, "is_reserved": 0, "fusion_lon": 0.0, "bike_id": "8d779089d53604fbd157db1a3da25408", "name": "8d779089d53604fbd157db1a3da25408", "rental_uris": {"ios": "https://dc.lft.to/lastmile_qr_scan", "android": "https://dc.lft.to/lastmile_qr_scan"}}, {"is_disabled": 0, "fusion_lat": 0.0, "lat": 38.91019466666667, "type": "electric_scooter", "lon": -77.038536, "is_reserved": 0, "fusion_lon": 0.0, "bike_id": "c0012ec070a536babcd646300cd34e0f", "name": "c0012ec070a536babcd646300cd34e0f", "rental_uris": {"ios": "https://dc.lft.to/lastmile_qr_scan", "android": "https://dc.lft.to/lastmile_qr_scan"}}, {"is_disabled": 0, "fusion_lat": 0.0, "lat": 38.90246616666667, "type": "electric_scooter", "lon": -77.00203883333333, "is_reserved": 0, "fusion_lon": 0.0, "bike_id": "aa4163c08a10f9af69d5432a6bf0543e", "name": "aa4163c08a10f9af69d5432a6bf0543e", "rental_uris": {"ios": "https://dc.lft.to/lastmile_qr_scan", "android": "https://dc.lft.to/lastmile_qr_scan"}}, {"is_disabled": 0, "fusion_lat": 0.0, "lat": 38.90503983333333, "type": "electric_scooter", "lon": -76.990131, "is_reserved": 0, "fusion_lon": 0.0, "bike_id": "6f528a00e4770a9beb244a054bbb863f", "name": "6f528a00e4770a9beb244a054bbb863f", "rental_uris": {"ios": "https://dc.lft.to/lastmile_qr_scan", "android": "https://dc.lft.to/lastmile_qr_scan"}}, {"is_disabled": 0, "fusion_lat": 0.0, "lat": 38.92377783333333, "type": "electric_scooter", "lon": -77.0312795, "is_reserved": 0, "fusion_lon": 0.0, "bike_id": "46cb8391520350d8ef1ceb84a944d468", "name": "46cb8391520350d8ef1ceb84a944d468", "rental_uris": {"ios": "https://dc.lft.to/lastmile_qr_scan", "android": "https://dc.lft.to/lastmile_qr_scan"}}, {"is_disabled": 0, "fusion_lat": 0.0, "lat": 38.9020255, "type": "electric_scooter", "lon": -77.02375883333333, "is_reserved": 0, "fusion_lon": 0.0, "bike_id": "385b8c9a19ab845f8e000f5481021ebb", "name": "385b8c9a19ab845f8e000f5481021ebb", "rental_uris": {"ios": "https://dc.lft.to/lastmile_qr_scan", "android": "https://dc.lft.to/lastmile_qr_scan"}}, {"is_disabled": 0, "fusion_lat": 0.0, "lat": 38.90234916666667, "type": "electric_scooter", "lon": -77.01537666666667, "is_reserved": 0, "fusion_lon": 0.0, "bike_id": "8cf9f56a9145888da69bf70718b579a9", "name": "8cf9f56a9145888da69bf70718b579a9", "rental_uris": {"ios": "https://dc.lft.to/lastmile_qr_scan", "android": "https://dc.lft.to/lastmile_qr_scan"}}, {"is_disabled": 0, "fusion_lat": 0.0, "lat": 38.906274333333336, "type": "electric_bike", "lon": -76.98604083333333, "is_reserved": 0, "fusion_lon": 0.0, "bike_id": "5be7ad8d3f27f5fe204c0190e31d9165", "name": "5be7ad8d3f27f5fe204c0190e31d9165", "rental_uris": {"ios": "https://dc.lft.to/lastmile_qr_scan", "android": "https://dc.lft.to/lastmile_qr_scan"}}, {"is_disabled": 0, "fusion_lat": 0.0, "lat": 38.905031, "type": "electric_scooter", "lon": -77.029539, "is_reserved": 0, "fusion_lon": 0.0, "bike_id": "7163773b26f62b021156542c5c4de75d", "name": "7163773b26f62b021156542c5c4de75d", "rental_uris": {"ios": "https://dc.lft.to/lastmile_qr_scan", "android": "https://dc.lft.to/lastmile_qr_scan"}}, {"is_disabled": 0, "fusion_lat": 0.0, "lat": 38.87670716666667, "type": "electric_scooter", "lon": -77.004339, "is_reserved": 0, "fusion_lon": 0.0, "bike_id": "9653d46b5bd0c1b8108dcc2249cc7625", "name": "9653d46b5bd0c1b8108dcc2249cc7625", "rental_uris": {"ios": "https://dc.lft.to/lastmile_qr_scan", "android": "https://dc.lft.to/lastmile_qr_scan"}}, {"is_disabled": 0, "fusion_lat": 0.0, "lat": 38.904079, "type": "electric_scooter", "lon": -77.02067783333334, "is_reserved": 0, "fusion_lon": 0.0, "bike_id": "e068f41f84759377484070a24533c82f", "name": "e068f41f84759377484070a24533c82f", "rental_uris": {"ios": "https://dc.lft.to/lastmile_qr_scan", "android": "https://dc.lft.to/lastmile_qr_scan"}}, {"is_disabled": 0, "fusion_lat": 0.0, "lat": 38.92534333333333, "type": "electric_scooter", "lon": -77.04426583333333, "is_reserved": 0, "fusion_lon": 0.0, "bike_id": "8592ae16e6f7fdfda980facc6a0549d4", "name": "8592ae16e6f7fdfda980facc6a0549d4", "rental_uris": {"ios": "https://dc.lft.to/lastmile_qr_scan", "android": "https://dc.lft.to/lastmile_qr_scan"}}, {"is_disabled": 0, "fusion_lat": 0.0, "lat": 38.965768833333335, "type": "electric_bike", "lon": -77.01627583333334, "is_reserved": 0, "fusion_lon": 0.0, "bike_id": "fea03107875d32d19946e6b27f72b0c2", "name": "fea03107875d32d19946e6b27f72b0c2", "rental_uris": {"ios": "https://dc.lft.to/lastmile_qr_scan", "android": "https://dc.lft.to/lastmile_qr_scan"}}, {"is_disabled": 0, "fusion_lat": 0.0, "lat": 38.912742, "type": "electric_scooter", "lon": -77.01685433333333, "is_reserved": 0, "fusion_lon": 0.0, "bike_id": "f1dc809394a34d184c7ba0123fc4805d", "name": "f1dc809394a34d184c7ba0123fc4805d", "rental_uris": {"ios": "https://dc.lft.to/lastmile_qr_scan", "android": "https://dc.lft.to/lastmile_qr_scan"}}, {"is_disabled": 0, "fusion_lat": 0.0, "lat": 38.96025216666666, "type": "electric_scooter", "lon": -77.02830416666667, "is_reserved": 0, "fusion_lon": 0.0, "bike_id": "a9b1973fac55757ec8442eb0a7c1c41a", "name": "a9b1973fac55757ec8442eb0a7c1c41a", "rental_uris": {"ios": "https://dc.lft.to/lastmile_qr_scan", "android": "https://dc.lft.to/lastmile_qr_scan"}}, {"is_disabled": 0, "fusion_lat": 0.0, "lat": 38.897430666666665, "type": "electric_scooter", "lon": -77.04502433333333, "is_reserved": 0, "fusion_lon": 0.0, "bike_id": "6cee48a2ade5cd1cbe3d3d3af674f8a9", "name": "6cee48a2ade5cd1cbe3d3d3af674f8a9", "rental_uris": {"ios": "https://dc.lft.to/lastmile_qr_scan", "android": "https://dc.lft.to/lastmile_qr_scan"}}, {"is_disabled": 0, "fusion_lat": 0.0, "lat": 38.90408266666667, "type": "electric_scooter", "lon": -77.03254933333334, "is_reserved": 0, "fusion_lon": 0.0, "bike_id": "f51043f1ba961c4bba2a02eff4fa8c04", "name": "f51043f1ba961c4bba2a02eff4fa8c04", "rental_uris": {"ios": "https://dc.lft.to/lastmile_qr_scan", "android": "https://dc.lft.to/lastmile_qr_scan"}}, {"is_disabled": 0, "fusion_lat": 0.0, "lat": 38.958815333333334, "type": "electric_bike", "lon": -77.01034633333333, "is_reserved": 0, "fusion_lon": 0.0, "bike_id": "083e96ecf607eda5aba96f3dfad9f00e", "name": "083e96ecf607eda5aba96f3dfad9f00e", "rental_uris": {"ios": "https://dc.lft.to/lastmile_qr_scan", "android": "https://dc.lft.to/lastmile_qr_scan"}}, {"is_disabled": 0, "fusion_lat": 0.0, "lat": 38.915727, "type": "electric_scooter", "lon": -77.04683316666667, "is_reserved": 0, "fusion_lon": 0.0, "bike_id": "3a88ca49bd657a6a90140e1eda62f184", "name": "3a88ca49bd657a6a90140e1eda62f184", "rental_uris": {"ios": "https://dc.lft.to/lastmile_qr_scan", "android": "https://dc.lft.to/lastmile_qr_scan"}}, {"is_disabled": 0, "fusion_lat": 0.0, "lat": 38.96173866666667, "type": "electric_bike", "lon": -76.99591566666666, "is_reserved": 0, "fusion_lon": 0.0, "bike_id": "19d6a5485cbce139dde4c05b2f38b68a", "name": "19d6a5485cbce139dde4c05b2f38b68a", "rental_uris": {"ios": "https://dc.lft.to/lastmile_qr_scan", "android": "https://dc.lft.to/lastmile_qr_scan"}}, {"is_disabled": 0, "fusion_lat": 0.0, "lat": 38.929042833333334, "type": "electric_scooter", "lon": -77.032723, "is_reserved": 0, "fusion_lon": 0.0, "bike_id": "bfaeaa96667b93297cf1e09f493572a6", "name": "bfaeaa96667b93297cf1e09f493572a6", "rental_uris": {"ios": "https://dc.lft.to/lastmile_qr_scan", "android": "https://dc.lft.to/lastmile_qr_scan"}}, {"is_disabled": 0, "fusion_lat": 0.0, "lat": 38.92422966666667, "type": "electric_bike", "lon": -77.04573433333333, "is_reserved": 0, "fusion_lon": 0.0, "bike_id": "db92aac42aac884b3850ced18fd4a066", "name": "db92aac42aac884b3850ced18fd4a066", "rental_uris": {"ios": "https://dc.lft.to/lastmile_qr_scan", "android": "https://dc.lft.to/lastmile_qr_scan"}}, {"is_disabled": 0, "fusion_lat": 0.0, "lat": 38.919638166666665, "type": "electric_bike", "lon": -76.97262933333333, "is_reserved": 0, "fusion_lon": 0.0, "bike_id": "ae84515f6fefd10dd6388a750b29559e", "name": "ae84515f6fefd10dd6388a750b29559e", "rental_uris": {"ios": "https://dc.lft.to/lastmile_qr_scan", "android": "https://dc.lft.to/lastmile_qr_scan"}}, {"is_disabled": 0, "fusion_lat": 0.0, "lat": 38.860940666666664, "type": "electric_scooter", "lon": -76.98375566666667, "is_reserved": 0, "fusion_lon": 0.0, "bike_id": "0e97d3246d9ee3617a8979f9acd6f4d5", "name": "0e97d3246d9ee3617a8979f9acd6f4d5", "rental_uris": {"ios": "https://dc.lft.to/lastmile_qr_scan", "android": "https://dc.lft.to/lastmile_qr_scan"}}, {"is_disabled": 0, "fusion_lat": 0.0, "lat": 38.92472583333333, "type": "electric_scooter", "lon": -77.0391285, "is_reserved": 0, "fusion_lon": 0.0, "bike_id": "a65d65d0254066e6825aef39501d0e05", "name": "a65d65d0254066e6825aef39501d0e05", "rental_uris": {"ios": "https://dc.lft.to/lastmile_qr_scan", "android": "https://dc.lft.to/lastmile_qr_scan"}}, {"is_disabled": 0, "fusion_lat": 0.0, "lat": 38.918231, "type": "electric_scooter", "lon": -77.03643016666666, "is_reserved": 0, "fusion_lon": 0.0, "bike_id": "611776117c972cbdcde638991f4473f1", "name": "611776117c972cbdcde638991f4473f1", "rental_uris": {"ios": "https://dc.lft.to/lastmile_qr_scan", "android": "https://dc.lft.to/lastmile_qr_scan"}}, {"is_disabled": 0, "fusion_lat": 0.0, "lat": 38.89627683333333, "type": "electric_scooter", "lon": -77.00916916666667, "is_reserved": 0, "fusion_lon": 0.0, "bike_id": "2e277b468bcd774e0fb35cc920e14dd2", "name": "2e277b468bcd774e0fb35cc920e14dd2", "rental_uris": {"ios": "https://dc.lft.to/lastmile_qr_scan", "android": "https://dc.lft.to/lastmile_qr_scan"}}, {"is_disabled": 0, "fusion_lat": 0.0, "lat": 38.90211933333333, "type": "electric_scooter", "lon": -76.9459095, "is_reserved": 0, "fusion_lon": 0.0, "bike_id": "7d19df6470ebe2ef698eb14b9ac9b3cb", "name": "7d19df6470ebe2ef698eb14b9ac9b3cb", "rental_uris": {"ios": "https://dc.lft.to/lastmile_qr_scan", "android": "https://dc.lft.to/lastmile_qr_scan"}}, {"is_disabled": 0, "fusion_lat": 0.0, "lat": 38.909730833333334, "type": "electric_scooter", "lon": -77.0359225, "is_reserved": 0, "fusion_lon": 0.0, "bike_id": "84dc5d1a70803db821090cbcfaf42f39", "name": "84dc5d1a70803db821090cbcfaf42f39", "rental_uris": {"ios": "https://dc.lft.to/lastmile_qr_scan", "android": "https://dc.lft.to/lastmile_qr_scan"}}, {"is_disabled": 0, "fusion_lat": 0.0, "lat": 38.949503666666665, "type": "electric_scooter", "lon": -77.01603566666667, "is_reserved": 0, "fusion_lon": 0.0, "bike_id": "6789711cfeaf0bae7f500f5345be94ab", "name": "6789711cfeaf0bae7f500f5345be94ab", "rental_uris": {"ios": "https://dc.lft.to/lastmile_qr_scan", "android": "https://dc.lft.to/lastmile_qr_scan"}}, {"is_disabled": 0, "fusion_lat": 0.0, "lat": 38.9110935, "type": "electric_scooter", "lon": -77.03827566666666, "is_reserved": 0, "fusion_lon": 0.0, "bike_id": "db9c3b88555d1e3ea42348a308fdd05a", "name": "db9c3b88555d1e3ea42348a308fdd05a", "rental_uris": {"ios": "https://dc.lft.to/lastmile_qr_scan", "android": "https://dc.lft.to/lastmile_qr_scan"}}, {"is_disabled": 0, "fusion_lat": 0.0, "lat": 38.874985333333335, "type": "electric_scooter", "lon": -77.00173433333333, "is_reserved": 0, "fusion_lon": 0.0, "bike_id": "008acdd784b3ad032705b8be5e1d5afe", "name": "008acdd784b3ad032705b8be5e1d5afe", "rental_uris": {"ios": "https://dc.lft.to/lastmile_qr_scan", "android": "https://dc.lft.to/lastmile_qr_scan"}}, {"is_disabled": 0, "fusion_lat": 0.0, "lat": 38.90526633333333, "type": "electric_scooter", "lon": -77.06457066666667, "is_reserved": 0, "fusion_lon": 0.0, "bike_id": "461601160419ea2e7ce53fbb6265eab9", "name": "461601160419ea2e7ce53fbb6265eab9", "rental_uris": {"ios": "https://dc.lft.to/lastmile_qr_scan", "android": "https://dc.lft.to/lastmile_qr_scan"}}, {"is_disabled": 0, "fusion_lat": 0.0, "lat": 38.892166833333334, "type": "electric_scooter", "lon": -77.0316235, "is_reserved": 0, "fusion_lon": 0.0, "bike_id": "90a4bf7bf0f0215f6edb1f27e66f954d", "name": "90a4bf7bf0f0215f6edb1f27e66f954d", "rental_uris": {"ios": "https://dc.lft.to/lastmile_qr_scan", "android": "https://dc.lft.to/lastmile_qr_scan"}}, {"is_disabled": 0, "fusion_lat": 0.0, "lat": 38.914568, "type": "electric_scooter", "lon": -77.036516, "is_reserved": 0, "fusion_lon": 0.0, "bike_id": "1293f9a1cc13beb40ec6326a3c0cfdc7", "name": "1293f9a1cc13beb40ec6326a3c0cfdc7", "rental_uris": {"ios": "https://dc.lft.to/lastmile_qr_scan", "android": "https://dc.lft.to/lastmile_qr_scan"}}, {"is_disabled": 0, "fusion_lat": 0.0, "lat": 38.92214533333333, "type": "electric_scooter", "lon": -77.04258816666666, "is_reserved": 0, "fusion_lon": 0.0, "bike_id": "d2d4d396bd52e00a8e1151c2d31deb87", "name": "d2d4d396bd52e00a8e1151c2d31deb87", "rental_uris": {"ios": "https://dc.lft.to/lastmile_qr_scan", "android": "https://dc.lft.to/lastmile_qr_scan"}}, {"is_disabled": 0, "fusion_lat": 0.0, "lat": 38.923288166666666, "type": "electric_scooter", "lon": -77.0378065, "is_reserved": 0, "fusion_lon": 0.0, "bike_id": "caa2e38ea1afb6b2c37fdaa42f33f887", "name": "caa2e38ea1afb6b2c37fdaa42f33f887", "rental_uris": {"ios": "https://dc.lft.to/lastmile_qr_scan", "android": "https://dc.lft.to/lastmile_qr_scan"}}, {"is_disabled": 0, "fusion_lat": 0.0, "lat": 38.9257385, "type": "electric_scooter", "lon": -77.02568, "is_reserved": 0, "fusion_lon": 0.0, "bike_id": "dcbb9b2ffca612ccc5d6b85027f1508a", "name": "dcbb9b2ffca612ccc5d6b85027f1508a", "rental_uris": {"ios": "https://dc.lft.to/lastmile_qr_scan", "android": "https://dc.lft.to/lastmile_qr_scan"}}, {"is_disabled": 0, "fusion_lat": 0.0, "lat": 38.908128833333336, "type": "electric_scooter", "lon": -76.98404083333334, "is_reserved": 0, "fusion_lon": 0.0, "bike_id": "e46453a7e7d5a955e4548a0ba3e43482", "name": "e46453a7e7d5a955e4548a0ba3e43482", "rental_uris": {"ios": "https://dc.lft.to/lastmile_qr_scan", "android": "https://dc.lft.to/lastmile_qr_scan"}}, {"is_disabled": 0, "fusion_lat": 0.0, "lat": 38.90795266666667, "type": "electric_scooter", "lon": -77.0446685, "is_reserved": 0, "fusion_lon": 0.0, "bike_id": "9b901f881ef520a57010fde15d664f29", "name": "9b901f881ef520a57010fde15d664f29", "rental_uris": {"ios": "https://dc.lft.to/lastmile_qr_scan", "android": "https://dc.lft.to/lastmile_qr_scan"}}, {"is_disabled": 0, "fusion_lat": 0.0, "lat": 38.95270433333334, "type": "electric_bike", "lon": -77.06977066666667, "is_reserved": 0, "fusion_lon": 0.0, "bike_id": "49879fc17b9165951167a113d4795de9", "name": "49879fc17b9165951167a113d4795de9", "rental_uris": {"ios": "https://dc.lft.to/lastmile_qr_scan", "android": "https://dc.lft.to/lastmile_qr_scan"}}, {"is_disabled": 0, "fusion_lat": 0.0, "lat": 38.92637966666667, "type": "electric_scooter", "lon": -77.0133705, "is_reserved": 0, "fusion_lon": 0.0, "bike_id": "c3465f0dab76ae94c27d18e12f63c141", "name": "c3465f0dab76ae94c27d18e12f63c141", "rental_uris": {"ios": "https://dc.lft.to/lastmile_qr_scan", "android": "https://dc.lft.to/lastmile_qr_scan"}}, {"is_disabled": 0, "fusion_lat": 0.0, "lat": 38.820835333333335, "type": "electric_bike", "lon": -77.05367033333333, "is_reserved": 0, "fusion_lon": 0.0, "bike_id": "3418f7419962aef545b8e697134b09ed", "name": "3418f7419962aef545b8e697134b09ed", "rental_uris": {"ios": "https://dc.lft.to/lastmile_qr_scan", "android": "https://dc.lft.to/lastmile_qr_scan"}}, {"is_disabled": 0, "fusion_lat": 0.0, "lat": 38.926049166666665, "type": "electric_scooter", "lon": -77.05691916666666, "is_reserved": 0, "fusion_lon": 0.0, "bike_id": "1d510386da34188f7a1b3cd7b5b386c9", "name": "1d510386da34188f7a1b3cd7b5b386c9", "rental_uris": {"ios": "https://dc.lft.to/lastmile_qr_scan", "android": "https://dc.lft.to/lastmile_qr_scan"}}, {"is_disabled": 0, "fusion_lat": 0.0, "lat": 38.8990515, "type": "electric_scooter", "lon": -77.00725683333333, "is_reserved": 0, "fusion_lon": 0.0, "bike_id": "e70ac72ade5c36b85d6af63941343d19", "name": "e70ac72ade5c36b85d6af63941343d19", "rental_uris": {"ios": "https://dc.lft.to/lastmile_qr_scan", "android": "https://dc.lft.to/lastmile_qr_scan"}}, {"is_disabled": 0, "fusion_lat": 0.0, "lat": 38.92324383333333, "type": "electric_scooter", "lon": -77.03890416666667, "is_reserved": 0, "fusion_lon": 0.0, "bike_id": "76c94d2e284346e683c6d1c29bb5a756", "name": "76c94d2e284346e683c6d1c29bb5a756", "rental_uris": {"ios": "https://dc.lft.to/lastmile_qr_scan", "android": "https://dc.lft.to/lastmile_qr_scan"}}, {"is_disabled": 0, "fusion_lat": 0.0, "lat": 38.918264666666666, "type": "electric_scooter", "lon": -77.03527866666667, "is_reserved": 0, "fusion_lon": 0.0, "bike_id": "07ca5f444745527ba70f941ee87713cf", "name": "07ca5f444745527ba70f941ee87713cf", "rental_uris": {"ios": "https://dc.lft.to/lastmile_qr_scan", "android": "https://dc.lft.to/lastmile_qr_scan"}}, {"is_disabled": 0, "fusion_lat": 0.0, "lat": 38.9508785, "type": "electric_scooter", "lon": -77.028328, "is_reserved": 0, "fusion_lon": 0.0, "bike_id": "288a16df66c6b828a2a51756d5e8ab5e", "name": "288a16df66c6b828a2a51756d5e8ab5e", "rental_uris": {"ios": "https://dc.lft.to/lastmile_qr_scan", "android": "https://dc.lft.to/lastmile_qr_scan"}}, {"is_disabled": 0, "fusion_lat": 0.0, "lat": 38.94089133333333, "type": "electric_scooter", "lon": -77.02721916666667, "is_reserved": 0, "fusion_lon": 0.0, "bike_id": "7bb4ac826c4c00d4eed83104d12b6d75", "name": "7bb4ac826c4c00d4eed83104d12b6d75", "rental_uris": {"ios": "https://dc.lft.to/lastmile_qr_scan", "android": "https://dc.lft.to/lastmile_qr_scan"}}, {"is_disabled": 0, "fusion_lat": 0.0, "lat": 38.9097595, "type": "electric_scooter", "lon": -77.03868483333333, "is_reserved": 0, "fusion_lon": 0.0, "bike_id": "2c34019e19e115451f688c0f2032b06e", "name": "2c34019e19e115451f688c0f2032b06e", "rental_uris": {"ios": "https://dc.lft.to/lastmile_qr_scan", "android": "https://dc.lft.to/lastmile_qr_scan"}}, {"is_disabled": 0, "fusion_lat": 0.0, "lat": 38.91967066666667, "type": "electric_scooter", "lon": -77.03206933333334, "is_reserved": 0, "fusion_lon": 0.0, "bike_id": "0bb10e74b29e44b6155e90ae9eaac419", "name": "0bb10e74b29e44b6155e90ae9eaac419", "rental_uris": {"ios": "https://dc.lft.to/lastmile_qr_scan", "android": "https://dc.lft.to/lastmile_qr_scan"}}, {"is_disabled": 0, "fusion_lat": 0.0, "lat": 38.90669483333333, "type": "electric_scooter", "lon": -77.02712133333333, "is_reserved": 0, "fusion_lon": 0.0, "bike_id": "2d66e92673c61a5cbb01b5fca8b3f8dd", "name": "2d66e92673c61a5cbb01b5fca8b3f8dd", "rental_uris": {"ios": "https://dc.lft.to/lastmile_qr_scan", "android": "https://dc.lft.to/lastmile_qr_scan"}}, {"is_disabled": 0, "fusion_lat": 0.0, "lat": 38.93764766666666, "type": "electric_scooter", "lon": -77.02114116666667, "is_reserved": 0, "fusion_lon": 0.0, "bike_id": "16bd6b91f5a10a64ccacb14007395acd", "name": "16bd6b91f5a10a64ccacb14007395acd", "rental_uris": {"ios": "https://dc.lft.to/lastmile_qr_scan", "android": "https://dc.lft.to/lastmile_qr_scan"}}, {"is_disabled": 0, "fusion_lat": 0.0, "lat": 38.935372, "type": "electric_scooter", "lon": -77.02351, "is_reserved": 0, "fusion_lon": 0.0, "bike_id": "86bf55df2e12e96454569af4d694ae8a", "name": "86bf55df2e12e96454569af4d694ae8a", "rental_uris": {"ios": "https://dc.lft.to/lastmile_qr_scan", "android": "https://dc.lft.to/lastmile_qr_scan"}}, {"is_disabled": 0, "fusion_lat": 0.0, "lat": 38.91952766666667, "type": "electric_scooter", "lon": -77.03192616666666, "is_reserved": 0, "fusion_lon": 0.0, "bike_id": "ee29844fd1cd495e55a16e2f791c57af", "name": "ee29844fd1cd495e55a16e2f791c57af", "rental_uris": {"ios": "https://dc.lft.to/lastmile_qr_scan", "android": "https://dc.lft.to/lastmile_qr_scan"}}, {"is_disabled": 0, "fusion_lat": 0.0, "lat": 38.881189666666664, "type": "electric_scooter", "lon": -77.00097716666667, "is_reserved": 0, "fusion_lon": 0.0, "bike_id": "733c95412838e44c2494064db254bc71", "name": "733c95412838e44c2494064db254bc71", "rental_uris": {"ios": "https://dc.lft.to/lastmile_qr_scan", "android": "https://dc.lft.to/lastmile_qr_scan"}}, {"is_disabled": 0, "fusion_lat": 0.0, "lat": 38.873763833333335, "type": "electric_bike", "lon": -77.11798866666666, "is_reserved": 0, "fusion_lon": 0.0, "bike_id": "547fde4bb38e00383794bf70945f033e", "name": "547fde4bb38e00383794bf70945f033e", "rental_uris": {"ios": "https://dc.lft.to/lastmile_qr_scan", "android": "https://dc.lft.to/lastmile_qr_scan"}}, {"is_disabled": 0, "fusion_lat": 0.0, "lat": 38.9195285, "type": "electric_scooter", "lon": -77.04143483333333, "is_reserved": 0, "fusion_lon": 0.0, "bike_id": "00be27596fe9d82347b00c46e71a00df", "name": "00be27596fe9d82347b00c46e71a00df", "rental_uris": {"ios": "https://dc.lft.to/lastmile_qr_scan", "android": "https://dc.lft.to/lastmile_qr_scan"}}, {"is_disabled": 0, "fusion_lat": 0.0, "lat": 38.927252, "type": "electric_scooter", "lon": -77.03976733333333, "is_reserved": 0, "fusion_lon": 0.0, "bike_id": "ac5e4a28988db39bb9b5dc0ae5c4447c", "name": "ac5e4a28988db39bb9b5dc0ae5c4447c", "rental_uris": {"ios": "https://dc.lft.to/lastmile_qr_scan", "android": "https://dc.lft.to/lastmile_qr_scan"}}, {"is_disabled": 0, "fusion_lat": 0.0, "lat": 38.905928333333335, "type": "electric_scooter", "lon": -77.04145733333333, "is_reserved": 0, "fusion_lon": 0.0, "bike_id": "5117f19fcdd2233138d524e7a26ec466", "name": "5117f19fcdd2233138d524e7a26ec466", "rental_uris": {"ios": "https://dc.lft.to/lastmile_qr_scan", "android": "https://dc.lft.to/lastmile_qr_scan"}}, {"is_disabled": 0, "fusion_lat": 0.0, "lat": 38.944311, "type": "electric_scooter", "lon": -76.99201016666666, "is_reserved": 0, "fusion_lon": 0.0, "bike_id": "d445a13d7af170a71a23bb51c70dc055", "name": "d445a13d7af170a71a23bb51c70dc055", "rental_uris": {"ios": "https://dc.lft.to/lastmile_qr_scan", "android": "https://dc.lft.to/lastmile_qr_scan"}}, {"is_disabled": 0, "fusion_lat": 0.0, "lat": 38.87861433333333, "type": "electric_scooter", "lon": -76.989843, "is_reserved": 0, "fusion_lon": 0.0, "bike_id": "6ce12b1835b613786729d185924c2425", "name": "6ce12b1835b613786729d185924c2425", "rental_uris": {"ios": "https://dc.lft.to/lastmile_qr_scan", "android": "https://dc.lft.to/lastmile_qr_scan"}}, {"is_disabled": 0, "fusion_lat": 0.0, "lat": 38.9210375, "type": "electric_scooter", "lon": -77.04384783333333, "is_reserved": 0, "fusion_lon": 0.0, "bike_id": "f1644d3df9cead03393f08c799da6c7c", "name": "f1644d3df9cead03393f08c799da6c7c", "rental_uris": {"ios": "https://dc.lft.to/lastmile_qr_scan", "android": "https://dc.lft.to/lastmile_qr_scan"}}, {"is_disabled": 0, "fusion_lat": 0.0, "lat": 38.92815616666667, "type": "electric_scooter", "lon": -77.03695316666666, "is_reserved": 0, "fusion_lon": 0.0, "bike_id": "41402ab123c07e622bb61702508efd52", "name": "41402ab123c07e622bb61702508efd52", "rental_uris": {"ios": "https://dc.lft.to/lastmile_qr_scan", "android": "https://dc.lft.to/lastmile_qr_scan"}}, {"is_disabled": 0, "fusion_lat": 0.0, "lat": 38.93471233333333, "type": "electric_scooter", "lon": -77.019224, "is_reserved": 0, "fusion_lon": 0.0, "bike_id": "373dab9102c04db74c5963d337d48363", "name": "373dab9102c04db74c5963d337d48363", "rental_uris": {"ios": "https://dc.lft.to/lastmile_qr_scan", "android": "https://dc.lft.to/lastmile_qr_scan"}}, {"is_disabled": 0, "fusion_lat": 0.0, "lat": 38.89223166666667, "type": "electric_scooter", "lon": -77.0222295, "is_reserved": 0, "fusion_lon": 0.0, "bike_id": "9db54b06798d5af7eaef28d495e44008", "name": "9db54b06798d5af7eaef28d495e44008", "rental_uris": {"ios": "https://dc.lft.to/lastmile_qr_scan", "android": "https://dc.lft.to/lastmile_qr_scan"}}, {"is_disabled": 0, "fusion_lat": 0.0, "lat": 38.902881, "type": "electric_scooter", "lon": -77.03837783333333, "is_reserved": 0, "fusion_lon": 0.0, "bike_id": "6fa90301d78c11f6eb943139f9b41876", "name": "6fa90301d78c11f6eb943139f9b41876", "rental_uris": {"ios": "https://dc.lft.to/lastmile_qr_scan", "android": "https://dc.lft.to/lastmile_qr_scan"}}, {"is_disabled": 0, "fusion_lat": 0.0, "lat": 38.8850305, "type": "electric_scooter", "lon": -77.00566416666666, "is_reserved": 0, "fusion_lon": 0.0, "bike_id": "69f70221060c1cb149f78397157cdcb1", "name": "69f70221060c1cb149f78397157cdcb1", "rental_uris": {"ios": "https://dc.lft.to/lastmile_qr_scan", "android": "https://dc.lft.to/lastmile_qr_scan"}}, {"is_disabled": 0, "fusion_lat": 0.0, "lat": 38.9655995, "type": "electric_bike", "lon": -77.02300433333333, "is_reserved": 0, "fusion_lon": 0.0, "bike_id": "02b4d00ec154da23462e7c3b01c323d3", "name": "02b4d00ec154da23462e7c3b01c323d3", "rental_uris": {"ios": "https://dc.lft.to/lastmile_qr_scan", "android": "https://dc.lft.to/lastmile_qr_scan"}}, {"is_disabled": 0, "fusion_lat": 0.0, "lat": 38.89345866666667, "type": "electric_scooter", "lon": -76.949336, "is_reserved": 0, "fusion_lon": 0.0, "bike_id": "3bb7352e502c09e90908709660d4571b", "name": "3bb7352e502c09e90908709660d4571b", "rental_uris": {"ios": "https://dc.lft.to/lastmile_qr_scan", "android": "https://dc.lft.to/lastmile_qr_scan"}}, {"is_disabled": 0, "fusion_lat": 0.0, "lat": 38.94610816666667, "type": "electric_scooter", "lon": -77.03512533333334, "is_reserved": 0, "fusion_lon": 0.0, "bike_id": "0ff5a6ed14d84c850b2e244abf7148ab", "name": "0ff5a6ed14d84c850b2e244abf7148ab", "rental_uris": {"ios": "https://dc.lft.to/lastmile_qr_scan", "android": "https://dc.lft.to/lastmile_qr_scan"}}, {"is_disabled": 0, "fusion_lat": 0.0, "lat": 38.90855116666667, "type": "electric_scooter", "lon": -77.02456733333334, "is_reserved": 0, "fusion_lon": 0.0, "bike_id": "ac91ba940bd980e7fc0772a1596a1e38", "name": "ac91ba940bd980e7fc0772a1596a1e38", "rental_uris": {"ios": "https://dc.lft.to/lastmile_qr_scan", "android": "https://dc.lft.to/lastmile_qr_scan"}}, {"is_disabled": 0, "fusion_lat": 0.0, "lat": 38.9432795, "type": "electric_scooter", "lon": -77.0739205, "is_reserved": 0, "fusion_lon": 0.0, "bike_id": "32983042dfcb4540bc55dcafcb48ff03", "name": "32983042dfcb4540bc55dcafcb48ff03", "rental_uris": {"ios": "https://dc.lft.to/lastmile_qr_scan", "android": "https://dc.lft.to/lastmile_qr_scan"}}, {"is_disabled": 0, "fusion_lat": 0.0, "lat": 38.8993375, "type": "electric_scooter", "lon": -77.05385083333333, "is_reserved": 0, "fusion_lon": 0.0, "bike_id": "ab53de3b951f9a7ffbf6dcf239185231", "name": "ab53de3b951f9a7ffbf6dcf239185231", "rental_uris": {"ios": "https://dc.lft.to/lastmile_qr_scan", "android": "https://dc.lft.to/lastmile_qr_scan"}}, {"is_disabled": 0, "fusion_lat": 0.0, "lat": 38.8636395, "type": "electric_scooter", "lon": -76.99042633333333, "is_reserved": 0, "fusion_lon": 0.0, "bike_id": "0ffbbefc99038d9d6997a6a8c6adf04e", "name": "0ffbbefc99038d9d6997a6a8c6adf04e", "rental_uris": {"ios": "https://dc.lft.to/lastmile_qr_scan", "android": "https://dc.lft.to/lastmile_qr_scan"}}, {"is_disabled": 0, "fusion_lat": 0.0, "lat": 38.90714916666667, "type": "electric_scooter", "lon": -77.02973483333334, "is_reserved": 0, "fusion_lon": 0.0, "bike_id": "4dcc563dab2c574dbb44d5ac71739f59", "name": "4dcc563dab2c574dbb44d5ac71739f59", "rental_uris": {"ios": "https://dc.lft.to/lastmile_qr_scan", "android": "https://dc.lft.to/lastmile_qr_scan"}}, {"is_disabled": 0, "fusion_lat": 0.0, "lat": 38.87479666666667, "type": "electric_scooter", "lon": -77.00183116666666, "is_reserved": 0, "fusion_lon": 0.0, "bike_id": "32b47f1da3851311800d00743f23296a", "name": "32b47f1da3851311800d00743f23296a", "rental_uris": {"ios": "https://dc.lft.to/lastmile_qr_scan", "android": "https://dc.lft.to/lastmile_qr_scan"}}, {"is_disabled": 0, "fusion_lat": 0.0, "lat": 38.926202833333335, "type": "electric_scooter", "lon": -77.0055765, "is_reserved": 0, "fusion_lon": 0.0, "bike_id": "baa67e35c405a45ce52bd6b4fc62defc", "name": "baa67e35c405a45ce52bd6b4fc62defc", "rental_uris": {"ios": "https://dc.lft.to/lastmile_qr_scan", "android": "https://dc.lft.to/lastmile_qr_scan"}}, {"is_disabled": 0, "fusion_lat": 0.0, "lat": 38.922493833333334, "type": "electric_scooter", "lon": -77.03062983333334, "is_reserved": 0, "fusion_lon": 0.0, "bike_id": "c8238e6f1b9c57c7ff6a26327a19cbc0", "name": "c8238e6f1b9c57c7ff6a26327a19cbc0", "rental_uris": {"ios": "https://dc.lft.to/lastmile_qr_scan", "android": "https://dc.lft.to/lastmile_qr_scan"}}, {"is_disabled": 0, "fusion_lat": 0.0, "lat": 38.88710433333333, "type": "electric_scooter", "lon": -77.03215416666667, "is_reserved": 0, "fusion_lon": 0.0, "bike_id": "16dfa40fc017e08f9bfbc9acdedadd27", "name": "16dfa40fc017e08f9bfbc9acdedadd27", "rental_uris": {"ios": "https://dc.lft.to/lastmile_qr_scan", "android": "https://dc.lft.to/lastmile_qr_scan"}}, {"is_disabled": 0, "fusion_lat": 0.0, "lat": 38.882834, "type": "electric_scooter", "lon": -77.04154983333333, "is_reserved": 0, "fusion_lon": 0.0, "bike_id": "0a63b94799e0f718b640557f113f5fe9", "name": "0a63b94799e0f718b640557f113f5fe9", "rental_uris": {"ios": "https://dc.lft.to/lastmile_qr_scan", "android": "https://dc.lft.to/lastmile_qr_scan"}}, {"is_disabled": 0, "fusion_lat": 0.0, "lat": 38.91877016666667, "type": "electric_scooter", "lon": -76.97135533333334, "is_reserved": 0, "fusion_lon": 0.0, "bike_id": "e37010076939ba3ff477fdfaec0e57c5", "name": "e37010076939ba3ff477fdfaec0e57c5", "rental_uris": {"ios": "https://dc.lft.to/lastmile_qr_scan", "android": "https://dc.lft.to/lastmile_qr_scan"}}, {"is_disabled": 0, "fusion_lat": 0.0, "lat": 38.90288066666667, "type": "electric_scooter", "lon": -77.038727, "is_reserved": 0, "fusion_lon": 0.0, "bike_id": "991dba1d5be3df2b88395a2eb8fa2716", "name": "991dba1d5be3df2b88395a2eb8fa2716", "rental_uris": {"ios": "https://dc.lft.to/lastmile_qr_scan", "android": "https://dc.lft.to/lastmile_qr_scan"}}, {"is_disabled": 0, "fusion_lat": 0.0, "lat": 38.87630516666667, "type": "electric_scooter", "lon": -76.96525566666666, "is_reserved": 0, "fusion_lon": 0.0, "bike_id": "ddd1c93a8896bca79dc606046f1c830f", "name": "ddd1c93a8896bca79dc606046f1c830f", "rental_uris": {"ios": "https://dc.lft.to/lastmile_qr_scan", "android": "https://dc.lft.to/lastmile_qr_scan"}}, {"is_disabled": 0, "fusion_lat": 0.0, "lat": 38.919601666666665, "type": "electric_scooter", "lon": -77.02713533333333, "is_reserved": 0, "fusion_lon": 0.0, "bike_id": "a53c09dd26703da73966370bd7e6561e", "name": "a53c09dd26703da73966370bd7e6561e", "rental_uris": {"ios": "https://dc.lft.to/lastmile_qr_scan", "android": "https://dc.lft.to/lastmile_qr_scan"}}, {"is_disabled": 0, "fusion_lat": 0.0, "lat": 38.912724, "type": "electric_scooter", "lon": -77.033902, "is_reserved": 0, "fusion_lon": 0.0, "bike_id": "991d0923ac927c80bc3c646876c6309e", "name": "991d0923ac927c80bc3c646876c6309e", "rental_uris": {"ios": "https://dc.lft.to/lastmile_qr_scan", "android": "https://dc.lft.to/lastmile_qr_scan"}}, {"is_disabled": 0, "fusion_lat": 0.0, "lat": 38.86663683333333, "type": "electric_scooter", "lon": -76.98902616666666, "is_reserved": 0, "fusion_lon": 0.0, "bike_id": "2be66fba0fc0f72d1bf21abe4e8a08cb", "name": "2be66fba0fc0f72d1bf21abe4e8a08cb", "rental_uris": {"ios": "https://dc.lft.to/lastmile_qr_scan", "android": "https://dc.lft.to/lastmile_qr_scan"}}, {"is_disabled": 0, "fusion_lat": 0.0, "lat": 38.865286, "type": "electric_scooter", "lon": -76.99029716666666, "is_reserved": 0, "fusion_lon": 0.0, "bike_id": "30bd0467bc439f6a1154d201c78ff2dd", "name": "30bd0467bc439f6a1154d201c78ff2dd", "rental_uris": {"ios": "https://dc.lft.to/lastmile_qr_scan", "android": "https://dc.lft.to/lastmile_qr_scan"}}, {"is_disabled": 0, "fusion_lat": 0.0, "lat": 38.925650833333336, "type": "electric_scooter", "lon": -77.052585, "is_reserved": 0, "fusion_lon": 0.0, "bike_id": "3c79cb61e709153d39c619ce8e49885f", "name": "3c79cb61e709153d39c619ce8e49885f", "rental_uris": {"ios": "https://dc.lft.to/lastmile_qr_scan", "android": "https://dc.lft.to/lastmile_qr_scan"}}, {"is_disabled": 0, "fusion_lat": 0.0, "lat": 38.946284166666665, "type": "electric_scooter", "lon": -77.01843966666667, "is_reserved": 0, "fusion_lon": 0.0, "bike_id": "90cd37c14eb4ef2ef42a3589545b251f", "name": "90cd37c14eb4ef2ef42a3589545b251f", "rental_uris": {"ios": "https://dc.lft.to/lastmile_qr_scan", "android": "https://dc.lft.to/lastmile_qr_scan"}}, {"is_disabled": 0, "fusion_lat": 0.0, "lat": 38.83810716666667, "type": "electric_bike", "lon": -77.09521766666667, "is_reserved": 0, "fusion_lon": 0.0, "bike_id": "0520e15bd5d896b2d800a7dc75f0a5a2", "name": "0520e15bd5d896b2d800a7dc75f0a5a2", "rental_uris": {"ios": "https://dc.lft.to/lastmile_qr_scan", "android": "https://dc.lft.to/lastmile_qr_scan"}}, {"is_disabled": 0, "fusion_lat": 0.0, "lat": 38.838645166666666, "type": "electric_bike", "lon": -76.99696866666666, "is_reserved": 0, "fusion_lon": 0.0, "bike_id": "ca6ef148393c946b5d9b197c1edd941d", "name": "ca6ef148393c946b5d9b197c1edd941d", "rental_uris": {"ios": "https://dc.lft.to/lastmile_qr_scan", "android": "https://dc.lft.to/lastmile_qr_scan"}}, {"is_disabled": 0, "fusion_lat": 0.0, "lat": 38.89738716666667, "type": "electric_scooter", "lon": -76.938453, "is_reserved": 0, "fusion_lon": 0.0, "bike_id": "32054dd021967418205f74a1faf46344", "name": "32054dd021967418205f74a1faf46344", "rental_uris": {"ios": "https://dc.lft.to/lastmile_qr_scan", "android": "https://dc.lft.to/lastmile_qr_scan"}}, {"is_disabled": 0, "fusion_lat": 0.0, "lat": 38.91460416666666, "type": "electric_scooter", "lon": -76.98424416666667, "is_reserved": 0, "fusion_lon": 0.0, "bike_id": "3cc8e466cfe37fdbe34dd6018cfcfc53", "name": "3cc8e466cfe37fdbe34dd6018cfcfc53", "rental_uris": {"ios": "https://dc.lft.to/lastmile_qr_scan", "android": "https://dc.lft.to/lastmile_qr_scan"}}, {"is_disabled": 0, "fusion_lat": 0.0, "lat": 38.921237166666664, "type": "electric_scooter", "lon": -77.0457475, "is_reserved": 0, "fusion_lon": 0.0, "bike_id": "377dc45c86ebd35ad72e914aeb01a939", "name": "377dc45c86ebd35ad72e914aeb01a939", "rental_uris": {"ios": "https://dc.lft.to/lastmile_qr_scan", "android": "https://dc.lft.to/lastmile_qr_scan"}}, {"is_disabled": 0, "fusion_lat": 0.0, "lat": 38.94950633333333, "type": "electric_bike", "lon": -77.01605833333333, "is_reserved": 0, "fusion_lon": 0.0, "bike_id": "0efd41696dc6313ffd5cf927ba60be29", "name": "0efd41696dc6313ffd5cf927ba60be29", "rental_uris": {"ios": "https://dc.lft.to/lastmile_qr_scan", "android": "https://dc.lft.to/lastmile_qr_scan"}}, {"is_disabled": 0, "fusion_lat": 0.0, "lat": 38.94554566666667, "type": "electric_bike", "lon": -76.89538633333333, "is_reserved": 0, "fusion_lon": 0.0, "bike_id": "8ed4cff1f84170eb0bd90898a30ce2b9", "name": "8ed4cff1f84170eb0bd90898a30ce2b9", "rental_uris": {"ios": "https://dc.lft.to/lastmile_qr_scan", "android": "https://dc.lft.to/lastmile_qr_scan"}}, {"is_disabled": 0, "fusion_lat": 0.0, "lat": 38.90716466666667, "type": "electric_scooter", "lon": -77.0435585, "is_reserved": 0, "fusion_lon": 0.0, "bike_id": "24b0e6389570f5b925673fc754422331", "name": "24b0e6389570f5b925673fc754422331", "rental_uris": {"ios": "https://dc.lft.to/lastmile_qr_scan", "android": "https://dc.lft.to/lastmile_qr_scan"}}, {"is_disabled": 0, "fusion_lat": 0.0, "lat": 38.8646055, "type": "electric_scooter", "lon": -76.97750083333334, "is_reserved": 0, "fusion_lon": 0.0, "bike_id": "4788c9536745c1105f2b75d2baf26171", "name": "4788c9536745c1105f2b75d2baf26171", "rental_uris": {"ios": "https://dc.lft.to/lastmile_qr_scan", "android": "https://dc.lft.to/lastmile_qr_scan"}}, {"is_disabled": 0, "fusion_lat": 0.0, "lat": 38.9166435, "type": "electric_scooter", "lon": -77.03855583333333, "is_reserved": 0, "fusion_lon": 0.0, "bike_id": "6c0019eb8e222f4c826701fbef26b56e", "name": "6c0019eb8e222f4c826701fbef26b56e", "rental_uris": {"ios": "https://dc.lft.to/lastmile_qr_scan", "android": "https://dc.lft.to/lastmile_qr_scan"}}, {"is_disabled": 0, "fusion_lat": 0.0, "lat": 38.952594833333336, "type": "electric_scooter", "lon": -77.06974466666667, "is_reserved": 0, "fusion_lon": 0.0, "bike_id": "d372e94764729a2164df1f6827a3b177", "name": "d372e94764729a2164df1f6827a3b177", "rental_uris": {"ios": "https://dc.lft.to/lastmile_qr_scan", "android": "https://dc.lft.to/lastmile_qr_scan"}}, {"is_disabled": 0, "fusion_lat": 0.0, "lat": 38.9257085, "type": "electric_scooter", "lon": -77.02838616666666, "is_reserved": 0, "fusion_lon": 0.0, "bike_id": "f89bbd7194d747894a3de660be19a4a1", "name": "f89bbd7194d747894a3de660be19a4a1", "rental_uris": {"ios": "https://dc.lft.to/lastmile_qr_scan", "android": "https://dc.lft.to/lastmile_qr_scan"}}, {"is_disabled": 0, "fusion_lat": 0.0, "lat": 38.898348, "type": "electric_scooter", "lon": -76.94633633333333, "is_reserved": 0, "fusion_lon": 0.0, "bike_id": "c5389132fc6292835cd98f899a231c42", "name": "c5389132fc6292835cd98f899a231c42", "rental_uris": {"ios": "https://dc.lft.to/lastmile_qr_scan", "android": "https://dc.lft.to/lastmile_qr_scan"}}, {"is_disabled": 0, "fusion_lat": 0.0, "lat": 38.91618016666666, "type": "electric_scooter", "lon": -77.03136533333333, "is_reserved": 0, "fusion_lon": 0.0, "bike_id": "a36e0228611dc8f8e28620d47f7381a7", "name": "a36e0228611dc8f8e28620d47f7381a7", "rental_uris": {"ios": "https://dc.lft.to/lastmile_qr_scan", "android": "https://dc.lft.to/lastmile_qr_scan"}}, {"is_disabled": 0, "fusion_lat": 0.0, "lat": 38.973293, "type": "electric_bike", "lon": -77.021447, "is_reserved": 0, "fusion_lon": 0.0, "bike_id": "c8b6c2c94ff51f45f180ee540d676a20", "name": "c8b6c2c94ff51f45f180ee540d676a20", "rental_uris": {"ios": "https://dc.lft.to/lastmile_qr_scan", "android": "https://dc.lft.to/lastmile_qr_scan"}}, {"is_disabled": 0, "fusion_lat": 0.0, "lat": 38.91716383333333, "type": "electric_scooter", "lon": -77.03343966666667, "is_reserved": 0, "fusion_lon": 0.0, "bike_id": "253f6672a566dae909d2ba89aa82f3ea", "name": "253f6672a566dae909d2ba89aa82f3ea", "rental_uris": {"ios": "https://dc.lft.to/lastmile_qr_scan", "android": "https://dc.lft.to/lastmile_qr_scan"}}, {"is_disabled": 0, "fusion_lat": 0.0, "lat": 38.89783033333333, "type": "electric_scooter", "lon": -77.03220516666667, "is_reserved": 0, "fusion_lon": 0.0, "bike_id": "d0d1834e40e14c6230ba2d1b88136378", "name": "d0d1834e40e14c6230ba2d1b88136378", "rental_uris": {"ios": "https://dc.lft.to/lastmile_qr_scan", "android": "https://dc.lft.to/lastmile_qr_scan"}}, {"is_disabled": 0, "fusion_lat": 0.0, "lat": 38.909776, "type": "electric_scooter", "lon": -77.03437516666666, "is_reserved": 0, "fusion_lon": 0.0, "bike_id": "e4a0ab33b5812c10f157532136bdd2f5", "name": "e4a0ab33b5812c10f157532136bdd2f5", "rental_uris": {"ios": "https://dc.lft.to/lastmile_qr_scan", "android": "https://dc.lft.to/lastmile_qr_scan"}}, {"is_disabled": 0, "fusion_lat": 0.0, "lat": 38.8656305, "type": "electric_scooter", "lon": -76.989521, "is_reserved": 0, "fusion_lon": 0.0, "bike_id": "c54e7d4c684e5f3e3673a9bd3d65b5c0", "name": "c54e7d4c684e5f3e3673a9bd3d65b5c0", "rental_uris": {"ios": "https://dc.lft.to/lastmile_qr_scan", "android": "https://dc.lft.to/lastmile_qr_scan"}}, {"is_disabled": 0, "fusion_lat": 0.0, "lat": 38.911695, "type": "electric_scooter", "lon": -77.06857316666667, "is_reserved": 0, "fusion_lon": 0.0, "bike_id": "5feab66f21f01e76391b35e7451c2072", "name": "5feab66f21f01e76391b35e7451c2072", "rental_uris": {"ios": "https://dc.lft.to/lastmile_qr_scan", "android": "https://dc.lft.to/lastmile_qr_scan"}}, {"is_disabled": 0, "fusion_lat": 0.0, "lat": 38.917125666666664, "type": "electric_scooter", "lon": -77.02234766666666, "is_reserved": 0, "fusion_lon": 0.0, "bike_id": "1cfa2cee66714a7ec05f848de18e06bb", "name": "1cfa2cee66714a7ec05f848de18e06bb", "rental_uris": {"ios": "https://dc.lft.to/lastmile_qr_scan", "android": "https://dc.lft.to/lastmile_qr_scan"}}, {"is_disabled": 0, "fusion_lat": 0.0, "lat": 38.90296816666667, "type": "electric_scooter", "lon": -76.99254566666667, "is_reserved": 0, "fusion_lon": 0.0, "bike_id": "94ca5806af93e88e133199129b099888", "name": "94ca5806af93e88e133199129b099888", "rental_uris": {"ios": "https://dc.lft.to/lastmile_qr_scan", "android": "https://dc.lft.to/lastmile_qr_scan"}}, {"is_disabled": 0, "fusion_lat": 0.0, "lat": 38.932091666666665, "type": "electric_scooter", "lon": -77.02354216666667, "is_reserved": 0, "fusion_lon": 0.0, "bike_id": "c9f13e5567a525d46ed8d55d6379206d", "name": "c9f13e5567a525d46ed8d55d6379206d", "rental_uris": {"ios": "https://dc.lft.to/lastmile_qr_scan", "android": "https://dc.lft.to/lastmile_qr_scan"}}, {"is_disabled": 0, "fusion_lat": 0.0, "lat": 38.8443, "type": "electric_scooter", "lon": -76.99775283333334, "is_reserved": 0, "fusion_lon": 0.0, "bike_id": "128b6f7c53afd1fa3309fc6506707688", "name": "128b6f7c53afd1fa3309fc6506707688", "rental_uris": {"ios": "https://dc.lft.to/lastmile_qr_scan", "android": "https://dc.lft.to/lastmile_qr_scan"}}, {"is_disabled": 0, "fusion_lat": 0.0, "lat": 38.9290265, "type": "electric_scooter", "lon": -77.032634, "is_reserved": 0, "fusion_lon": 0.0, "bike_id": "0fb7083031ec7862cc314c84f781b056", "name": "0fb7083031ec7862cc314c84f781b056", "rental_uris": {"ios": "https://dc.lft.to/lastmile_qr_scan", "android": "https://dc.lft.to/lastmile_qr_scan"}}, {"is_disabled": 0, "fusion_lat": 0.0, "lat": 38.8605825, "type": "electric_bike", "lon": -77.05632666666666, "is_reserved": 0, "fusion_lon": 0.0, "bike_id": "83ef31645e5fde720b8243036ec0ab29", "name": "83ef31645e5fde720b8243036ec0ab29", "rental_uris": {"ios": "https://dc.lft.to/lastmile_qr_scan", "android": "https://dc.lft.to/lastmile_qr_scan"}}, {"is_disabled": 0, "fusion_lat": 0.0, "lat": 38.91405183333333, "type": "electric_scooter", "lon": -77.03148, "is_reserved": 0, "fusion_lon": 0.0, "bike_id": "c59447eba0cd920804d1d142b8c08030", "name": "c59447eba0cd920804d1d142b8c08030", "rental_uris": {"ios": "https://dc.lft.to/lastmile_qr_scan", "android": "https://dc.lft.to/lastmile_qr_scan"}}, {"is_disabled": 0, "fusion_lat": 0.0, "lat": 38.81330366666667, "type": "electric_bike", "lon": -77.05098833333334, "is_reserved": 0, "fusion_lon": 0.0, "bike_id": "05036451b2ceb2630354b201f88d517c", "name": "05036451b2ceb2630354b201f88d517c", "rental_uris": {"ios": "https://dc.lft.to/lastmile_qr_scan", "android": "https://dc.lft.to/lastmile_qr_scan"}}, {"is_disabled": 0, "fusion_lat": 0.0, "lat": 38.91986566666667, "type": "electric_scooter", "lon": -77.04167266666667, "is_reserved": 0, "fusion_lon": 0.0, "bike_id": "0c0520ce596723a9e1be1796dad9679c", "name": "0c0520ce596723a9e1be1796dad9679c", "rental_uris": {"ios": "https://dc.lft.to/lastmile_qr_scan", "android": "https://dc.lft.to/lastmile_qr_scan"}}, {"is_disabled": 0, "fusion_lat": 0.0, "lat": 38.91989366666667, "type": "electric_scooter", "lon": -76.973061, "is_reserved": 0, "fusion_lon": 0.0, "bike_id": "eed864ab20b55f246e6b9cbc39e093e6", "name": "eed864ab20b55f246e6b9cbc39e093e6", "rental_uris": {"ios": "https://dc.lft.to/lastmile_qr_scan", "android": "https://dc.lft.to/lastmile_qr_scan"}}, {"is_disabled": 0, "fusion_lat": 0.0, "lat": 38.9507395, "type": "electric_bike", "lon": -77.01204133333333, "is_reserved": 0, "fusion_lon": 0.0, "bike_id": "4371ed5f643d152a25a3ea9b71b8aeb8", "name": "4371ed5f643d152a25a3ea9b71b8aeb8", "rental_uris": {"ios": "https://dc.lft.to/lastmile_qr_scan", "android": "https://dc.lft.to/lastmile_qr_scan"}}, {"is_disabled": 0, "fusion_lat": 0.0, "lat": 38.855107, "type": "electric_bike", "lon": -77.120247, "is_reserved": 0, "fusion_lon": 0.0, "bike_id": "6f45d2454f75a676c22b8ebba5b11e71", "name": "6f45d2454f75a676c22b8ebba5b11e71", "rental_uris": {"ios": "https://dc.lft.to/lastmile_qr_scan", "android": "https://dc.lft.to/lastmile_qr_scan"}}, {"is_disabled": 0, "fusion_lat": 0.0, "lat": 38.9025185, "type": "electric_scooter", "lon": -77.04133533333334, "is_reserved": 0, "fusion_lon": 0.0, "bike_id": "ba45cf93220191fb48a554b716753dff", "name": "ba45cf93220191fb48a554b716753dff", "rental_uris": {"ios": "https://dc.lft.to/lastmile_qr_scan", "android": "https://dc.lft.to/lastmile_qr_scan"}}, {"is_disabled": 0, "fusion_lat": 0.0, "lat": 38.90971566666666, "type": "electric_scooter", "lon": -77.03983183333334, "is_reserved": 0, "fusion_lon": 0.0, "bike_id": "10d809622be3136328637fcb232e6cd6", "name": "10d809622be3136328637fcb232e6cd6", "rental_uris": {"ios": "https://dc.lft.to/lastmile_qr_scan", "android": "https://dc.lft.to/lastmile_qr_scan"}}, {"is_disabled": 0, "fusion_lat": 0.0, "lat": 38.91636716666667, "type": "electric_scooter", "lon": -77.04814733333333, "is_reserved": 0, "fusion_lon": 0.0, "bike_id": "26d01f8364d5452794cd0a927ca8cfea", "name": "26d01f8364d5452794cd0a927ca8cfea", "rental_uris": {"ios": "https://dc.lft.to/lastmile_qr_scan", "android": "https://dc.lft.to/lastmile_qr_scan"}}, {"is_disabled": 0, "fusion_lat": 0.0, "lat": 38.9993795, "type": "electric_bike", "lon": -77.01764533333333, "is_reserved": 0, "fusion_lon": 0.0, "bike_id": "b54ff3f21586fdd291ccad526402739a", "name": "b54ff3f21586fdd291ccad526402739a", "rental_uris": {"ios": "https://dc.lft.to/lastmile_qr_scan", "android": "https://dc.lft.to/lastmile_qr_scan"}}, {"is_disabled": 0, "fusion_lat": 0.0, "lat": 38.90570533333333, "type": "electric_scooter", "lon": -77.03462883333333, "is_reserved": 0, "fusion_lon": 0.0, "bike_id": "43b1f15e8413694c9048d9b0d5d14661", "name": "43b1f15e8413694c9048d9b0d5d14661", "rental_uris": {"ios": "https://dc.lft.to/lastmile_qr_scan", "android": "https://dc.lft.to/lastmile_qr_scan"}}, {"is_disabled": 0, "fusion_lat": 0.0, "lat": 38.93522566666667, "type": "electric_scooter", "lon": -77.03265433333333, "is_reserved": 0, "fusion_lon": 0.0, "bike_id": "c1dc311f626531dea3f03498a1971813", "name": "c1dc311f626531dea3f03498a1971813", "rental_uris": {"ios": "https://dc.lft.to/lastmile_qr_scan", "android": "https://dc.lft.to/lastmile_qr_scan"}}, {"is_disabled": 0, "fusion_lat": 0.0, "lat": 38.90262383333334, "type": "electric_scooter", "lon": -76.98686983333333, "is_reserved": 0, "fusion_lon": 0.0, "bike_id": "f2248ee028fe3f2cb74f7a19043da953", "name": "f2248ee028fe3f2cb74f7a19043da953", "rental_uris": {"ios": "https://dc.lft.to/lastmile_qr_scan", "android": "https://dc.lft.to/lastmile_qr_scan"}}, {"is_disabled": 0, "fusion_lat": 0.0, "lat": 38.92319916666667, "type": "electric_scooter", "lon": -77.04517016666667, "is_reserved": 0, "fusion_lon": 0.0, "bike_id": "68f9bd427137609cf7c18d424666e663", "name": "68f9bd427137609cf7c18d424666e663", "rental_uris": {"ios": "https://dc.lft.to/lastmile_qr_scan", "android": "https://dc.lft.to/lastmile_qr_scan"}}, {"is_disabled": 0, "fusion_lat": 0.0, "lat": 38.90522466666667, "type": "electric_scooter", "lon": -77.04343766666666, "is_reserved": 0, "fusion_lon": 0.0, "bike_id": "94ff6eb7f5c1e4a0f435d4f4abbc03bb", "name": "94ff6eb7f5c1e4a0f435d4f4abbc03bb", "rental_uris": {"ios": "https://dc.lft.to/lastmile_qr_scan", "android": "https://dc.lft.to/lastmile_qr_scan"}}, {"is_disabled": 0, "fusion_lat": 0.0, "lat": 38.91547033333333, "type": "electric_scooter", "lon": -77.03841166666666, "is_reserved": 0, "fusion_lon": 0.0, "bike_id": "1a214b04b6134be9a89c90395d160684", "name": "1a214b04b6134be9a89c90395d160684", "rental_uris": {"ios": "https://dc.lft.to/lastmile_qr_scan", "android": "https://dc.lft.to/lastmile_qr_scan"}}, {"is_disabled": 0, "fusion_lat": 0.0, "lat": 38.911102666666665, "type": "electric_scooter", "lon": -77.048229, "is_reserved": 0, "fusion_lon": 0.0, "bike_id": "12acf0ec42e4987b5939c1898b3c5367", "name": "12acf0ec42e4987b5939c1898b3c5367", "rental_uris": {"ios": "https://dc.lft.to/lastmile_qr_scan", "android": "https://dc.lft.to/lastmile_qr_scan"}}, {"is_disabled": 0, "fusion_lat": 0.0, "lat": 38.92948333333333, "type": "electric_bike", "lon": -77.0440105, "is_reserved": 0, "fusion_lon": 0.0, "bike_id": "8fc8984accecf5ab0eb150fc3bd02fdd", "name": "8fc8984accecf5ab0eb150fc3bd02fdd", "rental_uris": {"ios": "https://dc.lft.to/lastmile_qr_scan", "android": "https://dc.lft.to/lastmile_qr_scan"}}, {"is_disabled": 0, "fusion_lat": 0.0, "lat": 39.08859, "type": "electric_bike", "lon": -77.17840116666666, "is_reserved": 0, "fusion_lon": 0.0, "bike_id": "b84ffd26083c14e983b8ab504da8c524", "name": "b84ffd26083c14e983b8ab504da8c524", "rental_uris": {"ios": "https://dc.lft.to/lastmile_qr_scan", "android": "https://dc.lft.to/lastmile_qr_scan"}}, {"is_disabled": 0, "fusion_lat": 0.0, "lat": 38.92208383333333, "type": "electric_scooter", "lon": -77.0329585, "is_reserved": 0, "fusion_lon": 0.0, "bike_id": "a11ef2d64d3bad001f4086dea67e7fd7", "name": "a11ef2d64d3bad001f4086dea67e7fd7", "rental_uris": {"ios": "https://dc.lft.to/lastmile_qr_scan", "android": "https://dc.lft.to/lastmile_qr_scan"}}, {"is_disabled": 0, "fusion_lat": 0.0, "lat": 38.929521666666666, "type": "electric_bike", "lon": -77.03769766666667, "is_reserved": 0, "fusion_lon": 0.0, "bike_id": "62748c31e4ebeaf1dbdf3751985fad2e", "name": "62748c31e4ebeaf1dbdf3751985fad2e", "rental_uris": {"ios": "https://dc.lft.to/lastmile_qr_scan", "android": "https://dc.lft.to/lastmile_qr_scan"}}, {"is_disabled": 0, "fusion_lat": 0.0, "lat": 38.901567666666665, "type": "electric_scooter", "lon": -76.97631183333333, "is_reserved": 0, "fusion_lon": 0.0, "bike_id": "f950421ee1d59970d37a620bbb9e1e47", "name": "f950421ee1d59970d37a620bbb9e1e47", "rental_uris": {"ios": "https://dc.lft.to/lastmile_qr_scan", "android": "https://dc.lft.to/lastmile_qr_scan"}}, {"is_disabled": 0, "fusion_lat": 0.0, "lat": 38.919228333333336, "type": "electric_scooter", "lon": -77.03175183333333, "is_reserved": 0, "fusion_lon": 0.0, "bike_id": "7d97e75b414192a01953d67219bd7a75", "name": "7d97e75b414192a01953d67219bd7a75", "rental_uris": {"ios": "https://dc.lft.to/lastmile_qr_scan", "android": "https://dc.lft.to/lastmile_qr_scan"}}, {"is_disabled": 0, "fusion_lat": 0.0, "lat": 38.940530833333334, "type": "electric_bike", "lon": -76.95381633333334, "is_reserved": 0, "fusion_lon": 0.0, "bike_id": "5d180c23e2059889a06fdfa48181468d", "name": "5d180c23e2059889a06fdfa48181468d", "rental_uris": {"ios": "https://dc.lft.to/lastmile_qr_scan", "android": "https://dc.lft.to/lastmile_qr_scan"}}, {"is_disabled": 0, "fusion_lat": 0.0, "lat": 38.898110833333334, "type": "electric_bike", "lon": -76.99064316666667, "is_reserved": 0, "fusion_lon": 0.0, "bike_id": "f554a641736c5379ebb41ff470447029", "name": "f554a641736c5379ebb41ff470447029", "rental_uris": {"ios": "https://dc.lft.to/lastmile_qr_scan", "android": "https://dc.lft.to/lastmile_qr_scan"}}, {"is_disabled": 0, "fusion_lat": 0.0, "lat": 38.9284775, "type": "electric_bike", "lon": -77.02056283333333, "is_reserved": 0, "fusion_lon": 0.0, "bike_id": "7a489820dc513b82878240dde89171f7", "name": "7a489820dc513b82878240dde89171f7", "rental_uris": {"ios": "https://dc.lft.to/lastmile_qr_scan", "android": "https://dc.lft.to/lastmile_qr_scan"}}, {"is_disabled": 0, "fusion_lat": 0.0, "lat": 38.887196333333335, "type": "electric_scooter", "lon": -77.03221416666666, "is_reserved": 0, "fusion_lon": 0.0, "bike_id": "59087cf2aef8fb7bf2b388706e00e2cf", "name": "59087cf2aef8fb7bf2b388706e00e2cf", "rental_uris": {"ios": "https://dc.lft.to/lastmile_qr_scan", "android": "https://dc.lft.to/lastmile_qr_scan"}}, {"is_disabled": 0, "fusion_lat": 0.0, "lat": 38.9285875, "type": "electric_bike", "lon": -77.22216683333333, "is_reserved": 0, "fusion_lon": 0.0, "bike_id": "1a3672aad0aa5c9d7f26d6ee407147ff", "name": "1a3672aad0aa5c9d7f26d6ee407147ff", "rental_uris": {"ios": "https://dc.lft.to/lastmile_qr_scan", "android": "https://dc.lft.to/lastmile_qr_scan"}}, {"is_disabled": 0, "fusion_lat": 0.0, "lat": 38.98365416666667, "type": "electric_scooter", "lon": -77.02642866666666, "is_reserved": 0, "fusion_lon": 0.0, "bike_id": "193a4623175a5cfd2c19713c572e636e", "name": "193a4623175a5cfd2c19713c572e636e", "rental_uris": {"ios": "https://dc.lft.to/lastmile_qr_scan", "android": "https://dc.lft.to/lastmile_qr_scan"}}, {"is_disabled": 0, "fusion_lat": 0.0, "lat": 38.88403616666667, "type": "electric_scooter", "lon": -77.03037616666667, "is_reserved": 0, "fusion_lon": 0.0, "bike_id": "1e68316b7339375b2c5bf7abb3762bbc", "name": "1e68316b7339375b2c5bf7abb3762bbc", "rental_uris": {"ios": "https://dc.lft.to/lastmile_qr_scan", "android": "https://dc.lft.to/lastmile_qr_scan"}}, {"is_disabled": 0, "fusion_lat": 0.0, "lat": 38.899581166666664, "type": "electric_bike", "lon": -77.0550195, "is_reserved": 0, "fusion_lon": 0.0, "bike_id": "6c5f4aa49eb757c2380ae86208939005", "name": "6c5f4aa49eb757c2380ae86208939005", "rental_uris": {"ios": "https://dc.lft.to/lastmile_qr_scan", "android": "https://dc.lft.to/lastmile_qr_scan"}}, {"is_disabled": 0, "fusion_lat": 0.0, "lat": 38.9575465, "type": "electric_scooter", "lon": -77.02065233333333, "is_reserved": 0, "fusion_lon": 0.0, "bike_id": "aa2aaa75dbea9b38b58a7047be861a7c", "name": "aa2aaa75dbea9b38b58a7047be861a7c", "rental_uris": {"ios": "https://dc.lft.to/lastmile_qr_scan", "android": "https://dc.lft.to/lastmile_qr_scan"}}, {"is_disabled": 0, "fusion_lat": 0.0, "lat": 38.89375033333334, "type": "electric_scooter", "lon": -76.9499885, "is_reserved": 0, "fusion_lon": 0.0, "bike_id": "aef8e37362a37af194b15bee01ff4471", "name": "aef8e37362a37af194b15bee01ff4471", "rental_uris": {"ios": "https://dc.lft.to/lastmile_qr_scan", "android": "https://dc.lft.to/lastmile_qr_scan"}}, {"is_disabled": 0, "fusion_lat": 0.0, "lat": 38.90073816666666, "type": "electric_scooter", "lon": -76.99835433333334, "is_reserved": 0, "fusion_lon": 0.0, "bike_id": "8c2ec446424c3a1c2b80b90685dd4e42", "name": "8c2ec446424c3a1c2b80b90685dd4e42", "rental_uris": {"ios": "https://dc.lft.to/lastmile_qr_scan", "android": "https://dc.lft.to/lastmile_qr_scan"}}, {"is_disabled": 0, "fusion_lat": 0.0, "lat": 38.95880316666667, "type": "electric_bike", "lon": -76.924792, "is_reserved": 0, "fusion_lon": 0.0, "bike_id": "52893d71c0519faf4c703e581daec067", "name": "52893d71c0519faf4c703e581daec067", "rental_uris": {"ios": "https://dc.lft.to/lastmile_qr_scan", "android": "https://dc.lft.to/lastmile_qr_scan"}}, {"is_disabled": 0, "fusion_lat": 0.0, "lat": 38.97327833333333, "type": "electric_bike", "lon": -77.021461, "is_reserved": 0, "fusion_lon": 0.0, "bike_id": "a602197c366d2678a069eb33e48e3cb8", "name": "a602197c366d2678a069eb33e48e3cb8", "rental_uris": {"ios": "https://dc.lft.to/lastmile_qr_scan", "android": "https://dc.lft.to/lastmile_qr_scan"}}, {"is_disabled": 0, "fusion_lat": 0.0, "lat": 38.88181383333333, "type": "electric_scooter", "lon": -77.0281235, "is_reserved": 0, "fusion_lon": 0.0, "bike_id": "d39ef3d656246929a29f83b51be22b85", "name": "d39ef3d656246929a29f83b51be22b85", "rental_uris": {"ios": "https://dc.lft.to/lastmile_qr_scan", "android": "https://dc.lft.to/lastmile_qr_scan"}}, {"is_disabled": 0, "fusion_lat": 0.0, "lat": 38.903271333333336, "type": "electric_scooter", "lon": -77.03835516666666, "is_reserved": 0, "fusion_lon": 0.0, "bike_id": "6841f0dabe6c106c222d8dabf1fdd0b4", "name": "6841f0dabe6c106c222d8dabf1fdd0b4", "rental_uris": {"ios": "https://dc.lft.to/lastmile_qr_scan", "android": "https://dc.lft.to/lastmile_qr_scan"}}, {"is_disabled": 0, "fusion_lat": 0.0, "lat": 38.92546333333333, "type": "electric_scooter", "lon": -76.98126616666667, "is_reserved": 0, "fusion_lon": 0.0, "bike_id": "40e30802ed4c61a7a348b4d0c31d7368", "name": "40e30802ed4c61a7a348b4d0c31d7368", "rental_uris": {"ios": "https://dc.lft.to/lastmile_qr_scan", "android": "https://dc.lft.to/lastmile_qr_scan"}}, {"is_disabled": 0, "fusion_lat": 0.0, "lat": 38.9323775, "type": "electric_scooter", "lon": -77.02952466666666, "is_reserved": 0, "fusion_lon": 0.0, "bike_id": "3089a944066bc1ca76c1faa860ccc152", "name": "3089a944066bc1ca76c1faa860ccc152", "rental_uris": {"ios": "https://dc.lft.to/lastmile_qr_scan", "android": "https://dc.lft.to/lastmile_qr_scan"}}, {"is_disabled": 0, "fusion_lat": 0.0, "lat": 38.917482, "type": "electric_scooter", "lon": -77.034615, "is_reserved": 0, "fusion_lon": 0.0, "bike_id": "7cf313303d512dca7fd6f1abe53c372e", "name": "7cf313303d512dca7fd6f1abe53c372e", "rental_uris": {"ios": "https://dc.lft.to/lastmile_qr_scan", "android": "https://dc.lft.to/lastmile_qr_scan"}}, {"is_disabled": 0, "fusion_lat": 0.0, "lat": 38.85560366666667, "type": "electric_scooter", "lon": -76.994986, "is_reserved": 0, "fusion_lon": 0.0, "bike_id": "6c74491877804507041628bbcb44059f", "name": "6c74491877804507041628bbcb44059f", "rental_uris": {"ios": "https://dc.lft.to/lastmile_qr_scan", "android": "https://dc.lft.to/lastmile_qr_scan"}}, {"is_disabled": 0, "fusion_lat": 0.0, "lat": 38.927226833333336, "type": "electric_scooter", "lon": -77.03658033333333, "is_reserved": 0, "fusion_lon": 0.0, "bike_id": "ffad118798f02c735886f85920d7251d", "name": "ffad118798f02c735886f85920d7251d", "rental_uris": {"ios": "https://dc.lft.to/lastmile_qr_scan", "android": "https://dc.lft.to/lastmile_qr_scan"}}, {"is_disabled": 0, "fusion_lat": 0.0, "lat": 38.920068666666666, "type": "electric_scooter", "lon": -77.021804, "is_reserved": 0, "fusion_lon": 0.0, "bike_id": "0042176977bea13aa9f0717173cd2a40", "name": "0042176977bea13aa9f0717173cd2a40", "rental_uris": {"ios": "https://dc.lft.to/lastmile_qr_scan", "android": "https://dc.lft.to/lastmile_qr_scan"}}, {"is_disabled": 0, "fusion_lat": 0.0, "lat": 38.90577116666667, "type": "electric_scooter", "lon": -77.005854, "is_reserved": 0, "fusion_lon": 0.0, "bike_id": "f921aea06dfd30dc181d215a8cc79d5f", "name": "f921aea06dfd30dc181d215a8cc79d5f", "rental_uris": {"ios": "https://dc.lft.to/lastmile_qr_scan", "android": "https://dc.lft.to/lastmile_qr_scan"}}, {"is_disabled": 0, "fusion_lat": 0.0, "lat": 38.90274816666667, "type": "electric_scooter", "lon": -77.0403515, "is_reserved": 0, "fusion_lon": 0.0, "bike_id": "0c13d2489fe9f12618c06b3e221239a3", "name": "0c13d2489fe9f12618c06b3e221239a3", "rental_uris": {"ios": "https://dc.lft.to/lastmile_qr_scan", "android": "https://dc.lft.to/lastmile_qr_scan"}}, {"is_disabled": 0, "fusion_lat": 0.0, "lat": 38.924570333333335, "type": "electric_bike", "lon": -76.975571, "is_reserved": 0, "fusion_lon": 0.0, "bike_id": "2436714eac3a412c4c29451de5842158", "name": "2436714eac3a412c4c29451de5842158", "rental_uris": {"ios": "https://dc.lft.to/lastmile_qr_scan", "android": "https://dc.lft.to/lastmile_qr_scan"}}, {"is_disabled": 0, "fusion_lat": 0.0, "lat": 38.915626, "type": "electric_scooter", "lon": -77.02157183333334, "is_reserved": 0, "fusion_lon": 0.0, "bike_id": "58d867841e2b6cbd327913f07a7fecf1", "name": "58d867841e2b6cbd327913f07a7fecf1", "rental_uris": {"ios": "https://dc.lft.to/lastmile_qr_scan", "android": "https://dc.lft.to/lastmile_qr_scan"}}, {"is_disabled": 0, "fusion_lat": 0.0, "lat": 38.90185916666667, "type": "electric_scooter", "lon": -76.9345985, "is_reserved": 0, "fusion_lon": 0.0, "bike_id": "e1df289e339071b5a9b04444f25ae152", "name": "e1df289e339071b5a9b04444f25ae152", "rental_uris": {"ios": "https://dc.lft.to/lastmile_qr_scan", "android": "https://dc.lft.to/lastmile_qr_scan"}}, {"is_disabled": 0, "fusion_lat": 0.0, "lat": 38.903440333333336, "type": "electric_scooter", "lon": -76.972432, "is_reserved": 0, "fusion_lon": 0.0, "bike_id": "b1eaa1be787a8107cec19e894594fa90", "name": "b1eaa1be787a8107cec19e894594fa90", "rental_uris": {"ios": "https://dc.lft.to/lastmile_qr_scan", "android": "https://dc.lft.to/lastmile_qr_scan"}}, {"is_disabled": 0, "fusion_lat": 0.0, "lat": 38.90193383333333, "type": "electric_scooter", "lon": -77.02173233333333, "is_reserved": 0, "fusion_lon": 0.0, "bike_id": "37479ddc3fc9931621da9065b5c11d6c", "name": "37479ddc3fc9931621da9065b5c11d6c", "rental_uris": {"ios": "https://dc.lft.to/lastmile_qr_scan", "android": "https://dc.lft.to/lastmile_qr_scan"}}, {"is_disabled": 0, "fusion_lat": 0.0, "lat": 38.919895333333336, "type": "electric_scooter", "lon": -77.023883, "is_reserved": 0, "fusion_lon": 0.0, "bike_id": "29635a998edfe7a744f82b70051a153f", "name": "29635a998edfe7a744f82b70051a153f", "rental_uris": {"ios": "https://dc.lft.to/lastmile_qr_scan", "android": "https://dc.lft.to/lastmile_qr_scan"}}, {"is_disabled": 0, "fusion_lat": 0.0, "lat": 38.86619916666667, "type": "electric_scooter", "lon": -76.98667916666666, "is_reserved": 0, "fusion_lon": 0.0, "bike_id": "f7815dc890352c7cc578668b1c851604", "name": "f7815dc890352c7cc578668b1c851604", "rental_uris": {"ios": "https://dc.lft.to/lastmile_qr_scan", "android": "https://dc.lft.to/lastmile_qr_scan"}}, {"is_disabled": 0, "fusion_lat": 0.0, "lat": 38.904531, "type": "electric_scooter", "lon": -77.05916266666667, "is_reserved": 0, "fusion_lon": 0.0, "bike_id": "3e0334c3458456eafd257d12d74e7332", "name": "3e0334c3458456eafd257d12d74e7332", "rental_uris": {"ios": "https://dc.lft.to/lastmile_qr_scan", "android": "https://dc.lft.to/lastmile_qr_scan"}}, {"is_disabled": 0, "fusion_lat": 0.0, "lat": 38.92364533333333, "type": "electric_scooter", "lon": -77.05089316666667, "is_reserved": 0, "fusion_lon": 0.0, "bike_id": "6f9cc3cc75ee3825889ccbd2147b0ee1", "name": "6f9cc3cc75ee3825889ccbd2147b0ee1", "rental_uris": {"ios": "https://dc.lft.to/lastmile_qr_scan", "android": "https://dc.lft.to/lastmile_qr_scan"}}, {"is_disabled": 0, "fusion_lat": 0.0, "lat": 38.90421683333334, "type": "electric_scooter", "lon": -77.04856766666667, "is_reserved": 0, "fusion_lon": 0.0, "bike_id": "d17e1569ffd2c7f8c21e665f964b64ea", "name": "d17e1569ffd2c7f8c21e665f964b64ea", "rental_uris": {"ios": "https://dc.lft.to/lastmile_qr_scan", "android": "https://dc.lft.to/lastmile_qr_scan"}}, {"is_disabled": 0, "fusion_lat": 0.0, "lat": 38.881132, "type": "electric_bike", "lon": -77.016706, "is_reserved": 0, "fusion_lon": 0.0, "bike_id": "6e654fa7ab95b6ad54f808c8ab0c85bd", "name": "6e654fa7ab95b6ad54f808c8ab0c85bd", "rental_uris": {"ios": "https://dc.lft.to/lastmile_qr_scan", "android": "https://dc.lft.to/lastmile_qr_scan"}}, {"is_disabled": 0, "fusion_lat": 0.0, "lat": 38.953936, "type": "electric_bike", "lon": -77.02755416666666, "is_reserved": 0, "fusion_lon": 0.0, "bike_id": "d982942853e43cba7d14b5260e64bc84", "name": "d982942853e43cba7d14b5260e64bc84", "rental_uris": {"ios": "https://dc.lft.to/lastmile_qr_scan", "android": "https://dc.lft.to/lastmile_qr_scan"}}, {"is_disabled": 0, "fusion_lat": 0.0, "lat": 38.91333216666666, "type": "electric_scooter", "lon": -77.04843133333334, "is_reserved": 0, "fusion_lon": 0.0, "bike_id": "05e94444a96ef8527b79a8c5e107fa55", "name": "05e94444a96ef8527b79a8c5e107fa55", "rental_uris": {"ios": "https://dc.lft.to/lastmile_qr_scan", "android": "https://dc.lft.to/lastmile_qr_scan"}}, {"is_disabled": 0, "fusion_lat": 0.0, "lat": 38.90981466666667, "type": "electric_scooter", "lon": -77.03895766666666, "is_reserved": 0, "fusion_lon": 0.0, "bike_id": "be41d027f2d556777e7fd92f8dabd1a1", "name": "be41d027f2d556777e7fd92f8dabd1a1", "rental_uris": {"ios": "https://dc.lft.to/lastmile_qr_scan", "android": "https://dc.lft.to/lastmile_qr_scan"}}, {"is_disabled": 0, "fusion_lat": 0.0, "lat": 38.912596666666666, "type": "electric_scooter", "lon": -77.034934, "is_reserved": 0, "fusion_lon": 0.0, "bike_id": "8c001afd044d655c50ea26dc3d7bdfd0", "name": "8c001afd044d655c50ea26dc3d7bdfd0", "rental_uris": {"ios": "https://dc.lft.to/lastmile_qr_scan", "android": "https://dc.lft.to/lastmile_qr_scan"}}, {"is_disabled": 0, "fusion_lat": 0.0, "lat": 38.88592583333333, "type": "electric_scooter", "lon": -77.0006045, "is_reserved": 0, "fusion_lon": 0.0, "bike_id": "e0bc8d9ae2a69ee2132278984fb97077", "name": "e0bc8d9ae2a69ee2132278984fb97077", "rental_uris": {"ios": "https://dc.lft.to/lastmile_qr_scan", "android": "https://dc.lft.to/lastmile_qr_scan"}}, {"is_disabled": 0, "fusion_lat": 0.0, "lat": 38.91677116666666, "type": "electric_scooter", "lon": -77.01576916666667, "is_reserved": 0, "fusion_lon": 0.0, "bike_id": "5b7177c0dd66852db354026984e45b93", "name": "5b7177c0dd66852db354026984e45b93", "rental_uris": {"ios": "https://dc.lft.to/lastmile_qr_scan", "android": "https://dc.lft.to/lastmile_qr_scan"}}, {"is_disabled": 0, "fusion_lat": 0.0, "lat": 38.89681316666667, "type": "electric_scooter", "lon": -76.93530666666666, "is_reserved": 0, "fusion_lon": 0.0, "bike_id": "67a1499e99ba6ecaab684659c7ad2f15", "name": "67a1499e99ba6ecaab684659c7ad2f15", "rental_uris": {"ios": "https://dc.lft.to/lastmile_qr_scan", "android": "https://dc.lft.to/lastmile_qr_scan"}}, {"is_disabled": 0, "fusion_lat": 0.0, "lat": 38.9202105, "type": "electric_scooter", "lon": -77.00210716666666, "is_reserved": 0, "fusion_lon": 0.0, "bike_id": "bdb180bf9a474835d22c186cd5515037", "name": "bdb180bf9a474835d22c186cd5515037", "rental_uris": {"ios": "https://dc.lft.to/lastmile_qr_scan", "android": "https://dc.lft.to/lastmile_qr_scan"}}, {"is_disabled": 0, "fusion_lat": 0.0, "lat": 38.909175833333336, "type": "electric_scooter", "lon": -76.9926665, "is_reserved": 0, "fusion_lon": 0.0, "bike_id": "93f0a7d3634c0a777fe3cb0fec9bb15b", "name": "93f0a7d3634c0a777fe3cb0fec9bb15b", "rental_uris": {"ios": "https://dc.lft.to/lastmile_qr_scan", "android": "https://dc.lft.to/lastmile_qr_scan"}}, {"is_disabled": 0, "fusion_lat": 0.0, "lat": 38.91789416666667, "type": "electric_scooter", "lon": -77.03426583333334, "is_reserved": 0, "fusion_lon": 0.0, "bike_id": "cdf22babfef9373d24554974a6a1218e", "name": "cdf22babfef9373d24554974a6a1218e", "rental_uris": {"ios": "https://dc.lft.to/lastmile_qr_scan", "android": "https://dc.lft.to/lastmile_qr_scan"}}, {"is_disabled": 0, "fusion_lat": 0.0, "lat": 38.917305666666664, "type": "electric_scooter", "lon": -77.03661983333333, "is_reserved": 0, "fusion_lon": 0.0, "bike_id": "c3ebce97f4140c560ec5dcf2ad92166b", "name": "c3ebce97f4140c560ec5dcf2ad92166b", "rental_uris": {"ios": "https://dc.lft.to/lastmile_qr_scan", "android": "https://dc.lft.to/lastmile_qr_scan"}}, {"is_disabled": 0, "fusion_lat": 0.0, "lat": 38.917297, "type": "electric_scooter", "lon": -77.0366175, "is_reserved": 0, "fusion_lon": 0.0, "bike_id": "5339203a82bc3372503b0ce9fe6c1035", "name": "5339203a82bc3372503b0ce9fe6c1035", "rental_uris": {"ios": "https://dc.lft.to/lastmile_qr_scan", "android": "https://dc.lft.to/lastmile_qr_scan"}}, {"is_disabled": 0, "fusion_lat": 0.0, "lat": 38.90845566666667, "type": "electric_scooter", "lon": -77.0329835, "is_reserved": 0, "fusion_lon": 0.0, "bike_id": "9c7ef0a1e327a8199f609a745def81be", "name": "9c7ef0a1e327a8199f609a745def81be", "rental_uris": {"ios": "https://dc.lft.to/lastmile_qr_scan", "android": "https://dc.lft.to/lastmile_qr_scan"}}, {"is_disabled": 0, "fusion_lat": 0.0, "lat": 38.84571733333333, "type": "electric_bike", "lon": -77.09623833333333, "is_reserved": 0, "fusion_lon": 0.0, "bike_id": "f876bea7e1e957893fb92d402316a65e", "name": "f876bea7e1e957893fb92d402316a65e", "rental_uris": {"ios": "https://dc.lft.to/lastmile_qr_scan", "android": "https://dc.lft.to/lastmile_qr_scan"}}, {"is_disabled": 0, "fusion_lat": 0.0, "lat": 38.901404166666666, "type": "electric_scooter", "lon": -77.04179033333334, "is_reserved": 0, "fusion_lon": 0.0, "bike_id": "7c6fd1dd08b8ed759f058a1d0c0c6199", "name": "7c6fd1dd08b8ed759f058a1d0c0c6199", "rental_uris": {"ios": "https://dc.lft.to/lastmile_qr_scan", "android": "https://dc.lft.to/lastmile_qr_scan"}}, {"is_disabled": 0, "fusion_lat": 0.0, "lat": 38.871607, "type": "electric_scooter", "lon": -77.013498, "is_reserved": 0, "fusion_lon": 0.0, "bike_id": "ef2ff080228107a4aba9254c3a721356", "name": "ef2ff080228107a4aba9254c3a721356", "rental_uris": {"ios": "https://dc.lft.to/lastmile_qr_scan", "android": "https://dc.lft.to/lastmile_qr_scan"}}, {"is_disabled": 0, "fusion_lat": 0.0, "lat": 38.9241105, "type": "electric_bike", "lon": -77.2081525, "is_reserved": 0, "fusion_lon": 0.0, "bike_id": "239f4ff637458e01cba6eb8c4d0c1c09", "name": "239f4ff637458e01cba6eb8c4d0c1c09", "rental_uris": {"ios": "https://dc.lft.to/lastmile_qr_scan", "android": "https://dc.lft.to/lastmile_qr_scan"}}, {"is_disabled": 0, "fusion_lat": 0.0, "lat": 38.90381166666667, "type": "electric_scooter", "lon": -77.05335966666667, "is_reserved": 0, "fusion_lon": 0.0, "bike_id": "ba80acf097ad8efa1c33c195fce67d2b", "name": "ba80acf097ad8efa1c33c195fce67d2b", "rental_uris": {"ios": "https://dc.lft.to/lastmile_qr_scan", "android": "https://dc.lft.to/lastmile_qr_scan"}}, {"is_disabled": 0, "fusion_lat": 0.0, "lat": 38.892195666666666, "type": "electric_scooter", "lon": -77.022196, "is_reserved": 0, "fusion_lon": 0.0, "bike_id": "827388733ba448b1c1abf20f5304b6f2", "name": "827388733ba448b1c1abf20f5304b6f2", "rental_uris": {"ios": "https://dc.lft.to/lastmile_qr_scan", "android": "https://dc.lft.to/lastmile_qr_scan"}}, {"is_disabled": 0, "fusion_lat": 0.0, "lat": 38.90333966666667, "type": "electric_scooter", "lon": -77.06560616666667, "is_reserved": 0, "fusion_lon": 0.0, "bike_id": "99b4badc466370d8ff2d6c84263fe626", "name": "99b4badc466370d8ff2d6c84263fe626", "rental_uris": {"ios": "https://dc.lft.to/lastmile_qr_scan", "android": "https://dc.lft.to/lastmile_qr_scan"}}, {"is_disabled": 0, "fusion_lat": 0.0, "lat": 38.89475383333333, "type": "electric_scooter", "lon": -76.9840285, "is_reserved": 0, "fusion_lon": 0.0, "bike_id": "2af5ac1da385bdd55edb8fbe88131d64", "name": "2af5ac1da385bdd55edb8fbe88131d64", "rental_uris": {"ios": "https://dc.lft.to/lastmile_qr_scan", "android": "https://dc.lft.to/lastmile_qr_scan"}}, {"is_disabled": 0, "fusion_lat": 0.0, "lat": 38.91011133333333, "type": "electric_scooter", "lon": -77.08895633333333, "is_reserved": 0, "fusion_lon": 0.0, "bike_id": "bbd53603ec2336abcb6fec0184ef249b", "name": "bbd53603ec2336abcb6fec0184ef249b", "rental_uris": {"ios": "https://dc.lft.to/lastmile_qr_scan", "android": "https://dc.lft.to/lastmile_qr_scan"}}, {"is_disabled": 0, "fusion_lat": 0.0, "lat": 38.8616945, "type": "electric_bike", "lon": -77.13149183333333, "is_reserved": 0, "fusion_lon": 0.0, "bike_id": "7c083f4ff580d99d56874097cbb1c236", "name": "7c083f4ff580d99d56874097cbb1c236", "rental_uris": {"ios": "https://dc.lft.to/lastmile_qr_scan", "android": "https://dc.lft.to/lastmile_qr_scan"}}, {"is_disabled": 0, "fusion_lat": 0.0, "lat": 38.9370005, "type": "electric_bike", "lon": -77.02978583333334, "is_reserved": 0, "fusion_lon": 0.0, "bike_id": "5198b61f6cc9cb3503a71e56f05470b6", "name": "5198b61f6cc9cb3503a71e56f05470b6", "rental_uris": {"ios": "https://dc.lft.to/lastmile_qr_scan", "android": "https://dc.lft.to/lastmile_qr_scan"}}, {"is_disabled": 0, "fusion_lat": 0.0, "lat": 38.91376483333333, "type": "electric_scooter", "lon": -77.00440166666667, "is_reserved": 0, "fusion_lon": 0.0, "bike_id": "ae57dd9f3599576f99b4ce72ae6856e7", "name": "ae57dd9f3599576f99b4ce72ae6856e7", "rental_uris": {"ios": "https://dc.lft.to/lastmile_qr_scan", "android": "https://dc.lft.to/lastmile_qr_scan"}}, {"is_disabled": 0, "fusion_lat": 0.0, "lat": 38.87238333333333, "type": "electric_bike", "lon": -77.01172966666667, "is_reserved": 0, "fusion_lon": 0.0, "bike_id": "4d09f27542091ab2f56ef6647b8924ef", "name": "4d09f27542091ab2f56ef6647b8924ef", "rental_uris": {"ios": "https://dc.lft.to/lastmile_qr_scan", "android": "https://dc.lft.to/lastmile_qr_scan"}}, {"is_disabled": 0, "fusion_lat": 0.0, "lat": 38.92155366666667, "type": "electric_scooter", "lon": -77.03882616666667, "is_reserved": 0, "fusion_lon": 0.0, "bike_id": "93f06eabd7bbbdbc6ec1f967579b180b", "name": "93f06eabd7bbbdbc6ec1f967579b180b", "rental_uris": {"ios": "https://dc.lft.to/lastmile_qr_scan", "android": "https://dc.lft.to/lastmile_qr_scan"}}, {"is_disabled": 0, "fusion_lat": 0.0, "lat": 38.9000535, "type": "electric_scooter", "lon": -76.99014833333334, "is_reserved": 0, "fusion_lon": 0.0, "bike_id": "4032e83ca018ee840d7cd685ed48b0b6", "name": "4032e83ca018ee840d7cd685ed48b0b6", "rental_uris": {"ios": "https://dc.lft.to/lastmile_qr_scan", "android": "https://dc.lft.to/lastmile_qr_scan"}}, {"is_disabled": 0, "fusion_lat": 0.0, "lat": 38.89615383333334, "type": "electric_scooter", "lon": -76.9811665, "is_reserved": 0, "fusion_lon": 0.0, "bike_id": "5e1e403a3f956a6157310ef710da4fe6", "name": "5e1e403a3f956a6157310ef710da4fe6", "rental_uris": {"ios": "https://dc.lft.to/lastmile_qr_scan", "android": "https://dc.lft.to/lastmile_qr_scan"}}, {"is_disabled": 0, "fusion_lat": 0.0, "lat": 38.95100166666667, "type": "electric_scooter", "lon": -77.02338483333334, "is_reserved": 0, "fusion_lon": 0.0, "bike_id": "4123bcf63799d70ac2cf18294b137b8f", "name": "4123bcf63799d70ac2cf18294b137b8f", "rental_uris": {"ios": "https://dc.lft.to/lastmile_qr_scan", "android": "https://dc.lft.to/lastmile_qr_scan"}}, {"is_disabled": 0, "fusion_lat": 0.0, "lat": 38.865704, "type": "electric_scooter", "lon": -76.989503, "is_reserved": 0, "fusion_lon": 0.0, "bike_id": "bfbff00920354daf4f7d3e2203caa742", "name": "bfbff00920354daf4f7d3e2203caa742", "rental_uris": {"ios": "https://dc.lft.to/lastmile_qr_scan", "android": "https://dc.lft.to/lastmile_qr_scan"}}, {"is_disabled": 0, "fusion_lat": 0.0, "lat": 38.916852666666664, "type": "electric_scooter", "lon": -77.01229783333334, "is_reserved": 0, "fusion_lon": 0.0, "bike_id": "e9a287e212ca0968ad780d3b3a50c3d0", "name": "e9a287e212ca0968ad780d3b3a50c3d0", "rental_uris": {"ios": "https://dc.lft.to/lastmile_qr_scan", "android": "https://dc.lft.to/lastmile_qr_scan"}}, {"is_disabled": 0, "fusion_lat": 0.0, "lat": 38.9141515, "type": "electric_scooter", "lon": -77.03992833333334, "is_reserved": 0, "fusion_lon": 0.0, "bike_id": "741f360143e89f9ffc18733f030cef6f", "name": "741f360143e89f9ffc18733f030cef6f", "rental_uris": {"ios": "https://dc.lft.to/lastmile_qr_scan", "android": "https://dc.lft.to/lastmile_qr_scan"}}, {"is_disabled": 0, "fusion_lat": 0.0, "lat": 38.905887, "type": "electric_scooter", "lon": -76.98618416666666, "is_reserved": 0, "fusion_lon": 0.0, "bike_id": "a0b78120c127f1362fbfdd9eaca32d6c", "name": "a0b78120c127f1362fbfdd9eaca32d6c", "rental_uris": {"ios": "https://dc.lft.to/lastmile_qr_scan", "android": "https://dc.lft.to/lastmile_qr_scan"}}, {"is_disabled": 0, "fusion_lat": 0.0, "lat": 38.881132, "type": "electric_scooter", "lon": -77.01656683333333, "is_reserved": 0, "fusion_lon": 0.0, "bike_id": "e567b3466f7bc1ec093344826a263661", "name": "e567b3466f7bc1ec093344826a263661", "rental_uris": {"ios": "https://dc.lft.to/lastmile_qr_scan", "android": "https://dc.lft.to/lastmile_qr_scan"}}, {"is_disabled": 0, "fusion_lat": 0.0, "lat": 38.892216, "type": "electric_bike", "lon": -77.10780566666666, "is_reserved": 0, "fusion_lon": 0.0, "bike_id": "0b96d5dff9afc41800f8dcb92582f2b6", "name": "0b96d5dff9afc41800f8dcb92582f2b6", "rental_uris": {"ios": "https://dc.lft.to/lastmile_qr_scan", "android": "https://dc.lft.to/lastmile_qr_scan"}}, {"is_disabled": 0, "fusion_lat": 0.0, "lat": 38.908623166666665, "type": "electric_scooter", "lon": -77.02841033333333, "is_reserved": 0, "fusion_lon": 0.0, "bike_id": "ba807a7ee4651b63075589d4aaf0c44b", "name": "ba807a7ee4651b63075589d4aaf0c44b", "rental_uris": {"ios": "https://dc.lft.to/lastmile_qr_scan", "android": "https://dc.lft.to/lastmile_qr_scan"}}, {"is_disabled": 0, "fusion_lat": 0.0, "lat": 38.89731483333333, "type": "electric_scooter", "lon": -77.04890566666667, "is_reserved": 0, "fusion_lon": 0.0, "bike_id": "8ea88650ffba83f88e5b5f5ca321075a", "name": "8ea88650ffba83f88e5b5f5ca321075a", "rental_uris": {"ios": "https://dc.lft.to/lastmile_qr_scan", "android": "https://dc.lft.to/lastmile_qr_scan"}}, {"is_disabled": 0, "fusion_lat": 0.0, "lat": 38.909147833333336, "type": "electric_scooter", "lon": -77.08004766666667, "is_reserved": 0, "fusion_lon": 0.0, "bike_id": "74255db1012553a8f08d55c6faa14140", "name": "74255db1012553a8f08d55c6faa14140", "rental_uris": {"ios": "https://dc.lft.to/lastmile_qr_scan", "android": "https://dc.lft.to/lastmile_qr_scan"}}, {"is_disabled": 0, "fusion_lat": 0.0, "lat": 38.91110116666667, "type": "electric_scooter", "lon": -77.04500083333333, "is_reserved": 0, "fusion_lon": 0.0, "bike_id": "8663467d2689a3b53552455fd66a8fb0", "name": "8663467d2689a3b53552455fd66a8fb0", "rental_uris": {"ios": "https://dc.lft.to/lastmile_qr_scan", "android": "https://dc.lft.to/lastmile_qr_scan"}}, {"is_disabled": 0, "fusion_lat": 0.0, "lat": 38.887412166666664, "type": "electric_scooter", "lon": -77.01533966666666, "is_reserved": 0, "fusion_lon": 0.0, "bike_id": "5a554b0fddd647919fae4569920cd352", "name": "5a554b0fddd647919fae4569920cd352", "rental_uris": {"ios": "https://dc.lft.to/lastmile_qr_scan", "android": "https://dc.lft.to/lastmile_qr_scan"}}, {"is_disabled": 0, "fusion_lat": 0.0, "lat": 38.920252833333336, "type": "electric_scooter", "lon": -77.02796916666667, "is_reserved": 0, "fusion_lon": 0.0, "bike_id": "6c1db6cf5ebe39fa6057c0d61d2ac449", "name": "6c1db6cf5ebe39fa6057c0d61d2ac449", "rental_uris": {"ios": "https://dc.lft.to/lastmile_qr_scan", "android": "https://dc.lft.to/lastmile_qr_scan"}}, {"is_disabled": 0, "fusion_lat": 0.0, "lat": 38.874806166666666, "type": "electric_bike", "lon": -76.9652485, "is_reserved": 0, "fusion_lon": 0.0, "bike_id": "0187fbd9a54bf35cdff6813b9b1ac065", "name": "0187fbd9a54bf35cdff6813b9b1ac065", "rental_uris": {"ios": "https://dc.lft.to/lastmile_qr_scan", "android": "https://dc.lft.to/lastmile_qr_scan"}}, {"is_disabled": 0, "fusion_lat": 0.0, "lat": 38.9154155, "type": "electric_scooter", "lon": -77.0380265, "is_reserved": 0, "fusion_lon": 0.0, "bike_id": "cdba2943ade7d45082e1c0882ad44b24", "name": "cdba2943ade7d45082e1c0882ad44b24", "rental_uris": {"ios": "https://dc.lft.to/lastmile_qr_scan", "android": "https://dc.lft.to/lastmile_qr_scan"}}, {"is_disabled": 0, "fusion_lat": 0.0, "lat": 38.9065105, "type": "electric_scooter", "lon": -77.0415405, "is_reserved": 0, "fusion_lon": 0.0, "bike_id": "055921c84ee2fc1c0bb7fe2b02f921a1", "name": "055921c84ee2fc1c0bb7fe2b02f921a1", "rental_uris": {"ios": "https://dc.lft.to/lastmile_qr_scan", "android": "https://dc.lft.to/lastmile_qr_scan"}}, {"is_disabled": 0, "fusion_lat": 0.0, "lat": 38.9058655, "type": "electric_scooter", "lon": -77.04859133333333, "is_reserved": 0, "fusion_lon": 0.0, "bike_id": "9b0c37b4de41947d2441b02499030743", "name": "9b0c37b4de41947d2441b02499030743", "rental_uris": {"ios": "https://dc.lft.to/lastmile_qr_scan", "android": "https://dc.lft.to/lastmile_qr_scan"}}, {"is_disabled": 0, "fusion_lat": 0.0, "lat": 38.908122, "type": "electric_scooter", "lon": -76.99858616666667, "is_reserved": 0, "fusion_lon": 0.0, "bike_id": "6d3ffcbb1d0f059caa19935fc944932b", "name": "6d3ffcbb1d0f059caa19935fc944932b", "rental_uris": {"ios": "https://dc.lft.to/lastmile_qr_scan", "android": "https://dc.lft.to/lastmile_qr_scan"}}, {"is_disabled": 0, "fusion_lat": 0.0, "lat": 38.923387, "type": "electric_scooter", "lon": -77.03611016666666, "is_reserved": 0, "fusion_lon": 0.0, "bike_id": "80ceebc3f9f9114b3dc1dc127a3d1411", "name": "80ceebc3f9f9114b3dc1dc127a3d1411", "rental_uris": {"ios": "https://dc.lft.to/lastmile_qr_scan", "android": "https://dc.lft.to/lastmile_qr_scan"}}, {"is_disabled": 0, "fusion_lat": 0.0, "lat": 38.88587316666667, "type": "electric_scooter", "lon": -77.01988816666666, "is_reserved": 0, "fusion_lon": 0.0, "bike_id": "72883f77ac28674f02f30282dd7ea94b", "name": "72883f77ac28674f02f30282dd7ea94b", "rental_uris": {"ios": "https://dc.lft.to/lastmile_qr_scan", "android": "https://dc.lft.to/lastmile_qr_scan"}}, {"is_disabled": 0, "fusion_lat": 0.0, "lat": 38.91692183333333, "type": "electric_scooter", "lon": -77.03487, "is_reserved": 0, "fusion_lon": 0.0, "bike_id": "ceb7fae1df8a2ace3f4b38f676f27ef9", "name": "ceb7fae1df8a2ace3f4b38f676f27ef9", "rental_uris": {"ios": "https://dc.lft.to/lastmile_qr_scan", "android": "https://dc.lft.to/lastmile_qr_scan"}}, {"is_disabled": 0, "fusion_lat": 0.0, "lat": 38.92074616666667, "type": "electric_scooter", "lon": -77.04552966666667, "is_reserved": 0, "fusion_lon": 0.0, "bike_id": "27ba9ed15741b0a6abbb1d5701de1b7e", "name": "27ba9ed15741b0a6abbb1d5701de1b7e", "rental_uris": {"ios": "https://dc.lft.to/lastmile_qr_scan", "android": "https://dc.lft.to/lastmile_qr_scan"}}, {"is_disabled": 0, "fusion_lat": 0.0, "lat": 38.966208, "type": "electric_bike", "lon": -77.034313, "is_reserved": 0, "fusion_lon": 0.0, "bike_id": "3df2ec4f6fddc4616ff096f4929944d9", "name": "3df2ec4f6fddc4616ff096f4929944d9", "rental_uris": {"ios": "https://dc.lft.to/lastmile_qr_scan", "android": "https://dc.lft.to/lastmile_qr_scan"}}, {"is_disabled": 0, "fusion_lat": 0.0, "lat": 38.96029566666667, "type": "electric_bike", "lon": -77.0339655, "is_reserved": 0, "fusion_lon": 0.0, "bike_id": "187b0af98eabb001e9809d825697a410", "name": "187b0af98eabb001e9809d825697a410", "rental_uris": {"ios": "https://dc.lft.to/lastmile_qr_scan", "android": "https://dc.lft.to/lastmile_qr_scan"}}, {"is_disabled": 0, "fusion_lat": 0.0, "lat": 38.920646833333336, "type": "electric_scooter", "lon": -77.03207616666667, "is_reserved": 0, "fusion_lon": 0.0, "bike_id": "32513f47f16cb7e153081d9b3263a164", "name": "32513f47f16cb7e153081d9b3263a164", "rental_uris": {"ios": "https://dc.lft.to/lastmile_qr_scan", "android": "https://dc.lft.to/lastmile_qr_scan"}}, {"is_disabled": 0, "fusion_lat": 0.0, "lat": 38.923167666666664, "type": "electric_scooter", "lon": -77.04124016666667, "is_reserved": 0, "fusion_lon": 0.0, "bike_id": "4b526085963f88bf6a21b9f320217312", "name": "4b526085963f88bf6a21b9f320217312", "rental_uris": {"ios": "https://dc.lft.to/lastmile_qr_scan", "android": "https://dc.lft.to/lastmile_qr_scan"}}, {"is_disabled": 0, "fusion_lat": 0.0, "lat": 38.89270966666667, "type": "electric_scooter", "lon": -76.94920916666666, "is_reserved": 0, "fusion_lon": 0.0, "bike_id": "a8a9def3418876717fc3b8c7fb381f68", "name": "a8a9def3418876717fc3b8c7fb381f68", "rental_uris": {"ios": "https://dc.lft.to/lastmile_qr_scan", "android": "https://dc.lft.to/lastmile_qr_scan"}}, {"is_disabled": 0, "fusion_lat": 0.0, "lat": 38.904675833333336, "type": "electric_scooter", "lon": -76.98903966666667, "is_reserved": 0, "fusion_lon": 0.0, "bike_id": "7c170feb9405331fcc4cbcf81501b6a0", "name": "7c170feb9405331fcc4cbcf81501b6a0", "rental_uris": {"ios": "https://dc.lft.to/lastmile_qr_scan", "android": "https://dc.lft.to/lastmile_qr_scan"}}, {"is_disabled": 0, "fusion_lat": 0.0, "lat": 38.92675633333333, "type": "electric_scooter", "lon": -77.01491833333333, "is_reserved": 0, "fusion_lon": 0.0, "bike_id": "3c93ddbd95c5860c2aec5ace8d57b41e", "name": "3c93ddbd95c5860c2aec5ace8d57b41e", "rental_uris": {"ios": "https://dc.lft.to/lastmile_qr_scan", "android": "https://dc.lft.to/lastmile_qr_scan"}}, {"is_disabled": 0, "fusion_lat": 0.0, "lat": 38.9139365, "type": "electric_scooter", "lon": -77.03926116666666, "is_reserved": 0, "fusion_lon": 0.0, "bike_id": "a33eaf305f6b731360d75af7ac72c36d", "name": "a33eaf305f6b731360d75af7ac72c36d", "rental_uris": {"ios": "https://dc.lft.to/lastmile_qr_scan", "android": "https://dc.lft.to/lastmile_qr_scan"}}, {"is_disabled": 0, "fusion_lat": 0.0, "lat": 38.878487, "type": "electric_scooter", "lon": -77.01959933333333, "is_reserved": 0, "fusion_lon": 0.0, "bike_id": "030d8b5b0d66ac09e29f48ed268bdca0", "name": "030d8b5b0d66ac09e29f48ed268bdca0", "rental_uris": {"ios": "https://dc.lft.to/lastmile_qr_scan", "android": "https://dc.lft.to/lastmile_qr_scan"}}, {"is_disabled": 0, "fusion_lat": 0.0, "lat": 38.9169955, "type": "electric_scooter", "lon": -77.04605016666666, "is_reserved": 0, "fusion_lon": 0.0, "bike_id": "b84619ec1f5d389d9c48135efdfd629e", "name": "b84619ec1f5d389d9c48135efdfd629e", "rental_uris": {"ios": "https://dc.lft.to/lastmile_qr_scan", "android": "https://dc.lft.to/lastmile_qr_scan"}}, {"is_disabled": 0, "fusion_lat": 0.0, "lat": 38.912999, "type": "electric_scooter", "lon": -77.01962383333333, "is_reserved": 0, "fusion_lon": 0.0, "bike_id": "70eada26d3b77aa76b0347f93226a04e", "name": "70eada26d3b77aa76b0347f93226a04e", "rental_uris": {"ios": "https://dc.lft.to/lastmile_qr_scan", "android": "https://dc.lft.to/lastmile_qr_scan"}}, {"is_disabled": 0, "fusion_lat": 0.0, "lat": 38.9398535, "type": "electric_scooter", "lon": -77.0288925, "is_reserved": 0, "fusion_lon": 0.0, "bike_id": "6fe395e080a22ab0ae015cb5fcdb0eb2", "name": "6fe395e080a22ab0ae015cb5fcdb0eb2", "rental_uris": {"ios": "https://dc.lft.to/lastmile_qr_scan", "android": "https://dc.lft.to/lastmile_qr_scan"}},