{"data": {"bikes": [{"bike_id": "107ff9c9326e1e00f235e671ae3b814b", "is_reserved": 0, "fusion_lon": 0.0, "lat": 38.89362083333333, "is_disabled": 0, "name": "107ff9c9326e1e00f235e671ae3b814b", "fusion_lat": 0.0, "rental_uris": {"ios": "https://dc.lft.to/lastmile_qr_scan", "android": "https://dc.lft.to/lastmile_qr_scan"}, "lon": -76.98518233333333, "type": "electric_bike"}, {"bike_id": "3c7a5eab0d662be95bb5826d55efb4c9", "is_reserved": 0, "fusion_lon": 0.0, "lat": 38.920326833333334, "is_disabled": 0, "name": "3c7a5eab0d662be95bb5826d55efb4c9", "fusion_lat": 0.0, "rental_uris": {"ios": "https://dc.lft.to/lastmile_qr_scan", "android": "https://dc.lft.to/lastmile_qr_scan"}, "lon": -77.03119666666667, "type": "electric_scooter"}, {"bike_id": "f96fc1e95503c67945537c6695aeb5dc", "is_reserved": 0, "fusion_lon": 0.0, "lat": 38.899666, "is_disabled": 0, "name": "f96fc1e95503c67945537c6695aeb5dc", "fusion_lat": 0.0, "rental_uris": {"ios": "https://dc.lft.to/lastmile_qr_scan", "android": "https://dc.lft.to/lastmile_qr_scan"}, "lon": -77.033576, "type": "electric_scooter"}, {"bike_id": "d84b98997c4989fa34449bb46511e300", "is_reserved": 0, "fusion_lon": 0.0, "lat": 38.8977035, "is_disabled": 0, "name": "d84b98997c4989fa34449bb46511e300", "fusion_lat": 0.0, "rental_uris": {"ios": "https://dc.lft.to/lastmile_qr_scan", "android": "https://dc.lft.to/lastmile_qr_scan"}, "lon": -76.9772935, "type": "electric_scooter"}, {"bike_id": "b13e0fc6f7eafd78d3c224b4c38c7798", "is_reserved": 0, "fusion_lon": 0.0, "lat": 38.898777833333334, "is_disabled": 0, "name": "b13e0fc6f7eafd78d3c224b4c38c7798", "fusion_lat": 0.0, "rental_uris": {"ios": "https://dc.lft.to/lastmile_qr_scan", "android": "https://dc.lft.to/lastmile_qr_scan"}, "lon": -76.93160716666667, "type": "electric_scooter"}, {"bike_id": "2d42845344803a5741a526914782c689", "is_reserved": 0, "fusion_lon": 0.0, "lat": 38.9332825, "is_disabled": 0, "name": "2d42845344803a5741a526914782c689", "fusion_lat": 0.0, "rental_uris": {"ios": "https://dc.lft.to/lastmile_qr_scan", "android": "https://dc.lft.to/lastmile_qr_scan"}, "lon": -77.03274816666666, "type": "electric_scooter"}, {"bike_id": "25518bf97237f11b9e803d23a2dbb2ed", "is_reserved": 0, "fusion_lon": 0.0, "lat": 38.86374266666667, "is_disabled": 0, "name": "25518bf97237f11b9e803d23a2dbb2ed", "fusion_lat": 0.0, "rental_uris": {"ios": "https://dc.lft.to/lastmile_qr_scan", "android": "https://dc.lft.to/lastmile_qr_scan"}, "lon": -76.9905845, "type": "electric_scooter"}, {"bike_id": "69a7a67d8ad9325e7360c0a4142db93d", "is_reserved": 0, "fusion_lon": 0.0, "lat": 38.898520500000004, "is_disabled": 0, "name": "69a7a67d8ad9325e7360c0a4142db93d", "fusion_lat": 0.0, "rental_uris": {"ios": "https://dc.lft.to/lastmile_qr_scan", "android": "https://dc.lft.to/lastmile_qr_scan"}, "lon": -77.03343666666666, "type": "electric_scooter"}, {"bike_id": "20d15e8d1a9f4253771e644e8482e746", "is_reserved": 0, "fusion_lon": 0.0, "lat": 38.898762166666664, "is_disabled": 0, "name": "20d15e8d1a9f4253771e644e8482e746", "fusion_lat": 0.0, "rental_uris": {"ios": "https://dc.lft.to/lastmile_qr_scan", "android": "https://dc.lft.to/lastmile_qr_scan"}, "lon": -76.93163566666666, "type": "electric_scooter"}, {"bike_id": "0389f6258adcc0548570caa7adbd0475", "is_reserved": 0, "fusion_lon": 0.0, "lat": 38.92395533333333, "is_disabled": 0, "name": "0389f6258adcc0548570caa7adbd0475", "fusion_lat": 0.0, "rental_uris": {"ios": "https://dc.lft.to/lastmile_qr_scan", "android": "https://dc.lft.to/lastmile_qr_scan"}, "lon": -77.05254783333334, "type": "electric_scooter"}, {"bike_id": "7bffdf6fbfd4f8d7edcf65e0e043007f", "is_reserved": 0, "fusion_lon": 0.0, "lat": 38.87101116666667, "is_disabled": 0, "name": "7bffdf6fbfd4f8d7edcf65e0e043007f", "fusion_lat": 0.0, "rental_uris": {"ios": "https://dc.lft.to/lastmile_qr_scan", "android": "https://dc.lft.to/lastmile_qr_scan"}, "lon": -76.96587716666667, "type": "electric_scooter"}, {"bike_id": "32ee65014a43b0a0446f8ad24928be08", "is_reserved": 0, "fusion_lon": 0.0, "lat": 38.92357666666667, "is_disabled": 0, "name": "32ee65014a43b0a0446f8ad24928be08", "fusion_lat": 0.0, "rental_uris": {"ios": "https://dc.lft.to/lastmile_qr_scan", "android": "https://dc.lft.to/lastmile_qr_scan"}, "lon": -77.0522725, "type": "electric_scooter"}, {"bike_id": "cb36d7e0170b773c6dd98080c3aa5212", "is_reserved": 0, "fusion_lon": 0.0, "lat": 38.928569833333334, "is_disabled": 0, "name": "cb36d7e0170b773c6dd98080c3aa5212", "fusion_lat": 0.0, "rental_uris": {"ios": "https://dc.lft.to/lastmile_qr_scan", "android": "https://dc.lft.to/lastmile_qr_scan"}, "lon": -77.10675216666667, "type": "electric_bike"}, {"bike_id": "1e3c84d99eac632c72cf5badffa829b8", "is_reserved": 0, "fusion_lon": 0.0, "lat": 38.9044825, "is_disabled": 0, "name": "1e3c84d99eac632c72cf5badffa829b8", "fusion_lat": 0.0, "rental_uris": {"ios": "https://dc.lft.to/lastmile_qr_scan", "android": "https://dc.lft.to/lastmile_qr_scan"}, "lon": -77.03850616666666, "type": "electric_scooter"}, {"bike_id": "4eb02af8a59f1f9b4b1cbc74676de88e", "is_reserved": 0, "fusion_lon": 0.0, "lat": 38.902503833333334, "is_disabled": 0, "name": "4eb02af8a59f1f9b4b1cbc74676de88e", "fusion_lat": 0.0, "rental_uris": {"ios": "https://dc.lft.to/lastmile_qr_scan", "android": "https://dc.lft.to/lastmile_qr_scan"}, "lon": -77.03147416666667, "type": "electric_scooter"}, {"bike_id": "b4feb5e36cb20b5a892733ce43ea66ed", "is_reserved": 0, "fusion_lon": 0.0, "lat": 38.9255695, "is_disabled": 0, "name": "b4feb5e36cb20b5a892733ce43ea66ed", "fusion_lat": 0.0, "rental_uris": {"ios": "https://dc.lft.to/lastmile_qr_scan", "android": "https://dc.lft.to/lastmile_qr_scan"}, "lon": -77.04048266666666, "type": "electric_scooter"}, {"bike_id": "efb0f5e743bc3c6e757abc6be728dabd", "is_reserved": 0, "fusion_lon": 0.0, "lat": 38.8831525, "is_disabled": 0, "name": "efb0f5e743bc3c6e757abc6be728dabd", "fusion_lat": 0.0, "rental_uris": {"ios": "https://dc.lft.to/lastmile_qr_scan", "android": "https://dc.lft.to/lastmile_qr_scan"}, "lon": -77.02485216666666, "type": "electric_scooter"}, {"bike_id": "a6b684e3b60054b808217af967083d9f", "is_reserved": 0, "fusion_lon": 0.0, "lat": 38.93246383333334, "is_disabled": 0, "name": "a6b684e3b60054b808217af967083d9f", "fusion_lat": 0.0, "rental_uris": {"ios": "https://dc.lft.to/lastmile_qr_scan", "android": "https://dc.lft.to/lastmile_qr_scan"}, "lon": -77.02847083333333, "type": "electric_scooter"}, {"bike_id": "df6f2519742defa74633ded3cc1ffb82", "is_reserved": 0, "fusion_lon": 0.0, "lat": 38.89840933333333, "is_disabled": 0, "name": "df6f2519742defa74633ded3cc1ffb82", "fusion_lat": 0.0, "rental_uris": {"ios": "https://dc.lft.to/lastmile_qr_scan", "android": "https://dc.lft.to/lastmile_qr_scan"}, "lon": -77.0241865, "type": "electric_scooter"}, {"bike_id": "1ae6d4a22f0f44ba44ea304ac3107b4f", "is_reserved": 0, "fusion_lon": 0.0, "lat": 38.87550183333333, "is_disabled": 0, "name": "1ae6d4a22f0f44ba44ea304ac3107b4f", "fusion_lat": 0.0, "rental_uris": {"ios": "https://dc.lft.to/lastmile_qr_scan", "android": "https://dc.lft.to/lastmile_qr_scan"}, "lon": -76.964912, "type": "electric_scooter"}, {"bike_id": "33be245feac7164f657157f6157b683e", "is_reserved": 0, "fusion_lon": 0.0, "lat": 38.919084166666664, "is_disabled": 0, "name": "33be245feac7164f657157f6157b683e", "fusion_lat": 0.0, "rental_uris": {"ios": "https://dc.lft.to/lastmile_qr_scan", "android": "https://dc.lft.to/lastmile_qr_scan"}, "lon": -77.03206683333333, "type": "electric_scooter"}, {"bike_id": "5d6f8888b4cd743647491ba578d4d6d4", "is_reserved": 0, "fusion_lon": 0.0, "lat": 38.912676166666664, "is_disabled": 0, "name": "5d6f8888b4cd743647491ba578d4d6d4", "fusion_lat": 0.0, "rental_uris": {"ios": "https://dc.lft.to/lastmile_qr_scan", "android": "https://dc.lft.to/lastmile_qr_scan"}, "lon": -77.00370683333334, "type": "electric_scooter"}, {"bike_id": "18bf85de7b1fc6f387a1ad7da1b2b1d7", "is_reserved": 0, "fusion_lon": 0.0, "lat": 38.89528033333333, "is_disabled": 0, "name": "18bf85de7b1fc6f387a1ad7da1b2b1d7", "fusion_lat": 0.0, "rental_uris": {"ios": "https://dc.lft.to/lastmile_qr_scan", "android": "https://dc.lft.to/lastmile_qr_scan"}, "lon": -77.04827216666666, "type": "electric_scooter"}, {"bike_id": "c2a8303aefb14ef59d8d9967a515afe7", "is_reserved": 0, "fusion_lon": 0.0, "lat": 38.89957416666667, "is_disabled": 0, "name": "c2a8303aefb14ef59d8d9967a515afe7", "fusion_lat": 0.0, "rental_uris": {"ios": "https://dc.lft.to/lastmile_qr_scan", "android": "https://dc.lft.to/lastmile_qr_scan"}, "lon": -76.9755655, "type": "electric_scooter"}, {"bike_id": "831f648bc914ecc0f7068365d7c6c0b8", "is_reserved": 0, "fusion_lon": 0.0, "lat": 38.916999833333335, "is_disabled": 0, "name": "831f648bc914ecc0f7068365d7c6c0b8", "fusion_lat": 0.0, "rental_uris": {"ios": "https://dc.lft.to/lastmile_qr_scan", "android": "https://dc.lft.to/lastmile_qr_scan"}, "lon": -77.0311985, "type": "electric_scooter"}, {"bike_id": "841830f644bdba10b4f4ed182eaf82bb", "is_reserved": 0, "fusion_lon": 0.0, "lat": 38.911074166666666, "is_disabled": 0, "name": "841830f644bdba10b4f4ed182eaf82bb", "fusion_lat": 0.0, "rental_uris": {"ios": "https://dc.lft.to/lastmile_qr_scan", "android": "https://dc.lft.to/lastmile_qr_scan"}, "lon": -77.048326, "type": "electric_scooter"}, {"bike_id": "9d91a26970e403afbf17072fd093c3f5", "is_reserved": 0, "fusion_lon": 0.0, "lat": 38.9019295, "is_disabled": 0, "name": "9d91a26970e403afbf17072fd093c3f5", "fusion_lat": 0.0, "rental_uris": {"ios": "https://dc.lft.to/lastmile_qr_scan", "android": "https://dc.lft.to/lastmile_qr_scan"}, "lon": -77.02298866666666, "type": "electric_scooter"}, {"bike_id": "7664d42959fa62daa23b235038b43e85", "is_reserved": 0, "fusion_lon": 0.0, "lat": 38.90216783333334, "is_disabled": 0, "name": "7664d42959fa62daa23b235038b43e85", "fusion_lat": 0.0, "rental_uris": {"ios": "https://dc.lft.to/lastmile_qr_scan", "android": "https://dc.lft.to/lastmile_qr_scan"}, "lon": -77.02122733333333, "type": "electric_scooter"}, {"bike_id": "336a63569e24c25fd72b04da7144b826", "is_reserved": 0, "fusion_lon": 0.0, "lat": 38.90618116666667, "is_disabled": 0, "name": "336a63569e24c25fd72b04da7144b826", "fusion_lat": 0.0, "rental_uris": {"ios": "https://dc.lft.to/lastmile_qr_scan", "android": "https://dc.lft.to/lastmile_qr_scan"}, "lon": -77.02967866666667, "type": "electric_scooter"}, {"bike_id": "f82bf27683176d33e759cf17a12f5742", "is_reserved": 0, "fusion_lon": 0.0, "lat": 38.888646333333334, "is_disabled": 0, "name": "f82bf27683176d33e759cf17a12f5742", "fusion_lat": 0.0, "rental_uris": {"ios": "https://dc.lft.to/lastmile_qr_scan", "android": "https://dc.lft.to/lastmile_qr_scan"}, "lon": -76.99480266666667, "type": "electric_bike"}, {"bike_id": "a7aae4230e5bef2f47464ac820c9c14a", "is_reserved": 0, "fusion_lon": 0.0, "lat": 38.894799666666664, "is_disabled": 0, "name": "a7aae4230e5bef2f47464ac820c9c14a", "fusion_lat": 0.0, "rental_uris": {"ios": "https://dc.lft.to/lastmile_qr_scan", "android": "https://dc.lft.to/lastmile_qr_scan"}, "lon": -76.94868783333334, "type": "electric_scooter"}, {"bike_id": "90db08f4121b448669e03d78585e5b25", "is_reserved": 0, "fusion_lon": 0.0, "lat": 38.899946166666666, "is_disabled": 0, "name": "90db08f4121b448669e03d78585e5b25", "fusion_lat": 0.0, "rental_uris": {"ios": "https://dc.lft.to/lastmile_qr_scan", "android": "https://dc.lft.to/lastmile_qr_scan"}, "lon": -77.0523035, "type": "electric_scooter"}, {"bike_id": "6789a69b26f7ae499bf78d9946063bcb", "is_reserved": 0, "fusion_lon": 0.0, "lat": 38.88739316666667, "is_disabled": 0, "name": "6789a69b26f7ae499bf78d9946063bcb", "fusion_lat": 0.0, "rental_uris": {"ios": "https://dc.lft.to/lastmile_qr_scan", "android": "https://dc.lft.to/lastmile_qr_scan"}, "lon": -77.01509883333334, "type": "electric_scooter"}, {"bike_id": "36616ea4962c2dc8e570c964fca082c8", "is_reserved": 0, "fusion_lon": 0.0, "lat": 38.88487166666667, "is_disabled": 0, "name": "36616ea4962c2dc8e570c964fca082c8", "fusion_lat": 0.0, "rental_uris": {"ios": "https://dc.lft.to/lastmile_qr_scan", "android": "https://dc.lft.to/lastmile_qr_scan"}, "lon": -77.02104683333333, "type": "electric_bike"}, {"bike_id": "5e208893d05f7b57d2a623ce43e46d3d", "is_reserved": 0, "fusion_lon": 0.0, "lat": 38.892207166666665, "is_disabled": 0, "name": "5e208893d05f7b57d2a623ce43e46d3d", "fusion_lat": 0.0, "rental_uris": {"ios": "https://dc.lft.to/lastmile_qr_scan", "android": "https://dc.lft.to/lastmile_qr_scan"}, "lon": -77.04363033333334, "type": "electric_scooter"}, {"bike_id": "6e27b1397c99ee2b3ee8bb916f5b9267", "is_reserved": 0, "fusion_lon": 0.0, "lat": 38.900244666666666, "is_disabled": 0, "name": "6e27b1397c99ee2b3ee8bb916f5b9267", "fusion_lat": 0.0, "rental_uris": {"ios": "https://dc.lft.to/lastmile_qr_scan", "android": "https://dc.lft.to/lastmile_qr_scan"}, "lon": -76.9876215, "type": "electric_scooter"}, {"bike_id": "ea900a5a7f0803166ba1a70306c5791f", "is_reserved": 0, "fusion_lon": 0.0, "lat": 38.924285166666664, "is_disabled": 0, "name": "ea900a5a7f0803166ba1a70306c5791f", "fusion_lat": 0.0, "rental_uris": {"ios": "https://dc.lft.to/lastmile_qr_scan", "android": "https://dc.lft.to/lastmile_qr_scan"}, "lon": -77.042428, "type": "electric_scooter"}, {"bike_id": "7ea84ab143d81fb0f7239f70879dfbcf", "is_reserved": 0, "fusion_lon": 0.0, "lat": 38.907652, "is_disabled": 0, "name": "7ea84ab143d81fb0f7239f70879dfbcf", "fusion_lat": 0.0, "rental_uris": {"ios": "https://dc.lft.to/lastmile_qr_scan", "android": "https://dc.lft.to/lastmile_qr_scan"}, "lon": -77.0320825, "type": "electric_scooter"}, {"bike_id": "2e7c5545ac273926d4e0b4f1b2b82909", "is_reserved": 0, "fusion_lon": 0.0, "lat": 38.90254916666667, "is_disabled": 0, "name": "2e7c5545ac273926d4e0b4f1b2b82909", "fusion_lat": 0.0, "rental_uris": {"ios": "https://dc.lft.to/lastmile_qr_scan", "android": "https://dc.lft.to/lastmile_qr_scan"}, "lon": -77.038532, "type": "electric_scooter"}, {"bike_id": "3b5fd19cea0b668358190f59874762e8", "is_reserved": 0, "fusion_lon": 0.0, "lat": 38.86959, "is_disabled": 0, "name": "3b5fd19cea0b668358190f59874762e8", "fusion_lat": 0.0, "rental_uris": {"ios": "https://dc.lft.to/lastmile_qr_scan", "android": "https://dc.lft.to/lastmile_qr_scan"}, "lon": -77.01377816666667, "type": "electric_scooter"}, {"bike_id": "1e67623fbe6a1e4aa9b08bd37a70855d", "is_reserved": 0, "fusion_lon": 0.0, "lat": 38.89723983333333, "is_disabled": 0, "name": "1e67623fbe6a1e4aa9b08bd37a70855d", "fusion_lat": 0.0, "rental_uris": {"ios": "https://dc.lft.to/lastmile_qr_scan", "android": "https://dc.lft.to/lastmile_qr_scan"}, "lon": -77.02743016666666, "type": "electric_scooter"}, {"bike_id": "bb41d186ca6bc4a4289e6e6715c92aa9", "is_reserved": 0, "fusion_lon": 0.0, "lat": 38.907103, "is_disabled": 0, "name": "bb41d186ca6bc4a4289e6e6715c92aa9", "fusion_lat": 0.0, "rental_uris": {"ios": "https://dc.lft.to/lastmile_qr_scan", "android": "https://dc.lft.to/lastmile_qr_scan"}, "lon": -77.04410766666666, "type": "electric_scooter"}, {"bike_id": "1cdec2b172d0be144904ce140ed076f4", "is_reserved": 0, "fusion_lon": 0.0, "lat": 38.910352833333334, "is_disabled": 0, "name": "1cdec2b172d0be144904ce140ed076f4", "fusion_lat": 0.0, "rental_uris": {"ios": "https://dc.lft.to/lastmile_qr_scan", "android": "https://dc.lft.to/lastmile_qr_scan"}, "lon": -77.036437, "type": "electric_scooter"}, {"bike_id": "23ea1a17dca47d6f5d2ec57cf2c4c027", "is_reserved": 0, "fusion_lon": 0.0, "lat": 38.92016316666667, "is_disabled": 0, "name": "23ea1a17dca47d6f5d2ec57cf2c4c027", "fusion_lat": 0.0, "rental_uris": {"ios": "https://dc.lft.to/lastmile_qr_scan", "android": "https://dc.lft.to/lastmile_qr_scan"}, "lon": -77.037761, "type": "electric_scooter"}, {"bike_id": "fe3e850bc7a71a20c44c569af1f51bf8", "is_reserved": 0, "fusion_lon": 0.0, "lat": 38.95928383333333, "is_disabled": 0, "name": "fe3e850bc7a71a20c44c569af1f51bf8", "fusion_lat": 0.0, "rental_uris": {"ios": "https://dc.lft.to/lastmile_qr_scan", "android": "https://dc.lft.to/lastmile_qr_scan"}, "lon": -76.92541166666666, "type": "electric_bike"}, {"bike_id": "e15bf54210dbe4f86befe92ad9f3a8c4", "is_reserved": 0, "fusion_lon": 0.0, "lat": 38.923587166666664, "is_disabled": 0, "name": "e15bf54210dbe4f86befe92ad9f3a8c4", "fusion_lat": 0.0, "rental_uris": {"ios": "https://dc.lft.to/lastmile_qr_scan", "android": "https://dc.lft.to/lastmile_qr_scan"}, "lon": -77.05245683333334, "type": "electric_scooter"}, {"bike_id": "9b2dedadba9519c03c0a5510a97845de", "is_reserved": 0, "fusion_lon": 0.0, "lat": 38.924687166666665, "is_disabled": 0, "name": "9b2dedadba9519c03c0a5510a97845de", "fusion_lat": 0.0, "rental_uris": {"ios": "https://dc.lft.to/lastmile_qr_scan", "android": "https://dc.lft.to/lastmile_qr_scan"}, "lon": -77.02832433333333, "type": "electric_scooter"}, {"bike_id": "3fed29409bf846d5160c9439df924daf", "is_reserved": 0, "fusion_lon": 0.0, "lat": 38.930603166666664, "is_disabled": 0, "name": "3fed29409bf846d5160c9439df924daf", "fusion_lat": 0.0, "rental_uris": {"ios": "https://dc.lft.to/lastmile_qr_scan", "android": "https://dc.lft.to/lastmile_qr_scan"}, "lon": -77.03183183333333, "type": "electric_scooter"}, {"bike_id": "18736ee4c27d13f35223d88df77a22eb", "is_reserved": 0, "fusion_lon": 0.0, "lat": 38.88395633333333, "is_disabled": 0, "name": "18736ee4c27d13f35223d88df77a22eb", "fusion_lat": 0.0, "rental_uris": {"ios": "https://dc.lft.to/lastmile_qr_scan", "android": "https://dc.lft.to/lastmile_qr_scan"}, "lon": -77.017676, "type": "electric_scooter"}, {"bike_id": "524663edbcbd394b08ec9df9d12f596e", "is_reserved": 0, "fusion_lon": 0.0, "lat": 38.886171166666664, "is_disabled": 0, "name": "524663edbcbd394b08ec9df9d12f596e", "fusion_lat": 0.0, "rental_uris": {"ios": "https://dc.lft.to/lastmile_qr_scan", "android": "https://dc.lft.to/lastmile_qr_scan"}, "lon": -77.01537416666666, "type": "electric_scooter"}, {"bike_id": "18b8208bc390a5cacdc6c8b2123faee1", "is_reserved": 0, "fusion_lon": 0.0, "lat": 38.8947945, "is_disabled": 0, "name": "18b8208bc390a5cacdc6c8b2123faee1", "fusion_lat": 0.0, "rental_uris": {"ios": "https://dc.lft.to/lastmile_qr_scan", "android": "https://dc.lft.to/lastmile_qr_scan"}, "lon": -76.99534633333333, "type": "electric_scooter"}, {"bike_id": "a7a5976314455dcb2e6f0213a42238d2", "is_reserved": 0, "fusion_lon": 0.0, "lat": 38.903640833333334, "is_disabled": 0, "name": "a7a5976314455dcb2e6f0213a42238d2", "fusion_lat": 0.0, "rental_uris": {"ios": "https://dc.lft.to/lastmile_qr_scan", "android": "https://dc.lft.to/lastmile_qr_scan"}, "lon": -77.0386565, "type": "electric_scooter"}, {"bike_id": "6c6a26e9ce1b4d0a1e24cac58462a7c0", "is_reserved": 0, "fusion_lon": 0.0, "lat": 38.900140666666665, "is_disabled": 0, "name": "6c6a26e9ce1b4d0a1e24cac58462a7c0", "fusion_lat": 0.0, "rental_uris": {"ios": "https://dc.lft.to/lastmile_qr_scan", "android": "https://dc.lft.to/lastmile_qr_scan"}, "lon": -77.0301565, "type": "electric_scooter"}, {"bike_id": "ab2da600dd70f427edf71da0e650d911", "is_reserved": 0, "fusion_lon": 0.0, "lat": 38.93082733333333, "is_disabled": 0, "name": "ab2da600dd70f427edf71da0e650d911", "fusion_lat": 0.0, "rental_uris": {"ios": "https://dc.lft.to/lastmile_qr_scan", "android": "https://dc.lft.to/lastmile_qr_scan"}, "lon": -77.02797, "type": "electric_scooter"}, {"bike_id": "886e9efdda5b5b9d49f4c99d8c0f1b01", "is_reserved": 0, "fusion_lon": 0.0, "lat": 38.893573833333335, "is_disabled": 0, "name": "886e9efdda5b5b9d49f4c99d8c0f1b01", "fusion_lat": 0.0, "rental_uris": {"ios": "https://dc.lft.to/lastmile_qr_scan", "android": "https://dc.lft.to/lastmile_qr_scan"}, "lon": -77.02855066666666, "type": "electric_scooter"}, {"bike_id": "bda960119da7b52fb63a3d7dc0f062b7", "is_reserved": 0, "fusion_lon": 0.0, "lat": 38.8849885, "is_disabled": 0, "name": "bda960119da7b52fb63a3d7dc0f062b7", "fusion_lat": 0.0, "rental_uris": {"ios": "https://dc.lft.to/lastmile_qr_scan", "android": "https://dc.lft.to/lastmile_qr_scan"}, "lon": -77.00728233333334, "type": "electric_scooter"}, {"bike_id": "9fc088a3b4413f594f2eedb7ef3385ad", "is_reserved": 0, "fusion_lon": 0.0, "lat": 38.887299, "is_disabled": 0, "name": "9fc088a3b4413f594f2eedb7ef3385ad", "fusion_lat": 0.0, "rental_uris": {"ios": "https://dc.lft.to/lastmile_qr_scan", "android": "https://dc.lft.to/lastmile_qr_scan"}, "lon": -77.02019633333333, "type": "electric_scooter"}, {"bike_id": "18dc1b2759dd2823498e59177c55618b", "is_reserved": 0, "fusion_lon": 0.0, "lat": 38.930811166666665, "is_disabled": 0, "name": "18dc1b2759dd2823498e59177c55618b", "fusion_lat": 0.0, "rental_uris": {"ios": "https://dc.lft.to/lastmile_qr_scan", "android": "https://dc.lft.to/lastmile_qr_scan"}, "lon": -77.027979, "type": "electric_scooter"}, {"bike_id": "615238eb7a663d8c5afe53c7c890eb12", "is_reserved": 0, "fusion_lon": 0.0, "lat": 38.93000516666667, "is_disabled": 0, "name": "615238eb7a663d8c5afe53c7c890eb12", "fusion_lat": 0.0, "rental_uris": {"ios": "https://dc.lft.to/lastmile_qr_scan", "android": "https://dc.lft.to/lastmile_qr_scan"}, "lon": -77.05543583333333, "type": "electric_scooter"}, {"bike_id": "ad263927946b3e36985c09f6f8f00ff4", "is_reserved": 0, "fusion_lon": 0.0, "lat": 38.887594166666666, "is_disabled": 0, "name": "ad263927946b3e36985c09f6f8f00ff4", "fusion_lat": 0.0, "rental_uris": {"ios": "https://dc.lft.to/lastmile_qr_scan", "android": "https://dc.lft.to/lastmile_qr_scan"}, "lon": -77.03123433333333, "type": "electric_scooter"}, {"bike_id": "930c2b84f740334df242c7c8398b60ea", "is_reserved": 0, "fusion_lon": 0.0, "lat": 38.956405, "is_disabled": 0, "name": "930c2b84f740334df242c7c8398b60ea", "fusion_lat": 0.0, "rental_uris": {"ios": "https://dc.lft.to/lastmile_qr_scan", "android": "https://dc.lft.to/lastmile_qr_scan"}, "lon": -76.9979605, "type": "electric_scooter"}, {"bike_id": "d970a6b16a9ffd9f7eec2dac097b2731", "is_reserved": 0, "fusion_lon": 0.0, "lat": 38.937775, "is_disabled": 0, "name": "d970a6b16a9ffd9f7eec2dac097b2731", "fusion_lat": 0.0, "rental_uris": {"ios": "https://dc.lft.to/lastmile_qr_scan", "android": "https://dc.lft.to/lastmile_qr_scan"}, "lon": -77.0191105, "type": "electric_bike"}, {"bike_id": "069c8204fe32dd4a705e9c30a6f3b26a", "is_reserved": 0, "fusion_lon": 0.0, "lat": 38.9171195, "is_disabled": 0, "name": "069c8204fe32dd4a705e9c30a6f3b26a", "fusion_lat": 0.0, "rental_uris": {"ios": "https://dc.lft.to/lastmile_qr_scan", "android": "https://dc.lft.to/lastmile_qr_scan"}, "lon": -77.02546333333333, "type": "electric_scooter"}, {"bike_id": "6b0e646f4ca50c339410e9d563ffdfe1", "is_reserved": 0, "fusion_lon": 0.0, "lat": 38.9259275, "is_disabled": 0, "name": "6b0e646f4ca50c339410e9d563ffdfe1", "fusion_lat": 0.0, "rental_uris": {"ios": "https://dc.lft.to/lastmile_qr_scan", "android": "https://dc.lft.to/lastmile_qr_scan"}, "lon": -77.00480566666667, "type": "electric_scooter"}, {"bike_id": "bc175871fc159509b44d022b1ae8c8f7", "is_reserved": 0, "fusion_lon": 0.0, "lat": 38.915442666666664, "is_disabled": 0, "name": "bc175871fc159509b44d022b1ae8c8f7", "fusion_lat": 0.0, "rental_uris": {"ios": "https://dc.lft.to/lastmile_qr_scan", "android": "https://dc.lft.to/lastmile_qr_scan"}, "lon": -77.0380555, "type": "electric_scooter"}, {"bike_id": "1362fbeacaabe609e84e0cece6a89ead", "is_reserved": 0, "fusion_lon": 0.0, "lat": 38.903658666666665, "is_disabled": 0, "name": "1362fbeacaabe609e84e0cece6a89ead", "fusion_lat": 0.0, "rental_uris": {"ios": "https://dc.lft.to/lastmile_qr_scan", "android": "https://dc.lft.to/lastmile_qr_scan"}, "lon": -77.03169233333334, "type": "electric_scooter"}, {"bike_id": "af7b3bd9e6b417e0ed8d16277b56093e", "is_reserved": 0, "fusion_lon": 0.0, "lat": 38.9352995, "is_disabled": 0, "name": "af7b3bd9e6b417e0ed8d16277b56093e", "fusion_lat": 0.0, "rental_uris": {"ios": "https://dc.lft.to/lastmile_qr_scan", "android": "https://dc.lft.to/lastmile_qr_scan"}, "lon": -77.02854833333333, "type": "electric_scooter"}, {"bike_id": "e31c71a5a6762a73a2e8a13d6027f9ca", "is_reserved": 0, "fusion_lon": 0.0, "lat": 38.89831816666667, "is_disabled": 0, "name": "e31c71a5a6762a73a2e8a13d6027f9ca", "fusion_lat": 0.0, "rental_uris": {"ios": "https://dc.lft.to/lastmile_qr_scan", "android": "https://dc.lft.to/lastmile_qr_scan"}, "lon": -76.94637616666667, "type": "electric_scooter"}, {"bike_id": "d1fc775eeb2d630761a1ec44784300a8", "is_reserved": 0, "fusion_lon": 0.0, "lat": 38.9068645, "is_disabled": 0, "name": "d1fc775eeb2d630761a1ec44784300a8", "fusion_lat": 0.0, "rental_uris": {"ios": "https://dc.lft.to/lastmile_qr_scan", "android": "https://dc.lft.to/lastmile_qr_scan"}, "lon": -77.07528233333333, "type": "electric_scooter"}, {"bike_id": "ccc675219d7ba2de1f0ddd480abd9368", "is_reserved": 0, "fusion_lon": 0.0, "lat": 38.8923735, "is_disabled": 0, "name": "ccc675219d7ba2de1f0ddd480abd9368", "fusion_lat": 0.0, "rental_uris": {"ios": "https://dc.lft.to/lastmile_qr_scan", "android": "https://dc.lft.to/lastmile_qr_scan"}, "lon": -77.02801616666666, "type": "electric_scooter"}, {"bike_id": "a1ab54bf0fd02f88851810fb26bade53", "is_reserved": 0, "fusion_lon": 0.0, "lat": 38.89230533333333, "is_disabled": 0, "name": "a1ab54bf0fd02f88851810fb26bade53", "fusion_lat": 0.0, "rental_uris": {"ios": "https://dc.lft.to/lastmile_qr_scan", "android": "https://dc.lft.to/lastmile_qr_scan"}, "lon": -77.04998416666666, "type": "electric_scooter"}, {"bike_id": "6e288dca434156e34613d821204550c0", "is_reserved": 0, "fusion_lon": 0.0, "lat": 38.883652166666664, "is_disabled": 0, "name": "6e288dca434156e34613d821204550c0", "fusion_lat": 0.0, "rental_uris": {"ios": "https://dc.lft.to/lastmile_qr_scan", "android": "https://dc.lft.to/lastmile_qr_scan"}, "lon": -77.03174766666666, "type": "electric_scooter"}, {"bike_id": "cfc97c1bcf07009a369238bbcdbc3a05", "is_reserved": 0, "fusion_lon": 0.0, "lat": 38.92680883333333, "is_disabled": 0, "name": "cfc97c1bcf07009a369238bbcdbc3a05", "fusion_lat": 0.0, "rental_uris": {"ios": "https://dc.lft.to/lastmile_qr_scan", "android": "https://dc.lft.to/lastmile_qr_scan"}, "lon": -77.01574883333333, "type": "electric_scooter"}, {"bike_id": "39ad9b917a037c4a0a4c21dc1f13fdf8", "is_reserved": 0, "fusion_lon": 0.0, "lat": 38.9100165, "is_disabled": 0, "name": "39ad9b917a037c4a0a4c21dc1f13fdf8", "fusion_lat": 0.0, "rental_uris": {"ios": "https://dc.lft.to/lastmile_qr_scan", "android": "https://dc.lft.to/lastmile_qr_scan"}, "lon": -77.02098133333334, "type": "electric_scooter"}, {"bike_id": "8b17a4fe9a025763c152e8cacf972a95", "is_reserved": 0, "fusion_lon": 0.0, "lat": 38.925399, "is_disabled": 0, "name": "8b17a4fe9a025763c152e8cacf972a95", "fusion_lat": 0.0, "rental_uris": {"ios": "https://dc.lft.to/lastmile_qr_scan", "android": "https://dc.lft.to/lastmile_qr_scan"}, "lon": -77.03528866666667, "type": "electric_scooter"}, {"bike_id": "3cf035601041003ae711cb9a08199288", "is_reserved": 0, "fusion_lon": 0.0, "lat": 38.89375016666666, "is_disabled": 0, "name": "3cf035601041003ae711cb9a08199288", "fusion_lat": 0.0, "rental_uris": {"ios": "https://dc.lft.to/lastmile_qr_scan", "android": "https://dc.lft.to/lastmile_qr_scan"}, "lon": -76.9499185, "type": "electric_scooter"}, {"bike_id": "5f4ac852e0c553b3e0d60947ae9ba4db", "is_reserved": 0, "fusion_lon": 0.0, "lat": 38.9273765, "is_disabled": 0, "name": "5f4ac852e0c553b3e0d60947ae9ba4db", "fusion_lat": 0.0, "rental_uris": {"ios": "https://dc.lft.to/lastmile_qr_scan", "android": "https://dc.lft.to/lastmile_qr_scan"}, "lon": -77.02265066666666, "type": "electric_scooter"}, {"bike_id": "1082165673bc845e106675658c0f6cad", "is_reserved": 0, "fusion_lon": 0.0, "lat": 38.92729833333333, "is_disabled": 0, "name": "1082165673bc845e106675658c0f6cad", "fusion_lat": 0.0, "rental_uris": {"ios": "https://dc.lft.to/lastmile_qr_scan", "android": "https://dc.lft.to/lastmile_qr_scan"}, "lon": -77.0226405, "type": "electric_bike"}, {"bike_id": "fba3b226244a06ba012773e986ec8adc", "is_reserved": 0, "fusion_lon": 0.0, "lat": 38.918459166666665, "is_disabled": 0, "name": "fba3b226244a06ba012773e986ec8adc", "fusion_lat": 0.0, "rental_uris": {"ios": "https://dc.lft.to/lastmile_qr_scan", "android": "https://dc.lft.to/lastmile_qr_scan"}, "lon": -77.032004, "type": "electric_scooter"}, {"bike_id": "9e88f94399d81692e2ea78f543353092", "is_reserved": 0, "fusion_lon": 0.0, "lat": 38.917098333333335, "is_disabled": 0, "name": "9e88f94399d81692e2ea78f543353092", "fusion_lat": 0.0, "rental_uris": {"ios": "https://dc.lft.to/lastmile_qr_scan", "android": "https://dc.lft.to/lastmile_qr_scan"}, "lon": -77.0335975, "type": "electric_scooter"}, {"bike_id": "e13abe8e64193261ffb11538e0004c7c", "is_reserved": 0, "fusion_lon": 0.0, "lat": 38.874778, "is_disabled": 0, "name": "e13abe8e64193261ffb11538e0004c7c", "fusion_lat": 0.0, "rental_uris": {"ios": "https://dc.lft.to/lastmile_qr_scan", "android": "https://dc.lft.to/lastmile_qr_scan"}, "lon": -76.965274, "type": "electric_bike"}, {"bike_id": "e85717600183f63e33a9a9041af5f7ff", "is_reserved": 0, "fusion_lon": 0.0, "lat": 38.915395833333335, "is_disabled": 0, "name": "e85717600183f63e33a9a9041af5f7ff", "fusion_lat": 0.0, "rental_uris": {"ios": "https://dc.lft.to/lastmile_qr_scan", "android": "https://dc.lft.to/lastmile_qr_scan"}, "lon": -77.03797966666667, "type": "electric_scooter"}, {"bike_id": "092f8de6f8f574d0b5d306b41d92149b", "is_reserved": 0, "fusion_lon": 0.0, "lat": 38.96621866666667, "is_disabled": 0, "name": "092f8de6f8f574d0b5d306b41d92149b", "fusion_lat": 0.0, "rental_uris": {"ios": "https://dc.lft.to/lastmile_qr_scan", "android": "https://dc.lft.to/lastmile_qr_scan"}, "lon": -77.03427466666666, "type": "electric_bike"}, {"bike_id": "bb5d4e95afbe579a39680fe6bf41c482", "is_reserved": 0, "fusion_lon": 0.0, "lat": 38.905513, "is_disabled": 0, "name": "bb5d4e95afbe579a39680fe6bf41c482", "fusion_lat": 0.0, "rental_uris": {"ios": "https://dc.lft.to/lastmile_qr_scan", "android": "https://dc.lft.to/lastmile_qr_scan"}, "lon": -77.04201883333333, "type": "electric_scooter"}, {"bike_id": "e9d6df4e4af032a3862ad57271f66b95", "is_reserved": 0, "fusion_lon": 0.0, "lat": 38.92840833333333, "is_disabled": 0, "name": "e9d6df4e4af032a3862ad57271f66b95", "fusion_lat": 0.0, "rental_uris": {"ios": "https://dc.lft.to/lastmile_qr_scan", "android": "https://dc.lft.to/lastmile_qr_scan"}, "lon": -77.015979, "type": "electric_scooter"}, {"bike_id": "30c58e09e12858b81fcfcc6adadcb96a", "is_reserved": 0, "fusion_lon": 0.0, "lat": 38.90153866666667, "is_disabled": 0, "name": "30c58e09e12858b81fcfcc6adadcb96a", "fusion_lat": 0.0, "rental_uris": {"ios": "https://dc.lft.to/lastmile_qr_scan", "android": "https://dc.lft.to/lastmile_qr_scan"}, "lon": -77.02649333333333, "type": "electric_scooter"}, {"bike_id": "7b4e537f9eabb4249dc982376a4c88f7", "is_reserved": 0, "fusion_lon": 0.0, "lat": 38.9215875, "is_disabled": 0, "name": "7b4e537f9eabb4249dc982376a4c88f7", "fusion_lat": 0.0, "rental_uris": {"ios": "https://dc.lft.to/lastmile_qr_scan", "android": "https://dc.lft.to/lastmile_qr_scan"}, "lon": -77.04696533333333, "type": "electric_scooter"}, {"bike_id": "403ab9840109e9b0a40b377df2243520", "is_reserved": 0, "fusion_lon": 0.0, "lat": 38.95630633333333, "is_disabled": 0, "name": "403ab9840109e9b0a40b377df2243520", "fusion_lat": 0.0, "rental_uris": {"ios": "https://dc.lft.to/lastmile_qr_scan", "android": "https://dc.lft.to/lastmile_qr_scan"}, "lon": -77.027865, "type": "electric_scooter"}, {"bike_id": "f04fa05829532f26ccf5538e4396c36c", "is_reserved": 0, "fusion_lon": 0.0, "lat": 38.90860466666667, "is_disabled": 0, "name": "f04fa05829532f26ccf5538e4396c36c", "fusion_lat": 0.0, "rental_uris": {"ios": "https://dc.lft.to/lastmile_qr_scan", "android": "https://dc.lft.to/lastmile_qr_scan"}, "lon": -77.032905, "type": "electric_scooter"}, {"bike_id": "696c7c5680d3f1a3aa512702c8f603a7", "is_reserved": 0, "fusion_lon": 0.0, "lat": 38.84573283333334, "is_disabled": 0, "name": "696c7c5680d3f1a3aa512702c8f603a7", "fusion_lat": 0.0, "rental_uris": {"ios": "https://dc.lft.to/lastmile_qr_scan", "android": "https://dc.lft.to/lastmile_qr_scan"}, "lon": -77.09621016666667, "type": "electric_bike"}, {"bike_id": "f602edbf61b882e0b0322fc4396e6ec1", "is_reserved": 0, "fusion_lon": 0.0, "lat": 38.917954, "is_disabled": 0, "name": "f602edbf61b882e0b0322fc4396e6ec1", "fusion_lat": 0.0, "rental_uris": {"ios": "https://dc.lft.to/lastmile_qr_scan", "android": "https://dc.lft.to/lastmile_qr_scan"}, "lon": -77.03447433333334, "type": "electric_scooter"}, {"bike_id": "ea57f3624cb46c46fed669fd51e00c5f", "is_reserved": 0, "fusion_lon": 0.0, "lat": 38.905313166666666, "is_disabled": 0, "name": "ea57f3624cb46c46fed669fd51e00c5f", "fusion_lat": 0.0, "rental_uris": {"ios": "https://dc.lft.to/lastmile_qr_scan", "android": "https://dc.lft.to/lastmile_qr_scan"}, "lon": -77.0577085, "type": "electric_scooter"}, {"bike_id": "3cd58867555b3e968c302ba3f02570dd", "is_reserved": 0, "fusion_lon": 0.0, "lat": 38.92962216666667, "is_disabled": 0, "name": "3cd58867555b3e968c302ba3f02570dd", "fusion_lat": 0.0, "rental_uris": {"ios": "https://dc.lft.to/lastmile_qr_scan", "android": "https://dc.lft.to/lastmile_qr_scan"}, "lon": -77.01148533333334, "type": "electric_scooter"}, {"bike_id": "78b7fc5f95036026ef081fa126ef5e83", "is_reserved": 0, "fusion_lon": 0.0, "lat": 38.86368183333333, "is_disabled": 0, "name": "78b7fc5f95036026ef081fa126ef5e83", "fusion_lat": 0.0, "rental_uris": {"ios": "https://dc.lft.to/lastmile_qr_scan", "android": "https://dc.lft.to/lastmile_qr_scan"}, "lon": -77.0136745, "type": "electric_scooter"}, {"bike_id": "3d87dfefcbc2de892781dd75f6c0414b", "is_reserved": 0, "fusion_lon": 0.0, "lat": 38.90795583333333, "is_disabled": 0, "name": "3d87dfefcbc2de892781dd75f6c0414b", "fusion_lat": 0.0, "rental_uris": {"ios": "https://dc.lft.to/lastmile_qr_scan", "android": "https://dc.lft.to/lastmile_qr_scan"}, "lon": -76.99699516666666, "type": "electric_scooter"}, {"bike_id": "f0cf138eef27447fe3fa614d67d624c6", "is_reserved": 0, "fusion_lon": 0.0, "lat": 38.9231345, "is_disabled": 0, "name": "f0cf138eef27447fe3fa614d67d624c6", "fusion_lat": 0.0, "rental_uris": {"ios": "https://dc.lft.to/lastmile_qr_scan", "android": "https://dc.lft.to/lastmile_qr_scan"}, "lon": -77.04030333333333, "type": "electric_scooter"}, {"bike_id": "0e52d18ec5bc87e66083d3cf601018ac", "is_reserved": 0, "fusion_lon": 0.0, "lat": 38.89949466666667, "is_disabled": 0, "name": "0e52d18ec5bc87e66083d3cf601018ac", "fusion_lat": 0.0, "rental_uris": {"ios": "https://dc.lft.to/lastmile_qr_scan", "android": "https://dc.lft.to/lastmile_qr_scan"}, "lon": -77.05053233333334, "type": "electric_scooter"}, {"bike_id": "d4c3d4793cad1bac0c3f5adb286cbccb", "is_reserved": 0, "fusion_lon": 0.0, "lat": 38.90531083333333, "is_disabled": 0, "name": "d4c3d4793cad1bac0c3f5adb286cbccb", "fusion_lat": 0.0, "rental_uris": {"ios": "https://dc.lft.to/lastmile_qr_scan", "android": "https://dc.lft.to/lastmile_qr_scan"}, "lon": -77.058824, "type": "electric_scooter"}, {"bike_id": "e56060de5bd1ceca3b5bce8f0b28547a", "is_reserved": 0, "fusion_lon": 0.0, "lat": 38.921025666666665, "is_disabled": 0, "name": "e56060de5bd1ceca3b5bce8f0b28547a", "fusion_lat": 0.0, "rental_uris": {"ios": "https://dc.lft.to/lastmile_qr_scan", "android": "https://dc.lft.to/lastmile_qr_scan"}, "lon": -76.99384033333334, "type": "electric_scooter"}, {"bike_id": "5f3e175bd67318a81d465aeedcdef6e2", "is_reserved": 0, "fusion_lon": 0.0, "lat": 38.854370833333334, "is_disabled": 0, "name": "5f3e175bd67318a81d465aeedcdef6e2", "fusion_lat": 0.0, "rental_uris": {"ios": "https://dc.lft.to/lastmile_qr_scan", "android": "https://dc.lft.to/lastmile_qr_scan"}, "lon": -77.11707933333334, "type": "electric_bike"}, {"bike_id": "33f2d1ea3291bd9950c8151539805e04", "is_reserved": 0, "fusion_lon": 0.0, "lat": 38.91118383333333, "is_disabled": 0, "name": "33f2d1ea3291bd9950c8151539805e04", "fusion_lat": 0.0, "rental_uris": {"ios": "https://dc.lft.to/lastmile_qr_scan", "android": "https://dc.lft.to/lastmile_qr_scan"}, "lon": -77.00245716666667, "type": "electric_scooter"}, {"bike_id": "a546f00e77568df78e184447206985e7", "is_reserved": 0, "fusion_lon": 0.0, "lat": 38.895305666666665, "is_disabled": 0, "name": "a546f00e77568df78e184447206985e7", "fusion_lat": 0.0, "rental_uris": {"ios": "https://dc.lft.to/lastmile_qr_scan", "android": "https://dc.lft.to/lastmile_qr_scan"}, "lon": -77.01600866666666, "type": "electric_scooter"}, {"bike_id": "fe068bf682c3eb9ed00638b711ec8551", "is_reserved": 0, "fusion_lon": 0.0, "lat": 38.92124066666667, "is_disabled": 0, "name": "fe068bf682c3eb9ed00638b711ec8551", "fusion_lat": 0.0, "rental_uris": {"ios": "https://dc.lft.to/lastmile_qr_scan", "android": "https://dc.lft.to/lastmile_qr_scan"}, "lon": -77.01023466666666, "type": "electric_scooter"}, {"bike_id": "e4f6a0aae50d75cc513d2d0c1a09b0d4", "is_reserved": 0, "fusion_lon": 0.0, "lat": 38.88508683333333, "is_disabled": 0, "name": "e4f6a0aae50d75cc513d2d0c1a09b0d4", "fusion_lat": 0.0, "rental_uris": {"ios": "https://dc.lft.to/lastmile_qr_scan", "android": "https://dc.lft.to/lastmile_qr_scan"}, "lon": -77.02092666666667, "type": "electric_scooter"}, {"bike_id": "86e6c75987934f656ac3d707b55c7c4d", "is_reserved": 0, "fusion_lon": 0.0, "lat": 38.94185133333333, "is_disabled": 0, "name": "86e6c75987934f656ac3d707b55c7c4d", "fusion_lat": 0.0, "rental_uris": {"ios": "https://dc.lft.to/lastmile_qr_scan", "android": "https://dc.lft.to/lastmile_qr_scan"}, "lon": -77.03095933333333, "type": "electric_scooter"}, {"bike_id": "8bffb520ccd355a8fdf8c24219c3d73a", "is_reserved": 0, "fusion_lon": 0.0, "lat": 38.898670333333335, "is_disabled": 0, "name": "8bffb520ccd355a8fdf8c24219c3d73a", "fusion_lat": 0.0, "rental_uris": {"ios": "https://dc.lft.to/lastmile_qr_scan", "android": "https://dc.lft.to/lastmile_qr_scan"}, "lon": -77.0217035, "type": "electric_bike"}, {"bike_id": "f37392bc38eae61feff3a5bd8a0e0c85", "is_reserved": 0, "fusion_lon": 0.0, "lat": 38.92447466666667, "is_disabled": 0, "name": "f37392bc38eae61feff3a5bd8a0e0c85", "fusion_lat": 0.0, "rental_uris": {"ios": "https://dc.lft.to/lastmile_qr_scan", "android": "https://dc.lft.to/lastmile_qr_scan"}, "lon": -77.0204005, "type": "electric_scooter"}, {"bike_id": "ed780bd37b28e713df5381dcd55536bb", "is_reserved": 0, "fusion_lon": 0.0, "lat": 38.94094783333333, "is_disabled": 0, "name": "ed780bd37b28e713df5381dcd55536bb", "fusion_lat": 0.0, "rental_uris": {"ios": "https://dc.lft.to/lastmile_qr_scan", "android": "https://dc.lft.to/lastmile_qr_scan"}, "lon": -77.0328015, "type": "electric_scooter"}, {"bike_id": "40d7c3271b604016c862d8013f778f77", "is_reserved": 0, "fusion_lon": 0.0, "lat": 38.924439, "is_disabled": 0, "name": "40d7c3271b604016c862d8013f778f77", "fusion_lat": 0.0, "rental_uris": {"ios": "https://dc.lft.to/lastmile_qr_scan", "android": "https://dc.lft.to/lastmile_qr_scan"}, "lon": -77.03376516666667, "type": "electric_scooter"}, {"bike_id": "27ca7cd1f8299ec1f7c31525494035dd", "is_reserved": 0, "fusion_lon": 0.0, "lat": 38.91862883333334, "is_disabled": 0, "name": "27ca7cd1f8299ec1f7c31525494035dd", "fusion_lat": 0.0, "rental_uris": {"ios": "https://dc.lft.to/lastmile_qr_scan", "android": "https://dc.lft.to/lastmile_qr_scan"}, "lon": -77.03657766666667, "type": "electric_scooter"}, {"bike_id": "e7d9f4977b1d9ca5ff5f59ad286748a2", "is_reserved": 0, "fusion_lon": 0.0, "lat": 38.864284166666664, "is_disabled": 0, "name": "e7d9f4977b1d9ca5ff5f59ad286748a2", "fusion_lat": 0.0, "rental_uris": {"ios": "https://dc.lft.to/lastmile_qr_scan", "android": "https://dc.lft.to/lastmile_qr_scan"}, "lon": -76.97447233333334, "type": "electric_scooter"}, {"bike_id": "1afb0deb65835d645db381349476be1d", "is_reserved": 0, "fusion_lon": 0.0, "lat": 38.906567, "is_disabled": 0, "name": "1afb0deb65835d645db381349476be1d", "fusion_lat": 0.0, "rental_uris": {"ios": "https://dc.lft.to/lastmile_qr_scan", "android": "https://dc.lft.to/lastmile_qr_scan"}, "lon": -77.0383055, "type": "electric_scooter"}, {"bike_id": "2de7d18a83e9d12f3efd6c07cda15e18", "is_reserved": 0, "fusion_lon": 0.0, "lat": 38.919127333333336, "is_disabled": 0, "name": "2de7d18a83e9d12f3efd6c07cda15e18", "fusion_lat": 0.0, "rental_uris": {"ios": "https://dc.lft.to/lastmile_qr_scan", "android": "https://dc.lft.to/lastmile_qr_scan"}, "lon": -77.02620416666667, "type": "electric_scooter"}, {"bike_id": "e2bb130b1d858a7edd4673f788df626b", "is_reserved": 0, "fusion_lon": 0.0, "lat": 38.894022166666666, "is_disabled": 0, "name": "e2bb130b1d858a7edd4673f788df626b", "fusion_lat": 0.0, "rental_uris": {"ios": "https://dc.lft.to/lastmile_qr_scan", "android": "https://dc.lft.to/lastmile_qr_scan"}, "lon": -76.94804866666666, "type": "electric_scooter"}, {"bike_id": "72650c755551dbfd16a78ac19eacda05", "is_reserved": 0, "fusion_lon": 0.0, "lat": 38.90792, "is_disabled": 0, "name": "72650c755551dbfd16a78ac19eacda05", "fusion_lat": 0.0, "rental_uris": {"ios": "https://dc.lft.to/lastmile_qr_scan", "android": "https://dc.lft.to/lastmile_qr_scan"}, "lon": -77.048753, "type": "electric_scooter"}, {"bike_id": "2ee6778c1532c38588120ea66e86d777", "is_reserved": 0, "fusion_lon": 0.0, "lat": 38.89994766666667, "is_disabled": 0, "name": "2ee6778c1532c38588120ea66e86d777", "fusion_lat": 0.0, "rental_uris": {"ios": "https://dc.lft.to/lastmile_qr_scan", "android": "https://dc.lft.to/lastmile_qr_scan"}, "lon": -76.9948735, "type": "electric_scooter"}, {"bike_id": "df2de32d0016613a8593d7782ecebfba", "is_reserved": 0, "fusion_lon": 0.0, "lat": 38.919483166666666, "is_disabled": 0, "name": "df2de32d0016613a8593d7782ecebfba", "fusion_lat": 0.0, "rental_uris": {"ios": "https://dc.lft.to/lastmile_qr_scan", "android": "https://dc.lft.to/lastmile_qr_scan"}, "lon": -77.03193766666666, "type": "electric_scooter"}, {"bike_id": "8c3fa76688a42c106517d73775b6218b", "is_reserved": 0, "fusion_lon": 0.0, "lat": 38.914075, "is_disabled": 0, "name": "8c3fa76688a42c106517d73775b6218b", "fusion_lat": 0.0, "rental_uris": {"ios": "https://dc.lft.to/lastmile_qr_scan", "android": "https://dc.lft.to/lastmile_qr_scan"}, "lon": -77.04570616666666, "type": "electric_scooter"}, {"bike_id": "3a41c3da538a7d340eafec222d90f78c", "is_reserved": 0, "fusion_lon": 0.0, "lat": 38.8996155, "is_disabled": 0, "name": "3a41c3da538a7d340eafec222d90f78c", "fusion_lat": 0.0, "rental_uris": {"ios": "https://dc.lft.to/lastmile_qr_scan", "android": "https://dc.lft.to/lastmile_qr_scan"}, "lon": -76.98684416666667, "type": "electric_bike"}, {"bike_id": "ad65420f524c5c53d380b2c93369d496", "is_reserved": 0, "fusion_lon": 0.0, "lat": 38.93202733333333, "is_disabled": 0, "name": "ad65420f524c5c53d380b2c93369d496", "fusion_lat": 0.0, "rental_uris": {"ios": "https://dc.lft.to/lastmile_qr_scan", "android": "https://dc.lft.to/lastmile_qr_scan"}, "lon": -77.038568, "type": "electric_scooter"}, {"bike_id": "1831368ceb054cb31ea223ece386fea1", "is_reserved": 0, "fusion_lon": 0.0, "lat": 38.89531133333333, "is_disabled": 0, "name": "1831368ceb054cb31ea223ece386fea1", "fusion_lat": 0.0, "rental_uris": {"ios": "https://dc.lft.to/lastmile_qr_scan", "android": "https://dc.lft.to/lastmile_qr_scan"}, "lon": -77.033468, "type": "electric_scooter"}, {"bike_id": "04715c625e0ad42f3882d173d1209a35", "is_reserved": 0, "fusion_lon": 0.0, "lat": 38.903710333333336, "is_disabled": 0, "name": "04715c625e0ad42f3882d173d1209a35", "fusion_lat": 0.0, "rental_uris": {"ios": "https://dc.lft.to/lastmile_qr_scan", "android": "https://dc.lft.to/lastmile_qr_scan"}, "lon": -77.03980583333333, "type": "electric_scooter"}, {"bike_id": "e1f40d27d3fd5ee6787e7d659d27826a", "is_reserved": 0, "fusion_lon": 0.0, "lat": 38.8745865, "is_disabled": 0, "name": "e1f40d27d3fd5ee6787e7d659d27826a", "fusion_lat": 0.0, "rental_uris": {"ios": "https://dc.lft.to/lastmile_qr_scan", "android": "https://dc.lft.to/lastmile_qr_scan"}, "lon": -77.00544333333333, "type": "electric_scooter"}, {"bike_id": "c1a8a3a168df356734276dc9d017ce42", "is_reserved": 0, "fusion_lon": 0.0, "lat": 38.884995, "is_disabled": 0, "name": "c1a8a3a168df356734276dc9d017ce42", "fusion_lat": 0.0, "rental_uris": {"ios": "https://dc.lft.to/lastmile_qr_scan", "android": "https://dc.lft.to/lastmile_qr_scan"}, "lon": -77.005705, "type": "electric_scooter"}, {"bike_id": "e50ea775063d544d6bea5f9a4e78b0b4", "is_reserved": 0, "fusion_lon": 0.0, "lat": 38.91864733333333, "is_disabled": 0, "name": "e50ea775063d544d6bea5f9a4e78b0b4", "fusion_lat": 0.0, "rental_uris": {"ios": "https://dc.lft.to/lastmile_qr_scan", "android": "https://dc.lft.to/lastmile_qr_scan"}, "lon": -77.043515, "type": "electric_scooter"}, {"bike_id": "e1f98e73bfb42492b21205d802698434", "is_reserved": 0, "fusion_lon": 0.0, "lat": 38.93896, "is_disabled": 0, "name": "e1f98e73bfb42492b21205d802698434", "fusion_lat": 0.0, "rental_uris": {"ios": "https://dc.lft.to/lastmile_qr_scan", "android": "https://dc.lft.to/lastmile_qr_scan"}, "lon": -77.03330583333333, "type": "electric_scooter"}, {"bike_id": "a9eb786d3c1a80f0f2293acb133c043a", "is_reserved": 0, "fusion_lon": 0.0, "lat": 38.9214895, "is_disabled": 0, "name": "a9eb786d3c1a80f0f2293acb133c043a", "fusion_lat": 0.0, "rental_uris": {"ios": "https://dc.lft.to/lastmile_qr_scan", "android": "https://dc.lft.to/lastmile_qr_scan"}, "lon": -77.03527733333334, "type": "electric_scooter"}, {"bike_id": "8bf78d81715c5516a050d8e178de8d91", "is_reserved": 0, "fusion_lon": 0.0, "lat": 38.90327516666667, "is_disabled": 0, "name": "8bf78d81715c5516a050d8e178de8d91", "fusion_lat": 0.0, "rental_uris": {"ios": "https://dc.lft.to/lastmile_qr_scan", "android": "https://dc.lft.to/lastmile_qr_scan"}, "lon": -77.03758416666666, "type": "electric_scooter"}, {"bike_id": "72cd898cdc63d1e243b20ac3a3bd7a9b", "is_reserved": 0, "fusion_lon": 0.0, "lat": 38.9367095, "is_disabled": 0, "name": "72cd898cdc63d1e243b20ac3a3bd7a9b", "fusion_lat": 0.0, "rental_uris": {"ios": "https://dc.lft.to/lastmile_qr_scan", "android": "https://dc.lft.to/lastmile_qr_scan"}, "lon": -77.03642816666667, "type": "electric_scooter"}, {"bike_id": "425a410e1e804a866404861f0ad05b3b", "is_reserved": 0, "fusion_lon": 0.0, "lat": 38.90976366666666, "is_disabled": 0, "name": "425a410e1e804a866404861f0ad05b3b", "fusion_lat": 0.0, "rental_uris": {"ios": "https://dc.lft.to/lastmile_qr_scan", "android": "https://dc.lft.to/lastmile_qr_scan"}, "lon": -77.027275, "type": "electric_scooter"}, {"bike_id": "743fe11c2e17b0814bb2a9baf6c05355", "is_reserved": 0, "fusion_lon": 0.0, "lat": 38.9591275, "is_disabled": 0, "name": "743fe11c2e17b0814bb2a9baf6c05355", "fusion_lat": 0.0, "rental_uris": {"ios": "https://dc.lft.to/lastmile_qr_scan", "android": "https://dc.lft.to/lastmile_qr_scan"}, "lon": -77.00152716666666, "type": "electric_bike"}, {"bike_id": "fd6e2952620f8e086bc82054d28866ac", "is_reserved": 0, "fusion_lon": 0.0, "lat": 38.91106416666667, "is_disabled": 0, "name": "fd6e2952620f8e086bc82054d28866ac", "fusion_lat": 0.0, "rental_uris": {"ios": "https://dc.lft.to/lastmile_qr_scan", "android": "https://dc.lft.to/lastmile_qr_scan"}, "lon": -77.027195, "type": "electric_scooter"}, {"bike_id": "ec3fa616fc6facb39b4a515168a2aac0", "is_reserved": 0, "fusion_lon": 0.0, "lat": 38.90611766666667, "is_disabled": 0, "name": "ec3fa616fc6facb39b4a515168a2aac0", "fusion_lat": 0.0, "rental_uris": {"ios": "https://dc.lft.to/lastmile_qr_scan", "android": "https://dc.lft.to/lastmile_qr_scan"}, "lon": -77.03957466666667, "type": "electric_scooter"}, {"bike_id": "2097899fa75c382a2fd5fc0b01454a92", "is_reserved": 0, "fusion_lon": 0.0, "lat": 38.91271583333333, "is_disabled": 0, "name": "2097899fa75c382a2fd5fc0b01454a92", "fusion_lat": 0.0, "rental_uris": {"ios": "https://dc.lft.to/lastmile_qr_scan", "android": "https://dc.lft.to/lastmile_qr_scan"}, "lon": -77.02213816666666, "type": "electric_scooter"}, {"bike_id": "1b597444daeffa78e92991517928fb8f", "is_reserved": 0, "fusion_lon": 0.0, "lat": 38.899953, "is_disabled": 0, "name": "1b597444daeffa78e92991517928fb8f", "fusion_lat": 0.0, "rental_uris": {"ios": "https://dc.lft.to/lastmile_qr_scan", "android": "https://dc.lft.to/lastmile_qr_scan"}, "lon": -77.006605, "type": "electric_scooter"}, {"bike_id": "8368c7bdefc289fd8f6a14c0b96dddee", "is_reserved": 0, "fusion_lon": 0.0, "lat": 38.88738133333333, "is_disabled": 0, "name": "8368c7bdefc289fd8f6a14c0b96dddee", "fusion_lat": 0.0, "rental_uris": {"ios": "https://dc.lft.to/lastmile_qr_scan", "android": "https://dc.lft.to/lastmile_qr_scan"}, "lon": -77.01528266666666, "type": "electric_scooter"}, {"bike_id": "d7176e838d5e6f10aa6c4b9242ad67ad", "is_reserved": 0, "fusion_lon": 0.0, "lat": 38.8997515, "is_disabled": 0, "name": "d7176e838d5e6f10aa6c4b9242ad67ad", "fusion_lat": 0.0, "rental_uris": {"ios": "https://dc.lft.to/lastmile_qr_scan", "android": "https://dc.lft.to/lastmile_qr_scan"}, "lon": -77.03124666666666, "type": "electric_scooter"}, {"bike_id": "2fff64f1e5a997ec5869e6b6c1cb43ba", "is_reserved": 0, "fusion_lon": 0.0, "lat": 38.92246083333333, "is_disabled": 0, "name": "2fff64f1e5a997ec5869e6b6c1cb43ba", "fusion_lat": 0.0, "rental_uris": {"ios": "https://dc.lft.to/lastmile_qr_scan", "android": "https://dc.lft.to/lastmile_qr_scan"}, "lon": -77.03662083333333, "type": "electric_scooter"}, {"bike_id": "5fb08610ad039f85a0e7d2d99f5da9da", "is_reserved": 0, "fusion_lon": 0.0, "lat": 38.9288225, "is_disabled": 0, "name": "5fb08610ad039f85a0e7d2d99f5da9da", "fusion_lat": 0.0, "rental_uris": {"ios": "https://dc.lft.to/lastmile_qr_scan", "android": "https://dc.lft.to/lastmile_qr_scan"}, "lon": -77.03761716666666, "type": "electric_scooter"}, {"bike_id": "60ac474c82f9f87c3a928be392071b93", "is_reserved": 0, "fusion_lon": 0.0, "lat": 38.9222115, "is_disabled": 0, "name": "60ac474c82f9f87c3a928be392071b93", "fusion_lat": 0.0, "rental_uris": {"ios": "https://dc.lft.to/lastmile_qr_scan", "android": "https://dc.lft.to/lastmile_qr_scan"}, "lon": -77.03907383333333, "type": "electric_scooter"}, {"bike_id": "cd3e7024b941af3086a96e88948fe24b", "is_reserved": 0, "fusion_lon": 0.0, "lat": 38.917131833333336, "is_disabled": 0, "name": "cd3e7024b941af3086a96e88948fe24b", "fusion_lat": 0.0, "rental_uris": {"ios": "https://dc.lft.to/lastmile_qr_scan", "android": "https://dc.lft.to/lastmile_qr_scan"}, "lon": -77.03232766666666, "type": "electric_scooter"}, {"bike_id": "c0a232582e944752f436f9722426b122", "is_reserved": 0, "fusion_lon": 0.0, "lat": 38.85805, "is_disabled": 0, "name": "c0a232582e944752f436f9722426b122", "fusion_lat": 0.0, "rental_uris": {"ios": "https://dc.lft.to/lastmile_qr_scan", "android": "https://dc.lft.to/lastmile_qr_scan"}, "lon": -76.98750966666667, "type": "electric_bike"}, {"bike_id": "560fb19de08fb45da1484964cda05a18", "is_reserved": 0, "fusion_lon": 0.0, "lat": 38.903833666666664, "is_disabled": 0, "name": "560fb19de08fb45da1484964cda05a18", "fusion_lat": 0.0, "rental_uris": {"ios": "https://dc.lft.to/lastmile_qr_scan", "android": "https://dc.lft.to/lastmile_qr_scan"}, "lon": -77.04208233333334, "type": "electric_scooter"}, {"bike_id": "238ee9122f1e461cc310ea5ca807aab4", "is_reserved": 0, "fusion_lon": 0.0, "lat": 38.91051183333333, "is_disabled": 0, "name": "238ee9122f1e461cc310ea5ca807aab4", "fusion_lat": 0.0, "rental_uris": {"ios": "https://dc.lft.to/lastmile_qr_scan", "android": "https://dc.lft.to/lastmile_qr_scan"}, "lon": -77.01687466666667, "type": "electric_scooter"}, {"bike_id": "32bdeb2c4dbd308f596fd122c448bd36", "is_reserved": 0, "fusion_lon": 0.0, "lat": 38.920290333333334, "is_disabled": 0, "name": "32bdeb2c4dbd308f596fd122c448bd36", "fusion_lat": 0.0, "rental_uris": {"ios": "https://dc.lft.to/lastmile_qr_scan", "android": "https://dc.lft.to/lastmile_qr_scan"}, "lon": -77.01122766666667, "type": "electric_scooter"}, {"bike_id": "cbeca944ee47f3d7081a93adcfbdc437", "is_reserved": 0, "fusion_lon": 0.0, "lat": 38.842940666666664, "is_disabled": 0, "name": "cbeca944ee47f3d7081a93adcfbdc437", "fusion_lat": 0.0, "rental_uris": {"ios": "https://dc.lft.to/lastmile_qr_scan", "android": "https://dc.lft.to/lastmile_qr_scan"}, "lon": -76.99946816666667, "type": "electric_scooter"}, {"bike_id": "e53a4b060d6681f97561005fe5f626c3", "is_reserved": 0, "fusion_lon": 0.0, "lat": 38.9610645, "is_disabled": 0, "name": "e53a4b060d6681f97561005fe5f626c3", "fusion_lat": 0.0, "rental_uris": {"ios": "https://dc.lft.to/lastmile_qr_scan", "android": "https://dc.lft.to/lastmile_qr_scan"}, "lon": -77.0280005, "type": "electric_scooter"}, {"bike_id": "ba080b73085a321d15a218764baf5778", "is_reserved": 0, "fusion_lon": 0.0, "lat": 38.92534166666667, "is_disabled": 0, "name": "ba080b73085a321d15a218764baf5778", "fusion_lat": 0.0, "rental_uris": {"ios": "https://dc.lft.to/lastmile_qr_scan", "android": "https://dc.lft.to/lastmile_qr_scan"}, "lon": -77.03469833333334, "type": "electric_scooter"}, {"bike_id": "3f7d6b574d8cac4d585038c801b7cc7e", "is_reserved": 0, "fusion_lon": 0.0, "lat": 38.90084316666667, "is_disabled": 0, "name": "3f7d6b574d8cac4d585038c801b7cc7e", "fusion_lat": 0.0, "rental_uris": {"ios": "https://dc.lft.to/lastmile_qr_scan", "android": "https://dc.lft.to/lastmile_qr_scan"}, "lon": -77.04804883333334, "type": "electric_scooter"}, {"bike_id": "37e927a0445e108e4169ed0a48c36212", "is_reserved": 0, "fusion_lon": 0.0, "lat": 38.905193, "is_disabled": 0, "name": "37e927a0445e108e4169ed0a48c36212", "fusion_lat": 0.0, "rental_uris": {"ios": "https://dc.lft.to/lastmile_qr_scan", "android": "https://dc.lft.to/lastmile_qr_scan"}, "lon": -77.06784183333333, "type": "electric_bike"}, {"bike_id": "f73c21eea688af9cde7f22aa6a8217f1", "is_reserved": 0, "fusion_lon": 0.0, "lat": 38.884909666666665, "is_disabled": 0, "name": "f73c21eea688af9cde7f22aa6a8217f1", "fusion_lat": 0.0, "rental_uris": {"ios": "https://dc.lft.to/lastmile_qr_scan", "android": "https://dc.lft.to/lastmile_qr_scan"}, "lon": -77.00724533333333, "type": "electric_scooter"}, {"bike_id": "932cee7c694ebc3f1327fed565f0301c", "is_reserved": 0, "fusion_lon": 0.0, "lat": 38.827851833333334, "is_disabled": 0, "name": "932cee7c694ebc3f1327fed565f0301c", "fusion_lat": 0.0, "rental_uris": {"ios": "https://dc.lft.to/lastmile_qr_scan", "android": "https://dc.lft.to/lastmile_qr_scan"}, "lon": -77.00919716666667, "type": "electric_bike"}, {"bike_id": "40a629312eae9244ec27052f21279036", "is_reserved": 0, "fusion_lon": 0.0, "lat": 39.00373316666666, "is_disabled": 0, "name": "40a629312eae9244ec27052f21279036", "fusion_lat": 0.0, "rental_uris": {"ios": "https://dc.lft.to/lastmile_qr_scan", "android": "https://dc.lft.to/lastmile_qr_scan"}, "lon": -77.01297916666667, "type": "electric_bike"}, {"bike_id": "50f7c175cce5464fc915d64788945de4", "is_reserved": 0, "fusion_lon": 0.0, "lat": 38.95651183333333, "is_disabled": 0, "name": "50f7c175cce5464fc915d64788945de4", "fusion_lat": 0.0, "rental_uris": {"ios": "https://dc.lft.to/lastmile_qr_scan", "android": "https://dc.lft.to/lastmile_qr_scan"}, "lon": -77.032897, "type": "electric_scooter"}, {"bike_id": "87f3d71b461c5f415daf7e0d14098e27", "is_reserved": 0, "fusion_lon": 0.0, "lat": 38.902387, "is_disabled": 0, "name": "87f3d71b461c5f415daf7e0d14098e27", "fusion_lat": 0.0, "rental_uris": {"ios": "https://dc.lft.to/lastmile_qr_scan", "android": "https://dc.lft.to/lastmile_qr_scan"}, "lon": -77.02976616666666, "type": "electric_scooter"}, {"bike_id": "2a5c78eb717a69fbec3ed21cfa7f07d1", "is_reserved": 0, "fusion_lon": 0.0, "lat": 39.03882216666667, "is_disabled": 0, "name": "2a5c78eb717a69fbec3ed21cfa7f07d1", "fusion_lat": 0.0, "rental_uris": {"ios": "https://dc.lft.to/lastmile_qr_scan", "android": "https://dc.lft.to/lastmile_qr_scan"}, "lon": -76.990409, "type": "electric_bike"}, {"bike_id": "cd18fceb656699c57bc121c6ed1116b9", "is_reserved": 0, "fusion_lon": 0.0, "lat": 38.916769333333335, "is_disabled": 0, "name": "cd18fceb656699c57bc121c6ed1116b9", "fusion_lat": 0.0, "rental_uris": {"ios": "https://dc.lft.to/lastmile_qr_scan", "android": "https://dc.lft.to/lastmile_qr_scan"}, "lon": -77.03213466666666, "type": "electric_scooter"}, {"bike_id": "333a2de20ba2ad5f4ebc20def54bc940", "is_reserved": 0, "fusion_lon": 0.0, "lat": 38.89220383333333, "is_disabled": 0, "name": "333a2de20ba2ad5f4ebc20def54bc940", "fusion_lat": 0.0, "rental_uris": {"ios": "https://dc.lft.to/lastmile_qr_scan", "android": "https://dc.lft.to/lastmile_qr_scan"}, "lon": -77.02443983333333, "type": "electric_scooter"}, {"bike_id": "dd8d2d819349d7dd70c898e795626b92", "is_reserved": 0, "fusion_lon": 0.0, "lat": 38.914212166666665, "is_disabled": 0, "name": "dd8d2d819349d7dd70c898e795626b92", "fusion_lat": 0.0, "rental_uris": {"ios": "https://dc.lft.to/lastmile_qr_scan", "android": "https://dc.lft.to/lastmile_qr_scan"}, "lon": -77.04487266666666, "type": "electric_scooter"}, {"bike_id": "1dfccccf626e68bf4eb29d668f597b6a", "is_reserved": 0, "fusion_lon": 0.0, "lat": 38.8948835, "is_disabled": 0, "name": "1dfccccf626e68bf4eb29d668f597b6a", "fusion_lat": 0.0, "rental_uris": {"ios": "https://dc.lft.to/lastmile_qr_scan", "android": "https://dc.lft.to/lastmile_qr_scan"}, "lon": -77.02758116666666, "type": "electric_scooter"}, {"bike_id": "a4585ba3ef9816f0897f3a8c9bdb8897", "is_reserved": 0, "fusion_lon": 0.0, "lat": 38.9061025, "is_disabled": 0, "name": "a4585ba3ef9816f0897f3a8c9bdb8897", "fusion_lat": 0.0, "rental_uris": {"ios": "https://dc.lft.to/lastmile_qr_scan", "android": "https://dc.lft.to/lastmile_qr_scan"}, "lon": -77.0749175, "type": "electric_scooter"}, {"bike_id": "2729e177326db9d2533820beaa0243de", "is_reserved": 0, "fusion_lon": 0.0, "lat": 38.90826083333333, "is_disabled": 0, "name": "2729e177326db9d2533820beaa0243de", "fusion_lat": 0.0, "rental_uris": {"ios": "https://dc.lft.to/lastmile_qr_scan", "android": "https://dc.lft.to/lastmile_qr_scan"}, "lon": -77.04369916666667, "type": "electric_scooter"}, {"bike_id": "6f662a48d5eee9c8be052908e3e6c285", "is_reserved": 0, "fusion_lon": 0.0, "lat": 38.9097335, "is_disabled": 0, "name": "6f662a48d5eee9c8be052908e3e6c285", "fusion_lat": 0.0, "rental_uris": {"ios": "https://dc.lft.to/lastmile_qr_scan", "android": "https://dc.lft.to/lastmile_qr_scan"}, "lon": -77.02309916666667, "type": "electric_scooter"}, {"bike_id": "16e28f90ea372cfb78547a5f8f86d98f", "is_reserved": 0, "fusion_lon": 0.0, "lat": 38.9011055, "is_disabled": 0, "name": "16e28f90ea372cfb78547a5f8f86d98f", "fusion_lat": 0.0, "rental_uris": {"ios": "https://dc.lft.to/lastmile_qr_scan", "android": "https://dc.lft.to/lastmile_qr_scan"}, "lon": -77.0433385, "type": "electric_scooter"}, {"bike_id": "a2db9c9c859a4d4a6c5fa6a30710a9e3", "is_reserved": 0, "fusion_lon": 0.0, "lat": 38.939492666666666, "is_disabled": 0, "name": "a2db9c9c859a4d4a6c5fa6a30710a9e3", "fusion_lat": 0.0, "rental_uris": {"ios": "https://dc.lft.to/lastmile_qr_scan", "android": "https://dc.lft.to/lastmile_qr_scan"}, "lon": -77.0724395, "type": "electric_scooter"}, {"bike_id": "06519b13ac94f429da179c9ef6d248ec", "is_reserved": 0, "fusion_lon": 0.0, "lat": 38.92563366666667, "is_disabled": 0, "name": "06519b13ac94f429da179c9ef6d248ec", "fusion_lat": 0.0, "rental_uris": {"ios": "https://dc.lft.to/lastmile_qr_scan", "android": "https://dc.lft.to/lastmile_qr_scan"}, "lon": -77.05270716666666, "type": "electric_scooter"}, {"bike_id": "30be8ccda50f4189cb558e781032b1bd", "is_reserved": 0, "fusion_lon": 0.0, "lat": 38.9052695, "is_disabled": 0, "name": "30be8ccda50f4189cb558e781032b1bd", "fusion_lat": 0.0, "rental_uris": {"ios": "https://dc.lft.to/lastmile_qr_scan", "android": "https://dc.lft.to/lastmile_qr_scan"}, "lon": -77.04871283333334, "type": "electric_scooter"}, {"bike_id": "ffb6244f81d0b0475b47d9ad52eb66f2", "is_reserved": 0, "fusion_lon": 0.0, "lat": 38.89608233333333, "is_disabled": 0, "name": "ffb6244f81d0b0475b47d9ad52eb66f2", "fusion_lat": 0.0, "rental_uris": {"ios": "https://dc.lft.to/lastmile_qr_scan", "android": "https://dc.lft.to/lastmile_qr_scan"}, "lon": -77.04504883333334, "type": "electric_scooter"}, {"bike_id": "c88b8651b2b59c970175ede6dfa6be7c", "is_reserved": 0, "fusion_lon": 0.0, "lat": 38.9230075, "is_disabled": 0, "name": "c88b8651b2b59c970175ede6dfa6be7c", "fusion_lat": 0.0, "rental_uris": {"ios": "https://dc.lft.to/lastmile_qr_scan", "android": "https://dc.lft.to/lastmile_qr_scan"}, "lon": -77.04140116666666, "type": "electric_scooter"}, {"bike_id": "03e58ebe0c917d6c4b110a7d2dad0ecd", "is_reserved": 0, "fusion_lon": 0.0, "lat": 38.87980116666667, "is_disabled": 0, "name": "03e58ebe0c917d6c4b110a7d2dad0ecd", "fusion_lat": 0.0, "rental_uris": {"ios": "https://dc.lft.to/lastmile_qr_scan", "android": "https://dc.lft.to/lastmile_qr_scan"}, "lon": -77.02418816666666, "type": "electric_scooter"}, {"bike_id": "b0ad828146845dc19f156fe59bbbabe7", "is_reserved": 0, "fusion_lon": 0.0, "lat": 38.89625866666667, "is_disabled": 0, "name": "b0ad828146845dc19f156fe59bbbabe7", "fusion_lat": 0.0, "rental_uris": {"ios": "https://dc.lft.to/lastmile_qr_scan", "android": "https://dc.lft.to/lastmile_qr_scan"}, "lon": -77.032272, "type": "electric_scooter"}, {"bike_id": "a75caa9b281a7d2ffbc7b617ab71ae64", "is_reserved": 0, "fusion_lon": 0.0, "lat": 38.9682355, "is_disabled": 0, "name": "a75caa9b281a7d2ffbc7b617ab71ae64", "fusion_lat": 0.0, "rental_uris": {"ios": "https://dc.lft.to/lastmile_qr_scan", "android": "https://dc.lft.to/lastmile_qr_scan"}, "lon": -77.017833, "type": "electric_scooter"}, {"bike_id": "1ffa4ebdaefada33368e39c1b43d633a", "is_reserved": 0, "fusion_lon": 0.0, "lat": 38.904604, "is_disabled": 0, "name": "1ffa4ebdaefada33368e39c1b43d633a", "fusion_lat": 0.0, "rental_uris": {"ios": "https://dc.lft.to/lastmile_qr_scan", "android": "https://dc.lft.to/lastmile_qr_scan"}, "lon": -76.99503766666666, "type": "electric_scooter"}, {"bike_id": "df516d495720708d4656f34bed577289", "is_reserved": 0, "fusion_lon": 0.0, "lat": 38.89301483333333, "is_disabled": 0, "name": "df516d495720708d4656f34bed577289", "fusion_lat": 0.0, "rental_uris": {"ios": "https://dc.lft.to/lastmile_qr_scan", "android": "https://dc.lft.to/lastmile_qr_scan"}, "lon": -77.012391, "type": "electric_scooter"}, {"bike_id": "45400cd6a12b991160550635c8b36b2a", "is_reserved": 0, "fusion_lon": 0.0, "lat": 38.900473, "is_disabled": 0, "name": "45400cd6a12b991160550635c8b36b2a", "fusion_lat": 0.0, "rental_uris": {"ios": "https://dc.lft.to/lastmile_qr_scan", "android": "https://dc.lft.to/lastmile_qr_scan"}, "lon": -77.00214733333334, "type": "electric_scooter"}, {"bike_id": "c385aa056b2f30dfdca3f234e2277ce0", "is_reserved": 0, "fusion_lon": 0.0, "lat": 38.92133883333333, "is_disabled": 0, "name": "c385aa056b2f30dfdca3f234e2277ce0", "fusion_lat": 0.0, "rental_uris": {"ios": "https://dc.lft.to/lastmile_qr_scan", "android": "https://dc.lft.to/lastmile_qr_scan"}, "lon": -77.04135666666667, "type": "electric_scooter"}, {"bike_id": "bbc31c6c66d4d950c1e9411a428b76cb", "is_reserved": 0, "fusion_lon": 0.0, "lat": 38.910432, "is_disabled": 0, "name": "bbc31c6c66d4d950c1e9411a428b76cb", "fusion_lat": 0.0, "rental_uris": {"ios": "https://dc.lft.to/lastmile_qr_scan", "android": "https://dc.lft.to/lastmile_qr_scan"}, "lon": -77.02813316666666, "type": "electric_scooter"}, {"bike_id": "16bc9b97edc5cd18eeab2f9d252aaed0", "is_reserved": 0, "fusion_lon": 0.0, "lat": 38.928816833333336, "is_disabled": 0, "name": "16bc9b97edc5cd18eeab2f9d252aaed0", "fusion_lat": 0.0, "rental_uris": {"ios": "https://dc.lft.to/lastmile_qr_scan", "android": "https://dc.lft.to/lastmile_qr_scan"}, "lon": -77.033035, "type": "electric_scooter"}, {"bike_id": "61ea057e5ae5b7546c9c6127d0224f19", "is_reserved": 0, "fusion_lon": 0.0, "lat": 38.8850495, "is_disabled": 0, "name": "61ea057e5ae5b7546c9c6127d0224f19", "fusion_lat": 0.0, "rental_uris": {"ios": "https://dc.lft.to/lastmile_qr_scan", "android": "https://dc.lft.to/lastmile_qr_scan"}, "lon": -77.00564383333334, "type": "electric_scooter"}, {"bike_id": "ea5dfab508be4836d604d6d85084f957", "is_reserved": 0, "fusion_lon": 0.0, "lat": 38.9117885, "is_disabled": 0, "name": "ea5dfab508be4836d604d6d85084f957", "fusion_lat": 0.0, "rental_uris": {"ios": "https://dc.lft.to/lastmile_qr_scan", "android": "https://dc.lft.to/lastmile_qr_scan"}, "lon": -77.00289866666667, "type": "electric_bike"}, {"bike_id": "adb8a12b5e0ad9eca2897e646117a198", "is_reserved": 0, "fusion_lon": 0.0, "lat": 38.916448333333335, "is_disabled": 0, "name": "adb8a12b5e0ad9eca2897e646117a198", "fusion_lat": 0.0, "rental_uris": {"ios": "https://dc.lft.to/lastmile_qr_scan", "android": "https://dc.lft.to/lastmile_qr_scan"}, "lon": -77.04174916666666, "type": "electric_scooter"}, {"bike_id": "3f8610d06c20097a09ebf3e0e4cb6bdf", "is_reserved": 0, "fusion_lon": 0.0, "lat": 38.873381, "is_disabled": 0, "name": "3f8610d06c20097a09ebf3e0e4cb6bdf", "fusion_lat": 0.0, "rental_uris": {"ios": "https://dc.lft.to/lastmile_qr_scan", "android": "https://dc.lft.to/lastmile_qr_scan"}, "lon": -76.96790166666666, "type": "electric_scooter"}, {"bike_id": "50a535c217ade8ab09b8e1d085f3ba6f", "is_reserved": 0, "fusion_lon": 0.0, "lat": 38.879332, "is_disabled": 0, "name": "50a535c217ade8ab09b8e1d085f3ba6f", "fusion_lat": 0.0, "rental_uris": {"ios": "https://dc.lft.to/lastmile_qr_scan", "android": "https://dc.lft.to/lastmile_qr_scan"}, "lon": -77.013469, "type": "electric_scooter"}, {"bike_id": "ad6ed893f430ced4035b33b2589ca9b5", "is_reserved": 0, "fusion_lon": 0.0, "lat": 38.9358165, "is_disabled": 0, "name": "ad6ed893f430ced4035b33b2589ca9b5", "fusion_lat": 0.0, "rental_uris": {"ios": "https://dc.lft.to/lastmile_qr_scan", "android": "https://dc.lft.to/lastmile_qr_scan"}, "lon": -77.03280416666666, "type": "electric_scooter"}, {"bike_id": "eeab82694514d1d0a7b7bc1c01ff34e1", "is_reserved": 0, "fusion_lon": 0.0, "lat": 38.93964583333333, "is_disabled": 0, "name": "eeab82694514d1d0a7b7bc1c01ff34e1", "fusion_lat": 0.0, "rental_uris": {"ios": "https://dc.lft.to/lastmile_qr_scan", "android": "https://dc.lft.to/lastmile_qr_scan"}, "lon": -77.053214, "type": "electric_scooter"}, {"bike_id": "76d9d2f5f826d55d733a0990517f33bd", "is_reserved": 0, "fusion_lon": 0.0, "lat": 38.921195, "is_disabled": 0, "name": "76d9d2f5f826d55d733a0990517f33bd", "fusion_lat": 0.0, "rental_uris": {"ios": "https://dc.lft.to/lastmile_qr_scan", "android": "https://dc.lft.to/lastmile_qr_scan"}, "lon": -77.0315185, "type": "electric_scooter"}, {"bike_id": "4d9757615293d31e439667f590457769", "is_reserved": 0, "fusion_lon": 0.0, "lat": 38.905925833333335, "is_disabled": 0, "name": "4d9757615293d31e439667f590457769", "fusion_lat": 0.0, "rental_uris": {"ios": "https://dc.lft.to/lastmile_qr_scan", "android": "https://dc.lft.to/lastmile_qr_scan"}, "lon": -77.05125666666666, "type": "electric_scooter"}, {"bike_id": "4beac08320e61bdfc2ae6ac806d03e9e", "is_reserved": 0, "fusion_lon": 0.0, "lat": 38.9237255, "is_disabled": 0, "name": "4beac08320e61bdfc2ae6ac806d03e9e", "fusion_lat": 0.0, "rental_uris": {"ios": "https://dc.lft.to/lastmile_qr_scan", "android": "https://dc.lft.to/lastmile_qr_scan"}, "lon": -77.05175333333334, "type": "electric_scooter"}, {"bike_id": "39774dd03e4a08e24ced44892fd699de", "is_reserved": 0, "fusion_lon": 0.0, "lat": 38.88597383333333, "is_disabled": 0, "name": "39774dd03e4a08e24ced44892fd699de", "fusion_lat": 0.0, "rental_uris": {"ios": "https://dc.lft.to/lastmile_qr_scan", "android": "https://dc.lft.to/lastmile_qr_scan"}, "lon": -77.00568416666667, "type": "electric_scooter"}, {"bike_id": "4afd27d18e1cce00ab2b6851ffc17224", "is_reserved": 0, "fusion_lon": 0.0, "lat": 38.854335166666665, "is_disabled": 0, "name": "4afd27d18e1cce00ab2b6851ffc17224", "fusion_lat": 0.0, "rental_uris": {"ios": "https://dc.lft.to/lastmile_qr_scan", "android": "https://dc.lft.to/lastmile_qr_scan"}, "lon": -76.90973516666666, "type": "electric_bike"}, {"bike_id": "f2eed9c116a5211902853fb57dbaf8b1", "is_reserved": 0, "fusion_lon": 0.0, "lat": 38.905346333333334, "is_disabled": 0, "name": "f2eed9c116a5211902853fb57dbaf8b1", "fusion_lat": 0.0, "rental_uris": {"ios": "https://dc.lft.to/lastmile_qr_scan", "android": "https://dc.lft.to/lastmile_qr_scan"}, "lon": -77.00593533333333, "type": "electric_bike"}, {"bike_id": "b4bd3801844ae417ccf4d7ccd5cf7c9a", "is_reserved": 0, "fusion_lon": 0.0, "lat": 38.8922335, "is_disabled": 0, "name": "b4bd3801844ae417ccf4d7ccd5cf7c9a", "fusion_lat": 0.0, "rental_uris": {"ios": "https://dc.lft.to/lastmile_qr_scan", "android": "https://dc.lft.to/lastmile_qr_scan"}, "lon": -77.04863016666667, "type": "electric_scooter"}, {"bike_id": "a249f3d39b8fe1387571ec518ec226e0", "is_reserved": 0, "fusion_lon": 0.0, "lat": 38.92906416666667, "is_disabled": 0, "name": "a249f3d39b8fe1387571ec518ec226e0", "fusion_lat": 0.0, "rental_uris": {"ios": "https://dc.lft.to/lastmile_qr_scan", "android": "https://dc.lft.to/lastmile_qr_scan"}, "lon": -77.02159466666667, "type": "electric_scooter"}, {"bike_id": "eaf31d8d1d51b711cc8b504d6832989a", "is_reserved": 0, "fusion_lon": 0.0, "lat": 38.90026866666667, "is_disabled": 0, "name": "eaf31d8d1d51b711cc8b504d6832989a", "fusion_lat": 0.0, "rental_uris": {"ios": "https://dc.lft.to/lastmile_qr_scan", "android": "https://dc.lft.to/lastmile_qr_scan"}, "lon": -76.99529983333333, "type": "electric_scooter"}, {"bike_id": "f28e66af74b41f856a0a805817900733", "is_reserved": 0, "fusion_lon": 0.0, "lat": 38.931557166666664, "is_disabled": 0, "name": "f28e66af74b41f856a0a805817900733", "fusion_lat": 0.0, "rental_uris": {"ios": "https://dc.lft.to/lastmile_qr_scan", "android": "https://dc.lft.to/lastmile_qr_scan"}, "lon": -77.04367133333334, "type": "electric_scooter"}, {"bike_id": "9d73ddc2938700fec478077206e5e136", "is_reserved": 0, "fusion_lon": 0.0, "lat": 38.91181383333333, "is_disabled": 0, "name": "9d73ddc2938700fec478077206e5e136", "fusion_lat": 0.0, "rental_uris": {"ios": "https://dc.lft.to/lastmile_qr_scan", "android": "https://dc.lft.to/lastmile_qr_scan"}, "lon": -77.04542033333334, "type": "electric_scooter"}, {"bike_id": "86851b0d5a0f4fdcc72916342b80c939", "is_reserved": 0, "fusion_lon": 0.0, "lat": 38.84432483333333, "is_disabled": 0, "name": "86851b0d5a0f4fdcc72916342b80c939", "fusion_lat": 0.0, "rental_uris": {"ios": "https://dc.lft.to/lastmile_qr_scan", "android": "https://dc.lft.to/lastmile_qr_scan"}, "lon": -76.99777783333333, "type": "electric_scooter"}, {"bike_id": "6899c1c10872b165ef78bd0daad8ba91", "is_reserved": 0, "fusion_lon": 0.0, "lat": 38.91050466666667, "is_disabled": 0, "name": "6899c1c10872b165ef78bd0daad8ba91", "fusion_lat": 0.0, "rental_uris": {"ios": "https://dc.lft.to/lastmile_qr_scan", "android": "https://dc.lft.to/lastmile_qr_scan"}, "lon": -77.04391133333333, "type": "electric_scooter"}, {"bike_id": "159ecd4095397e8918392f76a4edcbf1", "is_reserved": 0, "fusion_lon": 0.0, "lat": 38.93498916666667, "is_disabled": 0, "name": "159ecd4095397e8918392f76a4edcbf1", "fusion_lat": 0.0, "rental_uris": {"ios": "https://dc.lft.to/lastmile_qr_scan", "android": "https://dc.lft.to/lastmile_qr_scan"}, "lon": -77.02840383333333, "type": "electric_scooter"}, {"bike_id": "9c26c38d241e7bcee00e39814aa0506b", "is_reserved": 0, "fusion_lon": 0.0, "lat": 38.90314383333333, "is_disabled": 0, "name": "9c26c38d241e7bcee00e39814aa0506b", "fusion_lat": 0.0, "rental_uris": {"ios": "https://dc.lft.to/lastmile_qr_scan", "android": "https://dc.lft.to/lastmile_qr_scan"}, "lon": -77.03308316666667, "type": "electric_scooter"}, {"bike_id": "fc146fdab65bb191780d7ac367c4158f", "is_reserved": 0, "fusion_lon": 0.0, "lat": 38.900281, "is_disabled": 0, "name": "fc146fdab65bb191780d7ac367c4158f", "fusion_lat": 0.0, "rental_uris": {"ios": "https://dc.lft.to/lastmile_qr_scan", "android": "https://dc.lft.to/lastmile_qr_scan"}, "lon": -76.98692733333333, "type": "electric_scooter"}, {"bike_id": "1fba5678c6476e84390d12769e1c48fe", "is_reserved": 0, "fusion_lon": 0.0, "lat": 38.880817666666665, "is_disabled": 0, "name": "1fba5678c6476e84390d12769e1c48fe", "fusion_lat": 0.0, "rental_uris": {"ios": "https://dc.lft.to/lastmile_qr_scan", "android": "https://dc.lft.to/lastmile_qr_scan"}, "lon": -76.9853195, "type": "electric_scooter"}, {"bike_id": "abcc6dd4ce02bad157680b225f90d0a8", "is_reserved": 0, "fusion_lon": 0.0, "lat": 38.81050233333333, "is_disabled": 0, "name": "abcc6dd4ce02bad157680b225f90d0a8", "fusion_lat": 0.0, "rental_uris": {"ios": "https://dc.lft.to/lastmile_qr_scan", "android": "https://dc.lft.to/lastmile_qr_scan"}, "lon": -77.08512783333333, "type": "electric_bike"}, {"bike_id": "fe9cd060ce260a2573132334e285cbfb", "is_reserved": 0, "fusion_lon": 0.0, "lat": 38.93061633333333, "is_disabled": 0, "name": "fe9cd060ce260a2573132334e285cbfb", "fusion_lat": 0.0, "rental_uris": {"ios": "https://dc.lft.to/lastmile_qr_scan", "android": "https://dc.lft.to/lastmile_qr_scan"}, "lon": -77.03812566666667, "type": "electric_scooter"}, {"bike_id": "88b7b9152f6eed0b67f5ed6254e841d1", "is_reserved": 0, "fusion_lon": 0.0, "lat": 38.909628166666664, "is_disabled": 0, "name": "88b7b9152f6eed0b67f5ed6254e841d1", "fusion_lat": 0.0, "rental_uris": {"ios": "https://dc.lft.to/lastmile_qr_scan", "android": "https://dc.lft.to/lastmile_qr_scan"}, "lon": -77.03274866666666, "type": "electric_scooter"}, {"bike_id": "f4ad99a13bcbe74b6b446749b8217421", "is_reserved": 0, "fusion_lon": 0.0, "lat": 38.91665616666667, "is_disabled": 0, "name": "f4ad99a13bcbe74b6b446749b8217421", "fusion_lat": 0.0, "rental_uris": {"ios": "https://dc.lft.to/lastmile_qr_scan", "android": "https://dc.lft.to/lastmile_qr_scan"}, "lon": -77.02305016666666, "type": "electric_scooter"}, {"bike_id": "9e762cb501f18118ae0b44259305b08f", "is_reserved": 0, "fusion_lon": 0.0, "lat": 38.93983466666667, "is_disabled": 0, "name": "9e762cb501f18118ae0b44259305b08f", "fusion_lat": 0.0, "rental_uris": {"ios": "https://dc.lft.to/lastmile_qr_scan", "android": "https://dc.lft.to/lastmile_qr_scan"}, "lon": -77.02894433333333, "type": "electric_scooter"}, {"bike_id": "043828700cdfbe2f0e5961b399ccaecb", "is_reserved": 0, "fusion_lon": 0.0, "lat": 38.92053833333333, "is_disabled": 0, "name": "043828700cdfbe2f0e5961b399ccaecb", "fusion_lat": 0.0, "rental_uris": {"ios": "https://dc.lft.to/lastmile_qr_scan", "android": "https://dc.lft.to/lastmile_qr_scan"}, "lon": -77.033478, "type": "electric_scooter"}, {"bike_id": "beff2cbc2d2c6f75ef6adf650b03d434", "is_reserved": 0, "fusion_lon": 0.0, "lat": 38.9027185, "is_disabled": 0, "name": "beff2cbc2d2c6f75ef6adf650b03d434", "fusion_lat": 0.0, "rental_uris": {"ios": "https://dc.lft.to/lastmile_qr_scan", "android": "https://dc.lft.to/lastmile_qr_scan"}, "lon": -77.03859016666667, "type": "electric_scooter"}, {"bike_id": "e1186214635ca2303ebac22d389a19cb", "is_reserved": 0, "fusion_lon": 0.0, "lat": 38.99940866666667, "is_disabled": 0, "name": "e1186214635ca2303ebac22d389a19cb", "fusion_lat": 0.0, "rental_uris": {"ios": "https://dc.lft.to/lastmile_qr_scan", "android": "https://dc.lft.to/lastmile_qr_scan"}, "lon": -77.01767716666667, "type": "electric_bike"}, {"bike_id": "737089a4dfeb171dbdef8d9e153e937a", "is_reserved": 0, "fusion_lon": 0.0, "lat": 38.899415166666664, "is_disabled": 0, "name": "737089a4dfeb171dbdef8d9e153e937a", "fusion_lat": 0.0, "rental_uris": {"ios": "https://dc.lft.to/lastmile_qr_scan", "android": "https://dc.lft.to/lastmile_qr_scan"}, "lon": -77.03177016666666, "type": "electric_scooter"}, {"bike_id": "5474c5469b64ac5949c6495ae0cba739", "is_reserved": 0, "fusion_lon": 0.0, "lat": 38.90769233333333, "is_disabled": 0, "name": "5474c5469b64ac5949c6495ae0cba739", "fusion_lat": 0.0, "rental_uris": {"ios": "https://dc.lft.to/lastmile_qr_scan", "android": "https://dc.lft.to/lastmile_qr_scan"}, "lon": -77.0690695, "type": "electric_scooter"}, {"bike_id": "5d347a6607cda0d933dda9f82a571fa1", "is_reserved": 0, "fusion_lon": 0.0, "lat": 38.867004666666666, "is_disabled": 0, "name": "5d347a6607cda0d933dda9f82a571fa1", "fusion_lat": 0.0, "rental_uris": {"ios": "https://dc.lft.to/lastmile_qr_scan", "android": "https://dc.lft.to/lastmile_qr_scan"}, "lon": -76.98714, "type": "electric_scooter"}, {"bike_id": "e925e31ff2927995937883445b88d141", "is_reserved": 0, "fusion_lon": 0.0, "lat": 38.966249833333336, "is_disabled": 0, "name": "e925e31ff2927995937883445b88d141", "fusion_lat": 0.0, "rental_uris": {"ios": "https://dc.lft.to/lastmile_qr_scan", "android": "https://dc.lft.to/lastmile_qr_scan"}, "lon": -76.9766965, "type": "electric_bike"}, {"bike_id": "27775d3325abbe53964145a3ecf4ec13", "is_reserved": 0, "fusion_lon": 0.0, "lat": 38.91088466666667, "is_disabled": 0, "name": "27775d3325abbe53964145a3ecf4ec13", "fusion_lat": 0.0, "rental_uris": {"ios": "https://dc.lft.to/lastmile_qr_scan", "android": "https://dc.lft.to/lastmile_qr_scan"}, "lon": -77.03452566666667, "type": "electric_scooter"}, {"bike_id": "efe344cc387c8d0ea9e26c9e1b0daaf4", "is_reserved": 0, "fusion_lon": 0.0, "lat": 38.905359833333335, "is_disabled": 0, "name": "efe344cc387c8d0ea9e26c9e1b0daaf4", "fusion_lat": 0.0, "rental_uris": {"ios": "https://dc.lft.to/lastmile_qr_scan", "android": "https://dc.lft.to/lastmile_qr_scan"}, "lon": -77.061629, "type": "electric_scooter"}, {"bike_id": "8aa89f08806721d7d56d5c9ead00b3f4", "is_reserved": 0, "fusion_lon": 0.0, "lat": 38.82871383333333, "is_disabled": 0, "name": "8aa89f08806721d7d56d5c9ead00b3f4", "fusion_lat": 0.0, "rental_uris": {"ios": "https://dc.lft.to/lastmile_qr_scan", "android": "https://dc.lft.to/lastmile_qr_scan"}, "lon": -77.11224683333333, "type": "electric_bike"}, {"bike_id": "187f7eb91f47cf00ac0f391af9391dfe", "is_reserved": 0, "fusion_lon": 0.0, "lat": 38.916794833333334, "is_disabled": 0, "name": "187f7eb91f47cf00ac0f391af9391dfe", "fusion_lat": 0.0, "rental_uris": {"ios": "https://dc.lft.to/lastmile_qr_scan", "android": "https://dc.lft.to/lastmile_qr_scan"}, "lon": -77.03641666666667, "type": "electric_scooter"}, {"bike_id": "07c09400051c86875ab0f6dd2fa92d83", "is_reserved": 0, "fusion_lon": 0.0, "lat": 38.99091083333333, "is_disabled": 0, "name": "07c09400051c86875ab0f6dd2fa92d83", "fusion_lat": 0.0, "rental_uris": {"ios": "https://dc.lft.to/lastmile_qr_scan", "android": "https://dc.lft.to/lastmile_qr_scan"}, "lon": -76.87492366666666, "type": "electric_bike"}, {"bike_id": "7a2a0208e936810065d60cd4a070a7ba", "is_reserved": 0, "fusion_lon": 0.0, "lat": 38.9179585, "is_disabled": 0, "name": "7a2a0208e936810065d60cd4a070a7ba", "fusion_lat": 0.0, "rental_uris": {"ios": "https://dc.lft.to/lastmile_qr_scan", "android": "https://dc.lft.to/lastmile_qr_scan"}, "lon": -77.03456333333334, "type": "electric_scooter"}, {"bike_id": "76133133b9f38a74479aa56f4c2e04f4", "is_reserved": 0, "fusion_lon": 0.0, "lat": 38.9014365, "is_disabled": 0, "name": "76133133b9f38a74479aa56f4c2e04f4", "fusion_lat": 0.0, "rental_uris": {"ios": "https://dc.lft.to/lastmile_qr_scan", "android": "https://dc.lft.to/lastmile_qr_scan"}, "lon": -77.04403333333333, "type": "electric_scooter"}, {"bike_id": "2987752b5ddf437a40c75a210910470f", "is_reserved": 0, "fusion_lon": 0.0, "lat": 38.91975333333333, "is_disabled": 0, "name": "2987752b5ddf437a40c75a210910470f", "fusion_lat": 0.0, "rental_uris": {"ios": "https://dc.lft.to/lastmile_qr_scan", "android": "https://dc.lft.to/lastmile_qr_scan"}, "lon": -77.02374533333334, "type": "electric_scooter"}, {"bike_id": "fc7dda22fd42717d771d599d97a01cd6", "is_reserved": 0, "fusion_lon": 0.0, "lat": 38.93610616666667, "is_disabled": 0, "name": "fc7dda22fd42717d771d599d97a01cd6", "fusion_lat": 0.0, "rental_uris": {"ios": "https://dc.lft.to/lastmile_qr_scan", "android": "https://dc.lft.to/lastmile_qr_scan"}, "lon": -77.05861616666667, "type": "electric_scooter"}, {"bike_id": "c6e4c4c07034f6e970771aee57c77193", "is_reserved": 0, "fusion_lon": 0.0, "lat": 38.87840216666667, "is_disabled": 0, "name": "c6e4c4c07034f6e970771aee57c77193", "fusion_lat": 0.0, "rental_uris": {"ios": "https://dc.lft.to/lastmile_qr_scan", "android": "https://dc.lft.to/lastmile_qr_scan"}, "lon": -77.02280433333334, "type": "electric_scooter"}, {"bike_id": "3b29778d9aa585dc9d7ac95628cef957", "is_reserved": 0, "fusion_lon": 0.0, "lat": 38.90017733333333, "is_disabled": 0, "name": "3b29778d9aa585dc9d7ac95628cef957", "fusion_lat": 0.0, "rental_uris": {"ios": "https://dc.lft.to/lastmile_qr_scan", "android": "https://dc.lft.to/lastmile_qr_scan"}, "lon": -77.04007733333333, "type": "electric_scooter"}, {"bike_id": "4b6a8ed3c0ff0716a70ad5560b4b5e65", "is_reserved": 0, "fusion_lon": 0.0, "lat": 38.884097833333335, "is_disabled": 0, "name": "4b6a8ed3c0ff0716a70ad5560b4b5e65", "fusion_lat": 0.0, "rental_uris": {"ios": "https://dc.lft.to/lastmile_qr_scan", "android": "https://dc.lft.to/lastmile_qr_scan"}, "lon": -77.0154545, "type": "electric_scooter"}, {"bike_id": "7340d17f5e84dfc065dbc76dada72ee3", "is_reserved": 0, "fusion_lon": 0.0, "lat": 38.891987, "is_disabled": 0, "name": "7340d17f5e84dfc065dbc76dada72ee3", "fusion_lat": 0.0, "rental_uris": {"ios": "https://dc.lft.to/lastmile_qr_scan", "android": "https://dc.lft.to/lastmile_qr_scan"}, "lon": -77.01549166666666, "type": "electric_scooter"}, {"bike_id": "dd6e6ea152cb018c4ff7285d5aa83381", "is_reserved": 0, "fusion_lon": 0.0, "lat": 39.030589666666664, "is_disabled": 0, "name": "dd6e6ea152cb018c4ff7285d5aa83381", "fusion_lat": 0.0, "rental_uris": {"ios": "https://dc.lft.to/lastmile_qr_scan", "android": "https://dc.lft.to/lastmile_qr_scan"}, "lon": -77.094719, "type": "electric_bike"}, {"bike_id": "68c52255892e5621a88396eb787856c5", "is_reserved": 0, "fusion_lon": 0.0, "lat": 38.90767666666667, "is_disabled": 0, "name": "68c52255892e5621a88396eb787856c5", "fusion_lat": 0.0, "rental_uris": {"ios": "https://dc.lft.to/lastmile_qr_scan", "android": "https://dc.lft.to/lastmile_qr_scan"}, "lon": -77.03214883333334, "type": "electric_scooter"}, {"bike_id": "fd52bdcfc2002bc44a1482cd803a5ce9", "is_reserved": 0, "fusion_lon": 0.0, "lat": 38.920531833333335, "is_disabled": 0, "name": "fd52bdcfc2002bc44a1482cd803a5ce9", "fusion_lat": 0.0, "rental_uris": {"ios": "https://dc.lft.to/lastmile_qr_scan", "android": "https://dc.lft.to/lastmile_qr_scan"}, "lon": -77.04184233333334, "type": "electric_scooter"}, {"bike_id": "562721a39c4aee2a6a4ccbf563e851b5", "is_reserved": 0, "fusion_lon": 0.0, "lat": 38.919255666666665, "is_disabled": 0, "name": "562721a39c4aee2a6a4ccbf563e851b5", "fusion_lat": 0.0, "rental_uris": {"ios": "https://dc.lft.to/lastmile_qr_scan", "android": "https://dc.lft.to/lastmile_qr_scan"}, "lon": -77.00056333333333, "type": "electric_scooter"}, {"bike_id": "d55f04b1319154f515bc00823a8c6241", "is_reserved": 0, "fusion_lon": 0.0, "lat": 38.89838483333333, "is_disabled": 0, "name": "d55f04b1319154f515bc00823a8c6241", "fusion_lat": 0.0, "rental_uris": {"ios": "https://dc.lft.to/lastmile_qr_scan", "android": "https://dc.lft.to/lastmile_qr_scan"}, "lon": -76.98017333333334, "type": "electric_scooter"}, {"bike_id": "c4a4c8fc841dda269111ea9a329a9e84", "is_reserved": 0, "fusion_lon": 0.0, "lat": 38.89567533333334, "is_disabled": 0, "name": "c4a4c8fc841dda269111ea9a329a9e84", "fusion_lat": 0.0, "rental_uris": {"ios": "https://dc.lft.to/lastmile_qr_scan", "android": "https://dc.lft.to/lastmile_qr_scan"}, "lon": -77.02564433333333, "type": "electric_scooter"}, {"bike_id": "8f88c4123d0d25a0ff27fa9c0a9907fe", "is_reserved": 0, "fusion_lon": 0.0, "lat": 38.8800005, "is_disabled": 0, "name": "8f88c4123d0d25a0ff27fa9c0a9907fe", "fusion_lat": 0.0, "rental_uris": {"ios": "https://dc.lft.to/lastmile_qr_scan", "android": "https://dc.lft.to/lastmile_qr_scan"}, "lon": -76.98542016666667, "type": "electric_scooter"}, {"bike_id": "c57ef778c8f95570d103c47f2d35835c", "is_reserved": 0, "fusion_lon": 0.0, "lat": 38.931596166666665, "is_disabled": 0, "name": "c57ef778c8f95570d103c47f2d35835c", "fusion_lat": 0.0, "rental_uris": {"ios": "https://dc.lft.to/lastmile_qr_scan", "android": "https://dc.lft.to/lastmile_qr_scan"}, "lon": -76.996063, "type": "electric_scooter"}, {"bike_id": "23b8754e6cb3e349a86002c3e30f36a3", "is_reserved": 0, "fusion_lon": 0.0, "lat": 38.902722833333335, "is_disabled": 0, "name": "23b8754e6cb3e349a86002c3e30f36a3", "fusion_lat": 0.0, "rental_uris": {"ios": "https://dc.lft.to/lastmile_qr_scan", "android": "https://dc.lft.to/lastmile_qr_scan"}, "lon": -77.03333833333333, "type": "electric_scooter"}, {"bike_id": "02939c193addc76318449e4be43eda9d", "is_reserved": 0, "fusion_lon": 0.0, "lat": 38.9334285, "is_disabled": 0, "name": "02939c193addc76318449e4be43eda9d", "fusion_lat": 0.0, "rental_uris": {"ios": "https://dc.lft.to/lastmile_qr_scan", "android": "https://dc.lft.to/lastmile_qr_scan"}, "lon": -77.05721066666666, "type": "electric_scooter"}, {"bike_id": "32bdb7cef1ea691ce69d9023b820de2d", "is_reserved": 0, "fusion_lon": 0.0, "lat": 38.908261833333334, "is_disabled": 0, "name": "32bdb7cef1ea691ce69d9023b820de2d", "fusion_lat": 0.0, "rental_uris": {"ios": "https://dc.lft.to/lastmile_qr_scan", "android": "https://dc.lft.to/lastmile_qr_scan"}, "lon": -76.99691333333334, "type": "electric_scooter"}, {"bike_id": "762e31c46beb8e8ea19313ff7f837a1f", "is_reserved": 0, "fusion_lon": 0.0, "lat": 38.8971655, "is_disabled": 0, "name": "762e31c46beb8e8ea19313ff7f837a1f", "fusion_lat": 0.0, "rental_uris": {"ios": "https://dc.lft.to/lastmile_qr_scan", "android": "https://dc.lft.to/lastmile_qr_scan"}, "lon": -77.02702533333333, "type": "electric_scooter"}, {"bike_id": "571a9e8eb5a6a2d640f1b3967035e76a", "is_reserved": 0, "fusion_lon": 0.0, "lat": 38.887054166666665, "is_disabled": 0, "name": "571a9e8eb5a6a2d640f1b3967035e76a", "fusion_lat": 0.0, "rental_uris": {"ios": "https://dc.lft.to/lastmile_qr_scan", "android": "https://dc.lft.to/lastmile_qr_scan"}, "lon": -77.00153066666667, "type": "electric_scooter"}, {"bike_id": "18311422e19713f802e7b3444811aab8", "is_reserved": 0, "fusion_lon": 0.0, "lat": 38.884285166666665, "is_disabled": 0, "name": "18311422e19713f802e7b3444811aab8", "fusion_lat": 0.0, "rental_uris": {"ios": "https://dc.lft.to/lastmile_qr_scan", "android": "https://dc.lft.to/lastmile_qr_scan"}, "lon": -76.9959385, "type": "electric_scooter"}, {"bike_id": "a75a68ec1de6a4a9f45abbecc9ebf175", "is_reserved": 0, "fusion_lon": 0.0, "lat": 38.90124, "is_disabled": 0, "name": "a75a68ec1de6a4a9f45abbecc9ebf175", "fusion_lat": 0.0, "rental_uris": {"ios": "https://dc.lft.to/lastmile_qr_scan", "android": "https://dc.lft.to/lastmile_qr_scan"}, "lon": -76.99709083333333, "type": "electric_scooter"}, {"bike_id": "ca93de1fd95dce6e53388ca979263d7d", "is_reserved": 0, "fusion_lon": 0.0, "lat": 38.906807, "is_disabled": 0, "name": "ca93de1fd95dce6e53388ca979263d7d", "fusion_lat": 0.0, "rental_uris": {"ios": "https://dc.lft.to/lastmile_qr_scan", "android": "https://dc.lft.to/lastmile_qr_scan"}, "lon": -77.00592433333334, "type": "electric_scooter"}, {"bike_id": "c109d2b91de3467f9a5b3576ec82b900", "is_reserved": 0, "fusion_lon": 0.0, "lat": 38.903868, "is_disabled": 0, "name": "c109d2b91de3467f9a5b3576ec82b900", "fusion_lat": 0.0, "rental_uris": {"ios": "https://dc.lft.to/lastmile_qr_scan", "android": "https://dc.lft.to/lastmile_qr_scan"}, "lon": -77.04502466666666, "type": "electric_scooter"}, {"bike_id": "cd185765158bb2250f79eda782f9a945", "is_reserved": 0, "fusion_lon": 0.0, "lat": 38.92270416666667, "is_disabled": 0, "name": "cd185765158bb2250f79eda782f9a945", "fusion_lat": 0.0, "rental_uris": {"ios": "https://dc.lft.to/lastmile_qr_scan", "android": "https://dc.lft.to/lastmile_qr_scan"}, "lon": -77.018286, "type": "electric_scooter"}, {"bike_id": "bac14325f5947a0403e358622327467a", "is_reserved": 0, "fusion_lon": 0.0, "lat": 38.89959183333333, "is_disabled": 0, "name": "bac14325f5947a0403e358622327467a", "fusion_lat": 0.0, "rental_uris": {"ios": "https://dc.lft.to/lastmile_qr_scan", "android": "https://dc.lft.to/lastmile_qr_scan"}, "lon": -77.05271666666667, "type": "electric_scooter"}, {"bike_id": "72aa53bbcd7e30e5e2fd4df1278df249", "is_reserved": 0, "fusion_lon": 0.0, "lat": 38.905243166666665, "is_disabled": 0, "name": "72aa53bbcd7e30e5e2fd4df1278df249", "fusion_lat": 0.0, "rental_uris": {"ios": "https://dc.lft.to/lastmile_qr_scan", "android": "https://dc.lft.to/lastmile_qr_scan"}, "lon": -77.06519133333333, "type": "electric_scooter"}, {"bike_id": "aa03cb0733987bd97fff2d482d0b8196", "is_reserved": 0, "fusion_lon": 0.0, "lat": 38.92712783333333, "is_disabled": 0, "name": "aa03cb0733987bd97fff2d482d0b8196", "fusion_lat": 0.0, "rental_uris": {"ios": "https://dc.lft.to/lastmile_qr_scan", "android": "https://dc.lft.to/lastmile_qr_scan"}, "lon": -77.04050816666667, "type": "electric_scooter"}, {"bike_id": "6ed510fbe339661265925967c5e78914", "is_reserved": 0, "fusion_lon": 0.0, "lat": 38.880213499999996, "is_disabled": 0, "name": "6ed510fbe339661265925967c5e78914", "fusion_lat": 0.0, "rental_uris": {"ios": "https://dc.lft.to/lastmile_qr_scan", "android": "https://dc.lft.to/lastmile_qr_scan"}, "lon": -76.9313365, "type": "electric_scooter"}, {"bike_id": "0e220307688f4a7e9ff039bb00a3264d", "is_reserved": 0, "fusion_lon": 0.0, "lat": 38.90975983333333, "is_disabled": 0, "name": "0e220307688f4a7e9ff039bb00a3264d", "fusion_lat": 0.0, "rental_uris": {"ios": "https://dc.lft.to/lastmile_qr_scan", "android": "https://dc.lft.to/lastmile_qr_scan"}, "lon": -77.03374166666667, "type": "electric_scooter"}, {"bike_id": "3f5785b03df0696dc8837f6af59d289c", "is_reserved": 0, "fusion_lon": 0.0, "lat": 38.894772333333336, "is_disabled": 0, "name": "3f5785b03df0696dc8837f6af59d289c", "fusion_lat": 0.0, "rental_uris": {"ios": "https://dc.lft.to/lastmile_qr_scan", "android": "https://dc.lft.to/lastmile_qr_scan"}, "lon": -77.02391766666666, "type": "electric_scooter"}, {"bike_id": "6359f70d7ed0fd049c83ddbad2f4a245", "is_reserved": 0, "fusion_lon": 0.0, "lat": 38.899973833333334, "is_disabled": 0, "name": "6359f70d7ed0fd049c83ddbad2f4a245", "fusion_lat": 0.0, "rental_uris": {"ios": "https://dc.lft.to/lastmile_qr_scan", "android": "https://dc.lft.to/lastmile_qr_scan"}, "lon": -77.05567333333333, "type": "electric_scooter"}, {"bike_id": "33bf1ad2a2da127dad9209e15d8ba66b", "is_reserved": 0, "fusion_lon": 0.0, "lat": 38.927995833333334, "is_disabled": 0, "name": "33bf1ad2a2da127dad9209e15d8ba66b", "fusion_lat": 0.0, "rental_uris": {"ios": "https://dc.lft.to/lastmile_qr_scan", "android": "https://dc.lft.to/lastmile_qr_scan"}, "lon": -77.05356566666667, "type": "electric_scooter"}, {"bike_id": "88d2c7c8017c2b79d2bde5b56bef3d0a", "is_reserved": 0, "fusion_lon": 0.0, "lat": 38.91876333333333, "is_disabled": 0, "name": "88d2c7c8017c2b79d2bde5b56bef3d0a", "fusion_lat": 0.0, "rental_uris": {"ios": "https://dc.lft.to/lastmile_qr_scan", "android": "https://dc.lft.to/lastmile_qr_scan"}, "lon": -77.04322083333334, "type": "electric_scooter"}, {"bike_id": "0bea8590ae09d6189b6dcfe5b8f5dca2", "is_reserved": 0, "fusion_lon": 0.0, "lat": 38.924108, "is_disabled": 0, "name": "0bea8590ae09d6189b6dcfe5b8f5dca2", "fusion_lat": 0.0, "rental_uris": {"ios": "https://dc.lft.to/lastmile_qr_scan", "android": "https://dc.lft.to/lastmile_qr_scan"}, "lon": -77.01946633333333, "type": "electric_scooter"}, {"bike_id": "b42880e7f34a74eacb763e2fc70e4b03", "is_reserved": 0, "fusion_lon": 0.0, "lat": 38.908637166666665, "is_disabled": 0, "name": "b42880e7f34a74eacb763e2fc70e4b03", "fusion_lat": 0.0, "rental_uris": {"ios": "https://dc.lft.to/lastmile_qr_scan", "android": "https://dc.lft.to/lastmile_qr_scan"}, "lon": -77.0273025, "type": "electric_scooter"}, {"bike_id": "68e6c890c7f3d47a69f392d14c5f9e81", "is_reserved": 0, "fusion_lon": 0.0, "lat": 38.89742, "is_disabled": 0, "name": "68e6c890c7f3d47a69f392d14c5f9e81", "fusion_lat": 0.0, "rental_uris": {"ios": "https://dc.lft.to/lastmile_qr_scan", "android": "https://dc.lft.to/lastmile_qr_scan"}, "lon": -76.94720216666667, "type": "electric_scooter"}, {"bike_id": "21be36d0d02d0999282b898c880bcdc4", "is_reserved": 0, "fusion_lon": 0.0, "lat": 38.8273115, "is_disabled": 0, "name": "21be36d0d02d0999282b898c880bcdc4", "fusion_lat": 0.0, "rental_uris": {"ios": "https://dc.lft.to/lastmile_qr_scan", "android": "https://dc.lft.to/lastmile_qr_scan"}, "lon": -77.008628, "type": "electric_bike"}, {"bike_id": "b86d05d894c4f6a817f9660a008389c2", "is_reserved": 0, "fusion_lon": 0.0, "lat": 38.909508333333335, "is_disabled": 0, "name": "b86d05d894c4f6a817f9660a008389c2", "fusion_lat": 0.0, "rental_uris": {"ios": "https://dc.lft.to/lastmile_qr_scan", "android": "https://dc.lft.to/lastmile_qr_scan"}, "lon": -77.03204266666667, "type": "electric_scooter"}, {"bike_id": "58bd771a62b381c5de9416286624523a", "is_reserved": 0, "fusion_lon": 0.0, "lat": 38.90037866666667, "is_disabled": 0, "name": "58bd771a62b381c5de9416286624523a", "fusion_lat": 0.0, "rental_uris": {"ios": "https://dc.lft.to/lastmile_qr_scan", "android": "https://dc.lft.to/lastmile_qr_scan"}, "lon": -77.03191466666667, "type": "electric_scooter"}, {"bike_id": "2b5826f17a7ab5d1824391d74d4a7eec", "is_reserved": 0, "fusion_lon": 0.0, "lat": 38.8849415, "is_disabled": 0, "name": "2b5826f17a7ab5d1824391d74d4a7eec", "fusion_lat": 0.0, "rental_uris": {"ios": "https://dc.lft.to/lastmile_qr_scan", "android": "https://dc.lft.to/lastmile_qr_scan"}, "lon": -77.0072605, "type": "electric_scooter"}, {"bike_id": "0a3974ccd9370f1113960d7c8f2324f4", "is_reserved": 0, "fusion_lon": 0.0, "lat": 38.885952333333336, "is_disabled": 0, "name": "0a3974ccd9370f1113960d7c8f2324f4", "fusion_lat": 0.0, "rental_uris": {"ios": "https://dc.lft.to/lastmile_qr_scan", "android": "https://dc.lft.to/lastmile_qr_scan"}, "lon": -76.95258033333333, "type": "electric_scooter"}, {"bike_id": "c29dd5e0752ed49f04dc6a9684272f85", "is_reserved": 0, "fusion_lon": 0.0, "lat": 38.92790383333333, "is_disabled": 0, "name": "c29dd5e0752ed49f04dc6a9684272f85", "fusion_lat": 0.0, "rental_uris": {"ios": "https://dc.lft.to/lastmile_qr_scan", "android": "https://dc.lft.to/lastmile_qr_scan"}, "lon": -77.03147733333333, "type": "electric_scooter"}, {"bike_id": "d89561bb76364b92a5db76cf43e21cd9", "is_reserved": 0, "fusion_lon": 0.0, "lat": 38.90048566666667, "is_disabled": 0, "name": "d89561bb76364b92a5db76cf43e21cd9", "fusion_lat": 0.0, "rental_uris": {"ios": "https://dc.lft.to/lastmile_qr_scan", "android": "https://dc.lft.to/lastmile_qr_scan"}, "lon": -77.00761616666666, "type": "electric_scooter"}, {"bike_id": "b71de2752cf6b77c42ba694992362443", "is_reserved": 0, "fusion_lon": 0.0, "lat": 38.90195033333333, "is_disabled": 0, "name": "b71de2752cf6b77c42ba694992362443", "fusion_lat": 0.0, "rental_uris": {"ios": "https://dc.lft.to/lastmile_qr_scan", "android": "https://dc.lft.to/lastmile_qr_scan"}, "lon": -77.04807866666667, "type": "electric_scooter"}, {"bike_id": "5299530e102cc3b837ec8bbeaa6e0dd6", "is_reserved": 0, "fusion_lon": 0.0, "lat": 38.90572933333333, "is_disabled": 0, "name": "5299530e102cc3b837ec8bbeaa6e0dd6", "fusion_lat": 0.0, "rental_uris": {"ios": "https://dc.lft.to/lastmile_qr_scan", "android": "https://dc.lft.to/lastmile_qr_scan"}, "lon": -77.02976716666667, "type": "electric_scooter"}, {"bike_id": "abdbba3122786d4756b798b9d2f3e499", "is_reserved": 0, "fusion_lon": 0.0, "lat": 38.91649916666667, "is_disabled": 0, "name": "abdbba3122786d4756b798b9d2f3e499", "fusion_lat": 0.0, "rental_uris": {"ios": "https://dc.lft.to/lastmile_qr_scan", "android": "https://dc.lft.to/lastmile_qr_scan"}, "lon": -77.03657666666666, "type": "electric_scooter"}, {"bike_id": "995682fb037293700a958a100e6aa844", "is_reserved": 0, "fusion_lon": 0.0, "lat": 38.939497333333335, "is_disabled": 0, "name": "995682fb037293700a958a100e6aa844", "fusion_lat": 0.0, "rental_uris": {"ios": "https://dc.lft.to/lastmile_qr_scan", "android": "https://dc.lft.to/lastmile_qr_scan"}, "lon": -77.03263683333333, "type": "electric_scooter"}, {"bike_id": "076d48f96f93b7fd0dd4766b7fc1eb7a", "is_reserved": 0, "fusion_lon": 0.0, "lat": 38.892205833333335, "is_disabled": 0, "name": "076d48f96f93b7fd0dd4766b7fc1eb7a", "fusion_lat": 0.0, "rental_uris": {"ios": "https://dc.lft.to/lastmile_qr_scan", "android": "https://dc.lft.to/lastmile_qr_scan"}, "lon": -77.02839483333334, "type": "electric_scooter"}, {"bike_id": "55e94d062989b00424571e58c2a4560c", "is_reserved": 0, "fusion_lon": 0.0, "lat": 38.984632, "is_disabled": 0, "name": "55e94d062989b00424571e58c2a4560c", "fusion_lat": 0.0, "rental_uris": {"ios": "https://dc.lft.to/lastmile_qr_scan", "android": "https://dc.lft.to/lastmile_qr_scan"}, "lon": -76.95525466666666, "type": "electric_bike"}, {"bike_id": "decad78355b38e79e6d37a10db946514", "is_reserved": 0, "fusion_lon": 0.0, "lat": 38.903784333333334, "is_disabled": 0, "name": "decad78355b38e79e6d37a10db946514", "fusion_lat": 0.0, "rental_uris": {"ios": "https://dc.lft.to/lastmile_qr_scan", "android": "https://dc.lft.to/lastmile_qr_scan"}, "lon": -77.02942616666667, "type": "electric_scooter"}, {"bike_id": "3621cb48ac0d69c764f4b4dd089a5625", "is_reserved": 0, "fusion_lon": 0.0, "lat": 38.919761666666666, "is_disabled": 0, "name": "3621cb48ac0d69c764f4b4dd089a5625", "fusion_lat": 0.0, "rental_uris": {"ios": "https://dc.lft.to/lastmile_qr_scan", "android": "https://dc.lft.to/lastmile_qr_scan"}, "lon": -77.02392866666666, "type": "electric_scooter"}, {"bike_id": "b70c6bef5a22de14f40ed1316a239e27", "is_reserved": 0, "fusion_lon": 0.0, "lat": 38.902372166666666, "is_disabled": 0, "name": "b70c6bef5a22de14f40ed1316a239e27", "fusion_lat": 0.0, "rental_uris": {"ios": "https://dc.lft.to/lastmile_qr_scan", "android": "https://dc.lft.to/lastmile_qr_scan"}, "lon": -77.02972683333333, "type": "electric_scooter"}, {"bike_id": "54d707d37be598aa83f424f3dab5983f", "is_reserved": 0, "fusion_lon": 0.0, "lat": 38.892272, "is_disabled": 0, "name": "54d707d37be598aa83f424f3dab5983f", "fusion_lat": 0.0, "rental_uris": {"ios": "https://dc.lft.to/lastmile_qr_scan", "android": "https://dc.lft.to/lastmile_qr_scan"}, "lon": -77.025849, "type": "electric_scooter"}, {"bike_id": "ed3b382c5dcd59ce599c7517c9a4e55c", "is_reserved": 0, "fusion_lon": 0.0, "lat": 38.806909, "is_disabled": 0, "name": "ed3b382c5dcd59ce599c7517c9a4e55c", "fusion_lat": 0.0, "rental_uris": {"ios": "https://dc.lft.to/lastmile_qr_scan", "android": "https://dc.lft.to/lastmile_qr_scan"}, "lon": -77.05975, "type": "electric_bike"}, {"bike_id": "1a2519f999c0532764130c4b799702ae", "is_reserved": 0, "fusion_lon": 0.0, "lat": 38.90291883333333, "is_disabled": 0, "name": "1a2519f999c0532764130c4b799702ae", "fusion_lat": 0.0, "rental_uris": {"ios": "https://dc.lft.to/lastmile_qr_scan", "android": "https://dc.lft.to/lastmile_qr_scan"}, "lon": -77.04060733333333, "type": "electric_scooter"}, {"bike_id": "7580b69e106747a3477d4c157b995b67", "is_reserved": 0, "fusion_lon": 0.0, "lat": 38.897239166666665, "is_disabled": 0, "name": "7580b69e106747a3477d4c157b995b67", "fusion_lat": 0.0, "rental_uris": {"ios": "https://dc.lft.to/lastmile_qr_scan", "android": "https://dc.lft.to/lastmile_qr_scan"}, "lon": -77.02734733333334, "type": "electric_scooter"}, {"bike_id": "fb9adea615cea5952d8fccb6bc1498c8", "is_reserved": 0, "fusion_lon": 0.0, "lat": 38.927509666666666, "is_disabled": 0, "name": "fb9adea615cea5952d8fccb6bc1498c8", "fusion_lat": 0.0, "rental_uris": {"ios": "https://dc.lft.to/lastmile_qr_scan", "android": "https://dc.lft.to/lastmile_qr_scan"}, "lon": -77.0535565, "type": "electric_scooter"}, {"bike_id": "22f26e2a9b796712156b4b454afdbb08", "is_reserved": 0, "fusion_lon": 0.0, "lat": 38.939429833333335, "is_disabled": 0, "name": "22f26e2a9b796712156b4b454afdbb08", "fusion_lat": 0.0, "rental_uris": {"ios": "https://dc.lft.to/lastmile_qr_scan", "android": "https://dc.lft.to/lastmile_qr_scan"}, "lon": -77.0327195, "type": "electric_scooter"}, {"bike_id": "28b5f98b0e6e7127b552b22a68a9561d", "is_reserved": 0, "fusion_lon": 0.0, "lat": 38.90636383333333, "is_disabled": 0, "name": "28b5f98b0e6e7127b552b22a68a9561d", "fusion_lat": 0.0, "rental_uris": {"ios": "https://dc.lft.to/lastmile_qr_scan", "android": "https://dc.lft.to/lastmile_qr_scan"}, "lon": -77.02512866666666, "type": "electric_scooter"}, {"bike_id": "ca00c88303d57af3aa7196200c5c00d1", "is_reserved": 0, "fusion_lon": 0.0, "lat": 38.865985333333334, "is_disabled": 0, "name": "ca00c88303d57af3aa7196200c5c00d1", "fusion_lat": 0.0, "rental_uris": {"ios": "https://dc.lft.to/lastmile_qr_scan", "android": "https://dc.lft.to/lastmile_qr_scan"}, "lon": -76.932268, "type": "electric_bike"}, {"bike_id": "26379ae2f4c110ba837bcf019275fc0b", "is_reserved": 0, "fusion_lon": 0.0, "lat": 38.85219583333333, "is_disabled": 0, "name": "26379ae2f4c110ba837bcf019275fc0b", "fusion_lat": 0.0, "rental_uris": {"ios": "https://dc.lft.to/lastmile_qr_scan", "android": "https://dc.lft.to/lastmile_qr_scan"},