{"data": {"bikes": [{"rental_uris": {"android": "https://dc.lft.to/lastmile_qr_scan", "ios": "https://dc.lft.to/lastmile_qr_scan"}, "type": "electric_scooter", "lon": -77.02397033333334, "name": "9bce346c50f89309a8b1fbe5f7d7692d", "bike_id": "9bce346c50f89309a8b1fbe5f7d7692d", "fusion_lat": 0.0, "is_reserved": 0, "lat": 38.91682133333333, "fusion_lon": 0.0, "is_disabled": 0}, {"rental_uris": {"android": "https://dc.lft.to/lastmile_qr_scan", "ios": "https://dc.lft.to/lastmile_qr_scan"}, "type": "electric_scooter", "lon": -77.04353316666666, "name": "9af0c879c9c44ecb29a26b4709f93bd2", "bike_id": "9af0c879c9c44ecb29a26b4709f93bd2", "fusion_lat": 0.0, "is_reserved": 0, "lat": 38.904159166666666, "fusion_lon": 0.0, "is_disabled": 0}, {"rental_uris": {"android": "https://dc.lft.to/lastmile_qr_scan", "ios": "https://dc.lft.to/lastmile_qr_scan"}, "type": "electric_scooter", "lon": -77.02390816666667, "name": "a3d91828a058eb6839744a2c8820df12", "bike_id": "a3d91828a058eb6839744a2c8820df12", "fusion_lat": 0.0, "is_reserved": 0, "lat": 38.88730966666667, "fusion_lon": 0.0, "is_disabled": 0}, {"rental_uris": {"android": "https://dc.lft.to/lastmile_qr_scan", "ios": "https://dc.lft.to/lastmile_qr_scan"}, "type": "electric_scooter", "lon": -76.98771983333333, "name": "776aac2f23c3969155d63c3ff2e5c8fa", "bike_id": "776aac2f23c3969155d63c3ff2e5c8fa", "fusion_lat": 0.0, "is_reserved": 0, "lat": 38.9117475, "fusion_lon": 0.0, "is_disabled": 0}, {"rental_uris": {"android": "https://dc.lft.to/lastmile_qr_scan", "ios": "https://dc.lft.to/lastmile_qr_scan"}, "type": "electric_scooter", "lon": -77.06162266666666, "name": "d34caa63a1e2b382df83788d05945713", "bike_id": "d34caa63a1e2b382df83788d05945713", "fusion_lat": 0.0, "is_reserved": 0, "lat": 38.942202, "fusion_lon": 0.0, "is_disabled": 0}, {"rental_uris": {"android": "https://dc.lft.to/lastmile_qr_scan", "ios": "https://dc.lft.to/lastmile_qr_scan"}, "type": "electric_bike", "lon": -77.12738283333333, "name": "d28dcbeb8c76ecb0139f2881c60c3ddd", "bike_id": "d28dcbeb8c76ecb0139f2881c60c3ddd", "fusion_lat": 0.0, "is_reserved": 0, "lat": 38.8881385, "fusion_lon": 0.0, "is_disabled": 0}, {"rental_uris": {"android": "https://dc.lft.to/lastmile_qr_scan", "ios": "https://dc.lft.to/lastmile_qr_scan"}, "type": "electric_scooter", "lon": -76.9869755, "name": "e225d25c7dbf49decfb30f56e5312b98", "bike_id": "e225d25c7dbf49decfb30f56e5312b98", "fusion_lat": 0.0, "is_reserved": 0, "lat": 38.855641166666665, "fusion_lon": 0.0, "is_disabled": 0}, {"rental_uris": {"android": "https://dc.lft.to/lastmile_qr_scan", "ios": "https://dc.lft.to/lastmile_qr_scan"}, "type": "electric_scooter", "lon": -77.04356683333333, "name": "0743e5bacb0b1e52fbed4d3ee43670ab", "bike_id": "0743e5bacb0b1e52fbed4d3ee43670ab", "fusion_lat": 0.0, "is_reserved": 0, "lat": 38.921576, "fusion_lon": 0.0, "is_disabled": 0}, {"rental_uris": {"android": "https://dc.lft.to/lastmile_qr_scan", "ios": "https://dc.lft.to/lastmile_qr_scan"}, "type": "electric_scooter", "lon": -77.05007333333333, "name": "4a9460f4f2be2d9e7a5437c4fa5f90c7", "bike_id": "4a9460f4f2be2d9e7a5437c4fa5f90c7", "fusion_lat": 0.0, "is_reserved": 0, "lat": 38.9053025, "fusion_lon": 0.0, "is_disabled": 0}, {"rental_uris": {"android": "https://dc.lft.to/lastmile_qr_scan", "ios": "https://dc.lft.to/lastmile_qr_scan"}, "type": "electric_scooter", "lon": -77.034483, "name": "964ee74bcbb2427e86fdc80ea867c950", "bike_id": "964ee74bcbb2427e86fdc80ea867c950", "fusion_lat": 0.0, "is_reserved": 0, "lat": 38.902434666666664, "fusion_lon": 0.0, "is_disabled": 0}, {"rental_uris": {"android": "https://dc.lft.to/lastmile_qr_scan", "ios": "https://dc.lft.to/lastmile_qr_scan"}, "type": "electric_scooter", "lon": -76.931554, "name": "248dbe2aff510725572566c9d3c90ba2", "bike_id": "248dbe2aff510725572566c9d3c90ba2", "fusion_lat": 0.0, "is_reserved": 0, "lat": 38.898842333333334, "fusion_lon": 0.0, "is_disabled": 0}, {"rental_uris": {"android": "https://dc.lft.to/lastmile_qr_scan", "ios": "https://dc.lft.to/lastmile_qr_scan"}, "type": "electric_scooter", "lon": -77.0339885, "name": "eef1ec958667df773a1602d4cc6e21f9", "bike_id": "eef1ec958667df773a1602d4cc6e21f9", "fusion_lat": 0.0, "is_reserved": 0, "lat": 38.928586333333335, "fusion_lon": 0.0, "is_disabled": 0}, {"rental_uris": {"android": "https://dc.lft.to/lastmile_qr_scan", "ios": "https://dc.lft.to/lastmile_qr_scan"}, "type": "electric_scooter", "lon": -77.06581233333333, "name": "3ce3c51df23aed4b4836f3b5bf6678b8", "bike_id": "3ce3c51df23aed4b4836f3b5bf6678b8", "fusion_lat": 0.0, "is_reserved": 0, "lat": 38.9136165, "fusion_lon": 0.0, "is_disabled": 0}, {"rental_uris": {"android": "https://dc.lft.to/lastmile_qr_scan", "ios": "https://dc.lft.to/lastmile_qr_scan"}, "type": "electric_scooter", "lon": -76.9318535, "name": "0bc05dbcaf79c410c596ae4c5f79a3c6", "bike_id": "0bc05dbcaf79c410c596ae4c5f79a3c6", "fusion_lat": 0.0, "is_reserved": 0, "lat": 38.898748833333336, "fusion_lon": 0.0, "is_disabled": 0}, {"rental_uris": {"android": "https://dc.lft.to/lastmile_qr_scan", "ios": "https://dc.lft.to/lastmile_qr_scan"}, "type": "electric_scooter", "lon": -76.99884766666666, "name": "e32d71007111fc2f4ae8220de09ca521", "bike_id": "e32d71007111fc2f4ae8220de09ca521", "fusion_lat": 0.0, "is_reserved": 0, "lat": 38.90243816666667, "fusion_lon": 0.0, "is_disabled": 0}, {"rental_uris": {"android": "https://dc.lft.to/lastmile_qr_scan", "ios": "https://dc.lft.to/lastmile_qr_scan"}, "type": "electric_scooter", "lon": -76.94117466666667, "name": "72f38735bb74261f38e9e1e30f3fa5be", "bike_id": "72f38735bb74261f38e9e1e30f3fa5be", "fusion_lat": 0.0, "is_reserved": 0, "lat": 38.907911, "fusion_lon": 0.0, "is_disabled": 0}, {"rental_uris": {"android": "https://dc.lft.to/lastmile_qr_scan", "ios": "https://dc.lft.to/lastmile_qr_scan"}, "type": "electric_scooter", "lon": -77.078327, "name": "8d53665d90561b0794f4e9a5b929800a", "bike_id": "8d53665d90561b0794f4e9a5b929800a", "fusion_lat": 0.0, "is_reserved": 0, "lat": 38.926673666666666, "fusion_lon": 0.0, "is_disabled": 0}, {"rental_uris": {"android": "https://dc.lft.to/lastmile_qr_scan", "ios": "https://dc.lft.to/lastmile_qr_scan"}, "type": "electric_scooter", "lon": -77.00597983333333, "name": "8f4fdb8edf924de665b1d62aa182cd94", "bike_id": "8f4fdb8edf924de665b1d62aa182cd94", "fusion_lat": 0.0, "is_reserved": 0, "lat": 38.88519, "fusion_lon": 0.0, "is_disabled": 0}, {"rental_uris": {"android": "https://dc.lft.to/lastmile_qr_scan", "ios": "https://dc.lft.to/lastmile_qr_scan"}, "type": "electric_scooter", "lon": -77.01606116666666, "name": "2e5ab304a8213ddf3dbfd54d111d7237", "bike_id": "2e5ab304a8213ddf3dbfd54d111d7237", "fusion_lat": 0.0, "is_reserved": 0, "lat": 38.88745333333333, "fusion_lon": 0.0, "is_disabled": 0}, {"rental_uris": {"android": "https://dc.lft.to/lastmile_qr_scan", "ios": "https://dc.lft.to/lastmile_qr_scan"}, "type": "electric_scooter", "lon": -77.0277605, "name": "485c8bcdf855f0d3586bdf6a4cc68447", "bike_id": "485c8bcdf855f0d3586bdf6a4cc68447", "fusion_lat": 0.0, "is_reserved": 0, "lat": 38.894768, "fusion_lon": 0.0, "is_disabled": 0}, {"rental_uris": {"android": "https://dc.lft.to/lastmile_qr_scan", "ios": "https://dc.lft.to/lastmile_qr_scan"}, "type": "electric_bike", "lon": -76.96173366666666, "name": "17baec4d8ff4a88973116203ccf971ca", "bike_id": "17baec4d8ff4a88973116203ccf971ca", "fusion_lat": 0.0, "is_reserved": 0, "lat": 38.91862733333333, "fusion_lon": 0.0, "is_disabled": 0}, {"rental_uris": {"android": "https://dc.lft.to/lastmile_qr_scan", "ios": "https://dc.lft.to/lastmile_qr_scan"}, "type": "electric_scooter", "lon": -77.09956783333334, "name": "3ef2ac73ec2242a5be4baa731ee09cad", "bike_id": "3ef2ac73ec2242a5be4baa731ee09cad", "fusion_lat": 0.0, "is_reserved": 0, "lat": 38.922436833333336, "fusion_lon": 0.0, "is_disabled": 0}, {"rental_uris": {"android": "https://dc.lft.to/lastmile_qr_scan", "ios": "https://dc.lft.to/lastmile_qr_scan"}, "type": "electric_scooter", "lon": -77.02819766666667, "name": "3a1a2b9471e366ab6485c7f262a909e0", "bike_id": "3a1a2b9471e366ab6485c7f262a909e0", "fusion_lat": 0.0, "is_reserved": 0, "lat": 38.898504, "fusion_lon": 0.0, "is_disabled": 0}, {"rental_uris": {"android": "https://dc.lft.to/lastmile_qr_scan", "ios": "https://dc.lft.to/lastmile_qr_scan"}, "type": "electric_scooter", "lon": -77.023811, "name": "7f8ba06ff10777b91bb1fc603758f992", "bike_id": "7f8ba06ff10777b91bb1fc603758f992", "fusion_lat": 0.0, "is_reserved": 0, "lat": 38.879314666666666, "fusion_lon": 0.0, "is_disabled": 0}, {"rental_uris": {"android": "https://dc.lft.to/lastmile_qr_scan", "ios": "https://dc.lft.to/lastmile_qr_scan"}, "type": "electric_scooter", "lon": -77.043351, "name": "780de518179b7c71877f3937d41f2d30", "bike_id": "780de518179b7c71877f3937d41f2d30", "fusion_lat": 0.0, "is_reserved": 0, "lat": 38.9049735, "fusion_lon": 0.0, "is_disabled": 0}, {"rental_uris": {"android": "https://dc.lft.to/lastmile_qr_scan", "ios": "https://dc.lft.to/lastmile_qr_scan"}, "type": "electric_scooter", "lon": -77.03637216666667, "name": "0482f092dda4135e864c41280b28b8af", "bike_id": "0482f092dda4135e864c41280b28b8af", "fusion_lat": 0.0, "is_reserved": 0, "lat": 38.91685733333333, "fusion_lon": 0.0, "is_disabled": 0}, {"rental_uris": {"android": "https://dc.lft.to/lastmile_qr_scan", "ios": "https://dc.lft.to/lastmile_qr_scan"}, "type": "electric_scooter", "lon": -76.93187, "name": "04b89992da28d5567e2c37f59c35ce40", "bike_id": "04b89992da28d5567e2c37f59c35ce40", "fusion_lat": 0.0, "is_reserved": 0, "lat": 38.898757, "fusion_lon": 0.0, "is_disabled": 0}, {"rental_uris": {"android": "https://dc.lft.to/lastmile_qr_scan", "ios": "https://dc.lft.to/lastmile_qr_scan"}, "type": "electric_scooter", "lon": -77.02645383333333, "name": "6e375f255b37988b9fb48a17d7e28b33", "bike_id": "6e375f255b37988b9fb48a17d7e28b33", "fusion_lat": 0.0, "is_reserved": 0, "lat": 38.938583, "fusion_lon": 0.0, "is_disabled": 0}, {"rental_uris": {"android": "https://dc.lft.to/lastmile_qr_scan", "ios": "https://dc.lft.to/lastmile_qr_scan"}, "type": "electric_scooter", "lon": -77.02270483333334, "name": "e58e01bf58c310f0e481c5ab2954ee13", "bike_id": "e58e01bf58c310f0e481c5ab2954ee13", "fusion_lat": 0.0, "is_reserved": 0, "lat": 38.887291166666664, "fusion_lon": 0.0, "is_disabled": 0}, {"rental_uris": {"android": "https://dc.lft.to/lastmile_qr_scan", "ios": "https://dc.lft.to/lastmile_qr_scan"}, "type": "electric_scooter", "lon": -77.02185583333333, "name": "a10413bd434a7d41cd5de76b726b33e2", "bike_id": "a10413bd434a7d41cd5de76b726b33e2", "fusion_lat": 0.0, "is_reserved": 0, "lat": 38.914826833333336, "fusion_lon": 0.0, "is_disabled": 0}, {"rental_uris": {"android": "https://dc.lft.to/lastmile_qr_scan", "ios": "https://dc.lft.to/lastmile_qr_scan"}, "type": "electric_scooter", "lon": -77.00206816666666, "name": "d0a182942a5f429f03698655deba43aa", "bike_id": "d0a182942a5f429f03698655deba43aa", "fusion_lat": 0.0, "is_reserved": 0, "lat": 38.90068616666667, "fusion_lon": 0.0, "is_disabled": 0}, {"rental_uris": {"android": "https://dc.lft.to/lastmile_qr_scan", "ios": "https://dc.lft.to/lastmile_qr_scan"}, "type": "electric_scooter", "lon": -77.02573733333334, "name": "e7dbf1327010cb84d824bb430bb64691", "bike_id": "e7dbf1327010cb84d824bb430bb64691", "fusion_lat": 0.0, "is_reserved": 0, "lat": 38.925066, "fusion_lon": 0.0, "is_disabled": 0}, {"rental_uris": {"android": "https://dc.lft.to/lastmile_qr_scan", "ios": "https://dc.lft.to/lastmile_qr_scan"}, "type": "electric_bike", "lon": -77.12264833333333, "name": "ab6ad376a189cf9560e8140eac1aa19a", "bike_id": "ab6ad376a189cf9560e8140eac1aa19a", "fusion_lat": 0.0, "is_reserved": 0, "lat": 38.89735433333333, "fusion_lon": 0.0, "is_disabled": 0}, {"rental_uris": {"android": "https://dc.lft.to/lastmile_qr_scan", "ios": "https://dc.lft.to/lastmile_qr_scan"}, "type": "electric_scooter", "lon": -77.04009683333334, "name": "c15ab4302e6291b043ef258f1c2bd6c5", "bike_id": "c15ab4302e6291b043ef258f1c2bd6c5", "fusion_lat": 0.0, "is_reserved": 0, "lat": 38.91303883333333, "fusion_lon": 0.0, "is_disabled": 0}, {"rental_uris": {"android": "https://dc.lft.to/lastmile_qr_scan", "ios": "https://dc.lft.to/lastmile_qr_scan"}, "type": "electric_scooter", "lon": -77.043769, "name": "ee98dd2885613f64ef29ea53ac7f7e4a", "bike_id": "ee98dd2885613f64ef29ea53ac7f7e4a", "fusion_lat": 0.0, "is_reserved": 0, "lat": 38.906490166666664, "fusion_lon": 0.0, "is_disabled": 0}, {"rental_uris": {"android": "https://dc.lft.to/lastmile_qr_scan", "ios": "https://dc.lft.to/lastmile_qr_scan"}, "type": "electric_scooter", "lon": -77.07348083333333, "name": "ebd981ad7ca86d6cd1b443a98a028dee", "bike_id": "ebd981ad7ca86d6cd1b443a98a028dee", "fusion_lat": 0.0, "is_reserved": 0, "lat": 38.910937, "fusion_lon": 0.0, "is_disabled": 0}, {"rental_uris": {"android": "https://dc.lft.to/lastmile_qr_scan", "ios": "https://dc.lft.to/lastmile_qr_scan"}, "type": "electric_bike", "lon": -76.91655083333333, "name": "6a096f3ec93f7d0545d4e6744ab73452", "bike_id": "6a096f3ec93f7d0545d4e6744ab73452", "fusion_lat": 0.0, "is_reserved": 0, "lat": 38.868575666666665, "fusion_lon": 0.0, "is_disabled": 0}, {"rental_uris": {"android": "https://dc.lft.to/lastmile_qr_scan", "ios": "https://dc.lft.to/lastmile_qr_scan"}, "type": "electric_scooter", "lon": -77.04216233333334, "name": "03885d39421a524aaba6ba86ea30bef1", "bike_id": "03885d39421a524aaba6ba86ea30bef1", "fusion_lat": 0.0, "is_reserved": 0, "lat": 38.903757166666665, "fusion_lon": 0.0, "is_disabled": 0}, {"rental_uris": {"android": "https://dc.lft.to/lastmile_qr_scan", "ios": "https://dc.lft.to/lastmile_qr_scan"}, "type": "electric_bike", "lon": -77.2330385, "name": "cd9d83b9f959fd44695269a770c0d0fc", "bike_id": "cd9d83b9f959fd44695269a770c0d0fc", "fusion_lat": 0.0, "is_reserved": 0, "lat": 38.925114666666666, "fusion_lon": 0.0, "is_disabled": 0}, {"rental_uris": {"android": "https://dc.lft.to/lastmile_qr_scan", "ios": "https://dc.lft.to/lastmile_qr_scan"}, "type": "electric_scooter", "lon": -77.04730383333333, "name": "b0d157313f840db6ff2a2c2ab8b3978e", "bike_id": "b0d157313f840db6ff2a2c2ab8b3978e", "fusion_lat": 0.0, "is_reserved": 0, "lat": 38.90133766666667, "fusion_lon": 0.0, "is_disabled": 0}, {"rental_uris": {"android": "https://dc.lft.to/lastmile_qr_scan", "ios": "https://dc.lft.to/lastmile_qr_scan"}, "type": "electric_scooter", "lon": -76.95406866666667, "name": "a42e0650dc09e0633343f566f57349af", "bike_id": "a42e0650dc09e0633343f566f57349af", "fusion_lat": 0.0, "is_reserved": 0, "lat": 38.89160366666667, "fusion_lon": 0.0, "is_disabled": 0}, {"rental_uris": {"android": "https://dc.lft.to/lastmile_qr_scan", "ios": "https://dc.lft.to/lastmile_qr_scan"}, "type": "electric_scooter", "lon": -77.00331483333333, "name": "6284df8545cd334e74f14ff0c60c9071", "bike_id": "6284df8545cd334e74f14ff0c60c9071", "fusion_lat": 0.0, "is_reserved": 0, "lat": 38.89351333333333, "fusion_lon": 0.0, "is_disabled": 0}, {"rental_uris": {"android": "https://dc.lft.to/lastmile_qr_scan", "ios": "https://dc.lft.to/lastmile_qr_scan"}, "type": "electric_scooter", "lon": -77.035243, "name": "9bd33521a149121f637839e604f9e860", "bike_id": "9bd33521a149121f637839e604f9e860", "fusion_lat": 0.0, "is_reserved": 0, "lat": 38.92348833333333, "fusion_lon": 0.0, "is_disabled": 0}, {"rental_uris": {"android": "https://dc.lft.to/lastmile_qr_scan", "ios": "https://dc.lft.to/lastmile_qr_scan"}, "type": "electric_bike", "lon": -76.94873883333334, "name": "de1f97106f554bd488599447d88780c6", "bike_id": "de1f97106f554bd488599447d88780c6", "fusion_lat": 0.0, "is_reserved": 0, "lat": 38.889626, "fusion_lon": 0.0, "is_disabled": 0}, {"rental_uris": {"android": "https://dc.lft.to/lastmile_qr_scan", "ios": "https://dc.lft.to/lastmile_qr_scan"}, "type": "electric_bike", "lon": -76.9638925, "name": "7d2e396fa09b2ac7740d748f748e82cc", "bike_id": "7d2e396fa09b2ac7740d748f748e82cc", "fusion_lat": 0.0, "is_reserved": 0, "lat": 38.975784, "fusion_lon": 0.0, "is_disabled": 0}, {"rental_uris": {"android": "https://dc.lft.to/lastmile_qr_scan", "ios": "https://dc.lft.to/lastmile_qr_scan"}, "type": "electric_bike", "lon": -77.107627, "name": "2d597287c14a6093a94da20c5ab268ca", "bike_id": "2d597287c14a6093a94da20c5ab268ca", "fusion_lat": 0.0, "is_reserved": 0, "lat": 38.85499733333333, "fusion_lon": 0.0, "is_disabled": 0}, {"rental_uris": {"android": "https://dc.lft.to/lastmile_qr_scan", "ios": "https://dc.lft.to/lastmile_qr_scan"}, "type": "electric_scooter", "lon": -77.02818283333333, "name": "cf3f91a7e9c52fbacaff423078a963cb", "bike_id": "cf3f91a7e9c52fbacaff423078a963cb", "fusion_lat": 0.0, "is_reserved": 0, "lat": 38.89839966666667, "fusion_lon": 0.0, "is_disabled": 0}, {"rental_uris": {"android": "https://dc.lft.to/lastmile_qr_scan", "ios": "https://dc.lft.to/lastmile_qr_scan"}, "type": "electric_bike", "lon": -76.994658, "name": "340dd578ffff899a3d1328965686182b", "bike_id": "340dd578ffff899a3d1328965686182b", "fusion_lat": 0.0, "is_reserved": 0, "lat": 38.862625666666666, "fusion_lon": 0.0, "is_disabled": 0}, {"rental_uris": {"android": "https://dc.lft.to/lastmile_qr_scan", "ios": "https://dc.lft.to/lastmile_qr_scan"}, "type": "electric_bike", "lon": -76.98522816666667, "name": "ce2ce07d37f2cb06f679557b5d0d397d", "bike_id": "ce2ce07d37f2cb06f679557b5d0d397d", "fusion_lat": 0.0, "is_reserved": 0, "lat": 38.9198815, "fusion_lon": 0.0, "is_disabled": 0}, {"rental_uris": {"android": "https://dc.lft.to/lastmile_qr_scan", "ios": "https://dc.lft.to/lastmile_qr_scan"}, "type": "electric_scooter", "lon": -76.9877925, "name": "a94ff38fca2d4bdc54c181f3c33a537b", "bike_id": "a94ff38fca2d4bdc54c181f3c33a537b", "fusion_lat": 0.0, "is_reserved": 0, "lat": 38.9002515, "fusion_lon": 0.0, "is_disabled": 0}, {"rental_uris": {"android": "https://dc.lft.to/lastmile_qr_scan", "ios": "https://dc.lft.to/lastmile_qr_scan"}, "type": "electric_scooter", "lon": -76.98776283333333, "name": "0c6d198c5a2064664316af7c75f6356b", "bike_id": "0c6d198c5a2064664316af7c75f6356b", "fusion_lat": 0.0, "is_reserved": 0, "lat": 38.9002505, "fusion_lon": 0.0, "is_disabled": 0}, {"rental_uris": {"android": "https://dc.lft.to/lastmile_qr_scan", "ios": "https://dc.lft.to/lastmile_qr_scan"}, "type": "electric_scooter", "lon": -77.03960633333334, "name": "e6b630d2fb77f1a60000fd348146b9da", "bike_id": "e6b630d2fb77f1a60000fd348146b9da", "fusion_lat": 0.0, "is_reserved": 0, "lat": 38.90116183333333, "fusion_lon": 0.0, "is_disabled": 0}, {"rental_uris": {"android": "https://dc.lft.to/lastmile_qr_scan", "ios": "https://dc.lft.to/lastmile_qr_scan"}, "type": "electric_scooter", "lon": -77.0378575, "name": "37448661abe8509347445200ec4261c0", "bike_id": "37448661abe8509347445200ec4261c0", "fusion_lat": 0.0, "is_reserved": 0, "lat": 38.926228333333334, "fusion_lon": 0.0, "is_disabled": 0}, {"rental_uris": {"android": "https://dc.lft.to/lastmile_qr_scan", "ios": "https://dc.lft.to/lastmile_qr_scan"}, "type": "electric_scooter", "lon": -77.03270083333334, "name": "b48890bc51a1242a533474b3338c7e7b", "bike_id": "b48890bc51a1242a533474b3338c7e7b", "fusion_lat": 0.0, "is_reserved": 0, "lat": 38.8987625, "fusion_lon": 0.0, "is_disabled": 0}, {"rental_uris": {"android": "https://dc.lft.to/lastmile_qr_scan", "ios": "https://dc.lft.to/lastmile_qr_scan"}, "type": "electric_bike", "lon": -77.051671, "name": "2cab0c344399885d7048803e461ef3c2", "bike_id": "2cab0c344399885d7048803e461ef3c2", "fusion_lat": 0.0, "is_reserved": 0, "lat": 38.90305033333333, "fusion_lon": 0.0, "is_disabled": 0}, {"rental_uris": {"android": "https://dc.lft.to/lastmile_qr_scan", "ios": "https://dc.lft.to/lastmile_qr_scan"}, "type": "electric_bike", "lon": -76.87775983333333, "name": "c13eb50118e4dd7e83402255a1a0a2f1", "bike_id": "c13eb50118e4dd7e83402255a1a0a2f1", "fusion_lat": 0.0, "is_reserved": 0, "lat": 38.992330333333335, "fusion_lon": 0.0, "is_disabled": 0}, {"rental_uris": {"android": "https://dc.lft.to/lastmile_qr_scan", "ios": "https://dc.lft.to/lastmile_qr_scan"}, "type": "electric_scooter", "lon": -77.04666933333333, "name": "919af8b65c8a361e02ce91e4fca6f5b9", "bike_id": "919af8b65c8a361e02ce91e4fca6f5b9", "fusion_lat": 0.0, "is_reserved": 0, "lat": 38.9156175, "fusion_lon": 0.0, "is_disabled": 0}, {"rental_uris": {"android": "https://dc.lft.to/lastmile_qr_scan", "ios": "https://dc.lft.to/lastmile_qr_scan"}, "type": "electric_scooter", "lon": -76.973289, "name": "96ae9fc81a3cbc677e312567ae33bf31", "bike_id": "96ae9fc81a3cbc677e312567ae33bf31", "fusion_lat": 0.0, "is_reserved": 0, "lat": 38.917822666666666, "fusion_lon": 0.0, "is_disabled": 0}, {"rental_uris": {"android": "https://dc.lft.to/lastmile_qr_scan", "ios": "https://dc.lft.to/lastmile_qr_scan"}, "type": "electric_bike", "lon": -77.04976966666666, "name": "996dead6b2d2c5524884abb37dabb0f1", "bike_id": "996dead6b2d2c5524884abb37dabb0f1", "fusion_lat": 0.0, "is_reserved": 0, "lat": 38.992459833333335, "fusion_lon": 0.0, "is_disabled": 0}, {"rental_uris": {"android": "https://dc.lft.to/lastmile_qr_scan", "ios": "https://dc.lft.to/lastmile_qr_scan"}, "type": "electric_scooter", "lon": -76.9982945, "name": "d2fc3ed77157ab12d1910a076263f86c", "bike_id": "d2fc3ed77157ab12d1910a076263f86c", "fusion_lat": 0.0, "is_reserved": 0, "lat": 38.88269283333333, "fusion_lon": 0.0, "is_disabled": 0}, {"rental_uris": {"android": "https://dc.lft.to/lastmile_qr_scan", "ios": "https://dc.lft.to/lastmile_qr_scan"}, "type": "electric_bike", "lon": -77.19541100000001, "name": "14d814b374ea175d6823fe68bf9751f8", "bike_id": "14d814b374ea175d6823fe68bf9751f8", "fusion_lat": 0.0, "is_reserved": 0, "lat": 39.1152995, "fusion_lon": 0.0, "is_disabled": 0}, {"rental_uris": {"android": "https://dc.lft.to/lastmile_qr_scan", "ios": "https://dc.lft.to/lastmile_qr_scan"}, "type": "electric_bike", "lon": -76.96695216666667, "name": "fe2d7a29ea10cfdb7bd84dde3aad32fe", "bike_id": "fe2d7a29ea10cfdb7bd84dde3aad32fe", "fusion_lat": 0.0, "is_reserved": 0, "lat": 38.86845233333333, "fusion_lon": 0.0, "is_disabled": 0}, {"rental_uris": {"android": "https://dc.lft.to/lastmile_qr_scan", "ios": "https://dc.lft.to/lastmile_qr_scan"}, "type": "electric_scooter", "lon": -77.035815, "name": "cb142a54118f1c61fdf6a5835b734bf3", "bike_id": "cb142a54118f1c61fdf6a5835b734bf3", "fusion_lat": 0.0, "is_reserved": 0, "lat": 38.928624, "fusion_lon": 0.0, "is_disabled": 0}, {"rental_uris": {"android": "https://dc.lft.to/lastmile_qr_scan", "ios": "https://dc.lft.to/lastmile_qr_scan"}, "type": "electric_scooter", "lon": -77.00917066666666, "name": "44e7441f2603fef614b191c7442a0413", "bike_id": "44e7441f2603fef614b191c7442a0413", "fusion_lat": 0.0, "is_reserved": 0, "lat": 38.876333, "fusion_lon": 0.0, "is_disabled": 0}, {"rental_uris": {"android": "https://dc.lft.to/lastmile_qr_scan", "ios": "https://dc.lft.to/lastmile_qr_scan"}, "type": "electric_scooter", "lon": -77.03447633333333, "name": "313c18863e1e03dbc403f21688e8afa9", "bike_id": "313c18863e1e03dbc403f21688e8afa9", "fusion_lat": 0.0, "is_reserved": 0, "lat": 38.9051535, "fusion_lon": 0.0, "is_disabled": 0}, {"rental_uris": {"android": "https://dc.lft.to/lastmile_qr_scan", "ios": "https://dc.lft.to/lastmile_qr_scan"}, "type": "electric_bike", "lon": -76.874941, "name": "9d682db5d65717fc1f8c4d98c9ef517c", "bike_id": "9d682db5d65717fc1f8c4d98c9ef517c", "fusion_lat": 0.0, "is_reserved": 0, "lat": 38.99089083333333, "fusion_lon": 0.0, "is_disabled": 0}, {"rental_uris": {"android": "https://dc.lft.to/lastmile_qr_scan", "ios": "https://dc.lft.to/lastmile_qr_scan"}, "type": "electric_scooter", "lon": -77.03852783333333, "name": "262230cfde6136e44a804a11eb64ea85", "bike_id": "262230cfde6136e44a804a11eb64ea85", "fusion_lat": 0.0, "is_reserved": 0, "lat": 38.91208733333333, "fusion_lon": 0.0, "is_disabled": 0}, {"rental_uris": {"android": "https://dc.lft.to/lastmile_qr_scan", "ios": "https://dc.lft.to/lastmile_qr_scan"}, "type": "electric_scooter", "lon": -76.931632, "name": "1322777cb6813c393a6c3d1892a0b421", "bike_id": "1322777cb6813c393a6c3d1892a0b421", "fusion_lat": 0.0, "is_reserved": 0, "lat": 38.898842, "fusion_lon": 0.0, "is_disabled": 0}, {"rental_uris": {"android": "https://dc.lft.to/lastmile_qr_scan", "ios": "https://dc.lft.to/lastmile_qr_scan"}, "type": "electric_scooter", "lon": -76.94210216666667, "name": "76a91fedfe47f4c9f36f2a157a92367b", "bike_id": "76a91fedfe47f4c9f36f2a157a92367b", "fusion_lat": 0.0, "is_reserved": 0, "lat": 38.896718166666666, "fusion_lon": 0.0, "is_disabled": 0}, {"rental_uris": {"android": "https://dc.lft.to/lastmile_qr_scan", "ios": "https://dc.lft.to/lastmile_qr_scan"}, "type": "electric_scooter", "lon": -77.0158145, "name": "a92eb4234b4acfb5b8fb3924131a57f6", "bike_id": "a92eb4234b4acfb5b8fb3924131a57f6", "fusion_lat": 0.0, "is_reserved": 0, "lat": 38.87661466666667, "fusion_lon": 0.0, "is_disabled": 0}, {"rental_uris": {"android": "https://dc.lft.to/lastmile_qr_scan", "ios": "https://dc.lft.to/lastmile_qr_scan"}, "type": "electric_scooter", "lon": -77.00952716666667, "name": "3d24b8e7433838f63d4b42553a6e91d8", "bike_id": "3d24b8e7433838f63d4b42553a6e91d8", "fusion_lat": 0.0, "is_reserved": 0, "lat": 38.921287, "fusion_lon": 0.0, "is_disabled": 0}, {"rental_uris": {"android": "https://dc.lft.to/lastmile_qr_scan", "ios": "https://dc.lft.to/lastmile_qr_scan"}, "type": "electric_bike", "lon": -77.11222233333334, "name": "e497fd665936bb82d4b9981d0ac38c50", "bike_id": "e497fd665936bb82d4b9981d0ac38c50", "fusion_lat": 0.0, "is_reserved": 0, "lat": 38.82871983333333, "fusion_lon": 0.0, "is_disabled": 0}, {"rental_uris": {"android": "https://dc.lft.to/lastmile_qr_scan", "ios": "https://dc.lft.to/lastmile_qr_scan"}, "type": "electric_scooter", "lon": -77.026392, "name": "a063bcfd37710c9ee66c6267f5da21d4", "bike_id": "a063bcfd37710c9ee66c6267f5da21d4", "fusion_lat": 0.0, "is_reserved": 0, "lat": 38.89812466666667, "fusion_lon": 0.0, "is_disabled": 0}, {"rental_uris": {"android": "https://dc.lft.to/lastmile_qr_scan", "ios": "https://dc.lft.to/lastmile_qr_scan"}, "type": "electric_scooter", "lon": -77.02579283333333, "name": "14aeeef59f9b67791f943679a9961894", "bike_id": "14aeeef59f9b67791f943679a9961894", "fusion_lat": 0.0, "is_reserved": 0, "lat": 38.90004366666667, "fusion_lon": 0.0, "is_disabled": 0}, {"rental_uris": {"android": "https://dc.lft.to/lastmile_qr_scan", "ios": "https://dc.lft.to/lastmile_qr_scan"}, "type": "electric_scooter", "lon": -77.01782433333334, "name": "3d661ea713456cfdcbabadb267f4713b", "bike_id": "3d661ea713456cfdcbabadb267f4713b", "fusion_lat": 0.0, "is_reserved": 0, "lat": 38.919608333333336, "fusion_lon": 0.0, "is_disabled": 0}, {"rental_uris": {"android": "https://dc.lft.to/lastmile_qr_scan", "ios": "https://dc.lft.to/lastmile_qr_scan"}, "type": "electric_scooter", "lon": -77.00563716666667, "name": "963c7a6d1cce1096de47ca30731b89ea", "bike_id": "963c7a6d1cce1096de47ca30731b89ea", "fusion_lat": 0.0, "is_reserved": 0, "lat": 38.8850475, "fusion_lon": 0.0, "is_disabled": 0}, {"rental_uris": {"android": "https://dc.lft.to/lastmile_qr_scan", "ios": "https://dc.lft.to/lastmile_qr_scan"}, "type": "electric_scooter", "lon": -77.02820266666667, "name": "b17d1ad0f105bcbe1d3d49cfd6822eda", "bike_id": "b17d1ad0f105bcbe1d3d49cfd6822eda", "fusion_lat": 0.0, "is_reserved": 0, "lat": 38.950819833333334, "fusion_lon": 0.0, "is_disabled": 0}, {"rental_uris": {"android": "https://dc.lft.to/lastmile_qr_scan", "ios": "https://dc.lft.to/lastmile_qr_scan"}, "type": "electric_scooter", "lon": -77.00267583333333, "name": "8fd6fd485c876bf736adedc5d8923996", "bike_id": "8fd6fd485c876bf736adedc5d8923996", "fusion_lat": 0.0, "is_reserved": 0, "lat": 38.9037595, "fusion_lon": 0.0, "is_disabled": 0}, {"rental_uris": {"android": "https://dc.lft.to/lastmile_qr_scan", "ios": "https://dc.lft.to/lastmile_qr_scan"}, "type": "electric_scooter", "lon": -77.03645516666667, "name": "8e18719048d3efa3c7210a1ea9ac4407", "bike_id": "8e18719048d3efa3c7210a1ea9ac4407", "fusion_lat": 0.0, "is_reserved": 0, "lat": 38.90281316666667, "fusion_lon": 0.0, "is_disabled": 0}, {"rental_uris": {"android": "https://dc.lft.to/lastmile_qr_scan", "ios": "https://dc.lft.to/lastmile_qr_scan"}, "type": "electric_scooter", "lon": -77.04357733333333, "name": "1a1236f54ef3706c2f88e526506a835b", "bike_id": "1a1236f54ef3706c2f88e526506a835b", "fusion_lat": 0.0, "is_reserved": 0, "lat": 38.892357833333335, "fusion_lon": 0.0, "is_disabled": 0}, {"rental_uris": {"android": "https://dc.lft.to/lastmile_qr_scan", "ios": "https://dc.lft.to/lastmile_qr_scan"}, "type": "electric_scooter", "lon": -77.0059775, "name": "70f419e27396c67e57473fb0f3686b46", "bike_id": "70f419e27396c67e57473fb0f3686b46", "fusion_lat": 0.0, "is_reserved": 0, "lat": 38.88519016666667, "fusion_lon": 0.0, "is_disabled": 0}, {"rental_uris": {"android": "https://dc.lft.to/lastmile_qr_scan", "ios": "https://dc.lft.to/lastmile_qr_scan"}, "type": "electric_scooter", "lon": -77.0230945, "name": "4512101d984df8ec245609f3e49aba93", "bike_id": "4512101d984df8ec245609f3e49aba93", "fusion_lat": 0.0, "is_reserved": 0, "lat": 38.9161585, "fusion_lon": 0.0, "is_disabled": 0}, {"rental_uris": {"android": "https://dc.lft.to/lastmile_qr_scan", "ios": "https://dc.lft.to/lastmile_qr_scan"}, "type": "electric_bike", "lon": -77.04643483333334, "name": "e83fa384f6fbc668e76dbc07ca9f1b71", "bike_id": "e83fa384f6fbc668e76dbc07ca9f1b71", "fusion_lat": 0.0, "is_reserved": 0, "lat": 38.90063816666667, "fusion_lon": 0.0, "is_disabled": 0}, {"rental_uris": {"android": "https://dc.lft.to/lastmile_qr_scan", "ios": "https://dc.lft.to/lastmile_qr_scan"}, "type": "electric_scooter", "lon": -77.04509283333333, "name": "2469b0599d5331e6ce8eb416427b55fa", "bike_id": "2469b0599d5331e6ce8eb416427b55fa", "fusion_lat": 0.0, "is_reserved": 0, "lat": 38.90226066666666, "fusion_lon": 0.0, "is_disabled": 0}, {"rental_uris": {"android": "https://dc.lft.to/lastmile_qr_scan", "ios": "https://dc.lft.to/lastmile_qr_scan"}, "type": "electric_scooter", "lon": -76.97414083333334, "name": "a16be353f388fff3a66fcc7c174f4c03", "bike_id": "a16be353f388fff3a66fcc7c174f4c03", "fusion_lat": 0.0, "is_reserved": 0, "lat": 38.8656705, "fusion_lon": 0.0, "is_disabled": 0}, {"rental_uris": {"android": "https://dc.lft.to/lastmile_qr_scan", "ios": "https://dc.lft.to/lastmile_qr_scan"}, "type": "electric_scooter", "lon": -77.0236675, "name": "d9f78d183082e6790e0c7191a363974f", "bike_id": "d9f78d183082e6790e0c7191a363974f", "fusion_lat": 0.0, "is_reserved": 0, "lat": 38.901996, "fusion_lon": 0.0, "is_disabled": 0}, {"rental_uris": {"android": "https://dc.lft.to/lastmile_qr_scan", "ios": "https://dc.lft.to/lastmile_qr_scan"}, "type": "electric_scooter", "lon": -77.03295783333333, "name": "140bcc8254f20ea02deb9427db53da76", "bike_id": "140bcc8254f20ea02deb9427db53da76", "fusion_lat": 0.0, "is_reserved": 0, "lat": 38.90843066666667, "fusion_lon": 0.0, "is_disabled": 0}, {"rental_uris": {"android": "https://dc.lft.to/lastmile_qr_scan", "ios": "https://dc.lft.to/lastmile_qr_scan"}, "type": "electric_scooter", "lon": -77.04004466666666, "name": "2840e2280ef4f7b11390ae0728402141", "bike_id": "2840e2280ef4f7b11390ae0728402141", "fusion_lat": 0.0, "is_reserved": 0, "lat": 38.903704, "fusion_lon": 0.0, "is_disabled": 0}, {"rental_uris": {"android": "https://dc.lft.to/lastmile_qr_scan", "ios": "https://dc.lft.to/lastmile_qr_scan"}, "type": "electric_scooter", "lon": -77.003351, "name": "b62211c03bc0e513cc09bae3a0eb96d1", "bike_id": "b62211c03bc0e513cc09bae3a0eb96d1", "fusion_lat": 0.0, "is_reserved": 0, "lat": 38.893587833333335, "fusion_lon": 0.0, "is_disabled": 0}, {"rental_uris": {"android": "https://dc.lft.to/lastmile_qr_scan", "ios": "https://dc.lft.to/lastmile_qr_scan"}, "type": "electric_scooter", "lon": -77.04331083333334, "name": "d61780fd2831f0911c503bed81614336", "bike_id": "d61780fd2831f0911c503bed81614336", "fusion_lat": 0.0, "is_reserved": 0, "lat": 38.90625033333333, "fusion_lon": 0.0, "is_disabled": 0}, {"rental_uris": {"android": "https://dc.lft.to/lastmile_qr_scan", "ios": "https://dc.lft.to/lastmile_qr_scan"}, "type": "electric_scooter", "lon": -76.9915265, "name": "4130e3f116ce0f7f0d38390222164ac0", "bike_id": "4130e3f116ce0f7f0d38390222164ac0", "fusion_lat": 0.0, "is_reserved": 0, "lat": 38.87314466666667, "fusion_lon": 0.0, "is_disabled": 0}, {"rental_uris": {"android": "https://dc.lft.to/lastmile_qr_scan", "ios": "https://dc.lft.to/lastmile_qr_scan"}, "type": "electric_scooter", "lon": -77.002794, "name": "ed32d2842d6cc1510d6bc2302b004fbc", "bike_id": "ed32d2842d6cc1510d6bc2302b004fbc", "fusion_lat": 0.0, "is_reserved": 0, "lat": 38.939183166666666, "fusion_lon": 0.0, "is_disabled": 0}, {"rental_uris": {"android": "https://dc.lft.to/lastmile_qr_scan", "ios": "https://dc.lft.to/lastmile_qr_scan"}, "type": "electric_scooter", "lon": -77.051182, "name": "18a0f879cb14294fbe083d4dc5114cb9", "bike_id": "18a0f879cb14294fbe083d4dc5114cb9", "fusion_lat": 0.0, "is_reserved": 0, "lat": 38.923437666666665, "fusion_lon": 0.0, "is_disabled": 0}, {"rental_uris": {"android": "https://dc.lft.to/lastmile_qr_scan", "ios": "https://dc.lft.to/lastmile_qr_scan"}, "type": "electric_scooter", "lon": -76.9907915, "name": "d218582fd45eb6a78ce38de933ec9983", "bike_id": "d218582fd45eb6a78ce38de933ec9983", "fusion_lat": 0.0, "is_reserved": 0, "lat": 38.900067166666666, "fusion_lon": 0.0, "is_disabled": 0}, {"rental_uris": {"android": "https://dc.lft.to/lastmile_qr_scan", "ios": "https://dc.lft.to/lastmile_qr_scan"}, "type": "electric_scooter", "lon": -77.0399375, "name": "3fc7540334e72c221ab8bf25aa66ed81", "bike_id": "3fc7540334e72c221ab8bf25aa66ed81", "fusion_lat": 0.0, "is_reserved": 0, "lat": 38.905418833333336, "fusion_lon": 0.0, "is_disabled": 0}, {"rental_uris": {"android": "https://dc.lft.to/lastmile_qr_scan", "ios": "https://dc.lft.to/lastmile_qr_scan"}, "type": "electric_scooter", "lon": -77.02725516666666, "name": "91bb41cfc84d36377594552cbfb3d6fd", "bike_id": "91bb41cfc84d36377594552cbfb3d6fd", "fusion_lat": 0.0, "is_reserved": 0, "lat": 38.93450083333333, "fusion_lon": 0.0, "is_disabled": 0}, {"rental_uris": {"android": "https://dc.lft.to/lastmile_qr_scan", "ios": "https://dc.lft.to/lastmile_qr_scan"}, "type": "electric_scooter", "lon": -77.04251416666666, "name": "821a43927a40b24346d0784faa1348df", "bike_id": "821a43927a40b24346d0784faa1348df", "fusion_lat": 0.0, "is_reserved": 0, "lat": 38.91014066666666, "fusion_lon": 0.0, "is_disabled": 0}, {"rental_uris": {"android": "https://dc.lft.to/lastmile_qr_scan", "ios": "https://dc.lft.to/lastmile_qr_scan"}, "type": "electric_scooter", "lon": -77.02219733333334, "name": "9293a42789808afca310aeff8daf1a02", "bike_id": "9293a42789808afca310aeff8daf1a02", "fusion_lat": 0.0, "is_reserved": 0, "lat": 38.89219383333333, "fusion_lon": 0.0, "is_disabled": 0}, {"rental_uris": {"android": "https://dc.lft.to/lastmile_qr_scan", "ios": "https://dc.lft.to/lastmile_qr_scan"}, "type": "electric_scooter", "lon": -77.00618383333334, "name": "ecc83a028470d837e79a9b80861b4ae1", "bike_id": "ecc83a028470d837e79a9b80861b4ae1", "fusion_lat": 0.0, "is_reserved": 0, "lat": 38.915652, "fusion_lon": 0.0, "is_disabled": 0}, {"rental_uris": {"android": "https://dc.lft.to/lastmile_qr_scan", "ios": "https://dc.lft.to/lastmile_qr_scan"}, "type": "electric_scooter", "lon": -76.99504483333334, "name": "5db5f5b837a7c4fe3664e970607a2132", "bike_id": "5db5f5b837a7c4fe3664e970607a2132", "fusion_lat": 0.0, "is_reserved": 0, "lat": 38.8446485, "fusion_lon": 0.0, "is_disabled": 0}, {"rental_uris": {"android": "https://dc.lft.to/lastmile_qr_scan", "ios": "https://dc.lft.to/lastmile_qr_scan"}, "type": "electric_scooter", "lon": -76.93736, "name": "7a98425da07902508661c9d60da2b06a", "bike_id": "7a98425da07902508661c9d60da2b06a", "fusion_lat": 0.0, "is_reserved": 0, "lat": 38.89016516666667, "fusion_lon": 0.0, "is_disabled": 0}, {"rental_uris": {"android": "https://dc.lft.to/lastmile_qr_scan", "ios": "https://dc.lft.to/lastmile_qr_scan"}, "type": "electric_scooter", "lon": -77.02750633333333, "name": "048df947e282716aa238e460f0969888", "bike_id": "048df947e282716aa238e460f0969888", "fusion_lat": 0.0, "is_reserved": 0, "lat": 38.96625866666667, "fusion_lon": 0.0, "is_disabled": 0}, {"rental_uris": {"android": "https://dc.lft.to/lastmile_qr_scan", "ios": "https://dc.lft.to/lastmile_qr_scan"}, "type": "electric_scooter", "lon": -77.0188065, "name": "4470f150b091bd8bcccacdb7905b80e0", "bike_id": "4470f150b091bd8bcccacdb7905b80e0", "fusion_lat": 0.0, "is_reserved": 0, "lat": 38.917641833333334, "fusion_lon": 0.0, "is_disabled": 0}, {"rental_uris": {"android": "https://dc.lft.to/lastmile_qr_scan", "ios": "https://dc.lft.to/lastmile_qr_scan"}, "type": "electric_scooter", "lon": -76.9991375, "name": "cda0cef6b20af7b0ef20068165ca314f", "bike_id": "cda0cef6b20af7b0ef20068165ca314f", "fusion_lat": 0.0, "is_reserved": 0, "lat": 38.90945516666667, "fusion_lon": 0.0, "is_disabled": 0}, {"rental_uris": {"android": "https://dc.lft.to/lastmile_qr_scan", "ios": "https://dc.lft.to/lastmile_qr_scan"}, "type": "electric_scooter", "lon": -77.00356433333333, "name": "0a7a1c8e582be8963527800dabfc6db4", "bike_id": "0a7a1c8e582be8963527800dabfc6db4", "fusion_lat": 0.0, "is_reserved": 0, "lat": 38.906077, "fusion_lon": 0.0, "is_disabled": 0}, {"rental_uris": {"android": "https://dc.lft.to/lastmile_qr_scan", "ios": "https://dc.lft.to/lastmile_qr_scan"}, "type": "electric_bike", "lon": -77.03987166666667, "name": "42b881e76e5c465dff41f7fb7e136cf7", "bike_id": "42b881e76e5c465dff41f7fb7e136cf7", "fusion_lat": 0.0, "is_reserved": 0, "lat": 38.802952166666664, "fusion_lon": 0.0, "is_disabled": 0}, {"rental_uris": {"android": "https://dc.lft.to/lastmile_qr_scan", "ios": "https://dc.lft.to/lastmile_qr_scan"}, "type": "electric_scooter", "lon": -76.99624116666666, "name": "449f8bd4e0fdd37f7ea07a1f6be38f11", "bike_id": "449f8bd4e0fdd37f7ea07a1f6be38f11", "fusion_lat": 0.0, "is_reserved": 0, "lat": 38.88031216666667, "fusion_lon": 0.0, "is_disabled": 0}, {"rental_uris": {"android": "https://dc.lft.to/lastmile_qr_scan", "ios": "https://dc.lft.to/lastmile_qr_scan"}, "type": "electric_scooter", "lon": -77.04115516666667, "name": "7df11a5a8abb486f24440b27ce0ca42e", "bike_id": "7df11a5a8abb486f24440b27ce0ca42e", "fusion_lat": 0.0, "is_reserved": 0, "lat": 38.925369, "fusion_lon": 0.0, "is_disabled": 0}, {"rental_uris": {"android": "https://dc.lft.to/lastmile_qr_scan", "ios": "https://dc.lft.to/lastmile_qr_scan"}, "type": "electric_scooter", "lon": -77.02290416666666, "name": "a121ace86f0a3709b4dc711aa9e74554", "bike_id": "a121ace86f0a3709b4dc711aa9e74554", "fusion_lat": 0.0, "is_reserved": 0, "lat": 38.92692816666667, "fusion_lon": 0.0, "is_disabled": 0}, {"rental_uris": {"android": "https://dc.lft.to/lastmile_qr_scan", "ios": "https://dc.lft.to/lastmile_qr_scan"}, "type": "electric_scooter", "lon": -77.03875, "name": "7b2960edf2c6a29307d72969f8df77e0", "bike_id": "7b2960edf2c6a29307d72969f8df77e0", "fusion_lat": 0.0, "is_reserved": 0, "lat": 38.912723, "fusion_lon": 0.0, "is_disabled": 0}, {"rental_uris": {"android": "https://dc.lft.to/lastmile_qr_scan", "ios": "https://dc.lft.to/lastmile_qr_scan"}, "type": "electric_scooter", "lon": -76.99092883333333, "name": "20800c43f83103c1d69eeded767d7594", "bike_id": "20800c43f83103c1d69eeded767d7594", "fusion_lat": 0.0, "is_reserved": 0, "lat": 38.929470333333335, "fusion_lon": 0.0, "is_disabled": 0}, {"rental_uris": {"android": "https://dc.lft.to/lastmile_qr_scan", "ios": "https://dc.lft.to/lastmile_qr_scan"}, "type": "electric_scooter", "lon": -76.98729483333334, "name": "3a5d0145497ad4005df4b5f45b3bf16d", "bike_id": "3a5d0145497ad4005df4b5f45b3bf16d", "fusion_lat": 0.0, "is_reserved": 0, "lat": 38.867109666666664, "fusion_lon": 0.0, "is_disabled": 0}, {"rental_uris": {"android": "https://dc.lft.to/lastmile_qr_scan", "ios": "https://dc.lft.to/lastmile_qr_scan"}, "type": "electric_scooter", "lon": -77.00924083333334, "name": "1c30982b89d68e3723fb979082df353a", "bike_id": "1c30982b89d68e3723fb979082df353a", "fusion_lat": 0.0, "is_reserved": 0, "lat": 38.874445333333334, "fusion_lon": 0.0, "is_disabled": 0}, {"rental_uris": {"android": "https://dc.lft.to/lastmile_qr_scan", "ios": "https://dc.lft.to/lastmile_qr_scan"}, "type": "electric_scooter", "lon": -76.94982333333333, "name": "4dc976461f30752b01cfe376098415d5", "bike_id": "4dc976461f30752b01cfe376098415d5", "fusion_lat": 0.0, "is_reserved": 0, "lat": 38.894346166666665, "fusion_lon": 0.0, "is_disabled": 0}, {"rental_uris": {"android": "https://dc.lft.to/lastmile_qr_scan", "ios": "https://dc.lft.to/lastmile_qr_scan"}, "type": "electric_scooter", "lon": -77.047468, "name": "60c9af3ba11c23e0b64f4685adfa5ed2", "bike_id": "60c9af3ba11c23e0b64f4685adfa5ed2", "fusion_lat": 0.0, "is_reserved": 0, "lat": 38.9053645, "fusion_lon": 0.0, "is_disabled": 0}, {"rental_uris": {"android": "https://dc.lft.to/lastmile_qr_scan", "ios": "https://dc.lft.to/lastmile_qr_scan"}, "type": "electric_scooter", "lon": -77.049966, "name": "f3d0ebe52462fc21da190e2714be20f6", "bike_id": "f3d0ebe52462fc21da190e2714be20f6", "fusion_lat": 0.0, "is_reserved": 0, "lat": 38.90116233333333, "fusion_lon": 0.0, "is_disabled": 0}, {"rental_uris": {"android": "https://dc.lft.to/lastmile_qr_scan", "ios": "https://dc.lft.to/lastmile_qr_scan"}, "type": "electric_scooter", "lon": -77.0366745, "name": "240f0eef4822ee0c6e4d9d3da9022b1c", "bike_id": "240f0eef4822ee0c6e4d9d3da9022b1c", "fusion_lat": 0.0, "is_reserved": 0, "lat": 38.90263933333333, "fusion_lon": 0.0, "is_disabled": 0}, {"rental_uris": {"android": "https://dc.lft.to/lastmile_qr_scan", "ios": "https://dc.lft.to/lastmile_qr_scan"}, "type": "electric_scooter", "lon": -77.04342583333333, "name": "2ae4c48b04cd82dbe85c705a65aa0ad3", "bike_id": "2ae4c48b04cd82dbe85c705a65aa0ad3", "fusion_lat": 0.0, "is_reserved": 0, "lat": 38.921835, "fusion_lon": 0.0, "is_disabled": 0}, {"rental_uris": {"android": "https://dc.lft.to/lastmile_qr_scan", "ios": "https://dc.lft.to/lastmile_qr_scan"}, "type": "electric_scooter", "lon": -76.994475, "name": "6f9e1ea0cf1f9f2f6229947e00f9d2ba", "bike_id": "6f9e1ea0cf1f9f2f6229947e00f9d2ba", "fusion_lat": 0.0, "is_reserved": 0, "lat": 38.900268833333335, "fusion_lon": 0.0, "is_disabled": 0}, {"rental_uris": {"android": "https://dc.lft.to/lastmile_qr_scan", "ios": "https://dc.lft.to/lastmile_qr_scan"}, "type": "electric_scooter", "lon": -77.03847116666667, "name": "f81fc3bf552532c120c56bb563d84010", "bike_id": "f81fc3bf552532c120c56bb563d84010", "fusion_lat": 0.0, "is_reserved": 0, "lat": 38.91205, "fusion_lon": 0.0, "is_disabled": 0}, {"rental_uris": {"android": "https://dc.lft.to/lastmile_qr_scan", "ios": "https://dc.lft.to/lastmile_qr_scan"}, "type": "electric_scooter", "lon": -76.97883683333333, "name": "08da62412700dd9a2afaeeb7b9ea287d", "bike_id": "08da62412700dd9a2afaeeb7b9ea287d", "fusion_lat": 0.0, "is_reserved": 0, "lat": 38.920153166666665, "fusion_lon": 0.0, "is_disabled": 0}, {"rental_uris": {"android": "https://dc.lft.to/lastmile_qr_scan", "ios": "https://dc.lft.to/lastmile_qr_scan"}, "type": "electric_scooter", "lon": -77.0498985, "name": "354a13ac1d2cf1f5756d514e641dda02", "bike_id": "354a13ac1d2cf1f5756d514e641dda02", "fusion_lat": 0.0, "is_reserved": 0, "lat": 38.905182833333335, "fusion_lon": 0.0, "is_disabled": 0}, {"rental_uris": {"android": "https://dc.lft.to/lastmile_qr_scan", "ios": "https://dc.lft.to/lastmile_qr_scan"}, "type": "electric_scooter", "lon": -77.05733633333334, "name": "9cff9e592a025e0161c9dff56dd10950", "bike_id": "9cff9e592a025e0161c9dff56dd10950", "fusion_lat": 0.0, "is_reserved": 0, "lat": 38.9337495, "fusion_lon": 0.0, "is_disabled": 0}, {"rental_uris": {"android": "https://dc.lft.to/lastmile_qr_scan", "ios": "https://dc.lft.to/lastmile_qr_scan"}, "type": "electric_scooter", "lon": -77.039034, "name": "bf7e08bf2cd4226ba1ae380703cb8f85", "bike_id": "bf7e08bf2cd4226ba1ae380703cb8f85", "fusion_lat": 0.0, "is_reserved": 0, "lat": 38.922495, "fusion_lon": 0.0, "is_disabled": 0}, {"rental_uris": {"android": "https://dc.lft.to/lastmile_qr_scan", "ios": "https://dc.lft.to/lastmile_qr_scan"}, "type": "electric_scooter", "lon": -77.00588616666667, "name": "0132b4acb7a20254099798bfcf264afa", "bike_id": "0132b4acb7a20254099798bfcf264afa", "fusion_lat": 0.0, "is_reserved": 0, "lat": 38.915601333333335, "fusion_lon": 0.0, "is_disabled": 0}, {"rental_uris": {"android": "https://dc.lft.to/lastmile_qr_scan", "ios": "https://dc.lft.to/lastmile_qr_scan"}, "type": "electric_bike", "lon": -77.12500916666667, "name": "ef4cde314f2a4a618a395d73d2464917", "bike_id": "ef4cde314f2a4a618a395d73d2464917", "fusion_lat": 0.0, "is_reserved": 0, "lat": 39.02418016666667, "fusion_lon": 0.0, "is_disabled": 0}, {"rental_uris": {"android": "https://dc.lft.to/lastmile_qr_scan", "ios": "https://dc.lft.to/lastmile_qr_scan"}, "type": "electric_scooter", "lon": -77.0356185, "name": "fc3a2d8fe9768fb7b071537dc106df55", "bike_id": "fc3a2d8fe9768fb7b071537dc106df55", "fusion_lat": 0.0, "is_reserved": 0, "lat": 38.903794166666664, "fusion_lon": 0.0, "is_disabled": 0}, {"rental_uris": {"android": "https://dc.lft.to/lastmile_qr_scan", "ios": "https://dc.lft.to/lastmile_qr_scan"}, "type": "electric_scooter", "lon": -77.01735566666666, "name": "cabc3225fb77dab8d75521cc46062e50", "bike_id": "cabc3225fb77dab8d75521cc46062e50", "fusion_lat": 0.0, "is_reserved": 0, "lat": 38.90225016666667, "fusion_lon": 0.0, "is_disabled": 0}, {"rental_uris": {"android": "https://dc.lft.to/lastmile_qr_scan", "ios": "https://dc.lft.to/lastmile_qr_scan"}, "type": "electric_scooter", "lon": -76.93833366666667, "name": "7f8b7747f8925a2b174894e941dd7bc3", "bike_id": "7f8b7747f8925a2b174894e941dd7bc3", "fusion_lat": 0.0, "is_reserved": 0, "lat": 38.890075, "fusion_lon": 0.0, "is_disabled": 0}, {"rental_uris": {"android": "https://dc.lft.to/lastmile_qr_scan", "ios": "https://dc.lft.to/lastmile_qr_scan"}, "type": "electric_scooter", "lon": -77.0219925, "name": "d40398186cfc1a86e22b27e7bde21a52", "bike_id": "d40398186cfc1a86e22b27e7bde21a52", "fusion_lat": 0.0, "is_reserved": 0, "lat": 38.903887, "fusion_lon": 0.0, "is_disabled": 0}, {"rental_uris": {"android": "https://dc.lft.to/lastmile_qr_scan", "ios": "https://dc.lft.to/lastmile_qr_scan"}, "type": "electric_scooter", "lon": -77.02344366666667, "name": "65ead95e918767a107f4c71129ee93d3", "bike_id": "65ead95e918767a107f4c71129ee93d3", "fusion_lat": 0.0, "is_reserved": 0, "lat": 38.92982816666667, "fusion_lon": 0.0, "is_disabled": 0}, {"rental_uris": {"android": "https://dc.lft.to/lastmile_qr_scan", "ios": "https://dc.lft.to/lastmile_qr_scan"}, "type": "electric_scooter", "lon": -77.07863016666667, "name": "6cfe0b205427dd70f652f4e579cf41d0", "bike_id": "6cfe0b205427dd70f652f4e579cf41d0", "fusion_lat": 0.0, "is_reserved": 0, "lat": 38.91910766666667, "fusion_lon": 0.0, "is_disabled": 0}, {"rental_uris": {"android": "https://dc.lft.to/lastmile_qr_scan", "ios": "https://dc.lft.to/lastmile_qr_scan"}, "type": "electric_scooter", "lon": -77.02343366666666, "name": "75c4b55183d588d31361aa0c8a632de3", "bike_id": "75c4b55183d588d31361aa0c8a632de3", "fusion_lat": 0.0, "is_reserved": 0, "lat": 38.9620875, "fusion_lon": 0.0, "is_disabled": 0}, {"rental_uris": {"android": "https://dc.lft.to/lastmile_qr_scan", "ios": "https://dc.lft.to/lastmile_qr_scan"}, "type": "electric_scooter", "lon": -77.036921, "name": "d1aff83ae82ea09a2c1c0473fedc65cc", "bike_id": "d1aff83ae82ea09a2c1c0473fedc65cc", "fusion_lat": 0.0, "is_reserved": 0, "lat": 38.92646283333333, "fusion_lon": 0.0, "is_disabled": 0}, {"rental_uris": {"android": "https://dc.lft.to/lastmile_qr_scan", "ios": "https://dc.lft.to/lastmile_qr_scan"}, "type": "electric_scooter", "lon": -77.029681, "name": "341051cbee3cef622800b99518865438", "bike_id": "341051cbee3cef622800b99518865438", "fusion_lat": 0.0, "is_reserved": 0, "lat": 38.923232, "fusion_lon": 0.0, "is_disabled": 0}, {"rental_uris": {"android": "https://dc.lft.to/lastmile_qr_scan", "ios": "https://dc.lft.to/lastmile_qr_scan"}, "type": "electric_scooter", "lon": -77.04350383333333, "name": "c571f57430a9f98f925d8cd7b27e2623", "bike_id": "c571f57430a9f98f925d8cd7b27e2623", "fusion_lat": 0.0, "is_reserved": 0, "lat": 38.92124183333333, "fusion_lon": 0.0, "is_disabled": 0}, {"rental_uris": {"android": "https://dc.lft.to/lastmile_qr_scan", "ios": "https://dc.lft.to/lastmile_qr_scan"}, "type": "electric_scooter", "lon": -77.04354666666667, "name": "53afd1a6d6b5bfac3416f85ac2d64491", "bike_id": "53afd1a6d6b5bfac3416f85ac2d64491", "fusion_lat": 0.0, "is_reserved": 0, "lat": 38.90396466666667, "fusion_lon": 0.0, "is_disabled": 0}, {"rental_uris": {"android": "https://dc.lft.to/lastmile_qr_scan", "ios": "https://dc.lft.to/lastmile_qr_scan"}, "type": "electric_scooter", "lon": -77.03694266666666, "name": "faa448ba65a1ab3c6a6dcb140f4dc08b", "bike_id": "faa448ba65a1ab3c6a6dcb140f4dc08b", "fusion_lat": 0.0, "is_reserved": 0, "lat": 38.92645233333333, "fusion_lon": 0.0, "is_disabled": 0}, {"rental_uris": {"android": "https://dc.lft.to/lastmile_qr_scan", "ios": "https://dc.lft.to/lastmile_qr_scan"}, "type": "electric_scooter", "lon": -77.04702933333333, "name": "6f1ba0e4b076e2df6c35ce9424a5fe97", "bike_id": "6f1ba0e4b076e2df6c35ce9424a5fe97", "fusion_lat": 0.0, "is_reserved": 0, "lat": 38.8995505, "fusion_lon": 0.0, "is_disabled": 0}, {"rental_uris": {"android": "https://dc.lft.to/lastmile_qr_scan", "ios": "https://dc.lft.to/lastmile_qr_scan"}, "type": "electric_scooter", "lon": -77.0347035, "name": "43e8b355478c4d19f536e1bf1669b8dc", "bike_id": "43e8b355478c4d19f536e1bf1669b8dc", "fusion_lat": 0.0, "is_reserved": 0, "lat": 38.909661666666665, "fusion_lon": 0.0, "is_disabled": 0}, {"rental_uris": {"android": "https://dc.lft.to/lastmile_qr_scan", "ios": "https://dc.lft.to/lastmile_qr_scan"}, "type": "electric_scooter", "lon": -77.032006, "name": "d6d505bfd3ec5288b729b16ccedf147f", "bike_id": "d6d505bfd3ec5288b729b16ccedf147f", "fusion_lat": 0.0, "is_reserved": 0, "lat": 38.90778483333333, "fusion_lon": 0.0, "is_disabled": 0}, {"rental_uris": {"android": "https://dc.lft.to/lastmile_qr_scan", "ios": "https://dc.lft.to/lastmile_qr_scan"}, "type": "electric_bike", "lon": -76.929965, "name": "2323436b9a8d6002a43e455e03a8e5c4", "bike_id": "2323436b9a8d6002a43e455e03a8e5c4", "fusion_lat": 0.0, "is_reserved": 0, "lat": 38.887956333333335, "fusion_lon": 0.0, "is_disabled": 0}, {"rental_uris": {"android": "https://dc.lft.to/lastmile_qr_scan", "ios": "https://dc.lft.to/lastmile_qr_scan"}, "type": "electric_bike", "lon": -76.96838016666666, "name": "289ccc82e2e2d74f5fb4c468f1009f71", "bike_id": "289ccc82e2e2d74f5fb4c468f1009f71", "fusion_lat": 0.0, "is_reserved": 0, "lat": 38.92443466666667, "fusion_lon": 0.0, "is_disabled": 0}, {"rental_uris": {"android": "https://dc.lft.to/lastmile_qr_scan", "ios": "https://dc.lft.to/lastmile_qr_scan"}, "type": "electric_bike", "lon": -77.15267066666667, "name": "4325c299eb13fcb09e4ca5c8b69e93c7", "bike_id": "4325c299eb13fcb09e4ca5c8b69e93c7", "fusion_lat": 0.0, "is_reserved": 0, "lat": 39.105659, "fusion_lon": 0.0, "is_disabled": 0}, {"rental_uris": {"android": "https://dc.lft.to/lastmile_qr_scan", "ios": "https://dc.lft.to/lastmile_qr_scan"}, "type": "electric_scooter", "lon": -76.98319316666667, "name": "297bdf36178f8cb6ef41ed054e354442", "bike_id": "297bdf36178f8cb6ef41ed054e354442", "fusion_lat": 0.0, "is_reserved": 0, "lat": 38.861618666666665, "fusion_lon": 0.0, "is_disabled": 0}, {"rental_uris": {"android": "https://dc.lft.to/lastmile_qr_scan", "ios": "https://dc.lft.to/lastmile_qr_scan"}, "type": "electric_scooter", "lon": -77.0380165, "name": "50d2d9fc37d40e8eb2be3d2b6d02ef48", "bike_id": "50d2d9fc37d40e8eb2be3d2b6d02ef48", "fusion_lat": 0.0, "is_reserved": 0, "lat": 38.9301385, "fusion_lon": 0.0, "is_disabled": 0}, {"rental_uris": {"android": "https://dc.lft.to/lastmile_qr_scan", "ios": "https://dc.lft.to/lastmile_qr_scan"}, "type": "electric_scooter", "lon": -76.96503766666666, "name": "4df62d9301127b5e91371a3615791f24", "bike_id": "4df62d9301127b5e91371a3615791f24", "fusion_lat": 0.0, "is_reserved": 0, "lat": 38.8764875, "fusion_lon": 0.0, "is_disabled": 0}, {"rental_uris": {"android": "https://dc.lft.to/lastmile_qr_scan", "ios": "https://dc.lft.to/lastmile_qr_scan"}, "type": "electric_bike", "lon": -77.12740233333334, "name": "06f9fcf3ba936a8f47628856a5ab58cd", "bike_id": "06f9fcf3ba936a8f47628856a5ab58cd", "fusion_lat": 0.0, "is_reserved": 0, "lat": 38.895641499999996, "fusion_lon": 0.0, "is_disabled": 0}, {"rental_uris": {"android": "https://dc.lft.to/lastmile_qr_scan", "ios": "https://dc.lft.to/lastmile_qr_scan"}, "type": "electric_scooter", "lon": -76.9885115, "name": "c5e1f50663e7fb3f96273aa5325b77d9", "bike_id": "c5e1f50663e7fb3f96273aa5325b77d9", "fusion_lat": 0.0, "is_reserved": 0, "lat": 38.903407666666666, "fusion_lon": 0.0, "is_disabled": 0}, {"rental_uris": {"android": "https://dc.lft.to/lastmile_qr_scan", "ios": "https://dc.lft.to/lastmile_qr_scan"}, "type": "electric_scooter", "lon": -77.032664, "name": "91bd1e115cd876b9d873658da5fb279a", "bike_id": "91bd1e115cd876b9d873658da5fb279a", "fusion_lat": 0.0, "is_reserved": 0, "lat": 38.93573116666666, "fusion_lon": 0.0, "is_disabled": 0}, {"rental_uris": {"android": "https://dc.lft.to/lastmile_qr_scan", "ios": "https://dc.lft.to/lastmile_qr_scan"}, "type": "electric_scooter", "lon": -77.03293266666667, "name": "6e5b83bede3f05f578ffe64160be17c3", "bike_id": "6e5b83bede3f05f578ffe64160be17c3", "fusion_lat": 0.0, "is_reserved": 0, "lat": 38.9564825, "fusion_lon": 0.0, "is_disabled": 0}, {"rental_uris": {"android": "https://dc.lft.to/lastmile_qr_scan", "ios": "https://dc.lft.to/lastmile_qr_scan"}, "type": "electric_scooter", "lon": -77.01993633333333, "name": "7230b3733aa97288123aae6af2753242", "bike_id": "7230b3733aa97288123aae6af2753242", "fusion_lat": 0.0, "is_reserved": 0, "lat": 38.900783833333335, "fusion_lon": 0.0, "is_disabled": 0}, {"rental_uris": {"android": "https://dc.lft.to/lastmile_qr_scan", "ios": "https://dc.lft.to/lastmile_qr_scan"}, "type": "electric_scooter", "lon": -76.9936765, "name": "7a4d89e9b8a5f918bb7a35df413f7cd5", "bike_id": "7a4d89e9b8a5f918bb7a35df413f7cd5", "fusion_lat": 0.0, "is_reserved": 0, "lat": 38.900538166666664, "fusion_lon": 0.0, "is_disabled": 0}, {"rental_uris": {"android": "https://dc.lft.to/lastmile_qr_scan", "ios": "https://dc.lft.to/lastmile_qr_scan"}, "type": "electric_scooter", "lon": -76.97819666666666, "name": "33a7bd53987eb24458680cde7fe70624", "bike_id": "33a7bd53987eb24458680cde7fe70624", "fusion_lat": 0.0, "is_reserved": 0, "lat": 38.89603116666667, "fusion_lon": 0.0, "is_disabled": 0}, {"rental_uris": {"android": "https://dc.lft.to/lastmile_qr_scan", "ios": "https://dc.lft.to/lastmile_qr_scan"}, "type": "electric_scooter", "lon": -77.03514166666666, "name": "3b602f339259ea2477c0c6e534bd752b", "bike_id": "3b602f339259ea2477c0c6e534bd752b", "fusion_lat": 0.0, "is_reserved": 0, "lat": 38.9170285, "fusion_lon": 0.0, "is_disabled": 0}, {"rental_uris": {"android": "https://dc.lft.to/lastmile_qr_scan", "ios": "https://dc.lft.to/lastmile_qr_scan"}, "type": "electric_scooter", "lon": -77.02772266666666, "name": "2f1a52f1fac8fc38686abb16c844a90c", "bike_id": "2f1a52f1fac8fc38686abb16c844a90c", "fusion_lat": 0.0, "is_reserved": 0, "lat": 38.8922105, "fusion_lon": 0.0, "is_disabled": 0}, {"rental_uris": {"android": "https://dc.lft.to/lastmile_qr_scan", "ios": "https://dc.lft.to/lastmile_qr_scan"}, "type": "electric_scooter", "lon": -77.0325185, "name": "d3b3c7324aed65197f894e1749f3fd15", "bike_id": "d3b3c7324aed65197f894e1749f3fd15", "fusion_lat": 0.0, "is_reserved": 0, "lat": 38.90238166666666, "fusion_lon": 0.0, "is_disabled": 0}, {"rental_uris": {"android": "https://dc.lft.to/lastmile_qr_scan", "ios": "https://dc.lft.to/lastmile_qr_scan"}, "type": "electric_scooter", "lon": -77.0322325, "name": "c78f20ae02df818987f6e2503a15515f", "bike_id": "c78f20ae02df818987f6e2503a15515f", "fusion_lat": 0.0, "is_reserved": 0, "lat": 38.90020466666667, "fusion_lon": 0.0, "is_disabled": 0}, {"rental_uris": {"android": "https://dc.lft.to/lastmile_qr_scan", "ios": "https://dc.lft.to/lastmile_qr_scan"}, "type": "electric_scooter", "lon": -77.0397475, "name": "b1188a577c9cda8724b0102d0d83649c", "bike_id": "b1188a577c9cda8724b0102d0d83649c", "fusion_lat": 0.0, "is_reserved": 0, "lat": 38.916304, "fusion_lon": 0.0, "is_disabled": 0}, {"rental_uris": {"android": "https://dc.lft.to/lastmile_qr_scan", "ios": "https://dc.lft.to/lastmile_qr_scan"}, "type": "electric_scooter", "lon": -77.02806416666667, "name": "9ef9664ee1dbe3738b1851d388902ac0", "bike_id": "9ef9664ee1dbe3738b1851d388902ac0", "fusion_lat": 0.0, "is_reserved": 0, "lat": 38.93061066666667, "fusion_lon": 0.0, "is_disabled": 0}, {"rental_uris": {"android": "https://dc.lft.to/lastmile_qr_scan", "ios": "https://dc.lft.to/lastmile_qr_scan"}, "type": "electric_scooter", "lon": -77.01009833333333, "name": "ed4832602e1667cb5a4493b598c9e474", "bike_id": "ed4832602e1667cb5a4493b598c9e474", "fusion_lat": 0.0, "is_reserved": 0, "lat": 38.86711733333333, "fusion_lon": 0.0, "is_disabled": 0}, {"rental_uris": {"android": "https://dc.lft.to/lastmile_qr_scan", "ios": "https://dc.lft.to/lastmile_qr_scan"}, "type": "electric_bike", "lon": -77.064749, "name": "2d0b1f5cd3a26b7179dc6174e5ec6682", "bike_id": "2d0b1f5cd3a26b7179dc6174e5ec6682", "fusion_lat": 0.0, "is_reserved": 0, "lat": 38.973802666666664, "fusion_lon": 0.0, "is_disabled": 0}, {"rental_uris": {"android": "https://dc.lft.to/lastmile_qr_scan", "ios": "https://dc.lft.to/lastmile_qr_scan"}, "type": "electric_scooter", "lon": -77.03321333333334, "name": "4cab766d889042a06c0702f19124be80", "bike_id": "4cab766d889042a06c0702f19124be80", "fusion_lat": 0.0, "is_reserved": 0, "lat": 38.90358916666667, "fusion_lon": 0.0, "is_disabled": 0}, {"rental_uris": {"android": "https://dc.lft.to/lastmile_qr_scan", "ios": "https://dc.lft.to/lastmile_qr_scan"}, "type": "electric_scooter", "lon": -77.03459433333333, "name": "0bb8eb0605fc3d3ce01b23ae11ed4b5b", "bike_id": "0bb8eb0605fc3d3ce01b23ae11ed4b5b", "fusion_lat": 0.0, "is_reserved": 0, "lat": 38.9064655, "fusion_lon": 0.0, "is_disabled": 0}, {"rental_uris": {"android": "https://dc.lft.to/lastmile_qr_scan", "ios": "https://dc.lft.to/lastmile_qr_scan"}, "type": "electric_scooter", "lon": -76.99166333333334, "name": "90ee9fcc60316750759577d8b44ef920", "bike_id": "90ee9fcc60316750759577d8b44ef920", "fusion_lat": 0.0, "is_reserved": 0, "lat": 38.87924266666667, "fusion_lon": 0.0, "is_disabled": 0}, {"rental_uris": {"android": "https://dc.lft.to/lastmile_qr_scan", "ios": "https://dc.lft.to/lastmile_qr_scan"}, "type": "electric_scooter", "lon": -77.02183883333333, "name": "a411dd15e5650418e183fab46381eb95", "bike_id": "a411dd15e5650418e183fab46381eb95", "fusion_lat": 0.0, "is_reserved": 0, "lat": 38.89248116666667, "fusion_lon": 0.0, "is_disabled": 0}, {"rental_uris": {"android": "https://dc.lft.to/lastmile_qr_scan", "ios": "https://dc.lft.to/lastmile_qr_scan"}, "type": "electric_scooter", "lon": -77.01211933333333, "name": "d2e44dba95471cad6d5a27c670ea2e2e", "bike_id": "d2e44dba95471cad6d5a27c670ea2e2e", "fusion_lat": 0.0, "is_reserved": 0, "lat": 38.90672383333333, "fusion_lon": 0.0, "is_disabled": 0}, {"rental_uris": {"android": "https://dc.lft.to/lastmile_qr_scan", "ios": "https://dc.lft.to/lastmile_qr_scan"}, "type": "electric_scooter", "lon": -76.991378, "name": "466d5d6e87b98cd2aff5ddc3db396e89", "bike_id": "466d5d6e87b98cd2aff5ddc3db396e89", "fusion_lat": 0.0, "is_reserved": 0, "lat": 38.882243833333334, "fusion_lon": 0.0, "is_disabled": 0}, {"rental_uris": {"android": "https://dc.lft.to/lastmile_qr_scan", "ios": "https://dc.lft.to/lastmile_qr_scan"}, "type": "electric_scooter", "lon": -77.0105595, "name": "e3cbb0835aaf96389ddc563a77abe6d1", "bike_id": "e3cbb0835aaf96389ddc563a77abe6d1", "fusion_lat": 0.0, "is_reserved": 0, "lat": 38.929884, "fusion_lon": 0.0, "is_disabled": 0}, {"rental_uris": {"android": "https://dc.lft.to/lastmile_qr_scan", "ios": "https://dc.lft.to/lastmile_qr_scan"}, "type": "electric_scooter", "lon": -77.04320766666666, "name": "d91c4f2962d9e02811ca8250926075fd", "bike_id": "d91c4f2962d9e02811ca8250926075fd", "fusion_lat": 0.0, "is_reserved": 0, "lat": 38.89222083333333, "fusion_lon": 0.0, "is_disabled": 0}, {"rental_uris": {"android": "https://dc.lft.to/lastmile_qr_scan", "ios": "https://dc.lft.to/lastmile_qr_scan"}, "type": "electric_scooter", "lon": -77.0272085, "name": "78ac321d4c54b0ddacc62243aa12d8c2", "bike_id": "78ac321d4c54b0ddacc62243aa12d8c2", "fusion_lat": 0.0, "is_reserved": 0, "lat": 38.89223366666667, "fusion_lon": 0.0, "is_disabled": 0}, {"rental_uris": {"android": "https://dc.lft.to/lastmile_qr_scan", "ios": "https://dc.lft.to/lastmile_qr_scan"}, "type": "electric_scooter", "lon": -77.032714, "name": "5673aacabae8a00a32c4a63f22b4212c", "bike_id": "5673aacabae8a00a32c4a63f22b4212c", "fusion_lat": 0.0, "is_reserved": 0, "lat": 38.898860666666664, "fusion_lon": 0.0, "is_disabled": 0}, {"rental_uris": {"android": "https://dc.lft.to/lastmile_qr_scan", "ios": "https://dc.lft.to/lastmile_qr_scan"}, "type": "electric_scooter", "lon": -77.03841683333333, "name": "80687b2231e04258bd51e4101697cd73", "bike_id": "80687b2231e04258bd51e4101697cd73", "fusion_lat": 0.0, "is_reserved": 0, "lat": 38.91116533333334, "fusion_lon": 0.0, "is_disabled": 0}, {"rental_uris": {"android": "https://dc.lft.to/lastmile_qr_scan", "ios": "https://dc.lft.to/lastmile_qr_scan"}, "type": "electric_scooter", "lon": -76.9790575, "name": "330fdc1d6f9b0ece9ea9820cd204e0a9", "bike_id": "330fdc1d6f9b0ece9ea9820cd204e0a9", "fusion_lat": 0.0, "is_reserved": 0, "lat": 38.903888, "fusion_lon": 0.0, "is_disabled": 0}, {"rental_uris": {"android": "https://dc.lft.to/lastmile_qr_scan", "ios": "https://dc.lft.to/lastmile_qr_scan"}, "type": "electric_bike", "lon": -76.91123533333334, "name": "2c9bb4d8a771cf5b707fea4defcddaf0", "bike_id": "2c9bb4d8a771cf5b707fea4defcddaf0", "fusion_lat": 0.0, "is_reserved": 0, "lat": 39.0103415, "fusion_lon": 0.0, "is_disabled": 0}, {"rental_uris": {"android": "https://dc.lft.to/lastmile_qr_scan", "ios": "https://dc.lft.to/lastmile_qr_scan"}, "type": "electric_scooter", "lon": -77.01040683333333, "name": "2322bfbd59070f9d591f55f4b9ad4c73", "bike_id": "2322bfbd59070f9d591f55f4b9ad4c73", "fusion_lat": 0.0, "is_reserved": 0, "lat": 38.884465666666664, "fusion_lon": 0.0, "is_disabled": 0}, {"rental_uris": {"android": "https://dc.lft.to/lastmile_qr_scan", "ios": "https://dc.lft.to/lastmile_qr_scan"}, "type": "electric_scooter", "lon": -77.04799716666666, "name": "75d8742fea7dfd7ce0295ffa7b129d40", "bike_id": "75d8742fea7dfd7ce0295ffa7b129d40", "fusion_lat": 0.0, "is_reserved": 0, "lat": 38.89364316666666, "fusion_lon": 0.0, "is_disabled": 0}, {"rental_uris": {"android": "https://dc.lft.to/lastmile_qr_scan", "ios": "https://dc.lft.to/lastmile_qr_scan"}, "type": "electric_scooter", "lon": -77.01358116666667, "name": "0491ec74dfcb5462e83eb5840bbecfa9", "bike_id": "0491ec74dfcb5462e83eb5840bbecfa9", "fusion_lat": 0.0, "is_reserved": 0, "lat": 38.9039005, "fusion_lon": 0.0, "is_disabled": 0}, {"rental_uris": {"android": "https://dc.lft.to/lastmile_qr_scan", "ios": "https://dc.lft.to/lastmile_qr_scan"}, "type": "electric_scooter", "lon": -77.0384885, "name": "d391448591e17f38c57c2dc23e6c2f0e", "bike_id": "d391448591e17f38c57c2dc23e6c2f0e", "fusion_lat": 0.0, "is_reserved": 0, "lat": 38.9119375, "fusion_lon": 0.0, "is_disabled": 0}, {"rental_uris": {"android": "https://dc.lft.to/lastmile_qr_scan", "ios": "https://dc.lft.to/lastmile_qr_scan"}, "type": "electric_scooter", "lon": -76.94296416666667, "name": "d95e4e9d641afc4c906fc3ca2644b1b8", "bike_id": "d95e4e9d641afc4c906fc3ca2644b1b8", "fusion_lat": 0.0, "is_reserved": 0, "lat": 38.890869, "fusion_lon": 0.0, "is_disabled": 0}, {"rental_uris": {"android": "https://dc.lft.to/lastmile_qr_scan", "ios": "https://dc.lft.to/lastmile_qr_scan"}, "type": "electric_scooter", "lon": -76.98364633333334, "name": "bf5395393cb37b799c97aed5e663d936", "bike_id": "bf5395393cb37b799c97aed5e663d936", "fusion_lat": 0.0, "is_reserved": 0, "lat": 38.886025833333335, "fusion_lon": 0.0, "is_disabled": 0}, {"rental_uris": {"android": "https://dc.lft.to/lastmile_qr_scan", "ios": "https://dc.lft.to/lastmile_qr_scan"}, "type": "electric_scooter", "lon": -77.03049233333333, "name": "cf66333ead3db6ca28c11321aac149ea", "bike_id": "cf66333ead3db6ca28c11321aac149ea", "fusion_lat": 0.0, "is_reserved": 0, "lat": 38.923669833333335, "fusion_lon": 0.0, "is_disabled": 0}, {"rental_uris": {"android": "https://dc.lft.to/lastmile_qr_scan", "ios": "https://dc.lft.to/lastmile_qr_scan"}, "type": "electric_bike", "lon": -77.02409483333334, "name": "bbe100af49b5b9cf80af5dc1a1cda2bc", "bike_id": "bbe100af49b5b9cf80af5dc1a1cda2bc", "fusion_lat": 0.0, "is_reserved": 0, "lat": 38.949043833333334, "fusion_lon": 0.0, "is_disabled": 0}, {"rental_uris": {"android": "https://dc.lft.to/lastmile_qr_scan", "ios": "https://dc.lft.to/lastmile_qr_scan"}, "type": "electric_scooter", "lon": -77.02940666666667, "name": "863eeaf0895682cb5687e8ac5ab62e6a", "bike_id": "863eeaf0895682cb5687e8ac5ab62e6a", "fusion_lat": 0.0, "is_reserved": 0, "lat": 38.90024433333333, "fusion_lon": 0.0, "is_disabled": 0}, {"rental_uris": {"android": "https://dc.lft.to/lastmile_qr_scan", "ios": "https://dc.lft.to/lastmile_qr_scan"}, "type": "electric_scooter", "lon": -76.9901485, "name": "0cef67d16f3063e5653154f24573f3bf", "bike_id": "0cef67d16f3063e5653154f24573f3bf", "fusion_lat": 0.0, "is_reserved": 0, "lat": 38.91137766666667, "fusion_lon": 0.0, "is_disabled": 0}, {"rental_uris": {"android": "https://dc.lft.to/lastmile_qr_scan", "ios": "https://dc.lft.to/lastmile_qr_scan"}, "type": "electric_scooter", "lon": -77.03678833333333, "name": "21d6d6a1aaaba4f068461c48ba44437d", "bike_id": "21d6d6a1aaaba4f068461c48ba44437d", "fusion_lat": 0.0, "is_reserved": 0, "lat": 38.902600166666666, "fusion_lon": 0.0, "is_disabled": 0}, {"rental_uris": {"android": "https://dc.lft.to/lastmile_qr_scan", "ios": "https://dc.lft.to/lastmile_qr_scan"}, "type": "electric_scooter", "lon": -77.0289135, "name": "901a2403e30f9a0ea8c8c6036cb5ae74", "bike_id": "901a2403e30f9a0ea8c8c6036cb5ae74", "fusion_lat": 0.0, "is_reserved": 0, "lat": 38.8997095, "fusion_lon": 0.0, "is_disabled": 0}, {"rental_uris": {"android": "https://dc.lft.to/lastmile_qr_scan", "ios": "https://dc.lft.to/lastmile_qr_scan"}, "type": "electric_scooter", "lon": -77.04997733333333, "name": "3a21d9c5a4bf602128c83a467c64e3cb", "bike_id": "3a21d9c5a4bf602128c83a467c64e3cb", "fusion_lat": 0.0, "is_reserved": 0, "lat": 38.905144, "fusion_lon": 0.0, "is_disabled": 0}, {"rental_uris": {"android": "https://dc.lft.to/lastmile_qr_scan", "ios": "https://dc.lft.to/lastmile_qr_scan"}, "type": "electric_bike", "lon": -76.95027716666667, "name": "13d09c6f19a69295e54ca95effda21cc", "bike_id": "13d09c6f19a69295e54ca95effda21cc", "fusion_lat": 0.0, "is_reserved": 0, "lat": 38.891813166666665, "fusion_lon": 0.0, "is_disabled": 0}, {"rental_uris": {"android": "https://dc.lft.to/lastmile_qr_scan", "ios": "https://dc.lft.to/lastmile_qr_scan"}, "type": "electric_scooter", "lon": -77.0415915, "name": "bffd902c2456979fa21386ad093982e3", "bike_id": "bffd902c2456979fa21386ad093982e3", "fusion_lat": 0.0, "is_reserved": 0, "lat": 38.9102805, "fusion_lon": 0.0, "is_disabled": 0}, {"rental_uris": {"android": "https://dc.lft.to/lastmile_qr_scan", "ios": "https://dc.lft.to/lastmile_qr_scan"}, "type": "electric_scooter", "lon": -77.00134716666666, "name": "cd27dd95e9a4dbd346653915dcb973f9", "bike_id": "cd27dd95e9a4dbd346653915dcb973f9", "fusion_lat": 0.0, "is_reserved": 0, "lat": 38.90407716666667, "fusion_lon": 0.0, "is_disabled": 0}, {"rental_uris": {"android": "https://dc.lft.to/lastmile_qr_scan", "ios": "https://dc.lft.to/lastmile_qr_scan"}, "type": "electric_bike", "lon": -77.01107933333333, "name": "c412e2f13fcc3fd5c5443c88491b395d", "bike_id": "c412e2f13fcc3fd5c5443c88491b395d", "fusion_lat": 0.0, "is_reserved": 0, "lat": 38.96308066666667, "fusion_lon": 0.0, "is_disabled": 0}, {"rental_uris": {"android": "https://dc.lft.to/lastmile_qr_scan", "ios": "https://dc.lft.to/lastmile_qr_scan"}, "type": "electric_scooter", "lon": -76.9868545, "name": "80a98148f7d2fef3a5997cb16719b191", "bike_id": "80a98148f7d2fef3a5997cb16719b191", "fusion_lat": 0.0, "is_reserved": 0, "lat": 38.904939, "fusion_lon": 0.0, "is_disabled": 0}, {"rental_uris": {"android": "https://dc.lft.to/lastmile_qr_scan", "ios": "https://dc.lft.to/lastmile_qr_scan"}, "type": "electric_scooter", "lon": -77.01731916666667, "name": "28fb9511f56ba3b1e267fbe5594d60a6", "bike_id": "28fb9511f56ba3b1e267fbe5594d60a6", "fusion_lat": 0.0, "is_reserved": 0, "lat": 38.87699033333333, "fusion_lon": 0.0, "is_disabled": 0}, {"rental_uris": {"android": "https://dc.lft.to/lastmile_qr_scan", "ios": "https://dc.lft.to/lastmile_qr_scan"}, "type": "electric_scooter", "lon": -77.07091433333333, "name": "5479011727130b44be57dd9bb9083015", "bike_id": "5479011727130b44be57dd9bb9083015", "fusion_lat": 0.0, "is_reserved": 0, "lat": 38.91973316666667, "fusion_lon": 0.0, "is_disabled": 0}, {"rental_uris": {"android": "https://dc.lft.to/lastmile_qr_scan", "ios": "https://dc.lft.to/lastmile_qr_scan"}, "type": "electric_scooter", "lon": -76.97325133333334, "name": "bc1b5fc8655c21bbaa95d057c2f40c93", "bike_id": "bc1b5fc8655c21bbaa95d057c2f40c93", "fusion_lat": 0.0, "is_reserved": 0, "lat": 38.9047665, "fusion_lon": 0.0, "is_disabled": 0}, {"rental_uris": {"android": "https://dc.lft.to/lastmile_qr_scan", "ios": "https://dc.lft.to/lastmile_qr_scan"}, "type": "electric_bike", "lon": -76.9609, "name": "493c433947c6e673f68f23c254af8cb5", "bike_id": "493c433947c6e673f68f23c254af8cb5", "fusion_lat": 0.0, "is_reserved": 0, "lat": 38.91857266666667, "fusion_lon": 0.0, "is_disabled": 0}, {"rental_uris": {"android": "https://dc.lft.to/lastmile_qr_scan", "ios": "https://dc.lft.to/lastmile_qr_scan"}, "type": "electric_scooter", "lon": -77.004909, "name": "9ec603f522fcb320f595f973b5f30af2", "bike_id": "9ec603f522fcb320f595f973b5f30af2", "fusion_lat": 0.0, "is_reserved": 0, "lat": 38.89683983333333, "fusion_lon": 0.0, "is_disabled": 0}, {"rental_uris": {"android": "https://dc.lft.to/lastmile_qr_scan", "ios": "https://dc.lft.to/lastmile_qr_scan"}, "type": "electric_scooter", "lon": -77.026154, "name": "359eab816faaa5947d9a6c04995fcaa9", "bike_id": "359eab816faaa5947d9a6c04995fcaa9", "fusion_lat": 0.0, "is_reserved": 0, "lat": 38.91911983333333, "fusion_lon": 0.0, "is_disabled": 0}, {"rental_uris": {"android": "https://dc.lft.to/lastmile_qr_scan", "ios": "https://dc.lft.to/lastmile_qr_scan"}, "type": "electric_scooter", "lon": -76.98209916666667, "name": "cf5a1d8471b599ff72c3156c9e725c07", "bike_id": "cf5a1d8471b599ff72c3156c9e725c07", "fusion_lat": 0.0, "is_reserved": 0, "lat": 38.90182816666667, "fusion_lon": 0.0, "is_disabled": 0}, {"rental_uris": {"android": "https://dc.lft.to/lastmile_qr_scan", "ios": "https://dc.lft.to/lastmile_qr_scan"}, "type": "electric_bike", "lon": -77.063809, "name": "e141f9eec5bbce649c30a5ccafd5a425", "bike_id": "e141f9eec5bbce649c30a5ccafd5a425", "fusion_lat": 0.0, "is_reserved": 0, "lat": 39.017323166666664, "fusion_lon": 0.0, "is_disabled": 0}, {"rental_uris": {"android": "https://dc.lft.to/lastmile_qr_scan", "ios": "https://dc.lft.to/lastmile_qr_scan"}, "type": "electric_scooter", "lon": -76.95653333333334, "name": "f890a96e403583f687b6e6ac7c41787a", "bike_id": "f890a96e403583f687b6e6ac7c41787a", "fusion_lat": 0.0, "is_reserved": 0, "lat": 38.89608033333333, "fusion_lon": 0.0, "is_disabled": 0}, {"rental_uris": {"android": "https://dc.lft.to/lastmile_qr_scan", "ios": "https://dc.lft.to/lastmile_qr_scan"}, "type": "electric_bike", "lon": -76.97251283333334, "name": "4c32b4f8ad8af9d2a956c72a8a8f8134", "bike_id": "4c32b4f8ad8af9d2a956c72a8a8f8134", "fusion_lat": 0.0, "is_reserved": 0, "lat": 38.957399833333334, "fusion_lon": 0.0, "is_disabled": 0}, {"rental_uris": {"android": "https://dc.lft.to/lastmile_qr_scan", "ios": "https://dc.lft.to/lastmile_qr_scan"}, "type": "electric_scooter", "lon": -77.06395916666666, "name": "6fd2ae0d5ffed353f89c7072fff94e18", "bike_id": "6fd2ae0d5ffed353f89c7072fff94e18", "fusion_lat": 0.0, "is_reserved": 0, "lat": 38.94415433333333, "fusion_lon": 0.0, "is_disabled": 0}, {"rental_uris": {"android": "https://dc.lft.to/lastmile_qr_scan", "ios": "https://dc.lft.to/lastmile_qr_scan"}, "type": "electric_scooter", "lon": -76.98880883333334, "name": "7770e7bd12097cae1fb71e172a7b9307", "bike_id": "7770e7bd12097cae1fb71e172a7b9307", "fusion_lat": 0.0, "is_reserved": 0, "lat": 38.86670133333333, "fusion_lon": 0.0, "is_disabled": 0}, {"rental_uris": {"android": "https://dc.lft.to/lastmile_qr_scan", "ios": "https://dc.lft.to/lastmile_qr_scan"}, "type": "electric_scooter", "lon": -77.041715, "name": "320750035732dc249d2c96b3c5d210f1", "bike_id": "320750035732dc249d2c96b3c5d210f1", "fusion_lat": 0.0, "is_reserved": 0, "lat": 38.92315033333333, "fusion_lon": 0.0, "is_disabled": 0}, {"rental_uris": {"android": "https://dc.lft.to/lastmile_qr_scan", "ios": "https://dc.lft.to/lastmile_qr_scan"}, "type": "electric_scooter", "lon": -77.03842933333334, "name": "edee07d1778c2f98dd5a9f291deeac40", "bike_id": "edee07d1778c2f98dd5a9f291deeac40", "fusion_lat": 0.0, "is_reserved": 0, "lat": 38.91517116666667, "fusion_lon": 0.0, "is_disabled": 0}, {"rental_uris": {"android": "https://dc.lft.to/lastmile_qr_scan", "ios": "https://dc.lft.to/lastmile_qr_scan"}, "type": "electric_bike", "lon": -77.187392, "name": "0dc9f8095231058e3fd7514f5e131134", "bike_id": "0dc9f8095231058e3fd7514f5e131134", "fusion_lat": 0.0, "is_reserved": 0, "lat": 38.893496666666664, "fusion_lon": 0.0, "is_disabled": 0}, {"rental_uris": {"android": "https://dc.lft.to/lastmile_qr_scan", "ios": "https://dc.lft.to/lastmile_qr_scan"}, "type": "electric_scooter", "lon": -77.01997416666667, "name": "46ebdebbd71a96a21781f0bda6554609", "bike_id": "46ebdebbd71a96a21781f0bda6554609", "fusion_lat": 0.0, "is_reserved": 0, "lat": 38.913302333333334, "fusion_lon": 0.0, "is_disabled": 0}, {"rental_uris": {"android": "https://dc.lft.to/lastmile_qr_scan", "ios": "https://dc.lft.to/lastmile_qr_scan"}, "type": "electric_scooter", "lon": -76.999501, "name": "952a2cd0cad4076ea7e084d1d8df980e", "bike_id": "952a2cd0cad4076ea7e084d1d8df980e", "fusion_lat": 0.0, "is_reserved": 0, "lat": 38.908669333333336, "fusion_lon": 0.0, "is_disabled": 0}, {"rental_uris": {"android": "https://dc.lft.to/lastmile_qr_scan", "ios": "https://dc.lft.to/lastmile_qr_scan"}, "type": "electric_scooter", "lon": -77.02704666666666, "name": "e2ee87ae2a4ce65c767013703b2a9e68", "bike_id": "e2ee87ae2a4ce65c767013703b2a9e68", "fusion_lat": 0.0, "is_reserved": 0, "lat": 38.89716383333333, "fusion_lon": 0.0, "is_disabled": 0}, {"rental_uris": {"android": "https://dc.lft.to/lastmile_qr_scan", "ios": "https://dc.lft.to/lastmile_qr_scan"}, "type": "electric_scooter", "lon": -77.062751, "name": "ca802214701fa38d7b72735bf6f5f96c", "bike_id": "ca802214701fa38d7b72735bf6f5f96c", "fusion_lat": 0.0, "is_reserved": 0, "lat": 38.906228, "fusion_lon": 0.0, "is_disabled": 0}, {"rental_uris": {"android": "https://dc.lft.to/lastmile_qr_scan", "ios": "https://dc.lft.to/lastmile_qr_scan"}, "type": "electric_scooter", "lon": -77.03862816666667, "name": "16b3d8fcb5b4670592e5dd57a797cd43", "bike_id": "16b3d8fcb5b4670592e5dd57a797cd43", "fusion_lat": 0.0, "is_reserved": 0, "lat": 38.90276983333333, "fusion_lon": 0.0, "is_disabled": 0}, {"rental_uris": {"android": "https://dc.lft.to/lastmile_qr_scan", "ios": "https://dc.lft.to/lastmile_qr_scan"}, "type": "electric_scooter", "lon": -77.08620733333333, "name": "abad99f539499e9138ffbcc033679084", "bike_id": "abad99f539499e9138ffbcc033679084", "fusion_lat": 0.0, "is_reserved": 0, "lat": 38.958717166666666, "fusion_lon": 0.0, "is_disabled": 0}, {"rental_uris": {"android": "https://dc.lft.to/lastmile_qr_scan", "ios": "https://dc.lft.to/lastmile_qr_scan"}, "type": "electric_scooter", "lon": -77.01385516666667, "name": "128d74c1e90c9d1922bc6c0418ea4a43", "bike_id": "128d74c1e90c9d1922bc6c0418ea4a43", "fusion_lat": 0.0, "is_reserved": 0, "lat": 38.9285735, "fusion_lon": 0.0, "is_disabled": 0}, {"rental_uris": {"android": "https://dc.lft.to/lastmile_qr_scan", "ios": "https://dc.lft.to/lastmile_qr_scan"}, "type": "electric_scooter", "lon": -77.02344733333334, "name": "fb57089837964fec9796d1fad9205b60", "bike_id": "fb57089837964fec9796d1fad9205b60", "fusion_lat": 0.0, "is_reserved": 0, "lat": 38.92984583333333, "fusion_lon": 0.0, "is_disabled": 0}, {"rental_uris": {"android": "https://dc.lft.to/lastmile_qr_scan", "ios": "https://dc.lft.to/lastmile_qr_scan"}, "type": "electric_scooter", "lon": -77.0502085, "name": "54a15980beb8b9575dc519226b5d6401", "bike_id": "54a15980beb8b9575dc519226b5d6401", "fusion_lat": 0.0, "is_reserved": 0, "lat": 38.900826, "fusion_lon": 0.0, "is_disabled": 0}, {"rental_uris": {"android": "https://dc.lft.to/lastmile_qr_scan", "ios": "https://dc.lft.to/lastmile_qr_scan"}, "type": "electric_scooter", "lon": -77.04894883333333, "name": "d7553abab9427c842a57133d98582d46", "bike_id": "d7553abab9427c842a57133d98582d46", "fusion_lat": 0.0, "is_reserved": 0, "lat": 38.900828833333335, "fusion_lon": 0.0, "is_disabled": 0}, {"rental_uris": {"android": "https://dc.lft.to/lastmile_qr_scan", "ios": "https://dc.lft.to/lastmile_qr_scan"}, "type": "electric_scooter", "lon": -77.06976566666667, "name": "78717031c672f2489fa9149185422aac", "bike_id": "78717031c672f2489fa9149185422aac", "fusion_lat": 0.0, "is_reserved": 0, "lat": 38.952898166666664, "fusion_lon": 0.0, "is_disabled": 0}, {"rental_uris": {"android": "https://dc.lft.to/lastmile_qr_scan", "ios": "https://dc.lft.to/lastmile_qr_scan"}, "type": "electric_bike", "lon": -76.95206916666666, "name": "a37f313111106bf308a1469b291e422a", "bike_id": "a37f313111106bf308a1469b291e422a", "fusion_lat": 0.0, "is_reserved": 0, "lat": 38.936701166666666, "fusion_lon": 0.0, "is_disabled": 0}, {"rental_uris": {"android": "https://dc.lft.to/lastmile_qr_scan", "ios": "https://dc.lft.to/lastmile_qr_scan"}, "type": "electric_scooter", "lon": -77.00130516666667, "name": "116b7e7ab5d670face3a8351e9bf01b1", "bike_id": "116b7e7ab5d670face3a8351e9bf01b1", "fusion_lat": 0.0, "is_reserved": 0, "lat": 38.90402783333333, "fusion_lon": 0.0, "is_disabled": 0}, {"rental_uris": {"android": "https://dc.lft.to/lastmile_qr_scan", "ios": "https://dc.lft.to/lastmile_qr_scan"}, "type": "electric_bike", "lon": -76.99030866666666, "name": "631fa03444455689dbb74b60595b6201", "bike_id": "631fa03444455689dbb74b60595b6201", "fusion_lat": 0.0, "is_reserved": 0, "lat": 38.89812933333333, "fusion_lon": 0.0, "is_disabled": 0}, {"rental_uris": {"android": "https://dc.lft.to/lastmile_qr_scan", "ios": "https://dc.lft.to/lastmile_qr_scan"}, "type": "electric_bike", "lon": -76.964906, "name": "7d2647db204e40b782a7b0c9f6d3de1e", "bike_id": "7d2647db204e40b782a7b0c9f6d3de1e", "fusion_lat": 0.0, "is_reserved": 0, "lat": 38.875493666666664, "fusion_lon": 0.0, "is_disabled": 0}, {"rental_uris": {"android": "https://dc.lft.to/lastmile_qr_scan", "ios": "https://dc.lft.to/lastmile_qr_scan"}, "type": "electric_scooter", "lon": -77.042235, "name": "51dbb9b25c3b76b9aa95feba320f6ec6", "bike_id": "51dbb9b25c3b76b9aa95feba320f6ec6", "fusion_lat": 0.0, "is_reserved": 0, "lat": 38.907210666666664, "fusion_lon": 0.0, "is_disabled": 0}, {"rental_uris": {"android": "https://dc.lft.to/lastmile_qr_scan", "ios": "https://dc.lft.to/lastmile_qr_scan"}, "type": "electric_scooter", "lon": -76.931863, "name": "9ce77672791072733efcce1bb3daf907", "bike_id": "9ce77672791072733efcce1bb3daf907", "fusion_lat": 0.0, "is_reserved": 0, "lat": 38.89875033333333, "fusion_lon": 0.0, "is_disabled": 0}, {"rental_uris": {"android": "https://dc.lft.to/lastmile_qr_scan", "ios": "https://dc.lft.to/lastmile_qr_scan"}, "type": "electric_scooter", "lon": -77.02192316666667, "name": "300fd2f319f5065cedd08728cad9b69d", "bike_id": "300fd2f319f5065cedd08728cad9b69d", "fusion_lat": 0.0, "is_reserved": 0, "lat": 38.885015, "fusion_lon": 0.0, "is_disabled": 0}, {"rental_uris": {"android": "https://dc.lft.to/lastmile_qr_scan", "ios": "https://dc.lft.to/lastmile_qr_scan"}, "type": "electric_scooter", "lon": -77.0197315, "name": "da43f738b792c7b573b473bc3119d6aa", "bike_id": "da43f738b792c7b573b473bc3119d6aa", "fusion_lat": 0.0, "is_reserved": 0, "lat": 38.88377166666667, "fusion_lon": 0.0, "is_disabled": 0}, {"rental_uris": {"android": "https://dc.lft.to/lastmile_qr_scan", "ios": "https://dc.lft.to/lastmile_qr_scan"}, "type": "electric_scooter", "lon": -76.99936266666667, "name": "2bf2c458e1893ae088a4d246917f47f3", "bike_id": "2bf2c458e1893ae088a4d246917f47f3", "fusion_lat": 0.0, "is_reserved": 0, "lat": 38.8961695, "fusion_lon": 0.0, "is_disabled": 0}, {"rental_uris": {"android": "https://dc.lft.to/lastmile_qr_scan", "ios": "https://dc.lft.to/lastmile_qr_scan"}, "type": "electric_scooter", "lon": -76.9958025, "name": "063c44e8c8ea44a037cb5eaa7c13a583", "bike_id": "063c44e8c8ea44a037cb5eaa7c13a583", "fusion_lat": 0.0, "is_reserved": 0, "lat": 38.94945883333333, "fusion_lon": 0.0, "is_disabled": 0}, {"rental_uris": {"android": "https://dc.lft.to/lastmile_qr_scan", "ios": "https://dc.lft.to/lastmile_qr_scan"}, "type": "electric_scooter", "lon": -77.0308235, "name": "c5660d207bc43213998b2bf192ed8aca", "bike_id": "c5660d207bc43213998b2bf192ed8aca", "fusion_lat": 0.0, "is_reserved": 0, "lat": 38.90572366666667, "fusion_lon": 0.0, "is_disabled": 0}, {"rental_uris": {"android": "https://dc.lft.to/lastmile_qr_scan", "ios": "https://dc.lft.to/lastmile_qr_scan"}, "type": "electric_scooter", "lon": -76.99856883333334, "name": "c05ae47e6252db1ab7e078d11ed5879c", "bike_id": "c05ae47e6252db1ab7e078d11ed5879c", "fusion_lat": 0.0, "is_reserved": 0, "lat": 38.9003785, "fusion_lon": 0.0, "is_disabled": 0}, {"rental_uris": {"android": "https://dc.lft.to/lastmile_qr_scan", "ios": "https://dc.lft.to/lastmile_qr_scan"}, "type": "electric_bike", "lon": -77.0668885, "name": "0821eb2312379743e3a06e895205f468", "bike_id": "0821eb2312379743e3a06e895205f468", "fusion_lat": 0.0, "is_reserved": 0, "lat": 38.845557666666664, "fusion_lon": 0.0, "is_disabled": 0}, {"rental_uris": {"android": "https://dc.lft.to/lastmile_qr_scan", "ios": "https://dc.lft.to/lastmile_qr_scan"}, "type": "electric_scooter", "lon": -77.0375045, "name": "b4f59333dad739ea3e8bfe98fa7cab50", "bike_id": "b4f59333dad739ea3e8bfe98fa7cab50", "fusion_lat": 0.0, "is_reserved": 0, "lat": 38.91267233333333, "fusion_lon": 0.0, "is_disabled": 0}, {"rental_uris": {"android": "https://dc.lft.to/lastmile_qr_scan", "ios": "https://dc.lft.to/lastmile_qr_scan"}, "type": "electric_scooter", "lon": -77.07165366666666, "name": "400375e485ccab31e5c1214f371cf682", "bike_id": "400375e485ccab31e5c1214f371cf682", "fusion_lat": 0.0, "is_reserved": 0, "lat": 38.90774716666667, "fusion_lon": 0.0, "is_disabled": 0}, {"rental_uris": {"android": "https://dc.lft.to/lastmile_qr_scan", "ios": "https://dc.lft.to/lastmile_qr_scan"}, "type": "electric_scooter", "lon": -77.04178583333334, "name": "3277594fb1d2497b6ec57d3e9b2bea4a", "bike_id": "3277594fb1d2497b6ec57d3e9b2bea4a", "fusion_lat": 0.0, "is_reserved": 0, "lat": 38.91485383333333, "fusion_lon": 0.0, "is_disabled": 0}, {"rental_uris": {"android": "https://dc.lft.to/lastmile_qr_scan", "ios": "https://dc.lft.to/lastmile_qr_scan"}, "type": "electric_scooter", "lon": -77.0458545, "name": "33bc73424f16d6fd24e41373b73da88d", "bike_id": "33bc73424f16d6fd24e41373b73da88d", "fusion_lat": 0.0, "is_reserved": 0, "lat": 38.92144366666667, "fusion_lon": 0.0, "is_disabled": 0}, {"rental_uris": {"android": "https://dc.lft.to/lastmile_qr_scan", "ios": "https://dc.lft.to/lastmile_qr_scan"}, "type": "electric_scooter", "lon": -77.01737833333334, "name": "2213abcb4c2baccb445b13395b1d5aaf", "bike_id": "2213abcb4c2baccb445b13395b1d5aaf", "fusion_lat": 0.0, "is_reserved": 0, "lat": 38.87690683333334, "fusion_lon": 0.0, "is_disabled": 0}, {"rental_uris": {"android": "https://dc.lft.to/lastmile_qr_scan", "ios": "https://dc.lft.to/lastmile_qr_scan"}, "type": "electric_scooter", "lon": -77.05435083333333, "name": "b27349cf02961fd05513c05652405139", "bike_id": "b27349cf02961fd05513c05652405139", "fusion_lat": 0.0, "is_reserved": 0, "lat": 38.92857866666667, "fusion_lon": 0.0, "is_disabled": 0}, {"rental_uris": {"android": "https://dc.lft.to/lastmile_qr_scan", "ios": "https://dc.lft.to/lastmile_qr_scan"}, "type": "electric_scooter", "lon": -76.99547433333333, "name": "a82afe2479098b14aaf4a5f1c9fbb7b7", "bike_id": "a82afe2479098b14aaf4a5f1c9fbb7b7", "fusion_lat": 0.0, "is_reserved": 0, "lat": 38.884216, "fusion_lon": 0.0, "is_disabled": 0}, {"rental_uris": {"android": "https://dc.lft.to/lastmile_qr_scan", "ios": "https://dc.lft.to/lastmile_qr_scan"}, "type": "electric_scooter", "lon": -77.04477316666667, "name": "31ba1f84be161115156ac8f4d9379a31", "bike_id": "31ba1f84be161115156ac8f4d9379a31", "fusion_lat": 0.0, "is_reserved": 0, "lat": 38.90104566666667, "fusion_lon": 0.0, "is_disabled": 0}, {"rental_uris": {"android": "https://dc.lft.to/lastmile_qr_scan", "ios": "https://dc.lft.to/lastmile_qr_scan"}, "type": "electric_scooter", "lon": -77.01219766666667, "name": "9e79f17f2b5156e1af331e0fc360f27f", "bike_id": "9e79f17f2b5156e1af331e0fc360f27f", "fusion_lat": 0.0, "is_reserved": 0, "lat": 38.91541466666666, "fusion_lon": 0.0, "is_disabled": 0}, {"rental_uris": {"android": "https://dc.lft.to/lastmile_qr_scan", "ios": "https://dc.lft.to/lastmile_qr_scan"}, "type": "electric_scooter", "lon": -77.00046266666666, "name": "8e2507a4beec14fb55cf5e1805ba8c3e", "bike_id": "8e2507a4beec14fb55cf5e1805ba8c3e", "fusion_lat": 0.0, "is_reserved": 0, "lat": 38.900547833333334, "fusion_lon": 0.0, "is_disabled": 0}, {"rental_uris": {"android": "https://dc.lft.to/lastmile_qr_scan", "ios": "https://dc.lft.to/lastmile_qr_scan"}, "type": "electric_scooter", "lon": -77.04674266666666, "name": "d84b2f1d6a89a019f9317db75cbb87bd", "bike_id": "d84b2f1d6a89a019f9317db75cbb87bd", "fusion_lat": 0.0, "is_reserved": 0, "lat": 38.895545, "fusion_lon": 0.0, "is_disabled": 0}, {"rental_uris": {"android": "https://dc.lft.to/lastmile_qr_scan", "ios": "https://dc.lft.to/lastmile_qr_scan"}, "type": "electric_scooter", "lon": -77.03259466666667, "name": "3f940d90ec29b953fda70718c8a64776", "bike_id": "3f940d90ec29b953fda70718c8a64776", "fusion_lat": 0.0, "is_reserved": 0, "lat": 38.936609833333335, "fusion_lon": 0.0, "is_disabled": 0}, {"rental_uris": {"android": "https://dc.lft.to/lastmile_qr_scan", "ios": "https://dc.lft.to/lastmile_qr_scan"}, "type": "electric_scooter", "lon": -77.060186, "name": "0c1b58cf8d12299210f4fc4e180d7577", "bike_id": "0c1b58cf8d12299210f4fc4e180d7577", "fusion_lat": 0.0, "is_reserved": 0, "lat": 38.93909083333333, "fusion_lon": 0.0, "is_disabled": 0}, {"rental_uris": {"android": "https://dc.lft.to/lastmile_qr_scan", "ios": "https://dc.lft.to/lastmile_qr_scan"}, "type": "electric_scooter", "lon": -77.042596, "name": "49e2ff01f8e87f8635ad31cb54d89de3", "bike_id": "49e2ff01f8e87f8635ad31cb54d89de3", "fusion_lat": 0.0, "is_reserved": 0, "lat": 38.90981083333333, "fusion_lon": 0.0, "is_disabled": 0}, {"rental_uris": {"android": "https://dc.lft.to/lastmile_qr_scan", "ios": "https://dc.lft.to/lastmile_qr_scan"}, "type": "electric_bike", "lon": -77.02105583333334, "name": "1986866c9cb778198e82ed4f4e80b13c", "bike_id": "1986866c9cb778198e82ed4f4e80b13c", "fusion_lat": 0.0, "is_reserved": 0, "lat": 39.02300066666667, "fusion_lon": 0.0, "is_disabled": 0}, {"rental_uris": {"android": "https://dc.lft.to/lastmile_qr_scan", "ios": "https://dc.lft.to/lastmile_qr_scan"}, "type": "electric_bike", "lon": -77.12899533333334, "name": "1b07573aae0f2029bd565961fa9f32c4", "bike_id": "1b07573aae0f2029bd565961fa9f32c4", "fusion_lat": 0.0, "is_reserved": 0, "lat": 38.863736333333335, "fusion_lon": 0.0, "is_disabled": 0}, {"rental_uris": {"android": "https://dc.lft.to/lastmile_qr_scan", "ios": "https://dc.lft.to/lastmile_qr_scan"}, "type": "electric_scooter", "lon": -77.02988233333333, "name": "e3b0aa9417cc1c81bb17194f32577162", "bike_id": "e3b0aa9417cc1c81bb17194f32577162", "fusion_lat": 0.0, "is_reserved": 0, "lat": 38.89737216666666, "fusion_lon": 0.0, "is_disabled": 0}, {"rental_uris": {"android": "https://dc.lft.to/lastmile_qr_scan", "ios": "https://dc.lft.to/lastmile_qr_scan"}, "type": "electric_scooter", "lon": -77.00597416666666, "name": "29c38668a02a1711cc39bb7079a772ab", "bike_id": "29c38668a02a1711cc39bb7079a772ab", "fusion_lat": 0.0, "is_reserved": 0, "lat": 38.883785333333336, "fusion_lon": 0.0, "is_disabled": 0}, {"rental_uris": {"android": "https://dc.lft.to/lastmile_qr_scan", "ios": "https://dc.lft.to/lastmile_qr_scan"}, "type": "electric_scooter", "lon": -77.0510035, "name": "7aa79f903a13b2429a2f682b399ac56e", "bike_id": "7aa79f903a13b2429a2f682b399ac56e", "fusion_lat": 0.0, "is_reserved": 0, "lat": 38.905166666666666, "fusion_lon": 0.0, "is_disabled": 0}, {"rental_uris": {"android": "https://dc.lft.to/lastmile_qr_scan", "ios": "https://dc.lft.to/lastmile_qr_scan"}, "type": "electric_scooter", "lon": -77.0743975, "name": "026fd992091379c981d5ddcb72022e76", "bike_id": "026fd992091379c981d5ddcb72022e76", "fusion_lat": 0.0, "is_reserved": 0, "lat": 38.911086, "fusion_lon": 0.0, "is_disabled": 0}, {"rental_uris": {"android": "https://dc.lft.to/lastmile_qr_scan", "ios": "https://dc.lft.to/lastmile_qr_scan"}, "type": "electric_scooter", "lon": -77.02934783333333, "name": "af38bbed1b34a09253a2f4fd1d07f737", "bike_id": "af38bbed1b34a09253a2f4fd1d07f737", "fusion_lat": 0.0, "is_reserved": 0, "lat": 38.9427725, "fusion_lon": 0.0, "is_disabled": 0}, {"rental_uris": {"android": "https://dc.lft.to/lastmile_qr_scan", "ios": "https://dc.lft.to/lastmile_qr_scan"}, "type": "electric_scooter", "lon": -77.005789, "name": "3864ddd08a379065b58f4e73aebdab4e", "bike_id": "3864ddd08a379065b58f4e73aebdab4e", "fusion_lat": 0.0, "is_reserved": 0, "lat": 38.88534283333333, "fusion_lon": 0.0, "is_disabled": 0}, {"rental_uris": {"android": "https://dc.lft.to/lastmile_qr_scan", "ios": "https://dc.lft.to/lastmile_qr_scan"}, "type": "electric_scooter", "lon": -77.04038433333334, "name": "bd59fb4d95f4de1260b2626fcbc0df5d", "bike_id": "bd59fb4d95f4de1260b2626fcbc0df5d", "fusion_lat": 0.0, "is_reserved": 0, "lat": 38.9242315, "fusion_lon": 0.0, "is_disabled": 0}, {"rental_uris": {"android": "https://dc.lft.to/lastmile_qr_scan", "ios": "https://dc.lft.to/lastmile_qr_scan"}, "type": "electric_scooter", "lon": -77.03984483333333, "name": "65c2906344529857b55ccd294c908352", "bike_id": "65c2906344529857b55ccd294c908352", "fusion_lat": 0.0, "is_reserved": 0, "lat": 38.909249833333334, "fusion_lon": 0.0, "is_disabled": 0}, {"rental_uris": {"android": "https://dc.lft.to/lastmile_qr_scan", "ios": "https://dc.lft.to/lastmile_qr_scan"}, "type": "electric_scooter", "lon": -76.9938935, "name": "761dffbb9dd708af0661c638f5024061", "bike_id": "761dffbb9dd708af0661c638f5024061", "fusion_lat": 0.0, "is_reserved": 0, "lat": 38.884490666666665, "fusion_lon": 0.0, "is_disabled": 0}, {"rental_uris": {"android": "https://dc.lft.to/lastmile_qr_scan", "ios": "https://dc.lft.to/lastmile_qr_scan"}, "type": "electric_scooter", "lon": -77.02152033333333, "name": "c0cbd331970c1cffbf3b1cb594987dc7", "bike_id": "c0cbd331970c1cffbf3b1cb594987dc7", "fusion_lat": 0.0, "is_reserved": 0, "lat": 38.896069833333335, "fusion_lon": 0.0, "is_disabled": 0}, {"rental_uris": {"android": "https://dc.lft.to/lastmile_qr_scan", "ios": "https://dc.lft.to/lastmile_qr_scan"}, "type": "electric_bike", "lon": -77.00227683333334, "name": "6e8103b88a3f621ea2bb108a2afe2753", "bike_id": "6e8103b88a3f621ea2bb108a2afe2753", "fusion_lat": 0.0, "is_reserved": 0, "lat": 38.957386166666666, "fusion_lon": 0.0, "is_disabled": 0}, {"rental_uris": {"android": "https://dc.lft.to/lastmile_qr_scan", "ios": "https://dc.lft.to/lastmile_qr_scan"}, "type": "electric_scooter", "lon": -77.0247525, "name": "8e974dc8724d1f34e3f1b4e9ad4e1980", "bike_id": "8e974dc8724d1f34e3f1b4e9ad4e1980", "fusion_lat": 0.0, "is_reserved": 0, "lat": 38.926478, "fusion_lon": 0.0, "is_disabled": 0}, {"rental_uris": {"android": "https://dc.lft.to/lastmile_qr_scan", "ios": "https://dc.lft.to/lastmile_qr_scan"}, "type": "electric_scooter", "lon": -77.01995216666667, "name": "3233898a7fcc27ae455ff162b1bbdd0f", "bike_id": "3233898a7fcc27ae455ff162b1bbdd0f", "fusion_lat": 0.0, "is_reserved": 0, "lat": 38.913295166666664, "fusion_lon": 0.0, "is_disabled": 0}, {"rental_uris": {"android": "https://dc.lft.to/lastmile_qr_scan", "ios": "https://dc.lft.to/lastmile_qr_scan"}, "type": "electric_scooter", "lon": -77.0075765, "name": "9f6f4d709378960fe0061f217e21ad4f", "bike_id": "9f6f4d709378960fe0061f217e21ad4f", "fusion_lat": 0.0, "is_reserved": 0, "lat": 38.876592, "fusion_lon": 0.0, "is_disabled": 0}, {"rental_uris": {"android": "https://dc.lft.to/lastmile_qr_scan", "ios": "https://dc.lft.to/lastmile_qr_scan"}, "type": "electric_scooter", "lon": -77.04335616666667, "name": "2230d5dee3d3eacd2fc86d330662e44d", "bike_id": "2230d5dee3d3eacd2fc86d330662e44d", "fusion_lat": 0.0, "is_reserved": 0, "lat": 38.90336633333333, "fusion_lon": 0.0, "is_disabled": 0}, {"rental_uris": {"android": "https://dc.lft.to/lastmile_qr_scan", "ios": "https://dc.lft.to/lastmile_qr_scan"}, "type": "electric_scooter", "lon": -77.002451, "name": "230518d0e432b63e8bb3dfbebd57d91d", "bike_id": "230518d0e432b63e8bb3dfbebd57d91d", "fusion_lat": 0.0, "is_reserved": 0, "lat": 38.952633666666664, "fusion_lon": 0.0, "is_disabled": 0}, {"rental_uris": {"android": "https://dc.lft.to/lastmile_qr_scan", "ios": "https://dc.lft.to/lastmile_qr_scan"}, "type": "electric_bike", "lon": -77.0895045, "name": "bc6bb0a0d1ca95e42a58e8d6e6b520aa", "bike_id": "bc6bb0a0d1ca95e42a58e8d6e6b520aa", "fusion_lat": 0.0, "is_reserved": 0, "lat": 38.9346045, "fusion_lon": 0.0, "is_disabled": 0}, {"rental_uris": {"android": "https://dc.lft.to/lastmile_qr_scan", "ios": "https://dc.lft.to/lastmile_qr_scan"}, "type": "electric_scooter", "lon": -77.0115935, "name": "0a762b1eb3e10898ae3cf413e789a26e", "bike_id": "0a762b1eb3e10898ae3cf413e789a26e", "fusion_lat": 0.0, "is_reserved": 0, "lat": 38.896196333333336, "fusion_lon": 0.0, "is_disabled": 0}, {"rental_uris": {"android": "https://dc.lft.to/lastmile_qr_scan", "ios": "https://dc.lft.to/lastmile_qr_scan"}, "type": "electric_scooter", "lon": -77.01204666666666, "name": "dd6d0567833225d0ad34ace08191e9e1", "bike_id": "dd6d0567833225d0ad34ace08191e9e1", "fusion_lat": 0.0, "is_reserved": 0, "lat": 38.913085, "fusion_lon": 0.0, "is_disabled": 0}, {"rental_uris": {"android": "https://dc.lft.to/lastmile_qr_scan", "ios": "https://dc.lft.to/lastmile_qr_scan"}, "type": "electric_scooter", "lon": -77.01189666666667, "name": "73659b5f2b32c0e53f7b18b6668a5656", "bike_id": "73659b5f2b32c0e53f7b18b6668a5656", "fusion_lat": 0.0, "is_reserved": 0, "lat": 38.8999995, "fusion_lon": 0.0, "is_disabled": 0}, {"rental_uris": {"android": "https://dc.lft.to/lastmile_qr_scan", "ios": "https://dc.lft.to/lastmile_qr_scan"}, "type": "electric_scooter", "lon": -77.03189616666667, "name": "0b717df7bece097e656cc1cc8f661896", "bike_id": "0b717df7bece097e656cc1cc8f661896", "fusion_lat": 0.0, "is_reserved": 0, "lat": 38.899794166666666, "fusion_lon": 0.0, "is_disabled": 0}, {"rental_uris": {"android": "https://dc.lft.to/lastmile_qr_scan", "ios": "https://dc.lft.to/lastmile_qr_scan"}, "type": "electric_scooter", "lon": -77.0019795, "name": "fc71936208a0ae7a2e799355b9d0e3a8", "bike_id": "fc71936208a0ae7a2e799355b9d0e3a8", "fusion_lat": 0.0, "is_reserved": 0, "lat": 38.9143235, "fusion_lon": 0.0, "is_disabled": 0}, {"rental_uris": {"android": "https://dc.lft.to/lastmile_qr_scan", "ios": "https://dc.lft.to/lastmile_qr_scan"}, "type": "electric_scooter", "lon": -77.03188566666667, "name": "7eec09b5d130e3dd82c134c9a9d09509", "bike_id": "7eec09b5d130e3dd82c134c9a9d09509", "fusion_lat": 0.0, "is_reserved": 0, "lat": 38.90076883333333, "fusion_lon": 0.0, "is_disabled": 0}, {"rental_uris": {"android": "https://dc.lft.to/lastmile_qr_scan", "ios": "https://dc.lft.to/lastmile_qr_scan"}, "type": "electric_scooter", "lon": -77.0447, "name": "0662c162bfbedf3a9b1974ef3a901bc4", "bike_id": "0662c162bfbedf3a9b1974ef3a901bc4", "fusion_lat": 0.0, "is_reserved": 0, "lat": 38.91402683333333, "fusion_lon": 0.0, "is_disabled": 0}, {"rental_uris": {"android": "https://dc.lft.to/lastmile_qr_scan", "ios": "https://dc.lft.to/lastmile_qr_scan"}, "type": "electric_scooter", "lon": -76.94659516666667, "name": "12b0ea61e2f678ab07949e9c91f06750", "bike_id": "12b0ea61e2f678ab07949e9c91f06750", "fusion_lat": 0.0, "is_reserved": 0, "lat": 38.898668666666666, "fusion_lon": 0.0, "is_disabled": 0}, {"rental_uris": {"android": "https://dc.lft.to/lastmile_qr_scan", "ios": "https://dc.lft.to/lastmile_qr_scan"}, "type": "electric_scooter", "lon": -77.0351345, "name": "29c2904dec78c26a35cee5e7627c265d", "bike_id": "29c2904dec78c26a35cee5e7627c265d", "fusion_lat": 0.0, "is_reserved": 0, "lat": 38.92234233333333, "fusion_lon": 0.0, "is_disabled": 0}, {"rental_uris": {"android": "https://dc.lft.to/lastmile_qr_scan", "ios": "https://dc.lft.to/lastmile_qr_scan"}, "type": "electric_scooter", "lon": -76.99777733333333, "name": "01e83d791c0d09349c9d8e88f1d66a08", "bike_id": "01e83d791c0d09349c9d8e88f1d66a08", "fusion_lat": 0.0, "is_reserved": 0, "lat": 38.9229945, "fusion_lon": 0.0, "is_disabled": 0}, {"rental_uris": {"android": "https://dc.lft.to/lastmile_qr_scan", "ios": "https://dc.lft.to/lastmile_qr_scan"}, "type": "electric_scooter", "lon": -77.02165683333334, "name": "dddada97108ec6a59e0a6b4cb8228ab9", "bike_id": "dddada97108ec6a59e0a6b4cb8228ab9", "fusion_lat": 0.0, "is_reserved": 0, "lat": 38.940826333333334, "fusion_lon": 0.0, "is_disabled": 0}, {"rental_uris": {"android": "https://dc.lft.to/lastmile_qr_scan", "ios": "https://dc.lft.to/lastmile_qr_scan"}, "type": "electric_scooter", "lon": -77.04033116666666, "name": "ee2b5e3f0701a88dd981988eec9d3163", "bike_id": "ee2b5e3f0701a88dd981988eec9d3163", "fusion_lat": 0.0, "is_reserved": 0, "lat": 38.923753833333336, "fusion_lon": 0.0, "is_disabled": 0}, {"rental_uris": {"android": "https://dc.lft.to/lastmile_qr_scan", "ios": "https://dc.lft.to/lastmile_qr_scan"}, "type": "electric_scooter", "lon": -77.040781, "name": "749693169d09b9b6d8668e13a0e2da11", "bike_id": "749693169d09b9b6d8668e13a0e2da11", "fusion_lat": 0.0, "is_reserved": 0, "lat": 38.90512016666667, "fusion_lon": 0.0, "is_disabled": 0}, {"rental_uris": {"android": "https://dc.lft.to/lastmile_qr_scan", "ios": "https://dc.lft.to/lastmile_qr_scan"}, "type": "electric_scooter", "lon": -77.034073, "name": "ce1e83588487b602c353a6654a612602", "bike_id": "ce1e83588487b602c353a6654a612602", "fusion_lat": 0.0, "is_reserved": 0, "lat": 38.9097675, "fusion_lon": 0.0, "is_disabled": 0}, {"rental_uris": {"android": "https://dc.lft.to/lastmile_qr_scan", "ios": "https://dc.lft.to/lastmile_qr_scan"}, "type": "electric_scooter", "lon": -76.99334966666666, "name": "cb5f27fe788d708697bba69c3de3179c", "bike_id": "cb5f27fe788d708697bba69c3de3179c", "fusion_lat": 0.0, "is_reserved": 0, "lat": 38.8765965, "fusion_lon": 0.0, "is_disabled": 0}, {"rental_uris": {"android": "https://dc.lft.to/lastmile_qr_scan", "ios": "https://dc.lft.to/lastmile_qr_scan"}, "type": "electric_scooter", "lon": -76.98361116666666, "name": "acdbb1092a9eadb32c1084cf62e3ffdf", "bike_id": "acdbb1092a9eadb32c1084cf62e3ffdf", "fusion_lat": 0.0, "is_reserved": 0, "lat": 38.8647525, "fusion_lon": 0.0, "is_disabled": 0}, {"rental_uris": {"android": "https://dc.lft.to/lastmile_qr_scan", "ios": "https://dc.lft.to/lastmile_qr_scan"}, "type": "electric_scooter", "lon": -77.03660483333333, "name": "0d775766c2d52fea8e26c016fb876150", "bike_id": "0d775766c2d52fea8e26c016fb876150", "fusion_lat": 0.0, "is_reserved": 0, "lat": 38.916304, "fusion_lon": 0.0, "is_disabled": 0}, {"rental_uris": {"android": "https://dc.lft.to/lastmile_qr_scan", "ios": "https://dc.lft.to/lastmile_qr_scan"},