{"data": {"bikes": [{"bike_id": "156b729084e489f211b1f025f8b4175e", "fusion_lon": 0.0, "lon": -77.05528783333334, "name": "156b729084e489f211b1f025f8b4175e", "is_disabled": 0, "rental_uris": {"android": "https://dc.lft.to/lastmile_qr_scan", "ios": "https://dc.lft.to/lastmile_qr_scan"}, "type": "electric_scooter", "lat": 38.93014733333333, "is_reserved": 0, "fusion_lat": 0.0}, {"bike_id": "791d898d5c48cb7bde253b7d57a9432b", "fusion_lon": 0.0, "lon": -77.038443, "name": "791d898d5c48cb7bde253b7d57a9432b", "is_disabled": 0, "rental_uris": {"android": "https://dc.lft.to/lastmile_qr_scan", "ios": "https://dc.lft.to/lastmile_qr_scan"}, "type": "electric_scooter", "lat": 38.91547516666667, "is_reserved": 0, "fusion_lat": 0.0}, {"bike_id": "fd905ee3446b5a7ef01fad484ee5e0f5", "fusion_lon": 0.0, "lon": -77.02719433333333, "name": "fd905ee3446b5a7ef01fad484ee5e0f5", "is_disabled": 0, "rental_uris": {"android": "https://dc.lft.to/lastmile_qr_scan", "ios": "https://dc.lft.to/lastmile_qr_scan"}, "type": "electric_scooter", "lat": 38.949637333333335, "is_reserved": 0, "fusion_lat": 0.0}, {"bike_id": "8933dfc76ab60b6a58c9aaaee162939a", "fusion_lon": 0.0, "lon": -77.01866833333334, "name": "8933dfc76ab60b6a58c9aaaee162939a", "is_disabled": 0, "rental_uris": {"android": "https://dc.lft.to/lastmile_qr_scan", "ios": "https://dc.lft.to/lastmile_qr_scan"}, "type": "electric_scooter", "lat": 38.97366866666667, "is_reserved": 0, "fusion_lat": 0.0}, {"bike_id": "d1a7dc90acd845120f41aff74988bd9e", "fusion_lon": 0.0, "lon": -77.03434766666666, "name": "d1a7dc90acd845120f41aff74988bd9e", "is_disabled": 0, "rental_uris": {"android": "https://dc.lft.to/lastmile_qr_scan", "ios": "https://dc.lft.to/lastmile_qr_scan"}, "type": "electric_scooter", "lat": 38.904027, "is_reserved": 0, "fusion_lat": 0.0}, {"bike_id": "ea8933507c490707488f15d0ab6ef443", "fusion_lon": 0.0, "lon": -77.05855816666667, "name": "ea8933507c490707488f15d0ab6ef443", "is_disabled": 0, "rental_uris": {"android": "https://dc.lft.to/lastmile_qr_scan", "ios": "https://dc.lft.to/lastmile_qr_scan"}, "type": "electric_scooter", "lat": 38.9360955, "is_reserved": 0, "fusion_lat": 0.0}, {"bike_id": "469464f67e4308b6aae3ad6b3493931f", "fusion_lon": 0.0, "lon": -77.02929783333333, "name": "469464f67e4308b6aae3ad6b3493931f", "is_disabled": 0, "rental_uris": {"android": "https://dc.lft.to/lastmile_qr_scan", "ios": "https://dc.lft.to/lastmile_qr_scan"}, "type": "electric_scooter", "lat": 38.905224833333335, "is_reserved": 0, "fusion_lat": 0.0}, {"bike_id": "206e145886cc9d8521c4132870c32877", "fusion_lon": 0.0, "lon": -77.045947, "name": "206e145886cc9d8521c4132870c32877", "is_disabled": 0, "rental_uris": {"android": "https://dc.lft.to/lastmile_qr_scan", "ios": "https://dc.lft.to/lastmile_qr_scan"}, "type": "electric_scooter", "lat": 38.91915383333333, "is_reserved": 0, "fusion_lat": 0.0}, {"bike_id": "e73c5dfd1ed285ff17953c0f96b13fa5", "fusion_lon": 0.0, "lon": -77.01479683333334, "name": "e73c5dfd1ed285ff17953c0f96b13fa5", "is_disabled": 0, "rental_uris": {"android": "https://dc.lft.to/lastmile_qr_scan", "ios": "https://dc.lft.to/lastmile_qr_scan"}, "type": "electric_scooter", "lat": 38.9177755, "is_reserved": 0, "fusion_lat": 0.0}, {"bike_id": "ce0ff21aaf0fb418a6c3c694d3162fb8", "fusion_lon": 0.0, "lon": -77.02718183333333, "name": "ce0ff21aaf0fb418a6c3c694d3162fb8", "is_disabled": 0, "rental_uris": {"android": "https://dc.lft.to/lastmile_qr_scan", "ios": "https://dc.lft.to/lastmile_qr_scan"}, "type": "electric_scooter", "lat": 38.91567, "is_reserved": 0, "fusion_lat": 0.0}, {"bike_id": "8b5ef5aa210ab35259ce4b72bdd3442c", "fusion_lon": 0.0, "lon": -76.99348383333333, "name": "8b5ef5aa210ab35259ce4b72bdd3442c", "is_disabled": 0, "rental_uris": {"android": "https://dc.lft.to/lastmile_qr_scan", "ios": "https://dc.lft.to/lastmile_qr_scan"}, "type": "electric_scooter", "lat": 38.914839, "is_reserved": 0, "fusion_lat": 0.0}, {"bike_id": "a50b37dd307d7e9ce4e1c86892acf1f4", "fusion_lon": 0.0, "lon": -77.04143683333334, "name": "a50b37dd307d7e9ce4e1c86892acf1f4", "is_disabled": 0, "rental_uris": {"android": "https://dc.lft.to/lastmile_qr_scan", "ios": "https://dc.lft.to/lastmile_qr_scan"}, "type": "electric_scooter", "lat": 38.92300216666667, "is_reserved": 0, "fusion_lat": 0.0}, {"bike_id": "c45fd45531701d3b2378edcbb4936bf1", "fusion_lon": 0.0, "lon": -77.04321833333333, "name": "c45fd45531701d3b2378edcbb4936bf1", "is_disabled": 0, "rental_uris": {"android": "https://dc.lft.to/lastmile_qr_scan", "ios": "https://dc.lft.to/lastmile_qr_scan"}, "type": "electric_scooter", "lat": 38.903699333333336, "is_reserved": 0, "fusion_lat": 0.0}, {"bike_id": "d86a05fed99d72e3583442574aeec8ff", "fusion_lon": 0.0, "lon": -77.03831233333334, "name": "d86a05fed99d72e3583442574aeec8ff", "is_disabled": 0, "rental_uris": {"android": "https://dc.lft.to/lastmile_qr_scan", "ios": "https://dc.lft.to/lastmile_qr_scan"}, "type": "electric_scooter", "lat": 38.90658966666667, "is_reserved": 0, "fusion_lat": 0.0}, {"bike_id": "ba5d1cbe60a8cba32f77710521c13ca9", "fusion_lon": 0.0, "lon": -77.01593016666666, "name": "ba5d1cbe60a8cba32f77710521c13ca9", "is_disabled": 0, "rental_uris": {"android": "https://dc.lft.to/lastmile_qr_scan", "ios": "https://dc.lft.to/lastmile_qr_scan"}, "type": "electric_scooter", "lat": 38.949391, "is_reserved": 0, "fusion_lat": 0.0}, {"bike_id": "e933efceca31133e50a2134c9e5a0c0f", "fusion_lon": 0.0, "lon": -77.02421033333333, "name": "e933efceca31133e50a2134c9e5a0c0f", "is_disabled": 0, "rental_uris": {"android": "https://dc.lft.to/lastmile_qr_scan", "ios": "https://dc.lft.to/lastmile_qr_scan"}, "type": "electric_scooter", "lat": 38.9371255, "is_reserved": 0, "fusion_lat": 0.0}, {"bike_id": "8ec0bed0860f9089b0270b40d2c8d443", "fusion_lon": 0.0, "lon": -76.981063, "name": "8ec0bed0860f9089b0270b40d2c8d443", "is_disabled": 0, "rental_uris": {"android": "https://dc.lft.to/lastmile_qr_scan", "ios": "https://dc.lft.to/lastmile_qr_scan"}, "type": "electric_bike", "lat": 38.877307333333334, "is_reserved": 0, "fusion_lat": 0.0}, {"bike_id": "4f8acfca8e70489447071038599b3b45", "fusion_lon": 0.0, "lon": -76.99945066666666, "name": "4f8acfca8e70489447071038599b3b45", "is_disabled": 0, "rental_uris": {"android": "https://dc.lft.to/lastmile_qr_scan", "ios": "https://dc.lft.to/lastmile_qr_scan"}, "type": "electric_scooter", "lat": 38.8429865, "is_reserved": 0, "fusion_lat": 0.0}, {"bike_id": "1da7d77c2f6af0d8ad92a27a2315bca3", "fusion_lon": 0.0, "lon": -77.05699633333333, "name": "1da7d77c2f6af0d8ad92a27a2315bca3", "is_disabled": 0, "rental_uris": {"android": "https://dc.lft.to/lastmile_qr_scan", "ios": "https://dc.lft.to/lastmile_qr_scan"}, "type": "electric_scooter", "lat": 38.906965166666666, "is_reserved": 0, "fusion_lat": 0.0}, {"bike_id": "fbc11694577a61e2296307bbfe8bd467", "fusion_lon": 0.0, "lon": -77.034313, "name": "fbc11694577a61e2296307bbfe8bd467", "is_disabled": 0, "rental_uris": {"android": "https://dc.lft.to/lastmile_qr_scan", "ios": "https://dc.lft.to/lastmile_qr_scan"}, "type": "electric_scooter", "lat": 38.904357833333336, "is_reserved": 0, "fusion_lat": 0.0}, {"bike_id": "8bd0220671fbe68a608a2f47474eac03", "fusion_lon": 0.0, "lon": -77.03252216666667, "name": "8bd0220671fbe68a608a2f47474eac03", "is_disabled": 0, "rental_uris": {"android": "https://dc.lft.to/lastmile_qr_scan", "ios": "https://dc.lft.to/lastmile_qr_scan"}, "type": "electric_scooter", "lat": 38.9140275, "is_reserved": 0, "fusion_lat": 0.0}, {"bike_id": "66c68f69812d49a2eee4d224c71d2777", "fusion_lon": 0.0, "lon": -77.0033035, "name": "66c68f69812d49a2eee4d224c71d2777", "is_disabled": 0, "rental_uris": {"android": "https://dc.lft.to/lastmile_qr_scan", "ios": "https://dc.lft.to/lastmile_qr_scan"}, "type": "electric_scooter", "lat": 38.9026405, "is_reserved": 0, "fusion_lat": 0.0}, {"bike_id": "5b45d6c04adc7bfcf7d6b5b4d03e0ef7", "fusion_lon": 0.0, "lon": -77.041904, "name": "5b45d6c04adc7bfcf7d6b5b4d03e0ef7", "is_disabled": 0, "rental_uris": {"android": "https://dc.lft.to/lastmile_qr_scan", "ios": "https://dc.lft.to/lastmile_qr_scan"}, "type": "electric_scooter", "lat": 38.926264833333335, "is_reserved": 0, "fusion_lat": 0.0}, {"bike_id": "ed6169a87b008620fa87cec95752f23c", "fusion_lon": 0.0, "lon": -76.98111216666666, "name": "ed6169a87b008620fa87cec95752f23c", "is_disabled": 0, "rental_uris": {"android": "https://dc.lft.to/lastmile_qr_scan", "ios": "https://dc.lft.to/lastmile_qr_scan"}, "type": "electric_bike", "lat": 38.91474016666667, "is_reserved": 0, "fusion_lat": 0.0}, {"bike_id": "3702bf2ead47866ae4a820e14fe30ddc", "fusion_lon": 0.0, "lon": -77.0200645, "name": "3702bf2ead47866ae4a820e14fe30ddc", "is_disabled": 0, "rental_uris": {"android": "https://dc.lft.to/lastmile_qr_scan", "ios": "https://dc.lft.to/lastmile_qr_scan"}, "type": "electric_scooter", "lat": 38.91314083333333, "is_reserved": 0, "fusion_lat": 0.0}, {"bike_id": "589e48e9d70e9aee431947e5bb1eb598", "fusion_lon": 0.0, "lon": -77.02184616666666, "name": "589e48e9d70e9aee431947e5bb1eb598", "is_disabled": 0, "rental_uris": {"android": "https://dc.lft.to/lastmile_qr_scan", "ios": "https://dc.lft.to/lastmile_qr_scan"}, "type": "electric_scooter", "lat": 38.911462, "is_reserved": 0, "fusion_lat": 0.0}, {"bike_id": "3fe1ae7a01dd808fbdb1686dd14df17a", "fusion_lon": 0.0, "lon": -76.99408533333333, "name": "3fe1ae7a01dd808fbdb1686dd14df17a", "is_disabled": 0, "rental_uris": {"android": "https://dc.lft.to/lastmile_qr_scan", "ios": "https://dc.lft.to/lastmile_qr_scan"}, "type": "electric_scooter", "lat": 38.877851666666665, "is_reserved": 0, "fusion_lat": 0.0}, {"bike_id": "f4ce2b7390a9b55929ef9b23ad78d7f5", "fusion_lon": 0.0, "lon": -77.04548183333333, "name": "f4ce2b7390a9b55929ef9b23ad78d7f5", "is_disabled": 0, "rental_uris": {"android": "https://dc.lft.to/lastmile_qr_scan", "ios": "https://dc.lft.to/lastmile_qr_scan"}, "type": "electric_bike", "lat": 38.90227383333333, "is_reserved": 0, "fusion_lat": 0.0}, {"bike_id": "ad67c0b76efb6771c63d45ab92b3c6a8", "fusion_lon": 0.0, "lon": -77.04842533333333, "name": "ad67c0b76efb6771c63d45ab92b3c6a8", "is_disabled": 0, "rental_uris": {"android": "https://dc.lft.to/lastmile_qr_scan", "ios": "https://dc.lft.to/lastmile_qr_scan"}, "type": "electric_scooter", "lat": 38.9006735, "is_reserved": 0, "fusion_lat": 0.0}, {"bike_id": "539fc726263623d900758067c769c763", "fusion_lon": 0.0, "lon": -77.05412933333334, "name": "539fc726263623d900758067c769c763", "is_disabled": 0, "rental_uris": {"android": "https://dc.lft.to/lastmile_qr_scan", "ios": "https://dc.lft.to/lastmile_qr_scan"}, "type": "electric_scooter", "lat": 38.902398, "is_reserved": 0, "fusion_lat": 0.0}, {"bike_id": "1fcabb4001c0da19ce3d90e8f818fabe", "fusion_lon": 0.0, "lon": -77.032325, "name": "1fcabb4001c0da19ce3d90e8f818fabe", "is_disabled": 0, "rental_uris": {"android": "https://dc.lft.to/lastmile_qr_scan", "ios": "https://dc.lft.to/lastmile_qr_scan"}, "type": "electric_scooter", "lat": 38.91408166666667, "is_reserved": 0, "fusion_lat": 0.0}, {"bike_id": "edcb6b7ddbe65269a95a524dd719872f", "fusion_lon": 0.0, "lon": -77.0237355, "name": "edcb6b7ddbe65269a95a524dd719872f", "is_disabled": 0, "rental_uris": {"android": "https://dc.lft.to/lastmile_qr_scan", "ios": "https://dc.lft.to/lastmile_qr_scan"}, "type": "electric_scooter", "lat": 38.89717266666667, "is_reserved": 0, "fusion_lat": 0.0}, {"bike_id": "db751dffef49fc8f58fcbbca474510cb", "fusion_lon": 0.0, "lon": -77.03112916666667, "name": "db751dffef49fc8f58fcbbca474510cb", "is_disabled": 0, "rental_uris": {"android": "https://dc.lft.to/lastmile_qr_scan", "ios": "https://dc.lft.to/lastmile_qr_scan"}, "type": "electric_scooter", "lat": 38.9170675, "is_reserved": 0, "fusion_lat": 0.0}, {"bike_id": "c2367ca10f1340043f9e5ef0cc0fbd0f", "fusion_lon": 0.0, "lon": -77.03348033333333, "name": "c2367ca10f1340043f9e5ef0cc0fbd0f", "is_disabled": 0, "rental_uris": {"android": "https://dc.lft.to/lastmile_qr_scan", "ios": "https://dc.lft.to/lastmile_qr_scan"}, "type": "electric_scooter", "lat": 38.89827366666667, "is_reserved": 0, "fusion_lat": 0.0}, {"bike_id": "05508cc631060f15fe854d9e9fcf3fbc", "fusion_lon": 0.0, "lon": -76.9116215, "name": "05508cc631060f15fe854d9e9fcf3fbc", "is_disabled": 0, "rental_uris": {"android": "https://dc.lft.to/lastmile_qr_scan", "ios": "https://dc.lft.to/lastmile_qr_scan"}, "type": "electric_scooter", "lat": 38.89427, "is_reserved": 0, "fusion_lat": 0.0}, {"bike_id": "00249053c0f724ddef26bf5ead334cd9", "fusion_lon": 0.0, "lon": -77.03230633333334, "name": "00249053c0f724ddef26bf5ead334cd9", "is_disabled": 0, "rental_uris": {"android": "https://dc.lft.to/lastmile_qr_scan", "ios": "https://dc.lft.to/lastmile_qr_scan"}, "type": "electric_scooter", "lat": 38.927606833333336, "is_reserved": 0, "fusion_lat": 0.0}, {"bike_id": "876a5f3aaa7ef98074d2b5d71ce0f65a", "fusion_lon": 0.0, "lon": -77.03239183333334, "name": "876a5f3aaa7ef98074d2b5d71ce0f65a", "is_disabled": 0, "rental_uris": {"android": "https://dc.lft.to/lastmile_qr_scan", "ios": "https://dc.lft.to/lastmile_qr_scan"}, "type": "electric_scooter", "lat": 38.91927666666667, "is_reserved": 0, "fusion_lat": 0.0}, {"bike_id": "f1d8178194786a842dd01b5d9fb5bf12", "fusion_lon": 0.0, "lon": -76.98712416666666, "name": "f1d8178194786a842dd01b5d9fb5bf12", "is_disabled": 0, "rental_uris": {"android": "https://dc.lft.to/lastmile_qr_scan", "ios": "https://dc.lft.to/lastmile_qr_scan"}, "type": "electric_scooter", "lat": 38.8669665, "is_reserved": 0, "fusion_lat": 0.0}, {"bike_id": "3420c5e5ff18b3d8806b6e9ad76a2946", "fusion_lon": 0.0, "lon": -77.01458033333333, "name": "3420c5e5ff18b3d8806b6e9ad76a2946", "is_disabled": 0, "rental_uris": {"android": "https://dc.lft.to/lastmile_qr_scan", "ios": "https://dc.lft.to/lastmile_qr_scan"}, "type": "electric_scooter", "lat": 38.918234, "is_reserved": 0, "fusion_lat": 0.0}, {"bike_id": "468791792fd545e6d17cf69ee3264c84", "fusion_lon": 0.0, "lon": -77.02092566666667, "name": "468791792fd545e6d17cf69ee3264c84", "is_disabled": 0, "rental_uris": {"android": "https://dc.lft.to/lastmile_qr_scan", "ios": "https://dc.lft.to/lastmile_qr_scan"}, "type": "electric_scooter", "lat": 38.93116783333333, "is_reserved": 0, "fusion_lat": 0.0}, {"bike_id": "6c1431d273e6a111634d3c15b9292a56", "fusion_lon": 0.0, "lon": -77.03908633333333, "name": "6c1431d273e6a111634d3c15b9292a56", "is_disabled": 0, "rental_uris": {"android": "https://dc.lft.to/lastmile_qr_scan", "ios": "https://dc.lft.to/lastmile_qr_scan"}, "type": "electric_scooter", "lat": 38.92473183333333, "is_reserved": 0, "fusion_lat": 0.0}, {"bike_id": "61a382eb1ff17a46a74475f497f42dbb", "fusion_lon": 0.0, "lon": -76.99897716666666, "name": "61a382eb1ff17a46a74475f497f42dbb", "is_disabled": 0, "rental_uris": {"android": "https://dc.lft.to/lastmile_qr_scan", "ios": "https://dc.lft.to/lastmile_qr_scan"}, "type": "electric_scooter", "lat": 38.9468985, "is_reserved": 0, "fusion_lat": 0.0}, {"bike_id": "d537136e170b6a8cb98554e0c29d7740", "fusion_lon": 0.0, "lon": -77.0269195, "name": "d537136e170b6a8cb98554e0c29d7740", "is_disabled": 0, "rental_uris": {"android": "https://dc.lft.to/lastmile_qr_scan", "ios": "https://dc.lft.to/lastmile_qr_scan"}, "type": "electric_scooter", "lat": 38.90668216666667, "is_reserved": 0, "fusion_lat": 0.0}, {"bike_id": "740eb8a3570b88d83cabe3acdc9272ce", "fusion_lon": 0.0, "lon": -77.077228, "name": "740eb8a3570b88d83cabe3acdc9272ce", "is_disabled": 0, "rental_uris": {"android": "https://dc.lft.to/lastmile_qr_scan", "ios": "https://dc.lft.to/lastmile_qr_scan"}, "type": "electric_scooter", "lat": 38.95766783333333, "is_reserved": 0, "fusion_lat": 0.0}, {"bike_id": "d941c2715ae48d548ec4242e6c6b52d4", "fusion_lon": 0.0, "lon": -77.02346583333333, "name": "d941c2715ae48d548ec4242e6c6b52d4", "is_disabled": 0, "rental_uris": {"android": "https://dc.lft.to/lastmile_qr_scan", "ios": "https://dc.lft.to/lastmile_qr_scan"}, "type": "electric_scooter", "lat": 38.94612333333333, "is_reserved": 0, "fusion_lat": 0.0}, {"bike_id": "c27915dedcf793f7aab1ad0df32966c2", "fusion_lon": 0.0, "lon": -76.98835116666666, "name": "c27915dedcf793f7aab1ad0df32966c2", "is_disabled": 0, "rental_uris": {"android": "https://dc.lft.to/lastmile_qr_scan", "ios": "https://dc.lft.to/lastmile_qr_scan"}, "type": "electric_scooter", "lat": 38.89253133333333, "is_reserved": 0, "fusion_lat": 0.0}, {"bike_id": "40b6463841301be123412f0af1d13398", "fusion_lon": 0.0, "lon": -77.03258966666667, "name": "40b6463841301be123412f0af1d13398", "is_disabled": 0, "rental_uris": {"android": "https://dc.lft.to/lastmile_qr_scan", "ios": "https://dc.lft.to/lastmile_qr_scan"}, "type": "electric_scooter", "lat": 38.9140625, "is_reserved": 0, "fusion_lat": 0.0}, {"bike_id": "5643d50fbabf5f4cb27710db4809bd2c", "fusion_lon": 0.0, "lon": -77.02515366666667, "name": "5643d50fbabf5f4cb27710db4809bd2c", "is_disabled": 0, "rental_uris": {"android": "https://dc.lft.to/lastmile_qr_scan", "ios": "https://dc.lft.to/lastmile_qr_scan"}, "type": "electric_scooter", "lat": 38.904294, "is_reserved": 0, "fusion_lat": 0.0}, {"bike_id": "23cdf64bced094f282e0203f7885ca52", "fusion_lon": 0.0, "lon": -77.044915, "name": "23cdf64bced094f282e0203f7885ca52", "is_disabled": 0, "rental_uris": {"android": "https://dc.lft.to/lastmile_qr_scan", "ios": "https://dc.lft.to/lastmile_qr_scan"}, "type": "electric_scooter", "lat": 38.90378533333333, "is_reserved": 0, "fusion_lat": 0.0}, {"bike_id": "09ce0675fa30f47bb3e6623d9ca3d6cd", "fusion_lon": 0.0, "lon": -77.03454583333334, "name": "09ce0675fa30f47bb3e6623d9ca3d6cd", "is_disabled": 0, "rental_uris": {"android": "https://dc.lft.to/lastmile_qr_scan", "ios": "https://dc.lft.to/lastmile_qr_scan"}, "type": "electric_scooter", "lat": 38.9375105, "is_reserved": 0, "fusion_lat": 0.0}, {"bike_id": "68855f3579d656bd7b88ffc070990920", "fusion_lon": 0.0, "lon": -77.02980283333333, "name": "68855f3579d656bd7b88ffc070990920", "is_disabled": 0, "rental_uris": {"android": "https://dc.lft.to/lastmile_qr_scan", "ios": "https://dc.lft.to/lastmile_qr_scan"}, "type": "electric_scooter", "lat": 38.9074365, "is_reserved": 0, "fusion_lat": 0.0}, {"bike_id": "ec6b68c099f4ab50e68b01a8628ee0fb", "fusion_lon": 0.0, "lon": -77.00727216666667, "name": "ec6b68c099f4ab50e68b01a8628ee0fb", "is_disabled": 0, "rental_uris": {"android": "https://dc.lft.to/lastmile_qr_scan", "ios": "https://dc.lft.to/lastmile_qr_scan"}, "type": "electric_scooter", "lat": 38.88492133333333, "is_reserved": 0, "fusion_lat": 0.0}, {"bike_id": "1342eb6fba1bae065434f672a129a6aa", "fusion_lon": 0.0, "lon": -76.9905205, "name": "1342eb6fba1bae065434f672a129a6aa", "is_disabled": 0, "rental_uris": {"android": "https://dc.lft.to/lastmile_qr_scan", "ios": "https://dc.lft.to/lastmile_qr_scan"}, "type": "electric_scooter", "lat": 38.86362783333333, "is_reserved": 0, "fusion_lat": 0.0}, {"bike_id": "555f705b227b5e90f4e5708edf843895", "fusion_lon": 0.0, "lon": -77.03070033333333, "name": "555f705b227b5e90f4e5708edf843895", "is_disabled": 0, "rental_uris": {"android": "https://dc.lft.to/lastmile_qr_scan", "ios": "https://dc.lft.to/lastmile_qr_scan"}, "type": "electric_scooter", "lat": 38.885974, "is_reserved": 0, "fusion_lat": 0.0}, {"bike_id": "c3b1dcaf529729df8e318c2d7e20716e", "fusion_lon": 0.0, "lon": -77.02610916666667, "name": "c3b1dcaf529729df8e318c2d7e20716e", "is_disabled": 0, "rental_uris": {"android": "https://dc.lft.to/lastmile_qr_scan", "ios": "https://dc.lft.to/lastmile_qr_scan"}, "type": "electric_scooter", "lat": 38.90343633333333, "is_reserved": 0, "fusion_lat": 0.0}, {"bike_id": "380213f5d7980ec5b82421b2837a25b9", "fusion_lon": 0.0, "lon": -77.02209716666667, "name": "380213f5d7980ec5b82421b2837a25b9", "is_disabled": 0, "rental_uris": {"android": "https://dc.lft.to/lastmile_qr_scan", "ios": "https://dc.lft.to/lastmile_qr_scan"}, "type": "electric_scooter", "lat": 38.902178666666664, "is_reserved": 0, "fusion_lat": 0.0}, {"bike_id": "4bcdeb3ab49c1b93d93889c91e8eded6", "fusion_lon": 0.0, "lon": -77.044658, "name": "4bcdeb3ab49c1b93d93889c91e8eded6", "is_disabled": 0, "rental_uris": {"android": "https://dc.lft.to/lastmile_qr_scan", "ios": "https://dc.lft.to/lastmile_qr_scan"}, "type": "electric_scooter", "lat": 38.911151333333336, "is_reserved": 0, "fusion_lat": 0.0}, {"bike_id": "ca3592b4da56a6aa738b81623d497b79", "fusion_lon": 0.0, "lon": -76.98580166666666, "name": "ca3592b4da56a6aa738b81623d497b79", "is_disabled": 0, "rental_uris": {"android": "https://dc.lft.to/lastmile_qr_scan", "ios": "https://dc.lft.to/lastmile_qr_scan"}, "type": "electric_bike", "lat": 38.912821, "is_reserved": 0, "fusion_lat": 0.0}, {"bike_id": "060e71e1cc3291271dcf04b2f0857c84", "fusion_lon": 0.0, "lon": -77.0414545, "name": "060e71e1cc3291271dcf04b2f0857c84", "is_disabled": 0, "rental_uris": {"android": "https://dc.lft.to/lastmile_qr_scan", "ios": "https://dc.lft.to/lastmile_qr_scan"}, "type": "electric_scooter", "lat": 38.915541833333336, "is_reserved": 0, "fusion_lat": 0.0}, {"bike_id": "9584f103b8f6622352469883d71094e4", "fusion_lon": 0.0, "lon": -76.89539983333333, "name": "9584f103b8f6622352469883d71094e4", "is_disabled": 0, "rental_uris": {"android": "https://dc.lft.to/lastmile_qr_scan", "ios": "https://dc.lft.to/lastmile_qr_scan"}, "type": "electric_bike", "lat": 38.94550566666667, "is_reserved": 0, "fusion_lat": 0.0}, {"bike_id": "63e6a3cc9d3d545a5f3c2eb918466f34", "fusion_lon": 0.0, "lon": -77.0185005, "name": "63e6a3cc9d3d545a5f3c2eb918466f34", "is_disabled": 0, "rental_uris": {"android": "https://dc.lft.to/lastmile_qr_scan", "ios": "https://dc.lft.to/lastmile_qr_scan"}, "type": "electric_scooter", "lat": 38.90266183333333, "is_reserved": 0, "fusion_lat": 0.0}, {"bike_id": "4740b04036d9e89ca5ea54aff6d8d9c2", "fusion_lon": 0.0, "lon": -77.03255916666667, "name": "4740b04036d9e89ca5ea54aff6d8d9c2", "is_disabled": 0, "rental_uris": {"android": "https://dc.lft.to/lastmile_qr_scan", "ios": "https://dc.lft.to/lastmile_qr_scan"}, "type": "electric_scooter", "lat": 38.93972333333333, "is_reserved": 0, "fusion_lat": 0.0}, {"bike_id": "0b13f3a9bca0e30baafcde4cdfcda2d9", "fusion_lon": 0.0, "lon": -77.0229145, "name": "0b13f3a9bca0e30baafcde4cdfcda2d9", "is_disabled": 0, "rental_uris": {"android": "https://dc.lft.to/lastmile_qr_scan", "ios": "https://dc.lft.to/lastmile_qr_scan"}, "type": "electric_scooter", "lat": 38.890616666666666, "is_reserved": 0, "fusion_lat": 0.0}, {"bike_id": "090a45e05090b8dd9934530ddf1888c5", "fusion_lon": 0.0, "lon": -77.03310933333333, "name": "090a45e05090b8dd9934530ddf1888c5", "is_disabled": 0, "rental_uris": {"android": "https://dc.lft.to/lastmile_qr_scan", "ios": "https://dc.lft.to/lastmile_qr_scan"}, "type": "electric_scooter", "lat": 38.918117333333335, "is_reserved": 0, "fusion_lat": 0.0}, {"bike_id": "8e7730142eab251d994999d592c21bee", "fusion_lon": 0.0, "lon": -77.04139683333334, "name": "8e7730142eab251d994999d592c21bee", "is_disabled": 0, "rental_uris": {"android": "https://dc.lft.to/lastmile_qr_scan", "ios": "https://dc.lft.to/lastmile_qr_scan"}, "type": "electric_scooter", "lat": 38.8934985, "is_reserved": 0, "fusion_lat": 0.0}, {"bike_id": "0d5759696ccaf4d898c1309d8bca5878", "fusion_lon": 0.0, "lon": -77.01679516666667, "name": "0d5759696ccaf4d898c1309d8bca5878", "is_disabled": 0, "rental_uris": {"android": "https://dc.lft.to/lastmile_qr_scan", "ios": "https://dc.lft.to/lastmile_qr_scan"}, "type": "electric_scooter", "lat": 38.881086, "is_reserved": 0, "fusion_lat": 0.0}, {"bike_id": "945e54fef706c598955f60d5e3ef827b", "fusion_lon": 0.0, "lon": -77.0335165, "name": "945e54fef706c598955f60d5e3ef827b", "is_disabled": 0, "rental_uris": {"android": "https://dc.lft.to/lastmile_qr_scan", "ios": "https://dc.lft.to/lastmile_qr_scan"}, "type": "electric_scooter", "lat": 38.89996766666667, "is_reserved": 0, "fusion_lat": 0.0}, {"bike_id": "e805849db0e1357552ea0e4add6bbc2c", "fusion_lon": 0.0, "lon": -77.03787333333334, "name": "e805849db0e1357552ea0e4add6bbc2c", "is_disabled": 0, "rental_uris": {"android": "https://dc.lft.to/lastmile_qr_scan", "ios": "https://dc.lft.to/lastmile_qr_scan"}, "type": "electric_scooter", "lat": 38.909667666666664, "is_reserved": 0, "fusion_lat": 0.0}, {"bike_id": "37d2c1d7884af37e2b389a13851ebd40", "fusion_lon": 0.0, "lon": -77.03210966666667, "name": "37d2c1d7884af37e2b389a13851ebd40", "is_disabled": 0, "rental_uris": {"android": "https://dc.lft.to/lastmile_qr_scan", "ios": "https://dc.lft.to/lastmile_qr_scan"}, "type": "electric_scooter", "lat": 38.91551033333333, "is_reserved": 0, "fusion_lat": 0.0}, {"bike_id": "5a7135b68ab120f0f2c01da844bbda16", "fusion_lon": 0.0, "lon": -77.00064716666667, "name": "5a7135b68ab120f0f2c01da844bbda16", "is_disabled": 0, "rental_uris": {"android": "https://dc.lft.to/lastmile_qr_scan", "ios": "https://dc.lft.to/lastmile_qr_scan"}, "type": "electric_scooter", "lat": 38.925501, "is_reserved": 0, "fusion_lat": 0.0}, {"bike_id": "3539e3493017c1cb898fdbdd422f757d", "fusion_lon": 0.0, "lon": -77.02297566666667, "name": "3539e3493017c1cb898fdbdd422f757d", "is_disabled": 0, "rental_uris": {"android": "https://dc.lft.to/lastmile_qr_scan", "ios": "https://dc.lft.to/lastmile_qr_scan"}, "type": "electric_scooter", "lat": 38.9096555, "is_reserved": 0, "fusion_lat": 0.0}, {"bike_id": "a85cd07fb94cb86643b78c67ae8f07ba", "fusion_lon": 0.0, "lon": -77.01604333333333, "name": "a85cd07fb94cb86643b78c67ae8f07ba", "is_disabled": 0, "rental_uris": {"android": "https://dc.lft.to/lastmile_qr_scan", "ios": "https://dc.lft.to/lastmile_qr_scan"}, "type": "electric_scooter", "lat": 38.920494, "is_reserved": 0, "fusion_lat": 0.0}, {"bike_id": "8c843f2c4f14224987a21a35ca7cac4b", "fusion_lon": 0.0, "lon": -76.93182016666667, "name": "8c843f2c4f14224987a21a35ca7cac4b", "is_disabled": 0, "rental_uris": {"android": "https://dc.lft.to/lastmile_qr_scan", "ios": "https://dc.lft.to/lastmile_qr_scan"}, "type": "electric_scooter", "lat": 38.898776166666664, "is_reserved": 0, "fusion_lat": 0.0}, {"bike_id": "779f034f20782dd7a3df95246252bea5", "fusion_lon": 0.0, "lon": -77.10124116666667, "name": "779f034f20782dd7a3df95246252bea5", "is_disabled": 0, "rental_uris": {"android": "https://dc.lft.to/lastmile_qr_scan", "ios": "https://dc.lft.to/lastmile_qr_scan"}, "type": "electric_bike", "lat": 38.852040833333334, "is_reserved": 0, "fusion_lat": 0.0}, {"bike_id": "ca4707ad5020c7a85de0c8d4c5ba7747", "fusion_lon": 0.0, "lon": -77.00703516666667, "name": "ca4707ad5020c7a85de0c8d4c5ba7747", "is_disabled": 0, "rental_uris": {"android": "https://dc.lft.to/lastmile_qr_scan", "ios": "https://dc.lft.to/lastmile_qr_scan"}, "type": "electric_scooter", "lat": 38.898360333333336, "is_reserved": 0, "fusion_lat": 0.0}, {"bike_id": "18a54accfd0464af9d1380a2c2190e3b", "fusion_lon": 0.0, "lon": -77.03462083333334, "name": "18a54accfd0464af9d1380a2c2190e3b", "is_disabled": 0, "rental_uris": {"android": "https://dc.lft.to/lastmile_qr_scan", "ios": "https://dc.lft.to/lastmile_qr_scan"}, "type": "electric_scooter", "lat": 38.9087565, "is_reserved": 0, "fusion_lat": 0.0}, {"bike_id": "bbb6e1ba8f8faacb977f626f87c5857b", "fusion_lon": 0.0, "lon": -77.02150783333333, "name": "bbb6e1ba8f8faacb977f626f87c5857b", "is_disabled": 0, "rental_uris": {"android": "https://dc.lft.to/lastmile_qr_scan", "ios": "https://dc.lft.to/lastmile_qr_scan"}, "type": "electric_scooter", "lat": 38.92607183333333, "is_reserved": 0, "fusion_lat": 0.0}, {"bike_id": "646fac1061bda854f9f1fd13995254f9", "fusion_lon": 0.0, "lon": -76.96540316666666, "name": "646fac1061bda854f9f1fd13995254f9", "is_disabled": 0, "rental_uris": {"android": "https://dc.lft.to/lastmile_qr_scan", "ios": "https://dc.lft.to/lastmile_qr_scan"}, "type": "electric_scooter", "lat": 38.918538833333336, "is_reserved": 0, "fusion_lat": 0.0}, {"bike_id": "84a111c03848a12dcc8be50693ce762e", "fusion_lon": 0.0, "lon": -77.009324, "name": "84a111c03848a12dcc8be50693ce762e", "is_disabled": 0, "rental_uris": {"android": "https://dc.lft.to/lastmile_qr_scan", "ios": "https://dc.lft.to/lastmile_qr_scan"}, "type": "electric_scooter", "lat": 38.9181275, "is_reserved": 0, "fusion_lat": 0.0}, {"bike_id": "d45980dc52fce126f1dafd36e6f1756a", "fusion_lon": 0.0, "lon": -77.02363283333334, "name": "d45980dc52fce126f1dafd36e6f1756a", "is_disabled": 0, "rental_uris": {"android": "https://dc.lft.to/lastmile_qr_scan", "ios": "https://dc.lft.to/lastmile_qr_scan"}, "type": "electric_scooter", "lat": 38.89221883333333, "is_reserved": 0, "fusion_lat": 0.0}, {"bike_id": "3f0fd3af95240527bf5a9f9388f6da16", "fusion_lon": 0.0, "lon": -77.02897633333333, "name": "3f0fd3af95240527bf5a9f9388f6da16", "is_disabled": 0, "rental_uris": {"android": "https://dc.lft.to/lastmile_qr_scan", "ios": "https://dc.lft.to/lastmile_qr_scan"}, "type": "electric_scooter", "lat": 38.92568383333333, "is_reserved": 0, "fusion_lat": 0.0}, {"bike_id": "fc69a7d60b9fe472a25c5caea40be1e1", "fusion_lon": 0.0, "lon": -77.04078, "name": "fc69a7d60b9fe472a25c5caea40be1e1", "is_disabled": 0, "rental_uris": {"android": "https://dc.lft.to/lastmile_qr_scan", "ios": "https://dc.lft.to/lastmile_qr_scan"}, "type": "electric_scooter", "lat": 38.90505133333333, "is_reserved": 0, "fusion_lat": 0.0}, {"bike_id": "0090c60bbb70510853e9de280269ee78", "fusion_lon": 0.0, "lon": -77.00912016666666, "name": "0090c60bbb70510853e9de280269ee78", "is_disabled": 0, "rental_uris": {"android": "https://dc.lft.to/lastmile_qr_scan", "ios": "https://dc.lft.to/lastmile_qr_scan"}, "type": "electric_scooter", "lat": 38.897315, "is_reserved": 0, "fusion_lat": 0.0}, {"bike_id": "bc337f70542cf125c7f5a9d17c99b387", "fusion_lon": 0.0, "lon": -77.00916216666667, "name": "bc337f70542cf125c7f5a9d17c99b387", "is_disabled": 0, "rental_uris": {"android": "https://dc.lft.to/lastmile_qr_scan", "ios": "https://dc.lft.to/lastmile_qr_scan"}, "type": "electric_scooter", "lat": 38.827851833333334, "is_reserved": 0, "fusion_lat": 0.0}, {"bike_id": "b72978e6d16e67b8395e2b85cc928de4", "fusion_lon": 0.0, "lon": -77.0184335, "name": "b72978e6d16e67b8395e2b85cc928de4", "is_disabled": 0, "rental_uris": {"android": "https://dc.lft.to/lastmile_qr_scan", "ios": "https://dc.lft.to/lastmile_qr_scan"}, "type": "electric_scooter", "lat": 38.973654, "is_reserved": 0, "fusion_lat": 0.0}, {"bike_id": "d6b4959a0f587bbce750cd62eaf6bce2", "fusion_lon": 0.0, "lon": -76.99501633333334, "name": "d6b4959a0f587bbce750cd62eaf6bce2", "is_disabled": 0, "rental_uris": {"android": "https://dc.lft.to/lastmile_qr_scan", "ios": "https://dc.lft.to/lastmile_qr_scan"}, "type": "electric_scooter", "lat": 38.89162833333334, "is_reserved": 0, "fusion_lat": 0.0}, {"bike_id": "dc4bf0924a09607c7de89b55d5fd07b8", "fusion_lon": 0.0, "lon": -77.03189833333333, "name": "dc4bf0924a09607c7de89b55d5fd07b8", "is_disabled": 0, "rental_uris": {"android": "https://dc.lft.to/lastmile_qr_scan", "ios": "https://dc.lft.to/lastmile_qr_scan"}, "type": "electric_scooter", "lat": 38.9248535, "is_reserved": 0, "fusion_lat": 0.0}, {"bike_id": "0d996df035e39c067f8039777f2431e2", "fusion_lon": 0.0, "lon": -77.02905483333333, "name": "0d996df035e39c067f8039777f2431e2", "is_disabled": 0, "rental_uris": {"android": "https://dc.lft.to/lastmile_qr_scan", "ios": "https://dc.lft.to/lastmile_qr_scan"}, "type": "electric_scooter", "lat": 38.928138, "is_reserved": 0, "fusion_lat": 0.0}, {"bike_id": "4c6bd41da930a8904452503b9abb6738", "fusion_lon": 0.0, "lon": -76.99702133333334, "name": "4c6bd41da930a8904452503b9abb6738", "is_disabled": 0, "rental_uris": {"android": "https://dc.lft.to/lastmile_qr_scan", "ios": "https://dc.lft.to/lastmile_qr_scan"}, "type": "electric_bike", "lat": 38.910957333333336, "is_reserved": 0, "fusion_lat": 0.0}, {"bike_id": "3776d815d69909edd1b134a2d46d182d", "fusion_lon": 0.0, "lon": -77.03752866666666, "name": "3776d815d69909edd1b134a2d46d182d", "is_disabled": 0, "rental_uris": {"android": "https://dc.lft.to/lastmile_qr_scan", "ios": "https://dc.lft.to/lastmile_qr_scan"}, "type": "electric_scooter", "lat": 38.926062333333334, "is_reserved": 0, "fusion_lat": 0.0}, {"bike_id": "a363b90b7ba5e3a388b4219840860645", "fusion_lon": 0.0, "lon": -77.07307033333333, "name": "a363b90b7ba5e3a388b4219840860645", "is_disabled": 0, "rental_uris": {"android": "https://dc.lft.to/lastmile_qr_scan", "ios": "https://dc.lft.to/lastmile_qr_scan"}, "type": "electric_scooter", "lat": 38.9356695, "is_reserved": 0, "fusion_lat": 0.0}, {"bike_id": "c794e723becd699343a748ee85f3fa63", "fusion_lon": 0.0, "lon": -77.085918, "name": "c794e723becd699343a748ee85f3fa63", "is_disabled": 0, "rental_uris": {"android": "https://dc.lft.to/lastmile_qr_scan", "ios": "https://dc.lft.to/lastmile_qr_scan"}, "type": "electric_scooter", "lat": 38.90872316666667, "is_reserved": 0, "fusion_lat": 0.0}, {"bike_id": "ff5a468a82bcfbaa8399d59b20c84ea8", "fusion_lon": 0.0, "lon": -77.04335216666666, "name": "ff5a468a82bcfbaa8399d59b20c84ea8", "is_disabled": 0, "rental_uris": {"android": "https://dc.lft.to/lastmile_qr_scan", "ios": "https://dc.lft.to/lastmile_qr_scan"}, "type": "electric_scooter", "lat": 38.89523716666667, "is_reserved": 0, "fusion_lat": 0.0}, {"bike_id": "8b2e99714f33b9c540a1bc135f854188", "fusion_lon": 0.0, "lon": -76.96467716666666, "name": "8b2e99714f33b9c540a1bc135f854188", "is_disabled": 0, "rental_uris": {"android": "https://dc.lft.to/lastmile_qr_scan", "ios": "https://dc.lft.to/lastmile_qr_scan"}, "type": "electric_scooter", "lat": 38.93447066666667, "is_reserved": 0, "fusion_lat": 0.0}, {"bike_id": "42ba89180beee77e606b295a36c10588", "fusion_lon": 0.0, "lon": -76.999462, "name": "42ba89180beee77e606b295a36c10588", "is_disabled": 0, "rental_uris": {"android": "https://dc.lft.to/lastmile_qr_scan", "ios": "https://dc.lft.to/lastmile_qr_scan"}, "type": "electric_scooter", "lat": 38.8429535, "is_reserved": 0, "fusion_lat": 0.0}, {"bike_id": "c88658fae1ce168f5c75aa8a16337df4", "fusion_lon": 0.0, "lon": -77.04397866666666, "name": "c88658fae1ce168f5c75aa8a16337df4", "is_disabled": 0, "rental_uris": {"android": "https://dc.lft.to/lastmile_qr_scan", "ios": "https://dc.lft.to/lastmile_qr_scan"}, "type": "electric_scooter", "lat": 38.9108, "is_reserved": 0, "fusion_lat": 0.0}, {"bike_id": "81301e90b7e8d60c0eedd504a9ea2680", "fusion_lon": 0.0, "lon": -77.042806, "name": "81301e90b7e8d60c0eedd504a9ea2680", "is_disabled": 0, "rental_uris": {"android": "https://dc.lft.to/lastmile_qr_scan", "ios": "https://dc.lft.to/lastmile_qr_scan"}, "type": "electric_scooter", "lat": 38.910403, "is_reserved": 0, "fusion_lat": 0.0}, {"bike_id": "3890d7a89d3d001f4f0c66ed17b8ecb2", "fusion_lon": 0.0, "lon": -77.04452866666666, "name": "3890d7a89d3d001f4f0c66ed17b8ecb2", "is_disabled": 0, "rental_uris": {"android": "https://dc.lft.to/lastmile_qr_scan", "ios": "https://dc.lft.to/lastmile_qr_scan"}, "type": "electric_scooter", "lat": 38.9118675, "is_reserved": 0, "fusion_lat": 0.0}, {"bike_id": "93bea619697a5f5ba6d7fc4e36f81f86", "fusion_lon": 0.0, "lon": -77.03189133333333, "name": "93bea619697a5f5ba6d7fc4e36f81f86", "is_disabled": 0, "rental_uris": {"android": "https://dc.lft.to/lastmile_qr_scan", "ios": "https://dc.lft.to/lastmile_qr_scan"}, "type": "electric_scooter", "lat": 38.924878166666666, "is_reserved": 0, "fusion_lat": 0.0}, {"bike_id": "075768a1c47e3b42d262fea43c27f451", "fusion_lon": 0.0, "lon": -77.0185765, "name": "075768a1c47e3b42d262fea43c27f451", "is_disabled": 0, "rental_uris": {"android": "https://dc.lft.to/lastmile_qr_scan", "ios": "https://dc.lft.to/lastmile_qr_scan"}, "type": "electric_scooter", "lat": 38.87715983333333, "is_reserved": 0, "fusion_lat": 0.0}, {"bike_id": "3d24121458a875fbb91284b57b81e266", "fusion_lon": 0.0, "lon": -77.02485183333333, "name": "3d24121458a875fbb91284b57b81e266", "is_disabled": 0, "rental_uris": {"android": "https://dc.lft.to/lastmile_qr_scan", "ios": "https://dc.lft.to/lastmile_qr_scan"}, "type": "electric_scooter", "lat": 38.903258, "is_reserved": 0, "fusion_lat": 0.0}, {"bike_id": "7f1eaabd428eb592006c8aaba7285dcc", "fusion_lon": 0.0, "lon": -76.99590816666667, "name": "7f1eaabd428eb592006c8aaba7285dcc", "is_disabled": 0, "rental_uris": {"android": "https://dc.lft.to/lastmile_qr_scan", "ios": "https://dc.lft.to/lastmile_qr_scan"}, "type": "electric_bike", "lat": 38.950695, "is_reserved": 0, "fusion_lat": 0.0}, {"bike_id": "4f170f5a75afbedaf0c061c6ce0f4ba8", "fusion_lon": 0.0, "lon": -77.02800366666666, "name": "4f170f5a75afbedaf0c061c6ce0f4ba8", "is_disabled": 0, "rental_uris": {"android": "https://dc.lft.to/lastmile_qr_scan", "ios": "https://dc.lft.to/lastmile_qr_scan"}, "type": "electric_scooter", "lat": 38.9168285, "is_reserved": 0, "fusion_lat": 0.0}, {"bike_id": "588f9958d6521ea336471b7fb9185934", "fusion_lon": 0.0, "lon": -77.02214233333333, "name": "588f9958d6521ea336471b7fb9185934", "is_disabled": 0, "rental_uris": {"android": "https://dc.lft.to/lastmile_qr_scan", "ios": "https://dc.lft.to/lastmile_qr_scan"}, "type": "electric_scooter", "lat": 38.915601833333334, "is_reserved": 0, "fusion_lat": 0.0}, {"bike_id": "a3f54246e49ad9ea3784c5117bec0925", "fusion_lon": 0.0, "lon": -77.0585985, "name": "a3f54246e49ad9ea3784c5117bec0925", "is_disabled": 0, "rental_uris": {"android": "https://dc.lft.to/lastmile_qr_scan", "ios": "https://dc.lft.to/lastmile_qr_scan"}, "type": "electric_scooter", "lat": 38.936072, "is_reserved": 0, "fusion_lat": 0.0}, {"bike_id": "07d125873aaaed4ab668275fc6d99a49", "fusion_lon": 0.0, "lon": -77.03879916666666, "name": "07d125873aaaed4ab668275fc6d99a49", "is_disabled": 0, "rental_uris": {"android": "https://dc.lft.to/lastmile_qr_scan", "ios": "https://dc.lft.to/lastmile_qr_scan"}, "type": "electric_scooter", "lat": 38.9250745, "is_reserved": 0, "fusion_lat": 0.0}, {"bike_id": "9470b469123a7c2dfdc25dfb7374e908", "fusion_lon": 0.0, "lon": -76.96524516666666, "name": "9470b469123a7c2dfdc25dfb7374e908", "is_disabled": 0, "rental_uris": {"android": "https://dc.lft.to/lastmile_qr_scan", "ios": "https://dc.lft.to/lastmile_qr_scan"}, "type": "electric_scooter", "lat": 38.87627583333333, "is_reserved": 0, "fusion_lat": 0.0}, {"bike_id": "0c9d7d691b043ca3870fd949d61c74ed", "fusion_lon": 0.0, "lon": -77.02644233333334, "name": "0c9d7d691b043ca3870fd949d61c74ed", "is_disabled": 0, "rental_uris": {"android": "https://dc.lft.to/lastmile_qr_scan", "ios": "https://dc.lft.to/lastmile_qr_scan"}, "type": "electric_bike", "lat": 38.98821316666667, "is_reserved": 0, "fusion_lat": 0.0}, {"bike_id": "6c93e7f5d1248c689a32799a9fa15745", "fusion_lon": 0.0, "lon": -77.05332933333334, "name": "6c93e7f5d1248c689a32799a9fa15745", "is_disabled": 0, "rental_uris": {"android": "https://dc.lft.to/lastmile_qr_scan", "ios": "https://dc.lft.to/lastmile_qr_scan"}, "type": "electric_scooter", "lat": 38.905352, "is_reserved": 0, "fusion_lat": 0.0}, {"bike_id": "8b497bd1c2b5101c712caed45b83e200", "fusion_lon": 0.0, "lon": -77.00193766666666, "name": "8b497bd1c2b5101c712caed45b83e200", "is_disabled": 0, "rental_uris": {"android": "https://dc.lft.to/lastmile_qr_scan", "ios": "https://dc.lft.to/lastmile_qr_scan"}, "type": "electric_scooter", "lat": 38.90071866666667, "is_reserved": 0, "fusion_lat": 0.0}, {"bike_id": "4d03c0bfc801bcc1767baab480d3ac3c", "fusion_lon": 0.0, "lon": -76.924811, "name": "4d03c0bfc801bcc1767baab480d3ac3c", "is_disabled": 0, "rental_uris": {"android": "https://dc.lft.to/lastmile_qr_scan", "ios": "https://dc.lft.to/lastmile_qr_scan"}, "type": "electric_bike", "lat": 38.958774166666664, "is_reserved": 0, "fusion_lat": 0.0}, {"bike_id": "9885322c11171de497de65c3839bae18", "fusion_lon": 0.0, "lon": -76.99644033333334, "name": "9885322c11171de497de65c3839bae18", "is_disabled": 0, "rental_uris": {"android": "https://dc.lft.to/lastmile_qr_scan", "ios": "https://dc.lft.to/lastmile_qr_scan"}, "type": "electric_bike", "lat": 38.988259, "is_reserved": 0, "fusion_lat": 0.0}, {"bike_id": "95adddc7af30ce30ab4b3921640bb7b0", "fusion_lon": 0.0, "lon": -76.999539, "name": "95adddc7af30ce30ab4b3921640bb7b0", "is_disabled": 0, "rental_uris": {"android": "https://dc.lft.to/lastmile_qr_scan", "ios": "https://dc.lft.to/lastmile_qr_scan"}, "type": "electric_scooter", "lat": 38.918994166666664, "is_reserved": 0, "fusion_lat": 0.0}, {"bike_id": "9a400ddc0894d3722cbc68bfef00659a", "fusion_lon": 0.0, "lon": -77.014885, "name": "9a400ddc0894d3722cbc68bfef00659a", "is_disabled": 0, "rental_uris": {"android": "https://dc.lft.to/lastmile_qr_scan", "ios": "https://dc.lft.to/lastmile_qr_scan"}, "type": "electric_scooter", "lat": 38.89930183333333, "is_reserved": 0, "fusion_lat": 0.0}, {"bike_id": "036d7cc2d43d27c5d5cfe64bbfb6e5eb", "fusion_lon": 0.0, "lon": -77.0693305, "name": "036d7cc2d43d27c5d5cfe64bbfb6e5eb", "is_disabled": 0, "rental_uris": {"android": "https://dc.lft.to/lastmile_qr_scan", "ios": "https://dc.lft.to/lastmile_qr_scan"}, "type": "electric_scooter", "lat": 38.90772416666667, "is_reserved": 0, "fusion_lat": 0.0}, {"bike_id": "5934724f44d2b58dad4db096895cd324", "fusion_lon": 0.0, "lon": -77.03359066666667, "name": "5934724f44d2b58dad4db096895cd324", "is_disabled": 0, "rental_uris": {"android": "https://dc.lft.to/lastmile_qr_scan", "ios": "https://dc.lft.to/lastmile_qr_scan"}, "type": "electric_scooter", "lat": 38.9289915, "is_reserved": 0, "fusion_lat": 0.0}, {"bike_id": "b89ed907f3a18cde3ebfaed255c68fa8", "fusion_lon": 0.0, "lon": -77.0592305, "name": "b89ed907f3a18cde3ebfaed255c68fa8", "is_disabled": 0, "rental_uris": {"android": "https://dc.lft.to/lastmile_qr_scan", "ios": "https://dc.lft.to/lastmile_qr_scan"}, "type": "electric_scooter", "lat": 38.90937916666667, "is_reserved": 0, "fusion_lat": 0.0}, {"bike_id": "3e01e779bf85144c730e8ff9d30dec76", "fusion_lon": 0.0, "lon": -77.02496966666666, "name": "3e01e779bf85144c730e8ff9d30dec76", "is_disabled": 0, "rental_uris": {"android": "https://dc.lft.to/lastmile_qr_scan", "ios": "https://dc.lft.to/lastmile_qr_scan"}, "type": "electric_scooter", "lat": 38.907264833333336, "is_reserved": 0, "fusion_lat": 0.0}, {"bike_id": "3ec912bddb08917fe0aa1ad2efbdd5f2", "fusion_lon": 0.0, "lon": -77.04895416666666, "name": "3ec912bddb08917fe0aa1ad2efbdd5f2", "is_disabled": 0, "rental_uris": {"android": "https://dc.lft.to/lastmile_qr_scan", "ios": "https://dc.lft.to/lastmile_qr_scan"}, "type": "electric_scooter", "lat": 38.90065033333333, "is_reserved": 0, "fusion_lat": 0.0}, {"bike_id": "bcea1c7cf9ba728512cc4ec0591887fb", "fusion_lon": 0.0, "lon": -77.027977, "name": "bcea1c7cf9ba728512cc4ec0591887fb", "is_disabled": 0, "rental_uris": {"android": "https://dc.lft.to/lastmile_qr_scan", "ios": "https://dc.lft.to/lastmile_qr_scan"}, "type": "electric_scooter", "lat": 38.92971633333333, "is_reserved": 0, "fusion_lat": 0.0}, {"bike_id": "2918650e96364223a299d98d5e47e0f2", "fusion_lon": 0.0, "lon": -77.00196766666667, "name": "2918650e96364223a299d98d5e47e0f2", "is_disabled": 0, "rental_uris": {"android": "https://dc.lft.to/lastmile_qr_scan", "ios": "https://dc.lft.to/lastmile_qr_scan"}, "type": "electric_scooter", "lat": 38.90245816666667, "is_reserved": 0, "fusion_lat": 0.0}, {"bike_id": "7e58b47316e28a890efe26704013ba2b", "fusion_lon": 0.0, "lon": -76.96866466666667, "name": "7e58b47316e28a890efe26704013ba2b", "is_disabled": 0, "rental_uris": {"android": "https://dc.lft.to/lastmile_qr_scan", "ios": "https://dc.lft.to/lastmile_qr_scan"}, "type": "electric_scooter", "lat": 38.8709495, "is_reserved": 0, "fusion_lat": 0.0}, {"bike_id": "6c5968dd994e94359cfa9951019f4f8a", "fusion_lon": 0.0, "lon": -77.048263, "name": "6c5968dd994e94359cfa9951019f4f8a", "is_disabled": 0, "rental_uris": {"android": "https://dc.lft.to/lastmile_qr_scan", "ios": "https://dc.lft.to/lastmile_qr_scan"}, "type": "electric_scooter", "lat": 38.888874666666666, "is_reserved": 0, "fusion_lat": 0.0}, {"bike_id": "ee1aa21d3399fcbdc1dca9238dc5a1ea", "fusion_lon": 0.0, "lon": -76.93646266666667, "name": "ee1aa21d3399fcbdc1dca9238dc5a1ea", "is_disabled": 0, "rental_uris": {"android": "https://dc.lft.to/lastmile_qr_scan", "ios": "https://dc.lft.to/lastmile_qr_scan"}, "type": "electric_bike", "lat": 38.8714895, "is_reserved": 0, "fusion_lat": 0.0}, {"bike_id": "d18cc12098110f8b9a9b62ec2ba27255", "fusion_lon": 0.0, "lon": -77.00633466666666, "name": "d18cc12098110f8b9a9b62ec2ba27255", "is_disabled": 0, "rental_uris": {"android": "https://dc.lft.to/lastmile_qr_scan", "ios": "https://dc.lft.to/lastmile_qr_scan"}, "type": "electric_bike", "lat": 38.9483825, "is_reserved": 0, "fusion_lat": 0.0}, {"bike_id": "9799dd5f45968a4e9df0fd10cacd2213", "fusion_lon": 0.0, "lon": -77.026981, "name": "9799dd5f45968a4e9df0fd10cacd2213", "is_disabled": 0, "rental_uris": {"android": "https://dc.lft.to/lastmile_qr_scan", "ios": "https://dc.lft.to/lastmile_qr_scan"}, "type": "electric_scooter", "lat": 38.9066935, "is_reserved": 0, "fusion_lat": 0.0}, {"bike_id": "504b88c7ccf8dd9495e52c612df51c00", "fusion_lon": 0.0, "lon": -77.03184833333333, "name": "504b88c7ccf8dd9495e52c612df51c00", "is_disabled": 0, "rental_uris": {"android": "https://dc.lft.to/lastmile_qr_scan", "ios": "https://dc.lft.to/lastmile_qr_scan"}, "type": "electric_scooter", "lat": 38.8996085, "is_reserved": 0, "fusion_lat": 0.0}, {"bike_id": "837e83961a29c10ba8de1d0154b2a664", "fusion_lon": 0.0, "lon": -76.93353466666667, "name": "837e83961a29c10ba8de1d0154b2a664", "is_disabled": 0, "rental_uris": {"android": "https://dc.lft.to/lastmile_qr_scan", "ios": "https://dc.lft.to/lastmile_qr_scan"}, "type": "electric_scooter", "lat": 38.89910966666667, "is_reserved": 0, "fusion_lat": 0.0}, {"bike_id": "ff4c3130051468272a6c1f4f73940dd0", "fusion_lon": 0.0, "lon": -77.03422566666667, "name": "ff4c3130051468272a6c1f4f73940dd0", "is_disabled": 0, "rental_uris": {"android": "https://dc.lft.to/lastmile_qr_scan", "ios": "https://dc.lft.to/lastmile_qr_scan"}, "type": "electric_scooter", "lat": 38.904370666666665, "is_reserved": 0, "fusion_lat": 0.0}, {"bike_id": "ff494df44f0581def518a35119514bbc", "fusion_lon": 0.0, "lon": -76.96601916666667, "name": "ff494df44f0581def518a35119514bbc", "is_disabled": 0, "rental_uris": {"android": "https://dc.lft.to/lastmile_qr_scan", "ios": "https://dc.lft.to/lastmile_qr_scan"}, "type": "electric_scooter", "lat": 38.87383633333334, "is_reserved": 0, "fusion_lat": 0.0}, {"bike_id": "25038bad03de271528a66b9474fddcd5", "fusion_lon": 0.0, "lon": -77.023236, "name": "25038bad03de271528a66b9474fddcd5", "is_disabled": 0, "rental_uris": {"android": "https://dc.lft.to/lastmile_qr_scan", "ios": "https://dc.lft.to/lastmile_qr_scan"}, "type": "electric_scooter", "lat": 38.9168085, "is_reserved": 0, "fusion_lat": 0.0}, {"bike_id": "a86a8189f92cc0eb064d05088ac09afa", "fusion_lon": 0.0, "lon": -77.03614833333333, "name": "a86a8189f92cc0eb064d05088ac09afa", "is_disabled": 0, "rental_uris": {"android": "https://dc.lft.to/lastmile_qr_scan", "ios": "https://dc.lft.to/lastmile_qr_scan"}, "type": "electric_scooter", "lat": 38.918662, "is_reserved": 0, "fusion_lat": 0.0}, {"bike_id": "dbf5e0334d60c591461cddaef5422cec", "fusion_lon": 0.0, "lon": -77.00223666666666, "name": "dbf5e0334d60c591461cddaef5422cec", "is_disabled": 0, "rental_uris": {"android": "https://dc.lft.to/lastmile_qr_scan", "ios": "https://dc.lft.to/lastmile_qr_scan"}, "type": "electric_scooter", "lat": 38.92508866666667, "is_reserved": 0, "fusion_lat": 0.0}, {"bike_id": "f7a8375ed859f0a73b3b751e7e75ea77", "fusion_lon": 0.0, "lon": -77.0277265, "name": "f7a8375ed859f0a73b3b751e7e75ea77", "is_disabled": 0, "rental_uris": {"android": "https://dc.lft.to/lastmile_qr_scan", "ios": "https://dc.lft.to/lastmile_qr_scan"}, "type": "electric_scooter", "lat": 38.892262833333334, "is_reserved": 0, "fusion_lat": 0.0}, {"bike_id": "7f00f2fb3fb7ee0e410bab06704a5cea", "fusion_lon": 0.0, "lon": -77.04161716666667, "name": "7f00f2fb3fb7ee0e410bab06704a5cea", "is_disabled": 0, "rental_uris": {"android": "https://dc.lft.to/lastmile_qr_scan", "ios": "https://dc.lft.to/lastmile_qr_scan"}, "type": "electric_scooter", "lat": 38.903666333333334, "is_reserved": 0, "fusion_lat": 0.0}, {"bike_id": "5464e0a0265321b3f80d2e3619f0563c", "fusion_lon": 0.0, "lon": -77.03088416666667, "name": "5464e0a0265321b3f80d2e3619f0563c", "is_disabled": 0, "rental_uris": {"android": "https://dc.lft.to/lastmile_qr_scan", "ios": "https://dc.lft.to/lastmile_qr_scan"}, "type": "electric_scooter", "lat": 38.937566333333336, "is_reserved": 0, "fusion_lat": 0.0}, {"bike_id": "b1f4415133e34a717e334fa5b09e0dee", "fusion_lon": 0.0, "lon": -77.04631733333333, "name": "b1f4415133e34a717e334fa5b09e0dee", "is_disabled": 0, "rental_uris": {"android": "https://dc.lft.to/lastmile_qr_scan", "ios": "https://dc.lft.to/lastmile_qr_scan"}, "type": "electric_scooter", "lat": 38.919164, "is_reserved": 0, "fusion_lat": 0.0}, {"bike_id": "4bcd94e02a48b2b0fc3447c562c33b58", "fusion_lon": 0.0, "lon": -76.9835965, "name": "4bcd94e02a48b2b0fc3447c562c33b58", "is_disabled": 0, "rental_uris": {"android": "https://dc.lft.to/lastmile_qr_scan", "ios": "https://dc.lft.to/lastmile_qr_scan"}, "type": "electric_scooter", "lat": 38.88593766666666, "is_reserved": 0, "fusion_lat": 0.0}, {"bike_id": "68b345a26853f594376de85848541276", "fusion_lon": 0.0, "lon": -77.15824633333334, "name": "68b345a26853f594376de85848541276", "is_disabled": 0, "rental_uris": {"android": "https://dc.lft.to/lastmile_qr_scan", "ios": "https://dc.lft.to/lastmile_qr_scan"}, "type": "electric_bike", "lat": 38.894516833333334, "is_reserved": 0, "fusion_lat": 0.0}, {"bike_id": "0abd8b1039a34910c9a5ca8998a8bd31", "fusion_lon": 0.0, "lon": -77.0352755, "name": "0abd8b1039a34910c9a5ca8998a8bd31", "is_disabled": 0, "rental_uris": {"android": "https://dc.lft.to/lastmile_qr_scan", "ios": "https://dc.lft.to/lastmile_qr_scan"}, "type": "electric_scooter", "lat": 38.92469333333333, "is_reserved": 0, "fusion_lat": 0.0}, {"bike_id": "7420f039a1d0edfe00056055f605ad40", "fusion_lon": 0.0, "lon": -77.05859866666667, "name": "7420f039a1d0edfe00056055f605ad40", "is_disabled": 0, "rental_uris": {"android": "https://dc.lft.to/lastmile_qr_scan", "ios": "https://dc.lft.to/lastmile_qr_scan"}, "type": "electric_scooter", "lat": 38.936062666666665, "is_reserved": 0, "fusion_lat": 0.0}, {"bike_id": "1be0eefdec555c889233ecb6474cfe00", "fusion_lon": 0.0, "lon": -77.04480966666667, "name": "1be0eefdec555c889233ecb6474cfe00", "is_disabled": 0, "rental_uris": {"android": "https://dc.lft.to/lastmile_qr_scan", "ios": "https://dc.lft.to/lastmile_qr_scan"}, "type": "electric_scooter", "lat": 38.903605166666665, "is_reserved": 0, "fusion_lat": 0.0}, {"bike_id": "4b51f2c6e50911929771d7ba6eef5108", "fusion_lon": 0.0, "lon": -77.0387645, "name": "4b51f2c6e50911929771d7ba6eef5108", "is_disabled": 0, "rental_uris": {"android": "https://dc.lft.to/lastmile_qr_scan", "ios": "https://dc.lft.to/lastmile_qr_scan"}, "type": "electric_scooter", "lat": 38.9312435, "is_reserved": 0, "fusion_lat": 0.0}, {"bike_id": "2b3a093baa77b7f1a74dba1aa952e2fb", "fusion_lon": 0.0, "lon": -77.03165533333333, "name": "2b3a093baa77b7f1a74dba1aa952e2fb", "is_disabled": 0, "rental_uris": {"android": "https://dc.lft.to/lastmile_qr_scan", "ios": "https://dc.lft.to/lastmile_qr_scan"}, "type": "electric_scooter", "lat": 38.89223633333334, "is_reserved": 0, "fusion_lat": 0.0}, {"bike_id": "4ce4bfae051443f4614fc1ff11901612", "fusion_lon": 0.0, "lon": -77.02776966666667, "name": "4ce4bfae051443f4614fc1ff11901612", "is_disabled": 0, "rental_uris": {"android": "https://dc.lft.to/lastmile_qr_scan", "ios": "https://dc.lft.to/lastmile_qr_scan"}, "type": "electric_scooter", "lat": 38.8948755, "is_reserved": 0, "fusion_lat": 0.0}, {"bike_id": "44f4af00f3f02ff41776473bc22a8373", "fusion_lon": 0.0, "lon": -77.0345635, "name": "44f4af00f3f02ff41776473bc22a8373", "is_disabled": 0, "rental_uris": {"android": "https://dc.lft.to/lastmile_qr_scan", "ios": "https://dc.lft.to/lastmile_qr_scan"}, "type": "electric_scooter", "lat": 38.93546883333333, "is_reserved": 0, "fusion_lat": 0.0}, {"bike_id": "525bdf53d5aff237d644dfd0748fe597", "fusion_lon": 0.0, "lon": -77.0651405, "name": "525bdf53d5aff237d644dfd0748fe597", "is_disabled": 0, "rental_uris": {"android": "https://dc.lft.to/lastmile_qr_scan", "ios": "https://dc.lft.to/lastmile_qr_scan"}, "type": "electric_scooter", "lat": 38.905880333333336, "is_reserved": 0, "fusion_lat": 0.0}, {"bike_id": "9ae1732048ab53ff6bdf19ddf6ea50b4", "fusion_lon": 0.0, "lon": -76.993626, "name": "9ae1732048ab53ff6bdf19ddf6ea50b4", "is_disabled": 0, "rental_uris": {"android": "https://dc.lft.to/lastmile_qr_scan", "ios": "https://dc.lft.to/lastmile_qr_scan"}, "type": "electric_scooter", "lat": 38.928368166666665, "is_reserved": 0, "fusion_lat": 0.0}, {"bike_id": "73ff1ce37d6417ef956bffd0ca064196", "fusion_lon": 0.0, "lon": -77.04131316666667, "name": "73ff1ce37d6417ef956bffd0ca064196", "is_disabled": 0, "rental_uris": {"android": "https://dc.lft.to/lastmile_qr_scan", "ios": "https://dc.lft.to/lastmile_qr_scan"}, "type": "electric_scooter", "lat": 38.933665, "is_reserved": 0, "fusion_lat": 0.0}, {"bike_id": "7530b08c05d69ba8f603070c476c22f4", "fusion_lon": 0.0, "lon": -76.97168266666667, "name": "7530b08c05d69ba8f603070c476c22f4", "is_disabled": 0, "rental_uris": {"android": "https://dc.lft.to/lastmile_qr_scan", "ios": "https://dc.lft.to/lastmile_qr_scan"}, "type": "electric_scooter", "lat": 38.85435916666667, "is_reserved": 0, "fusion_lat": 0.0}, {"bike_id": "6a21121f9c01791bb62d6ee08169418e", "fusion_lon": 0.0, "lon": -76.99708533333333, "name": "6a21121f9c01791bb62d6ee08169418e", "is_disabled": 0, "rental_uris": {"android": "https://dc.lft.to/lastmile_qr_scan", "ios": "https://dc.lft.to/lastmile_qr_scan"}, "type": "electric_scooter", "lat": 38.9084305, "is_reserved": 0, "fusion_lat": 0.0}, {"bike_id": "2da31f545773de6995dcfecb39bedfdc", "fusion_lon": 0.0, "lon": -77.02209683333334, "name": "2da31f545773de6995dcfecb39bedfdc", "is_disabled": 0, "rental_uris": {"android": "https://dc.lft.to/lastmile_qr_scan", "ios": "https://dc.lft.to/lastmile_qr_scan"}, "type": "electric_scooter", "lat": 38.90211033333333, "is_reserved": 0, "fusion_lat": 0.0}, {"bike_id": "495fd662c730952bddabab7709702162", "fusion_lon": 0.0, "lon": -76.9329335, "name": "495fd662c730952bddabab7709702162", "is_disabled": 0, "rental_uris": {"android": "https://dc.lft.to/lastmile_qr_scan", "ios": "https://dc.lft.to/lastmile_qr_scan"}, "type": "electric_scooter", "lat": 38.881525333333336, "is_reserved": 0, "fusion_lat": 0.0}, {"bike_id": "ca38f622ddfe390f4d1a26463a1bc30c", "fusion_lon": 0.0, "lon": -77.021742, "name": "ca38f622ddfe390f4d1a26463a1bc30c", "is_disabled": 0, "rental_uris": {"android": "https://dc.lft.to/lastmile_qr_scan", "ios": "https://dc.lft.to/lastmile_qr_scan"}, "type": "electric_scooter", "lat": 38.89987816666667, "is_reserved": 0, "fusion_lat": 0.0}, {"bike_id": "5868d544d2b00687326e31fda99d55f3", "fusion_lon": 0.0, "lon": -77.02823516666666, "name": "5868d544d2b00687326e31fda99d55f3", "is_disabled": 0, "rental_uris": {"android": "https://dc.lft.to/lastmile_qr_scan", "ios": "https://dc.lft.to/lastmile_qr_scan"}, "type": "electric_scooter", "lat": 38.93207783333333, "is_reserved": 0, "fusion_lat": 0.0}, {"bike_id": "11d5be72358b904781e7de62be482f99", "fusion_lon": 0.0, "lon": -77.032527, "name": "11d5be72358b904781e7de62be482f99", "is_disabled": 0, "rental_uris": {"android": "https://dc.lft.to/lastmile_qr_scan", "ios": "https://dc.lft.to/lastmile_qr_scan"}, "type": "electric_scooter", "lat": 38.9397015, "is_reserved": 0, "fusion_lat": 0.0}, {"bike_id": "6e3728ae25a5a4221d46d90871743969", "fusion_lon": 0.0, "lon": -77.02192066666667, "name": "6e3728ae25a5a4221d46d90871743969", "is_disabled": 0, "rental_uris": {"android": "https://dc.lft.to/lastmile_qr_scan", "ios": "https://dc.lft.to/lastmile_qr_scan"}, "type": "electric_scooter", "lat": 38.918429333333336, "is_reserved": 0, "fusion_lat": 0.0}, {"bike_id": "770f05ca78da762f8ebcc8defc241e52", "fusion_lon": 0.0, "lon": -76.9807455, "name": "770f05ca78da762f8ebcc8defc241e52", "is_disabled": 0, "rental_uris": {"android": "https://dc.lft.to/lastmile_qr_scan", "ios": "https://dc.lft.to/lastmile_qr_scan"}, "type": "electric_scooter", "lat": 38.901778166666666, "is_reserved": 0, "fusion_lat": 0.0}, {"bike_id": "aa41ec2f9769c04f7fa91cdd76a2ff87", "fusion_lon": 0.0, "lon": -76.9960665, "name": "aa41ec2f9769c04f7fa91cdd76a2ff87", "is_disabled": 0, "rental_uris": {"android": "https://dc.lft.to/lastmile_qr_scan", "ios": "https://dc.lft.to/lastmile_qr_scan"}, "type": "electric_scooter", "lat": 38.899202333333335, "is_reserved": 0, "fusion_lat": 0.0}, {"bike_id": "66a6f554cf914a50ec1323c996d19c97", "fusion_lon": 0.0, "lon": -76.99344083333334, "name": "66a6f554cf914a50ec1323c996d19c97", "is_disabled": 0, "rental_uris": {"android": "https://dc.lft.to/lastmile_qr_scan", "ios": "https://dc.lft.to/lastmile_qr_scan"}, "type": "electric_bike", "lat": 38.97225133333333, "is_reserved": 0, "fusion_lat": 0.0}, {"bike_id": "f93ac2dc21e4457e1bb52d49d0065b91", "fusion_lon": 0.0, "lon": -77.07421483333333, "name": "f93ac2dc21e4457e1bb52d49d0065b91", "is_disabled": 0, "rental_uris": {"android": "https://dc.lft.to/lastmile_qr_scan", "ios": "https://dc.lft.to/lastmile_qr_scan"}, "type": "electric_scooter", "lat": 38.913049, "is_reserved": 0, "fusion_lat": 0.0}, {"bike_id": "e46c85a4cdb5568a0b0a4f8877ff0dd2", "fusion_lon": 0.0, "lon": -77.03637633333334, "name": "e46c85a4cdb5568a0b0a4f8877ff0dd2", "is_disabled": 0, "rental_uris": {"android": "https://dc.lft.to/lastmile_qr_scan", "ios": "https://dc.lft.to/lastmile_qr_scan"}, "type": "electric_scooter", "lat": 38.9317635, "is_reserved": 0, "fusion_lat": 0.0}, {"bike_id": "1db668a586e3b58394e42a3385508e95", "fusion_lon": 0.0, "lon": -77.02690383333334, "name": "1db668a586e3b58394e42a3385508e95", "is_disabled": 0, "rental_uris": {"android": "https://dc.lft.to/lastmile_qr_scan", "ios": "https://dc.lft.to/lastmile_qr_scan"}, "type": "electric_scooter", "lat": 38.906723666666664, "is_reserved": 0, "fusion_lat": 0.0}, {"bike_id": "bc96a8f8deca4e89c053613892d2214d", "fusion_lon": 0.0, "lon": -76.99604583333333, "name": "bc96a8f8deca4e89c053613892d2214d", "is_disabled": 0, "rental_uris": {"android": "https://dc.lft.to/lastmile_qr_scan", "ios": "https://dc.lft.to/lastmile_qr_scan"}, "type": "electric_scooter", "lat": 38.903656166666664, "is_reserved": 0, "fusion_lat": 0.0}, {"bike_id": "be47e3d7b121e911df825a5665848416", "fusion_lon": 0.0, "lon": -77.0480115, "name": "be47e3d7b121e911df825a5665848416", "is_disabled": 0, "rental_uris": {"android": "https://dc.lft.to/lastmile_qr_scan", "ios": "https://dc.lft.to/lastmile_qr_scan"}, "type": "electric_scooter", "lat": 38.8922105, "is_reserved": 0, "fusion_lat": 0.0}, {"bike_id": "6acaa9a1ba3f856cc30c6993ae34a28f", "fusion_lon": 0.0, "lon": -77.032454, "name": "6acaa9a1ba3f856cc30c6993ae34a28f", "is_disabled": 0, "rental_uris": {"android": "https://dc.lft.to/lastmile_qr_scan", "ios": "https://dc.lft.to/lastmile_qr_scan"}, "type": "electric_scooter", "lat": 38.9285675, "is_reserved": 0, "fusion_lat": 0.0}, {"bike_id": "c16157e9072d9be3b747c233df0baa46", "fusion_lon": 0.0, "lon": -77.02561916666667, "name": "c16157e9072d9be3b747c233df0baa46", "is_disabled": 0, "rental_uris": {"android": "https://dc.lft.to/lastmile_qr_scan", "ios": "https://dc.lft.to/lastmile_qr_scan"}, "type": "electric_scooter", "lat": 38.925345, "is_reserved": 0, "fusion_lat": 0.0}, {"bike_id": "a4248380eb53304ae075e26f39bdf86d", "fusion_lon": 0.0, "lon": -77.01845016666667, "name": "a4248380eb53304ae075e26f39bdf86d", "is_disabled": 0, "rental_uris": {"android": "https://dc.lft.to/lastmile_qr_scan", "ios": "https://dc.lft.to/lastmile_qr_scan"}, "type": "electric_scooter", "lat": 38.91526533333333, "is_reserved": 0, "fusion_lat": 0.0}, {"bike_id": "40bae4e23026d00a7e61281900b29d86", "fusion_lon": 0.0, "lon": -76.9861435, "name": "40bae4e23026d00a7e61281900b29d86", "is_disabled": 0, "rental_uris": {"android": "https://dc.lft.to/lastmile_qr_scan", "ios": "https://dc.lft.to/lastmile_qr_scan"}, "type": "electric_scooter", "lat": 38.938283, "is_reserved": 0, "fusion_lat": 0.0}, {"bike_id": "5bd66c186662c6a5d278d55f5d5afbb8", "fusion_lon": 0.0, "lon": -77.0271745, "name": "5bd66c186662c6a5d278d55f5d5afbb8", "is_disabled": 0, "rental_uris": {"android": "https://dc.lft.to/lastmile_qr_scan", "ios": "https://dc.lft.to/lastmile_qr_scan"}, "type": "electric_scooter", "lat": 38.94958883333334, "is_reserved": 0, "fusion_lat": 0.0}, {"bike_id": "3e597bc6f319531f1794a442bb42055f", "fusion_lon": 0.0, "lon": -76.9977455, "name": "3e597bc6f319531f1794a442bb42055f", "is_disabled": 0, "rental_uris": {"android": "https://dc.lft.to/lastmile_qr_scan", "ios": "https://dc.lft.to/lastmile_qr_scan"}, "type": "electric_scooter", "lat": 38.9091495, "is_reserved": 0, "fusion_lat": 0.0}, {"bike_id": "39189b2335f9313dbcb92f9f4e1e53b3", "fusion_lon": 0.0, "lon": -76.93609766666667, "name": "39189b2335f9313dbcb92f9f4e1e53b3", "is_disabled": 0, "rental_uris": {"android": "https://dc.lft.to/lastmile_qr_scan", "ios": "https://dc.lft.to/lastmile_qr_scan"}, "type": "electric_scooter", "lat": 38.88673766666667, "is_reserved": 0, "fusion_lat": 0.0}, {"bike_id": "a0810c52bd063a1d1fc15e2c5cf116da", "fusion_lon": 0.0, "lon": -77.012207, "name": "a0810c52bd063a1d1fc15e2c5cf116da", "is_disabled": 0, "rental_uris": {"android": "https://dc.lft.to/lastmile_qr_scan", "ios": "https://dc.lft.to/lastmile_qr_scan"}, "type": "electric_scooter", "lat": 38.91548266666667, "is_reserved": 0, "fusion_lat": 0.0}, {"bike_id": "f60aeed5cf2628c016147718827dac2b", "fusion_lon": 0.0, "lon": -77.02508866666666, "name": "f60aeed5cf2628c016147718827dac2b", "is_disabled": 0, "rental_uris": {"android": "https://dc.lft.to/lastmile_qr_scan", "ios": "https://dc.lft.to/lastmile_qr_scan"}, "type": "electric_scooter", "lat": 38.915623, "is_reserved": 0, "fusion_lat": 0.0}, {"bike_id": "6f660daebc715c1ed0fdb903308504ff", "fusion_lon": 0.0, "lon": -77.012229, "name": "6f660daebc715c1ed0fdb903308504ff", "is_disabled": 0, "rental_uris": {"android": "https://dc.lft.to/lastmile_qr_scan", "ios": "https://dc.lft.to/lastmile_qr_scan"}, "type": "electric_scooter", "lat": 38.91531966666667, "is_reserved": 0, "fusion_lat": 0.0}, {"bike_id": "b7d9be085cff1c8c356054cbed88d018", "fusion_lon": 0.0, "lon": -77.02593816666666, "name": "b7d9be085cff1c8c356054cbed88d018", "is_disabled": 0, "rental_uris": {"android": "https://dc.lft.to/lastmile_qr_scan", "ios": "https://dc.lft.to/lastmile_qr_scan"}, "type": "electric_scooter", "lat": 38.90514833333334, "is_reserved": 0, "fusion_lat": 0.0}, {"bike_id": "0558e64ac85e597abecb4ff1ab08230a", "fusion_lon": 0.0, "lon": -77.0168045, "name": "0558e64ac85e597abecb4ff1ab08230a", "is_disabled": 0, "rental_uris": {"android": "https://dc.lft.to/lastmile_qr_scan", "ios": "https://dc.lft.to/lastmile_qr_scan"}, "type": "electric_scooter", "lat": 38.881017, "is_reserved": 0, "fusion_lat": 0.0}, {"bike_id": "50b944f9318afef9f3b459b75e2b6974", "fusion_lon": 0.0, "lon": -77.03646016666667, "name": "50b944f9318afef9f3b459b75e2b6974", "is_disabled": 0, "rental_uris": {"android": "https://dc.lft.to/lastmile_qr_scan", "ios": "https://dc.lft.to/lastmile_qr_scan"}, "type": "electric_scooter", "lat": 38.923851166666665, "is_reserved": 0, "fusion_lat": 0.0}, {"bike_id": "70ec6c82feb9da8d9397ee628a1b4dc2", "fusion_lon": 0.0, "lon": -77.02348433333333, "name": "70ec6c82feb9da8d9397ee628a1b4dc2", "is_disabled": 0, "rental_uris": {"android": "https://dc.lft.to/lastmile_qr_scan", "ios": "https://dc.lft.to/lastmile_qr_scan"}, "type": "electric_scooter", "lat": 38.90722733333333, "is_reserved": 0, "fusion_lat": 0.0}, {"bike_id": "59244430ac8217748d189f92f70f07a8", "fusion_lon": 0.0, "lon": -76.98631733333333, "name": "59244430ac8217748d189f92f70f07a8", "is_disabled": 0, "rental_uris": {"android": "https://dc.lft.to/lastmile_qr_scan", "ios": "https://dc.lft.to/lastmile_qr_scan"}, "type": "electric_scooter", "lat": 38.88050233333333, "is_reserved": 0, "fusion_lat": 0.0}, {"bike_id": "f1792d4f9fe1fda18010c4b4366e60b5", "fusion_lon": 0.0, "lon": -77.05088433333333, "name": "f1792d4f9fe1fda18010c4b4366e60b5", "is_disabled": 0, "rental_uris": {"android": "https://dc.lft.to/lastmile_qr_scan", "ios": "https://dc.lft.to/lastmile_qr_scan"}, "type": "electric_bike", "lat": 38.81334666666667, "is_reserved": 0, "fusion_lat": 0.0}, {"bike_id": "b13b61c56cedf75216b3d0b84a3fd2da", "fusion_lon": 0.0, "lon": -77.021598, "name": "b13b61c56cedf75216b3d0b84a3fd2da", "is_disabled": 0, "rental_uris": {"android": "https://dc.lft.to/lastmile_qr_scan", "ios": "https://dc.lft.to/lastmile_qr_scan"}, "type": "electric_scooter", "lat": 38.90954883333333, "is_reserved": 0, "fusion_lat": 0.0}, {"bike_id": "5b46d08c324cf00a63b36163985b035e", "fusion_lon": 0.0, "lon": -77.1160085, "name": "5b46d08c324cf00a63b36163985b035e", "is_disabled": 0, "rental_uris": {"android": "https://dc.lft.to/lastmile_qr_scan", "ios": "https://dc.lft.to/lastmile_qr_scan"}, "type": "electric_bike", "lat": 39.0749425, "is_reserved": 0, "fusion_lat": 0.0}, {"bike_id": "967827acc5d0228a2e79f0263727df8f", "fusion_lon": 0.0, "lon": -76.98454916666667, "name": "967827acc5d0228a2e79f0263727df8f", "is_disabled": 0, "rental_uris": {"android": "https://dc.lft.to/lastmile_qr_scan", "ios": "https://dc.lft.to/lastmile_qr_scan"}, "type": "electric_scooter", "lat": 38.880190999999996, "is_reserved": 0, "fusion_lat": 0.0}, {"bike_id": "4157efd430b2a41d0cd7dcae168f5130", "fusion_lon": 0.0, "lon": -77.1101785, "name": "4157efd430b2a41d0cd7dcae168f5130", "is_disabled": 0, "rental_uris": {"android": "https://dc.lft.to/lastmile_qr_scan", "ios": "https://dc.lft.to/lastmile_qr_scan"}, "type": "electric_bike", "lat": 38.847455333333336, "is_reserved": 0, "fusion_lat": 0.0}, {"bike_id": "c1d0bf6da7828d370b40e0a6ddd4be53", "fusion_lon": 0.0, "lon": -77.02707233333334, "name": "c1d0bf6da7828d370b40e0a6ddd4be53", "is_disabled": 0, "rental_uris": {"android": "https://dc.lft.to/lastmile_qr_scan", "ios": "https://dc.lft.to/lastmile_qr_scan"}, "type": "electric_scooter", "lat": 38.88137416666667, "is_reserved": 0, "fusion_lat": 0.0}, {"bike_id": "8526976022dec443db6477082ad7ce26", "fusion_lon": 0.0, "lon": -77.0199135, "name": "8526976022dec443db6477082ad7ce26", "is_disabled": 0, "rental_uris": {"android": "https://dc.lft.to/lastmile_qr_scan", "ios": "https://dc.lft.to/lastmile_qr_scan"}, "type": "electric_scooter", "lat": 38.9136505, "is_reserved": 0, "fusion_lat": 0.0}, {"bike_id": "33858caf7a41d99dea36beae50225deb", "fusion_lon": 0.0, "lon": -77.03977966666666, "name": "33858caf7a41d99dea36beae50225deb", "is_disabled": 0, "rental_uris": {"android": "https://dc.lft.to/lastmile_qr_scan", "ios": "https://dc.lft.to/lastmile_qr_scan"}, "type": "electric_scooter", "lat": 38.9027185, "is_reserved": 0, "fusion_lat": 0.0}, {"bike_id": "ca89b28e11e3edc8688e210593e3faf9", "fusion_lon": 0.0, "lon": -77.05856266666666, "name": "ca89b28e11e3edc8688e210593e3faf9", "is_disabled": 0, "rental_uris": {"android": "https://dc.lft.to/lastmile_qr_scan", "ios": "https://dc.lft.to/lastmile_qr_scan"}, "type": "electric_scooter", "lat": 38.935851, "is_reserved": 0, "fusion_lat": 0.0}, {"bike_id": "d9045eaca5d4120b31e45ebc320e97f4", "fusion_lon": 0.0, "lon": -77.0237215, "name": "d9045eaca5d4120b31e45ebc320e97f4", "is_disabled": 0, "rental_uris": {"android": "https://dc.lft.to/lastmile_qr_scan", "ios": "https://dc.lft.to/lastmile_qr_scan"}, "type": "electric_scooter", "lat": 38.9018275, "is_reserved": 0, "fusion_lat": 0.0}, {"bike_id": "ec0c3e6a9f532d9e45f6ee2a7b68148d", "fusion_lon": 0.0, "lon": -76.93352366666667, "name": "ec0c3e6a9f532d9e45f6ee2a7b68148d", "is_disabled": 0, "rental_uris": {"android": "https://dc.lft.to/lastmile_qr_scan", "ios": "https://dc.lft.to/lastmile_qr_scan"}, "type": "electric_scooter", "lat": 38.8990995, "is_reserved": 0, "fusion_lat": 0.0}, {"bike_id": "d6307642f1b6ca9d995d5a70e71f8322", "fusion_lon": 0.0, "lon": -77.01733916666667, "name": "d6307642f1b6ca9d995d5a70e71f8322", "is_disabled": 0, "rental_uris": {"android": "https://dc.lft.to/lastmile_qr_scan", "ios": "https://dc.lft.to/lastmile_qr_scan"}, "type": "electric_scooter", "lat": 38.87274816666667, "is_reserved": 0, "fusion_lat": 0.0}, {"bike_id": "eb984ff57c04a126b6deefdac306a2db", "fusion_lon": 0.0, "lon": -77.0269225, "name": "eb984ff57c04a126b6deefdac306a2db", "is_disabled": 0, "rental_uris": {"android": "https://dc.lft.to/lastmile_qr_scan", "ios": "https://dc.lft.to/lastmile_qr_scan"}, "type": "electric_scooter", "lat": 38.91122566666667, "is_reserved": 0, "fusion_lat": 0.0}, {"bike_id": "9f20e5f2f323157ef2dc635989182321", "fusion_lon": 0.0, "lon": -77.04921983333334, "name": "9f20e5f2f323157ef2dc635989182321", "is_disabled": 0, "rental_uris": {"android": "https://dc.lft.to/lastmile_qr_scan", "ios": "https://dc.lft.to/lastmile_qr_scan"}, "type": "electric_bike", "lat": 38.81345666666667, "is_reserved": 0, "fusion_lat": 0.0}, {"bike_id": "bd415f10f26491cc3a1d2a136eec30e5", "fusion_lon": 0.0, "lon": -77.03494283333333, "name": "bd415f10f26491cc3a1d2a136eec30e5", "is_disabled": 0, "rental_uris": {"android": "https://dc.lft.to/lastmile_qr_scan", "ios": "https://dc.lft.to/lastmile_qr_scan"}, "type": "electric_scooter", "lat": 38.9169775, "is_reserved": 0, "fusion_lat": 0.0}, {"bike_id": "c8d9aabf6b1d2612cffd0f5e36819dec", "fusion_lon": 0.0, "lon": -77.04403083333334, "name": "c8d9aabf6b1d2612cffd0f5e36819dec", "is_disabled": 0, "rental_uris": {"android": "https://dc.lft.to/lastmile_qr_scan", "ios": "https://dc.lft.to/lastmile_qr_scan"}, "type": "electric_scooter", "lat": 38.91264866666667, "is_reserved": 0, "fusion_lat": 0.0}, {"bike_id": "e94878163162fcc33adcdb8ee722b96d", "fusion_lon": 0.0, "lon": -77.02552016666667, "name": "e94878163162fcc33adcdb8ee722b96d", "is_disabled": 0, "rental_uris": {"android": "https://dc.lft.to/lastmile_qr_scan", "ios": "https://dc.lft.to/lastmile_qr_scan"}, "type": "electric_scooter", "lat": 38.880757333333335, "is_reserved": 0, "fusion_lat": 0.0}, {"bike_id": "c28616ac600cc59daec8f1c1750fe359", "fusion_lon": 0.0, "lon": -77.01743033333334, "name": "c28616ac600cc59daec8f1c1750fe359", "is_disabled": 0, "rental_uris": {"android": "https://dc.lft.to/lastmile_qr_scan", "ios": "https://dc.lft.to/lastmile_qr_scan"}, "type": "electric_scooter", "lat": 38.87498316666667, "is_reserved": 0, "fusion_lat": 0.0}, {"bike_id": "082601d082da05ac44c6095e73798180", "fusion_lon": 0.0, "lon": -77.04568283333333, "name": "082601d082da05ac44c6095e73798180", "is_disabled": 0, "rental_uris": {"android": "https://dc.lft.to/lastmile_qr_scan", "ios": "https://dc.lft.to/lastmile_qr_scan"}, "type": "electric_bike", "lat": 38.924192833333336, "is_reserved": 0, "fusion_lat": 0.0}, {"bike_id": "02a4c21cf481b41b8e34641d75fb5996", "fusion_lon": 0.0, "lon": -77.03944316666667, "name": "02a4c21cf481b41b8e34641d75fb5996", "is_disabled": 0, "rental_uris": {"android": "https://dc.lft.to/lastmile_qr_scan", "ios": "https://dc.lft.to/lastmile_qr_scan"}, "type": "electric_scooter", "lat": 38.902374, "is_reserved": 0, "fusion_lat": 0.0}, {"bike_id": "36d35215afabd9e3d3f061b666b320f8", "fusion_lon": 0.0, "lon": -77.02209666666667, "name": "36d35215afabd9e3d3f061b666b320f8", "is_disabled": 0, "rental_uris": {"android": "https://dc.lft.to/lastmile_qr_scan", "ios": "https://dc.lft.to/lastmile_qr_scan"}, "type": "electric_scooter", "lat": 38.9155305, "is_reserved": 0, "fusion_lat": 0.0}, {"bike_id": "ee76d906f6565f28d7f0b5b3b63d8725", "fusion_lon": 0.0, "lon": -77.0452705, "name": "ee76d906f6565f28d7f0b5b3b63d8725", "is_disabled": 0, "rental_uris": {"android": "https://dc.lft.to/lastmile_qr_scan", "ios": "https://dc.lft.to/lastmile_qr_scan"}, "type": "electric_scooter", "lat": 38.932982833333334, "is_reserved": 0, "fusion_lat": 0.0}, {"bike_id": "59de3da18b0537b265cc51269529fc4e", "fusion_lon": 0.0, "lon": -77.02183, "name": "59de3da18b0537b265cc51269529fc4e", "is_disabled": 0, "rental_uris": {"android": "https://dc.lft.to/lastmile_qr_scan", "ios": "https://dc.lft.to/lastmile_qr_scan"}, "type": "electric_scooter", "lat": 38.905856166666666, "is_reserved": 0, "fusion_lat": 0.0}, {"bike_id": "6b394a0bd5525c0ff1092f6556451234", "fusion_lon": 0.0, "lon": -77.051219, "name": "6b394a0bd5525c0ff1092f6556451234", "is_disabled": 0, "rental_uris": {"android": "https://dc.lft.to/lastmile_qr_scan", "ios": "https://dc.lft.to/lastmile_qr_scan"}, "type": "electric_scooter", "lat": 38.923449166666664, "is_reserved": 0, "fusion_lat": 0.0}, {"bike_id": "03ca93033ac85991e39f4e861e342c9c", "fusion_lon": 0.0, "lon": -77.02789366666667, "name": "03ca93033ac85991e39f4e861e342c9c", "is_disabled": 0, "rental_uris": {"android": "https://dc.lft.to/lastmile_qr_scan", "ios": "https://dc.lft.to/lastmile_qr_scan"}, "type": "electric_scooter", "lat": 38.954098, "is_reserved": 0, "fusion_lat": 0.0}, {"bike_id": "77627237e603018ae2f75514c4443b83", "fusion_lon": 0.0, "lon": -77.03442933333334, "name": "77627237e603018ae2f75514c4443b83", "is_disabled": 0, "rental_uris": {"android": "https://dc.lft.to/lastmile_qr_scan", "ios": "https://dc.lft.to/lastmile_qr_scan"}, "type": "electric_scooter", "lat": 38.93439266666667, "is_reserved": 0, "fusion_lat": 0.0}, {"bike_id": "d786be1063bbd2a6571733cefb368467", "fusion_lon": 0.0, "lon": -77.0364625, "name": "d786be1063bbd2a6571733cefb368467", "is_disabled": 0, "rental_uris": {"android": "https://dc.lft.to/lastmile_qr_scan", "ios": "https://dc.lft.to/lastmile_qr_scan"}, "type": "electric_scooter", "lat": 38.906834, "is_reserved": 0, "fusion_lat": 0.0}, {"bike_id": "135f62ae92a0edd723431fa3676108c9", "fusion_lon": 0.0, "lon": -77.03168433333333, "name": "135f62ae92a0edd723431fa3676108c9", "is_disabled": 0, "rental_uris": {"android": "https://dc.lft.to/lastmile_qr_scan", "ios": "https://dc.lft.to/lastmile_qr_scan"}, "type": "electric_scooter", "lat": 38.909600833333336, "is_reserved": 0, "fusion_lat": 0.0}, {"bike_id": "1c2d582acc948f340b6c539cedb8ee18", "fusion_lon": 0.0, "lon": -77.0160625, "name": "1c2d582acc948f340b6c539cedb8ee18", "is_disabled": 0, "rental_uris": {"android": "https://dc.lft.to/lastmile_qr_scan", "ios": "https://dc.lft.to/lastmile_qr_scan"}, "type": "electric_scooter", "lat": 38.9181085, "is_reserved": 0, "fusion_lat": 0.0}, {"bike_id": "fdbf4baf930f4c2169ad4ba97405c4f0", "fusion_lon": 0.0, "lon": -77.0229365, "name": "fdbf4baf930f4c2169ad4ba97405c4f0", "is_disabled": 0, "rental_uris": {"android": "https://dc.lft.to/lastmile_qr_scan", "ios": "https://dc.lft.to/lastmile_qr_scan"}, "type": "electric_scooter", "lat": 38.9181035, "is_reserved": 0, "fusion_lat": 0.0}, {"bike_id": "2691f13ff64a7c9ea928e7f628f14f4e", "fusion_lon": 0.0, "lon": -77.014656, "name": "2691f13ff64a7c9ea928e7f628f14f4e", "is_disabled": 0, "rental_uris": {"android": "https://dc.lft.to/lastmile_qr_scan", "ios": "https://dc.lft.to/lastmile_qr_scan"}, "type": "electric_scooter", "lat": 38.91767216666667, "is_reserved": 0, "fusion_lat": 0.0}, {"bike_id": "64fdac44b3aaeb446ad480b60f907f3a", "fusion_lon": 0.0, "lon": -77.04997, "name": "64fdac44b3aaeb446ad480b60f907f3a", "is_disabled": 0, "rental_uris": {"android": "https://dc.lft.to/lastmile_qr_scan", "ios": "https://dc.lft.to/lastmile_qr_scan"}, "type": "electric_scooter", "lat": 38.89229616666667, "is_reserved": 0, "fusion_lat": 0.0}, {"bike_id": "a378017ef3c446c18d1e98890b3c1e3b", "fusion_lon": 0.0, "lon": -77.02172416666667, "name": "a378017ef3c446c18d1e98890b3c1e3b", "is_disabled": 0, "rental_uris": {"android": "https://dc.lft.to/lastmile_qr_scan", "ios": "https://dc.lft.to/lastmile_qr_scan"}, "type": "electric_scooter", "lat": 38.91423833333333, "is_reserved": 0, "fusion_lat": 0.0}, {"bike_id": "e00f350d978a29f2f7b5d5eb6b145e59", "fusion_lon": 0.0, "lon": -77.05316783333333, "name": "e00f350d978a29f2f7b5d5eb6b145e59", "is_disabled": 0, "rental_uris": {"android": "https://dc.lft.to/lastmile_qr_scan", "ios": "https://dc.lft.to/lastmile_qr_scan"}, "type": "electric_scooter", "lat": 38.904218166666666, "is_reserved": 0, "fusion_lat": 0.0}, {"bike_id": "580327c248cd6c8c227f9930eb5ed9c7", "fusion_lon": 0.0, "lon": -77.05327033333333, "name": "580327c248cd6c8c227f9930eb5ed9c7", "is_disabled": 0, "rental_uris": {"android": "https://dc.lft.to/lastmile_qr_scan", "ios": "https://dc.lft.to/lastmile_qr_scan"}, "type": "electric_scooter", "lat": 38.92357366666667, "is_reserved": 0, "fusion_lat": 0.0}, {"bike_id": "c706a0647c0ba0c60b76a9a71bd2b120", "fusion_lon": 0.0, "lon": -77.02764183333333, "name": "c706a0647c0ba0c60b76a9a71bd2b120", "is_disabled": 0, "rental_uris": {"android": "https://dc.lft.to/lastmile_qr_scan", "ios": "https://dc.lft.to/lastmile_qr_scan"}, "type": "electric_scooter", "lat": 38.95424466666667, "is_reserved": 0, "fusion_lat": 0.0}, {"bike_id": "31fbdf3670db254efc1fe990d87cc4ba", "fusion_lon": 0.0, "lon": -76.99505183333333, "name": "31fbdf3670db254efc1fe990d87cc4ba", "is_disabled": 0, "rental_uris": {"android": "https://dc.lft.to/lastmile_qr_scan", "ios": "https://dc.lft.to/lastmile_qr_scan"}, "type": "electric_scooter", "lat": 38.882527333333336, "is_reserved": 0, "fusion_lat": 0.0}, {"bike_id": "c86d446989eaaeae77819a248d402ff5", "fusion_lon": 0.0, "lon": -77.0307525, "name": "c86d446989eaaeae77819a248d402ff5", "is_disabled": 0, "rental_uris": {"android": "https://dc.lft.to/lastmile_qr_scan", "ios": "https://dc.lft.to/lastmile_qr_scan"}, "type": "electric_scooter", "lat": 38.923691833333336, "is_reserved": 0, "fusion_lat": 0.0}, {"bike_id": "850a7edd2d10ca76c088a558f19ac039", "fusion_lon": 0.0, "lon": -77.0312545, "name": "850a7edd2d10ca76c088a558f19ac039", "is_disabled": 0, "rental_uris": {"android": "https://dc.lft.to/lastmile_qr_scan", "ios": "https://dc.lft.to/lastmile_qr_scan"}, "type": "electric_scooter", "lat": 38.9236765, "is_reserved": 0, "fusion_lat": 0.0}, {"bike_id": "9d3d08eee0bf96ba8fa15094602d760d", "fusion_lon": 0.0, "lon": -77.0465755, "name": "9d3d08eee0bf96ba8fa15094602d760d", "is_disabled": 0, "rental_uris": {"android": "https://dc.lft.to/lastmile_qr_scan", "ios": "https://dc.lft.to/lastmile_qr_scan"}, "type": "electric_scooter", "lat": 38.89253316666667, "is_reserved": 0, "fusion_lat": 0.0}, {"bike_id": "ff770c223bbbe1eb285642b47ea443c2", "fusion_lon": 0.0, "lon": -77.02292666666666, "name": "ff770c223bbbe1eb285642b47ea443c2", "is_disabled": 0, "rental_uris": {"android": "https://dc.lft.to/lastmile_qr_scan", "ios": "https://dc.lft.to/lastmile_qr_scan"}, "type": "electric_scooter", "lat": 38.895725, "is_reserved": 0, "fusion_lat": 0.0}, {"bike_id": "60ae70d87b9c4d9f489ac8b80893df9c", "fusion_lon": 0.0, "lon": -76.91599233333334, "name": "60ae70d87b9c4d9f489ac8b80893df9c", "is_disabled": 0, "rental_uris": {"android": "https://dc.lft.to/lastmile_qr_scan", "ios": "https://dc.lft.to/lastmile_qr_scan"}, "type": "electric_bike", "lat": 38.8798225, "is_reserved": 0, "fusion_lat": 0.0}, {"bike_id": "7eb3a31f311da010164c7af9f9c0baef", "fusion_lon": 0.0, "lon": -77.01831883333334, "name": "7eb3a31f311da010164c7af9f9c0baef", "is_disabled": 0, "rental_uris": {"android": "https://dc.lft.to/lastmile_qr_scan", "ios": "https://dc.lft.to/lastmile_qr_scan"}, "type": "electric_scooter", "lat": 38.89997366666667, "is_reserved": 0, "fusion_lat": 0.0}, {"bike_id": "2b83951fc343707c3d4feab1351cee99", "fusion_lon": 0.0, "lon": -76.99557316666667, "name": "2b83951fc343707c3d4feab1351cee99", "is_disabled": 0, "rental_uris": {"android": "https://dc.lft.to/lastmile_qr_scan", "ios": "https://dc.lft.to/lastmile_qr_scan"}, "type": "electric_scooter", "lat": 38.92021416666667, "is_reserved": 0, "fusion_lat": 0.0}, {"bike_id": "68cb4e4250d9c4282b091b9ad06add88", "fusion_lon": 0.0, "lon": -77.028086, "name": "68cb4e4250d9c4282b091b9ad06add88", "is_disabled": 0, "rental_uris": {"android": "https://dc.lft.to/lastmile_qr_scan", "ios": "https://dc.lft.to/lastmile_qr_scan"}, "type": "electric_scooter", "lat": 38.916864333333336, "is_reserved": 0, "fusion_lat": 0.0}, {"bike_id": "d1376713e3ee9cb8035675f79cf706f4", "fusion_lon": 0.0, "lon": -77.0543865, "name": "d1376713e3ee9cb8035675f79cf706f4", "is_disabled": 0, "rental_uris": {"android": "https://dc.lft.to/lastmile_qr_scan", "ios": "https://dc.lft.to/lastmile_qr_scan"}, "type": "electric_scooter", "lat": 38.89603616666667, "is_reserved": 0, "fusion_lat": 0.0}, {"bike_id": "ed36ec37d7d196a3063b5fef63a9d918", "fusion_lon": 0.0, "lon": -76.90967933333333, "name": "ed36ec37d7d196a3063b5fef63a9d918", "is_disabled": 0, "rental_uris": {"android": "https://dc.lft.to/lastmile_qr_scan", "ios": "https://dc.lft.to/lastmile_qr_scan"}, "type": "electric_bike", "lat": 38.854184333333336, "is_reserved": 0, "fusion_lat": 0.0}, {"bike_id": "bb471afebd160218003b5de2e7e7fb80", "fusion_lon": 0.0, "lon": -77.0409585, "name": "bb471afebd160218003b5de2e7e7fb80", "is_disabled": 0, "rental_uris": {"android": "https://dc.lft.to/lastmile_qr_scan", "ios": "https://dc.lft.to/lastmile_qr_scan"}, "type": "electric_scooter", "lat": 38.9178085, "is_reserved": 0, "fusion_lat": 0.0}, {"bike_id": "437a346301fcbe98f4b7af32a41e5738", "fusion_lon": 0.0, "lon": -77.04198533333333, "name": "437a346301fcbe98f4b7af32a41e5738", "is_disabled": 0, "rental_uris": {"android": "https://dc.lft.to/lastmile_qr_scan", "ios": "https://dc.lft.to/lastmile_qr_scan"}, "type": "electric_scooter", "lat": 38.911269, "is_reserved": 0, "fusion_lat": 0.0}, {"bike_id": "b071762665291e34be4f27c829b12f3e", "fusion_lon": 0.0, "lon": -77.02764466666666, "name": "b071762665291e34be4f27c829b12f3e", "is_disabled": 0, "rental_uris": {"android": "https://dc.lft.to/lastmile_qr_scan", "ios": "https://dc.lft.to/lastmile_qr_scan"}, "type": "electric_scooter", "lat": 38.954276166666666, "is_reserved": 0, "fusion_lat": 0.0}, {"bike_id": "23940bd5a1f4fe8bd5834cb1262b5032", "fusion_lon": 0.0, "lon": -77.03836783333334, "name": "23940bd5a1f4fe8bd5834cb1262b5032", "is_disabled": 0, "rental_uris": {"android": "https://dc.lft.to/lastmile_qr_scan", "ios": "https://dc.lft.to/lastmile_qr_scan"}, "type": "electric_scooter", "lat": 38.931618666666665, "is_reserved": 0, "fusion_lat": 0.0}, {"bike_id": "cb4f54d97f10d1718cb74c9553ecf4a0", "fusion_lon": 0.0, "lon": -77.03508616666667, "name": "cb4f54d97f10d1718cb74c9553ecf4a0", "is_disabled": 0, "rental_uris": {"android": "https://dc.lft.to/lastmile_qr_scan", "ios": "https://dc.lft.to/lastmile_qr_scan"}, "type": "electric_scooter", "lat": 38.9214765, "is_reserved": 0, "fusion_lat": 0.0}, {"bike_id": "d670d7a69047478f980dc195abf683df", "fusion_lon": 0.0, "lon": -76.96525983333333, "name": "d670d7a69047478f980dc195abf683df", "is_disabled": 0, "rental_uris": {"android": "https://dc.lft.to/lastmile_qr_scan", "ios": "https://dc.lft.to/lastmile_qr_scan"}, "type": "electric_scooter", "lat": 38.876253, "is_reserved": 0, "fusion_lat": 0.0}, {"bike_id": "3f880fec9065857cc033a41151374bbc", "fusion_lon": 0.0, "lon": -77.02677633333333, "name": "3f880fec9065857cc033a41151374bbc", "is_disabled": 0, "rental_uris": {"android": "https://dc.lft.to/lastmile_qr_scan", "ios": "https://dc.lft.to/lastmile_qr_scan"}, "type": "electric_scooter", "lat": 38.88139966666667, "is_reserved": 0, "fusion_lat": 0.0}, {"bike_id": "3302ac9ba50a9c4ffaf304e419b8d283", "fusion_lon": 0.0, "lon": -77.05226066666667, "name": "3302ac9ba50a9c4ffaf304e419b8d283", "is_disabled": 0, "rental_uris": {"android": "https://dc.lft.to/lastmile_qr_scan", "ios": "https://dc.lft.to/lastmile_qr_scan"}, "type": "electric_scooter", "lat": 38.92461216666667, "is_reserved": 0, "fusion_lat": 0.0}, {"bike_id": "a2377d41f9dee41e6bb802736c245b0c", "fusion_lon": 0.0, "lon": -77.0432835, "name": "a2377d41f9dee41e6bb802736c245b0c", "is_disabled": 0, "rental_uris": {"android": "https://dc.lft.to/lastmile_qr_scan", "ios": "https://dc.lft.to/lastmile_qr_scan"}, "type": "electric_scooter", "lat": 38.89221166666667, "is_reserved": 0, "fusion_lat": 0.0}, {"bike_id": "bf37eb3b9f11d34201660a5eaedb88ab", "fusion_lon": 0.0, "lon": -76.98883866666667, "name": "bf37eb3b9f11d34201660a5eaedb88ab", "is_disabled": 0, "rental_uris": {"android": "https://dc.lft.to/lastmile_qr_scan", "ios": "https://dc.lft.to/lastmile_qr_scan"}, "type": "electric_scooter", "lat": 38.86662, "is_reserved": 0, "fusion_lat": 0.0}, {"bike_id": "120c95d4324711ce695f80e2341e8c2a", "fusion_lon": 0.0, "lon": -77.0258225, "name": "120c95d4324711ce695f80e2341e8c2a", "is_disabled": 0, "rental_uris": {"android": "https://dc.lft.to/lastmile_qr_scan", "ios": "https://dc.lft.to/lastmile_qr_scan"}, "type": "electric_scooter", "lat": 38.90240583333333, "is_reserved": 0, "fusion_lat": 0.0}, {"bike_id": "742f3283b71606a54d9063c653ee46f4", "fusion_lon": 0.0, "lon": -77.00567616666666, "name": "742f3283b71606a54d9063c653ee46f4", "is_disabled": 0, "rental_uris": {"android": "https://dc.lft.to/lastmile_qr_scan", "ios": "https://dc.lft.to/lastmile_qr_scan"}, "type": "electric_scooter", "lat": 38.880473333333335, "is_reserved": 0, "fusion_lat": 0.0}, {"bike_id": "75e11da7bfaac8a1152fa797fa1e07b8", "fusion_lon": 0.0, "lon": -77.04306916666667, "name": "75e11da7bfaac8a1152fa797fa1e07b8", "is_disabled": 0, "rental_uris": {"android": "https://dc.lft.to/lastmile_qr_scan", "ios": "https://dc.lft.to/lastmile_qr_scan"}, "type": "electric_scooter", "lat": 38.92656683333333, "is_reserved": 0, "fusion_lat": 0.0}, {"bike_id": "ea6f11f8e06d5d73340fe9b1bf274b43", "fusion_lon": 0.0, "lon": -76.9873475, "name": "ea6f11f8e06d5d73340fe9b1bf274b43", "is_disabled": 0, "rental_uris": {"android": "https://dc.lft.to/lastmile_qr_scan", "ios": "https://dc.lft.to/lastmile_qr_scan"}, "type": "electric_scooter", "lat": 38.90695516666667, "is_reserved": 0, "fusion_lat": 0.0}, {"bike_id": "e0c2da164950724578246fe9ecf86c8d", "fusion_lon": 0.0, "lon": -77.03666366666667, "name": "e0c2da164950724578246fe9ecf86c8d", "is_disabled": 0, "rental_uris": {"android": "https://dc.lft.to/lastmile_qr_scan", "ios": "https://dc.lft.to/lastmile_qr_scan"}, "type": "electric_scooter", "lat": 38.92101383333333, "is_reserved": 0, "fusion_lat": 0.0}, {"bike_id": "c5bc1329a08d8864a02a8cb7bb070834", "fusion_lon": 0.0, "lon": -77.02714316666666, "name": "c5bc1329a08d8864a02a8cb7bb070834", "is_disabled": 0, "rental_uris": {"android": "https://dc.lft.to/lastmile_qr_scan", "ios": "https://dc.lft.to/lastmile_qr_scan"}, "type": "electric_scooter", "lat": 38.909527833333335, "is_reserved": 0, "fusion_lat": 0.0}, {"bike_id": "011f483763ada59b282233ac87964c44", "fusion_lon": 0.0, "lon": -77.03215, "name": "011f483763ada59b282233ac87964c44", "is_disabled": 0, "rental_uris": {"android": "https://dc.lft.to/lastmile_qr_scan", "ios": "https://dc.lft.to/lastmile_qr_scan"}, "type": "electric_scooter", "lat": 38.918423833333335, "is_reserved": 0, "fusion_lat": 0.0}, {"bike_id": "1bfe45ab7dd55eb4b5aca3b6794738b0", "fusion_lon": 0.0, "lon": -76.93753183333334, "name": "1bfe45ab7dd55eb4b5aca3b6794738b0", "is_disabled": 0, "rental_uris": {"android": "https://dc.lft.to/lastmile_qr_scan", "ios": "https://dc.lft.to/lastmile_qr_scan"}, "type": "electric_scooter", "lat": 38.8904205, "is_reserved": 0, "fusion_lat": 0.0}, {"bike_id": "a59322c0d1e097c5870fcad7ee3f9015", "fusion_lon": 0.0, "lon": -77.02916133333333, "name": "a59322c0d1e097c5870fcad7ee3f9015", "is_disabled": 0, "rental_uris": {"android": "https://dc.lft.to/lastmile_qr_scan", "ios": "https://dc.lft.to/lastmile_qr_scan"}, "type": "electric_scooter", "lat": 38.89933833333333, "is_reserved": 0, "fusion_lat": 0.0}, {"bike_id": "d4ec8a8e96e30bc64354e9aac06814df", "fusion_lon": 0.0, "lon": -76.9926675, "name": "d4ec8a8e96e30bc64354e9aac06814df", "is_disabled": 0, "rental_uris": {"android": "https://dc.lft.to/lastmile_qr_scan", "ios": "https://dc.lft.to/lastmile_qr_scan"}, "type": "electric_scooter", "lat": 38.88639916666666, "is_reserved": 0, "fusion_lat": 0.0}, {"bike_id": "5225d560807d6f00a634a98150e1de45", "fusion_lon": 0.0, "lon": -77.03200116666666, "name": "5225d560807d6f00a634a98150e1de45", "is_disabled": 0, "rental_uris": {"android": "https://dc.lft.to/lastmile_qr_scan", "ios": "https://dc.lft.to/lastmile_qr_scan"}, "type": "electric_scooter", "lat": 38.914707166666666, "is_reserved": 0, "fusion_lat": 0.0}, {"bike_id": "e3c51d619b68061486922ba18bf6f900", "fusion_lon": 0.0, "lon": -77.01944633333333, "name": "e3c51d619b68061486922ba18bf6f900", "is_disabled": 0, "rental_uris": {"android": "https://dc.lft.to/lastmile_qr_scan", "ios": "https://dc.lft.to/lastmile_qr_scan"}, "type": "electric_scooter", "lat": 38.9241635, "is_reserved": 0, "fusion_lat": 0.0}, {"bike_id": "b22d186fd80f0dcd1c5e6ad53aefe1f7", "fusion_lon": 0.0, "lon": -77.05119616666667, "name": "b22d186fd80f0dcd1c5e6ad53aefe1f7", "is_disabled": 0, "rental_uris": {"android": "https://dc.lft.to/lastmile_qr_scan", "ios": "https://dc.lft.to/lastmile_qr_scan"}, "type": "electric_scooter", "lat": 38.905152666666666, "is_reserved": 0, "fusion_lat": 0.0}, {"bike_id": "774da5f6e015737943f38abfc4401581", "fusion_lon": 0.0, "lon": -77.0147655, "name": "774da5f6e015737943f38abfc4401581", "is_disabled": 0, "rental_uris": {"android": "https://dc.lft.to/lastmile_qr_scan", "ios": "https://dc.lft.to/lastmile_qr_scan"}, "type": "electric_scooter", "lat": 38.87645, "is_reserved": 0, "fusion_lat": 0.0}, {"bike_id": "33eb8b30f798654f50209360a72b5196", "fusion_lon": 0.0, "lon": -77.0269155, "name": "33eb8b30f798654f50209360a72b5196", "is_disabled": 0, "rental_uris": {"android": "https://dc.lft.to/lastmile_qr_scan", "ios": "https://dc.lft.to/lastmile_qr_scan"}, "type": "electric_scooter", "lat": 38.90669883333333, "is_reserved": 0, "fusion_lat": 0.0}, {"bike_id": "f0661bdce33aa934146420d96c80abce", "fusion_lon": 0.0, "lon": -77.13106916666666, "name": "f0661bdce33aa934146420d96c80abce", "is_disabled": 0, "rental_uris": {"android": "https://dc.lft.to/lastmile_qr_scan", "ios": "https://dc.lft.to/lastmile_qr_scan"}, "type": "electric_bike", "lat": 39.02439666666667, "is_reserved": 0, "fusion_lat": 0.0}, {"bike_id": "925758fbca0e740ec4f44d3b25f40644", "fusion_lon": 0.0, "lon": -77.02748566666666, "name": "925758fbca0e740ec4f44d3b25f40644", "is_disabled": 0, "rental_uris": {"android": "https://dc.lft.to/lastmile_qr_scan", "ios": "https://dc.lft.to/lastmile_qr_scan"}, "type": "electric_scooter", "lat": 38.95166866666667, "is_reserved": 0, "fusion_lat": 0.0}, {"bike_id": "46ac705eed81e4ca80de3c284c7a97c2", "fusion_lon": 0.0, "lon": -76.9900245, "name": "46ac705eed81e4ca80de3c284c7a97c2", "is_disabled": 0, "rental_uris": {"android": "https://dc.lft.to/lastmile_qr_scan", "ios": "https://dc.lft.to/lastmile_qr_scan"}, "type": "electric_scooter", "lat": 38.924489333333334, "is_reserved": 0, "fusion_lat": 0.0}, {"bike_id": "96e542c73f06e1f8a1c0a35f7e2bcedd", "fusion_lon": 0.0, "lon": -76.94742, "name": "96e542c73f06e1f8a1c0a35f7e2bcedd", "is_disabled": 0, "rental_uris": {"android": "https://dc.lft.to/lastmile_qr_scan", "ios": "https://dc.lft.to/lastmile_qr_scan"}, "type": "electric_scooter", "lat": 38.896752666666664, "is_reserved": 0, "fusion_lat": 0.0}, {"bike_id": "d678398533bc5855af8650f72e581e23", "fusion_lon": 0.0, "lon": -77.06076116666667, "name": "d678398533bc5855af8650f72e581e23", "is_disabled": 0, "rental_uris": {"android": "https://dc.lft.to/lastmile_qr_scan", "ios": "https://dc.lft.to/lastmile_qr_scan"}, "type": "electric_bike", "lat": 38.885795, "is_reserved": 0, "fusion_lat": 0.0}, {"bike_id": "8bebcb56c88af9f6d87b5a25319f604e", "fusion_lon": 0.0, "lon": -77.04332366666667, "name": "8bebcb56c88af9f6d87b5a25319f604e", "is_disabled": 0, "rental_uris": {"android": "https://dc.lft.to/lastmile_qr_scan", "ios": "https://dc.lft.to/lastmile_qr_scan"}, "type": "electric_scooter", "lat": 38.907318833333335, "is_reserved": 0, "fusion_lat": 0.0}, {"bike_id": "a16b55b2fe2c651ab6e567560436540d", "fusion_lon": 0.0, "lon": -77.03367116666666, "name": "a16b55b2fe2c651ab6e567560436540d", "is_disabled": 0, "rental_uris": {"android": "https://dc.lft.to/lastmile_qr_scan", "ios": "https://dc.lft.to/lastmile_qr_scan"}, "type": "electric_scooter", "lat": 38.932216, "is_reserved": 0, "fusion_lat": 0.0}, {"bike_id": "c5b2bfb28acb12dd6172e0fa6b2e4e86", "fusion_lon": 0.0, "lon": -77.02785516666667, "name": "c5b2bfb28acb12dd6172e0fa6b2e4e86", "is_disabled": 0, "rental_uris": {"android": "https://dc.lft.to/lastmile_qr_scan", "ios": "https://dc.lft.to/lastmile_qr_scan"}, "type": "electric_scooter", "lat": 38.930577666666665, "is_reserved": 0, "fusion_lat": 0.0}, {"bike_id": "09c7a30c807d53d4f0e888bec3fa394d", "fusion_lon": 0.0, "lon": -77.094828, "name": "09c7a30c807d53d4f0e888bec3fa394d", "is_disabled": 0, "rental_uris": {"android": "https://dc.lft.to/lastmile_qr_scan", "ios": "https://dc.lft.to/lastmile_qr_scan"}, "type": "electric_bike", "lat": 39.03053166666667, "is_reserved": 0, "fusion_lat": 0.0}, {"bike_id": "b64a55abd7f0d2ff4b35d8dc273b8a4e", "fusion_lon": 0.0, "lon": -77.0019295, "name": "b64a55abd7f0d2ff4b35d8dc273b8a4e", "is_disabled": 0, "rental_uris": {"android": "https://dc.lft.to/lastmile_qr_scan", "ios": "https://dc.lft.to/lastmile_qr_scan"}, "type": "electric_scooter", "lat": 38.9024375, "is_reserved": 0, "fusion_lat": 0.0}, {"bike_id": "de1c0935e0493460f9212cd980c770c7", "fusion_lon": 0.0, "lon": -77.0272025, "name": "de1c0935e0493460f9212cd980c770c7", "is_disabled": 0, "rental_uris": {"android": "https://dc.lft.to/lastmile_qr_scan", "ios": "https://dc.lft.to/lastmile_qr_scan"}, "type": "electric_scooter", "lat": 38.94960916666667, "is_reserved": 0, "fusion_lat": 0.0}, {"bike_id": "d86808e01b359dd5fdcba9e76ab19809", "fusion_lon": 0.0, "lon": -77.02123116666667, "name": "d86808e01b359dd5fdcba9e76ab19809", "is_disabled": 0, "rental_uris": {"android": "https://dc.lft.to/lastmile_qr_scan", "ios": "https://dc.lft.to/lastmile_qr_scan"}, "type": "electric_scooter", "lat": 38.899624333333335, "is_reserved": 0, "fusion_lat": 0.0}, {"bike_id": "4f305ffd3137368fdc9bb3e794e26fd3", "fusion_lon": 0.0, "lon": -77.02532683333334, "name": "4f305ffd3137368fdc9bb3e794e26fd3", "is_disabled": 0, "rental_uris": {"android": "https://dc.lft.to/lastmile_qr_scan", "ios": "https://dc.lft.to/lastmile_qr_scan"}, "type": "electric_scooter", "lat": 38.924883333333334, "is_reserved": 0, "fusion_lat": 0.0}, {"bike_id": "c964535a40385f37659f3c2db777395f", "fusion_lon": 0.0, "lon": -77.02578933333334, "name": "c964535a40385f37659f3c2db777395f", "is_disabled": 0, "rental_uris": {"android": "https://dc.lft.to/lastmile_qr_scan", "ios": "https://dc.lft.to/lastmile_qr_scan"}, "type": "electric_scooter", "lat": 38.927012833333336, "is_reserved": 0, "fusion_lat": 0.0}, {"bike_id": "e1d2ea2faa669fe423fc5db334172233", "fusion_lon": 0.0, "lon": -77.00198983333334, "name": "e1d2ea2faa669fe423fc5db334172233", "is_disabled": 0, "rental_uris": {"android": "https://dc.lft.to/lastmile_qr_scan", "ios": "https://dc.lft.to/lastmile_qr_scan"}, "type": "electric_scooter", "lat": 38.90032683333333, "is_reserved": 0, "fusion_lat": 0.0}, {"bike_id": "13ce4d4a312aeb274e747088a176378f", "fusion_lon": 0.0, "lon": -77.04908783333333, "name": "13ce4d4a312aeb274e747088a176378f", "is_disabled": 0, "rental_uris": {"android": "https://dc.lft.to/lastmile_qr_scan", "ios": "https://dc.lft.to/lastmile_qr_scan"}, "type": "electric_scooter", "lat": 38.90081416666666, "is_reserved": 0, "fusion_lat": 0.0}, {"bike_id": "724fe75393c94d2a6036589b994445c9", "fusion_lon": 0.0, "lon": -77.04454133333333, "name": "724fe75393c94d2a6036589b994445c9", "is_disabled": 0, "rental_uris": {"android": "https://dc.lft.to/lastmile_qr_scan", "ios": "https://dc.lft.to/lastmile_qr_scan"}, "type": "electric_scooter", "lat": 38.9185155, "is_reserved": 0, "fusion_lat": 0.0}, {"bike_id": "663a03266deef43794ceefab1ec4e1e0", "fusion_lon": 0.0, "lon": -77.01744433333333, "name": "663a03266deef43794ceefab1ec4e1e0", "is_disabled": 0, "rental_uris": {"android": "https://dc.lft.to/lastmile_qr_scan", "ios": "https://dc.lft.to/lastmile_qr_scan"}, "type": "electric_scooter", "lat": 38.911062333333334, "is_reserved": 0, "fusion_lat": 0.0}, {"bike_id": "0fa394afe02795eb813351e96d5c9b99", "fusion_lon": 0.0, "lon": -76.9892155, "name": "0fa394afe02795eb813351e96d5c9b99", "is_disabled": 0, "rental_uris": {"android": "https://dc.lft.to/lastmile_qr_scan", "ios": "https://dc.lft.to/lastmile_qr_scan"}, "type": "electric_scooter", "lat": 38.84073766666667, "is_reserved": 0, "fusion_lat": 0.0}, {"bike_id": "18cb247a10bd8b483c6cc45dd5a78764", "fusion_lon": 0.0, "lon": -77.04325466666667, "name": "18cb247a10bd8b483c6cc45dd5a78764", "is_disabled": 0, "rental_uris": {"android": "https://dc.lft.to/lastmile_qr_scan", "ios": "https://dc.lft.to/lastmile_qr_scan"}, "type": "electric_scooter", "lat": 38.892214833333334, "is_reserved": 0, "fusion_lat": 0.0}, {"bike_id": "a911e58fd2aabc4cb82938f512fc2ea5", "fusion_lon": 0.0, "lon": -77.03504733333334, "name": "a911e58fd2aabc4cb82938f512fc2ea5", "is_disabled": 0, "rental_uris": {"android": "https://dc.lft.to/lastmile_qr_scan", "ios": "https://dc.lft.to/lastmile_qr_scan"}, "type": "electric_scooter", "lat": 38.935938, "is_reserved": 0, "fusion_lat": 0.0}, {"bike_id": "0074ef2d95586260abe617aafa0b5fc8", "fusion_lon": 0.0, "lon": -77.01681083333334, "name": "0074ef2d95586260abe617aafa0b5fc8", "is_disabled": 0, "rental_uris": {"android": "https://dc.lft.to/lastmile_qr_scan", "ios": "https://dc.lft.to/lastmile_qr_scan"}, "type": "electric_scooter", "lat": 38.907225333333336, "is_reserved": 0, "fusion_lat": 0.0}, {"bike_id": "4a11d2bc7e92593c1a5791ede15faa0d", "fusion_lon": 0.0, "lon": -76.98534933333333, "name": "4a11d2bc7e92593c1a5791ede15faa0d", "is_disabled": 0, "rental_uris": {"android": "https://dc.lft.to/lastmile_qr_scan", "ios": "https://dc.lft.to/lastmile_qr_scan"}, "type": "electric_scooter", "lat": 38.866457, "is_reserved": 0, "fusion_lat": 0.0}, {"bike_id": "b92262e127c23ad56f8ec264ebd8d244", "fusion_lon": 0.0, "lon": -77.0257995, "name": "b92262e127c23ad56f8ec264ebd8d244", "is_disabled": 0, "rental_uris": {"android": "https://dc.lft.to/lastmile_qr_scan", "ios": "https://dc.lft.to/lastmile_qr_scan"}, "type": "electric_scooter", "lat": 38.892287333333336, "is_reserved": 0, "fusion_lat": 0.0}, {"bike_id": "e0f52ccd11af3335c0764a46fde6fcac", "fusion_lon": 0.0, "lon": -77.03280683333334, "name": "e0f52ccd11af3335c0764a46fde6fcac", "is_disabled": 0, "rental_uris": {"android": "https://dc.lft.to/lastmile_qr_scan", "ios": "https://dc.lft.to/lastmile_qr_scan"}, "type": "electric_scooter", "lat": 38.9287355, "is_reserved": 0, "fusion_lat": 0.0}, {"bike_id": "8ccb8cd4fdbf53bfe27f60ffe5bd8645", "fusion_lon": 0.0, "lon": -77.02501283333334, "name": "8ccb8cd4fdbf53bfe27f60ffe5bd8645", "is_disabled": 0, "rental_uris": {"android": "https://dc.lft.to/lastmile_qr_scan", "ios": "https://dc.lft.to/lastmile_qr_scan"}, "type": "electric_scooter", "lat": 38.9193675, "is_reserved": 0, "fusion_lat": 0.0}, {"bike_id": "560f03503b28b1666bdc2c0ec14aba7f", "fusion_lon": 0.0, "lon": -77.026742, "name": "560f03503b28b1666bdc2c0ec14aba7f", "is_disabled": 0, "rental_uris": {"android": "https://dc.lft.to/lastmile_qr_scan", "ios": "https://dc.lft.to/lastmile_qr_scan"}, "type": "electric_scooter", "lat": 38.89822916666667, "is_reserved": 0, "fusion_lat": 0.0}, {"bike_id": "b10190ea6198cbb8524facbc4472d0dc", "fusion_lon": 0.0, "lon": -77.04876433333334, "name": "b10190ea6198cbb8524facbc4472d0dc", "is_disabled": 0, "rental_uris": {"android": "https://dc.lft.to/lastmile_qr_scan", "ios": "https://dc.lft.to/lastmile_qr_scan"}, "type": "electric_scooter", "lat": 38.909734666666665, "is_reserved": 0, "fusion_lat": 0.0}, {"bike_id": "9fd4db328bad3165b1183a561f265f04", "fusion_lon": 0.0, "lon": -76.99153566666666, "name": "9fd4db328bad3165b1183a561f265f04", "is_disabled": 0, "rental_uris": {"android": "https://dc.lft.to/lastmile_qr_scan", "ios": "https://dc.lft.to/lastmile_qr_scan"}, "type": "electric_scooter", "lat": 38.86305266666667, "is_reserved": 0, "fusion_lat": 0.0}, {"bike_id": "c6dd4dca7a74f613344575cf81c28457", "fusion_lon": 0.0, "lon": -77.01611316666667, "name": "c6dd4dca7a74f613344575cf81c28457", "is_disabled": 0, "rental_uris": {"android": "https://dc.lft.to/lastmile_qr_scan", "ios": "https://dc.lft.to/lastmile_qr_scan"}, "type": "electric_scooter", "lat": 38.895290833333334, "is_reserved": 0, "fusion_lat": 0.0},