{"data": {"bikes": [{"name": "6b981d640c764310bfe281b5ad92e83e", "is_disabled": 0, "fusion_lat": 0.0, "fusion_lon": 0.0, "type": "electric_scooter", "lat": 38.926146833333334, "bike_id": "6b981d640c764310bfe281b5ad92e83e", "is_reserved": 0, "lon": -77.043349, "rental_uris": {"android": "https://dc.lft.to/lastmile_qr_scan", "ios": "https://dc.lft.to/lastmile_qr_scan"}}, {"name": "2c69b68b7413dcb064b3f28d56d30591", "is_disabled": 0, "fusion_lat": 0.0, "fusion_lon": 0.0, "type": "electric_scooter", "lat": 38.895024166666666, "bike_id": "2c69b68b7413dcb064b3f28d56d30591", "is_reserved": 0, "lon": -76.93479783333333, "rental_uris": {"android": "https://dc.lft.to/lastmile_qr_scan", "ios": "https://dc.lft.to/lastmile_qr_scan"}}, {"name": "585bf69d7350b5ccdc0ef4e3f55cd631", "is_disabled": 0, "fusion_lat": 0.0, "fusion_lon": 0.0, "type": "electric_bike", "lat": 38.89302933333333, "bike_id": "585bf69d7350b5ccdc0ef4e3f55cd631", "is_reserved": 0, "lon": -77.0260715, "rental_uris": {"android": "https://dc.lft.to/lastmile_qr_scan", "ios": "https://dc.lft.to/lastmile_qr_scan"}}, {"name": "bf6358afc19952f9b68445b0e41947de", "is_disabled": 0, "fusion_lat": 0.0, "fusion_lon": 0.0, "type": "electric_scooter", "lat": 38.927423166666664, "bike_id": "bf6358afc19952f9b68445b0e41947de", "is_reserved": 0, "lon": -77.03306016666667, "rental_uris": {"android": "https://dc.lft.to/lastmile_qr_scan", "ios": "https://dc.lft.to/lastmile_qr_scan"}}, {"name": "f53df8d20e3e214da53269d2fd002009", "is_disabled": 0, "fusion_lat": 0.0, "fusion_lon": 0.0, "type": "electric_bike", "lat": 38.9953205, "bike_id": "f53df8d20e3e214da53269d2fd002009", "is_reserved": 0, "lon": -77.06947016666666, "rental_uris": {"android": "https://dc.lft.to/lastmile_qr_scan", "ios": "https://dc.lft.to/lastmile_qr_scan"}}, {"name": "e3851b851c537f1a31fffa951d2ddfd6", "is_disabled": 0, "fusion_lat": 0.0, "fusion_lon": 0.0, "type": "electric_scooter", "lat": 38.91626766666667, "bike_id": "e3851b851c537f1a31fffa951d2ddfd6", "is_reserved": 0, "lon": -77.013518, "rental_uris": {"android": "https://dc.lft.to/lastmile_qr_scan", "ios": "https://dc.lft.to/lastmile_qr_scan"}}, {"name": "1bf533f86187ece89ecb97bfa61c8e35", "is_disabled": 0, "fusion_lat": 0.0, "fusion_lon": 0.0, "type": "electric_scooter", "lat": 38.900403, "bike_id": "1bf533f86187ece89ecb97bfa61c8e35", "is_reserved": 0, "lon": -77.04332916666667, "rental_uris": {"android": "https://dc.lft.to/lastmile_qr_scan", "ios": "https://dc.lft.to/lastmile_qr_scan"}}, {"name": "1bc444b9ab81a0e0536fe341a2263e1d", "is_disabled": 0, "fusion_lat": 0.0, "fusion_lon": 0.0, "type": "electric_bike", "lat": 38.88200283333333, "bike_id": "1bc444b9ab81a0e0536fe341a2263e1d", "is_reserved": 0, "lon": -77.11755533333333, "rental_uris": {"android": "https://dc.lft.to/lastmile_qr_scan", "ios": "https://dc.lft.to/lastmile_qr_scan"}}, {"name": "8d6f007a6a4d5bea9288d1b85d1ebb9f", "is_disabled": 0, "fusion_lat": 0.0, "fusion_lon": 0.0, "type": "electric_scooter", "lat": 38.909719, "bike_id": "8d6f007a6a4d5bea9288d1b85d1ebb9f", "is_reserved": 0, "lon": -77.03864166666666, "rental_uris": {"android": "https://dc.lft.to/lastmile_qr_scan", "ios": "https://dc.lft.to/lastmile_qr_scan"}}, {"name": "3f431b58b1142c160ee76df4f7ffe1b1", "is_disabled": 0, "fusion_lat": 0.0, "fusion_lon": 0.0, "type": "electric_bike", "lat": 38.837141, "bike_id": "3f431b58b1142c160ee76df4f7ffe1b1", "is_reserved": 0, "lon": -76.9977965, "rental_uris": {"android": "https://dc.lft.to/lastmile_qr_scan", "ios": "https://dc.lft.to/lastmile_qr_scan"}}, {"name": "d34566793cca79417853c0647609f894", "is_disabled": 0, "fusion_lat": 0.0, "fusion_lon": 0.0, "type": "electric_scooter", "lat": 38.88725183333333, "bike_id": "d34566793cca79417853c0647609f894", "is_reserved": 0, "lon": -77.0281985, "rental_uris": {"android": "https://dc.lft.to/lastmile_qr_scan", "ios": "https://dc.lft.to/lastmile_qr_scan"}}, {"name": "ca57b1b0c55c5982a23616786b9b8d97", "is_disabled": 0, "fusion_lat": 0.0, "fusion_lon": 0.0, "type": "electric_scooter", "lat": 38.892313, "bike_id": "ca57b1b0c55c5982a23616786b9b8d97", "is_reserved": 0, "lon": -77.02862883333333, "rental_uris": {"android": "https://dc.lft.to/lastmile_qr_scan", "ios": "https://dc.lft.to/lastmile_qr_scan"}}, {"name": "b4a6acafa195f772017138a96886e84d", "is_disabled": 0, "fusion_lat": 0.0, "fusion_lon": 0.0, "type": "electric_scooter", "lat": 38.91791533333333, "bike_id": "b4a6acafa195f772017138a96886e84d", "is_reserved": 0, "lon": -77.04027516666666, "rental_uris": {"android": "https://dc.lft.to/lastmile_qr_scan", "ios": "https://dc.lft.to/lastmile_qr_scan"}}, {"name": "c3274e955247f19c0b9b7eba9b7f53da", "is_disabled": 0, "fusion_lat": 0.0, "fusion_lon": 0.0, "type": "electric_scooter", "lat": 38.92312016666666, "bike_id": "c3274e955247f19c0b9b7eba9b7f53da", "is_reserved": 0, "lon": -77.027649, "rental_uris": {"android": "https://dc.lft.to/lastmile_qr_scan", "ios": "https://dc.lft.to/lastmile_qr_scan"}}, {"name": "da907a7ed828a6aba68380f7755736dd", "is_disabled": 0, "fusion_lat": 0.0, "fusion_lon": 0.0, "type": "electric_scooter", "lat": 38.86697066666667, "bike_id": "da907a7ed828a6aba68380f7755736dd", "is_reserved": 0, "lon": -76.98593366666667, "rental_uris": {"android": "https://dc.lft.to/lastmile_qr_scan", "ios": "https://dc.lft.to/lastmile_qr_scan"}}, {"name": "43f4126d7361ea9ffbb3a119423e83be", "is_disabled": 0, "fusion_lat": 0.0, "fusion_lon": 0.0, "type": "electric_scooter", "lat": 38.9420375, "bike_id": "43f4126d7361ea9ffbb3a119423e83be", "is_reserved": 0, "lon": -77.02522233333333, "rental_uris": {"android": "https://dc.lft.to/lastmile_qr_scan", "ios": "https://dc.lft.to/lastmile_qr_scan"}}, {"name": "7e339fec81661c1738bc7bc145d7cb1a", "is_disabled": 0, "fusion_lat": 0.0, "fusion_lon": 0.0, "type": "electric_scooter", "lat": 38.862553166666665, "bike_id": "7e339fec81661c1738bc7bc145d7cb1a", "is_reserved": 0, "lon": -76.995145, "rental_uris": {"android": "https://dc.lft.to/lastmile_qr_scan", "ios": "https://dc.lft.to/lastmile_qr_scan"}}, {"name": "6555b1f97fe3d77907c988f0cce6e5ae", "is_disabled": 0, "fusion_lat": 0.0, "fusion_lon": 0.0, "type": "electric_bike", "lat": 38.910158833333334, "bike_id": "6555b1f97fe3d77907c988f0cce6e5ae", "is_reserved": 0, "lon": -77.22801033333333, "rental_uris": {"android": "https://dc.lft.to/lastmile_qr_scan", "ios": "https://dc.lft.to/lastmile_qr_scan"}}, {"name": "41857f8a4f6e24197a14226edbaf5190", "is_disabled": 0, "fusion_lat": 0.0, "fusion_lon": 0.0, "type": "electric_scooter", "lat": 38.90378116666667, "bike_id": "41857f8a4f6e24197a14226edbaf5190", "is_reserved": 0, "lon": -77.03828, "rental_uris": {"android": "https://dc.lft.to/lastmile_qr_scan", "ios": "https://dc.lft.to/lastmile_qr_scan"}}, {"name": "7f7af87bcf4e8f05afe906d9f6fe0bfb", "is_disabled": 0, "fusion_lat": 0.0, "fusion_lon": 0.0, "type": "electric_scooter", "lat": 38.89321616666667, "bike_id": "7f7af87bcf4e8f05afe906d9f6fe0bfb", "is_reserved": 0, "lon": -77.04879416666667, "rental_uris": {"android": "https://dc.lft.to/lastmile_qr_scan", "ios": "https://dc.lft.to/lastmile_qr_scan"}}, {"name": "bfa6f0769f0f833e22931a2e012985f3", "is_disabled": 0, "fusion_lat": 0.0, "fusion_lon": 0.0, "type": "electric_scooter", "lat": 38.907999833333335, "bike_id": "bfa6f0769f0f833e22931a2e012985f3", "is_reserved": 0, "lon": -77.03866433333333, "rental_uris": {"android": "https://dc.lft.to/lastmile_qr_scan", "ios": "https://dc.lft.to/lastmile_qr_scan"}}, {"name": "c1921dcc4e16293b48ef5c4adc62bd95", "is_disabled": 0, "fusion_lat": 0.0, "fusion_lon": 0.0, "type": "electric_bike", "lat": 38.88058566666667, "bike_id": "c1921dcc4e16293b48ef5c4adc62bd95", "is_reserved": 0, "lon": -76.96235816666666, "rental_uris": {"android": "https://dc.lft.to/lastmile_qr_scan", "ios": "https://dc.lft.to/lastmile_qr_scan"}}, {"name": "c4314c4264038890a1767ddad079494c", "is_disabled": 0, "fusion_lat": 0.0, "fusion_lon": 0.0, "type": "electric_scooter", "lat": 38.922402, "bike_id": "c4314c4264038890a1767ddad079494c", "is_reserved": 0, "lon": -77.01973766666667, "rental_uris": {"android": "https://dc.lft.to/lastmile_qr_scan", "ios": "https://dc.lft.to/lastmile_qr_scan"}}, {"name": "feee88609eb332e2c1ececd34ec6e130", "is_disabled": 0, "fusion_lat": 0.0, "fusion_lon": 0.0, "type": "electric_bike", "lat": 38.948929, "bike_id": "feee88609eb332e2c1ececd34ec6e130", "is_reserved": 0, "lon": -76.96381566666666, "rental_uris": {"android": "https://dc.lft.to/lastmile_qr_scan", "ios": "https://dc.lft.to/lastmile_qr_scan"}}, {"name": "d22bf94be86e5bf063318db926f38ccd", "is_disabled": 0, "fusion_lat": 0.0, "fusion_lon": 0.0, "type": "electric_bike", "lat": 38.8727855, "bike_id": "d22bf94be86e5bf063318db926f38ccd", "is_reserved": 0, "lon": -77.233202, "rental_uris": {"android": "https://dc.lft.to/lastmile_qr_scan", "ios": "https://dc.lft.to/lastmile_qr_scan"}}, {"name": "2aaa0dbf243ba02fe0421e5a9bdf30b1", "is_disabled": 0, "fusion_lat": 0.0, "fusion_lon": 0.0, "type": "electric_scooter", "lat": 38.924481, "bike_id": "2aaa0dbf243ba02fe0421e5a9bdf30b1", "is_reserved": 0, "lon": -77.04122266666667, "rental_uris": {"android": "https://dc.lft.to/lastmile_qr_scan", "ios": "https://dc.lft.to/lastmile_qr_scan"}}, {"name": "c240fcd3587b5958bce3bd08f8bc9f54", "is_disabled": 0, "fusion_lat": 0.0, "fusion_lon": 0.0, "type": "electric_bike", "lat": 38.961387333333334, "bike_id": "c240fcd3587b5958bce3bd08f8bc9f54", "is_reserved": 0, "lon": -77.02296566666666, "rental_uris": {"android": "https://dc.lft.to/lastmile_qr_scan", "ios": "https://dc.lft.to/lastmile_qr_scan"}}, {"name": "630922d491e98bbde3382416788e8f75", "is_disabled": 0, "fusion_lat": 0.0, "fusion_lon": 0.0, "type": "electric_scooter", "lat": 38.9141245, "bike_id": "630922d491e98bbde3382416788e8f75", "is_reserved": 0, "lon": -77.04919083333333, "rental_uris": {"android": "https://dc.lft.to/lastmile_qr_scan", "ios": "https://dc.lft.to/lastmile_qr_scan"}}, {"name": "40b08c4e69d3bc2ca1a1a3178f164c03", "is_disabled": 0, "fusion_lat": 0.0, "fusion_lon": 0.0, "type": "electric_scooter", "lat": 38.893507, "bike_id": "40b08c4e69d3bc2ca1a1a3178f164c03", "is_reserved": 0, "lon": -77.0033655, "rental_uris": {"android": "https://dc.lft.to/lastmile_qr_scan", "ios": "https://dc.lft.to/lastmile_qr_scan"}}, {"name": "a3a813cf2f97f1c621bd38d3eddf6119", "is_disabled": 0, "fusion_lat": 0.0, "fusion_lon": 0.0, "type": "electric_scooter", "lat": 38.90700566666667, "bike_id": "a3a813cf2f97f1c621bd38d3eddf6119", "is_reserved": 0, "lon": -76.987012, "rental_uris": {"android": "https://dc.lft.to/lastmile_qr_scan", "ios": "https://dc.lft.to/lastmile_qr_scan"}}, {"name": "f72519883249f9b9c2ea0999b614a0f9", "is_disabled": 0, "fusion_lat": 0.0, "fusion_lon": 0.0, "type": "electric_scooter", "lat": 38.881224333333336, "bike_id": "f72519883249f9b9c2ea0999b614a0f9", "is_reserved": 0, "lon": -76.9952185, "rental_uris": {"android": "https://dc.lft.to/lastmile_qr_scan", "ios": "https://dc.lft.to/lastmile_qr_scan"}}, {"name": "7d209cd515cf64ff9e9c97fb048d3b10", "is_disabled": 0, "fusion_lat": 0.0, "fusion_lon": 0.0, "type": "electric_scooter", "lat": 38.90924866666667, "bike_id": "7d209cd515cf64ff9e9c97fb048d3b10", "is_reserved": 0, "lon": -77.02321233333333, "rental_uris": {"android": "https://dc.lft.to/lastmile_qr_scan", "ios": "https://dc.lft.to/lastmile_qr_scan"}}, {"name": "8df9d2f5e11f740666c86782e0fa0ba3", "is_disabled": 0, "fusion_lat": 0.0, "fusion_lon": 0.0, "type": "electric_scooter", "lat": 38.86008833333333, "bike_id": "8df9d2f5e11f740666c86782e0fa0ba3", "is_reserved": 0, "lon": -76.98521383333333, "rental_uris": {"android": "https://dc.lft.to/lastmile_qr_scan", "ios": "https://dc.lft.to/lastmile_qr_scan"}}, {"name": "79b44fab37729cf27eb02648ef8921ee", "is_disabled": 0, "fusion_lat": 0.0, "fusion_lon": 0.0, "type": "electric_scooter", "lat": 38.8838465, "bike_id": "79b44fab37729cf27eb02648ef8921ee", "is_reserved": 0, "lon": -77.03035233333334, "rental_uris": {"android": "https://dc.lft.to/lastmile_qr_scan", "ios": "https://dc.lft.to/lastmile_qr_scan"}}, {"name": "4633a1be96f823633710e8ac69e8e4f3", "is_disabled": 0, "fusion_lat": 0.0, "fusion_lon": 0.0, "type": "electric_scooter", "lat": 38.898773, "bike_id": "4633a1be96f823633710e8ac69e8e4f3", "is_reserved": 0, "lon": -76.93187766666667, "rental_uris": {"android": "https://dc.lft.to/lastmile_qr_scan", "ios": "https://dc.lft.to/lastmile_qr_scan"}}, {"name": "73b7e6341474331883777bcddc787b6b", "is_disabled": 0, "fusion_lat": 0.0, "fusion_lon": 0.0, "type": "electric_scooter", "lat": 38.874705, "bike_id": "73b7e6341474331883777bcddc787b6b", "is_reserved": 0, "lon": -77.00560833333333, "rental_uris": {"android": "https://dc.lft.to/lastmile_qr_scan", "ios": "https://dc.lft.to/lastmile_qr_scan"}}, {"name": "1170bf9ffee8a70efbc80c1bc6686cba", "is_disabled": 0, "fusion_lat": 0.0, "fusion_lon": 0.0, "type": "electric_scooter", "lat": 38.9241485, "bike_id": "1170bf9ffee8a70efbc80c1bc6686cba", "is_reserved": 0, "lon": -77.05060833333333, "rental_uris": {"android": "https://dc.lft.to/lastmile_qr_scan", "ios": "https://dc.lft.to/lastmile_qr_scan"}}, {"name": "6a7caf0525d4e87ed8447dcdb5d72a29", "is_disabled": 0, "fusion_lat": 0.0, "fusion_lon": 0.0, "type": "electric_scooter", "lat": 38.919953666666665, "bike_id": "6a7caf0525d4e87ed8447dcdb5d72a29", "is_reserved": 0, "lon": -77.02186966666666, "rental_uris": {"android": "https://dc.lft.to/lastmile_qr_scan", "ios": "https://dc.lft.to/lastmile_qr_scan"}}, {"name": "b8fc5918ae75fd99c605e82d9c61739a", "is_disabled": 0, "fusion_lat": 0.0, "fusion_lon": 0.0, "type": "electric_bike", "lat": 38.9077085, "bike_id": "b8fc5918ae75fd99c605e82d9c61739a", "is_reserved": 0, "lon": -77.06974766666667, "rental_uris": {"android": "https://dc.lft.to/lastmile_qr_scan", "ios": "https://dc.lft.to/lastmile_qr_scan"}}, {"name": "3c308d8478c502e2dc161b0b9c8d2ce0", "is_disabled": 0, "fusion_lat": 0.0, "fusion_lon": 0.0, "type": "electric_scooter", "lat": 38.905521, "bike_id": "3c308d8478c502e2dc161b0b9c8d2ce0", "is_reserved": 0, "lon": -77.006038, "rental_uris": {"android": "https://dc.lft.to/lastmile_qr_scan", "ios": "https://dc.lft.to/lastmile_qr_scan"}}, {"name": "35631853e92c4499798d31f091f07e84", "is_disabled": 0, "fusion_lat": 0.0, "fusion_lon": 0.0, "type": "electric_scooter", "lat": 38.90610683333333, "bike_id": "35631853e92c4499798d31f091f07e84", "is_reserved": 0, "lon": -76.986886, "rental_uris": {"android": "https://dc.lft.to/lastmile_qr_scan", "ios": "https://dc.lft.to/lastmile_qr_scan"}}, {"name": "61cf108e383842d0cfb4d13fbbc378db", "is_disabled": 0, "fusion_lat": 0.0, "fusion_lon": 0.0, "type": "electric_bike", "lat": 38.87475516666667, "bike_id": "61cf108e383842d0cfb4d13fbbc378db", "is_reserved": 0, "lon": -76.96523483333333, "rental_uris": {"android": "https://dc.lft.to/lastmile_qr_scan", "ios": "https://dc.lft.to/lastmile_qr_scan"}}, {"name": "e1f7ffec90261135b388712e1095cd14", "is_disabled": 0, "fusion_lat": 0.0, "fusion_lon": 0.0, "type": "electric_scooter", "lat": 38.90136066666667, "bike_id": "e1f7ffec90261135b388712e1095cd14", "is_reserved": 0, "lon": -77.04491983333334, "rental_uris": {"android": "https://dc.lft.to/lastmile_qr_scan", "ios": "https://dc.lft.to/lastmile_qr_scan"}}, {"name": "36d3113e7b761096e35063d7f8a61acb", "is_disabled": 0, "fusion_lat": 0.0, "fusion_lon": 0.0, "type": "electric_scooter", "lat": 38.860877333333335, "bike_id": "36d3113e7b761096e35063d7f8a61acb", "is_reserved": 0, "lon": -76.96891916666667, "rental_uris": {"android": "https://dc.lft.to/lastmile_qr_scan", "ios": "https://dc.lft.to/lastmile_qr_scan"}}, {"name": "a93d04b0ea94031371ba7a831f14f0a1", "is_disabled": 0, "fusion_lat": 0.0, "fusion_lon": 0.0, "type": "electric_scooter", "lat": 38.9026345, "bike_id": "a93d04b0ea94031371ba7a831f14f0a1", "is_reserved": 0, "lon": -77.0365305, "rental_uris": {"android": "https://dc.lft.to/lastmile_qr_scan", "ios": "https://dc.lft.to/lastmile_qr_scan"}}, {"name": "8f664b99d261f4ddc07af654d771df11", "is_disabled": 0, "fusion_lat": 0.0, "fusion_lon": 0.0, "type": "electric_scooter", "lat": 38.9316815, "bike_id": "8f664b99d261f4ddc07af654d771df11", "is_reserved": 0, "lon": -77.03669816666667, "rental_uris": {"android": "https://dc.lft.to/lastmile_qr_scan", "ios": "https://dc.lft.to/lastmile_qr_scan"}}, {"name": "8accb1bced45188a2fa05de0f1548fbd", "is_disabled": 0, "fusion_lat": 0.0, "fusion_lon": 0.0, "type": "electric_scooter", "lat": 38.91796266666667, "bike_id": "8accb1bced45188a2fa05de0f1548fbd", "is_reserved": 0, "lon": -77.040203, "rental_uris": {"android": "https://dc.lft.to/lastmile_qr_scan", "ios": "https://dc.lft.to/lastmile_qr_scan"}}, {"name": "f83c4eb3bb0718d60d6ae191f8331810", "is_disabled": 0, "fusion_lat": 0.0, "fusion_lon": 0.0, "type": "electric_scooter", "lat": 38.91184966666667, "bike_id": "f83c4eb3bb0718d60d6ae191f8331810", "is_reserved": 0, "lon": -77.00455466666666, "rental_uris": {"android": "https://dc.lft.to/lastmile_qr_scan", "ios": "https://dc.lft.to/lastmile_qr_scan"}}, {"name": "03a07777f4f9d9b28228360c9ee2bc91", "is_disabled": 0, "fusion_lat": 0.0, "fusion_lon": 0.0, "type": "electric_scooter", "lat": 38.93231433333333, "bike_id": "03a07777f4f9d9b28228360c9ee2bc91", "is_reserved": 0, "lon": -77.02836033333334, "rental_uris": {"android": "https://dc.lft.to/lastmile_qr_scan", "ios": "https://dc.lft.to/lastmile_qr_scan"}}, {"name": "172234eff79111a54c8afa9c6618f598", "is_disabled": 0, "fusion_lat": 0.0, "fusion_lon": 0.0, "type": "electric_scooter", "lat": 38.92935683333333, "bike_id": "172234eff79111a54c8afa9c6618f598", "is_reserved": 0, "lon": -77.02327083333333, "rental_uris": {"android": "https://dc.lft.to/lastmile_qr_scan", "ios": "https://dc.lft.to/lastmile_qr_scan"}}, {"name": "0b1ba51a3fe8eac7d51225b8e7c5a064", "is_disabled": 0, "fusion_lat": 0.0, "fusion_lon": 0.0, "type": "electric_bike", "lat": 38.947949666666666, "bike_id": "0b1ba51a3fe8eac7d51225b8e7c5a064", "is_reserved": 0, "lon": -76.97210266666667, "rental_uris": {"android": "https://dc.lft.to/lastmile_qr_scan", "ios": "https://dc.lft.to/lastmile_qr_scan"}}, {"name": "0506822fe235d14a9114b053feab8972", "is_disabled": 0, "fusion_lat": 0.0, "fusion_lon": 0.0, "type": "electric_scooter", "lat": 38.90259666666667, "bike_id": "0506822fe235d14a9114b053feab8972", "is_reserved": 0, "lon": -77.03656366666667, "rental_uris": {"android": "https://dc.lft.to/lastmile_qr_scan", "ios": "https://dc.lft.to/lastmile_qr_scan"}}, {"name": "939c6437ef8dff1e4415dd29115d9f84", "is_disabled": 0, "fusion_lat": 0.0, "fusion_lon": 0.0, "type": "electric_scooter", "lat": 38.8877865, "bike_id": "939c6437ef8dff1e4415dd29115d9f84", "is_reserved": 0, "lon": -76.95529183333333, "rental_uris": {"android": "https://dc.lft.to/lastmile_qr_scan", "ios": "https://dc.lft.to/lastmile_qr_scan"}}, {"name": "5285a166b9a5b803e66a35f63486b066", "is_disabled": 0, "fusion_lat": 0.0, "fusion_lon": 0.0, "type": "electric_scooter", "lat": 38.91690416666667, "bike_id": "5285a166b9a5b803e66a35f63486b066", "is_reserved": 0, "lon": -77.03436966666666, "rental_uris": {"android": "https://dc.lft.to/lastmile_qr_scan", "ios": "https://dc.lft.to/lastmile_qr_scan"}}, {"name": "594be5c1aaf29be068a457a1b2fbcea1", "is_disabled": 0, "fusion_lat": 0.0, "fusion_lon": 0.0, "type": "electric_scooter", "lat": 38.914136, "bike_id": "594be5c1aaf29be068a457a1b2fbcea1", "is_reserved": 0, "lon": -77.04553716666666, "rental_uris": {"android": "https://dc.lft.to/lastmile_qr_scan", "ios": "https://dc.lft.to/lastmile_qr_scan"}}, {"name": "c94671fe51cd5ffdbbe297485f249213", "is_disabled": 0, "fusion_lat": 0.0, "fusion_lon": 0.0, "type": "electric_scooter", "lat": 38.9057655, "bike_id": "c94671fe51cd5ffdbbe297485f249213", "is_reserved": 0, "lon": -77.04672316666667, "rental_uris": {"android": "https://dc.lft.to/lastmile_qr_scan", "ios": "https://dc.lft.to/lastmile_qr_scan"}}, {"name": "e6c753956465d2b69fd2f52fe05527d3", "is_disabled": 0, "fusion_lat": 0.0, "fusion_lon": 0.0, "type": "electric_scooter", "lat": 38.89221233333333, "bike_id": "e6c753956465d2b69fd2f52fe05527d3", "is_reserved": 0, "lon": -77.0451025, "rental_uris": {"android": "https://dc.lft.to/lastmile_qr_scan", "ios": "https://dc.lft.to/lastmile_qr_scan"}}, {"name": "281500fd87b0cea32b5aade69ea2d2d1", "is_disabled": 0, "fusion_lat": 0.0, "fusion_lon": 0.0, "type": "electric_scooter", "lat": 38.88748366666667, "bike_id": "281500fd87b0cea32b5aade69ea2d2d1", "is_reserved": 0, "lon": -77.015432, "rental_uris": {"android": "https://dc.lft.to/lastmile_qr_scan", "ios": "https://dc.lft.to/lastmile_qr_scan"}}, {"name": "d721ed74264af86f18abea5d95be8b9b", "is_disabled": 0, "fusion_lat": 0.0, "fusion_lon": 0.0, "type": "electric_scooter", "lat": 38.90767966666667, "bike_id": "d721ed74264af86f18abea5d95be8b9b", "is_reserved": 0, "lon": -77.0400655, "rental_uris": {"android": "https://dc.lft.to/lastmile_qr_scan", "ios": "https://dc.lft.to/lastmile_qr_scan"}}, {"name": "7685db51e6bcb91757a8487dcf26e8b3", "is_disabled": 0, "fusion_lat": 0.0, "fusion_lon": 0.0, "type": "electric_scooter", "lat": 38.920447, "bike_id": "7685db51e6bcb91757a8487dcf26e8b3", "is_reserved": 0, "lon": -77.01734716666667, "rental_uris": {"android": "https://dc.lft.to/lastmile_qr_scan", "ios": "https://dc.lft.to/lastmile_qr_scan"}}, {"name": "1202609a3fb812e3cf28b508699feae4", "is_disabled": 0, "fusion_lat": 0.0, "fusion_lon": 0.0, "type": "electric_bike", "lat": 39.02436483333334, "bike_id": "1202609a3fb812e3cf28b508699feae4", "is_reserved": 0, "lon": -77.13100533333333, "rental_uris": {"android": "https://dc.lft.to/lastmile_qr_scan", "ios": "https://dc.lft.to/lastmile_qr_scan"}}, {"name": "8d80b50494d0af6500b9706cf197a6c2", "is_disabled": 0, "fusion_lat": 0.0, "fusion_lon": 0.0, "type": "electric_scooter", "lat": 38.92231133333333, "bike_id": "8d80b50494d0af6500b9706cf197a6c2", "is_reserved": 0, "lon": -77.02335766666667, "rental_uris": {"android": "https://dc.lft.to/lastmile_qr_scan", "ios": "https://dc.lft.to/lastmile_qr_scan"}}, {"name": "bfc932b4487621ac4bd31fb6994265c5", "is_disabled": 0, "fusion_lat": 0.0, "fusion_lon": 0.0, "type": "electric_scooter", "lat": 38.86067966666667, "bike_id": "bfc932b4487621ac4bd31fb6994265c5", "is_reserved": 0, "lon": -76.96900616666667, "rental_uris": {"android": "https://dc.lft.to/lastmile_qr_scan", "ios": "https://dc.lft.to/lastmile_qr_scan"}}, {"name": "ef2a0734c8fdf577bcdbe21d6d1cfbc0", "is_disabled": 0, "fusion_lat": 0.0, "fusion_lon": 0.0, "type": "electric_scooter", "lat": 38.910072, "bike_id": "ef2a0734c8fdf577bcdbe21d6d1cfbc0", "is_reserved": 0, "lon": -77.034415, "rental_uris": {"android": "https://dc.lft.to/lastmile_qr_scan", "ios": "https://dc.lft.to/lastmile_qr_scan"}}, {"name": "5297e59e674e50703c7a379686237818", "is_disabled": 0, "fusion_lat": 0.0, "fusion_lon": 0.0, "type": "electric_scooter", "lat": 38.9057545, "bike_id": "5297e59e674e50703c7a379686237818", "is_reserved": 0, "lon": -77.0449165, "rental_uris": {"android": "https://dc.lft.to/lastmile_qr_scan", "ios": "https://dc.lft.to/lastmile_qr_scan"}}, {"name": "a3a8222a89a84fc7053de400957e6a28", "is_disabled": 0, "fusion_lat": 0.0, "fusion_lon": 0.0, "type": "electric_scooter", "lat": 38.91403416666667, "bike_id": "a3a8222a89a84fc7053de400957e6a28", "is_reserved": 0, "lon": -77.01503583333333, "rental_uris": {"android": "https://dc.lft.to/lastmile_qr_scan", "ios": "https://dc.lft.to/lastmile_qr_scan"}}, {"name": "f65baf8c3b18316f067dbd02a777cb37", "is_disabled": 0, "fusion_lat": 0.0, "fusion_lon": 0.0, "type": "electric_scooter", "lat": 38.86411983333333, "bike_id": "f65baf8c3b18316f067dbd02a777cb37", "is_reserved": 0, "lon": -76.97451783333334, "rental_uris": {"android": "https://dc.lft.to/lastmile_qr_scan", "ios": "https://dc.lft.to/lastmile_qr_scan"}}, {"name": "6b83e3b8dad7966f18b845712ad25f13", "is_disabled": 0, "fusion_lat": 0.0, "fusion_lon": 0.0, "type": "electric_scooter", "lat": 38.9157735, "bike_id": "6b83e3b8dad7966f18b845712ad25f13", "is_reserved": 0, "lon": -77.03173183333334, "rental_uris": {"android": "https://dc.lft.to/lastmile_qr_scan", "ios": "https://dc.lft.to/lastmile_qr_scan"}}, {"name": "7dc79800a1c5ce1bb913cb05e778aab0", "is_disabled": 0, "fusion_lat": 0.0, "fusion_lon": 0.0, "type": "electric_scooter", "lat": 38.93102366666667, "bike_id": "7dc79800a1c5ce1bb913cb05e778aab0", "is_reserved": 0, "lon": -77.03815316666666, "rental_uris": {"android": "https://dc.lft.to/lastmile_qr_scan", "ios": "https://dc.lft.to/lastmile_qr_scan"}}, {"name": "1627d47b9a95db22430be2918fa999a9", "is_disabled": 0, "fusion_lat": 0.0, "fusion_lon": 0.0, "type": "electric_bike", "lat": 38.801232, "bike_id": "1627d47b9a95db22430be2918fa999a9", "is_reserved": 0, "lon": -77.07052516666667, "rental_uris": {"android": "https://dc.lft.to/lastmile_qr_scan", "ios": "https://dc.lft.to/lastmile_qr_scan"}}, {"name": "15626b779a0d53a11daa6261070664be", "is_disabled": 0, "fusion_lat": 0.0, "fusion_lon": 0.0, "type": "electric_scooter", "lat": 38.89852416666667, "bike_id": "15626b779a0d53a11daa6261070664be", "is_reserved": 0, "lon": -77.041541, "rental_uris": {"android": "https://dc.lft.to/lastmile_qr_scan", "ios": "https://dc.lft.to/lastmile_qr_scan"}}, {"name": "9e70792bc174af6e3a19c7337974384e", "is_disabled": 0, "fusion_lat": 0.0, "fusion_lon": 0.0, "type": "electric_scooter", "lat": 38.90032633333333, "bike_id": "9e70792bc174af6e3a19c7337974384e", "is_reserved": 0, "lon": -77.00199233333333, "rental_uris": {"android": "https://dc.lft.to/lastmile_qr_scan", "ios": "https://dc.lft.to/lastmile_qr_scan"}}, {"name": "041f8816189a6602863f3f0b9993818d", "is_disabled": 0, "fusion_lat": 0.0, "fusion_lon": 0.0, "type": "electric_scooter", "lat": 38.92661783333333, "bike_id": "041f8816189a6602863f3f0b9993818d", "is_reserved": 0, "lon": -77.01459883333334, "rental_uris": {"android": "https://dc.lft.to/lastmile_qr_scan", "ios": "https://dc.lft.to/lastmile_qr_scan"}}, {"name": "672a41b1e6d907f7e1554ddb1cbe414e", "is_disabled": 0, "fusion_lat": 0.0, "fusion_lon": 0.0, "type": "electric_scooter", "lat": 38.92512116666666, "bike_id": "672a41b1e6d907f7e1554ddb1cbe414e", "is_reserved": 0, "lon": -77.0526095, "rental_uris": {"android": "https://dc.lft.to/lastmile_qr_scan", "ios": "https://dc.lft.to/lastmile_qr_scan"}}, {"name": "7807700ea062a8243ffd2232d8fc059a", "is_disabled": 0, "fusion_lat": 0.0, "fusion_lon": 0.0, "type": "electric_scooter", "lat": 38.890139, "bike_id": "7807700ea062a8243ffd2232d8fc059a", "is_reserved": 0, "lon": -76.9373845, "rental_uris": {"android": "https://dc.lft.to/lastmile_qr_scan", "ios": "https://dc.lft.to/lastmile_qr_scan"}}, {"name": "fc72ef4e7d2cb9ea00e9f45856870f78", "is_disabled": 0, "fusion_lat": 0.0, "fusion_lon": 0.0, "type": "electric_scooter", "lat": 38.91083883333334, "bike_id": "fc72ef4e7d2cb9ea00e9f45856870f78", "is_reserved": 0, "lon": -76.99269616666666, "rental_uris": {"android": "https://dc.lft.to/lastmile_qr_scan", "ios": "https://dc.lft.to/lastmile_qr_scan"}}, {"name": "093930fdde917dfb10d460e5a1c543d0", "is_disabled": 0, "fusion_lat": 0.0, "fusion_lon": 0.0, "type": "electric_scooter", "lat": 38.908310166666666, "bike_id": "093930fdde917dfb10d460e5a1c543d0", "is_reserved": 0, "lon": -77.03491433333333, "rental_uris": {"android": "https://dc.lft.to/lastmile_qr_scan", "ios": "https://dc.lft.to/lastmile_qr_scan"}}, {"name": "afc9b34a5c806f4bd81bfa17e7e296db", "is_disabled": 0, "fusion_lat": 0.0, "fusion_lon": 0.0, "type": "electric_scooter", "lat": 38.9190095, "bike_id": "afc9b34a5c806f4bd81bfa17e7e296db", "is_reserved": 0, "lon": -77.02090916666667, "rental_uris": {"android": "https://dc.lft.to/lastmile_qr_scan", "ios": "https://dc.lft.to/lastmile_qr_scan"}}, {"name": "24ddff946d564e09a095229ed8f3d7ef", "is_disabled": 0, "fusion_lat": 0.0, "fusion_lon": 0.0, "type": "electric_bike", "lat": 38.936101666666666, "bike_id": "24ddff946d564e09a095229ed8f3d7ef", "is_reserved": 0, "lon": -77.09018183333333, "rental_uris": {"android": "https://dc.lft.to/lastmile_qr_scan", "ios": "https://dc.lft.to/lastmile_qr_scan"}}, {"name": "08a855dc9b8b2a0ddbb1485c81409846", "is_disabled": 0, "fusion_lat": 0.0, "fusion_lon": 0.0, "type": "electric_scooter", "lat": 38.8798435, "bike_id": "08a855dc9b8b2a0ddbb1485c81409846", "is_reserved": 0, "lon": -77.024184, "rental_uris": {"android": "https://dc.lft.to/lastmile_qr_scan", "ios": "https://dc.lft.to/lastmile_qr_scan"}}, {"name": "20670e101617535a588091f06e2f09c5", "is_disabled": 0, "fusion_lat": 0.0, "fusion_lon": 0.0, "type": "electric_scooter", "lat": 38.9085005, "bike_id": "20670e101617535a588091f06e2f09c5", "is_reserved": 0, "lon": -77.04272766666666, "rental_uris": {"android": "https://dc.lft.to/lastmile_qr_scan", "ios": "https://dc.lft.to/lastmile_qr_scan"}}, {"name": "f7883e76bb829417dbf2edb01d1279ec", "is_disabled": 0, "fusion_lat": 0.0, "fusion_lon": 0.0, "type": "electric_scooter", "lat": 38.92905783333333, "bike_id": "f7883e76bb829417dbf2edb01d1279ec", "is_reserved": 0, "lon": -77.01679283333333, "rental_uris": {"android": "https://dc.lft.to/lastmile_qr_scan", "ios": "https://dc.lft.to/lastmile_qr_scan"}}, {"name": "223601e28c7aa5d5d24780bcba149d83", "is_disabled": 0, "fusion_lat": 0.0, "fusion_lon": 0.0, "type": "electric_scooter", "lat": 38.88058016666667, "bike_id": "223601e28c7aa5d5d24780bcba149d83", "is_reserved": 0, "lon": -76.93216716666667, "rental_uris": {"android": "https://dc.lft.to/lastmile_qr_scan", "ios": "https://dc.lft.to/lastmile_qr_scan"}}, {"name": "53933989043652b5a1c07bb462707302", "is_disabled": 0, "fusion_lat": 0.0, "fusion_lon": 0.0, "type": "electric_scooter", "lat": 38.909624666666666, "bike_id": "53933989043652b5a1c07bb462707302", "is_reserved": 0, "lon": -77.03570483333333, "rental_uris": {"android": "https://dc.lft.to/lastmile_qr_scan", "ios": "https://dc.lft.to/lastmile_qr_scan"}}, {"name": "8b2f7662944d7ad5b7628def6cc88fa6", "is_disabled": 0, "fusion_lat": 0.0, "fusion_lon": 0.0, "type": "electric_scooter", "lat": 38.90745416666667, "bike_id": "8b2f7662944d7ad5b7628def6cc88fa6", "is_reserved": 0, "lon": -77.00305433333334, "rental_uris": {"android": "https://dc.lft.to/lastmile_qr_scan", "ios": "https://dc.lft.to/lastmile_qr_scan"}}, {"name": "ac69aef61012a9736d2a59affd1ec630", "is_disabled": 0, "fusion_lat": 0.0, "fusion_lon": 0.0, "type": "electric_scooter", "lat": 38.89817683333333, "bike_id": "ac69aef61012a9736d2a59affd1ec630", "is_reserved": 0, "lon": -77.01623, "rental_uris": {"android": "https://dc.lft.to/lastmile_qr_scan", "ios": "https://dc.lft.to/lastmile_qr_scan"}}, {"name": "deb33efa3ce8b7d83bf4ab4cad0912c3", "is_disabled": 0, "fusion_lat": 0.0, "fusion_lon": 0.0, "type": "electric_scooter", "lat": 38.892193, "bike_id": "deb33efa3ce8b7d83bf4ab4cad0912c3", "is_reserved": 0, "lon": -77.02228916666667, "rental_uris": {"android": "https://dc.lft.to/lastmile_qr_scan", "ios": "https://dc.lft.to/lastmile_qr_scan"}}, {"name": "da9728407621a068a12ca704c699596f", "is_disabled": 0, "fusion_lat": 0.0, "fusion_lon": 0.0, "type": "electric_scooter", "lat": 38.90339383333333, "bike_id": "da9728407621a068a12ca704c699596f", "is_reserved": 0, "lon": -77.0453565, "rental_uris": {"android": "https://dc.lft.to/lastmile_qr_scan", "ios": "https://dc.lft.to/lastmile_qr_scan"}}, {"name": "6a90f90a5655aa8ef09b7b72c5a03702", "is_disabled": 0, "fusion_lat": 0.0, "fusion_lon": 0.0, "type": "electric_scooter", "lat": 38.93233983333333, "bike_id": "6a90f90a5655aa8ef09b7b72c5a03702", "is_reserved": 0, "lon": -77.0341455, "rental_uris": {"android": "https://dc.lft.to/lastmile_qr_scan", "ios": "https://dc.lft.to/lastmile_qr_scan"}}, {"name": "b58456fa2e2f237db3940162a90b6040", "is_disabled": 0, "fusion_lat": 0.0, "fusion_lon": 0.0, "type": "electric_bike", "lat": 38.85208866666667, "bike_id": "b58456fa2e2f237db3940162a90b6040", "is_reserved": 0, "lon": -77.10133266666666, "rental_uris": {"android": "https://dc.lft.to/lastmile_qr_scan", "ios": "https://dc.lft.to/lastmile_qr_scan"}}, {"name": "d9349d6d20e9684a7d955d4b4c952e33", "is_disabled": 0, "fusion_lat": 0.0, "fusion_lon": 0.0, "type": "electric_scooter", "lat": 38.899152666666666, "bike_id": "d9349d6d20e9684a7d955d4b4c952e33", "is_reserved": 0, "lon": -76.933681, "rental_uris": {"android": "https://dc.lft.to/lastmile_qr_scan", "ios": "https://dc.lft.to/lastmile_qr_scan"}}, {"name": "3d1e4b6b144154986ee3bbc9bb19eb21", "is_disabled": 0, "fusion_lat": 0.0, "fusion_lon": 0.0, "type": "electric_bike", "lat": 38.9466925, "bike_id": "3d1e4b6b144154986ee3bbc9bb19eb21", "is_reserved": 0, "lon": -76.98313966666667, "rental_uris": {"android": "https://dc.lft.to/lastmile_qr_scan", "ios": "https://dc.lft.to/lastmile_qr_scan"}}, {"name": "1db5d4aea0353598200781df602806ed", "is_disabled": 0, "fusion_lat": 0.0, "fusion_lon": 0.0, "type": "electric_scooter", "lat": 38.91079383333334, "bike_id": "1db5d4aea0353598200781df602806ed", "is_reserved": 0, "lon": -77.00857466666666, "rental_uris": {"android": "https://dc.lft.to/lastmile_qr_scan", "ios": "https://dc.lft.to/lastmile_qr_scan"}}, {"name": "e0af9334f19903a76a1276cb637dd54d", "is_disabled": 0, "fusion_lat": 0.0, "fusion_lon": 0.0, "type": "electric_scooter", "lat": 38.90974283333333, "bike_id": "e0af9334f19903a76a1276cb637dd54d", "is_reserved": 0, "lon": -77.03405916666667, "rental_uris": {"android": "https://dc.lft.to/lastmile_qr_scan", "ios": "https://dc.lft.to/lastmile_qr_scan"}}, {"name": "88b21f731088df64c6af67d9e2607bf1", "is_disabled": 0, "fusion_lat": 0.0, "fusion_lon": 0.0, "type": "electric_scooter", "lat": 38.91550933333333, "bike_id": "88b21f731088df64c6af67d9e2607bf1", "is_reserved": 0, "lon": -77.01202066666667, "rental_uris": {"android": "https://dc.lft.to/lastmile_qr_scan", "ios": "https://dc.lft.to/lastmile_qr_scan"}}, {"name": "6ceb8d1e517ae703387a72b76e523d09", "is_disabled": 0, "fusion_lat": 0.0, "fusion_lon": 0.0, "type": "electric_scooter", "lat": 38.924083833333334, "bike_id": "6ceb8d1e517ae703387a72b76e523d09", "is_reserved": 0, "lon": -77.05069066666667, "rental_uris": {"android": "https://dc.lft.to/lastmile_qr_scan", "ios": "https://dc.lft.to/lastmile_qr_scan"}}, {"name": "73c6c6202c9e42c712d37d5e5e413696", "is_disabled": 0, "fusion_lat": 0.0, "fusion_lon": 0.0, "type": "electric_bike", "lat": 38.907362666666664, "bike_id": "73c6c6202c9e42c712d37d5e5e413696", "is_reserved": 0, "lon": -77.00289433333333, "rental_uris": {"android": "https://dc.lft.to/lastmile_qr_scan", "ios": "https://dc.lft.to/lastmile_qr_scan"}}, {"name": "390b541c43b9abb2082b897289049727", "is_disabled": 0, "fusion_lat": 0.0, "fusion_lon": 0.0, "type": "electric_scooter", "lat": 38.89794933333334, "bike_id": "390b541c43b9abb2082b897289049727", "is_reserved": 0, "lon": -77.04500033333333, "rental_uris": {"android": "https://dc.lft.to/lastmile_qr_scan", "ios": "https://dc.lft.to/lastmile_qr_scan"}}, {"name": "8c01aa9bd2c447a84b7324c9a5f2fa80", "is_disabled": 0, "fusion_lat": 0.0, "fusion_lon": 0.0, "type": "electric_scooter", "lat": 38.919035, "bike_id": "8c01aa9bd2c447a84b7324c9a5f2fa80", "is_reserved": 0, "lon": -77.021244, "rental_uris": {"android": "https://dc.lft.to/lastmile_qr_scan", "ios": "https://dc.lft.to/lastmile_qr_scan"}}, {"name": "73250c041f2f00e5ba50fc4abb1d561b", "is_disabled": 0, "fusion_lat": 0.0, "fusion_lon": 0.0, "type": "electric_scooter", "lat": 38.9070645, "bike_id": "73250c041f2f00e5ba50fc4abb1d561b", "is_reserved": 0, "lon": -77.04969916666667, "rental_uris": {"android": "https://dc.lft.to/lastmile_qr_scan", "ios": "https://dc.lft.to/lastmile_qr_scan"}}, {"name": "c9bdc0a91ca765618287d8ba1be80fb0", "is_disabled": 0, "fusion_lat": 0.0, "fusion_lon": 0.0, "type": "electric_scooter", "lat": 38.89970183333333, "bike_id": "c9bdc0a91ca765618287d8ba1be80fb0", "is_reserved": 0, "lon": -77.01450466666667, "rental_uris": {"android": "https://dc.lft.to/lastmile_qr_scan", "ios": "https://dc.lft.to/lastmile_qr_scan"}}, {"name": "7d756d1a6a877f336b4d062293cbb629", "is_disabled": 0, "fusion_lat": 0.0, "fusion_lon": 0.0, "type": "electric_scooter", "lat": 38.95067, "bike_id": "7d756d1a6a877f336b4d062293cbb629", "is_reserved": 0, "lon": -77.065362, "rental_uris": {"android": "https://dc.lft.to/lastmile_qr_scan", "ios": "https://dc.lft.to/lastmile_qr_scan"}}, {"name": "70241b3dca970840fb344dbe8ca4756a", "is_disabled": 0, "fusion_lat": 0.0, "fusion_lon": 0.0, "type": "electric_scooter", "lat": 38.928785500000004, "bike_id": "70241b3dca970840fb344dbe8ca4756a", "is_reserved": 0, "lon": -77.03311966666666, "rental_uris": {"android": "https://dc.lft.to/lastmile_qr_scan", "ios": "https://dc.lft.to/lastmile_qr_scan"}}, {"name": "f589b380fc3f7d03ba693c756922c75c", "is_disabled": 0, "fusion_lat": 0.0, "fusion_lon": 0.0, "type": "electric_scooter", "lat": 38.92490816666667, "bike_id": "f589b380fc3f7d03ba693c756922c75c", "is_reserved": 0, "lon": -77.0366615, "rental_uris": {"android": "https://dc.lft.to/lastmile_qr_scan", "ios": "https://dc.lft.to/lastmile_qr_scan"}}, {"name": "2d59ce66eeb6730397f684a532ed4a0a", "is_disabled": 0, "fusion_lat": 0.0, "fusion_lon": 0.0, "type": "electric_scooter", "lat": 38.917292833333335, "bike_id": "2d59ce66eeb6730397f684a532ed4a0a", "is_reserved": 0, "lon": -77.040838, "rental_uris": {"android": "https://dc.lft.to/lastmile_qr_scan", "ios": "https://dc.lft.to/lastmile_qr_scan"}}, {"name": "c31ac946ee517e7a0598b05d3fe0523e", "is_disabled": 0, "fusion_lat": 0.0, "fusion_lon": 0.0, "type": "electric_scooter", "lat": 38.91929066666667, "bike_id": "c31ac946ee517e7a0598b05d3fe0523e", "is_reserved": 0, "lon": -77.03026183333333, "rental_uris": {"android": "https://dc.lft.to/lastmile_qr_scan", "ios": "https://dc.lft.to/lastmile_qr_scan"}}, {"name": "22496a0dc5caa471b95274c9526ae310", "is_disabled": 0, "fusion_lat": 0.0, "fusion_lon": 0.0, "type": "electric_scooter", "lat": 38.91999666666667, "bike_id": "22496a0dc5caa471b95274c9526ae310", "is_reserved": 0, "lon": -77.02139666666666, "rental_uris": {"android": "https://dc.lft.to/lastmile_qr_scan", "ios": "https://dc.lft.to/lastmile_qr_scan"}}, {"name": "ad3b7fbf77b2ab8da772a27723c9d607", "is_disabled": 0, "fusion_lat": 0.0, "fusion_lon": 0.0, "type": "electric_scooter", "lat": 38.924165, "bike_id": "ad3b7fbf77b2ab8da772a27723c9d607", "is_reserved": 0, "lon": -77.05066666666667, "rental_uris": {"android": "https://dc.lft.to/lastmile_qr_scan", "ios": "https://dc.lft.to/lastmile_qr_scan"}}, {"name": "b7a95ee8e1b97b3d3a6f901bdadb26fb", "is_disabled": 0, "fusion_lat": 0.0, "fusion_lon": 0.0, "type": "electric_scooter", "lat": 38.850653333333334, "bike_id": "b7a95ee8e1b97b3d3a6f901bdadb26fb", "is_reserved": 0, "lon": -76.97013366666667, "rental_uris": {"android": "https://dc.lft.to/lastmile_qr_scan", "ios": "https://dc.lft.to/lastmile_qr_scan"}}, {"name": "7ff376d42ad8f734bbbdff4a1e615daa", "is_disabled": 0, "fusion_lat": 0.0, "fusion_lon": 0.0, "type": "electric_scooter", "lat": 38.921350333333336, "bike_id": "7ff376d42ad8f734bbbdff4a1e615daa", "is_reserved": 0, "lon": -77.02516466666667, "rental_uris": {"android": "https://dc.lft.to/lastmile_qr_scan", "ios": "https://dc.lft.to/lastmile_qr_scan"}}, {"name": "8f96492cda39b0dce22ffecb29211bc8", "is_disabled": 0, "fusion_lat": 0.0, "fusion_lon": 0.0, "type": "electric_scooter", "lat": 38.91794683333333, "bike_id": "8f96492cda39b0dce22ffecb29211bc8", "is_reserved": 0, "lon": -77.03644, "rental_uris": {"android": "https://dc.lft.to/lastmile_qr_scan", "ios": "https://dc.lft.to/lastmile_qr_scan"}}, {"name": "03429002271dbf14fb5f154886ab9c9b", "is_disabled": 0, "fusion_lat": 0.0, "fusion_lon": 0.0, "type": "electric_scooter", "lat": 38.892982833333335, "bike_id": "03429002271dbf14fb5f154886ab9c9b", "is_reserved": 0, "lon": -76.93980883333333, "rental_uris": {"android": "https://dc.lft.to/lastmile_qr_scan", "ios": "https://dc.lft.to/lastmile_qr_scan"}}, {"name": "1249b8a2ed30569469040df2f7f089eb", "is_disabled": 0, "fusion_lat": 0.0, "fusion_lon": 0.0, "type": "electric_scooter", "lat": 38.90916816666667, "bike_id": "1249b8a2ed30569469040df2f7f089eb", "is_reserved": 0, "lon": -77.07280383333334, "rental_uris": {"android": "https://dc.lft.to/lastmile_qr_scan", "ios": "https://dc.lft.to/lastmile_qr_scan"}}, {"name": "860889a37c761f81e8e0174372b42f3d", "is_disabled": 0, "fusion_lat": 0.0, "fusion_lon": 0.0, "type": "electric_scooter", "lat": 38.901335833333334, "bike_id": "860889a37c761f81e8e0174372b42f3d", "is_reserved": 0, "lon": -77.01322, "rental_uris": {"android": "https://dc.lft.to/lastmile_qr_scan", "ios": "https://dc.lft.to/lastmile_qr_scan"}}, {"name": "fb539148c312287c6221a374d28b519d", "is_disabled": 0, "fusion_lat": 0.0, "fusion_lon": 0.0, "type": "electric_scooter", "lat": 38.9285755, "bike_id": "fb539148c312287c6221a374d28b519d", "is_reserved": 0, "lon": -77.031981, "rental_uris": {"android": "https://dc.lft.to/lastmile_qr_scan", "ios": "https://dc.lft.to/lastmile_qr_scan"}}, {"name": "56a6cd7210b8c93de2a0bcfb4b174d88", "is_disabled": 0, "fusion_lat": 0.0, "fusion_lon": 0.0, "type": "electric_scooter", "lat": 38.8826755, "bike_id": "56a6cd7210b8c93de2a0bcfb4b174d88", "is_reserved": 0, "lon": -76.9925675, "rental_uris": {"android": "https://dc.lft.to/lastmile_qr_scan", "ios": "https://dc.lft.to/lastmile_qr_scan"}}, {"name": "400d56f9d09e9fbd00d704e6b0f30170", "is_disabled": 0, "fusion_lat": 0.0, "fusion_lon": 0.0, "type": "electric_scooter", "lat": 38.90034583333333, "bike_id": "400d56f9d09e9fbd00d704e6b0f30170", "is_reserved": 0, "lon": -76.9960705, "rental_uris": {"android": "https://dc.lft.to/lastmile_qr_scan", "ios": "https://dc.lft.to/lastmile_qr_scan"}}, {"name": "cdf8c68f50e4db3563b692fbb051161d", "is_disabled": 0, "fusion_lat": 0.0, "fusion_lon": 0.0, "type": "electric_bike", "lat": 38.827831333333336, "bike_id": "cdf8c68f50e4db3563b692fbb051161d", "is_reserved": 0, "lon": -77.009215, "rental_uris": {"android": "https://dc.lft.to/lastmile_qr_scan", "ios": "https://dc.lft.to/lastmile_qr_scan"}}, {"name": "e89301f2b52851e9c6b43220344ce1ff", "is_disabled": 0, "fusion_lat": 0.0, "fusion_lon": 0.0, "type": "electric_scooter", "lat": 38.908698, "bike_id": "e89301f2b52851e9c6b43220344ce1ff", "is_reserved": 0, "lon": -77.07162283333334, "rental_uris": {"android": "https://dc.lft.to/lastmile_qr_scan", "ios": "https://dc.lft.to/lastmile_qr_scan"}}, {"name": "507eaaec15e02e518b83e1ebf42ac0c8", "is_disabled": 0, "fusion_lat": 0.0, "fusion_lon": 0.0, "type": "electric_scooter", "lat": 38.9110015, "bike_id": "507eaaec15e02e518b83e1ebf42ac0c8", "is_reserved": 0, "lon": -77.02509033333334, "rental_uris": {"android": "https://dc.lft.to/lastmile_qr_scan", "ios": "https://dc.lft.to/lastmile_qr_scan"}}, {"name": "a50dd7cc94ef0624aee884808c969cbf", "is_disabled": 0, "fusion_lat": 0.0, "fusion_lon": 0.0, "type": "electric_scooter", "lat": 38.902697, "bike_id": "a50dd7cc94ef0624aee884808c969cbf", "is_reserved": 0, "lon": -77.03845083333333, "rental_uris": {"android": "https://dc.lft.to/lastmile_qr_scan", "ios": "https://dc.lft.to/lastmile_qr_scan"}}, {"name": "bd5eea0791ab23926a36099bed08c021", "is_disabled": 0, "fusion_lat": 0.0, "fusion_lon": 0.0, "type": "electric_scooter", "lat": 38.905048666666666, "bike_id": "bd5eea0791ab23926a36099bed08c021", "is_reserved": 0, "lon": -76.98487766666666, "rental_uris": {"android": "https://dc.lft.to/lastmile_qr_scan", "ios": "https://dc.lft.to/lastmile_qr_scan"}}, {"name": "b8e1230bd879cfd3ab5a7125f922bb51", "is_disabled": 0, "fusion_lat": 0.0, "fusion_lon": 0.0, "type": "electric_scooter", "lat": 38.898715, "bike_id": "b8e1230bd879cfd3ab5a7125f922bb51", "is_reserved": 0, "lon": -77.01128066666666, "rental_uris": {"android": "https://dc.lft.to/lastmile_qr_scan", "ios": "https://dc.lft.to/lastmile_qr_scan"}}, {"name": "58eb41781dc818070845fc511c393494", "is_disabled": 0, "fusion_lat": 0.0, "fusion_lon": 0.0, "type": "electric_scooter", "lat": 38.878803166666664, "bike_id": "58eb41781dc818070845fc511c393494", "is_reserved": 0, "lon": -77.00785466666666, "rental_uris": {"android": "https://dc.lft.to/lastmile_qr_scan", "ios": "https://dc.lft.to/lastmile_qr_scan"}}, {"name": "b537572dea96f9771617fffe8a6d3707", "is_disabled": 0, "fusion_lat": 0.0, "fusion_lon": 0.0, "type": "electric_scooter", "lat": 38.907051833333334, "bike_id": "b537572dea96f9771617fffe8a6d3707", "is_reserved": 0, "lon": -77.04236716666666, "rental_uris": {"android": "https://dc.lft.to/lastmile_qr_scan", "ios": "https://dc.lft.to/lastmile_qr_scan"}}, {"name": "c06b4162033805408b2742ea35dab70e", "is_disabled": 0, "fusion_lat": 0.0, "fusion_lon": 0.0, "type": "electric_scooter", "lat": 38.91553416666667, "bike_id": "c06b4162033805408b2742ea35dab70e", "is_reserved": 0, "lon": -77.043889, "rental_uris": {"android": "https://dc.lft.to/lastmile_qr_scan", "ios": "https://dc.lft.to/lastmile_qr_scan"}}, {"name": "051c972e3d32dbf6aab8e1c99cc4a6d4", "is_disabled": 0, "fusion_lat": 0.0, "fusion_lon": 0.0, "type": "electric_scooter", "lat": 38.9316985, "bike_id": "051c972e3d32dbf6aab8e1c99cc4a6d4", "is_reserved": 0, "lon": -77.0386235, "rental_uris": {"android": "https://dc.lft.to/lastmile_qr_scan", "ios": "https://dc.lft.to/lastmile_qr_scan"}}, {"name": "c9fdbead0820d27939ed251f2682d7f7", "is_disabled": 0, "fusion_lat": 0.0, "fusion_lon": 0.0, "type": "electric_scooter", "lat": 38.909602, "bike_id": "c9fdbead0820d27939ed251f2682d7f7", "is_reserved": 0, "lon": -77.04683766666666, "rental_uris": {"android": "https://dc.lft.to/lastmile_qr_scan", "ios": "https://dc.lft.to/lastmile_qr_scan"}}, {"name": "3d3c8d06e32c78a1b8bba10d68db4fe3", "is_disabled": 0, "fusion_lat": 0.0, "fusion_lon": 0.0, "type": "electric_scooter", "lat": 38.905114, "bike_id": "3d3c8d06e32c78a1b8bba10d68db4fe3", "is_reserved": 0, "lon": -77.0013975, "rental_uris": {"android": "https://dc.lft.to/lastmile_qr_scan", "ios": "https://dc.lft.to/lastmile_qr_scan"}}, {"name": "c28ef21c4562247cc4d500a8b89c4d01", "is_disabled": 0, "fusion_lat": 0.0, "fusion_lon": 0.0, "type": "electric_scooter", "lat": 38.918336, "bike_id": "c28ef21c4562247cc4d500a8b89c4d01", "is_reserved": 0, "lon": -77.04159716666666, "rental_uris": {"android": "https://dc.lft.to/lastmile_qr_scan", "ios": "https://dc.lft.to/lastmile_qr_scan"}}, {"name": "bb15bdf6e8a326bf771ff854a745b16d", "is_disabled": 0, "fusion_lat": 0.0, "fusion_lon": 0.0, "type": "electric_scooter", "lat": 38.966255833333335, "bike_id": "bb15bdf6e8a326bf771ff854a745b16d", "is_reserved": 0, "lon": -77.01996483333333, "rental_uris": {"android": "https://dc.lft.to/lastmile_qr_scan", "ios": "https://dc.lft.to/lastmile_qr_scan"}}, {"name": "36037309734821aac3bb949408034bf0", "is_disabled": 0, "fusion_lat": 0.0, "fusion_lon": 0.0, "type": "electric_scooter", "lat": 38.905293, "bike_id": "36037309734821aac3bb949408034bf0", "is_reserved": 0, "lon": -77.0411805, "rental_uris": {"android": "https://dc.lft.to/lastmile_qr_scan", "ios": "https://dc.lft.to/lastmile_qr_scan"}}, {"name": "cc10dfc9fc027033f0118bcb026e05d7", "is_disabled": 0, "fusion_lat": 0.0, "fusion_lon": 0.0, "type": "electric_scooter", "lat": 38.911033333333336, "bike_id": "cc10dfc9fc027033f0118bcb026e05d7", "is_reserved": 0, "lon": -77.00210516666667, "rental_uris": {"android": "https://dc.lft.to/lastmile_qr_scan", "ios": "https://dc.lft.to/lastmile_qr_scan"}}, {"name": "bc52a5ca5a1f4d250c7a051e00bd8248", "is_disabled": 0, "fusion_lat": 0.0, "fusion_lon": 0.0, "type": "electric_scooter", "lat": 38.917969666666664, "bike_id": "bc52a5ca5a1f4d250c7a051e00bd8248", "is_reserved": 0, "lon": -77.04023816666667, "rental_uris": {"android": "https://dc.lft.to/lastmile_qr_scan", "ios": "https://dc.lft.to/lastmile_qr_scan"}}, {"name": "b1c5480c97b41e5047aa0a7c6c342a84", "is_disabled": 0, "fusion_lat": 0.0, "fusion_lon": 0.0, "type": "electric_scooter", "lat": 38.91921, "bike_id": "b1c5480c97b41e5047aa0a7c6c342a84", "is_reserved": 0, "lon": -77.03207183333333, "rental_uris": {"android": "https://dc.lft.to/lastmile_qr_scan", "ios": "https://dc.lft.to/lastmile_qr_scan"}}, {"name": "200bc1543a7511e414ba6d6b1d4a53ed", "is_disabled": 0, "fusion_lat": 0.0, "fusion_lon": 0.0, "type": "electric_scooter", "lat": 38.876739666666666, "bike_id": "200bc1543a7511e414ba6d6b1d4a53ed", "is_reserved": 0, "lon": -76.99823116666667, "rental_uris": {"android": "https://dc.lft.to/lastmile_qr_scan", "ios": "https://dc.lft.to/lastmile_qr_scan"}}, {"name": "53867978c184d8da7da67418bbc2144b", "is_disabled": 0, "fusion_lat": 0.0, "fusion_lon": 0.0, "type": "electric_bike", "lat": 38.90271466666667, "bike_id": "53867978c184d8da7da67418bbc2144b", "is_reserved": 0, "lon": -76.9292875, "rental_uris": {"android": "https://dc.lft.to/lastmile_qr_scan", "ios": "https://dc.lft.to/lastmile_qr_scan"}}, {"name": "e41647f1c1364c8292cddb49a63403fd", "is_disabled": 0, "fusion_lat": 0.0, "fusion_lon": 0.0, "type": "electric_scooter", "lat": 38.9235415, "bike_id": "e41647f1c1364c8292cddb49a63403fd", "is_reserved": 0, "lon": -77.04155516666667, "rental_uris": {"android": "https://dc.lft.to/lastmile_qr_scan", "ios": "https://dc.lft.to/lastmile_qr_scan"}}, {"name": "978ab81da15b6fa380b812971bbfa271", "is_disabled": 0, "fusion_lat": 0.0, "fusion_lon": 0.0, "type": "electric_scooter", "lat": 38.892206333333334, "bike_id": "978ab81da15b6fa380b812971bbfa271", "is_reserved": 0, "lon": -77.04376766666667, "rental_uris": {"android": "https://dc.lft.to/lastmile_qr_scan", "ios": "https://dc.lft.to/lastmile_qr_scan"}}, {"name": "7c2b201b22f7f8638c408ceb2092f22f", "is_disabled": 0, "fusion_lat": 0.0, "fusion_lon": 0.0, "type": "electric_scooter", "lat": 38.898814333333334, "bike_id": "7c2b201b22f7f8638c408ceb2092f22f", "is_reserved": 0, "lon": -77.0328075, "rental_uris": {"android": "https://dc.lft.to/lastmile_qr_scan", "ios": "https://dc.lft.to/lastmile_qr_scan"}}, {"name": "48837ef73711558402f7a56fd17a559c", "is_disabled": 0, "fusion_lat": 0.0, "fusion_lon": 0.0, "type": "electric_scooter", "lat": 38.895991, "bike_id": "48837ef73711558402f7a56fd17a559c", "is_reserved": 0, "lon": -77.00766333333333, "rental_uris": {"android": "https://dc.lft.to/lastmile_qr_scan", "ios": "https://dc.lft.to/lastmile_qr_scan"}}, {"name": "697010e2681446796cc56cdea15a7b9c", "is_disabled": 0, "fusion_lat": 0.0, "fusion_lon": 0.0, "type": "electric_scooter", "lat": 38.8967055, "bike_id": "697010e2681446796cc56cdea15a7b9c", "is_reserved": 0, "lon": -77.05030966666666, "rental_uris": {"android": "https://dc.lft.to/lastmile_qr_scan", "ios": "https://dc.lft.to/lastmile_qr_scan"}}, {"name": "b5103a1ec4edce0c2ccfcb2646cbc8a6", "is_disabled": 0, "fusion_lat": 0.0, "fusion_lon": 0.0, "type": "electric_scooter", "lat": 38.9240025, "bike_id": "b5103a1ec4edce0c2ccfcb2646cbc8a6", "is_reserved": 0, "lon": -77.0269495, "rental_uris": {"android": "https://dc.lft.to/lastmile_qr_scan", "ios": "https://dc.lft.to/lastmile_qr_scan"}}, {"name": "915503bee851b5978e98c1b3c191b890", "is_disabled": 0, "fusion_lat": 0.0, "fusion_lon": 0.0, "type": "electric_scooter", "lat": 38.900952833333335, "bike_id": "915503bee851b5978e98c1b3c191b890", "is_reserved": 0, "lon": -76.97646066666667, "rental_uris": {"android": "https://dc.lft.to/lastmile_qr_scan", "ios": "https://dc.lft.to/lastmile_qr_scan"}}, {"name": "ee92559b5e7586a455c83a576809840f", "is_disabled": 0, "fusion_lat": 0.0, "fusion_lon": 0.0, "type": "electric_scooter", "lat": 38.895221666666664, "bike_id": "ee92559b5e7586a455c83a576809840f", "is_reserved": 0, "lon": -77.00338633333334, "rental_uris": {"android": "https://dc.lft.to/lastmile_qr_scan", "ios": "https://dc.lft.to/lastmile_qr_scan"}}, {"name": "a2f197700ec00a252207819cfe01646b", "is_disabled": 0, "fusion_lat": 0.0, "fusion_lon": 0.0, "type": "electric_scooter", "lat": 38.90606916666667, "bike_id": "a2f197700ec00a252207819cfe01646b", "is_reserved": 0, "lon": -77.00370866666667, "rental_uris": {"android": "https://dc.lft.to/lastmile_qr_scan", "ios": "https://dc.lft.to/lastmile_qr_scan"}}, {"name": "523bf09889166a93627670ef509be9b9", "is_disabled": 0, "fusion_lat": 0.0, "fusion_lon": 0.0, "type": "electric_scooter", "lat": 38.893390833333335, "bike_id": "523bf09889166a93627670ef509be9b9", "is_reserved": 0, "lon": -77.01232416666667, "rental_uris": {"android": "https://dc.lft.to/lastmile_qr_scan", "ios": "https://dc.lft.to/lastmile_qr_scan"}}, {"name": "5dc79404af8854ebbc6b947ad77f4a47", "is_disabled": 0, "fusion_lat": 0.0, "fusion_lon": 0.0, "type": "electric_scooter", "lat": 38.899124666666665, "bike_id": "5dc79404af8854ebbc6b947ad77f4a47", "is_reserved": 0, "lon": -76.93369033333333, "rental_uris": {"android": "https://dc.lft.to/lastmile_qr_scan", "ios": "https://dc.lft.to/lastmile_qr_scan"}}, {"name": "7462dfe82eb6b4b6554fe9edd165c69d", "is_disabled": 0, "fusion_lat": 0.0, "fusion_lon": 0.0, "type": "electric_scooter", "lat": 38.915645833333336, "bike_id": "7462dfe82eb6b4b6554fe9edd165c69d", "is_reserved": 0, "lon": -77.02389383333333, "rental_uris": {"android": "https://dc.lft.to/lastmile_qr_scan", "ios": "https://dc.lft.to/lastmile_qr_scan"}}, {"name": "b2dcf733d722ffb2ada16383225bea87", "is_disabled": 0, "fusion_lat": 0.0, "fusion_lon": 0.0, "type": "electric_scooter", "lat": 38.92366333333333, "bike_id": "b2dcf733d722ffb2ada16383225bea87", "is_reserved": 0, "lon": -77.04133883333333, "rental_uris": {"android": "https://dc.lft.to/lastmile_qr_scan", "ios": "https://dc.lft.to/lastmile_qr_scan"}}, {"name": "adc25d2f485f34bea1c1e2c966011a84", "is_disabled": 0, "fusion_lat": 0.0, "fusion_lon": 0.0, "type": "electric_scooter", "lat": 38.9212355, "bike_id": "adc25d2f485f34bea1c1e2c966011a84", "is_reserved": 0, "lon": -77.03667883333334, "rental_uris": {"android": "https://dc.lft.to/lastmile_qr_scan", "ios": "https://dc.lft.to/lastmile_qr_scan"}}, {"name": "db95e33f83dbe183d4a6b7fa8a69903a", "is_disabled": 0, "fusion_lat": 0.0, "fusion_lon": 0.0, "type": "electric_scooter", "lat": 38.900526166666666, "bike_id": "db95e33f83dbe183d4a6b7fa8a69903a", "is_reserved": 0, "lon": -77.039599, "rental_uris": {"android": "https://dc.lft.to/lastmile_qr_scan", "ios": "https://dc.lft.to/lastmile_qr_scan"}}, {"name": "2e8f3bf38bff5ca863d848bf8330a490", "is_disabled": 0, "fusion_lat": 0.0, "fusion_lon": 0.0, "type": "electric_scooter", "lat": 38.921511833333334, "bike_id": "2e8f3bf38bff5ca863d848bf8330a490", "is_reserved": 0, "lon": -77.0206845, "rental_uris": {"android": "https://dc.lft.to/lastmile_qr_scan", "ios": "https://dc.lft.to/lastmile_qr_scan"}}, {"name": "e64fff8f0ceadb2c07d15b48a5a730f5", "is_disabled": 0, "fusion_lat": 0.0, "fusion_lon": 0.0, "type": "electric_scooter", "lat": 38.908745, "bike_id": "e64fff8f0ceadb2c07d15b48a5a730f5", "is_reserved": 0, "lon": -77.0716635, "rental_uris": {"android": "https://dc.lft.to/lastmile_qr_scan", "ios": "https://dc.lft.to/lastmile_qr_scan"}}, {"name": "ac1876b1fa932b79a6deeaba2861eefe", "is_disabled": 0, "fusion_lat": 0.0, "fusion_lon": 0.0, "type": "electric_scooter", "lat": 38.9244075, "bike_id": "ac1876b1fa932b79a6deeaba2861eefe", "is_reserved": 0, "lon": -77.021539, "rental_uris": {"android": "https://dc.lft.to/lastmile_qr_scan", "ios": "https://dc.lft.to/lastmile_qr_scan"}}, {"name": "fc0f02fd1e5ef9153c62302e72e43dcd", "is_disabled": 0, "fusion_lat": 0.0, "fusion_lon": 0.0, "type": "electric_scooter", "lat": 38.90283733333333, "bike_id": "fc0f02fd1e5ef9153c62302e72e43dcd", "is_reserved": 0, "lon": -77.05904266666667, "rental_uris": {"android": "https://dc.lft.to/lastmile_qr_scan", "ios": "https://dc.lft.to/lastmile_qr_scan"}}, {"name": "2a6b1c81ba3e96fb3b97bd327bfdbab7", "is_disabled": 0, "fusion_lat": 0.0, "fusion_lon": 0.0, "type": "electric_scooter", "lat": 38.91707133333333, "bike_id": "2a6b1c81ba3e96fb3b97bd327bfdbab7", "is_reserved": 0, "lon": -77.0414535, "rental_uris": {"android": "https://dc.lft.to/lastmile_qr_scan", "ios": "https://dc.lft.to/lastmile_qr_scan"}}, {"name": "0fc3d8cb953dacb7c00bb6da8010d1c9", "is_disabled": 0, "fusion_lat": 0.0, "fusion_lon": 0.0, "type": "electric_bike", "lat": 38.829394666666666, "bike_id": "0fc3d8cb953dacb7c00bb6da8010d1c9", "is_reserved": 0, "lon": -77.12372733333333, "rental_uris": {"android": "https://dc.lft.to/lastmile_qr_scan", "ios": "https://dc.lft.to/lastmile_qr_scan"}}, {"name": "20b6cc02e54ed983edf37b62bb430597", "is_disabled": 0, "fusion_lat": 0.0, "fusion_lon": 0.0, "type": "electric_scooter", "lat": 38.92750816666667, "bike_id": "20b6cc02e54ed983edf37b62bb430597", "is_reserved": 0, "lon": -77.021472, "rental_uris": {"android": "https://dc.lft.to/lastmile_qr_scan", "ios": "https://dc.lft.to/lastmile_qr_scan"}}, {"name": "012800b8e87ae1e108e8626e76a10f73", "is_disabled": 0, "fusion_lat": 0.0, "fusion_lon": 0.0, "type": "electric_scooter", "lat": 38.862174, "bike_id": "012800b8e87ae1e108e8626e76a10f73", "is_reserved": 0, "lon": -76.99485916666667, "rental_uris": {"android": "https://dc.lft.to/lastmile_qr_scan", "ios": "https://dc.lft.to/lastmile_qr_scan"}}, {"name": "5162992795eafa89cede112fd17e80c0", "is_disabled": 0, "fusion_lat": 0.0, "fusion_lon": 0.0, "type": "electric_scooter", "lat": 38.93606366666667, "bike_id": "5162992795eafa89cede112fd17e80c0", "is_reserved": 0, "lon": -77.0379995, "rental_uris": {"android": "https://dc.lft.to/lastmile_qr_scan", "ios": "https://dc.lft.to/lastmile_qr_scan"}}, {"name": "1a4f6e03ef276f2de359dbc492f4cedb", "is_disabled": 0, "fusion_lat": 0.0, "fusion_lon": 0.0, "type": "electric_scooter", "lat": 38.920412166666665, "bike_id": "1a4f6e03ef276f2de359dbc492f4cedb", "is_reserved": 0, "lon": -76.98947116666666, "rental_uris": {"android": "https://dc.lft.to/lastmile_qr_scan", "ios": "https://dc.lft.to/lastmile_qr_scan"}}, {"name": "06073284c210b57220dc4010f0610093", "is_disabled": 0, "fusion_lat": 0.0, "fusion_lon": 0.0, "type": "electric_scooter", "lat": 38.92107383333333, "bike_id": "06073284c210b57220dc4010f0610093", "is_reserved": 0, "lon": -77.03328533333334, "rental_uris": {"android": "https://dc.lft.to/lastmile_qr_scan", "ios": "https://dc.lft.to/lastmile_qr_scan"}}, {"name": "b6b3e89b2f7fb83e3581ae9425423b0e", "is_disabled": 0, "fusion_lat": 0.0, "fusion_lon": 0.0, "type": "electric_scooter", "lat": 38.93000383333333, "bike_id": "b6b3e89b2f7fb83e3581ae9425423b0e", "is_reserved": 0, "lon": -77.01302383333334, "rental_uris": {"android": "https://dc.lft.to/lastmile_qr_scan", "ios": "https://dc.lft.to/lastmile_qr_scan"}}, {"name": "bb41fdbeec248063fd22b2d6651a5cf9", "is_disabled": 0, "fusion_lat": 0.0, "fusion_lon": 0.0, "type": "electric_scooter", "lat": 38.923595, "bike_id": "bb41fdbeec248063fd22b2d6651a5cf9", "is_reserved": 0, "lon": -77.05076, "rental_uris": {"android": "https://dc.lft.to/lastmile_qr_scan", "ios": "https://dc.lft.to/lastmile_qr_scan"}}, {"name": "74b4a6252c48043132d1a7529993634b", "is_disabled": 0, "fusion_lat": 0.0, "fusion_lon": 0.0, "type": "electric_scooter", "lat": 38.908675, "bike_id": "74b4a6252c48043132d1a7529993634b", "is_reserved": 0, "lon": -77.037697, "rental_uris": {"android": "https://dc.lft.to/lastmile_qr_scan", "ios": "https://dc.lft.to/lastmile_qr_scan"}}, {"name": "6611c14849bb0ff957aac0bb195cf22f", "is_disabled": 0, "fusion_lat": 0.0, "fusion_lon": 0.0, "type": "electric_scooter", "lat": 38.934238, "bike_id": "6611c14849bb0ff957aac0bb195cf22f", "is_reserved": 0, "lon": -77.04145033333333, "rental_uris": {"android": "https://dc.lft.to/lastmile_qr_scan", "ios": "https://dc.lft.to/lastmile_qr_scan"}}, {"name": "25b0c45c08135c56d7fa0d0b36d228bf", "is_disabled": 0, "fusion_lat": 0.0, "fusion_lon": 0.0, "type": "electric_scooter", "lat": 38.9176965, "bike_id": "25b0c45c08135c56d7fa0d0b36d228bf", "is_reserved": 0, "lon": -77.014572, "rental_uris": {"android": "https://dc.lft.to/lastmile_qr_scan", "ios": "https://dc.lft.to/lastmile_qr_scan"}}, {"name": "1bf87e95c4c9ce199c0e4c5ca86f7e8a", "is_disabled": 0, "fusion_lat": 0.0, "fusion_lon": 0.0, "type": "electric_scooter", "lat": 38.89224033333333, "bike_id": "1bf87e95c4c9ce199c0e4c5ca86f7e8a", "is_reserved": 0, "lon": -77.04375966666667, "rental_uris": {"android": "https://dc.lft.to/lastmile_qr_scan", "ios": "https://dc.lft.to/lastmile_qr_scan"}}, {"name": "ad740e2ddae831ec3239ee1b384b8dde", "is_disabled": 0, "fusion_lat": 0.0, "fusion_lon": 0.0, "type": "electric_scooter", "lat": 38.89527783333333, "bike_id": "ad740e2ddae831ec3239ee1b384b8dde", "is_reserved": 0, "lon": -77.0034345, "rental_uris": {"android": "https://dc.lft.to/lastmile_qr_scan", "ios": "https://dc.lft.to/lastmile_qr_scan"}}, {"name": "ada964d1cf5b52d208c10d3fc3d74ffb", "is_disabled": 0, "fusion_lat": 0.0, "fusion_lon": 0.0, "type": "electric_scooter", "lat": 38.893669333333335, "bike_id": "ada964d1cf5b52d208c10d3fc3d74ffb", "is_reserved": 0, "lon": -77.02408766666667, "rental_uris": {"android": "https://dc.lft.to/lastmile_qr_scan", "ios": "https://dc.lft.to/lastmile_qr_scan"}}, {"name": "36543f294727689df2f3630b82f67bf3", "is_disabled": 0, "fusion_lat": 0.0, "fusion_lon": 0.0, "type": "electric_scooter", "lat": 38.8745785, "bike_id": "36543f294727689df2f3630b82f67bf3", "is_reserved": 0, "lon": -77.005482, "rental_uris": {"android": "https://dc.lft.to/lastmile_qr_scan", "ios": "https://dc.lft.to/lastmile_qr_scan"}}, {"name": "76c0a2748382aac0bd29bc2bbc453d12", "is_disabled": 0, "fusion_lat": 0.0, "fusion_lon": 0.0, "type": "electric_scooter", "lat": 38.92011016666667, "bike_id": "76c0a2748382aac0bd29bc2bbc453d12", "is_reserved": 0, "lon": -77.032231, "rental_uris": {"android": "https://dc.lft.to/lastmile_qr_scan", "ios": "https://dc.lft.to/lastmile_qr_scan"}}, {"name": "8bc6b35eb616f044abb5f47677837ba5", "is_disabled": 0, "fusion_lat": 0.0, "fusion_lon": 0.0, "type": "electric_scooter", "lat": 38.9077815, "bike_id": "8bc6b35eb616f044abb5f47677837ba5", "is_reserved": 0, "lon": -77.03818433333333, "rental_uris": {"android": "https://dc.lft.to/lastmile_qr_scan", "ios": "https://dc.lft.to/lastmile_qr_scan"}}, {"name": "f3dd9800c05c468e92ea2e752ed6282c", "is_disabled": 0, "fusion_lat": 0.0, "fusion_lon": 0.0, "type": "electric_scooter", "lat": 38.92169233333333, "bike_id": "f3dd9800c05c468e92ea2e752ed6282c", "is_reserved": 0, "lon": -77.03216416666666, "rental_uris": {"android": "https://dc.lft.to/lastmile_qr_scan", "ios": "https://dc.lft.to/lastmile_qr_scan"}}, {"name": "99704153d4e8b5b382110b07397e5fd5", "is_disabled": 0, "fusion_lat": 0.0, "fusion_lon": 0.0, "type": "electric_scooter", "lat": 38.9037575, "bike_id": "99704153d4e8b5b382110b07397e5fd5", "is_reserved": 0, "lon": -77.04021166666666, "rental_uris": {"android": "https://dc.lft.to/lastmile_qr_scan", "ios": "https://dc.lft.to/lastmile_qr_scan"}}, {"name": "481354f42dba9e5fac56d34343712b59", "is_disabled": 0, "fusion_lat": 0.0, "fusion_lon": 0.0, "type": "electric_scooter", "lat": 38.9008365, "bike_id": "481354f42dba9e5fac56d34343712b59", "is_reserved": 0, "lon": -76.93028416666667, "rental_uris": {"android": "https://dc.lft.to/lastmile_qr_scan", "ios": "https://dc.lft.to/lastmile_qr_scan"}}, {"name": "b87a4664fd6065ffbb98845fdbd6954e", "is_disabled": 0, "fusion_lat": 0.0, "fusion_lon": 0.0, "type": "electric_scooter", "lat": 38.906138166666665, "bike_id": "b87a4664fd6065ffbb98845fdbd6954e", "is_reserved": 0, "lon": -77.02405, "rental_uris": {"android": "https://dc.lft.to/lastmile_qr_scan", "ios": "https://dc.lft.to/lastmile_qr_scan"}}, {"name": "9a03c9b50c862d05504582b4e4a8ea59", "is_disabled": 0, "fusion_lat": 0.0, "fusion_lon": 0.0, "type": "electric_scooter", "lat": 38.885020833333336, "bike_id": "9a03c9b50c862d05504582b4e4a8ea59", "is_reserved": 0, "lon": -77.008824, "rental_uris": {"android": "https://dc.lft.to/lastmile_qr_scan", "ios": "https://dc.lft.to/lastmile_qr_scan"}}, {"name": "38bbd824e85ef4bca22e391df2451ee9", "is_disabled": 0, "fusion_lat": 0.0, "fusion_lon": 0.0, "type": "electric_bike", "lat": 38.955442833333336, "bike_id": "38bbd824e85ef4bca22e391df2451ee9", "is_reserved": 0, "lon": -77.0693975, "rental_uris": {"android": "https://dc.lft.to/lastmile_qr_scan", "ios": "https://dc.lft.to/lastmile_qr_scan"}}, {"name": "7581304d8d86f5e2464aa0f5d214a576", "is_disabled": 0, "fusion_lat": 0.0, "fusion_lon": 0.0, "type": "electric_scooter", "lat": 38.91549766666667, "bike_id": "7581304d8d86f5e2464aa0f5d214a576", "is_reserved": 0, "lon": -77.02047283333333, "rental_uris": {"android": "https://dc.lft.to/lastmile_qr_scan", "ios": "https://dc.lft.to/lastmile_qr_scan"}}, {"name": "e9e1a4b7068edbe4d6f8b3b8e98943e8", "is_disabled": 0, "fusion_lat": 0.0, "fusion_lon": 0.0, "type": "electric_scooter", "lat": 38.94197, "bike_id": "e9e1a4b7068edbe4d6f8b3b8e98943e8", "is_reserved": 0, "lon": -77.02508416666667, "rental_uris": {"android": "https://dc.lft.to/lastmile_qr_scan", "ios": "https://dc.lft.to/lastmile_qr_scan"}}, {"name": "0349dd79fb3e4e1f6f064399e552f595", "is_disabled": 0, "fusion_lat": 0.0, "fusion_lon": 0.0, "type": "electric_scooter", "lat": 38.9266235, "bike_id": "0349dd79fb3e4e1f6f064399e552f595", "is_reserved": 0, "lon": -77.01504533333333, "rental_uris": {"android": "https://dc.lft.to/lastmile_qr_scan", "ios": "https://dc.lft.to/lastmile_qr_scan"}}, {"name": "83817ffc90d0829a876712b049fcf239", "is_disabled": 0, "fusion_lat": 0.0, "fusion_lon": 0.0, "type": "electric_scooter", "lat": 38.945018833333336, "bike_id": "83817ffc90d0829a876712b049fcf239", "is_reserved": 0, "lon": -77.03498533333334, "rental_uris": {"android": "https://dc.lft.to/lastmile_qr_scan", "ios": "https://dc.lft.to/lastmile_qr_scan"}}, {"name": "5e319cbe5154d22984f608438f83e0d6", "is_disabled": 0, "fusion_lat": 0.0, "fusion_lon": 0.0, "type": "electric_scooter", "lat": 38.91908316666667, "bike_id": "5e319cbe5154d22984f608438f83e0d6", "is_reserved": 0, "lon": -77.0326365, "rental_uris": {"android": "https://dc.lft.to/lastmile_qr_scan", "ios": "https://dc.lft.to/lastmile_qr_scan"}}, {"name": "46e1618fb35b97d4d511ef0a68f2751b", "is_disabled": 0, "fusion_lat": 0.0, "fusion_lon": 0.0, "type": "electric_bike", "lat": 39.054941666666664, "bike_id": "46e1618fb35b97d4d511ef0a68f2751b", "is_reserved": 0, "lon": -77.11791766666667, "rental_uris": {"android": "https://dc.lft.to/lastmile_qr_scan", "ios": "https://dc.lft.to/lastmile_qr_scan"}}, {"name": "ed8b263e31c704c7db6843ef44f9f2ca", "is_disabled": 0, "fusion_lat": 0.0, "fusion_lon": 0.0, "type": "electric_scooter", "lat": 38.926613333333336, "bike_id": "ed8b263e31c704c7db6843ef44f9f2ca", "is_reserved": 0, "lon": -77.00871133333334, "rental_uris": {"android": "https://dc.lft.to/lastmile_qr_scan", "ios": "https://dc.lft.to/lastmile_qr_scan"}}, {"name": "9cf763db7eed3e2663cd34f63131f6f0", "is_disabled": 0, "fusion_lat": 0.0, "fusion_lon": 0.0, "type": "electric_scooter", "lat": 38.90643083333333, "bike_id": "9cf763db7eed3e2663cd34f63131f6f0", "is_reserved": 0, "lon": -77.0512155, "rental_uris": {"android": "https://dc.lft.to/lastmile_qr_scan", "ios": "https://dc.lft.to/lastmile_qr_scan"}}, {"name": "77a705cfd699bca07f3ab6eb1c7bcd8d", "is_disabled": 0, "fusion_lat": 0.0, "fusion_lon": 0.0, "type": "electric_bike", "lat": 38.88746166666667, "bike_id": "77a705cfd699bca07f3ab6eb1c7bcd8d", "is_reserved": 0, "lon": -76.90087816666667, "rental_uris": {"android": "https://dc.lft.to/lastmile_qr_scan", "ios": "https://dc.lft.to/lastmile_qr_scan"}}, {"name": "6277cb82fb245140b39e43d5f18d5ebe", "is_disabled": 0, "fusion_lat": 0.0, "fusion_lon": 0.0, "type": "electric_scooter", "lat": 38.902415, "bike_id": "6277cb82fb245140b39e43d5f18d5ebe", "is_reserved": 0, "lon": -77.00203566666667, "rental_uris": {"android": "https://dc.lft.to/lastmile_qr_scan", "ios": "https://dc.lft.to/lastmile_qr_scan"}}, {"name": "75c3b67d58c662839d6f039e1b31871b", "is_disabled": 0, "fusion_lat": 0.0, "fusion_lon": 0.0, "type": "electric_bike", "lat": 39.03423083333333, "bike_id": "75c3b67d58c662839d6f039e1b31871b", "is_reserved": 0, "lon": -77.041014, "rental_uris": {"android": "https://dc.lft.to/lastmile_qr_scan", "ios": "https://dc.lft.to/lastmile_qr_scan"}}, {"name": "63f2dd2bccf6407854cb0fa3448206ec", "is_disabled": 0, "fusion_lat": 0.0, "fusion_lon": 0.0, "type": "electric_scooter", "lat": 38.920731, "bike_id": "63f2dd2bccf6407854cb0fa3448206ec", "is_reserved": 0, "lon": -77.0207945, "rental_uris": {"android": "https://dc.lft.to/lastmile_qr_scan", "ios": "https://dc.lft.to/lastmile_qr_scan"}}, {"name": "411dc912d6f186fe8ede22dfc564cded", "is_disabled": 0, "fusion_lat": 0.0, "fusion_lon": 0.0, "type": "electric_bike", "lat": 38.88335816666667, "bike_id": "411dc912d6f186fe8ede22dfc564cded", "is_reserved": 0, "lon": -77.0657, "rental_uris": {"android": "https://dc.lft.to/lastmile_qr_scan", "ios": "https://dc.lft.to/lastmile_qr_scan"}}, {"name": "06263240fb1bc842b08f04c381029e02", "is_disabled": 0, "fusion_lat": 0.0, "fusion_lon": 0.0, "type": "electric_scooter", "lat": 38.90852733333333, "bike_id": "06263240fb1bc842b08f04c381029e02", "is_reserved": 0, "lon": -77.04257433333333, "rental_uris": {"android": "https://dc.lft.to/lastmile_qr_scan", "ios": "https://dc.lft.to/lastmile_qr_scan"}}, {"name": "833d3c0dc11ba6cb03a6db3ff79f8023", "is_disabled": 0, "fusion_lat": 0.0, "fusion_lon": 0.0, "type": "electric_scooter", "lat": 38.90023433333333, "bike_id": "833d3c0dc11ba6cb03a6db3ff79f8023", "is_reserved": 0, "lon": -77.03046466666666, "rental_uris": {"android": "https://dc.lft.to/lastmile_qr_scan", "ios": "https://dc.lft.to/lastmile_qr_scan"}}, {"name": "9f86bf2011459dc4681d5c270c94189e", "is_disabled": 0, "fusion_lat": 0.0, "fusion_lon": 0.0, "type": "electric_scooter", "lat": 38.90146283333333, "bike_id": "9f86bf2011459dc4681d5c270c94189e", "is_reserved": 0, "lon": -76.9298795, "rental_uris": {"android": "https://dc.lft.to/lastmile_qr_scan", "ios": "https://dc.lft.to/lastmile_qr_scan"}}, {"name": "e6bbf047aeb9d12f72147a3028bd3056", "is_disabled": 0, "fusion_lat": 0.0, "fusion_lon": 0.0, "type": "electric_bike", "lat": 38.97392716666667, "bike_id": "e6bbf047aeb9d12f72147a3028bd3056", "is_reserved": 0, "lon": -77.064571, "rental_uris": {"android": "https://dc.lft.to/lastmile_qr_scan", "ios": "https://dc.lft.to/lastmile_qr_scan"}}, {"name": "9ab4452826b9072864864ddc0eff48df", "is_disabled": 0, "fusion_lat": 0.0, "fusion_lon": 0.0, "type": "electric_scooter", "lat": 38.928441666666664, "bike_id": "9ab4452826b9072864864ddc0eff48df", "is_reserved": 0, "lon": -77.05969033333334, "rental_uris": {"android": "https://dc.lft.to/lastmile_qr_scan", "ios": "https://dc.lft.to/lastmile_qr_scan"}}, {"name": "eab9ac9a8f13d2047c3f890345ec7465", "is_disabled": 0, "fusion_lat": 0.0, "fusion_lon": 0.0, "type": "electric_scooter", "lat": 38.90801783333333, "bike_id": "eab9ac9a8f13d2047c3f890345ec7465", "is_reserved": 0, "lon": -76.98735966666666, "rental_uris": {"android": "https://dc.lft.to/lastmile_qr_scan", "ios": "https://dc.lft.to/lastmile_qr_scan"}}, {"name": "f6fe1d7e39eaabc6bfb59fba43096e14", "is_disabled": 0, "fusion_lat": 0.0, "fusion_lon": 0.0, "type": "electric_scooter", "lat": 38.914162166666664, "bike_id": "f6fe1d7e39eaabc6bfb59fba43096e14", "is_reserved": 0, "lon": -77.04466516666666, "rental_uris": {"android": "https://dc.lft.to/lastmile_qr_scan", "ios": "https://dc.lft.to/lastmile_qr_scan"}}, {"name": "58cb702ab2945f5a19543b7388dc7b57", "is_disabled": 0, "fusion_lat": 0.0, "fusion_lon": 0.0, "type": "electric_scooter", "lat": 38.8859935, "bike_id": "58cb702ab2945f5a19543b7388dc7b57", "is_reserved": 0, "lon": -77.0450945, "rental_uris": {"android": "https://dc.lft.to/lastmile_qr_scan", "ios": "https://dc.lft.to/lastmile_qr_scan"}}, {"name": "01a704fdcf17800726e37c713a902969", "is_disabled": 0, "fusion_lat": 0.0, "fusion_lon": 0.0, "type": "electric_scooter", "lat": 38.87290316666667, "bike_id": "01a704fdcf17800726e37c713a902969", "is_reserved": 0, "lon": -76.97732666666667, "rental_uris": {"android": "https://dc.lft.to/lastmile_qr_scan", "ios": "https://dc.lft.to/lastmile_qr_scan"}}, {"name": "3bfa9807eae1808edc8c1b5d8a42194c", "is_disabled": 0, "fusion_lat": 0.0, "fusion_lon": 0.0, "type": "electric_scooter", "lat": 38.92236716666667, "bike_id": "3bfa9807eae1808edc8c1b5d8a42194c", "is_reserved": 0, "lon": -77.03666783333334, "rental_uris": {"android": "https://dc.lft.to/lastmile_qr_scan", "ios": "https://dc.lft.to/lastmile_qr_scan"}}, {"name": "bd5775f3dff204b4678478788e6bb0fa", "is_disabled": 0, "fusion_lat": 0.0, "fusion_lon": 0.0, "type": "electric_scooter", "lat": 38.91551166666667, "bike_id": "bd5775f3dff204b4678478788e6bb0fa", "is_reserved": 0, "lon": -77.053275, "rental_uris": {"android": "https://dc.lft.to/lastmile_qr_scan", "ios": "https://dc.lft.to/lastmile_qr_scan"}}, {"name": "75633b22a8225e62bf12de3e7c5cd2bc", "is_disabled": 0, "fusion_lat": 0.0, "fusion_lon": 0.0, "type": "electric_scooter", "lat": 38.9238325, "bike_id": "75633b22a8225e62bf12de3e7c5cd2bc", "is_reserved": 0, "lon": -77.02762866666667, "rental_uris": {"android": "https://dc.lft.to/lastmile_qr_scan", "ios": "https://dc.lft.to/lastmile_qr_scan"}}, {"name": "5b0572e4277ef2dacc54fdfbc71c0e04", "is_disabled": 0, "fusion_lat": 0.0, "fusion_lon": 0.0, "type": "electric_scooter", "lat": 38.919036166666665, "bike_id": "5b0572e4277ef2dacc54fdfbc71c0e04", "is_reserved": 0, "lon": -77.03392833333334, "rental_uris": {"android": "https://dc.lft.to/lastmile_qr_scan", "ios": "https://dc.lft.to/lastmile_qr_scan"}}, {"name": "d35ddc5d1d9bc7494f834e7025e92d20", "is_disabled": 0, "fusion_lat": 0.0, "fusion_lon": 0.0, "type": "electric_scooter", "lat": 38.892258, "bike_id": "d35ddc5d1d9bc7494f834e7025e92d20", "is_reserved": 0, "lon": -77.04337416666667, "rental_uris": {"android": "https://dc.lft.to/lastmile_qr_scan", "ios": "https://dc.lft.to/lastmile_qr_scan"}}, {"name": "148f4cdafb44db9b9bca1a45ac1d6411", "is_disabled": 0, "fusion_lat": 0.0, "fusion_lon": 0.0, "type": "electric_scooter", "lat": 38.90369366666667, "bike_id": "148f4cdafb44db9b9bca1a45ac1d6411", "is_reserved": 0, "lon": -77.04475716666667, "rental_uris": {"android": "https://dc.lft.to/lastmile_qr_scan", "ios": "https://dc.lft.to/lastmile_qr_scan"}}, {"name": "bfe7994866a369e0d3c3de8d7e30299b", "is_disabled": 0, "fusion_lat": 0.0, "fusion_lon": 0.0, "type": "electric_scooter", "lat": 38.92747166666667, "bike_id": "bfe7994866a369e0d3c3de8d7e30299b", "is_reserved": 0, "lon": -77.02537983333333, "rental_uris": {"android": "https://dc.lft.to/lastmile_qr_scan", "ios": "https://dc.lft.to/lastmile_qr_scan"}}, {"name": "2a3ab4ab2b13ff2680a980ae3d5e4141", "is_disabled": 0, "fusion_lat": 0.0, "fusion_lon": 0.0, "type": "electric_scooter", "lat": 38.90523016666667, "bike_id": "2a3ab4ab2b13ff2680a980ae3d5e4141", "is_reserved": 0, "lon": -77.06464566666666, "rental_uris": {"android": "https://dc.lft.to/lastmile_qr_scan", "ios": "https://dc.lft.to/lastmile_qr_scan"}}, {"name": "073277eae695c4c694b1005cf59e6186", "is_disabled": 0, "fusion_lat": 0.0, "fusion_lon": 0.0, "type": "electric_bike", "lat": 38.9622325, "bike_id": "073277eae695c4c694b1005cf59e6186", "is_reserved": 0, "lon": -77.026327, "rental_uris": {"android": "https://dc.lft.to/lastmile_qr_scan", "ios": "https://dc.lft.to/lastmile_qr_scan"}}, {"name": "c4e66cc7d4a0a63272edd2e7886eb47f", "is_disabled": 0, "fusion_lat": 0.0, "fusion_lon": 0.0, "type": "electric_scooter", "lat": 38.904819833333335, "bike_id": "c4e66cc7d4a0a63272edd2e7886eb47f", "is_reserved": 0, "lon": -77.06027916666666, "rental_uris": {"android": "https://dc.lft.to/lastmile_qr_scan", "ios": "https://dc.lft.to/lastmile_qr_scan"}}, {"name": "855398265c0356fc53279f9077a7cebb", "is_disabled": 0, "fusion_lat": 0.0, "fusion_lon": 0.0, "type": "electric_scooter", "lat": 38.863884166666665, "bike_id": "855398265c0356fc53279f9077a7cebb", "is_reserved": 0, "lon": -76.98920766666667, "rental_uris": {"android": "https://dc.lft.to/lastmile_qr_scan", "ios": "https://dc.lft.to/lastmile_qr_scan"}}, {"name": "e6835783bb9c322f26694cbc88252ab4", "is_disabled": 0, "fusion_lat": 0.0, "fusion_lon": 0.0, "type": "electric_bike", "lat": 38.806858166666665, "bike_id": "e6835783bb9c322f26694cbc88252ab4", "is_reserved": 0, "lon": -77.0597445, "rental_uris": {"android": "https://dc.lft.to/lastmile_qr_scan", "ios": "https://dc.lft.to/lastmile_qr_scan"}}, {"name": "cad9d0950905e15979e726ba576712c5", "is_disabled": 0, "fusion_lat": 0.0, "fusion_lon": 0.0, "type": "electric_scooter", "lat": 38.9245255, "bike_id": "cad9d0950905e15979e726ba576712c5", "is_reserved": 0, "lon": -77.02159933333333, "rental_uris": {"android": "https://dc.lft.to/lastmile_qr_scan", "ios": "https://dc.lft.to/lastmile_qr_scan"}}, {"name": "b42b301c88d6ebd61fe6fbfa07d5e8c8", "is_disabled": 0, "fusion_lat": 0.0, "fusion_lon": 0.0, "type": "electric_scooter", "lat": 38.920147666666665, "bike_id": "b42b301c88d6ebd61fe6fbfa07d5e8c8", "is_reserved": 0, "lon": -77.03233616666667, "rental_uris": {"android": "https://dc.lft.to/lastmile_qr_scan", "ios": "https://dc.lft.to/lastmile_qr_scan"}}, {"name": "819ecdef107b99df884d0ff361985510", "is_disabled": 0, "fusion_lat": 0.0, "fusion_lon": 0.0, "type": "electric_scooter", "lat": 38.9007605, "bike_id": "819ecdef107b99df884d0ff361985510", "is_reserved": 0, "lon": -77.049542, "rental_uris": {"android": "https://dc.lft.to/lastmile_qr_scan", "ios": "https://dc.lft.to/lastmile_qr_scan"}}, {"name": "66a30c5badcf1025fad1557cda6c9797", "is_disabled": 0, "fusion_lat": 0.0, "fusion_lon": 0.0, "type": "electric_scooter", "lat": 38.920539166666664, "bike_id": "66a30c5badcf1025fad1557cda6c9797", "is_reserved": 0, "lon": -77.02983183333333, "rental_uris": {"android": "https://dc.lft.to/lastmile_qr_scan", "ios": "https://dc.lft.to/lastmile_qr_scan"}}, {"name": "282e1062e098a553a5ae8387c527c800", "is_disabled": 0, "fusion_lat": 0.0, "fusion_lon": 0.0, "type": "electric_scooter", "lat": 38.9048545, "bike_id": "282e1062e098a553a5ae8387c527c800", "is_reserved": 0, "lon": -77.04846516666667, "rental_uris": {"android": "https://dc.lft.to/lastmile_qr_scan", "ios": "https://dc.lft.to/lastmile_qr_scan"}}, {"name": "85b2e73e0bb64c4e6b162794d23bc439", "is_disabled": 0, "fusion_lat": 0.0, "fusion_lon": 0.0, "type": "electric_bike", "lat": 38.8455765, "bike_id": "85b2e73e0bb64c4e6b162794d23bc439", "is_reserved": 0, "lon": -77.06689, "rental_uris": {"android": "https://dc.lft.to/lastmile_qr_scan", "ios": "https://dc.lft.to/lastmile_qr_scan"}}, {"name": "24df20349220d906355b8d155f3a2238", "is_disabled": 0, "fusion_lat": 0.0, "fusion_lon": 0.0, "type": "electric_scooter", "lat": 38.94180766666667, "bike_id": "24df20349220d906355b8d155f3a2238", "is_reserved": 0, "lon": -77.02491316666666, "rental_uris": {"android": "https://dc.lft.to/lastmile_qr_scan", "ios": "https://dc.lft.to/lastmile_qr_scan"}}, {"name": "5cb0fff476e671207274a8968018ade5", "is_disabled": 0, "fusion_lat": 0.0, "fusion_lon": 0.0, "type": "electric_bike", "lat": 38.99345, "bike_id": "5cb0fff476e671207274a8968018ade5", "is_reserved": 0, "lon": -77.11571966666666, "rental_uris": {"android": "https://dc.lft.to/lastmile_qr_scan", "ios": "https://dc.lft.to/lastmile_qr_scan"}}, {"name": "ec62776c56591a1e5cb1d89f6cda79f4", "is_disabled": 0, "fusion_lat": 0.0, "fusion_lon": 0.0, "type": "electric_scooter", "lat": 38.938509833333335, "bike_id": "ec62776c56591a1e5cb1d89f6cda79f4", "is_reserved": 0, "lon": -77.02518283333333, "rental_uris": {"android": "https://dc.lft.to/lastmile_qr_scan", "ios": "https://dc.lft.to/lastmile_qr_scan"}}, {"name": "4e8435c1608f5a06965dd983d1450d75", "is_disabled": 0, "fusion_lat": 0.0, "fusion_lon": 0.0, "type": "electric_bike", "lat": 38.938085666666666, "bike_id": "4e8435c1608f5a06965dd983d1450d75", "is_reserved": 0, "lon": -77.068623, "rental_uris": {"android": "https://dc.lft.to/lastmile_qr_scan", "ios": "https://dc.lft.to/lastmile_qr_scan"}}, {"name": "1c468d3e641eea4de25a3c99ed5fd32d", "is_disabled": 0, "fusion_lat": 0.0, "fusion_lon": 0.0, "type": "electric_scooter", "lat": 38.87999516666667, "bike_id": "1c468d3e641eea4de25a3c99ed5fd32d", "is_reserved": 0, "lon": -77.02484883333334, "rental_uris": {"android": "https://dc.lft.to/lastmile_qr_scan", "ios": "https://dc.lft.to/lastmile_qr_scan"}}, {"name": "3656355069e6377c83c2126caf82ccb4", "is_disabled": 0, "fusion_lat": 0.0, "fusion_lon": 0.0, "type": "electric_scooter", "lat": 38.930653, "bike_id": "3656355069e6377c83c2126caf82ccb4", "is_reserved": 0, "lon": -77.038165, "rental_uris": {"android": "https://dc.lft.to/lastmile_qr_scan", "ios": "https://dc.lft.to/lastmile_qr_scan"}}, {"name": "c20580aa02c55b17f65bc708d8f3d8c0", "is_disabled": 0, "fusion_lat": 0.0, "fusion_lon": 0.0, "type": "electric_scooter", "lat": 38.904943833333334, "bike_id": "c20580aa02c55b17f65bc708d8f3d8c0", "is_reserved": 0, "lon": -77.0465175, "rental_uris": {"android": "https://dc.lft.to/lastmile_qr_scan", "ios": "https://dc.lft.to/lastmile_qr_scan"}}, {"name": "0d9e41e6a8b5b240db0b18761a624c69", "is_disabled": 0, "fusion_lat": 0.0, "fusion_lon": 0.0, "type": "electric_scooter", "lat": 38.92178033333333, "bike_id": "0d9e41e6a8b5b240db0b18761a624c69", "is_reserved": 0, "lon": -77.02651066666667, "rental_uris": {"android": "https://dc.lft.to/lastmile_qr_scan", "ios": "https://dc.lft.to/lastmile_qr_scan"}}, {"name": "27490dc14ec2f978b4f1f940def7eb8e", "is_disabled": 0, "fusion_lat": 0.0, "fusion_lon": 0.0, "type": "electric_scooter", "lat": 38.9105325, "bike_id": "27490dc14ec2f978b4f1f940def7eb8e", "is_reserved": 0, "lon": -77.02197683333333, "rental_uris": {"android": "https://dc.lft.to/lastmile_qr_scan", "ios": "https://dc.lft.to/lastmile_qr_scan"}}, {"name": "4d00e8acad08199d024970fe6ff969ca", "is_disabled": 0, "fusion_lat": 0.0, "fusion_lon": 0.0, "type": "electric_scooter", "lat": 38.9099105, "bike_id": "4d00e8acad08199d024970fe6ff969ca", "is_reserved": 0, "lon": -77.02814133333334, "rental_uris": {"android": "https://dc.lft.to/lastmile_qr_scan", "ios": "https://dc.lft.to/lastmile_qr_scan"}}, {"name": "1e3873dfed150c50bb8781c093463092", "is_disabled": 0, "fusion_lat": 0.0, "fusion_lon": 0.0, "type": "electric_bike", "lat": 38.96961133333333, "bike_id": "1e3873dfed150c50bb8781c093463092", "is_reserved": 0, "lon": -76.957494, "rental_uris": {"android": "https://dc.lft.to/lastmile_qr_scan", "ios": "https://dc.lft.to/lastmile_qr_scan"}}, {"name": "cc6e6ec31ff459291a96ccc3d84d0a0d", "is_disabled": 0, "fusion_lat": 0.0, "fusion_lon": 0.0, "type": "electric_scooter", "lat": 38.924817833333336, "bike_id": "cc6e6ec31ff459291a96ccc3d84d0a0d", "is_reserved": 0, "lon": -77.0272585, "rental_uris": {"android": "https://dc.lft.to/lastmile_qr_scan", "ios": "https://dc.lft.to/lastmile_qr_scan"}}, {"name": "bbc7716ca1a6a40942b38123dff67c74", "is_disabled": 0, "fusion_lat": 0.0, "fusion_lon": 0.0, "type": "electric_scooter", "lat": 38.923479, "bike_id": "bbc7716ca1a6a40942b38123dff67c74", "is_reserved": 0, "lon": -77.03396616666667, "rental_uris": {"android": "https://dc.lft.to/lastmile_qr_scan", "ios": "https://dc.lft.to/lastmile_qr_scan"}}, {"name": "9fa57287052286a0f0e4befd28e654cd", "is_disabled": 0, "fusion_lat": 0.0, "fusion_lon": 0.0, "type": "electric_scooter", "lat": 38.894638, "bike_id": "9fa57287052286a0f0e4befd28e654cd", "is_reserved": 0, "lon": -77.0225775, "rental_uris": {"android": "https://dc.lft.to/lastmile_qr_scan", "ios": "https://dc.lft.to/lastmile_qr_scan"}}, {"name": "b73e357cdb2678195178daed2482c351", "is_disabled": 0, "fusion_lat": 0.0, "fusion_lon": 0.0, "type": "electric_scooter", "lat": 38.930852333333334, "bike_id": "b73e357cdb2678195178daed2482c351", "is_reserved": 0, "lon": -76.99615566666667, "rental_uris": {"android": "https://dc.lft.to/lastmile_qr_scan", "ios": "https://dc.lft.to/lastmile_qr_scan"}}, {"name": "065329fd7470907c252bde9f6d9986a0", "is_disabled": 0, "fusion_lat": 0.0, "fusion_lon": 0.0, "type": "electric_scooter", "lat": 38.882093, "bike_id": "065329fd7470907c252bde9f6d9986a0", "is_reserved": 0, "lon": -76.927067, "rental_uris": {"android": "https://dc.lft.to/lastmile_qr_scan", "ios": "https://dc.lft.to/lastmile_qr_scan"}}, {"name": "7a178cbc2bba76ee9943acdb3b5553be", "is_disabled": 0, "fusion_lat": 0.0, "fusion_lon": 0.0, "type": "electric_scooter", "lat": 38.91019716666667, "bike_id": "7a178cbc2bba76ee9943acdb3b5553be", "is_reserved": 0, "lon": -77.04425883333333, "rental_uris": {"android": "https://dc.lft.to/lastmile_qr_scan", "ios": "https://dc.lft.to/lastmile_qr_scan"}}, {"name": "39731dbf738ae84ec458f07cfa52bd53", "is_disabled": 0, "fusion_lat": 0.0, "fusion_lon": 0.0, "type": "electric_bike", "lat": 38.9223485, "bike_id": "39731dbf738ae84ec458f07cfa52bd53", "is_reserved": 0, "lon": -77.0282245, "rental_uris": {"android": "https://dc.lft.to/lastmile_qr_scan", "ios": "https://dc.lft.to/lastmile_qr_scan"}}, {"name": "f32e88f3c3269015ec5606b3a794b082", "is_disabled": 0, "fusion_lat": 0.0, "fusion_lon": 0.0, "type": "electric_scooter", "lat": 38.896335666666666, "bike_id": "f32e88f3c3269015ec5606b3a794b082", "is_reserved": 0, "lon": -77.02215533333333, "rental_uris": {"android": "https://dc.lft.to/lastmile_qr_scan", "ios": "https://dc.lft.to/lastmile_qr_scan"}}, {"name": "981caed0d0d4829ad415279993982b1d", "is_disabled": 0, "fusion_lat": 0.0, "fusion_lon": 0.0, "type": "electric_scooter", "lat": 38.90107233333333, "bike_id": "981caed0d0d4829ad415279993982b1d", "is_reserved": 0, "lon": -77.0400445, "rental_uris": {"android": "https://dc.lft.to/lastmile_qr_scan", "ios": "https://dc.lft.to/lastmile_qr_scan"}}, {"name": "6813a8bab55e34ddd16494c54d669923", "is_disabled": 0, "fusion_lat": 0.0, "fusion_lon": 0.0, "type": "electric_scooter", "lat": 38.90217633333334, "bike_id": "6813a8bab55e34ddd16494c54d669923", "is_reserved": 0, "lon": -77.04389816666666, "rental_uris": {"android": "https://dc.lft.to/lastmile_qr_scan", "ios": "https://dc.lft.to/lastmile_qr_scan"}}, {"name": "a8d94866e051203b4e4cf7226f25d1d7", "is_disabled": 0, "fusion_lat": 0.0, "fusion_lon": 0.0, "type": "electric_scooter", "lat": 38.90574183333333, "bike_id": "a8d94866e051203b4e4cf7226f25d1d7", "is_reserved": 0, "lon": -77.0414, "rental_uris": {"android": "https://dc.lft.to/lastmile_qr_scan", "ios": "https://dc.lft.to/lastmile_qr_scan"}}, {"name": "5f855ac9627eaa732cb64bfdf65ff537", "is_disabled": 0, "fusion_lat": 0.0, "fusion_lon": 0.0, "type": "electric_bike", "lat": 38.8120065, "bike_id": "5f855ac9627eaa732cb64bfdf65ff537", "is_reserved": 0, "lon": -77.1084235, "rental_uris": {"android": "https://dc.lft.to/lastmile_qr_scan", "ios": "https://dc.lft.to/lastmile_qr_scan"}}, {"name": "9d416128082ddbafd50341993e7eae01", "is_disabled": 0, "fusion_lat": 0.0, "fusion_lon": 0.0, "type": "electric_scooter", "lat": 38.91578116666667, "bike_id": "9d416128082ddbafd50341993e7eae01", "is_reserved": 0, "lon": -77.0319985, "rental_uris": {"android": "https://dc.lft.to/lastmile_qr_scan", "ios": "https://dc.lft.to/lastmile_qr_scan"}}, {"name": "b051a62c24b8fc00247a640672cceb8d", "is_disabled": 0, "fusion_lat": 0.0, "fusion_lon": 0.0, "type": "electric_scooter", "lat": 38.916841833333336, "bike_id": "b051a62c24b8fc00247a640672cceb8d", "is_reserved": 0, "lon": -77.03817066666667, "rental_uris": {"android": "https://dc.lft.to/lastmile_qr_scan", "ios": "https://dc.lft.to/lastmile_qr_scan"}}, {"name": "e990cc49ed7c8fdeb6286dd9509b7727", "is_disabled": 0, "fusion_lat": 0.0, "fusion_lon": 0.0, "type": "electric_scooter", "lat": 38.930215833333335, "bike_id": "e990cc49ed7c8fdeb6286dd9509b7727", "is_reserved": 0, "lon": -77.06311933333333, "rental_uris": {"android": "https://dc.lft.to/lastmile_qr_scan", "ios": "https://dc.lft.to/lastmile_qr_scan"}}, {"name": "a586d1ee085ecb02d3929a4e9719c22e", "is_disabled": 0, "fusion_lat": 0.0, "fusion_lon": 0.0, "type": "electric_bike", "lat": 39.05048683333333, "bike_id": "a586d1ee085ecb02d3929a4e9719c22e", "is_reserved": 0, "lon": -77.05147583333333, "rental_uris": {"android": "https://dc.lft.to/lastmile_qr_scan", "ios": "https://dc.lft.to/lastmile_qr_scan"}}, {"name": "0c2c4f477740eb41ba74fb84cbee1a4a", "is_disabled": 0, "fusion_lat": 0.0, "fusion_lon": 0.0, "type": "electric_scooter", "lat": 38.902706, "bike_id": "0c2c4f477740eb41ba74fb84cbee1a4a", "is_reserved": 0, "lon": -77.0332855, "rental_uris": {"android": "https://dc.lft.to/lastmile_qr_scan", "ios": "https://dc.lft.to/lastmile_qr_scan"}}, {"name": "fb9f92ecc485132a690cfa75f0168a27", "is_disabled": 0, "fusion_lat": 0.0, "fusion_lon": 0.0, "type": "electric_scooter", "lat": 38.899609166666664, "bike_id": "fb9f92ecc485132a690cfa75f0168a27", "is_reserved": 0, "lon": -77.0417245, "rental_uris": {"android": "https://dc.lft.to/lastmile_qr_scan", "ios": "https://dc.lft.to/lastmile_qr_scan"}}, {"name": "3c252968d4e660bbf6396d5d97ffcbf7", "is_disabled": 0, "fusion_lat": 0.0, "fusion_lon": 0.0, "type": "electric_scooter", "lat": 38.885023833333335, "bike_id": "3c252968d4e660bbf6396d5d97ffcbf7", "is_reserved": 0, "lon": -77.00565933333333, "rental_uris": {"android": "https://dc.lft.to/lastmile_qr_scan", "ios": "https://dc.lft.to/lastmile_qr_scan"}}, {"name": "ab304838aed3ee3aa1e564be9c2ad01c", "is_disabled": 0, "fusion_lat": 0.0, "fusion_lon": 0.0, "type": "electric_scooter", "lat": 38.904083, "bike_id": "ab304838aed3ee3aa1e564be9c2ad01c", "is_reserved": 0, "lon": -76.97335066666666, "rental_uris": {"android": "https://dc.lft.to/lastmile_qr_scan", "ios": "https://dc.lft.to/lastmile_qr_scan"}}, {"name": "2ee4a55e0d369380d994d85296ffd1be", "is_disabled": 0, "fusion_lat": 0.0, "fusion_lon": 0.0, "type": "electric_bike", "lat": 38.83235283333333, "bike_id": "2ee4a55e0d369380d994d85296ffd1be", "is_reserved": 0, "lon": -76.94608366666667, "rental_uris": {"android": "https://dc.lft.to/lastmile_qr_scan", "ios": "https://dc.lft.to/lastmile_qr_scan"}}, {"name": "639b129613aefae68e80f8909f1eacb1", "is_disabled": 0, "fusion_lat": 0.0, "fusion_lon": 0.0, "type": "electric_scooter", "lat": 38.87663216666667, "bike_id": "639b129613aefae68e80f8909f1eacb1", "is_reserved": 0, "lon": -77.00435016666667, "rental_uris": {"android": "https://dc.lft.to/lastmile_qr_scan", "ios": "https://dc.lft.to/lastmile_qr_scan"}}, {"name": "514ed591e2b4c87709007fb6cedeb99c", "is_disabled": 0, "fusion_lat": 0.0, "fusion_lon": 0.0, "type": "electric_scooter", "lat": 38.906389, "bike_id": "514ed591e2b4c87709007fb6cedeb99c", "is_reserved": 0, "lon": -77.04659516666666, "rental_uris": {"android": "https://dc.lft.to/lastmile_qr_scan", "ios": "https://dc.lft.to/lastmile_qr_scan"}}, {"name": "7d7edfdd44a35a90b0e34f2669f50eac", "is_disabled": 0, "fusion_lat": 0.0, "fusion_lon": 0.0, "type": "electric_scooter", "lat": 38.9117605, "bike_id": "7d7edfdd44a35a90b0e34f2669f50eac", "is_reserved": 0, "lon": -77.03192216666666, "rental_uris": {"android": "https://dc.lft.to/lastmile_qr_scan", "ios": "https://dc.lft.to/lastmile_qr_scan"}}, {"name": "530bb0e7df18adf97dc7ff76e7146de8", "is_disabled": 0, "fusion_lat": 0.0, "fusion_lon": 0.0, "type": "electric_scooter", "lat": 38.921802, "bike_id": "530bb0e7df18adf97dc7ff76e7146de8", "is_reserved": 0, "lon": -77.04354833333333, "rental_uris": {"android": "https://dc.lft.to/lastmile_qr_scan", "ios": "https://dc.lft.to/lastmile_qr_scan"}}, {"name": "330734b4bd38a765d1fd1b4c9635f32d", "is_disabled": 0, "fusion_lat": 0.0, "fusion_lon": 0.0, "type": "electric_scooter", "lat": 38.906253666666665, "bike_id": "330734b4bd38a765d1fd1b4c9635f32d", "is_reserved": 0, "lon": -77.03870333333333, "rental_uris": {"android": "https://dc.lft.to/lastmile_qr_scan", "ios": "https://dc.lft.to/lastmile_qr_scan"}}, {"name": "b226984dc0f47a023b2653c022d285fe", "is_disabled": 0, "fusion_lat": 0.0, "fusion_lon": 0.0, "type": "electric_scooter", "lat": 38.906188666666665, "bike_id": "b226984dc0f47a023b2653c022d285fe", "is_reserved": 0, "lon": -77.02983316666666, "rental_uris": {"android": "https://dc.lft.to/lastmile_qr_scan", "ios": "https://dc.lft.to/lastmile_qr_scan"}}, {"name": "357feb1c9fbe724b62efdfe2fe36505e", "is_disabled": 0, "fusion_lat": 0.0, "fusion_lon": 0.0, "type": "electric_scooter", "lat": 38.930627333333334, "bike_id": "357feb1c9fbe724b62efdfe2fe36505e", "is_reserved": 0, "lon": -77.0394075, "rental_uris": {"android": "https://dc.lft.to/lastmile_qr_scan", "ios": "https://dc.lft.to/lastmile_qr_scan"}}, {"name": "746ea5c166d8f0fa037a0153d7ca0092", "is_disabled": 0, "fusion_lat": 0.0, "fusion_lon": 0.0, "type": "electric_scooter", "lat": 38.91486366666667, "bike_id": "746ea5c166d8f0fa037a0153d7ca0092", "is_reserved": 0, "lon": -77.022007, "rental_uris": {"android": "https://dc.lft.to/lastmile_qr_scan", "ios": "https://dc.lft.to/lastmile_qr_scan"}}, {"name": "7dbc34adbbee62e3b02536bac49bd6c5", "is_disabled": 0, "fusion_lat": 0.0, "fusion_lon": 0.0, "type": "electric_scooter", "lat": 38.89683, "bike_id": "7dbc34adbbee62e3b02536bac49bd6c5", "is_reserved": 0, "lon": -77.00497683333333, "rental_uris": {"android": "https://dc.lft.to/lastmile_qr_scan", "ios": "https://dc.lft.to/lastmile_qr_scan"}}, {"name": "aafe05370d7390f038efe7fcea066f24", "is_disabled": 0, "fusion_lat": 0.0, "fusion_lon": 0.0, "type": "electric_scooter", "lat": 38.924148, "bike_id": "aafe05370d7390f038efe7fcea066f24", "is_reserved": 0, "lon": -77.05065916666666, "rental_uris": {"android": "https://dc.lft.to/lastmile_qr_scan", "ios": "https://dc.lft.to/lastmile_qr_scan"}}, {"name": "79dc42ec2bc2aebf2589d89d87dfbaab", "is_disabled": 0, "fusion_lat": 0.0, "fusion_lon": 0.0, "type": "electric_scooter", "lat": 38.88734766666666, "bike_id": "79dc42ec2bc2aebf2589d89d87dfbaab", "is_reserved": 0, "lon": -77.0238405, "rental_uris": {"android": "https://dc.lft.to/lastmile_qr_scan", "ios": "https://dc.lft.to/lastmile_qr_scan"}}, {"name": "28dc187bf2a8fe0004b68c285736d6f1", "is_disabled": 0, "fusion_lat": 0.0, "fusion_lon": 0.0, "type": "electric_scooter", "lat": 38.882922, "bike_id": "28dc187bf2a8fe0004b68c285736d6f1", "is_reserved": 0, "lon": -76.9935315, "rental_uris": {"android": "https://dc.lft.to/lastmile_qr_scan", "ios": "https://dc.lft.to/lastmile_qr_scan"}}, {"name": "4a1361543af34bf5a1da77c037f10961", "is_disabled": 0, "fusion_lat": 0.0, "fusion_lon": 0.0, "type": "electric_scooter", "lat": 38.917121, "bike_id": "4a1361543af34bf5a1da77c037f10961", "is_reserved": 0, "lon": -77.03096466666666, "rental_uris": {"android": "https://dc.lft.to/lastmile_qr_scan", "ios": "https://dc.lft.to/lastmile_qr_scan"}}, {"name": "ebdd52845c45ce3d4b2773895ff277c1", "is_disabled": 0, "fusion_lat": 0.0, "fusion_lon": 0.0, "type": "electric_bike", "lat": 38.86511683333333, "bike_id": "ebdd52845c45ce3d4b2773895ff277c1", "is_reserved": 0, "lon": -76.9734655, "rental_uris": {"android": "https://dc.lft.to/lastmile_qr_scan", "ios": "https://dc.lft.to/lastmile_qr_scan"}}, {"name": "e92f6721ffe8c5f79ed47a2f3cb6a91a", "is_disabled": 0, "fusion_lat": 0.0, "fusion_lon": 0.0, "type": "electric_bike", "lat": 38.854434, "bike_id": "e92f6721ffe8c5f79ed47a2f3cb6a91a", "is_reserved": 0, "lon": -77.08333033333334, "rental_uris": {"android": "https://dc.lft.to/lastmile_qr_scan", "ios": "https://dc.lft.to/lastmile_qr_scan"}}, {"name": "744847583b295375bb4845f2de1b8c34", "is_disabled": 0, "fusion_lat": 0.0, "fusion_lon": 0.0, "type": "electric_scooter", "lat": 38.906131333333335, "bike_id": "744847583b295375bb4845f2de1b8c34", "is_reserved": 0, "lon": -77.039859, "rental_uris": {"android": "https://dc.lft.to/lastmile_qr_scan", "ios": "https://dc.lft.to/lastmile_qr_scan"}}, {"name": "06b6b29b83910785d4d32d16ce1e5522", "is_disabled": 0, "fusion_lat": 0.0, "fusion_lon": 0.0, "type": "electric_scooter", "lat": 38.92850466666667, "bike_id": "06b6b29b83910785d4d32d16ce1e5522", "is_reserved": 0, "lon": -77.02178683333334, "rental_uris": {"android": "https://dc.lft.to/lastmile_qr_scan", "ios": "https://dc.lft.to/lastmile_qr_scan"}}, {"name": "d87fee1079a9dc67648040ad891b9383", "is_disabled": 0, "fusion_lat": 0.0, "fusion_lon": 0.0, "type": "electric_bike", "lat": 38.94840633333333, "bike_id": "d87fee1079a9dc67648040ad891b9383", "is_reserved": 0, "lon": -76.99907316666666, "rental_uris": {"android": "https://dc.lft.to/lastmile_qr_scan", "ios": "https://dc.lft.to/lastmile_qr_scan"}}, {"name": "58b89271d45ba164ff5218004f394878", "is_disabled": 0, "fusion_lat": 0.0, "fusion_lon": 0.0, "type": "electric_scooter", "lat": 38.93615283333333, "bike_id": "58b89271d45ba164ff5218004f394878", "is_reserved": 0, "lon": -77.03767516666667, "rental_uris": {"android": "https://dc.lft.to/lastmile_qr_scan", "ios": "https://dc.lft.to/lastmile_qr_scan"}}, {"name": "a11c45c67334dc5771d876414331856c", "is_disabled": 0, "fusion_lat": 0.0, "fusion_lon": 0.0, "type": "electric_bike", "lat": 38.96286816666667, "bike_id": "a11c45c67334dc5771d876414331856c", "is_reserved": 0, "lon": -77.01131616666666, "rental_uris": {"android": "https://dc.lft.to/lastmile_qr_scan", "ios": "https://dc.lft.to/lastmile_qr_scan"}}, {"name": "e64a46fd1730c7ec89ea87bbb1d9d2a4", "is_disabled": 0, "fusion_lat": 0.0, "fusion_lon": 0.0, "type": "electric_scooter", "lat": 38.930430666666666, "bike_id": "e64a46fd1730c7ec89ea87bbb1d9d2a4", "is_reserved": 0, "lon": -77.01222966666667, "rental_uris": {"android": "https://dc.lft.to/lastmile_qr_scan", "ios": "https://dc.lft.to/lastmile_qr_scan"}}, {"name": "93fbb04a7bfe45ca4ebd56f664a3a748", "is_disabled": 0, "fusion_lat": 0.0, "fusion_lon": 0.0, "type": "electric_scooter", "lat": 38.901528666666664, "bike_id": "93fbb04a7bfe45ca4ebd56f664a3a748", "is_reserved": 0, "lon": -77.02846766666667, "rental_uris": {"android": "https://dc.lft.to/lastmile_qr_scan", "ios": "https://dc.lft.to/lastmile_qr_scan"}}, {"name": "10e59de5289549a2a30aeb189596cd48", "is_disabled": 0, "fusion_lat": 0.0, "fusion_lon": 0.0, "type": "electric_scooter", "lat": 38.908664333333334, "bike_id": "10e59de5289549a2a30aeb189596cd48", "is_reserved": 0, "lon": -77.08601316666666, "rental_uris": {"android": "https://dc.lft.to/lastmile_qr_scan", "ios": "https://dc.lft.to/lastmile_qr_scan"}}, {"name": "b6289c639966e8ff205faff7d9684678", "is_disabled": 0, "fusion_lat": 0.0, "fusion_lon": 0.0, "type": "electric_scooter", "lat": 38.9079195, "bike_id": "b6289c639966e8ff205faff7d9684678", "is_reserved": 0, "lon": -77.04262166666666, "rental_uris": {"android": "https://dc.lft.to/lastmile_qr_scan", "ios": "https://dc.lft.to/lastmile_qr_scan"}}, {"name": "24481cfa562795a971f8f3c434b6a37b", "is_disabled": 0, "fusion_lat": 0.0, "fusion_lon": 0.0, "type": "electric_scooter", "lat": 38.918156, "bike_id": "24481cfa562795a971f8f3c434b6a37b", "is_reserved": 0, "lon": -77.08956266666667, "rental_uris": {"android": "https://dc.lft.to/lastmile_qr_scan", "ios": "https://dc.lft.to/lastmile_qr_scan"}}, {"name": "d0d9da7790654993e9ce4024c3a88aa1", "is_disabled": 0, "fusion_lat": 0.0, "fusion_lon": 0.0, "type": "electric_scooter", "lat": 38.90466883333333, "bike_id": "d0d9da7790654993e9ce4024c3a88aa1", "is_reserved": 0, "lon": -77.04201133333333, "rental_uris": {"android": "https://dc.lft.to/lastmile_qr_scan", "ios": "https://dc.lft.to/lastmile_qr_scan"}}, {"name": "b114c2cbe5d526be47ad97568a9498e9", "is_disabled": 0, "fusion_lat": 0.0, "fusion_lon": 0.0, "type": "electric_scooter", "lat": 38.896344166666665, "bike_id": "b114c2cbe5d526be47ad97568a9498e9", "is_reserved": 0, "lon": -77.023732, "rental_uris": {"android": "https://dc.lft.to/lastmile_qr_scan", "ios": "https://dc.lft.to/lastmile_qr_scan"}}, {"name": "66f057a5e4e6797bac2c40f37a1f4707", "is_disabled": 0, "fusion_lat": 0.0, "fusion_lon": 0.0, "type": "electric_scooter", "lat": 38.917094166666665, "bike_id": "66f057a5e4e6797bac2c40f37a1f4707", "is_reserved": 0, "lon": -77.03475716666667, "rental_uris": {"android": "https://dc.lft.to/lastmile_qr_scan", "ios": "https://dc.lft.to/lastmile_qr_scan"}}, {"name": "6722256a5ac75eb7d7ac7cb16605197d", "is_disabled": 0, "fusion_lat": 0.0, "fusion_lon": 0.0, "type": "electric_bike", "lat": 38.9631945, "bike_id": "6722256a5ac75eb7d7ac7cb16605197d", "is_reserved": 0, "lon": -76.9736145, "rental_uris": {"android": "https://dc.lft.to/lastmile_qr_scan", "ios": "https://dc.lft.to/lastmile_qr_scan"}}, {"name": "1228c9a6c747b1b638826bcb8882ebdb", "is_disabled": 0, "fusion_lat": 0.0, "fusion_lon": 0.0, "type": "electric_scooter", "lat": 38.9095055, "bike_id": "1228c9a6c747b1b638826bcb8882ebdb", "is_reserved": 0, "lon": -77.0320445, "rental_uris": {"android": "https://dc.lft.to/lastmile_qr_scan", "ios": "https://dc.lft.to/lastmile_qr_scan"}},