{"data": {"bikes": [{"lon": -77.03904616666667, "bike_id": "60d98827dd1a873142d68a31a3544ce0", "lat": 38.91845433333334, "fusion_lon": 0.0, "fusion_lat": 0.0, "type": "electric_scooter", "name": "60d98827dd1a873142d68a31a3544ce0", "is_disabled": 0, "rental_uris": {"ios": "https://dc.lft.to/lastmile_qr_scan", "android": "https://dc.lft.to/lastmile_qr_scan"}, "is_reserved": 0}, {"lon": -77.012332, "bike_id": "0b4e133f03ddec4fa527962825e30239", "lat": 38.89294533333333, "fusion_lon": 0.0, "fusion_lat": 0.0, "type": "electric_scooter", "name": "0b4e133f03ddec4fa527962825e30239", "is_disabled": 0, "rental_uris": {"ios": "https://dc.lft.to/lastmile_qr_scan", "android": "https://dc.lft.to/lastmile_qr_scan"}, "is_reserved": 0}, {"lon": -77.031809, "bike_id": "bf5d1a5f15d1d0299f0d78fa372e3c1f", "lat": 38.89217883333333, "fusion_lon": 0.0, "fusion_lat": 0.0, "type": "electric_scooter", "name": "bf5d1a5f15d1d0299f0d78fa372e3c1f", "is_disabled": 0, "rental_uris": {"ios": "https://dc.lft.to/lastmile_qr_scan", "android": "https://dc.lft.to/lastmile_qr_scan"}, "is_reserved": 0}, {"lon": -77.01627716666667, "bike_id": "faf2d5f2141c92d0636ec5065a972749", "lat": 38.90571166666667, "fusion_lon": 0.0, "fusion_lat": 0.0, "type": "electric_scooter", "name": "faf2d5f2141c92d0636ec5065a972749", "is_disabled": 0, "rental_uris": {"ios": "https://dc.lft.to/lastmile_qr_scan", "android": "https://dc.lft.to/lastmile_qr_scan"}, "is_reserved": 0}, {"lon": -77.02690483333333, "bike_id": "ab33891bd80cc5850a718f50684c086a", "lat": 38.917758666666664, "fusion_lon": 0.0, "fusion_lat": 0.0, "type": "electric_scooter", "name": "ab33891bd80cc5850a718f50684c086a", "is_disabled": 0, "rental_uris": {"ios": "https://dc.lft.to/lastmile_qr_scan", "android": "https://dc.lft.to/lastmile_qr_scan"}, "is_reserved": 0}, {"lon": -77.03562616666666, "bike_id": "2d4d288356274c65c5bbcbe9d4ed44fd", "lat": 38.9085205, "fusion_lon": 0.0, "fusion_lat": 0.0, "type": "electric_scooter", "name": "2d4d288356274c65c5bbcbe9d4ed44fd", "is_disabled": 0, "rental_uris": {"ios": "https://dc.lft.to/lastmile_qr_scan", "android": "https://dc.lft.to/lastmile_qr_scan"}, "is_reserved": 0}, {"lon": -76.98855416666666, "bike_id": "02baf86d98dd818f643393ceec4e85c8", "lat": 38.90032083333333, "fusion_lon": 0.0, "fusion_lat": 0.0, "type": "electric_scooter", "name": "02baf86d98dd818f643393ceec4e85c8", "is_disabled": 0, "rental_uris": {"ios": "https://dc.lft.to/lastmile_qr_scan", "android": "https://dc.lft.to/lastmile_qr_scan"}, "is_reserved": 0}, {"lon": -77.023331, "bike_id": "6de19f089c7a8c8bb7951bb218f3a259", "lat": 38.89488383333333, "fusion_lon": 0.0, "fusion_lat": 0.0, "type": "electric_scooter", "name": "6de19f089c7a8c8bb7951bb218f3a259", "is_disabled": 0, "rental_uris": {"ios": "https://dc.lft.to/lastmile_qr_scan", "android": "https://dc.lft.to/lastmile_qr_scan"}, "is_reserved": 0}, {"lon": -77.03197333333334, "bike_id": "8ef66bd6b0fc5e60d7cbacda08797f61", "lat": 38.9164425, "fusion_lon": 0.0, "fusion_lat": 0.0, "type": "electric_scooter", "name": "8ef66bd6b0fc5e60d7cbacda08797f61", "is_disabled": 0, "rental_uris": {"ios": "https://dc.lft.to/lastmile_qr_scan", "android": "https://dc.lft.to/lastmile_qr_scan"}, "is_reserved": 0}, {"lon": -77.00148783333333, "bike_id": "8728ee026f6e570b330913482d27e1af", "lat": 38.910805, "fusion_lon": 0.0, "fusion_lat": 0.0, "type": "electric_scooter", "name": "8728ee026f6e570b330913482d27e1af", "is_disabled": 0, "rental_uris": {"ios": "https://dc.lft.to/lastmile_qr_scan", "android": "https://dc.lft.to/lastmile_qr_scan"}, "is_reserved": 0}, {"lon": -77.0476215, "bike_id": "924e7ea28e67435faa0c274605ec4461", "lat": 38.9176385, "fusion_lon": 0.0, "fusion_lat": 0.0, "type": "electric_scooter", "name": "924e7ea28e67435faa0c274605ec4461", "is_disabled": 0, "rental_uris": {"ios": "https://dc.lft.to/lastmile_qr_scan", "android": "https://dc.lft.to/lastmile_qr_scan"}, "is_reserved": 0}, {"lon": -76.99806566666666, "bike_id": "a3a325fef63eac7c0ac8aef9b1e7521c", "lat": 38.82916083333333, "fusion_lon": 0.0, "fusion_lat": 0.0, "type": "electric_bike", "name": "a3a325fef63eac7c0ac8aef9b1e7521c", "is_disabled": 0, "rental_uris": {"ios": "https://dc.lft.to/lastmile_qr_scan", "android": "https://dc.lft.to/lastmile_qr_scan"}, "is_reserved": 0}, {"lon": -76.95749833333333, "bike_id": "3818080990d96e7ef985f950efa7aeed", "lat": 38.884281666666666, "fusion_lon": 0.0, "fusion_lat": 0.0, "type": "electric_scooter", "name": "3818080990d96e7ef985f950efa7aeed", "is_disabled": 0, "rental_uris": {"ios": "https://dc.lft.to/lastmile_qr_scan", "android": "https://dc.lft.to/lastmile_qr_scan"}, "is_reserved": 0}, {"lon": -76.980789, "bike_id": "e0ecb0f5664b72755a9a22e57f365748", "lat": 38.8793545, "fusion_lon": 0.0, "fusion_lat": 0.0, "type": "electric_bike", "name": "e0ecb0f5664b72755a9a22e57f365748", "is_disabled": 0, "rental_uris": {"ios": "https://dc.lft.to/lastmile_qr_scan", "android": "https://dc.lft.to/lastmile_qr_scan"}, "is_reserved": 0}, {"lon": -77.00340266666667, "bike_id": "d624a42055cbdce29d9d7c43c15bfdda", "lat": 38.89191816666667, "fusion_lon": 0.0, "fusion_lat": 0.0, "type": "electric_scooter", "name": "d624a42055cbdce29d9d7c43c15bfdda", "is_disabled": 0, "rental_uris": {"ios": "https://dc.lft.to/lastmile_qr_scan", "android": "https://dc.lft.to/lastmile_qr_scan"}, "is_reserved": 0}, {"lon": -77.02360166666666, "bike_id": "9cb50b3a6b6a49d3ca307c7c0f8c9f10", "lat": 38.922233, "fusion_lon": 0.0, "fusion_lat": 0.0, "type": "electric_scooter", "name": "9cb50b3a6b6a49d3ca307c7c0f8c9f10", "is_disabled": 0, "rental_uris": {"ios": "https://dc.lft.to/lastmile_qr_scan", "android": "https://dc.lft.to/lastmile_qr_scan"}, "is_reserved": 0}, {"lon": -77.03210683333333, "bike_id": "331996ee8813332c5e67afd2661d63f8", "lat": 38.91926733333333, "fusion_lon": 0.0, "fusion_lat": 0.0, "type": "electric_scooter", "name": "331996ee8813332c5e67afd2661d63f8", "is_disabled": 0, "rental_uris": {"ios": "https://dc.lft.to/lastmile_qr_scan", "android": "https://dc.lft.to/lastmile_qr_scan"}, "is_reserved": 0}, {"lon": -76.98540383333334, "bike_id": "3b0eadc2c7f7827d011ad617d3624f36", "lat": 38.9031655, "fusion_lon": 0.0, "fusion_lat": 0.0, "type": "electric_scooter", "name": "3b0eadc2c7f7827d011ad617d3624f36", "is_disabled": 0, "rental_uris": {"ios": "https://dc.lft.to/lastmile_qr_scan", "android": "https://dc.lft.to/lastmile_qr_scan"}, "is_reserved": 0}, {"lon": -77.0265335, "bike_id": "9dbacc4ef7009f9e13325dcd7d8f8e1c", "lat": 38.88113883333333, "fusion_lon": 0.0, "fusion_lat": 0.0, "type": "electric_scooter", "name": "9dbacc4ef7009f9e13325dcd7d8f8e1c", "is_disabled": 0, "rental_uris": {"ios": "https://dc.lft.to/lastmile_qr_scan", "android": "https://dc.lft.to/lastmile_qr_scan"}, "is_reserved": 0}, {"lon": -77.1170915, "bike_id": "18e2eab121e23152440ede783d852a65", "lat": 38.86745583333333, "fusion_lon": 0.0, "fusion_lat": 0.0, "type": "electric_bike", "name": "18e2eab121e23152440ede783d852a65", "is_disabled": 0, "rental_uris": {"ios": "https://dc.lft.to/lastmile_qr_scan", "android": "https://dc.lft.to/lastmile_qr_scan"}, "is_reserved": 0}, {"lon": -77.03176183333333, "bike_id": "f1cfc62391830d90654b84ebe4563c22", "lat": 38.89755866666667, "fusion_lon": 0.0, "fusion_lat": 0.0, "type": "electric_scooter", "name": "f1cfc62391830d90654b84ebe4563c22", "is_disabled": 0, "rental_uris": {"ios": "https://dc.lft.to/lastmile_qr_scan", "android": "https://dc.lft.to/lastmile_qr_scan"}, "is_reserved": 0}, {"lon": -77.03212583333334, "bike_id": "a8eca1b60857d93466bca2edf69f4f3f", "lat": 38.90722866666667, "fusion_lon": 0.0, "fusion_lat": 0.0, "type": "electric_scooter", "name": "a8eca1b60857d93466bca2edf69f4f3f", "is_disabled": 0, "rental_uris": {"ios": "https://dc.lft.to/lastmile_qr_scan", "android": "https://dc.lft.to/lastmile_qr_scan"}, "is_reserved": 0}, {"lon": -77.04048733333333, "bike_id": "7cc07890a9fa7311da03b44d736a552a", "lat": 38.9287595, "fusion_lon": 0.0, "fusion_lat": 0.0, "type": "electric_scooter", "name": "7cc07890a9fa7311da03b44d736a552a", "is_disabled": 0, "rental_uris": {"ios": "https://dc.lft.to/lastmile_qr_scan", "android": "https://dc.lft.to/lastmile_qr_scan"}, "is_reserved": 0}, {"lon": -77.000551, "bike_id": "59eebdc750ad78aa7701d789655cb173", "lat": 38.923988, "fusion_lon": 0.0, "fusion_lat": 0.0, "type": "electric_scooter", "name": "59eebdc750ad78aa7701d789655cb173", "is_disabled": 0, "rental_uris": {"ios": "https://dc.lft.to/lastmile_qr_scan", "android": "https://dc.lft.to/lastmile_qr_scan"}, "is_reserved": 0}, {"lon": -77.0365855, "bike_id": "3640497a43d5fa78401803d8187cacbc", "lat": 38.91737616666666, "fusion_lon": 0.0, "fusion_lat": 0.0, "type": "electric_scooter", "name": "3640497a43d5fa78401803d8187cacbc", "is_disabled": 0, "rental_uris": {"ios": "https://dc.lft.to/lastmile_qr_scan", "android": "https://dc.lft.to/lastmile_qr_scan"}, "is_reserved": 0}, {"lon": -77.04719333333334, "bike_id": "99ab4a666c249767d7e40a215ab279db", "lat": 38.899480833333335, "fusion_lon": 0.0, "fusion_lat": 0.0, "type": "electric_scooter", "name": "99ab4a666c249767d7e40a215ab279db", "is_disabled": 0, "rental_uris": {"ios": "https://dc.lft.to/lastmile_qr_scan", "android": "https://dc.lft.to/lastmile_qr_scan"}, "is_reserved": 0}, {"lon": -77.05722833333333, "bike_id": "b0fc077e972879deb9095e88052e0248", "lat": 38.9336715, "fusion_lon": 0.0, "fusion_lat": 0.0, "type": "electric_scooter", "name": "b0fc077e972879deb9095e88052e0248", "is_disabled": 0, "rental_uris": {"ios": "https://dc.lft.to/lastmile_qr_scan", "android": "https://dc.lft.to/lastmile_qr_scan"}, "is_reserved": 0}, {"lon": -77.04503533333333, "bike_id": "c04a68cbd627ad3277655eeb6ec5ebdc", "lat": 38.911143833333334, "fusion_lon": 0.0, "fusion_lat": 0.0, "type": "electric_scooter", "name": "c04a68cbd627ad3277655eeb6ec5ebdc", "is_disabled": 0, "rental_uris": {"ios": "https://dc.lft.to/lastmile_qr_scan", "android": "https://dc.lft.to/lastmile_qr_scan"}, "is_reserved": 0}, {"lon": -77.03176833333333, "bike_id": "4097fe11e46681453a4891f153ca00f4", "lat": 38.89221916666666, "fusion_lon": 0.0, "fusion_lat": 0.0, "type": "electric_scooter", "name": "4097fe11e46681453a4891f153ca00f4", "is_disabled": 0, "rental_uris": {"ios": "https://dc.lft.to/lastmile_qr_scan", "android": "https://dc.lft.to/lastmile_qr_scan"}, "is_reserved": 0}, {"lon": -77.030312, "bike_id": "f5f34237dd5af409a673a9f939666e65", "lat": 38.93113433333333, "fusion_lon": 0.0, "fusion_lat": 0.0, "type": "electric_scooter", "name": "f5f34237dd5af409a673a9f939666e65", "is_disabled": 0, "rental_uris": {"ios": "https://dc.lft.to/lastmile_qr_scan", "android": "https://dc.lft.to/lastmile_qr_scan"}, "is_reserved": 0}, {"lon": -77.04566066666666, "bike_id": "657b3ac468cffcf54f9b3e3bc50efcd1", "lat": 38.91759283333333, "fusion_lon": 0.0, "fusion_lat": 0.0, "type": "electric_scooter", "name": "657b3ac468cffcf54f9b3e3bc50efcd1", "is_disabled": 0, "rental_uris": {"ios": "https://dc.lft.to/lastmile_qr_scan", "android": "https://dc.lft.to/lastmile_qr_scan"}, "is_reserved": 0}, {"lon": -77.0177425, "bike_id": "6ddd417efeab2dd9e68c7f5277b2278d", "lat": 38.9009275, "fusion_lon": 0.0, "fusion_lat": 0.0, "type": "electric_scooter", "name": "6ddd417efeab2dd9e68c7f5277b2278d", "is_disabled": 0, "rental_uris": {"ios": "https://dc.lft.to/lastmile_qr_scan", "android": "https://dc.lft.to/lastmile_qr_scan"}, "is_reserved": 0}, {"lon": -77.03290116666666, "bike_id": "1026c3f79209e28373de926852821f42", "lat": 38.9565345, "fusion_lon": 0.0, "fusion_lat": 0.0, "type": "electric_scooter", "name": "1026c3f79209e28373de926852821f42", "is_disabled": 0, "rental_uris": {"ios": "https://dc.lft.to/lastmile_qr_scan", "android": "https://dc.lft.to/lastmile_qr_scan"}, "is_reserved": 0}, {"lon": -77.03179566666667, "bike_id": "860d27fd6ce80806b6609b74b7dca633", "lat": 38.918213, "fusion_lon": 0.0, "fusion_lat": 0.0, "type": "electric_scooter", "name": "860d27fd6ce80806b6609b74b7dca633", "is_disabled": 0, "rental_uris": {"ios": "https://dc.lft.to/lastmile_qr_scan", "android": "https://dc.lft.to/lastmile_qr_scan"}, "is_reserved": 0}, {"lon": -77.03185166666667, "bike_id": "fd63a27e879d2394272ffa7b991064e2", "lat": 38.892372333333334, "fusion_lon": 0.0, "fusion_lat": 0.0, "type": "electric_scooter", "name": "fd63a27e879d2394272ffa7b991064e2", "is_disabled": 0, "rental_uris": {"ios": "https://dc.lft.to/lastmile_qr_scan", "android": "https://dc.lft.to/lastmile_qr_scan"}, "is_reserved": 0}, {"lon": -76.99796516666666, "bike_id": "a7278df56bc624934951d990882edb72", "lat": 38.956413, "fusion_lon": 0.0, "fusion_lat": 0.0, "type": "electric_bike", "name": "a7278df56bc624934951d990882edb72", "is_disabled": 0, "rental_uris": {"ios": "https://dc.lft.to/lastmile_qr_scan", "android": "https://dc.lft.to/lastmile_qr_scan"}, "is_reserved": 0}, {"lon": -76.99475483333333, "bike_id": "d6f0fa2f5cd4d76c6df9c08a584333f7", "lat": 38.88268883333333, "fusion_lon": 0.0, "fusion_lat": 0.0, "type": "electric_scooter", "name": "d6f0fa2f5cd4d76c6df9c08a584333f7", "is_disabled": 0, "rental_uris": {"ios": "https://dc.lft.to/lastmile_qr_scan", "android": "https://dc.lft.to/lastmile_qr_scan"}, "is_reserved": 0}, {"lon": -77.023968, "bike_id": "8cf5ae064c0268361b9712159bd90aca", "lat": 38.881349166666666, "fusion_lon": 0.0, "fusion_lat": 0.0, "type": "electric_scooter", "name": "8cf5ae064c0268361b9712159bd90aca", "is_disabled": 0, "rental_uris": {"ios": "https://dc.lft.to/lastmile_qr_scan", "android": "https://dc.lft.to/lastmile_qr_scan"}, "is_reserved": 0}, {"lon": -76.97328783333333, "bike_id": "63d3570c14d15e09cc7b47b89dc7d25d", "lat": 38.904780833333334, "fusion_lon": 0.0, "fusion_lat": 0.0, "type": "electric_bike", "name": "63d3570c14d15e09cc7b47b89dc7d25d", "is_disabled": 0, "rental_uris": {"ios": "https://dc.lft.to/lastmile_qr_scan", "android": "https://dc.lft.to/lastmile_qr_scan"}, "is_reserved": 0}, {"lon": -77.02113, "bike_id": "f50ca030715bbac0337832db8c2bf0ad", "lat": 38.93697266666667, "fusion_lon": 0.0, "fusion_lat": 0.0, "type": "electric_scooter", "name": "f50ca030715bbac0337832db8c2bf0ad", "is_disabled": 0, "rental_uris": {"ios": "https://dc.lft.to/lastmile_qr_scan", "android": "https://dc.lft.to/lastmile_qr_scan"}, "is_reserved": 0}, {"lon": -77.0318845, "bike_id": "5cd570cc517f979b3741ecdee283a048", "lat": 38.91915616666667, "fusion_lon": 0.0, "fusion_lat": 0.0, "type": "electric_scooter", "name": "5cd570cc517f979b3741ecdee283a048", "is_disabled": 0, "rental_uris": {"ios": "https://dc.lft.to/lastmile_qr_scan", "android": "https://dc.lft.to/lastmile_qr_scan"}, "is_reserved": 0}, {"lon": -76.97619816666666, "bike_id": "43791bcff042cefec6a80104ae2cad71", "lat": 38.90381933333333, "fusion_lon": 0.0, "fusion_lat": 0.0, "type": "electric_scooter", "name": "43791bcff042cefec6a80104ae2cad71", "is_disabled": 0, "rental_uris": {"ios": "https://dc.lft.to/lastmile_qr_scan", "android": "https://dc.lft.to/lastmile_qr_scan"}, "is_reserved": 0}, {"lon": -77.0091915, "bike_id": "7b1d18f921056340b31fc4d9a3691a5a", "lat": 38.827802, "fusion_lon": 0.0, "fusion_lat": 0.0, "type": "electric_bike", "name": "7b1d18f921056340b31fc4d9a3691a5a", "is_disabled": 0, "rental_uris": {"ios": "https://dc.lft.to/lastmile_qr_scan", "android": "https://dc.lft.to/lastmile_qr_scan"}, "is_reserved": 0}, {"lon": -77.03817783333334, "bike_id": "0e1dece4e15df8b11175a251da3bddfe", "lat": 38.93095566666667, "fusion_lon": 0.0, "fusion_lat": 0.0, "type": "electric_scooter", "name": "0e1dece4e15df8b11175a251da3bddfe", "is_disabled": 0, "rental_uris": {"ios": "https://dc.lft.to/lastmile_qr_scan", "android": "https://dc.lft.to/lastmile_qr_scan"}, "is_reserved": 0}, {"lon": -77.00072116666666, "bike_id": "8356d96be37fc1300ae4eb8f7d755039", "lat": 38.924368333333334, "fusion_lon": 0.0, "fusion_lat": 0.0, "type": "electric_scooter", "name": "8356d96be37fc1300ae4eb8f7d755039", "is_disabled": 0, "rental_uris": {"ios": "https://dc.lft.to/lastmile_qr_scan", "android": "https://dc.lft.to/lastmile_qr_scan"}, "is_reserved": 0}, {"lon": -76.99755233333333, "bike_id": "11fc56b0206a469cf1ce722901be64ba", "lat": 38.922617833333334, "fusion_lon": 0.0, "fusion_lat": 0.0, "type": "electric_scooter", "name": "11fc56b0206a469cf1ce722901be64ba", "is_disabled": 0, "rental_uris": {"ios": "https://dc.lft.to/lastmile_qr_scan", "android": "https://dc.lft.to/lastmile_qr_scan"}, "is_reserved": 0}, {"lon": -76.96361616666667, "bike_id": "dfe014c3fcf661899d889439867c6709", "lat": 38.934980833333334, "fusion_lon": 0.0, "fusion_lat": 0.0, "type": "electric_scooter", "name": "dfe014c3fcf661899d889439867c6709", "is_disabled": 0, "rental_uris": {"ios": "https://dc.lft.to/lastmile_qr_scan", "android": "https://dc.lft.to/lastmile_qr_scan"}, "is_reserved": 0}, {"lon": -77.03341933333333, "bike_id": "b40a12c5c312fbce25a3eada6bd90d19", "lat": 38.89225366666667, "fusion_lon": 0.0, "fusion_lat": 0.0, "type": "electric_scooter", "name": "b40a12c5c312fbce25a3eada6bd90d19", "is_disabled": 0, "rental_uris": {"ios": "https://dc.lft.to/lastmile_qr_scan", "android": "https://dc.lft.to/lastmile_qr_scan"}, "is_reserved": 0}, {"lon": -76.9489435, "bike_id": "b87f27fe24dc8f799b8cecdea7d2d63f", "lat": 38.895280666666665, "fusion_lon": 0.0, "fusion_lat": 0.0, "type": "electric_scooter", "name": "b87f27fe24dc8f799b8cecdea7d2d63f", "is_disabled": 0, "rental_uris": {"ios": "https://dc.lft.to/lastmile_qr_scan", "android": "https://dc.lft.to/lastmile_qr_scan"}, "is_reserved": 0}, {"lon": -77.03205933333334, "bike_id": "48ee389249ac3e201948f243f4e54c3f", "lat": 38.9112085, "fusion_lon": 0.0, "fusion_lat": 0.0, "type": "electric_scooter", "name": "48ee389249ac3e201948f243f4e54c3f", "is_disabled": 0, "rental_uris": {"ios": "https://dc.lft.to/lastmile_qr_scan", "android": "https://dc.lft.to/lastmile_qr_scan"}, "is_reserved": 0}, {"lon": -77.03904216666666, "bike_id": "f124a37aa84efac4085c01b1c692e2e9", "lat": 38.923390833333336, "fusion_lon": 0.0, "fusion_lat": 0.0, "type": "electric_scooter", "name": "f124a37aa84efac4085c01b1c692e2e9", "is_disabled": 0, "rental_uris": {"ios": "https://dc.lft.to/lastmile_qr_scan", "android": "https://dc.lft.to/lastmile_qr_scan"}, "is_reserved": 0}, {"lon": -77.02807, "bike_id": "480985b4ecfa13a2d6225a1711ac157f", "lat": 38.94190666666667, "fusion_lon": 0.0, "fusion_lat": 0.0, "type": "electric_scooter", "name": "480985b4ecfa13a2d6225a1711ac157f", "is_disabled": 0, "rental_uris": {"ios": "https://dc.lft.to/lastmile_qr_scan", "android": "https://dc.lft.to/lastmile_qr_scan"}, "is_reserved": 0}, {"lon": -77.02477483333334, "bike_id": "04b75b9aa22f993138d2012c0d104fb7", "lat": 38.92592416666667, "fusion_lon": 0.0, "fusion_lat": 0.0, "type": "electric_scooter", "name": "04b75b9aa22f993138d2012c0d104fb7", "is_disabled": 0, "rental_uris": {"ios": "https://dc.lft.to/lastmile_qr_scan", "android": "https://dc.lft.to/lastmile_qr_scan"}, "is_reserved": 0}, {"lon": -77.0269785, "bike_id": "d22a6c60b97b6b5afcd66c538040a8a8", "lat": 38.896988666666665, "fusion_lon": 0.0, "fusion_lat": 0.0, "type": "electric_scooter", "name": "d22a6c60b97b6b5afcd66c538040a8a8", "is_disabled": 0, "rental_uris": {"ios": "https://dc.lft.to/lastmile_qr_scan", "android": "https://dc.lft.to/lastmile_qr_scan"}, "is_reserved": 0}, {"lon": -77.03865616666667, "bike_id": "3e36cac3114ed8b399d956e100f9a92b", "lat": 38.909688, "fusion_lon": 0.0, "fusion_lat": 0.0, "type": "electric_scooter", "name": "3e36cac3114ed8b399d956e100f9a92b", "is_disabled": 0, "rental_uris": {"ios": "https://dc.lft.to/lastmile_qr_scan", "android": "https://dc.lft.to/lastmile_qr_scan"}, "is_reserved": 0}, {"lon": -76.97841983333333, "bike_id": "136fd7cdcc9b0a8e21430e3de9f767c7", "lat": 38.865675833333334, "fusion_lon": 0.0, "fusion_lat": 0.0, "type": "electric_scooter", "name": "136fd7cdcc9b0a8e21430e3de9f767c7", "is_disabled": 0, "rental_uris": {"ios": "https://dc.lft.to/lastmile_qr_scan", "android": "https://dc.lft.to/lastmile_qr_scan"}, "is_reserved": 0}, {"lon": -77.03581383333334, "bike_id": "7b4bb97f5c1af4c29893d3085895fc2d", "lat": 38.91767516666667, "fusion_lon": 0.0, "fusion_lat": 0.0, "type": "electric_scooter", "name": "7b4bb97f5c1af4c29893d3085895fc2d", "is_disabled": 0, "rental_uris": {"ios": "https://dc.lft.to/lastmile_qr_scan", "android": "https://dc.lft.to/lastmile_qr_scan"}, "is_reserved": 0}, {"lon": -77.02378366666667, "bike_id": "75374cbb07680bd8ae295194b224c403", "lat": 38.90729316666667, "fusion_lon": 0.0, "fusion_lat": 0.0, "type": "electric_scooter", "name": "75374cbb07680bd8ae295194b224c403", "is_disabled": 0, "rental_uris": {"ios": "https://dc.lft.to/lastmile_qr_scan", "android": "https://dc.lft.to/lastmile_qr_scan"}, "is_reserved": 0}, {"lon": -77.03173916666667, "bike_id": "e9d5059d1f77b43f11801df1f7dffdc4", "lat": 38.90514016666667, "fusion_lon": 0.0, "fusion_lat": 0.0, "type": "electric_scooter", "name": "e9d5059d1f77b43f11801df1f7dffdc4", "is_disabled": 0, "rental_uris": {"ios": "https://dc.lft.to/lastmile_qr_scan", "android": "https://dc.lft.to/lastmile_qr_scan"}, "is_reserved": 0}, {"lon": -77.02691916666667, "bike_id": "23185d6c1dd021aad86986e565dbd135", "lat": 38.9094995, "fusion_lon": 0.0, "fusion_lat": 0.0, "type": "electric_scooter", "name": "23185d6c1dd021aad86986e565dbd135", "is_disabled": 0, "rental_uris": {"ios": "https://dc.lft.to/lastmile_qr_scan", "android": "https://dc.lft.to/lastmile_qr_scan"}, "is_reserved": 0}, {"lon": -77.0262495, "bike_id": "9f455e44a0ae1231894b42f1cd079c5a", "lat": 38.93862216666667, "fusion_lon": 0.0, "fusion_lat": 0.0, "type": "electric_scooter", "name": "9f455e44a0ae1231894b42f1cd079c5a", "is_disabled": 0, "rental_uris": {"ios": "https://dc.lft.to/lastmile_qr_scan", "android": "https://dc.lft.to/lastmile_qr_scan"}, "is_reserved": 0}, {"lon": -77.01461383333333, "bike_id": "f697ea72d46c104cb2703e174e38a107", "lat": 38.914779833333334, "fusion_lon": 0.0, "fusion_lat": 0.0, "type": "electric_scooter", "name": "f697ea72d46c104cb2703e174e38a107", "is_disabled": 0, "rental_uris": {"ios": "https://dc.lft.to/lastmile_qr_scan", "android": "https://dc.lft.to/lastmile_qr_scan"}, "is_reserved": 0}, {"lon": -77.03288516666667, "bike_id": "fa844c41099dc68184d1ccb139463427", "lat": 38.956487333333335, "fusion_lon": 0.0, "fusion_lat": 0.0, "type": "electric_scooter", "name": "fa844c41099dc68184d1ccb139463427", "is_disabled": 0, "rental_uris": {"ios": "https://dc.lft.to/lastmile_qr_scan", "android": "https://dc.lft.to/lastmile_qr_scan"}, "is_reserved": 0}, {"lon": -77.032718, "bike_id": "45211cbefdf744a3693ce7fce11e85b4", "lat": 38.92933383333333, "fusion_lon": 0.0, "fusion_lat": 0.0, "type": "electric_scooter", "name": "45211cbefdf744a3693ce7fce11e85b4", "is_disabled": 0, "rental_uris": {"ios": "https://dc.lft.to/lastmile_qr_scan", "android": "https://dc.lft.to/lastmile_qr_scan"}, "is_reserved": 0}, {"lon": -77.11782833333334, "bike_id": "fcf378aa3ddd1bd182a22c343d43ade1", "lat": 39.054914833333335, "fusion_lon": 0.0, "fusion_lat": 0.0, "type": "electric_bike", "name": "fcf378aa3ddd1bd182a22c343d43ade1", "is_disabled": 0, "rental_uris": {"ios": "https://dc.lft.to/lastmile_qr_scan", "android": "https://dc.lft.to/lastmile_qr_scan"}, "is_reserved": 0}, {"lon": -77.05607833333333, "bike_id": "1528ddf6fba4ec49bb430d8ac916d09e", "lat": 38.937045833333336, "fusion_lon": 0.0, "fusion_lat": 0.0, "type": "electric_bike", "name": "1528ddf6fba4ec49bb430d8ac916d09e", "is_disabled": 0, "rental_uris": {"ios": "https://dc.lft.to/lastmile_qr_scan", "android": "https://dc.lft.to/lastmile_qr_scan"}, "is_reserved": 0}, {"lon": -77.04648016666667, "bike_id": "68b7c3f6d6e549bf96c9411c07f68f5d", "lat": 38.9212325, "fusion_lon": 0.0, "fusion_lat": 0.0, "type": "electric_scooter", "name": "68b7c3f6d6e549bf96c9411c07f68f5d", "is_disabled": 0, "rental_uris": {"ios": "https://dc.lft.to/lastmile_qr_scan", "android": "https://dc.lft.to/lastmile_qr_scan"}, "is_reserved": 0}, {"lon": -77.04018983333333, "bike_id": "c1ebeda9380b8d0f95b437e8336dc547", "lat": 38.92437433333333, "fusion_lon": 0.0, "fusion_lat": 0.0, "type": "electric_scooter", "name": "c1ebeda9380b8d0f95b437e8336dc547", "is_disabled": 0, "rental_uris": {"ios": "https://dc.lft.to/lastmile_qr_scan", "android": "https://dc.lft.to/lastmile_qr_scan"}, "is_reserved": 0}, {"lon": -77.0271945, "bike_id": "cab0bbf0f7e1ee1861d387c1bea40bc0", "lat": 38.92770133333333, "fusion_lon": 0.0, "fusion_lat": 0.0, "type": "electric_scooter", "name": "cab0bbf0f7e1ee1861d387c1bea40bc0", "is_disabled": 0, "rental_uris": {"ios": "https://dc.lft.to/lastmile_qr_scan", "android": "https://dc.lft.to/lastmile_qr_scan"}, "is_reserved": 0}, {"lon": -77.0348935, "bike_id": "686413cd58293880aad77eed16f5c6a3", "lat": 38.91701666666667, "fusion_lon": 0.0, "fusion_lat": 0.0, "type": "electric_scooter", "name": "686413cd58293880aad77eed16f5c6a3", "is_disabled": 0, "rental_uris": {"ios": "https://dc.lft.to/lastmile_qr_scan", "android": "https://dc.lft.to/lastmile_qr_scan"}, "is_reserved": 0}, {"lon": -77.031934, "bike_id": "3cb7132d4d22c0cea09f7ea57297dd54", "lat": 38.91826666666667, "fusion_lon": 0.0, "fusion_lat": 0.0, "type": "electric_scooter", "name": "3cb7132d4d22c0cea09f7ea57297dd54", "is_disabled": 0, "rental_uris": {"ios": "https://dc.lft.to/lastmile_qr_scan", "android": "https://dc.lft.to/lastmile_qr_scan"}, "is_reserved": 0}, {"lon": -77.0610385, "bike_id": "419c58a586945dfc366ef799d2f6a59c", "lat": 38.937057, "fusion_lon": 0.0, "fusion_lat": 0.0, "type": "electric_scooter", "name": "419c58a586945dfc366ef799d2f6a59c", "is_disabled": 0, "rental_uris": {"ios": "https://dc.lft.to/lastmile_qr_scan", "android": "https://dc.lft.to/lastmile_qr_scan"}, "is_reserved": 0}, {"lon": -77.01978433333333, "bike_id": "65dd7c48c3fd7025d0f8f1c1645d52c5", "lat": 38.9292715, "fusion_lon": 0.0, "fusion_lat": 0.0, "type": "electric_scooter", "name": "65dd7c48c3fd7025d0f8f1c1645d52c5", "is_disabled": 0, "rental_uris": {"ios": "https://dc.lft.to/lastmile_qr_scan", "android": "https://dc.lft.to/lastmile_qr_scan"}, "is_reserved": 0}, {"lon": -77.00374783333334, "bike_id": "62a1c447fbc8a7446c4703f9a1a1de91", "lat": 38.897369, "fusion_lon": 0.0, "fusion_lat": 0.0, "type": "electric_scooter", "name": "62a1c447fbc8a7446c4703f9a1a1de91", "is_disabled": 0, "rental_uris": {"ios": "https://dc.lft.to/lastmile_qr_scan", "android": "https://dc.lft.to/lastmile_qr_scan"}, "is_reserved": 0}, {"lon": -76.94884966666666, "bike_id": "1d22d210c0e9501acf0a2604ba7cdf59", "lat": 38.89511566666667, "fusion_lon": 0.0, "fusion_lat": 0.0, "type": "electric_scooter", "name": "1d22d210c0e9501acf0a2604ba7cdf59", "is_disabled": 0, "rental_uris": {"ios": "https://dc.lft.to/lastmile_qr_scan", "android": "https://dc.lft.to/lastmile_qr_scan"}, "is_reserved": 0}, {"lon": -77.03460066666666, "bike_id": "585b4bdac18903380daf5fe976eeb5ee", "lat": 38.918199, "fusion_lon": 0.0, "fusion_lat": 0.0, "type": "electric_scooter", "name": "585b4bdac18903380daf5fe976eeb5ee", "is_disabled": 0, "rental_uris": {"ios": "https://dc.lft.to/lastmile_qr_scan", "android": "https://dc.lft.to/lastmile_qr_scan"}, "is_reserved": 0}, {"lon": -77.04996283333334, "bike_id": "67c981c2afcccd55d483b8ba6c7dd9b2", "lat": 38.8999105, "fusion_lon": 0.0, "fusion_lat": 0.0, "type": "electric_scooter", "name": "67c981c2afcccd55d483b8ba6c7dd9b2", "is_disabled": 0, "rental_uris": {"ios": "https://dc.lft.to/lastmile_qr_scan", "android": "https://dc.lft.to/lastmile_qr_scan"}, "is_reserved": 0}, {"lon": -77.023624, "bike_id": "0cc26d55af321a272fbc92997addb3b5", "lat": 38.892166, "fusion_lon": 0.0, "fusion_lat": 0.0, "type": "electric_scooter", "name": "0cc26d55af321a272fbc92997addb3b5", "is_disabled": 0, "rental_uris": {"ios": "https://dc.lft.to/lastmile_qr_scan", "android": "https://dc.lft.to/lastmile_qr_scan"}, "is_reserved": 0}, {"lon": -77.0341115, "bike_id": "ea5ad37bbb0d2184cad07293f9b02f54", "lat": 38.934222, "fusion_lon": 0.0, "fusion_lat": 0.0, "type": "electric_scooter", "name": "ea5ad37bbb0d2184cad07293f9b02f54", "is_disabled": 0, "rental_uris": {"ios": "https://dc.lft.to/lastmile_qr_scan", "android": "https://dc.lft.to/lastmile_qr_scan"}, "is_reserved": 0}, {"lon": -77.03185683333334, "bike_id": "52377ca725ab0ddd31f753aa08a89b24", "lat": 38.936136, "fusion_lon": 0.0, "fusion_lat": 0.0, "type": "electric_scooter", "name": "52377ca725ab0ddd31f753aa08a89b24", "is_disabled": 0, "rental_uris": {"ios": "https://dc.lft.to/lastmile_qr_scan", "android": "https://dc.lft.to/lastmile_qr_scan"}, "is_reserved": 0}, {"lon": -77.04228933333333, "bike_id": "cd192eb95b365826269565f8a9674740", "lat": 38.91640616666667, "fusion_lon": 0.0, "fusion_lat": 0.0, "type": "electric_scooter", "name": "cd192eb95b365826269565f8a9674740", "is_disabled": 0, "rental_uris": {"ios": "https://dc.lft.to/lastmile_qr_scan", "android": "https://dc.lft.to/lastmile_qr_scan"}, "is_reserved": 0}, {"lon": -77.031881, "bike_id": "3a48aecfd7c6ea650ce8787c4bc2c3e6", "lat": 38.91198633333333, "fusion_lon": 0.0, "fusion_lat": 0.0, "type": "electric_scooter", "name": "3a48aecfd7c6ea650ce8787c4bc2c3e6", "is_disabled": 0, "rental_uris": {"ios": "https://dc.lft.to/lastmile_qr_scan", "android": "https://dc.lft.to/lastmile_qr_scan"}, "is_reserved": 0}, {"lon": -77.03419633333333, "bike_id": "acd8971ba22f4f4ecfc9db86505f732f", "lat": 38.91803783333334, "fusion_lon": 0.0, "fusion_lat": 0.0, "type": "electric_scooter", "name": "acd8971ba22f4f4ecfc9db86505f732f", "is_disabled": 0, "rental_uris": {"ios": "https://dc.lft.to/lastmile_qr_scan", "android": "https://dc.lft.to/lastmile_qr_scan"}, "is_reserved": 0}, {"lon": -77.05610483333334, "bike_id": "082b20f586464fd83a7f268067c3e050", "lat": 38.93162016666667, "fusion_lon": 0.0, "fusion_lat": 0.0, "type": "electric_scooter", "name": "082b20f586464fd83a7f268067c3e050", "is_disabled": 0, "rental_uris": {"ios": "https://dc.lft.to/lastmile_qr_scan", "android": "https://dc.lft.to/lastmile_qr_scan"}, "is_reserved": 0}, {"lon": -77.00329366666666, "bike_id": "572bb4af82d932244d6cbd55f12a44d7", "lat": 38.8918575, "fusion_lon": 0.0, "fusion_lat": 0.0, "type": "electric_scooter", "name": "572bb4af82d932244d6cbd55f12a44d7", "is_disabled": 0, "rental_uris": {"ios": "https://dc.lft.to/lastmile_qr_scan", "android": "https://dc.lft.to/lastmile_qr_scan"}, "is_reserved": 0}, {"lon": -77.00570483333334, "bike_id": "bc761af5fe602ba3c0faf6da550912bd", "lat": 38.90556083333333, "fusion_lon": 0.0, "fusion_lat": 0.0, "type": "electric_scooter", "name": "bc761af5fe602ba3c0faf6da550912bd", "is_disabled": 0, "rental_uris": {"ios": "https://dc.lft.to/lastmile_qr_scan", "android": "https://dc.lft.to/lastmile_qr_scan"}, "is_reserved": 0}, {"lon": -76.98376283333333, "bike_id": "a2d12762072320e18f1006738f1ae26d", "lat": 38.89143766666667, "fusion_lon": 0.0, "fusion_lat": 0.0, "type": "electric_scooter", "name": "a2d12762072320e18f1006738f1ae26d", "is_disabled": 0, "rental_uris": {"ios": "https://dc.lft.to/lastmile_qr_scan", "android": "https://dc.lft.to/lastmile_qr_scan"}, "is_reserved": 0}, {"lon": -76.9883865, "bike_id": "8dfc2f911cfbe00ac16e5ed2ac3b8f7f", "lat": 38.900734666666665, "fusion_lon": 0.0, "fusion_lat": 0.0, "type": "electric_scooter", "name": "8dfc2f911cfbe00ac16e5ed2ac3b8f7f", "is_disabled": 0, "rental_uris": {"ios": "https://dc.lft.to/lastmile_qr_scan", "android": "https://dc.lft.to/lastmile_qr_scan"}, "is_reserved": 0}, {"lon": -76.994808, "bike_id": "373048a03d4420d4d34edf13824d33ff", "lat": 38.86217366666666, "fusion_lon": 0.0, "fusion_lat": 0.0, "type": "electric_scooter", "name": "373048a03d4420d4d34edf13824d33ff", "is_disabled": 0, "rental_uris": {"ios": "https://dc.lft.to/lastmile_qr_scan", "android": "https://dc.lft.to/lastmile_qr_scan"}, "is_reserved": 0}, {"lon": -77.06125683333333, "bike_id": "fc120c8dbe40459eee0dc1330d7046d0", "lat": 38.94354366666666, "fusion_lon": 0.0, "fusion_lat": 0.0, "type": "electric_scooter", "name": "fc120c8dbe40459eee0dc1330d7046d0", "is_disabled": 0, "rental_uris": {"ios": "https://dc.lft.to/lastmile_qr_scan", "android": "https://dc.lft.to/lastmile_qr_scan"}, "is_reserved": 0}, {"lon": -77.02385366666667, "bike_id": "f34c691d1f9c62f44ee0c63f319efc3e", "lat": 38.9200945, "fusion_lon": 0.0, "fusion_lat": 0.0, "type": "electric_scooter", "name": "f34c691d1f9c62f44ee0c63f319efc3e", "is_disabled": 0, "rental_uris": {"ios": "https://dc.lft.to/lastmile_qr_scan", "android": "https://dc.lft.to/lastmile_qr_scan"}, "is_reserved": 0}, {"lon": -77.021453, "bike_id": "f36f85c05593b44418b6a09c1c7a1bf7", "lat": 38.8971185, "fusion_lon": 0.0, "fusion_lat": 0.0, "type": "electric_scooter", "name": "f36f85c05593b44418b6a09c1c7a1bf7", "is_disabled": 0, "rental_uris": {"ios": "https://dc.lft.to/lastmile_qr_scan", "android": "https://dc.lft.to/lastmile_qr_scan"}, "is_reserved": 0}, {"lon": -77.028154, "bike_id": "d6230d3d1603760aaa7dcae94e7b3a14", "lat": 38.89531266666667, "fusion_lon": 0.0, "fusion_lat": 0.0, "type": "electric_scooter", "name": "d6230d3d1603760aaa7dcae94e7b3a14", "is_disabled": 0, "rental_uris": {"ios": "https://dc.lft.to/lastmile_qr_scan", "android": "https://dc.lft.to/lastmile_qr_scan"}, "is_reserved": 0}, {"lon": -77.02231366666666, "bike_id": "5c4bf6b3ac547ee2322260b4fd82df22", "lat": 38.962036166666664, "fusion_lon": 0.0, "fusion_lat": 0.0, "type": "electric_scooter", "name": "5c4bf6b3ac547ee2322260b4fd82df22", "is_disabled": 0, "rental_uris": {"ios": "https://dc.lft.to/lastmile_qr_scan", "android": "https://dc.lft.to/lastmile_qr_scan"}, "is_reserved": 0}, {"lon": -77.02952333333333, "bike_id": "bebca023c17d3bf10e19e242b1905cbe", "lat": 38.9064995, "fusion_lon": 0.0, "fusion_lat": 0.0, "type": "electric_scooter", "name": "bebca023c17d3bf10e19e242b1905cbe", "is_disabled": 0, "rental_uris": {"ios": "https://dc.lft.to/lastmile_qr_scan", "android": "https://dc.lft.to/lastmile_qr_scan"}, "is_reserved": 0}, {"lon": -76.99226033333333, "bike_id": "456de52fb9a8a8cbe92ac7e77b7a7b47", "lat": 38.922137166666666, "fusion_lon": 0.0, "fusion_lat": 0.0, "type": "electric_scooter", "name": "456de52fb9a8a8cbe92ac7e77b7a7b47", "is_disabled": 0, "rental_uris": {"ios": "https://dc.lft.to/lastmile_qr_scan", "android": "https://dc.lft.to/lastmile_qr_scan"}, "is_reserved": 0}, {"lon": -77.0385555, "bike_id": "db8acdeb696b22e75f68fd76b8bee411", "lat": 38.90367116666667, "fusion_lon": 0.0, "fusion_lat": 0.0, "type": "electric_scooter", "name": "db8acdeb696b22e75f68fd76b8bee411", "is_disabled": 0, "rental_uris": {"ios": "https://dc.lft.to/lastmile_qr_scan", "android": "https://dc.lft.to/lastmile_qr_scan"}, "is_reserved": 0}, {"lon": -77.0487435, "bike_id": "0be9048cb407209c6f85110da71b5315", "lat": 38.89229066666667, "fusion_lon": 0.0, "fusion_lat": 0.0, "type": "electric_scooter", "name": "0be9048cb407209c6f85110da71b5315", "is_disabled": 0, "rental_uris": {"ios": "https://dc.lft.to/lastmile_qr_scan", "android": "https://dc.lft.to/lastmile_qr_scan"}, "is_reserved": 0}, {"lon": -77.04474316666666, "bike_id": "c78b6d7b1697130b25ab44974fa270aa", "lat": 38.9043305, "fusion_lon": 0.0, "fusion_lat": 0.0, "type": "electric_scooter", "name": "c78b6d7b1697130b25ab44974fa270aa", "is_disabled": 0, "rental_uris": {"ios": "https://dc.lft.to/lastmile_qr_scan", "android": "https://dc.lft.to/lastmile_qr_scan"}, "is_reserved": 0}, {"lon": -76.99496333333333, "bike_id": "bad5275b3a292793a10df9b6406e103e", "lat": 38.862439, "fusion_lon": 0.0, "fusion_lat": 0.0, "type": "electric_scooter", "name": "bad5275b3a292793a10df9b6406e103e", "is_disabled": 0, "rental_uris": {"ios": "https://dc.lft.to/lastmile_qr_scan", "android": "https://dc.lft.to/lastmile_qr_scan"}, "is_reserved": 0}, {"lon": -77.0344695, "bike_id": "13cc9cd0e7358f8490fbf85d2142f97e", "lat": 38.91004, "fusion_lon": 0.0, "fusion_lat": 0.0, "type": "electric_scooter", "name": "13cc9cd0e7358f8490fbf85d2142f97e", "is_disabled": 0, "rental_uris": {"ios": "https://dc.lft.to/lastmile_qr_scan", "android": "https://dc.lft.to/lastmile_qr_scan"}, "is_reserved": 0}, {"lon": -77.002018, "bike_id": "6b1a26a62226113c7211da7b29a92af7", "lat": 38.9002745, "fusion_lon": 0.0, "fusion_lat": 0.0, "type": "electric_scooter", "name": "6b1a26a62226113c7211da7b29a92af7", "is_disabled": 0, "rental_uris": {"ios": "https://dc.lft.to/lastmile_qr_scan", "android": "https://dc.lft.to/lastmile_qr_scan"}, "is_reserved": 0}, {"lon": -76.92768833333334, "bike_id": "2b8878ed0185e8ebf385b848afab4c06", "lat": 38.900832666666666, "fusion_lon": 0.0, "fusion_lat": 0.0, "type": "electric_scooter", "name": "2b8878ed0185e8ebf385b848afab4c06", "is_disabled": 0, "rental_uris": {"ios": "https://dc.lft.to/lastmile_qr_scan", "android": "https://dc.lft.to/lastmile_qr_scan"}, "is_reserved": 0}, {"lon": -77.0113645, "bike_id": "b5e6f434b3cdc5edbdecca3e18da1227", "lat": 38.907294666666665, "fusion_lon": 0.0, "fusion_lat": 0.0, "type": "electric_scooter", "name": "b5e6f434b3cdc5edbdecca3e18da1227", "is_disabled": 0, "rental_uris": {"ios": "https://dc.lft.to/lastmile_qr_scan", "android": "https://dc.lft.to/lastmile_qr_scan"}, "is_reserved": 0}, {"lon": -76.9605865, "bike_id": "ae1237da1080b704e74c29b73490ec7e", "lat": 38.88407466666666, "fusion_lon": 0.0, "fusion_lat": 0.0, "type": "electric_bike", "name": "ae1237da1080b704e74c29b73490ec7e", "is_disabled": 0, "rental_uris": {"ios": "https://dc.lft.to/lastmile_qr_scan", "android": "https://dc.lft.to/lastmile_qr_scan"}, "is_reserved": 0}, {"lon": -77.04377616666666, "bike_id": "d19dd79c7865d072046672f9ecf6da63", "lat": 38.886479666666666, "fusion_lon": 0.0, "fusion_lat": 0.0, "type": "electric_scooter", "name": "d19dd79c7865d072046672f9ecf6da63", "is_disabled": 0, "rental_uris": {"ios": "https://dc.lft.to/lastmile_qr_scan", "android": "https://dc.lft.to/lastmile_qr_scan"}, "is_reserved": 0}, {"lon": -77.05196133333334, "bike_id": "62a689a4934893d4188cd55aaf7a2c20", "lat": 38.924528333333335, "fusion_lon": 0.0, "fusion_lat": 0.0, "type": "electric_scooter", "name": "62a689a4934893d4188cd55aaf7a2c20", "is_disabled": 0, "rental_uris": {"ios": "https://dc.lft.to/lastmile_qr_scan", "android": "https://dc.lft.to/lastmile_qr_scan"}, "is_reserved": 0}, {"lon": -76.98883966666666, "bike_id": "fa337b411870470dfe770770756ee68e", "lat": 38.866472333333334, "fusion_lon": 0.0, "fusion_lat": 0.0, "type": "electric_scooter", "name": "fa337b411870470dfe770770756ee68e", "is_disabled": 0, "rental_uris": {"ios": "https://dc.lft.to/lastmile_qr_scan", "android": "https://dc.lft.to/lastmile_qr_scan"}, "is_reserved": 0}, {"lon": -76.98715716666666, "bike_id": "02842760aae3357dd8f69fd67a5f0400", "lat": 38.8662415, "fusion_lon": 0.0, "fusion_lat": 0.0, "type": "electric_scooter", "name": "02842760aae3357dd8f69fd67a5f0400", "is_disabled": 0, "rental_uris": {"ios": "https://dc.lft.to/lastmile_qr_scan", "android": "https://dc.lft.to/lastmile_qr_scan"}, "is_reserved": 0}, {"lon": -77.0420505, "bike_id": "53eb647f9ede1526e085213135798655", "lat": 38.907391, "fusion_lon": 0.0, "fusion_lat": 0.0, "type": "electric_scooter", "name": "53eb647f9ede1526e085213135798655", "is_disabled": 0, "rental_uris": {"ios": "https://dc.lft.to/lastmile_qr_scan", "android": "https://dc.lft.to/lastmile_qr_scan"}, "is_reserved": 0}, {"lon": -77.034258, "bike_id": "22cf4aedfc5dfa4a1cfad978d822f469", "lat": 38.922440333333334, "fusion_lon": 0.0, "fusion_lat": 0.0, "type": "electric_scooter", "name": "22cf4aedfc5dfa4a1cfad978d822f469", "is_disabled": 0, "rental_uris": {"ios": "https://dc.lft.to/lastmile_qr_scan", "android": "https://dc.lft.to/lastmile_qr_scan"}, "is_reserved": 0}, {"lon": -76.9739005, "bike_id": "1224ce44175d946cf51057cbb99b3e0e", "lat": 38.905583666666665, "fusion_lon": 0.0, "fusion_lat": 0.0, "type": "electric_scooter", "name": "1224ce44175d946cf51057cbb99b3e0e", "is_disabled": 0, "rental_uris": {"ios": "https://dc.lft.to/lastmile_qr_scan", "android": "https://dc.lft.to/lastmile_qr_scan"}, "is_reserved": 0}, {"lon": -77.0327305, "bike_id": "30d89131a048ea984683a63d97a83ce8", "lat": 38.934013, "fusion_lon": 0.0, "fusion_lat": 0.0, "type": "electric_scooter", "name": "30d89131a048ea984683a63d97a83ce8", "is_disabled": 0, "rental_uris": {"ios": "https://dc.lft.to/lastmile_qr_scan", "android": "https://dc.lft.to/lastmile_qr_scan"}, "is_reserved": 0}, {"lon": -77.0390965, "bike_id": "c563086af8eb6fb39de42e6b49a2afa1", "lat": 38.923597, "fusion_lon": 0.0, "fusion_lat": 0.0, "type": "electric_scooter", "name": "c563086af8eb6fb39de42e6b49a2afa1", "is_disabled": 0, "rental_uris": {"ios": "https://dc.lft.to/lastmile_qr_scan", "android": "https://dc.lft.to/lastmile_qr_scan"}, "is_reserved": 0}, {"lon": -77.0349815, "bike_id": "9446d94bfebc46b4c2a0cb4f3c20d583", "lat": 38.93750283333333, "fusion_lon": 0.0, "fusion_lat": 0.0, "type": "electric_scooter", "name": "9446d94bfebc46b4c2a0cb4f3c20d583", "is_disabled": 0, "rental_uris": {"ios": "https://dc.lft.to/lastmile_qr_scan", "android": "https://dc.lft.to/lastmile_qr_scan"}, "is_reserved": 0}, {"lon": -77.02681533333333, "bike_id": "046bd6b68a0f4abb79db597239f0ead8", "lat": 38.896954, "fusion_lon": 0.0, "fusion_lat": 0.0, "type": "electric_scooter", "name": "046bd6b68a0f4abb79db597239f0ead8", "is_disabled": 0, "rental_uris": {"ios": "https://dc.lft.to/lastmile_qr_scan", "android": "https://dc.lft.to/lastmile_qr_scan"}, "is_reserved": 0}, {"lon": -77.03849133333334, "bike_id": "9e6b4b8161b89d4cf7f88ee329d8596b", "lat": 38.916649166666666, "fusion_lon": 0.0, "fusion_lat": 0.0, "type": "electric_scooter", "name": "9e6b4b8161b89d4cf7f88ee329d8596b", "is_disabled": 0, "rental_uris": {"ios": "https://dc.lft.to/lastmile_qr_scan", "android": "https://dc.lft.to/lastmile_qr_scan"}, "is_reserved": 0}, {"lon": -76.94635666666667, "bike_id": "34eefe3ffac3d506a5795298ff6675e2", "lat": 38.8983035, "fusion_lon": 0.0, "fusion_lat": 0.0, "type": "electric_scooter", "name": "34eefe3ffac3d506a5795298ff6675e2", "is_disabled": 0, "rental_uris": {"ios": "https://dc.lft.to/lastmile_qr_scan", "android": "https://dc.lft.to/lastmile_qr_scan"}, "is_reserved": 0}, {"lon": -76.98071116666667, "bike_id": "ff89b7e2059fe7f6a0a457489035ff3d", "lat": 38.901764, "fusion_lon": 0.0, "fusion_lat": 0.0, "type": "electric_scooter", "name": "ff89b7e2059fe7f6a0a457489035ff3d", "is_disabled": 0, "rental_uris": {"ios": "https://dc.lft.to/lastmile_qr_scan", "android": "https://dc.lft.to/lastmile_qr_scan"}, "is_reserved": 0}, {"lon": -77.0634435, "bike_id": "84473b7eacf1299b9f791afbabdb7f9a", "lat": 38.906795333333335, "fusion_lon": 0.0, "fusion_lat": 0.0, "type": "electric_scooter", "name": "84473b7eacf1299b9f791afbabdb7f9a", "is_disabled": 0, "rental_uris": {"ios": "https://dc.lft.to/lastmile_qr_scan", "android": "https://dc.lft.to/lastmile_qr_scan"}, "is_reserved": 0}, {"lon": -77.02960616666667, "bike_id": "fb2c8e3f1776f56c3db4558af279224e", "lat": 38.929298, "fusion_lon": 0.0, "fusion_lat": 0.0, "type": "electric_scooter", "name": "fb2c8e3f1776f56c3db4558af279224e", "is_disabled": 0, "rental_uris": {"ios": "https://dc.lft.to/lastmile_qr_scan", "android": "https://dc.lft.to/lastmile_qr_scan"}, "is_reserved": 0}, {"lon": -77.05538, "bike_id": "5f363b69c9ef505e43dd38a4f52df2ca", "lat": 38.9342855, "fusion_lon": 0.0, "fusion_lat": 0.0, "type": "electric_scooter", "name": "5f363b69c9ef505e43dd38a4f52df2ca", "is_disabled": 0, "rental_uris": {"ios": "https://dc.lft.to/lastmile_qr_scan", "android": "https://dc.lft.to/lastmile_qr_scan"}, "is_reserved": 0}, {"lon": -77.0036175, "bike_id": "f6789b209542afc75e956d2eec5d7d2b", "lat": 38.89916316666667, "fusion_lon": 0.0, "fusion_lat": 0.0, "type": "electric_scooter", "name": "f6789b209542afc75e956d2eec5d7d2b", "is_disabled": 0, "rental_uris": {"ios": "https://dc.lft.to/lastmile_qr_scan", "android": "https://dc.lft.to/lastmile_qr_scan"}, "is_reserved": 0}, {"lon": -77.08459816666667, "bike_id": "fbb872e904412a69d05f66715f1bcc7c", "lat": 38.84818933333333, "fusion_lon": 0.0, "fusion_lat": 0.0, "type": "electric_bike", "name": "fbb872e904412a69d05f66715f1bcc7c", "is_disabled": 0, "rental_uris": {"ios": "https://dc.lft.to/lastmile_qr_scan", "android": "https://dc.lft.to/lastmile_qr_scan"}, "is_reserved": 0}, {"lon": -77.029769, "bike_id": "8a9288dece21a9db751021db567b60bc", "lat": 38.916289, "fusion_lon": 0.0, "fusion_lat": 0.0, "type": "electric_scooter", "name": "8a9288dece21a9db751021db567b60bc", "is_disabled": 0, "rental_uris": {"ios": "https://dc.lft.to/lastmile_qr_scan", "android": "https://dc.lft.to/lastmile_qr_scan"}, "is_reserved": 0}, {"lon": -77.0268805, "bike_id": "834567196359d290a00f2d9df1364c68", "lat": 38.899817166666665, "fusion_lon": 0.0, "fusion_lat": 0.0, "type": "electric_scooter", "name": "834567196359d290a00f2d9df1364c68", "is_disabled": 0, "rental_uris": {"ios": "https://dc.lft.to/lastmile_qr_scan", "android": "https://dc.lft.to/lastmile_qr_scan"}, "is_reserved": 0}, {"lon": -76.99931483333333, "bike_id": "b9f8bfeb8065baf5613a7c6904b95027", "lat": 38.84315466666666, "fusion_lon": 0.0, "fusion_lat": 0.0, "type": "electric_scooter", "name": "b9f8bfeb8065baf5613a7c6904b95027", "is_disabled": 0, "rental_uris": {"ios": "https://dc.lft.to/lastmile_qr_scan", "android": "https://dc.lft.to/lastmile_qr_scan"}, "is_reserved": 0}, {"lon": -76.99051233333333, "bike_id": "47d1edb8aa25e3a593089f390676a074", "lat": 38.863786833333336, "fusion_lon": 0.0, "fusion_lat": 0.0, "type": "electric_scooter", "name": "47d1edb8aa25e3a593089f390676a074", "is_disabled": 0, "rental_uris": {"ios": "https://dc.lft.to/lastmile_qr_scan", "android": "https://dc.lft.to/lastmile_qr_scan"}, "is_reserved": 0}, {"lon": -76.99068366666667, "bike_id": "c0fdf5bc02c15ebfb94d1b189f5d08c5", "lat": 38.92745733333334, "fusion_lon": 0.0, "fusion_lat": 0.0, "type": "electric_scooter", "name": "c0fdf5bc02c15ebfb94d1b189f5d08c5", "is_disabled": 0, "rental_uris": {"ios": "https://dc.lft.to/lastmile_qr_scan", "android": "https://dc.lft.to/lastmile_qr_scan"}, "is_reserved": 0}, {"lon": -77.012574, "bike_id": "f5891da967b570dae004f40004da413e", "lat": 38.914864666666666, "fusion_lon": 0.0, "fusion_lat": 0.0, "type": "electric_scooter", "name": "f5891da967b570dae004f40004da413e", "is_disabled": 0, "rental_uris": {"ios": "https://dc.lft.to/lastmile_qr_scan", "android": "https://dc.lft.to/lastmile_qr_scan"}, "is_reserved": 0}, {"lon": -77.03213333333333, "bike_id": "1975f54f50376e3ad84febc7204eb94d", "lat": 38.91307, "fusion_lon": 0.0, "fusion_lat": 0.0, "type": "electric_scooter", "name": "1975f54f50376e3ad84febc7204eb94d", "is_disabled": 0, "rental_uris": {"ios": "https://dc.lft.to/lastmile_qr_scan", "android": "https://dc.lft.to/lastmile_qr_scan"}, "is_reserved": 0}, {"lon": -77.03270383333333, "bike_id": "b358585c3c2d78d9c40a83d146560698", "lat": 38.932039333333336, "fusion_lon": 0.0, "fusion_lat": 0.0, "type": "electric_scooter", "name": "b358585c3c2d78d9c40a83d146560698", "is_disabled": 0, "rental_uris": {"ios": "https://dc.lft.to/lastmile_qr_scan", "android": "https://dc.lft.to/lastmile_qr_scan"}, "is_reserved": 0}, {"lon": -77.03651766666667, "bike_id": "afe56b7b6696f034296a44f07ff978b1", "lat": 38.90287416666666, "fusion_lon": 0.0, "fusion_lat": 0.0, "type": "electric_scooter", "name": "afe56b7b6696f034296a44f07ff978b1", "is_disabled": 0, "rental_uris": {"ios": "https://dc.lft.to/lastmile_qr_scan", "android": "https://dc.lft.to/lastmile_qr_scan"}, "is_reserved": 0}, {"lon": -77.02660833333333, "bike_id": "14a8e6c767597a71ddf8b6a82eb2e08c", "lat": 38.925765, "fusion_lon": 0.0, "fusion_lat": 0.0, "type": "electric_scooter", "name": "14a8e6c767597a71ddf8b6a82eb2e08c", "is_disabled": 0, "rental_uris": {"ios": "https://dc.lft.to/lastmile_qr_scan", "android": "https://dc.lft.to/lastmile_qr_scan"}, "is_reserved": 0}, {"lon": -77.11592833333333, "bike_id": "d540ca80e888dec5c5a4fbeb2b5aea57", "lat": 39.07495266666667, "fusion_lon": 0.0, "fusion_lat": 0.0, "type": "electric_bike", "name": "d540ca80e888dec5c5a4fbeb2b5aea57", "is_disabled": 0, "rental_uris": {"ios": "https://dc.lft.to/lastmile_qr_scan", "android": "https://dc.lft.to/lastmile_qr_scan"}, "is_reserved": 0}, {"lon": -76.9690925, "bike_id": "82d56060d7251d9de38d0656c1971093", "lat": 38.8461145, "fusion_lon": 0.0, "fusion_lat": 0.0, "type": "electric_bike", "name": "82d56060d7251d9de38d0656c1971093", "is_disabled": 0, "rental_uris": {"ios": "https://dc.lft.to/lastmile_qr_scan", "android": "https://dc.lft.to/lastmile_qr_scan"}, "is_reserved": 0}, {"lon": -77.03864783333333, "bike_id": "75990612b4a1633e04c583d3c7560b9c", "lat": 38.903678666666664, "fusion_lon": 0.0, "fusion_lat": 0.0, "type": "electric_scooter", "name": "75990612b4a1633e04c583d3c7560b9c", "is_disabled": 0, "rental_uris": {"ios": "https://dc.lft.to/lastmile_qr_scan", "android": "https://dc.lft.to/lastmile_qr_scan"}, "is_reserved": 0}, {"lon": -77.002064, "bike_id": "9bb855d9986dd7e65c8eb02aa2ff574c", "lat": 38.900293166666664, "fusion_lon": 0.0, "fusion_lat": 0.0, "type": "electric_scooter", "name": "9bb855d9986dd7e65c8eb02aa2ff574c", "is_disabled": 0, "rental_uris": {"ios": "https://dc.lft.to/lastmile_qr_scan", "android": "https://dc.lft.to/lastmile_qr_scan"}, "is_reserved": 0}, {"lon": -77.001362, "bike_id": "48fbc4620fa3c3321e4715b2682d3fd9", "lat": 38.894719333333335, "fusion_lon": 0.0, "fusion_lat": 0.0, "type": "electric_scooter", "name": "48fbc4620fa3c3321e4715b2682d3fd9", "is_disabled": 0, "rental_uris": {"ios": "https://dc.lft.to/lastmile_qr_scan", "android": "https://dc.lft.to/lastmile_qr_scan"}, "is_reserved": 0}, {"lon": -76.992643, "bike_id": "7e997e16628db658fc9b5c992e08971c", "lat": 38.897617333333336, "fusion_lon": 0.0, "fusion_lat": 0.0, "type": "electric_scooter", "name": "7e997e16628db658fc9b5c992e08971c", "is_disabled": 0, "rental_uris": {"ios": "https://dc.lft.to/lastmile_qr_scan", "android": "https://dc.lft.to/lastmile_qr_scan"}, "is_reserved": 0}, {"lon": -76.98332833333333, "bike_id": "6d97259d4156d2c77c6e77ab99ebdf0c", "lat": 38.900892, "fusion_lon": 0.0, "fusion_lat": 0.0, "type": "electric_scooter", "name": "6d97259d4156d2c77c6e77ab99ebdf0c", "is_disabled": 0, "rental_uris": {"ios": "https://dc.lft.to/lastmile_qr_scan", "android": "https://dc.lft.to/lastmile_qr_scan"}, "is_reserved": 0}, {"lon": -76.9489435, "bike_id": "900182707fcecde9ef1ceb3ac7673155", "lat": 38.89533616666667, "fusion_lon": 0.0, "fusion_lat": 0.0, "type": "electric_scooter", "name": "900182707fcecde9ef1ceb3ac7673155", "is_disabled": 0, "rental_uris": {"ios": "https://dc.lft.to/lastmile_qr_scan", "android": "https://dc.lft.to/lastmile_qr_scan"}, "is_reserved": 0}, {"lon": -77.031872, "bike_id": "4698158d773854075c0a975d56e5f66a", "lat": 38.91898116666667, "fusion_lon": 0.0, "fusion_lat": 0.0, "type": "electric_scooter", "name": "4698158d773854075c0a975d56e5f66a", "is_disabled": 0, "rental_uris": {"ios": "https://dc.lft.to/lastmile_qr_scan", "android": "https://dc.lft.to/lastmile_qr_scan"}, "is_reserved": 0}, {"lon": -77.0386815, "bike_id": "a2482360928d1c3571099ab3bdf8292d", "lat": 38.91547583333333, "fusion_lon": 0.0, "fusion_lat": 0.0, "type": "electric_scooter", "name": "a2482360928d1c3571099ab3bdf8292d", "is_disabled": 0, "rental_uris": {"ios": "https://dc.lft.to/lastmile_qr_scan", "android": "https://dc.lft.to/lastmile_qr_scan"}, "is_reserved": 0}, {"lon": -77.00285766666667, "bike_id": "0e67be6bdf17a8be7020938eddc22bbf", "lat": 38.9521735, "fusion_lon": 0.0, "fusion_lat": 0.0, "type": "electric_bike", "name": "0e67be6bdf17a8be7020938eddc22bbf", "is_disabled": 0, "rental_uris": {"ios": "https://dc.lft.to/lastmile_qr_scan", "android": "https://dc.lft.to/lastmile_qr_scan"}, "is_reserved": 0}, {"lon": -77.01834083333334, "bike_id": "f279de530cbda05bb2fb47e448719ee3", "lat": 38.9014685, "fusion_lon": 0.0, "fusion_lat": 0.0, "type": "electric_scooter", "name": "f279de530cbda05bb2fb47e448719ee3", "is_disabled": 0, "rental_uris": {"ios": "https://dc.lft.to/lastmile_qr_scan", "android": "https://dc.lft.to/lastmile_qr_scan"}, "is_reserved": 0}, {"lon": -77.08818583333333, "bike_id": "ecbcd52c801d8ac5ae0e21b7bfca69a3", "lat": 38.90975366666667, "fusion_lon": 0.0, "fusion_lat": 0.0, "type": "electric_scooter", "name": "ecbcd52c801d8ac5ae0e21b7bfca69a3", "is_disabled": 0, "rental_uris": {"ios": "https://dc.lft.to/lastmile_qr_scan", "android": "https://dc.lft.to/lastmile_qr_scan"}, "is_reserved": 0}, {"lon": -77.02692616666667, "bike_id": "b4a9b1e21ba1236d90758aa45065f82e", "lat": 38.90947216666667, "fusion_lon": 0.0, "fusion_lat": 0.0, "type": "electric_scooter", "name": "b4a9b1e21ba1236d90758aa45065f82e", "is_disabled": 0, "rental_uris": {"ios": "https://dc.lft.to/lastmile_qr_scan", "android": "https://dc.lft.to/lastmile_qr_scan"}, "is_reserved": 0}, {"lon": -76.98264933333333, "bike_id": "31a81a03993f06eae3451ded6a019c8a", "lat": 38.908593333333336, "fusion_lon": 0.0, "fusion_lat": 0.0, "type": "electric_scooter", "name": "31a81a03993f06eae3451ded6a019c8a", "is_disabled": 0, "rental_uris": {"ios": "https://dc.lft.to/lastmile_qr_scan", "android": "https://dc.lft.to/lastmile_qr_scan"}, "is_reserved": 0}, {"lon": -77.03852033333334, "bike_id": "d6868e2f35b54df829cc87f5b17178bc", "lat": 38.91682566666667, "fusion_lon": 0.0, "fusion_lat": 0.0, "type": "electric_scooter", "name": "d6868e2f35b54df829cc87f5b17178bc", "is_disabled": 0, "rental_uris": {"ios": "https://dc.lft.to/lastmile_qr_scan", "android": "https://dc.lft.to/lastmile_qr_scan"}, "is_reserved": 0}, {"lon": -77.04502333333333, "bike_id": "3dae8d3ec90f79f118a6adefbbee66df", "lat": 38.91010833333333, "fusion_lon": 0.0, "fusion_lat": 0.0, "type": "electric_bike", "name": "3dae8d3ec90f79f118a6adefbbee66df", "is_disabled": 0, "rental_uris": {"ios": "https://dc.lft.to/lastmile_qr_scan", "android": "https://dc.lft.to/lastmile_qr_scan"}, "is_reserved": 0}, {"lon": -76.97998866666667, "bike_id": "a5c39ea84d1a8b6cf384491f0a66248a", "lat": 38.906766, "fusion_lon": 0.0, "fusion_lat": 0.0, "type": "electric_scooter", "name": "a5c39ea84d1a8b6cf384491f0a66248a", "is_disabled": 0, "rental_uris": {"ios": "https://dc.lft.to/lastmile_qr_scan", "android": "https://dc.lft.to/lastmile_qr_scan"}, "is_reserved": 0}, {"lon": -76.987175, "bike_id": "e360ef785bbd5b20f0b7cfb9dabedbd7", "lat": 38.866265, "fusion_lon": 0.0, "fusion_lat": 0.0, "type": "electric_scooter", "name": "e360ef785bbd5b20f0b7cfb9dabedbd7", "is_disabled": 0, "rental_uris": {"ios": "https://dc.lft.to/lastmile_qr_scan", "android": "https://dc.lft.to/lastmile_qr_scan"}, "is_reserved": 0}, {"lon": -77.0196205, "bike_id": "19ba720043092ee10b1b0ee6027eae59", "lat": 38.921988, "fusion_lon": 0.0, "fusion_lat": 0.0, "type": "electric_scooter", "name": "19ba720043092ee10b1b0ee6027eae59", "is_disabled": 0, "rental_uris": {"ios": "https://dc.lft.to/lastmile_qr_scan", "android": "https://dc.lft.to/lastmile_qr_scan"}, "is_reserved": 0}, {"lon": -77.02723133333333, "bike_id": "20ddcdde8910f29f853892ec9f0dab17", "lat": 38.913366833333335, "fusion_lon": 0.0, "fusion_lat": 0.0, "type": "electric_scooter", "name": "20ddcdde8910f29f853892ec9f0dab17", "is_disabled": 0, "rental_uris": {"ios": "https://dc.lft.to/lastmile_qr_scan", "android": "https://dc.lft.to/lastmile_qr_scan"}, "is_reserved": 0}, {"lon": -76.9518075, "bike_id": "c4912eec4862ed6f7954aea2098d681b", "lat": 38.907365, "fusion_lon": 0.0, "fusion_lat": 0.0, "type": "electric_scooter", "name": "c4912eec4862ed6f7954aea2098d681b", "is_disabled": 0, "rental_uris": {"ios": "https://dc.lft.to/lastmile_qr_scan", "android": "https://dc.lft.to/lastmile_qr_scan"}, "is_reserved": 0}, {"lon": -76.98196416666667, "bike_id": "50e205055327f14ca2b143fe1376026f", "lat": 38.899453333333334, "fusion_lon": 0.0, "fusion_lat": 0.0, "type": "electric_scooter", "name": "50e205055327f14ca2b143fe1376026f", "is_disabled": 0, "rental_uris": {"ios": "https://dc.lft.to/lastmile_qr_scan", "android": "https://dc.lft.to/lastmile_qr_scan"}, "is_reserved": 0}, {"lon": -77.005257, "bike_id": "9c055ab118d38053d9f2104dc904cb5c", "lat": 38.88049266666667, "fusion_lon": 0.0, "fusion_lat": 0.0, "type": "electric_scooter", "name": "9c055ab118d38053d9f2104dc904cb5c", "is_disabled": 0, "rental_uris": {"ios": "https://dc.lft.to/lastmile_qr_scan", "android": "https://dc.lft.to/lastmile_qr_scan"}, "is_reserved": 0}, {"lon": -77.01952083333333, "bike_id": "224532fb245501f934b2404c98b08caf", "lat": 38.92251133333333, "fusion_lon": 0.0, "fusion_lat": 0.0, "type": "electric_scooter", "name": "224532fb245501f934b2404c98b08caf", "is_disabled": 0, "rental_uris": {"ios": "https://dc.lft.to/lastmile_qr_scan", "android": "https://dc.lft.to/lastmile_qr_scan"}, "is_reserved": 0}, {"lon": -77.0635985, "bike_id": "bddfc7e5ff957446e4dc8ab7265897ad", "lat": 38.90846333333333, "fusion_lon": 0.0, "fusion_lat": 0.0, "type": "electric_bike", "name": "bddfc7e5ff957446e4dc8ab7265897ad", "is_disabled": 0, "rental_uris": {"ios": "https://dc.lft.to/lastmile_qr_scan", "android": "https://dc.lft.to/lastmile_qr_scan"}, "is_reserved": 0}, {"lon": -77.02797483333333, "bike_id": "81497c8ae3b7f188d74e480c0b229e85", "lat": 38.92961116666667, "fusion_lon": 0.0, "fusion_lat": 0.0, "type": "electric_scooter", "name": "81497c8ae3b7f188d74e480c0b229e85", "is_disabled": 0, "rental_uris": {"ios": "https://dc.lft.to/lastmile_qr_scan", "android": "https://dc.lft.to/lastmile_qr_scan"}, "is_reserved": 0}, {"lon": -77.02201033333333, "bike_id": "28ae8bbe9327c0c29a3f6cb7526c0002", "lat": 38.901935333333334, "fusion_lon": 0.0, "fusion_lat": 0.0, "type": "electric_scooter", "name": "28ae8bbe9327c0c29a3f6cb7526c0002", "is_disabled": 0, "rental_uris": {"ios": "https://dc.lft.to/lastmile_qr_scan", "android": "https://dc.lft.to/lastmile_qr_scan"}, "is_reserved": 0}, {"lon": -77.04423683333333, "bike_id": "35fab2a42f7cd9e5f18971a264d7b5cd", "lat": 38.92127033333333, "fusion_lon": 0.0, "fusion_lat": 0.0, "type": "electric_scooter", "name": "35fab2a42f7cd9e5f18971a264d7b5cd", "is_disabled": 0, "rental_uris": {"ios": "https://dc.lft.to/lastmile_qr_scan", "android": "https://dc.lft.to/lastmile_qr_scan"}, "is_reserved": 0}, {"lon": -77.02798916666667, "bike_id": "16444874ace840f554d39ac4d354dca4", "lat": 38.93020033333333, "fusion_lon": 0.0, "fusion_lat": 0.0, "type": "electric_scooter", "name": "16444874ace840f554d39ac4d354dca4", "is_disabled": 0, "rental_uris": {"ios": "https://dc.lft.to/lastmile_qr_scan", "android": "https://dc.lft.to/lastmile_qr_scan"}, "is_reserved": 0}, {"lon": -77.03203366666666, "bike_id": "804ce2f2b90893a99598900591f50d04", "lat": 38.9158795, "fusion_lon": 0.0, "fusion_lat": 0.0, "type": "electric_scooter", "name": "804ce2f2b90893a99598900591f50d04", "is_disabled": 0, "rental_uris": {"ios": "https://dc.lft.to/lastmile_qr_scan", "android": "https://dc.lft.to/lastmile_qr_scan"}, "is_reserved": 0}, {"lon": -77.04158116666666, "bike_id": "ee87fc3f7cc6bfee959f7661c50be433", "lat": 38.912471, "fusion_lon": 0.0, "fusion_lat": 0.0, "type": "electric_scooter", "name": "ee87fc3f7cc6bfee959f7661c50be433", "is_disabled": 0, "rental_uris": {"ios": "https://dc.lft.to/lastmile_qr_scan", "android": "https://dc.lft.to/lastmile_qr_scan"}, "is_reserved": 0}, {"lon": -77.06370133333333, "bike_id": "e8d464de42a21ba450a3056d10a3358c", "lat": 38.94472733333333, "fusion_lon": 0.0, "fusion_lat": 0.0, "type": "electric_scooter", "name": "e8d464de42a21ba450a3056d10a3358c", "is_disabled": 0, "rental_uris": {"ios": "https://dc.lft.to/lastmile_qr_scan", "android": "https://dc.lft.to/lastmile_qr_scan"}, "is_reserved": 0}, {"lon": -77.03202283333333, "bike_id": "6fcb047402b7c3b12e55c2e905765b33", "lat": 38.899534, "fusion_lon": 0.0, "fusion_lat": 0.0, "type": "electric_scooter", "name": "6fcb047402b7c3b12e55c2e905765b33", "is_disabled": 0, "rental_uris": {"ios": "https://dc.lft.to/lastmile_qr_scan", "android": "https://dc.lft.to/lastmile_qr_scan"}, "is_reserved": 0}, {"lon": -77.07761633333334, "bike_id": "0fd6743bd0ac9ebb4675d62fe7874bfa", "lat": 38.92565666666667, "fusion_lon": 0.0, "fusion_lat": 0.0, "type": "electric_scooter", "name": "0fd6743bd0ac9ebb4675d62fe7874bfa", "is_disabled": 0, "rental_uris": {"ios": "https://dc.lft.to/lastmile_qr_scan", "android": "https://dc.lft.to/lastmile_qr_scan"}, "is_reserved": 0}, {"lon": -77.0249195, "bike_id": "cac536b02e4781752d5df19d13676c55", "lat": 38.93088, "fusion_lon": 0.0, "fusion_lat": 0.0, "type": "electric_scooter", "name": "cac536b02e4781752d5df19d13676c55", "is_disabled": 0, "rental_uris": {"ios": "https://dc.lft.to/lastmile_qr_scan", "android": "https://dc.lft.to/lastmile_qr_scan"}, "is_reserved": 0}, {"lon": -77.021966, "bike_id": "b089bc2a9581bdb94af9f46b903a14aa", "lat": 38.911348333333336, "fusion_lon": 0.0, "fusion_lat": 0.0, "type": "electric_scooter", "name": "b089bc2a9581bdb94af9f46b903a14aa", "is_disabled": 0, "rental_uris": {"ios": "https://dc.lft.to/lastmile_qr_scan", "android": "https://dc.lft.to/lastmile_qr_scan"}, "is_reserved": 0}, {"lon": -76.937357, "bike_id": "7f3c2dece36b78cc45274079406c44ae", "lat": 38.89009933333333, "fusion_lon": 0.0, "fusion_lat": 0.0, "type": "electric_scooter", "name": "7f3c2dece36b78cc45274079406c44ae", "is_disabled": 0, "rental_uris": {"ios": "https://dc.lft.to/lastmile_qr_scan", "android": "https://dc.lft.to/lastmile_qr_scan"}, "is_reserved": 0}, {"lon": -77.043793, "bike_id": "6ae9a3c9aaf35c3deb3a6fd97ddf56b3", "lat": 38.92069016666667, "fusion_lon": 0.0, "fusion_lat": 0.0, "type": "electric_scooter", "name": "6ae9a3c9aaf35c3deb3a6fd97ddf56b3", "is_disabled": 0, "rental_uris": {"ios": "https://dc.lft.to/lastmile_qr_scan", "android": "https://dc.lft.to/lastmile_qr_scan"}, "is_reserved": 0}, {"lon": -77.00489033333334, "bike_id": "5a6f8518c9ec649905450896e1009c93", "lat": 38.90530966666667, "fusion_lon": 0.0, "fusion_lat": 0.0, "type": "electric_scooter", "name": "5a6f8518c9ec649905450896e1009c93", "is_disabled": 0, "rental_uris": {"ios": "https://dc.lft.to/lastmile_qr_scan", "android": "https://dc.lft.to/lastmile_qr_scan"}, "is_reserved": 0}, {"lon": -77.016334, "bike_id": "f411643350e1b655e019b3dd78bd5da6", "lat": 38.928958333333334, "fusion_lon": 0.0, "fusion_lat": 0.0, "type": "electric_scooter", "name": "f411643350e1b655e019b3dd78bd5da6", "is_disabled": 0, "rental_uris": {"ios": "https://dc.lft.to/lastmile_qr_scan", "android": "https://dc.lft.to/lastmile_qr_scan"}, "is_reserved": 0}, {"lon": -77.02490966666667, "bike_id": "e59fc36d4dbd7dfea55c55874b354ba6", "lat": 38.930995, "fusion_lon": 0.0, "fusion_lat": 0.0, "type": "electric_scooter", "name": "e59fc36d4dbd7dfea55c55874b354ba6", "is_disabled": 0, "rental_uris": {"ios": "https://dc.lft.to/lastmile_qr_scan", "android": "https://dc.lft.to/lastmile_qr_scan"}, "is_reserved": 0}, {"lon": -77.023751, "bike_id": "1d050dbeb53cd107ece02b5e7d08b254", "lat": 38.909576666666666, "fusion_lon": 0.0, "fusion_lat": 0.0, "type": "electric_scooter", "name": "1d050dbeb53cd107ece02b5e7d08b254", "is_disabled": 0, "rental_uris": {"ios": "https://dc.lft.to/lastmile_qr_scan", "android": "https://dc.lft.to/lastmile_qr_scan"}, "is_reserved": 0}, {"lon": -77.008139, "bike_id": "8f1804bf3d16db15f3c7f140ceae074b", "lat": 38.916994833333334, "fusion_lon": 0.0, "fusion_lat": 0.0, "type": "electric_scooter", "name": "8f1804bf3d16db15f3c7f140ceae074b", "is_disabled": 0, "rental_uris": {"ios": "https://dc.lft.to/lastmile_qr_scan", "android": "https://dc.lft.to/lastmile_qr_scan"}, "is_reserved": 0}, {"lon": -77.03764516666666, "bike_id": "11af8d96e723c850de455c7fedf6f6d1", "lat": 38.907705, "fusion_lon": 0.0, "fusion_lat": 0.0, "type": "electric_scooter", "name": "11af8d96e723c850de455c7fedf6f6d1", "is_disabled": 0, "rental_uris": {"ios": "https://dc.lft.to/lastmile_qr_scan", "android": "https://dc.lft.to/lastmile_qr_scan"}, "is_reserved": 0}, {"lon": -77.03200966666667, "bike_id": "5c4a6575c3c2e6d7e9560ac4f21ae287", "lat": 38.9142115, "fusion_lon": 0.0, "fusion_lat": 0.0, "type": "electric_scooter", "name": "5c4a6575c3c2e6d7e9560ac4f21ae287", "is_disabled": 0, "rental_uris": {"ios": "https://dc.lft.to/lastmile_qr_scan", "android": "https://dc.lft.to/lastmile_qr_scan"}, "is_reserved": 0}, {"lon": -77.0387955, "bike_id": "b3c92032aaacca9d4fb94efe22f7d765", "lat": 38.91103016666667, "fusion_lon": 0.0, "fusion_lat": 0.0, "type": "electric_scooter", "name": "b3c92032aaacca9d4fb94efe22f7d765", "is_disabled": 0, "rental_uris": {"ios": "https://dc.lft.to/lastmile_qr_scan", "android": "https://dc.lft.to/lastmile_qr_scan"}, "is_reserved": 0}, {"lon": -77.0295065, "bike_id": "136d5808d9f27f061e29342265204ae3", "lat": 38.90507483333333, "fusion_lon": 0.0, "fusion_lat": 0.0, "type": "electric_scooter", "name": "136d5808d9f27f061e29342265204ae3", "is_disabled": 0, "rental_uris": {"ios": "https://dc.lft.to/lastmile_qr_scan", "android": "https://dc.lft.to/lastmile_qr_scan"}, "is_reserved": 0}, {"lon": -76.93369666666666, "bike_id": "7843767a6de9d92144e6268a60254c9c", "lat": 38.899164999999996, "fusion_lon": 0.0, "fusion_lat": 0.0, "type": "electric_scooter", "name": "7843767a6de9d92144e6268a60254c9c", "is_disabled": 0, "rental_uris": {"ios": "https://dc.lft.to/lastmile_qr_scan", "android": "https://dc.lft.to/lastmile_qr_scan"}, "is_reserved": 0}, {"lon": -77.056428, "bike_id": "4f8b069470bd57a5510fc49ff4ec0542", "lat": 38.894254333333336, "fusion_lon": 0.0, "fusion_lat": 0.0, "type": "electric_scooter", "name": "4f8b069470bd57a5510fc49ff4ec0542", "is_disabled": 0, "rental_uris": {"ios": "https://dc.lft.to/lastmile_qr_scan", "android": "https://dc.lft.to/lastmile_qr_scan"}, "is_reserved": 0}, {"lon": -77.01609116666667, "bike_id": "7f72f67742f479699a601fb573ce90ae", "lat": 38.910599500000004, "fusion_lon": 0.0, "fusion_lat": 0.0, "type": "electric_scooter", "name": "7f72f67742f479699a601fb573ce90ae", "is_disabled": 0, "rental_uris": {"ios": "https://dc.lft.to/lastmile_qr_scan", "android": "https://dc.lft.to/lastmile_qr_scan"}, "is_reserved": 0}, {"lon": -76.99571133333333, "bike_id": "974afb2dd0365fa57829ca89be59861b", "lat": 38.85179733333333, "fusion_lon": 0.0, "fusion_lat": 0.0, "type": "electric_bike", "name": "974afb2dd0365fa57829ca89be59861b", "is_disabled": 0, "rental_uris": {"ios": "https://dc.lft.to/lastmile_qr_scan", "android": "https://dc.lft.to/lastmile_qr_scan"}, "is_reserved": 0}, {"lon": -77.02693083333334, "bike_id": "171b8ddc9a2df72fe3f9841c19b9eb1c", "lat": 38.896236333333334, "fusion_lon": 0.0, "fusion_lat": 0.0, "type": "electric_scooter", "name": "171b8ddc9a2df72fe3f9841c19b9eb1c", "is_disabled": 0, "rental_uris": {"ios": "https://dc.lft.to/lastmile_qr_scan", "android": "https://dc.lft.to/lastmile_qr_scan"}, "is_reserved": 0}, {"lon": -76.93175533333333, "bike_id": "83a4e00ffdbe0950b9b975ad52d1729b", "lat": 38.89882583333333, "fusion_lon": 0.0, "fusion_lat": 0.0, "type": "electric_scooter", "name": "83a4e00ffdbe0950b9b975ad52d1729b", "is_disabled": 0, "rental_uris": {"ios": "https://dc.lft.to/lastmile_qr_scan", "android": "https://dc.lft.to/lastmile_qr_scan"}, "is_reserved": 0}, {"lon": -76.9961695, "bike_id": "37d979905741d1b792abcf5102c94068", "lat": 38.88310516666667, "fusion_lon": 0.0, "fusion_lat": 0.0, "type": "electric_scooter", "name": "37d979905741d1b792abcf5102c94068", "is_disabled": 0, "rental_uris": {"ios": "https://dc.lft.to/lastmile_qr_scan", "android": "https://dc.lft.to/lastmile_qr_scan"}, "is_reserved": 0}, {"lon": -77.04188533333334, "bike_id": "ba316b24170156c5c84b06389e7beaca", "lat": 38.9205575, "fusion_lon": 0.0, "fusion_lat": 0.0, "type": "electric_scooter", "name": "ba316b24170156c5c84b06389e7beaca", "is_disabled": 0, "rental_uris": {"ios": "https://dc.lft.to/lastmile_qr_scan", "android": "https://dc.lft.to/lastmile_qr_scan"}, "is_reserved": 0}, {"lon": -77.04493716666667, "bike_id": "1bf14c1fb8d43eb015a6e3693ee96ed1", "lat": 38.9193715, "fusion_lon": 0.0, "fusion_lat": 0.0, "type": "electric_scooter", "name": "1bf14c1fb8d43eb015a6e3693ee96ed1", "is_disabled": 0, "rental_uris": {"ios": "https://dc.lft.to/lastmile_qr_scan", "android": "https://dc.lft.to/lastmile_qr_scan"}, "is_reserved": 0}, {"lon": -77.02490816666666, "bike_id": "96237a79fe319a90b33e8c4fcbc87c83", "lat": 38.91912583333333, "fusion_lon": 0.0, "fusion_lat": 0.0, "type": "electric_scooter", "name": "96237a79fe319a90b33e8c4fcbc87c83", "is_disabled": 0, "rental_uris": {"ios": "https://dc.lft.to/lastmile_qr_scan", "android": "https://dc.lft.to/lastmile_qr_scan"}, "is_reserved": 0}, {"lon": -77.04446766666666, "bike_id": "d6d6d03af457da13d484bf29eaf13c5d", "lat": 38.919359666666665, "fusion_lon": 0.0, "fusion_lat": 0.0, "type": "electric_scooter", "name": "d6d6d03af457da13d484bf29eaf13c5d", "is_disabled": 0, "rental_uris": {"ios": "https://dc.lft.to/lastmile_qr_scan", "android": "https://dc.lft.to/lastmile_qr_scan"}, "is_reserved": 0}, {"lon": -77.033476, "bike_id": "503f02fcf4dcaed456c2000f33a6efe2", "lat": 38.947172333333334, "fusion_lon": 0.0, "fusion_lat": 0.0, "type": "electric_scooter", "name": "503f02fcf4dcaed456c2000f33a6efe2", "is_disabled": 0, "rental_uris": {"ios": "https://dc.lft.to/lastmile_qr_scan", "android": "https://dc.lft.to/lastmile_qr_scan"}, "is_reserved": 0}, {"lon": -76.95196433333334, "bike_id": "33527ef786606e497994048e3e46e3ff", "lat": 38.900063, "fusion_lon": 0.0, "fusion_lat": 0.0, "type": "electric_scooter", "name": "33527ef786606e497994048e3e46e3ff", "is_disabled": 0, "rental_uris": {"ios": "https://dc.lft.to/lastmile_qr_scan", "android": "https://dc.lft.to/lastmile_qr_scan"}, "is_reserved": 0}, {"lon": -77.01580083333333, "bike_id": "5061f4adf41afe463f19d4f2b8948ebf", "lat": 38.89472816666667, "fusion_lon": 0.0, "fusion_lat": 0.0, "type": "electric_scooter", "name": "5061f4adf41afe463f19d4f2b8948ebf", "is_disabled": 0, "rental_uris": {"ios": "https://dc.lft.to/lastmile_qr_scan", "android": "https://dc.lft.to/lastmile_qr_scan"}, "is_reserved": 0}, {"lon": -76.98364566666666, "bike_id": "b178d078f577e3d0ffd52f6871263532", "lat": 38.8611025, "fusion_lon": 0.0, "fusion_lat": 0.0, "type": "electric_scooter", "name": "b178d078f577e3d0ffd52f6871263532", "is_disabled": 0, "rental_uris": {"ios": "https://dc.lft.to/lastmile_qr_scan", "android": "https://dc.lft.to/lastmile_qr_scan"}, "is_reserved": 0}, {"lon": -76.99755283333333, "bike_id": "441c647fecea121ac49727a37ff888d9", "lat": 38.900459166666664, "fusion_lon": 0.0, "fusion_lat": 0.0, "type": "electric_scooter", "name": "441c647fecea121ac49727a37ff888d9", "is_disabled": 0, "rental_uris": {"ios": "https://dc.lft.to/lastmile_qr_scan", "android": "https://dc.lft.to/lastmile_qr_scan"}, "is_reserved": 0}, {"lon": -77.03641266666666, "bike_id": "8fdab97606e27c9b5df466f903f28acb", "lat": 38.90562966666667, "fusion_lon": 0.0, "fusion_lat": 0.0, "type": "electric_scooter", "name": "8fdab97606e27c9b5df466f903f28acb", "is_disabled": 0, "rental_uris": {"ios": "https://dc.lft.to/lastmile_qr_scan", "android": "https://dc.lft.to/lastmile_qr_scan"}, "is_reserved": 0}, {"lon": -77.00681516666667, "bike_id": "c629f8d4a7ea0e7c3db3d9b23aceba42", "lat": 38.94515766666667, "fusion_lon": 0.0, "fusion_lat": 0.0, "type": "electric_bike", "name": "c629f8d4a7ea0e7c3db3d9b23aceba42", "is_disabled": 0, "rental_uris": {"ios": "https://dc.lft.to/lastmile_qr_scan", "android": "https://dc.lft.to/lastmile_qr_scan"}, "is_reserved": 0}, {"lon": -77.0380225, "bike_id": "ff2a14399c8801be6059040807580910", "lat": 38.9206735, "fusion_lon": 0.0, "fusion_lat": 0.0, "type": "electric_scooter", "name": "ff2a14399c8801be6059040807580910", "is_disabled": 0, "rental_uris": {"ios": "https://dc.lft.to/lastmile_qr_scan", "android": "https://dc.lft.to/lastmile_qr_scan"}, "is_reserved": 0}, {"lon": -77.03216533333334, "bike_id": "6cdb7940a27fa97f940516d93879981d", "lat": 38.917108999999996, "fusion_lon": 0.0, "fusion_lat": 0.0, "type": "electric_scooter", "name": "6cdb7940a27fa97f940516d93879981d", "is_disabled": 0, "rental_uris": {"ios": "https://dc.lft.to/lastmile_qr_scan", "android": "https://dc.lft.to/lastmile_qr_scan"}, "is_reserved": 0}, {"lon": -77.01765383333333, "bike_id": "9f0a35e84d84ed67068edb0ad84ecac0", "lat": 38.885974, "fusion_lon": 0.0, "fusion_lat": 0.0, "type": "electric_scooter", "name": "9f0a35e84d84ed67068edb0ad84ecac0", "is_disabled": 0, "rental_uris": {"ios": "https://dc.lft.to/lastmile_qr_scan", "android": "https://dc.lft.to/lastmile_qr_scan"}, "is_reserved": 0}, {"lon": -77.04005616666667, "bike_id": "890cf35e8bb2e8666cdeba735b4ec85e", "lat": 38.933032833333336, "fusion_lon": 0.0, "fusion_lat": 0.0, "type": "electric_scooter", "name": "890cf35e8bb2e8666cdeba735b4ec85e", "is_disabled": 0, "rental_uris": {"ios": "https://dc.lft.to/lastmile_qr_scan", "android": "https://dc.lft.to/lastmile_qr_scan"}, "is_reserved": 0}, {"lon": -77.081948, "bike_id": "944e119d0d462e6ec4dbebba4d69d90b", "lat": 38.92208466666666, "fusion_lon": 0.0, "fusion_lat": 0.0, "type": "electric_bike", "name": "944e119d0d462e6ec4dbebba4d69d90b", "is_disabled": 0, "rental_uris": {"ios": "https://dc.lft.to/lastmile_qr_scan", "android": "https://dc.lft.to/lastmile_qr_scan"}, "is_reserved": 0}, {"lon": -77.02262283333333, "bike_id": "b49d9fb00fa384e2931b7bf8fa8a2701", "lat": 38.912733, "fusion_lon": 0.0, "fusion_lat": 0.0, "type": "electric_scooter", "name": "b49d9fb00fa384e2931b7bf8fa8a2701", "is_disabled": 0, "rental_uris": {"ios": "https://dc.lft.to/lastmile_qr_scan", "android": "https://dc.lft.to/lastmile_qr_scan"}, "is_reserved": 0}, {"lon": -77.02221566666667, "bike_id": "64539880653314d3e56b300323551490", "lat": 38.892196166666665, "fusion_lon": 0.0, "fusion_lat": 0.0, "type": "electric_scooter", "name": "64539880653314d3e56b300323551490", "is_disabled": 0, "rental_uris": {"ios": "https://dc.lft.to/lastmile_qr_scan", "android": "https://dc.lft.to/lastmile_qr_scan"}, "is_reserved": 0}, {"lon": -77.0174145, "bike_id": "71cb5eaa29d34a2419b759d2564426af", "lat": 38.88049516666667, "fusion_lon": 0.0, "fusion_lat": 0.0, "type": "electric_scooter", "name": "71cb5eaa29d34a2419b759d2564426af", "is_disabled": 0, "rental_uris": {"ios": "https://dc.lft.to/lastmile_qr_scan", "android": "https://dc.lft.to/lastmile_qr_scan"}, "is_reserved": 0}, {"lon": -77.08593766666667, "bike_id": "c0a460c03a8ce59f8c0fc52a4978a807", "lat": 38.9086595, "fusion_lon": 0.0, "fusion_lat": 0.0, "type": "electric_scooter", "name": "c0a460c03a8ce59f8c0fc52a4978a807", "is_disabled": 0, "rental_uris": {"ios": "https://dc.lft.to/lastmile_qr_scan", "android": "https://dc.lft.to/lastmile_qr_scan"}, "is_reserved": 0}, {"lon": -77.01745233333334, "bike_id": "17d5392131ac3692a8b7ff89f85420ae", "lat": 38.88121966666667, "fusion_lon": 0.0, "fusion_lat": 0.0, "type": "electric_scooter", "name": "17d5392131ac3692a8b7ff89f85420ae", "is_disabled": 0, "rental_uris": {"ios": "https://dc.lft.to/lastmile_qr_scan", "android": "https://dc.lft.to/lastmile_qr_scan"}, "is_reserved": 0}, {"lon": -77.021833, "bike_id": "f2f06bc5420ff1c1f4a142d2d0593e6d", "lat": 38.91416816666667, "fusion_lon": 0.0, "fusion_lat": 0.0, "type": "electric_scooter", "name": "f2f06bc5420ff1c1f4a142d2d0593e6d", "is_disabled": 0, "rental_uris": {"ios": "https://dc.lft.to/lastmile_qr_scan", "android": "https://dc.lft.to/lastmile_qr_scan"}, "is_reserved": 0}, {"lon": -77.03145383333333, "bike_id": "d04c4d59d18d41ee4165a890aee691af", "lat": 38.903417, "fusion_lon": 0.0, "fusion_lat": 0.0, "type": "electric_scooter", "name": "d04c4d59d18d41ee4165a890aee691af", "is_disabled": 0, "rental_uris": {"ios": "https://dc.lft.to/lastmile_qr_scan", "android": "https://dc.lft.to/lastmile_qr_scan"}, "is_reserved": 0}, {"lon": -77.03420883333334, "bike_id": "ee072f4090ce00ab89483a3e2670a45b", "lat": 38.9180465, "fusion_lon": 0.0, "fusion_lat": 0.0, "type": "electric_scooter", "name": "ee072f4090ce00ab89483a3e2670a45b", "is_disabled": 0, "rental_uris": {"ios": "https://dc.lft.to/lastmile_qr_scan", "android": "https://dc.lft.to/lastmile_qr_scan"}, "is_reserved": 0}, {"lon": -76.94636066666666, "bike_id": "f3d96022265b3e871002059c9b87cf4c", "lat": 38.898332333333336, "fusion_lon": 0.0, "fusion_lat": 0.0, "type": "electric_scooter", "name": "f3d96022265b3e871002059c9b87cf4c", "is_disabled": 0, "rental_uris": {"ios": "https://dc.lft.to/lastmile_qr_scan", "android": "https://dc.lft.to/lastmile_qr_scan"}, "is_reserved": 0}, {"lon": -77.0092685, "bike_id": "538fef93141ab0847c19a13a6e6579f5", "lat": 38.911022333333335, "fusion_lon": 0.0, "fusion_lat": 0.0, "type": "electric_scooter", "name": "538fef93141ab0847c19a13a6e6579f5", "is_disabled": 0, "rental_uris": {"ios": "https://dc.lft.to/lastmile_qr_scan", "android": "https://dc.lft.to/lastmile_qr_scan"}, "is_reserved": 0}, {"lon": -76.9896215, "bike_id": "e47c9423ab145f4168238ccbfb689daa", "lat": 38.90127566666666, "fusion_lon": 0.0, "fusion_lat": 0.0, "type": "electric_scooter", "name": "e47c9423ab145f4168238ccbfb689daa", "is_disabled": 0, "rental_uris": {"ios": "https://dc.lft.to/lastmile_qr_scan", "android": "https://dc.lft.to/lastmile_qr_scan"}, "is_reserved": 0}, {"lon": -77.013691, "bike_id": "558f75d3098f294e388e797ec18e5d96", "lat": 38.90618833333333, "fusion_lon": 0.0, "fusion_lat": 0.0, "type": "electric_scooter", "name": "558f75d3098f294e388e797ec18e5d96", "is_disabled": 0, "rental_uris": {"ios": "https://dc.lft.to/lastmile_qr_scan", "android": "https://dc.lft.to/lastmile_qr_scan"}, "is_reserved": 0}, {"lon": -77.05028383333334, "bike_id": "86ae5c71064a55f4d3657230e1835a46", "lat": 38.903616, "fusion_lon": 0.0, "fusion_lat": 0.0, "type": "electric_scooter", "name": "86ae5c71064a55f4d3657230e1835a46", "is_disabled": 0, "rental_uris": {"ios": "https://dc.lft.to/lastmile_qr_scan", "android": "https://dc.lft.to/lastmile_qr_scan"}, "is_reserved": 0}, {"lon": -77.08812433333334, "bike_id": "5fa272cab5fb0ba56050c066c52225de", "lat": 38.91174183333333, "fusion_lon": 0.0, "fusion_lat": 0.0, "type": "electric_bike", "name": "5fa272cab5fb0ba56050c066c52225de", "is_disabled": 0, "rental_uris": {"ios": "https://dc.lft.to/lastmile_qr_scan", "android": "https://dc.lft.to/lastmile_qr_scan"}, "is_reserved": 0}, {"lon": -77.04602366666667, "bike_id": "8e17890d9e009f2fb34e4075dccef195", "lat": 38.913807, "fusion_lon": 0.0, "fusion_lat": 0.0, "type": "electric_scooter", "name": "8e17890d9e009f2fb34e4075dccef195", "is_disabled": 0, "rental_uris": {"ios": "https://dc.lft.to/lastmile_qr_scan", "android": "https://dc.lft.to/lastmile_qr_scan"}, "is_reserved": 0}, {"lon": -76.99099716666667, "bike_id": "0f550813c08ff3b3392c2a8253e2104d", "lat": 38.90319183333333, "fusion_lon": 0.0, "fusion_lat": 0.0, "type": "electric_scooter", "name": "0f550813c08ff3b3392c2a8253e2104d", "is_disabled": 0, "rental_uris": {"ios": "https://dc.lft.to/lastmile_qr_scan", "android": "https://dc.lft.to/lastmile_qr_scan"}, "is_reserved": 0}, {"lon": -77.01863816666666, "bike_id": "d95516b18230ef993b3fceae304f0bc1", "lat": 38.9514865, "fusion_lon": 0.0, "fusion_lat": 0.0, "type": "electric_scooter", "name": "d95516b18230ef993b3fceae304f0bc1", "is_disabled": 0, "rental_uris": {"ios": "https://dc.lft.to/lastmile_qr_scan", "android": "https://dc.lft.to/lastmile_qr_scan"}, "is_reserved": 0}, {"lon": -77.03925366666667, "bike_id": "73d2152afe83dc1e10853db9e72f404e", "lat": 38.9279585, "fusion_lon": 0.0, "fusion_lat": 0.0, "type": "electric_scooter", "name": "73d2152afe83dc1e10853db9e72f404e", "is_disabled": 0, "rental_uris": {"ios": "https://dc.lft.to/lastmile_qr_scan", "android": "https://dc.lft.to/lastmile_qr_scan"}, "is_reserved": 0}, {"lon": -77.0070915, "bike_id": "e9e5da64c24082f04ec33309b9ec482d", "lat": 38.900235333333335, "fusion_lon": 0.0, "fusion_lat": 0.0, "type": "electric_scooter", "name": "e9e5da64c24082f04ec33309b9ec482d", "is_disabled": 0, "rental_uris": {"ios": "https://dc.lft.to/lastmile_qr_scan", "android": "https://dc.lft.to/lastmile_qr_scan"}, "is_reserved": 0}, {"lon": -76.952338, "bike_id": "e25127f2c6cbe71b7df183685090f65d", "lat": 38.89100083333334, "fusion_lon": 0.0, "fusion_lat": 0.0, "type": "electric_scooter", "name": "e25127f2c6cbe71b7df183685090f65d", "is_disabled": 0, "rental_uris": {"ios": "https://dc.lft.to/lastmile_qr_scan", "android": "https://dc.lft.to/lastmile_qr_scan"}, "is_reserved": 0}, {"lon": -77.03177533333333, "bike_id": "e6b7f9d46d2b0e6033567e181f481696", "lat": 38.905156833333336, "fusion_lon": 0.0, "fusion_lat": 0.0, "type": "electric_scooter", "name": "e6b7f9d46d2b0e6033567e181f481696", "is_disabled": 0, "rental_uris": {"ios": "https://dc.lft.to/lastmile_qr_scan", "android": "https://dc.lft.to/lastmile_qr_scan"}, "is_reserved": 0}, {"lon": -76.97616966666666, "bike_id": "38ccd116fb79ec428131e7b359a0462d", "lat": 38.926514, "fusion_lon": 0.0, "fusion_lat": 0.0, "type": "electric_scooter", "name": "38ccd116fb79ec428131e7b359a0462d", "is_disabled": 0, "rental_uris": {"ios": "https://dc.lft.to/lastmile_qr_scan", "android": "https://dc.lft.to/lastmile_qr_scan"}, "is_reserved": 0}, {"lon": -77.02075483333333, "bike_id": "68e561d15531bea7d092dd23d69efa81", "lat": 38.89973833333333, "fusion_lon": 0.0, "fusion_lat": 0.0, "type": "electric_scooter", "name": "68e561d15531bea7d092dd23d69efa81", "is_disabled": 0, "rental_uris": {"ios": "https://dc.lft.to/lastmile_qr_scan", "android": "https://dc.lft.to/lastmile_qr_scan"}, "is_reserved": 0}, {"lon": -76.980374, "bike_id": "af6899edb00ab7621b73a8094c1306c5", "lat": 38.8896865, "fusion_lon": 0.0, "fusion_lat": 0.0, "type": "electric_scooter", "name": "af6899edb00ab7621b73a8094c1306c5", "is_disabled": 0, "rental_uris": {"ios": "https://dc.lft.to/lastmile_qr_scan", "android": "https://dc.lft.to/lastmile_qr_scan"}, "is_reserved": 0}, {"lon": -77.03445416666666, "bike_id": "308953b13b9432997c0cb23fae1f894c", "lat": 38.9101305, "fusion_lon": 0.0, "fusion_lat": 0.0, "type": "electric_scooter", "name": "308953b13b9432997c0cb23fae1f894c", "is_disabled": 0, "rental_uris": {"ios": "https://dc.lft.to/lastmile_qr_scan", "android": "https://dc.lft.to/lastmile_qr_scan"}, "is_reserved": 0}, {"lon": -77.02573083333333, "bike_id": "c928043677880ae4c079bda9b14a0aaf", "lat": 38.91412566666666, "fusion_lon": 0.0, "fusion_lat": 0.0, "type": "electric_scooter", "name": "c928043677880ae4c079bda9b14a0aaf", "is_disabled": 0, "rental_uris": {"ios": "https://dc.lft.to/lastmile_qr_scan", "android": "https://dc.lft.to/lastmile_qr_scan"}, "is_reserved": 0}, {"lon": -76.98341133333334, "bike_id": "66df0639fe95b4879a37f127af922d8a", "lat": 38.866356333333336, "fusion_lon": 0.0, "fusion_lat": 0.0, "type": "electric_scooter", "name": "66df0639fe95b4879a37f127af922d8a", "is_disabled": 0, "rental_uris": {"ios": "https://dc.lft.to/lastmile_qr_scan", "android": "https://dc.lft.to/lastmile_qr_scan"}, "is_reserved": 0}, {"lon": -76.93189033333333, "bike_id": "d37e50c164ec52dc3bcbbe57a422b2ea", "lat": 38.898770666666664, "fusion_lon": 0.0, "fusion_lat": 0.0, "type": "electric_scooter", "name": "d37e50c164ec52dc3bcbbe57a422b2ea", "is_disabled": 0, "rental_uris": {"ios": "https://dc.lft.to/lastmile_qr_scan", "android": "https://dc.lft.to/lastmile_qr_scan"}, "is_reserved": 0}, {"lon": -77.00372316666666, "bike_id": "9f6dcb7a9a7b61b39af9deeb1acb0af3", "lat": 38.897373, "fusion_lon": 0.0, "fusion_lat": 0.0, "type": "electric_scooter", "name": "9f6dcb7a9a7b61b39af9deeb1acb0af3", "is_disabled": 0, "rental_uris": {"ios": "https://dc.lft.to/lastmile_qr_scan", "android": "https://dc.lft.to/lastmile_qr_scan"}, "is_reserved": 0}, {"lon": -77.08002133333333, "bike_id": "2747b90b99cc19af8fd70efe7f65ca33", "lat": 38.96484483333333, "fusion_lon": 0.0, "fusion_lat": 0.0, "type": "electric_scooter", "name": "2747b90b99cc19af8fd70efe7f65ca33", "is_disabled": 0, "rental_uris": {"ios": "https://dc.lft.to/lastmile_qr_scan", "android": "https://dc.lft.to/lastmile_qr_scan"}, "is_reserved": 0}, {"lon": -76.99511083333333, "bike_id": "beaa07f071766129d9f40a310c373fd0", "lat": 38.877778, "fusion_lon": 0.0, "fusion_lat": 0.0, "type": "electric_scooter", "name": "beaa07f071766129d9f40a310c373fd0", "is_disabled": 0, "rental_uris": {"ios": "https://dc.lft.to/lastmile_qr_scan", "android": "https://dc.lft.to/lastmile_qr_scan"}, "is_reserved": 0}, {"lon": -77.07749966666667, "bike_id": "422205226f58095b2ba8f4b76172b2d8", "lat": 38.841913166666664, "fusion_lon": 0.0, "fusion_lat": 0.0, "type": "electric_bike", "name": "422205226f58095b2ba8f4b76172b2d8", "is_disabled": 0, "rental_uris": {"ios": "https://dc.lft.to/lastmile_qr_scan", "android": "https://dc.lft.to/lastmile_qr_scan"}, "is_reserved": 0}, {"lon": -77.036383, "bike_id": "f963475a3668b3fb03e9919dda1734b2", "lat": 38.927436166666666, "fusion_lon": 0.0, "fusion_lat": 0.0, "type": "electric_scooter", "name": "f963475a3668b3fb03e9919dda1734b2", "is_disabled": 0, "rental_uris": {"ios": "https://dc.lft.to/lastmile_qr_scan", "android": "https://dc.lft.to/lastmile_qr_scan"}, "is_reserved": 0}, {"lon": -76.98398083333333, "bike_id": "2ef3d7e575b5f2bc0dc13bde81b323bb", "lat": 38.90623816666667, "fusion_lon": 0.0, "fusion_lat": 0.0, "type": "electric_scooter", "name": "2ef3d7e575b5f2bc0dc13bde81b323bb", "is_disabled": 0, "rental_uris": {"ios": "https://dc.lft.to/lastmile_qr_scan", "android": "https://dc.lft.to/lastmile_qr_scan"}, "is_reserved": 0}, {"lon": -76.98776033333333, "bike_id": "2a2ea8b7dd0d712e635ed3988a05acd1", "lat": 38.866093166666666, "fusion_lon": 0.0, "fusion_lat": 0.0, "type": "electric_bike", "name": "2a2ea8b7dd0d712e635ed3988a05acd1", "is_disabled": 0, "rental_uris": {"ios": "https://dc.lft.to/lastmile_qr_scan", "android": "https://dc.lft.to/lastmile_qr_scan"}, "is_reserved": 0}, {"lon": -77.03775116666667, "bike_id": "063bbecf8cd8b556c65a211f9ff1b063", "lat": 38.929644, "fusion_lon": 0.0, "fusion_lat": 0.0, "type": "electric_scooter", "name": "063bbecf8cd8b556c65a211f9ff1b063", "is_disabled": 0, "rental_uris": {"ios": "https://dc.lft.to/lastmile_qr_scan", "android": "https://dc.lft.to/lastmile_qr_scan"}, "is_reserved": 0}, {"lon": -76.98935916666667, "bike_id": "2350ba5ae74a96db1bac9ced7f25fbf9", "lat": 38.918408166666666, "fusion_lon": 0.0, "fusion_lat": 0.0, "type": "electric_scooter", "name": "2350ba5ae74a96db1bac9ced7f25fbf9", "is_disabled": 0, "rental_uris": {"ios": "https://dc.lft.to/lastmile_qr_scan", "android": "https://dc.lft.to/lastmile_qr_scan"}, "is_reserved": 0}, {"lon": -77.02996683333333, "bike_id": "e7082c2ff79630770bcb3451bfd11214", "lat": 38.9125535, "fusion_lon": 0.0, "fusion_lat": 0.0, "type": "electric_scooter", "name": "e7082c2ff79630770bcb3451bfd11214", "is_disabled": 0, "rental_uris": {"ios": "https://dc.lft.to/lastmile_qr_scan", "android": "https://dc.lft.to/lastmile_qr_scan"}, "is_reserved": 0}, {"lon": -77.03694816666666, "bike_id": "2a204d7830cdab397705d02e821571b2", "lat": 38.93523166666667, "fusion_lon": 0.0, "fusion_lat": 0.0, "type": "electric_scooter", "name": "2a204d7830cdab397705d02e821571b2", "is_disabled": 0, "rental_uris": {"ios": "https://dc.lft.to/lastmile_qr_scan", "android": "https://dc.lft.to/lastmile_qr_scan"}, "is_reserved": 0}, {"lon": -77.02570416666667, "bike_id": "a15fe317ab09a629d3fbe3c6b314f260", "lat": 38.91335333333333, "fusion_lon": 0.0, "fusion_lat": 0.0, "type": "electric_scooter", "name": "a15fe317ab09a629d3fbe3c6b314f260", "is_disabled": 0, "rental_uris": {"ios": "https://dc.lft.to/lastmile_qr_scan", "android": "https://dc.lft.to/lastmile_qr_scan"}, "is_reserved": 0}, {"lon": -77.02512466666667, "bike_id": "eeacc7bb125d8dd3d6df46adb6a631d2", "lat": 38.9207515, "fusion_lon": 0.0, "fusion_lat": 0.0, "type": "electric_scooter", "name": "eeacc7bb125d8dd3d6df46adb6a631d2", "is_disabled": 0, "rental_uris": {"ios": "https://dc.lft.to/lastmile_qr_scan", "android": "https://dc.lft.to/lastmile_qr_scan"}, "is_reserved": 0}, {"lon": -77.03386716666667, "bike_id": "3fbe2b9f0f032a05e7a5d100d58f5846", "lat": 38.88656433333333, "fusion_lon": 0.0, "fusion_lat": 0.0, "type": "electric_scooter", "name": "3fbe2b9f0f032a05e7a5d100d58f5846", "is_disabled": 0, "rental_uris": {"ios": "https://dc.lft.to/lastmile_qr_scan", "android": "https://dc.lft.to/lastmile_qr_scan"}, "is_reserved": 0}, {"lon": -76.9907595, "bike_id": "93a2176bc166b5fba308653be51485b8", "lat": 38.898228833333334, "fusion_lon": 0.0, "fusion_lat": 0.0, "type": "electric_bike", "name": "93a2176bc166b5fba308653be51485b8", "is_disabled": 0, "rental_uris": {"ios": "https://dc.lft.to/lastmile_qr_scan", "android": "https://dc.lft.to/lastmile_qr_scan"}, "is_reserved": 0}, {"lon": -77.019949, "bike_id": "3213b06ec885b38ded726aa2db225b95", "lat": 38.88592233333333, "fusion_lon": 0.0, "fusion_lat": 0.0, "type": "electric_scooter", "name": "3213b06ec885b38ded726aa2db225b95", "is_disabled": 0, "rental_uris": {"ios": "https://dc.lft.to/lastmile_qr_scan", "android": "https://dc.lft.to/lastmile_qr_scan"}, "is_reserved": 0}, {"lon": -76.9833645, "bike_id": "200df864b3798cf831e9fcc0e7567efb", "lat": 38.8954595, "fusion_lon": 0.0, "fusion_lat": 0.0, "type": "electric_scooter", "name": "200df864b3798cf831e9fcc0e7567efb", "is_disabled": 0, "rental_uris": {"ios": "https://dc.lft.to/lastmile_qr_scan", "android": "https://dc.lft.to/lastmile_qr_scan"}, "is_reserved": 0}, {"lon": -76.9994265, "bike_id": "498ff7ae214fae713ac4d2644942f045", "lat": 38.907730666666666, "fusion_lon": 0.0, "fusion_lat": 0.0, "type": "electric_scooter", "name": "498ff7ae214fae713ac4d2644942f045", "is_disabled": 0, "rental_uris": {"ios": "https://dc.lft.to/lastmile_qr_scan", "android": "https://dc.lft.to/lastmile_qr_scan"}, "is_reserved": 0}, {"lon": -76.9971765, "bike_id": "71af407e500ed0510d56c73af921bdb0", "lat": 38.89251683333333, "fusion_lon": 0.0, "fusion_lat": 0.0, "type": "electric_scooter", "name": "71af407e500ed0510d56c73af921bdb0", "is_disabled": 0, "rental_uris": {"ios": "https://dc.lft.to/lastmile_qr_scan", "android": "https://dc.lft.to/lastmile_qr_scan"}, "is_reserved": 0}, {"lon": -76.97248083333334, "bike_id": "4a7e18a7e1b80eca9798e3a1c2138c6f", "lat": 38.9034625, "fusion_lon": 0.0, "fusion_lat": 0.0, "type": "electric_scooter", "name": "4a7e18a7e1b80eca9798e3a1c2138c6f", "is_disabled": 0, "rental_uris": {"ios": "https://dc.lft.to/lastmile_qr_scan", "android": "https://dc.lft.to/lastmile_qr_scan"}, "is_reserved": 0}, {"lon": -77.015174, "bike_id": "ec8d718d2978ecea511247a40b9c6a5d", "lat": 38.91868516666667, "fusion_lon": 0.0, "fusion_lat": 0.0, "type": "electric_scooter", "name": "ec8d718d2978ecea511247a40b9c6a5d", "is_disabled": 0, "rental_uris": {"ios": "https://dc.lft.to/lastmile_qr_scan", "android": "https://dc.lft.to/lastmile_qr_scan"}, "is_reserved": 0}, {"lon": -77.018427, "bike_id": "66ebac55ff20246f8eb22ecfa107e1ba", "lat": 38.909619666666664, "fusion_lon": 0.0, "fusion_lat": 0.0, "type": "electric_scooter", "name": "66ebac55ff20246f8eb22ecfa107e1ba", "is_disabled": 0, "rental_uris": {"ios": "https://dc.lft.to/lastmile_qr_scan", "android": "https://dc.lft.to/lastmile_qr_scan"}, "is_reserved": 0}, {"lon": -77.0183725, "bike_id": "4be45bafe8b89517f663f0acdec2cad6", "lat": 38.909321, "fusion_lon": 0.0, "fusion_lat": 0.0, "type": "electric_scooter", "name": "4be45bafe8b89517f663f0acdec2cad6", "is_disabled": 0, "rental_uris": {"ios": "https://dc.lft.to/lastmile_qr_scan", "android": "https://dc.lft.to/lastmile_qr_scan"}, "is_reserved": 0}, {"lon": -77.01701616666666, "bike_id": "b23fafc71444994be0f2b2291c9ec039", "lat": 38.90455333333333, "fusion_lon": 0.0, "fusion_lat": 0.0, "type": "electric_scooter", "name": "b23fafc71444994be0f2b2291c9ec039", "is_disabled": 0, "rental_uris": {"ios": "https://dc.lft.to/lastmile_qr_scan", "android": "https://dc.lft.to/lastmile_qr_scan"}, "is_reserved": 0}, {"lon": -77.03829266666666, "bike_id": "683f29517a6ec6ac2b66f5bbe1ffb39c", "lat": 38.906721833333336, "fusion_lon": 0.0, "fusion_lat": 0.0, "type": "electric_scooter", "name": "683f29517a6ec6ac2b66f5bbe1ffb39c", "is_disabled": 0, "rental_uris": {"ios": "https://dc.lft.to/lastmile_qr_scan", "android": "https://dc.lft.to/lastmile_qr_scan"}, "is_reserved": 0}, {"lon": -76.98888983333333, "bike_id": "eab6b24e15c1e83a61461921d0857a21", "lat": 38.91340116666667, "fusion_lon": 0.0, "fusion_lat": 0.0, "type": "electric_scooter", "name": "eab6b24e15c1e83a61461921d0857a21", "is_disabled": 0, "rental_uris": {"ios": "https://dc.lft.to/lastmile_qr_scan", "android": "https://dc.lft.to/lastmile_qr_scan"}, "is_reserved": 0}, {"lon": -77.05912283333333, "bike_id": "6ca21287e93a7935fa320174bdd526da", "lat": 38.86275, "fusion_lon": 0.0, "fusion_lat": 0.0, "type": "electric_scooter", "name": "6ca21287e93a7935fa320174bdd526da", "is_disabled": 0, "rental_uris": {"ios": "https://dc.lft.to/lastmile_qr_scan", "android": "https://dc.lft.to/lastmile_qr_scan"}, "is_reserved": 0}, {"lon": -77.008446, "bike_id": "a70f5382c9927d5b0cc72e1f4b814055", "lat": 38.9162425, "fusion_lon": 0.0, "fusion_lat": 0.0, "type": "electric_scooter", "name": "a70f5382c9927d5b0cc72e1f4b814055", "is_disabled": 0, "rental_uris": {"ios": "https://dc.lft.to/lastmile_qr_scan", "android": "https://dc.lft.to/lastmile_qr_scan"}, "is_reserved": 0}, {"lon": -77.00540916666667, "bike_id": "49d42e2b5579ecac7406c7fe34dcf96b", "lat": 38.90035483333333, "fusion_lon": 0.0, "fusion_lat": 0.0, "type": "electric_scooter", "name": "49d42e2b5579ecac7406c7fe34dcf96b", "is_disabled": 0, "rental_uris": {"ios": "https://dc.lft.to/lastmile_qr_scan", "android": "https://dc.lft.to/lastmile_qr_scan"}, "is_reserved": 0}, {"lon": -77.044196, "bike_id": "6da5a38309de815f345a1a6565aed014", "lat": 38.917558166666666, "fusion_lon": 0.0, "fusion_lat": 0.0, "type": "electric_scooter", "name": "6da5a38309de815f345a1a6565aed014", "is_disabled": 0, "rental_uris": {"ios": "https://dc.lft.to/lastmile_qr_scan", "android": "https://dc.lft.to/lastmile_qr_scan"}, "is_reserved": 0}, {"lon": -77.05325916666666, "bike_id": "07a0c820401717d7e438b1fc323f2d9b", "lat": 38.901994, "fusion_lon": 0.0, "fusion_lat": 0.0, "type": "electric_scooter", "name": "07a0c820401717d7e438b1fc323f2d9b", "is_disabled": 0, "rental_uris": {"ios": "https://dc.lft.to/lastmile_qr_scan", "android": "https://dc.lft.to/lastmile_qr_scan"}, "is_reserved": 0}, {"lon": -77.03445333333333, "bike_id": "b19293e93336acfb70b7767ec2366e20", "lat": 38.90978533333333, "fusion_lon": 0.0, "fusion_lat": 0.0, "type": "electric_scooter", "name": "b19293e93336acfb70b7767ec2366e20", "is_disabled": 0, "rental_uris": {"ios": "https://dc.lft.to/lastmile_qr_scan", "android": "https://dc.lft.to/lastmile_qr_scan"}, "is_reserved": 0}, {"lon": -77.02525, "bike_id": "014edddce5e6af84da1edb94bbc52151", "lat": 38.905530166666665, "fusion_lon": 0.0, "fusion_lat": 0.0, "type": "electric_scooter", "name": "014edddce5e6af84da1edb94bbc52151", "is_disabled": 0, "rental_uris": {"ios": "https://dc.lft.to/lastmile_qr_scan", "android": "https://dc.lft.to/lastmile_qr_scan"}, "is_reserved": 0}, {"lon": -77.03849366666667, "bike_id": "e901569b2ac3975073691054a1a8fb9e", "lat": 38.91664733333333, "fusion_lon": 0.0, "fusion_lat": 0.0, "type": "electric_scooter", "name": "e901569b2ac3975073691054a1a8fb9e", "is_disabled": 0, "rental_uris": {"ios": "https://dc.lft.to/lastmile_qr_scan", "android": "https://dc.lft.to/lastmile_qr_scan"}, "is_reserved": 0}, {"lon": -77.03447416666667, "bike_id": "69399343b7c53a353fb5f772e67f80f3", "lat": 38.91492183333333, "fusion_lon": 0.0, "fusion_lat": 0.0, "type": "electric_scooter", "name": "69399343b7c53a353fb5f772e67f80f3", "is_disabled": 0, "rental_uris": {"ios": "https://dc.lft.to/lastmile_qr_scan", "android": "https://dc.lft.to/lastmile_qr_scan"}, "is_reserved": 0}, {"lon": -77.02229833333334, "bike_id": "66e4da7fdfc3fcef98ecf6543c814639", "lat": 38.89613583333333, "fusion_lon": 0.0, "fusion_lat": 0.0, "type": "electric_scooter", "name": "66e4da7fdfc3fcef98ecf6543c814639", "is_disabled": 0, "rental_uris": {"ios": "https://dc.lft.to/lastmile_qr_scan", "android": "https://dc.lft.to/lastmile_qr_scan"}, "is_reserved": 0}, {"lon": -76.9626065, "bike_id": "18156773d204f4af18ca964fb89b3443", "lat": 38.882444166666666, "fusion_lon": 0.0, "fusion_lat": 0.0, "type": "electric_bike", "name": "18156773d204f4af18ca964fb89b3443", "is_disabled": 0, "rental_uris": {"ios": "https://dc.lft.to/lastmile_qr_scan", "android": "https://dc.lft.to/lastmile_qr_scan"}, "is_reserved": 0}, {"lon": -77.0240315, "bike_id": "9827f88f08f4df6be54bf117c22f982d", "lat": 38.9199555, "fusion_lon": 0.0, "fusion_lat": 0.0, "type": "electric_scooter", "name": "9827f88f08f4df6be54bf117c22f982d", "is_disabled": 0, "rental_uris": {"ios": "https://dc.lft.to/lastmile_qr_scan", "android": "https://dc.lft.to/lastmile_qr_scan"}, "is_reserved": 0}, {"lon": -77.00658566666667, "bike_id": "45b8859aae04837d745c9e563613a43d", "lat": 38.94464083333333, "fusion_lon": 0.0, "fusion_lat": 0.0, "type": "electric_scooter", "name": "45b8859aae04837d745c9e563613a43d", "is_disabled": 0, "rental_uris": {"ios": "https://dc.lft.to/lastmile_qr_scan", "android": "https://dc.lft.to/lastmile_qr_scan"}, "is_reserved": 0}, {"lon": -77.031845, "bike_id": "1c734d36a5ad15b87f9a27c41cd47094", "lat": 38.936040166666665, "fusion_lon": 0.0, "fusion_lat": 0.0, "type": "electric_scooter", "name": "1c734d36a5ad15b87f9a27c41cd47094", "is_disabled": 0, "rental_uris": {"ios": "https://dc.lft.to/lastmile_qr_scan", "android": "https://dc.lft.to/lastmile_qr_scan"}, "is_reserved": 0}, {"lon": -77.03455316666667, "bike_id": "1cbfe9dc3f0f1b95cd70dfee982c2a57", "lat": 38.91008033333333, "fusion_lon": 0.0, "fusion_lat": 0.0, "type": "electric_scooter", "name": "1cbfe9dc3f0f1b95cd70dfee982c2a57", "is_disabled": 0, "rental_uris": {"ios": "https://dc.lft.to/lastmile_qr_scan", "android": "https://dc.lft.to/lastmile_qr_scan"}, "is_reserved": 0}, {"lon": -77.18562916666667, "bike_id": "da980dc5f0b808adb1ebe78a0c7bc198", "lat": 39.099773166666665, "fusion_lon": 0.0, "fusion_lat": 0.0, "type": "electric_bike", "name": "da980dc5f0b808adb1ebe78a0c7bc198", "is_disabled": 0, "rental_uris": {"ios": "https://dc.lft.to/lastmile_qr_scan", "android": "https://dc.lft.to/lastmile_qr_scan"}, "is_reserved": 0}, {"lon": -77.02638383333333, "bike_id": "1b5361970a5c98215b2c68d0aa5a3093", "lat": 38.902328, "fusion_lon": 0.0, "fusion_lat": 0.0, "type": "electric_scooter", "name": "1b5361970a5c98215b2c68d0aa5a3093", "is_disabled": 0, "rental_uris": {"ios": "https://dc.lft.to/lastmile_qr_scan", "android": "https://dc.lft.to/lastmile_qr_scan"}, "is_reserved": 0}, {"lon": -77.02904216666667, "bike_id": "f12f068059931dfbc74201300a631de0", "lat": 38.91684333333333, "fusion_lon": 0.0, "fusion_lat": 0.0, "type": "electric_scooter", "name": "f12f068059931dfbc74201300a631de0", "is_disabled": 0, "rental_uris": {"ios": "https://dc.lft.to/lastmile_qr_scan", "android": "https://dc.lft.to/lastmile_qr_scan"}, "is_reserved": 0}, {"lon": -76.98526733333334, "bike_id": "e895d7a0b442b5e0c67e7ef3020e4bae", "lat": 38.866847666666665, "fusion_lon": 0.0, "fusion_lat": 0.0, "type": "electric_scooter", "name": "e895d7a0b442b5e0c67e7ef3020e4bae", "is_disabled": 0, "rental_uris": {"ios": "https://dc.lft.to/lastmile_qr_scan", "android": "https://dc.lft.to/lastmile_qr_scan"}, "is_reserved": 0}, {"lon": -77.02974466666667, "bike_id": "8c827b25bfc6d38e05a13af4ff2a6067", "lat": 38.9166565, "fusion_lon": 0.0, "fusion_lat": 0.0, "type": "electric_scooter", "name": "8c827b25bfc6d38e05a13af4ff2a6067", "is_disabled": 0, "rental_uris": {"ios": "https://dc.lft.to/lastmile_qr_scan", "android": "https://dc.lft.to/lastmile_qr_scan"}, "is_reserved": 0}, {"lon": -77.01478383333334, "bike_id": "a7714bc8901da4f6d32990c9fd7e857d", "lat": 38.95868933333333, "fusion_lon": 0.0, "fusion_lat": 0.0, "type": "electric_scooter", "name": "a7714bc8901da4f6d32990c9fd7e857d", "is_disabled": 0, "rental_uris": {"ios": "https://dc.lft.to/lastmile_qr_scan", "android": "https://dc.lft.to/lastmile_qr_scan"}, "is_reserved": 0}, {"lon": -77.03447933333334, "bike_id": "3f74578eed70e7ac22addcffd4b8a8fd", "lat": 38.9360805, "fusion_lon": 0.0, "fusion_lat": 0.0, "type": "electric_scooter", "name": "3f74578eed70e7ac22addcffd4b8a8fd", "is_disabled": 0, "rental_uris": {"ios": "https://dc.lft.to/lastmile_qr_scan", "android": "https://dc.lft.to/lastmile_qr_scan"}, "is_reserved": 0}, {"lon": -77.07393216666667, "bike_id": "090cbeec421de41f3db560daee7de9bd", "lat": 38.96211016666667, "fusion_lon": 0.0, "fusion_lat": 0.0, "type": "electric_scooter", "name": "090cbeec421de41f3db560daee7de9bd", "is_disabled": 0, "rental_uris": {"ios": "https://dc.lft.to/lastmile_qr_scan", "android": "https://dc.lft.to/lastmile_qr_scan"}, "is_reserved": 0},