{"data": {"bikes": [{"type": "electric_scooter", "is_reserved": 0, "is_disabled": 0, "fusion_lat": 0.0, "name": "73cd661634fbacd8d9015479ac4a722d", "rental_uris": {"android": "https://dc.lft.to/lastmile_qr_scan", "ios": "https://dc.lft.to/lastmile_qr_scan"}, "fusion_lon": 0.0, "lat": 38.90198066666667, "lon": -77.02379933333333, "bike_id": "73cd661634fbacd8d9015479ac4a722d"}, {"type": "electric_scooter", "is_reserved": 0, "is_disabled": 0, "fusion_lat": 0.0, "name": "3e77c891862e0743cf0c6d01a83a2866", "rental_uris": {"android": "https://dc.lft.to/lastmile_qr_scan", "ios": "https://dc.lft.to/lastmile_qr_scan"}, "fusion_lon": 0.0, "lat": 38.9190645, "lon": -77.0463045, "bike_id": "3e77c891862e0743cf0c6d01a83a2866"}, {"type": "electric_scooter", "is_reserved": 0, "is_disabled": 0, "fusion_lat": 0.0, "name": "5d07bc303c3f29d2b98222c3a5f1143e", "rental_uris": {"android": "https://dc.lft.to/lastmile_qr_scan", "ios": "https://dc.lft.to/lastmile_qr_scan"}, "fusion_lon": 0.0, "lat": 38.876655666666665, "lon": -77.00406716666667, "bike_id": "5d07bc303c3f29d2b98222c3a5f1143e"}, {"type": "electric_scooter", "is_reserved": 0, "is_disabled": 0, "fusion_lat": 0.0, "name": "a96cca88f4e95e58a3c92920854da5bf", "rental_uris": {"android": "https://dc.lft.to/lastmile_qr_scan", "ios": "https://dc.lft.to/lastmile_qr_scan"}, "fusion_lon": 0.0, "lat": 38.912126666666666, "lon": -77.03841866666667, "bike_id": "a96cca88f4e95e58a3c92920854da5bf"}, {"type": "electric_scooter", "is_reserved": 0, "is_disabled": 0, "fusion_lat": 0.0, "name": "4450e5e08507f572d6065f9f031aaa9d", "rental_uris": {"android": "https://dc.lft.to/lastmile_qr_scan", "ios": "https://dc.lft.to/lastmile_qr_scan"}, "fusion_lon": 0.0, "lat": 38.863760666666664, "lon": -76.9906535, "bike_id": "4450e5e08507f572d6065f9f031aaa9d"}, {"type": "electric_scooter", "is_reserved": 0, "is_disabled": 0, "fusion_lat": 0.0, "name": "dbf36af02a90fa828bdf8a41403b2e51", "rental_uris": {"android": "https://dc.lft.to/lastmile_qr_scan", "ios": "https://dc.lft.to/lastmile_qr_scan"}, "fusion_lon": 0.0, "lat": 38.910282, "lon": -77.00758666666667, "bike_id": "dbf36af02a90fa828bdf8a41403b2e51"}, {"type": "electric_scooter", "is_reserved": 0, "is_disabled": 0, "fusion_lat": 0.0, "name": "bb4d8e4653778582a3fc68b4b177b6a2", "rental_uris": {"android": "https://dc.lft.to/lastmile_qr_scan", "ios": "https://dc.lft.to/lastmile_qr_scan"}, "fusion_lon": 0.0, "lat": 38.91805, "lon": -77.01017516666667, "bike_id": "bb4d8e4653778582a3fc68b4b177b6a2"}, {"type": "electric_scooter", "is_reserved": 0, "is_disabled": 0, "fusion_lat": 0.0, "name": "b2f17381697206e22a4e93f879c7652e", "rental_uris": {"android": "https://dc.lft.to/lastmile_qr_scan", "ios": "https://dc.lft.to/lastmile_qr_scan"}, "fusion_lon": 0.0, "lat": 38.939101, "lon": -77.0604425, "bike_id": "b2f17381697206e22a4e93f879c7652e"}, {"type": "electric_scooter", "is_reserved": 0, "is_disabled": 0, "fusion_lat": 0.0, "name": "93d98b2b28ace09b09a7b5bf40092437", "rental_uris": {"android": "https://dc.lft.to/lastmile_qr_scan", "ios": "https://dc.lft.to/lastmile_qr_scan"}, "fusion_lon": 0.0, "lat": 38.865246166666665, "lon": -76.99038016666667, "bike_id": "93d98b2b28ace09b09a7b5bf40092437"}, {"type": "electric_bike", "is_reserved": 0, "is_disabled": 0, "fusion_lat": 0.0, "name": "4fd9a16287c7c9ee3e7c2f3e968b1399", "rental_uris": {"android": "https://dc.lft.to/lastmile_qr_scan", "ios": "https://dc.lft.to/lastmile_qr_scan"}, "fusion_lon": 0.0, "lat": 38.97901516666667, "lon": -77.00434766666666, "bike_id": "4fd9a16287c7c9ee3e7c2f3e968b1399"}, {"type": "electric_scooter", "is_reserved": 0, "is_disabled": 0, "fusion_lat": 0.0, "name": "98362ee968817f3c528968c1c2a0f567", "rental_uris": {"android": "https://dc.lft.to/lastmile_qr_scan", "ios": "https://dc.lft.to/lastmile_qr_scan"}, "fusion_lon": 0.0, "lat": 38.9397825, "lon": -77.03140683333334, "bike_id": "98362ee968817f3c528968c1c2a0f567"}, {"type": "electric_bike", "is_reserved": 0, "is_disabled": 0, "fusion_lat": 0.0, "name": "f6de27b534d2fc79726a2898e95d9366", "rental_uris": {"android": "https://dc.lft.to/lastmile_qr_scan", "ios": "https://dc.lft.to/lastmile_qr_scan"}, "fusion_lon": 0.0, "lat": 38.85787716666667, "lon": -77.0996155, "bike_id": "f6de27b534d2fc79726a2898e95d9366"}, {"type": "electric_scooter", "is_reserved": 0, "is_disabled": 0, "fusion_lat": 0.0, "name": "712bda427edcb4387e33a6a386dc748d", "rental_uris": {"android": "https://dc.lft.to/lastmile_qr_scan", "ios": "https://dc.lft.to/lastmile_qr_scan"}, "fusion_lon": 0.0, "lat": 38.92607533333333, "lon": -77.03684833333334, "bike_id": "712bda427edcb4387e33a6a386dc748d"}, {"type": "electric_scooter", "is_reserved": 0, "is_disabled": 0, "fusion_lat": 0.0, "name": "dc4f1213402a5f32e8a7ecf10b2af303", "rental_uris": {"android": "https://dc.lft.to/lastmile_qr_scan", "ios": "https://dc.lft.to/lastmile_qr_scan"}, "fusion_lon": 0.0, "lat": 38.923299666666665, "lon": -77.03786566666666, "bike_id": "dc4f1213402a5f32e8a7ecf10b2af303"}, {"type": "electric_scooter", "is_reserved": 0, "is_disabled": 0, "fusion_lat": 0.0, "name": "83c716f02d30612560b66c0a82bc993c", "rental_uris": {"android": "https://dc.lft.to/lastmile_qr_scan", "ios": "https://dc.lft.to/lastmile_qr_scan"}, "fusion_lon": 0.0, "lat": 38.91106216666667, "lon": -77.0321305, "bike_id": "83c716f02d30612560b66c0a82bc993c"}, {"type": "electric_bike", "is_reserved": 0, "is_disabled": 0, "fusion_lat": 0.0, "name": "28d9cb8c93d777ac2c9785b05969012b", "rental_uris": {"android": "https://dc.lft.to/lastmile_qr_scan", "ios": "https://dc.lft.to/lastmile_qr_scan"}, "fusion_lon": 0.0, "lat": 38.9118315, "lon": -77.00272283333334, "bike_id": "28d9cb8c93d777ac2c9785b05969012b"}, {"type": "electric_scooter", "is_reserved": 0, "is_disabled": 0, "fusion_lat": 0.0, "name": "010eaeef1afda31fdf5fe0ca39274a6b", "rental_uris": {"android": "https://dc.lft.to/lastmile_qr_scan", "ios": "https://dc.lft.to/lastmile_qr_scan"}, "fusion_lon": 0.0, "lat": 38.9286645, "lon": -77.01387866666667, "bike_id": "010eaeef1afda31fdf5fe0ca39274a6b"}, {"type": "electric_scooter", "is_reserved": 0, "is_disabled": 0, "fusion_lat": 0.0, "name": "d193c3c681ea9648ace3d1a175a3dc3b", "rental_uris": {"android": "https://dc.lft.to/lastmile_qr_scan", "ios": "https://dc.lft.to/lastmile_qr_scan"}, "fusion_lon": 0.0, "lat": 38.8849395, "lon": -77.003455, "bike_id": "d193c3c681ea9648ace3d1a175a3dc3b"}, {"type": "electric_scooter", "is_reserved": 0, "is_disabled": 0, "fusion_lat": 0.0, "name": "28f70d07044ea1ccca189d3b026db094", "rental_uris": {"android": "https://dc.lft.to/lastmile_qr_scan", "ios": "https://dc.lft.to/lastmile_qr_scan"}, "fusion_lon": 0.0, "lat": 38.90411183333333, "lon": -77.02155166666667, "bike_id": "28f70d07044ea1ccca189d3b026db094"}, {"type": "electric_bike", "is_reserved": 0, "is_disabled": 0, "fusion_lat": 0.0, "name": "dda40922549dc62ab5ce6a92203e98b8", "rental_uris": {"android": "https://dc.lft.to/lastmile_qr_scan", "ios": "https://dc.lft.to/lastmile_qr_scan"}, "fusion_lon": 0.0, "lat": 38.855217, "lon": -76.98438866666666, "bike_id": "dda40922549dc62ab5ce6a92203e98b8"}, {"type": "electric_scooter", "is_reserved": 0, "is_disabled": 0, "fusion_lat": 0.0, "name": "053a676315f5866da6b9e547131b5aec", "rental_uris": {"android": "https://dc.lft.to/lastmile_qr_scan", "ios": "https://dc.lft.to/lastmile_qr_scan"}, "fusion_lon": 0.0, "lat": 38.904367666666666, "lon": -77.05855466666667, "bike_id": "053a676315f5866da6b9e547131b5aec"}, {"type": "electric_bike", "is_reserved": 0, "is_disabled": 0, "fusion_lat": 0.0, "name": "10ce2f5e53b3377dc3a9648b5cf92ccb", "rental_uris": {"android": "https://dc.lft.to/lastmile_qr_scan", "ios": "https://dc.lft.to/lastmile_qr_scan"}, "fusion_lon": 0.0, "lat": 38.9530895, "lon": -76.99887233333334, "bike_id": "10ce2f5e53b3377dc3a9648b5cf92ccb"}, {"type": "electric_scooter", "is_reserved": 0, "is_disabled": 0, "fusion_lat": 0.0, "name": "942df1c2049b0837852390acf9ab9036", "rental_uris": {"android": "https://dc.lft.to/lastmile_qr_scan", "ios": "https://dc.lft.to/lastmile_qr_scan"}, "fusion_lon": 0.0, "lat": 38.88997783333333, "lon": -76.95569533333334, "bike_id": "942df1c2049b0837852390acf9ab9036"}, {"type": "electric_scooter", "is_reserved": 0, "is_disabled": 0, "fusion_lat": 0.0, "name": "1d4a6de70c0dee10f0f6db3c619a115e", "rental_uris": {"android": "https://dc.lft.to/lastmile_qr_scan", "ios": "https://dc.lft.to/lastmile_qr_scan"}, "fusion_lon": 0.0, "lat": 38.887365, "lon": -77.00325683333334, "bike_id": "1d4a6de70c0dee10f0f6db3c619a115e"}, {"type": "electric_scooter", "is_reserved": 0, "is_disabled": 0, "fusion_lat": 0.0, "name": "6bc389ed658b3a9b51ca07832643b21e", "rental_uris": {"android": "https://dc.lft.to/lastmile_qr_scan", "ios": "https://dc.lft.to/lastmile_qr_scan"}, "fusion_lon": 0.0, "lat": 38.90257016666666, "lon": -77.04174766666667, "bike_id": "6bc389ed658b3a9b51ca07832643b21e"}, {"type": "electric_bike", "is_reserved": 0, "is_disabled": 0, "fusion_lat": 0.0, "name": "ef65348241b5ee548c27ac56a9fb95f7", "rental_uris": {"android": "https://dc.lft.to/lastmile_qr_scan", "ios": "https://dc.lft.to/lastmile_qr_scan"}, "fusion_lon": 0.0, "lat": 38.83722866666667, "lon": -76.99761633333334, "bike_id": "ef65348241b5ee548c27ac56a9fb95f7"}, {"type": "electric_scooter", "is_reserved": 0, "is_disabled": 0, "fusion_lat": 0.0, "name": "03554f9e8e67d50e118786796d0aa6ef", "rental_uris": {"android": "https://dc.lft.to/lastmile_qr_scan", "ios": "https://dc.lft.to/lastmile_qr_scan"}, "fusion_lon": 0.0, "lat": 38.89291883333333, "lon": -76.9985645, "bike_id": "03554f9e8e67d50e118786796d0aa6ef"}, {"type": "electric_scooter", "is_reserved": 0, "is_disabled": 0, "fusion_lat": 0.0, "name": "679398462a57af7c2efb9881643d8958", "rental_uris": {"android": "https://dc.lft.to/lastmile_qr_scan", "ios": "https://dc.lft.to/lastmile_qr_scan"}, "fusion_lon": 0.0, "lat": 38.898255666666664, "lon": -77.00737633333334, "bike_id": "679398462a57af7c2efb9881643d8958"}, {"type": "electric_scooter", "is_reserved": 0, "is_disabled": 0, "fusion_lat": 0.0, "name": "1fc001d2b05ea0041432c993edc0caf0", "rental_uris": {"android": "https://dc.lft.to/lastmile_qr_scan", "ios": "https://dc.lft.to/lastmile_qr_scan"}, "fusion_lon": 0.0, "lat": 38.93427833333333, "lon": -77.03997716666667, "bike_id": "1fc001d2b05ea0041432c993edc0caf0"}, {"type": "electric_scooter", "is_reserved": 0, "is_disabled": 0, "fusion_lat": 0.0, "name": "89bbd0011bd8947fd3c7d6bb11592e6b", "rental_uris": {"android": "https://dc.lft.to/lastmile_qr_scan", "ios": "https://dc.lft.to/lastmile_qr_scan"}, "fusion_lon": 0.0, "lat": 38.9257655, "lon": -77.03361933333333, "bike_id": "89bbd0011bd8947fd3c7d6bb11592e6b"}, {"type": "electric_scooter", "is_reserved": 0, "is_disabled": 0, "fusion_lat": 0.0, "name": "a91106081fe1e6fa25985a69f5831afc", "rental_uris": {"android": "https://dc.lft.to/lastmile_qr_scan", "ios": "https://dc.lft.to/lastmile_qr_scan"}, "fusion_lon": 0.0, "lat": 38.922570666666665, "lon": -77.03520416666667, "bike_id": "a91106081fe1e6fa25985a69f5831afc"}, {"type": "electric_scooter", "is_reserved": 0, "is_disabled": 0, "fusion_lat": 0.0, "name": "a0954b91034185c18ae7b78023ef6d0a", "rental_uris": {"android": "https://dc.lft.to/lastmile_qr_scan", "ios": "https://dc.lft.to/lastmile_qr_scan"}, "fusion_lon": 0.0, "lat": 38.879911, "lon": -77.02408983333333, "bike_id": "a0954b91034185c18ae7b78023ef6d0a"}, {"type": "electric_scooter", "is_reserved": 0, "is_disabled": 0, "fusion_lat": 0.0, "name": "59c94d91ec75526f6756580ea2559896", "rental_uris": {"android": "https://dc.lft.to/lastmile_qr_scan", "ios": "https://dc.lft.to/lastmile_qr_scan"}, "fusion_lon": 0.0, "lat": 38.84290566666667, "lon": -76.99948233333333, "bike_id": "59c94d91ec75526f6756580ea2559896"}, {"type": "electric_scooter", "is_reserved": 0, "is_disabled": 0, "fusion_lat": 0.0, "name": "4d28b4fce3095bdbaa4afa964cf69143", "rental_uris": {"android": "https://dc.lft.to/lastmile_qr_scan", "ios": "https://dc.lft.to/lastmile_qr_scan"}, "fusion_lon": 0.0, "lat": 38.9736845, "lon": -77.01864, "bike_id": "4d28b4fce3095bdbaa4afa964cf69143"}, {"type": "electric_scooter", "is_reserved": 0, "is_disabled": 0, "fusion_lat": 0.0, "name": "c303dfb90d87fcda7ba5e7bce575a794", "rental_uris": {"android": "https://dc.lft.to/lastmile_qr_scan", "ios": "https://dc.lft.to/lastmile_qr_scan"}, "fusion_lon": 0.0, "lat": 38.902134833333335, "lon": -77.02146183333333, "bike_id": "c303dfb90d87fcda7ba5e7bce575a794"}, {"type": "electric_scooter", "is_reserved": 0, "is_disabled": 0, "fusion_lat": 0.0, "name": "5991a05c8f8b80f14e9c238d5950af23", "rental_uris": {"android": "https://dc.lft.to/lastmile_qr_scan", "ios": "https://dc.lft.to/lastmile_qr_scan"}, "fusion_lon": 0.0, "lat": 38.919850333333336, "lon": -77.04153733333334, "bike_id": "5991a05c8f8b80f14e9c238d5950af23"}, {"type": "electric_scooter", "is_reserved": 0, "is_disabled": 0, "fusion_lat": 0.0, "name": "81fbd8b8a5241d5fb9869fc45c68738c", "rental_uris": {"android": "https://dc.lft.to/lastmile_qr_scan", "ios": "https://dc.lft.to/lastmile_qr_scan"}, "fusion_lon": 0.0, "lat": 38.86729166666667, "lon": -76.98784216666667, "bike_id": "81fbd8b8a5241d5fb9869fc45c68738c"}, {"type": "electric_scooter", "is_reserved": 0, "is_disabled": 0, "fusion_lat": 0.0, "name": "3c47bb6acb82e6996eef29ec48a427ed", "rental_uris": {"android": "https://dc.lft.to/lastmile_qr_scan", "ios": "https://dc.lft.to/lastmile_qr_scan"}, "fusion_lon": 0.0, "lat": 38.94050416666666, "lon": -77.09270883333333, "bike_id": "3c47bb6acb82e6996eef29ec48a427ed"}, {"type": "electric_scooter", "is_reserved": 0, "is_disabled": 0, "fusion_lat": 0.0, "name": "a0201dda3668ac7e7d410ff4e8fa5734", "rental_uris": {"android": "https://dc.lft.to/lastmile_qr_scan", "ios": "https://dc.lft.to/lastmile_qr_scan"}, "fusion_lon": 0.0, "lat": 38.91661366666666, "lon": -77.0066395, "bike_id": "a0201dda3668ac7e7d410ff4e8fa5734"}, {"type": "electric_scooter", "is_reserved": 0, "is_disabled": 0, "fusion_lat": 0.0, "name": "5747d9bbfd179a32562e1d0fe31ff0fb", "rental_uris": {"android": "https://dc.lft.to/lastmile_qr_scan", "ios": "https://dc.lft.to/lastmile_qr_scan"}, "fusion_lon": 0.0, "lat": 38.892245333333335, "lon": -77.04200266666666, "bike_id": "5747d9bbfd179a32562e1d0fe31ff0fb"}, {"type": "electric_scooter", "is_reserved": 0, "is_disabled": 0, "fusion_lat": 0.0, "name": "f051d974a2200278283698ea73dcef7b", "rental_uris": {"android": "https://dc.lft.to/lastmile_qr_scan", "ios": "https://dc.lft.to/lastmile_qr_scan"}, "fusion_lon": 0.0, "lat": 38.90377133333333, "lon": -77.03632733333333, "bike_id": "f051d974a2200278283698ea73dcef7b"}, {"type": "electric_scooter", "is_reserved": 0, "is_disabled": 0, "fusion_lat": 0.0, "name": "09093b0b6672d28f5aff6247a83310aa", "rental_uris": {"android": "https://dc.lft.to/lastmile_qr_scan", "ios": "https://dc.lft.to/lastmile_qr_scan"}, "fusion_lon": 0.0, "lat": 38.90580716666667, "lon": -77.04121, "bike_id": "09093b0b6672d28f5aff6247a83310aa"}, {"type": "electric_scooter", "is_reserved": 0, "is_disabled": 0, "fusion_lat": 0.0, "name": "412b1d07709f398ecbae8f1100237e25", "rental_uris": {"android": "https://dc.lft.to/lastmile_qr_scan", "ios": "https://dc.lft.to/lastmile_qr_scan"}, "fusion_lon": 0.0, "lat": 38.91618833333333, "lon": -77.03210433333334, "bike_id": "412b1d07709f398ecbae8f1100237e25"}, {"type": "electric_scooter", "is_reserved": 0, "is_disabled": 0, "fusion_lat": 0.0, "name": "b7074b9c1d95af2ab7d8edeac9fba94c", "rental_uris": {"android": "https://dc.lft.to/lastmile_qr_scan", "ios": "https://dc.lft.to/lastmile_qr_scan"}, "fusion_lon": 0.0, "lat": 38.8950305, "lon": -77.02300216666667, "bike_id": "b7074b9c1d95af2ab7d8edeac9fba94c"}, {"type": "electric_scooter", "is_reserved": 0, "is_disabled": 0, "fusion_lat": 0.0, "name": "b7d260ccceef9d6227b48f4c88ace340", "rental_uris": {"android": "https://dc.lft.to/lastmile_qr_scan", "ios": "https://dc.lft.to/lastmile_qr_scan"}, "fusion_lon": 0.0, "lat": 38.89344583333333, "lon": -76.949355, "bike_id": "b7d260ccceef9d6227b48f4c88ace340"}, {"type": "electric_scooter", "is_reserved": 0, "is_disabled": 0, "fusion_lat": 0.0, "name": "a6710c09d677f902199c11625cf86091", "rental_uris": {"android": "https://dc.lft.to/lastmile_qr_scan", "ios": "https://dc.lft.to/lastmile_qr_scan"}, "fusion_lon": 0.0, "lat": 38.921542333333335, "lon": -77.03380566666667, "bike_id": "a6710c09d677f902199c11625cf86091"}, {"type": "electric_bike", "is_reserved": 0, "is_disabled": 0, "fusion_lat": 0.0, "name": "1fc81d658b1d24c8807288b38fe5be3b", "rental_uris": {"android": "https://dc.lft.to/lastmile_qr_scan", "ios": "https://dc.lft.to/lastmile_qr_scan"}, "fusion_lon": 0.0, "lat": 38.873726166666664, "lon": -77.11800116666667, "bike_id": "1fc81d658b1d24c8807288b38fe5be3b"}, {"type": "electric_scooter", "is_reserved": 0, "is_disabled": 0, "fusion_lat": 0.0, "name": "7f26fdffcde53b34e5638f38b1e964e3", "rental_uris": {"android": "https://dc.lft.to/lastmile_qr_scan", "ios": "https://dc.lft.to/lastmile_qr_scan"}, "fusion_lon": 0.0, "lat": 38.94429733333333, "lon": -76.9920915, "bike_id": "7f26fdffcde53b34e5638f38b1e964e3"}, {"type": "electric_scooter", "is_reserved": 0, "is_disabled": 0, "fusion_lat": 0.0, "name": "1f185f10a9631eb53028d214602ae283", "rental_uris": {"android": "https://dc.lft.to/lastmile_qr_scan", "ios": "https://dc.lft.to/lastmile_qr_scan"}, "fusion_lon": 0.0, "lat": 38.934716, "lon": -77.01929916666667, "bike_id": "1f185f10a9631eb53028d214602ae283"}, {"type": "electric_scooter", "is_reserved": 0, "is_disabled": 0, "fusion_lat": 0.0, "name": "32d723480f05dd2854719d0bfaa2dbca", "rental_uris": {"android": "https://dc.lft.to/lastmile_qr_scan", "ios": "https://dc.lft.to/lastmile_qr_scan"}, "fusion_lon": 0.0, "lat": 38.88122533333333, "lon": -77.00098233333334, "bike_id": "32d723480f05dd2854719d0bfaa2dbca"}, {"type": "electric_scooter", "is_reserved": 0, "is_disabled": 0, "fusion_lat": 0.0, "name": "1a5a3d647d05813cd6ddb63f0ec1abe2", "rental_uris": {"android": "https://dc.lft.to/lastmile_qr_scan", "ios": "https://dc.lft.to/lastmile_qr_scan"}, "fusion_lon": 0.0, "lat": 38.902758, "lon": -77.03849, "bike_id": "1a5a3d647d05813cd6ddb63f0ec1abe2"}, {"type": "electric_scooter", "is_reserved": 0, "is_disabled": 0, "fusion_lat": 0.0, "name": "77cd911297d62ef0bfa9ddba82af2d33", "rental_uris": {"android": "https://dc.lft.to/lastmile_qr_scan", "ios": "https://dc.lft.to/lastmile_qr_scan"}, "fusion_lon": 0.0, "lat": 38.92527483333333, "lon": -77.0352035, "bike_id": "77cd911297d62ef0bfa9ddba82af2d33"}, {"type": "electric_scooter", "is_reserved": 0, "is_disabled": 0, "fusion_lat": 0.0, "name": "1ce1512ad431b9ae1453cb351da1c248", "rental_uris": {"android": "https://dc.lft.to/lastmile_qr_scan", "ios": "https://dc.lft.to/lastmile_qr_scan"}, "fusion_lon": 0.0, "lat": 38.89218533333333, "lon": -77.02222533333334, "bike_id": "1ce1512ad431b9ae1453cb351da1c248"}, {"type": "electric_scooter", "is_reserved": 0, "is_disabled": 0, "fusion_lat": 0.0, "name": "8365a42aa2f183f9a6062483d72eed2b", "rental_uris": {"android": "https://dc.lft.to/lastmile_qr_scan", "ios": "https://dc.lft.to/lastmile_qr_scan"}, "fusion_lon": 0.0, "lat": 38.88502583333333, "lon": -77.00567, "bike_id": "8365a42aa2f183f9a6062483d72eed2b"}, {"type": "electric_scooter", "is_reserved": 0, "is_disabled": 0, "fusion_lat": 0.0, "name": "ef36004652c32287eccdd072a58b2323", "rental_uris": {"android": "https://dc.lft.to/lastmile_qr_scan", "ios": "https://dc.lft.to/lastmile_qr_scan"}, "fusion_lon": 0.0, "lat": 38.92176716666667, "lon": -77.03238383333333, "bike_id": "ef36004652c32287eccdd072a58b2323"}, {"type": "electric_scooter", "is_reserved": 0, "is_disabled": 0, "fusion_lat": 0.0, "name": "4a3e27b510944e6542d87c4a0dea4de4", "rental_uris": {"android": "https://dc.lft.to/lastmile_qr_scan", "ios": "https://dc.lft.to/lastmile_qr_scan"}, "fusion_lon": 0.0, "lat": 38.919481166666664, "lon": -77.04147966666666, "bike_id": "4a3e27b510944e6542d87c4a0dea4de4"}, {"type": "electric_scooter", "is_reserved": 0, "is_disabled": 0, "fusion_lat": 0.0, "name": "7ac70fc9a755115dfa3c7aeb9a6c7b84", "rental_uris": {"android": "https://dc.lft.to/lastmile_qr_scan", "ios": "https://dc.lft.to/lastmile_qr_scan"}, "fusion_lon": 0.0, "lat": 38.89840016666667, "lon": -77.0395715, "bike_id": "7ac70fc9a755115dfa3c7aeb9a6c7b84"}, {"type": "electric_scooter", "is_reserved": 0, "is_disabled": 0, "fusion_lat": 0.0, "name": "9f5b66a2b5ee0391771e6c1674999f0e", "rental_uris": {"android": "https://dc.lft.to/lastmile_qr_scan", "ios": "https://dc.lft.to/lastmile_qr_scan"}, "fusion_lon": 0.0, "lat": 38.927636166666666, "lon": -77.02713966666667, "bike_id": "9f5b66a2b5ee0391771e6c1674999f0e"}, {"type": "electric_scooter", "is_reserved": 0, "is_disabled": 0, "fusion_lat": 0.0, "name": "369177cf984c8ce15e26d7455bc2a1c3", "rental_uris": {"android": "https://dc.lft.to/lastmile_qr_scan", "ios": "https://dc.lft.to/lastmile_qr_scan"}, "fusion_lon": 0.0, "lat": 38.91636733333333, "lon": -77.0315955, "bike_id": "369177cf984c8ce15e26d7455bc2a1c3"}, {"type": "electric_scooter", "is_reserved": 0, "is_disabled": 0, "fusion_lat": 0.0, "name": "f8083a091ce07f938dbabd02aebdf4d9", "rental_uris": {"android": "https://dc.lft.to/lastmile_qr_scan", "ios": "https://dc.lft.to/lastmile_qr_scan"}, "fusion_lon": 0.0, "lat": 38.903765, "lon": -77.04467666666666, "bike_id": "f8083a091ce07f938dbabd02aebdf4d9"}, {"type": "electric_scooter", "is_reserved": 0, "is_disabled": 0, "fusion_lat": 0.0, "name": "2eb0c20b091d9c74c156905b8cb38080", "rental_uris": {"android": "https://dc.lft.to/lastmile_qr_scan", "ios": "https://dc.lft.to/lastmile_qr_scan"}, "fusion_lon": 0.0, "lat": 38.95636916666667, "lon": -77.03303333333334, "bike_id": "2eb0c20b091d9c74c156905b8cb38080"}, {"type": "electric_scooter", "is_reserved": 0, "is_disabled": 0, "fusion_lat": 0.0, "name": "3b5f388d9efcfe1fd3e35f34097b159b", "rental_uris": {"android": "https://dc.lft.to/lastmile_qr_scan", "ios": "https://dc.lft.to/lastmile_qr_scan"}, "fusion_lon": 0.0, "lat": 38.873985166666664, "lon": -77.000361, "bike_id": "3b5f388d9efcfe1fd3e35f34097b159b"}, {"type": "electric_scooter", "is_reserved": 0, "is_disabled": 0, "fusion_lat": 0.0, "name": "c6e24db60ccc65db429747a0515fda31", "rental_uris": {"android": "https://dc.lft.to/lastmile_qr_scan", "ios": "https://dc.lft.to/lastmile_qr_scan"}, "fusion_lon": 0.0, "lat": 38.91702466666667, "lon": -77.007114, "bike_id": "c6e24db60ccc65db429747a0515fda31"}, {"type": "electric_bike", "is_reserved": 0, "is_disabled": 0, "fusion_lat": 0.0, "name": "4ada1f3160d9bef94cf231652a6c7a89", "rental_uris": {"android": "https://dc.lft.to/lastmile_qr_scan", "ios": "https://dc.lft.to/lastmile_qr_scan"}, "fusion_lon": 0.0, "lat": 38.864576, "lon": -76.94562216666667, "bike_id": "4ada1f3160d9bef94cf231652a6c7a89"}, {"type": "electric_bike", "is_reserved": 0, "is_disabled": 0, "fusion_lat": 0.0, "name": "da93a1ef638502531556d4d875b8d5b8", "rental_uris": {"android": "https://dc.lft.to/lastmile_qr_scan", "ios": "https://dc.lft.to/lastmile_qr_scan"}, "fusion_lon": 0.0, "lat": 38.871418, "lon": -76.93705266666667, "bike_id": "da93a1ef638502531556d4d875b8d5b8"}, {"type": "electric_scooter", "is_reserved": 0, "is_disabled": 0, "fusion_lat": 0.0, "name": "eb3e89aa13ca52a6b8a3f19d9af050c4", "rental_uris": {"android": "https://dc.lft.to/lastmile_qr_scan", "ios": "https://dc.lft.to/lastmile_qr_scan"}, "fusion_lon": 0.0, "lat": 38.923677166666664, "lon": -77.0191095, "bike_id": "eb3e89aa13ca52a6b8a3f19d9af050c4"}, {"type": "electric_scooter", "is_reserved": 0, "is_disabled": 0, "fusion_lat": 0.0, "name": "1ffc7245e0e8950a6b461f2475a1eb65", "rental_uris": {"android": "https://dc.lft.to/lastmile_qr_scan", "ios": "https://dc.lft.to/lastmile_qr_scan"}, "fusion_lon": 0.0, "lat": 38.9024055, "lon": -77.00202133333333, "bike_id": "1ffc7245e0e8950a6b461f2475a1eb65"}, {"type": "electric_scooter", "is_reserved": 0, "is_disabled": 0, "fusion_lat": 0.0, "name": "493fa891e50a2b254d56daaa8e6f4a5e", "rental_uris": {"android": "https://dc.lft.to/lastmile_qr_scan", "ios": "https://dc.lft.to/lastmile_qr_scan"}, "fusion_lon": 0.0, "lat": 38.9037645, "lon": -77.0468245, "bike_id": "493fa891e50a2b254d56daaa8e6f4a5e"}, {"type": "electric_scooter", "is_reserved": 0, "is_disabled": 0, "fusion_lat": 0.0, "name": "0d3ea40b2f05b454497da22c6b18f6f0", "rental_uris": {"android": "https://dc.lft.to/lastmile_qr_scan", "ios": "https://dc.lft.to/lastmile_qr_scan"}, "fusion_lon": 0.0, "lat": 38.8723135, "lon": -77.01207783333334, "bike_id": "0d3ea40b2f05b454497da22c6b18f6f0"}, {"type": "electric_scooter", "is_reserved": 0, "is_disabled": 0, "fusion_lat": 0.0, "name": "8e7f6e0e5155c6a0343b37788fad3373", "rental_uris": {"android": "https://dc.lft.to/lastmile_qr_scan", "ios": "https://dc.lft.to/lastmile_qr_scan"}, "fusion_lon": 0.0, "lat": 38.887419666666666, "lon": -77.02075766666667, "bike_id": "8e7f6e0e5155c6a0343b37788fad3373"}, {"type": "electric_scooter", "is_reserved": 0, "is_disabled": 0, "fusion_lat": 0.0, "name": "f0ccce454c9530723b2e959f94e82688", "rental_uris": {"android": "https://dc.lft.to/lastmile_qr_scan", "ios": "https://dc.lft.to/lastmile_qr_scan"}, "fusion_lon": 0.0, "lat": 38.93310983333333, "lon": -77.032828, "bike_id": "f0ccce454c9530723b2e959f94e82688"}, {"type": "electric_scooter", "is_reserved": 0, "is_disabled": 0, "fusion_lat": 0.0, "name": "7650fa236de9bf0b010fa269895a68cc", "rental_uris": {"android": "https://dc.lft.to/lastmile_qr_scan", "ios": "https://dc.lft.to/lastmile_qr_scan"}, "fusion_lon": 0.0, "lat": 38.916954833333335, "lon": -77.03627733333333, "bike_id": "7650fa236de9bf0b010fa269895a68cc"}, {"type": "electric_scooter", "is_reserved": 0, "is_disabled": 0, "fusion_lat": 0.0, "name": "1da22539cd55edd5c65e166e9c965f5d", "rental_uris": {"android": "https://dc.lft.to/lastmile_qr_scan", "ios": "https://dc.lft.to/lastmile_qr_scan"}, "fusion_lon": 0.0, "lat": 38.9190695, "lon": -77.04111033333334, "bike_id": "1da22539cd55edd5c65e166e9c965f5d"}, {"type": "electric_scooter", "is_reserved": 0, "is_disabled": 0, "fusion_lat": 0.0, "name": "ea13891bc11b1118f3eb8375856ac4f5", "rental_uris": {"android": "https://dc.lft.to/lastmile_qr_scan", "ios": "https://dc.lft.to/lastmile_qr_scan"}, "fusion_lon": 0.0, "lat": 38.90726266666667, "lon": -77.03992033333333, "bike_id": "ea13891bc11b1118f3eb8375856ac4f5"}, {"type": "electric_bike", "is_reserved": 0, "is_disabled": 0, "fusion_lat": 0.0, "name": "7639bca8d2d3608881133ed48ec7af0f", "rental_uris": {"android": "https://dc.lft.to/lastmile_qr_scan", "ios": "https://dc.lft.to/lastmile_qr_scan"}, "fusion_lon": 0.0, "lat": 38.90683633333333, "lon": -77.06785333333333, "bike_id": "7639bca8d2d3608881133ed48ec7af0f"}, {"type": "electric_scooter", "is_reserved": 0, "is_disabled": 0, "fusion_lat": 0.0, "name": "fe4bd84d441cb3a6b5bfaa2d4380e550", "rental_uris": {"android": "https://dc.lft.to/lastmile_qr_scan", "ios": "https://dc.lft.to/lastmile_qr_scan"}, "fusion_lon": 0.0, "lat": 38.896199833333334, "lon": -76.956402, "bike_id": "fe4bd84d441cb3a6b5bfaa2d4380e550"}, {"type": "electric_scooter", "is_reserved": 0, "is_disabled": 0, "fusion_lat": 0.0, "name": "f3a9a29884c06c0fae35c22a4587afdf", "rental_uris": {"android": "https://dc.lft.to/lastmile_qr_scan", "ios": "https://dc.lft.to/lastmile_qr_scan"}, "fusion_lon": 0.0, "lat": 38.930985166666666, "lon": -77.02395783333333, "bike_id": "f3a9a29884c06c0fae35c22a4587afdf"}, {"type": "electric_scooter", "is_reserved": 0, "is_disabled": 0, "fusion_lat": 0.0, "name": "b6397c1f25ab2506324c5deb4d674f99", "rental_uris": {"android": "https://dc.lft.to/lastmile_qr_scan", "ios": "https://dc.lft.to/lastmile_qr_scan"}, "fusion_lon": 0.0, "lat": 38.916076, "lon": -77.031626, "bike_id": "b6397c1f25ab2506324c5deb4d674f99"}, {"type": "electric_scooter", "is_reserved": 0, "is_disabled": 0, "fusion_lat": 0.0, "name": "9a2f3d1fa4ec6e72d44779c5f639f6bf", "rental_uris": {"android": "https://dc.lft.to/lastmile_qr_scan", "ios": "https://dc.lft.to/lastmile_qr_scan"}, "fusion_lon": 0.0, "lat": 38.89352316666667, "lon": -77.00334066666667, "bike_id": "9a2f3d1fa4ec6e72d44779c5f639f6bf"}, {"type": "electric_bike", "is_reserved": 0, "is_disabled": 0, "fusion_lat": 0.0, "name": "c672034723d4f77ad0943aa9faf07bc1", "rental_uris": {"android": "https://dc.lft.to/lastmile_qr_scan", "ios": "https://dc.lft.to/lastmile_qr_scan"}, "fusion_lon": 0.0, "lat": 38.94314516666667, "lon": -77.0675275, "bike_id": "c672034723d4f77ad0943aa9faf07bc1"}, {"type": "electric_scooter", "is_reserved": 0, "is_disabled": 0, "fusion_lat": 0.0, "name": "30e0d210abb1c9362e8b2b04ce49bbf1", "rental_uris": {"android": "https://dc.lft.to/lastmile_qr_scan", "ios": "https://dc.lft.to/lastmile_qr_scan"}, "fusion_lon": 0.0, "lat": 38.9032255, "lon": -76.97297833333333, "bike_id": "30e0d210abb1c9362e8b2b04ce49bbf1"}, {"type": "electric_scooter", "is_reserved": 0, "is_disabled": 0, "fusion_lat": 0.0, "name": "964dac0eb2131c7d2def09d3839135bf", "rental_uris": {"android": "https://dc.lft.to/lastmile_qr_scan", "ios": "https://dc.lft.to/lastmile_qr_scan"}, "fusion_lon": 0.0, "lat": 38.896884, "lon": -77.00499716666667, "bike_id": "964dac0eb2131c7d2def09d3839135bf"}, {"type": "electric_scooter", "is_reserved": 0, "is_disabled": 0, "fusion_lat": 0.0, "name": "09704de0ff7adb2679d71c499995b4a8", "rental_uris": {"android": "https://dc.lft.to/lastmile_qr_scan", "ios": "https://dc.lft.to/lastmile_qr_scan"}, "fusion_lon": 0.0, "lat": 38.93587083333333, "lon": -77.03520633333333, "bike_id": "09704de0ff7adb2679d71c499995b4a8"}, {"type": "electric_scooter", "is_reserved": 0, "is_disabled": 0, "fusion_lat": 0.0, "name": "12cbccfd0e423ef4adb8b813e5380135", "rental_uris": {"android": "https://dc.lft.to/lastmile_qr_scan", "ios": "https://dc.lft.to/lastmile_qr_scan"}, "fusion_lon": 0.0, "lat": 38.922495166666664, "lon": -77.04128066666667, "bike_id": "12cbccfd0e423ef4adb8b813e5380135"}, {"type": "electric_scooter", "is_reserved": 0, "is_disabled": 0, "fusion_lat": 0.0, "name": "075225ca56422ffa7dd887e1350bd6b8", "rental_uris": {"android": "https://dc.lft.to/lastmile_qr_scan", "ios": "https://dc.lft.to/lastmile_qr_scan"}, "fusion_lon": 0.0, "lat": 38.913383833333334, "lon": -77.0320395, "bike_id": "075225ca56422ffa7dd887e1350bd6b8"}, {"type": "electric_scooter", "is_reserved": 0, "is_disabled": 0, "fusion_lat": 0.0, "name": "1378db9726a941041efb5fd9f7ccfd79", "rental_uris": {"android": "https://dc.lft.to/lastmile_qr_scan", "ios": "https://dc.lft.to/lastmile_qr_scan"}, "fusion_lon": 0.0, "lat": 38.89611983333333, "lon": -77.04241016666667, "bike_id": "1378db9726a941041efb5fd9f7ccfd79"}, {"type": "electric_scooter", "is_reserved": 0, "is_disabled": 0, "fusion_lat": 0.0, "name": "eaf8e8e1ee341b02878eb5d78645ac15", "rental_uris": {"android": "https://dc.lft.to/lastmile_qr_scan", "ios": "https://dc.lft.to/lastmile_qr_scan"}, "fusion_lon": 0.0, "lat": 38.916804666666664, "lon": -77.02292533333333, "bike_id": "eaf8e8e1ee341b02878eb5d78645ac15"}, {"type": "electric_scooter", "is_reserved": 0, "is_disabled": 0, "fusion_lat": 0.0, "name": "e2359b318507d307fc2845d693628912", "rental_uris": {"android": "https://dc.lft.to/lastmile_qr_scan", "ios": "https://dc.lft.to/lastmile_qr_scan"}, "fusion_lon": 0.0, "lat": 38.9214365, "lon": -77.03882333333334, "bike_id": "e2359b318507d307fc2845d693628912"}, {"type": "electric_scooter", "is_reserved": 0, "is_disabled": 0, "fusion_lat": 0.0, "name": "d6bf1804a19af4d2c318c7a7cec0eae7", "rental_uris": {"android": "https://dc.lft.to/lastmile_qr_scan", "ios": "https://dc.lft.to/lastmile_qr_scan"}, "fusion_lon": 0.0, "lat": 38.899971666666666, "lon": -76.99843283333334, "bike_id": "d6bf1804a19af4d2c318c7a7cec0eae7"}, {"type": "electric_scooter", "is_reserved": 0, "is_disabled": 0, "fusion_lat": 0.0, "name": "3756f5b328859c46e70678df38ed3497", "rental_uris": {"android": "https://dc.lft.to/lastmile_qr_scan", "ios": "https://dc.lft.to/lastmile_qr_scan"}, "fusion_lon": 0.0, "lat": 38.887092, "lon": -77.02828683333334, "bike_id": "3756f5b328859c46e70678df38ed3497"}, {"type": "electric_scooter", "is_reserved": 0, "is_disabled": 0, "fusion_lat": 0.0, "name": "a12ff422a9b6af3b3510f11dc830bbfe", "rental_uris": {"android": "https://dc.lft.to/lastmile_qr_scan", "ios": "https://dc.lft.to/lastmile_qr_scan"}, "fusion_lon": 0.0, "lat": 38.913745666666664, "lon": -77.00450716666667, "bike_id": "a12ff422a9b6af3b3510f11dc830bbfe"}, {"type": "electric_bike", "is_reserved": 0, "is_disabled": 0, "fusion_lat": 0.0, "name": "7b2ff1f1ff8cd6be67bf45f44ef4a861", "rental_uris": {"android": "https://dc.lft.to/lastmile_qr_scan", "ios": "https://dc.lft.to/lastmile_qr_scan"}, "fusion_lon": 0.0, "lat": 38.872337333333334, "lon": -77.01164516666667, "bike_id": "7b2ff1f1ff8cd6be67bf45f44ef4a861"}, {"type": "electric_scooter", "is_reserved": 0, "is_disabled": 0, "fusion_lat": 0.0, "name": "1fcd42d3ccbf8c0da94ce44afd6f4564", "rental_uris": {"android": "https://dc.lft.to/lastmile_qr_scan", "ios": "https://dc.lft.to/lastmile_qr_scan"}, "fusion_lon": 0.0, "lat": 38.89699733333333, "lon": -77.00643483333333, "bike_id": "1fcd42d3ccbf8c0da94ce44afd6f4564"}, {"type": "electric_scooter", "is_reserved": 0, "is_disabled": 0, "fusion_lat": 0.0, "name": "0fca68dd4a223c937557bd2c6fb28ae1", "rental_uris": {"android": "https://dc.lft.to/lastmile_qr_scan", "ios": "https://dc.lft.to/lastmile_qr_scan"}, "fusion_lon": 0.0, "lat": 38.950985333333335, "lon": -77.02338683333333, "bike_id": "0fca68dd4a223c937557bd2c6fb28ae1"}, {"type": "electric_bike", "is_reserved": 0, "is_disabled": 0, "fusion_lat": 0.0, "name": "549d2fcef4abf42f82c8b39a4979134b", "rental_uris": {"android": "https://dc.lft.to/lastmile_qr_scan", "ios": "https://dc.lft.to/lastmile_qr_scan"}, "fusion_lon": 0.0, "lat": 38.8616835, "lon": -77.13148, "bike_id": "549d2fcef4abf42f82c8b39a4979134b"}, {"type": "electric_scooter", "is_reserved": 0, "is_disabled": 0, "fusion_lat": 0.0, "name": "01bf23068d445b5342d93a11f708efe1", "rental_uris": {"android": "https://dc.lft.to/lastmile_qr_scan", "ios": "https://dc.lft.to/lastmile_qr_scan"}, "fusion_lon": 0.0, "lat": 38.89194116666667, "lon": -77.0245425, "bike_id": "01bf23068d445b5342d93a11f708efe1"}, {"type": "electric_scooter", "is_reserved": 0, "is_disabled": 0, "fusion_lat": 0.0, "name": "959fbc8c6b4ac3154a42f7050a478dc6", "rental_uris": {"android": "https://dc.lft.to/lastmile_qr_scan", "ios": "https://dc.lft.to/lastmile_qr_scan"}, "fusion_lon": 0.0, "lat": 38.9101095, "lon": -77.08897916666666, "bike_id": "959fbc8c6b4ac3154a42f7050a478dc6"}, {"type": "electric_scooter", "is_reserved": 0, "is_disabled": 0, "fusion_lat": 0.0, "name": "dfd144be1284b6d9bff13159401726d1", "rental_uris": {"android": "https://dc.lft.to/lastmile_qr_scan", "ios": "https://dc.lft.to/lastmile_qr_scan"}, "fusion_lon": 0.0, "lat": 38.865698333333334, "lon": -76.9895055, "bike_id": "dfd144be1284b6d9bff13159401726d1"}, {"type": "electric_scooter", "is_reserved": 0, "is_disabled": 0, "fusion_lat": 0.0, "name": "2015a81d6da39715aa398d9b540f1922", "rental_uris": {"android": "https://dc.lft.to/lastmile_qr_scan", "ios": "https://dc.lft.to/lastmile_qr_scan"}, "fusion_lon": 0.0, "lat": 38.89528166666667, "lon": -77.03209116666666, "bike_id": "2015a81d6da39715aa398d9b540f1922"}, {"type": "electric_bike", "is_reserved": 0, "is_disabled": 0, "fusion_lat": 0.0, "name": "a3b98babd0e0d203769f85697e980e2b", "rental_uris": {"android": "https://dc.lft.to/lastmile_qr_scan", "ios": "https://dc.lft.to/lastmile_qr_scan"}, "fusion_lon": 0.0, "lat": 38.9519565, "lon": -76.9672045, "bike_id": "a3b98babd0e0d203769f85697e980e2b"}, {"type": "electric_scooter", "is_reserved": 0, "is_disabled": 0, "fusion_lat": 0.0, "name": "9d2eb5e8edc88a7ae3e9ab68385ef519", "rental_uris": {"android": "https://dc.lft.to/lastmile_qr_scan", "ios": "https://dc.lft.to/lastmile_qr_scan"}, "fusion_lon": 0.0, "lat": 38.918435333333335, "lon": -77.044947, "bike_id": "9d2eb5e8edc88a7ae3e9ab68385ef519"}, {"type": "electric_bike", "is_reserved": 0, "is_disabled": 0, "fusion_lat": 0.0, "name": "c03e7a4d9254205eff57485c5c150c46", "rental_uris": {"android": "https://dc.lft.to/lastmile_qr_scan", "ios": "https://dc.lft.to/lastmile_qr_scan"}, "fusion_lon": 0.0, "lat": 38.8638825, "lon": -76.9898915, "bike_id": "c03e7a4d9254205eff57485c5c150c46"}, {"type": "electric_bike", "is_reserved": 0, "is_disabled": 0, "fusion_lat": 0.0, "name": "2958fee7ad5513ba80cb404ccca8507f", "rental_uris": {"android": "https://dc.lft.to/lastmile_qr_scan", "ios": "https://dc.lft.to/lastmile_qr_scan"}, "fusion_lon": 0.0, "lat": 39.0002465, "lon": -76.91076966666667, "bike_id": "2958fee7ad5513ba80cb404ccca8507f"}, {"type": "electric_scooter", "is_reserved": 0, "is_disabled": 0, "fusion_lat": 0.0, "name": "ab9cd870a7a45193c5aba9f00ac3a2bb", "rental_uris": {"android": "https://dc.lft.to/lastmile_qr_scan", "ios": "https://dc.lft.to/lastmile_qr_scan"}, "fusion_lon": 0.0, "lat": 38.90344066666667, "lon": -76.97566066666667, "bike_id": "ab9cd870a7a45193c5aba9f00ac3a2bb"}, {"type": "electric_scooter", "is_reserved": 0, "is_disabled": 0, "fusion_lat": 0.0, "name": "908ee031eebece8e3360b219582b996b", "rental_uris": {"android": "https://dc.lft.to/lastmile_qr_scan", "ios": "https://dc.lft.to/lastmile_qr_scan"}, "fusion_lon": 0.0, "lat": 38.9299205, "lon": -77.05508866666666, "bike_id": "908ee031eebece8e3360b219582b996b"}, {"type": "electric_scooter", "is_reserved": 0, "is_disabled": 0, "fusion_lat": 0.0, "name": "22419788aa07ca57d278c9b2c7500960", "rental_uris": {"android": "https://dc.lft.to/lastmile_qr_scan", "ios": "https://dc.lft.to/lastmile_qr_scan"}, "fusion_lon": 0.0, "lat": 38.90377333333333, "lon": -77.01105466666667, "bike_id": "22419788aa07ca57d278c9b2c7500960"}, {"type": "electric_scooter", "is_reserved": 0, "is_disabled": 0, "fusion_lat": 0.0, "name": "9ef5798d7e17661c20d8c9f4869b2413", "rental_uris": {"android": "https://dc.lft.to/lastmile_qr_scan", "ios": "https://dc.lft.to/lastmile_qr_scan"}, "fusion_lon": 0.0, "lat": 38.933098, "lon": -77.03281533333333, "bike_id": "9ef5798d7e17661c20d8c9f4869b2413"}, {"type": "electric_scooter", "is_reserved": 0, "is_disabled": 0, "fusion_lat": 0.0, "name": "1ee905075aeef7dba8760c8372bcf0b5", "rental_uris": {"android": "https://dc.lft.to/lastmile_qr_scan", "ios": "https://dc.lft.to/lastmile_qr_scan"}, "fusion_lon": 0.0, "lat": 38.90684, "lon": -77.063558, "bike_id": "1ee905075aeef7dba8760c8372bcf0b5"}, {"type": "electric_scooter", "is_reserved": 0, "is_disabled": 0, "fusion_lat": 0.0, "name": "1bba2e6c942f4b7b06f2ee58472e358b", "rental_uris": {"android": "https://dc.lft.to/lastmile_qr_scan", "ios": "https://dc.lft.to/lastmile_qr_scan"}, "fusion_lon": 0.0, "lat": 38.91699883333333, "lon": -77.03772983333333, "bike_id": "1bba2e6c942f4b7b06f2ee58472e358b"}, {"type": "electric_scooter", "is_reserved": 0, "is_disabled": 0, "fusion_lat": 0.0, "name": "09559dddf98bfd3bb907f144c5f173e8", "rental_uris": {"android": "https://dc.lft.to/lastmile_qr_scan", "ios": "https://dc.lft.to/lastmile_qr_scan"}, "fusion_lon": 0.0, "lat": 38.91917983333333, "lon": -77.02502433333333, "bike_id": "09559dddf98bfd3bb907f144c5f173e8"}, {"type": "electric_scooter", "is_reserved": 0, "is_disabled": 0, "fusion_lat": 0.0, "name": "4f2fce9e7e53ec56f1b0aef6b591484c", "rental_uris": {"android": "https://dc.lft.to/lastmile_qr_scan", "ios": "https://dc.lft.to/lastmile_qr_scan"}, "fusion_lon": 0.0, "lat": 38.92282333333333, "lon": -77.03659283333333, "bike_id": "4f2fce9e7e53ec56f1b0aef6b591484c"}, {"type": "electric_scooter", "is_reserved": 0, "is_disabled": 0, "fusion_lat": 0.0, "name": "f29dabc6335a7c7f9621b6932155747c", "rental_uris": {"android": "https://dc.lft.to/lastmile_qr_scan", "ios": "https://dc.lft.to/lastmile_qr_scan"}, "fusion_lon": 0.0, "lat": 38.91552033333333, "lon": -77.03847, "bike_id": "f29dabc6335a7c7f9621b6932155747c"}, {"type": "electric_scooter", "is_reserved": 0, "is_disabled": 0, "fusion_lat": 0.0, "name": "d4ce2f4b41ddda263f96a72cbd088835", "rental_uris": {"android": "https://dc.lft.to/lastmile_qr_scan", "ios": "https://dc.lft.to/lastmile_qr_scan"}, "fusion_lon": 0.0, "lat": 38.9032315, "lon": -77.0376535, "bike_id": "d4ce2f4b41ddda263f96a72cbd088835"}, {"type": "electric_scooter", "is_reserved": 0, "is_disabled": 0, "fusion_lat": 0.0, "name": "b0427d3bcff7f2e9002bca50fdd14d9f", "rental_uris": {"android": "https://dc.lft.to/lastmile_qr_scan", "ios": "https://dc.lft.to/lastmile_qr_scan"}, "fusion_lon": 0.0, "lat": 38.86042916666667, "lon": -77.0577415, "bike_id": "b0427d3bcff7f2e9002bca50fdd14d9f"}, {"type": "electric_scooter", "is_reserved": 0, "is_disabled": 0, "fusion_lat": 0.0, "name": "196300ac6474390dbe585b9442b1c2a1", "rental_uris": {"android": "https://dc.lft.to/lastmile_qr_scan", "ios": "https://dc.lft.to/lastmile_qr_scan"}, "fusion_lon": 0.0, "lat": 38.9050815, "lon": -77.04764083333333, "bike_id": "196300ac6474390dbe585b9442b1c2a1"}, {"type": "electric_scooter", "is_reserved": 0, "is_disabled": 0, "fusion_lat": 0.0, "name": "6b8feb725d5f1770542882742a78bc2d", "rental_uris": {"android": "https://dc.lft.to/lastmile_qr_scan", "ios": "https://dc.lft.to/lastmile_qr_scan"}, "fusion_lon": 0.0, "lat": 38.89488816666667, "lon": -77.0217375, "bike_id": "6b8feb725d5f1770542882742a78bc2d"}, {"type": "electric_scooter", "is_reserved": 0, "is_disabled": 0, "fusion_lat": 0.0, "name": "bf9e967865704a993168e1d994fcf57d", "rental_uris": {"android": "https://dc.lft.to/lastmile_qr_scan", "ios": "https://dc.lft.to/lastmile_qr_scan"}, "fusion_lon": 0.0, "lat": 38.9187, "lon": -77.04255266666667, "bike_id": "bf9e967865704a993168e1d994fcf57d"}, {"type": "electric_scooter", "is_reserved": 0, "is_disabled": 0, "fusion_lat": 0.0, "name": "e9fea1375458f0a8b8ba9b907c2f94f6", "rental_uris": {"android": "https://dc.lft.to/lastmile_qr_scan", "ios": "https://dc.lft.to/lastmile_qr_scan"}, "fusion_lon": 0.0, "lat": 38.927149666666665, "lon": -77.03634516666666, "bike_id": "e9fea1375458f0a8b8ba9b907c2f94f6"}, {"type": "electric_scooter", "is_reserved": 0, "is_disabled": 0, "fusion_lat": 0.0, "name": "5c4dffdeb8ec1737df0ce6ea63818e35", "rental_uris": {"android": "https://dc.lft.to/lastmile_qr_scan", "ios": "https://dc.lft.to/lastmile_qr_scan"}, "fusion_lon": 0.0, "lat": 38.906246833333334, "lon": -77.03976433333334, "bike_id": "5c4dffdeb8ec1737df0ce6ea63818e35"}, {"type": "electric_scooter", "is_reserved": 0, "is_disabled": 0, "fusion_lat": 0.0, "name": "2672bd08add8e6dcef6524411f43bf13", "rental_uris": {"android": "https://dc.lft.to/lastmile_qr_scan", "ios": "https://dc.lft.to/lastmile_qr_scan"}, "fusion_lon": 0.0, "lat": 38.912783, "lon": -77.04511416666666, "bike_id": "2672bd08add8e6dcef6524411f43bf13"}, {"type": "electric_scooter", "is_reserved": 0, "is_disabled": 0, "fusion_lat": 0.0, "name": "052541a1c62f953dc1e84041ffcf2b78", "rental_uris": {"android": "https://dc.lft.to/lastmile_qr_scan", "ios": "https://dc.lft.to/lastmile_qr_scan"}, "fusion_lon": 0.0, "lat": 38.90959083333333, "lon": -77.03163666666667, "bike_id": "052541a1c62f953dc1e84041ffcf2b78"}, {"type": "electric_scooter", "is_reserved": 0, "is_disabled": 0, "fusion_lat": 0.0, "name": "c10bcbf30eaa53b878e27e1ee1190692", "rental_uris": {"android": "https://dc.lft.to/lastmile_qr_scan", "ios": "https://dc.lft.to/lastmile_qr_scan"}, "fusion_lon": 0.0, "lat": 38.92040333333333, "lon": -76.97907716666667, "bike_id": "c10bcbf30eaa53b878e27e1ee1190692"}, {"type": "electric_bike", "is_reserved": 0, "is_disabled": 0, "fusion_lat": 0.0, "name": "f2b448fc925ddf00339706d27f47c4cd", "rental_uris": {"android": "https://dc.lft.to/lastmile_qr_scan", "ios": "https://dc.lft.to/lastmile_qr_scan"}, "fusion_lon": 0.0, "lat": 38.84589666666667, "lon": -77.07679516666667, "bike_id": "f2b448fc925ddf00339706d27f47c4cd"}, {"type": "electric_scooter", "is_reserved": 0, "is_disabled": 0, "fusion_lat": 0.0, "name": "17669d37f883d9db25531b761e31f751", "rental_uris": {"android": "https://dc.lft.to/lastmile_qr_scan", "ios": "https://dc.lft.to/lastmile_qr_scan"}, "fusion_lon": 0.0, "lat": 38.90573933333334, "lon": -77.022153, "bike_id": "17669d37f883d9db25531b761e31f751"}, {"type": "electric_scooter", "is_reserved": 0, "is_disabled": 0, "fusion_lat": 0.0, "name": "39798a1c556f2adcc60864f0ad0f6ae2", "rental_uris": {"android": "https://dc.lft.to/lastmile_qr_scan", "ios": "https://dc.lft.to/lastmile_qr_scan"}, "fusion_lon": 0.0, "lat": 38.909684166666665, "lon": -77.0217595, "bike_id": "39798a1c556f2adcc60864f0ad0f6ae2"}, {"type": "electric_scooter", "is_reserved": 0, "is_disabled": 0, "fusion_lat": 0.0, "name": "c76c739d14f76bb173d4ae1431591408", "rental_uris": {"android": "https://dc.lft.to/lastmile_qr_scan", "ios": "https://dc.lft.to/lastmile_qr_scan"}, "fusion_lon": 0.0, "lat": 38.92343133333333, "lon": -77.0507925, "bike_id": "c76c739d14f76bb173d4ae1431591408"}, {"type": "electric_bike", "is_reserved": 0, "is_disabled": 0, "fusion_lat": 0.0, "name": "300d6a2ebaad394bdd4b1cbdfbf9d82f", "rental_uris": {"android": "https://dc.lft.to/lastmile_qr_scan", "ios": "https://dc.lft.to/lastmile_qr_scan"}, "fusion_lon": 0.0, "lat": 38.96607066666667, "lon": -77.036464, "bike_id": "300d6a2ebaad394bdd4b1cbdfbf9d82f"}, {"type": "electric_scooter", "is_reserved": 0, "is_disabled": 0, "fusion_lat": 0.0, "name": "70f5b378952a5d09d69d74cb3b8a202f", "rental_uris": {"android": "https://dc.lft.to/lastmile_qr_scan", "ios": "https://dc.lft.to/lastmile_qr_scan"}, "fusion_lon": 0.0, "lat": 38.896116, "lon": -77.04501916666666, "bike_id": "70f5b378952a5d09d69d74cb3b8a202f"}, {"type": "electric_scooter", "is_reserved": 0, "is_disabled": 0, "fusion_lat": 0.0, "name": "40fa6081c5524907b6093f0cd026c0a8", "rental_uris": {"android": "https://dc.lft.to/lastmile_qr_scan", "ios": "https://dc.lft.to/lastmile_qr_scan"}, "fusion_lon": 0.0, "lat": 38.866201833333335, "lon": -76.9866645, "bike_id": "40fa6081c5524907b6093f0cd026c0a8"}, {"type": "electric_scooter", "is_reserved": 0, "is_disabled": 0, "fusion_lat": 0.0, "name": "ef9534c93220eb52a9abb9bc040ec742", "rental_uris": {"android": "https://dc.lft.to/lastmile_qr_scan", "ios": "https://dc.lft.to/lastmile_qr_scan"}, "fusion_lon": 0.0, "lat": 38.90531283333333, "lon": -77.04461133333334, "bike_id": "ef9534c93220eb52a9abb9bc040ec742"}, {"type": "electric_scooter", "is_reserved": 0, "is_disabled": 0, "fusion_lat": 0.0, "name": "eaa894ffb092274332154a532f2ac2bf", "rental_uris": {"android": "https://dc.lft.to/lastmile_qr_scan", "ios": "https://dc.lft.to/lastmile_qr_scan"}, "fusion_lon": 0.0, "lat": 38.93390633333333, "lon": -77.03580866666667, "bike_id": "eaa894ffb092274332154a532f2ac2bf"}, {"type": "electric_scooter", "is_reserved": 0, "is_disabled": 0, "fusion_lat": 0.0, "name": "694cd7365b06ff234f21e9634286d79c", "rental_uris": {"android": "https://dc.lft.to/lastmile_qr_scan", "ios": "https://dc.lft.to/lastmile_qr_scan"}, "fusion_lon": 0.0, "lat": 38.923057, "lon": -77.03960166666667, "bike_id": "694cd7365b06ff234f21e9634286d79c"}, {"type": "electric_scooter", "is_reserved": 0, "is_disabled": 0, "fusion_lat": 0.0, "name": "dcd2c4c2219d1d6e3bb2389dfce80a5a", "rental_uris": {"android": "https://dc.lft.to/lastmile_qr_scan", "ios": "https://dc.lft.to/lastmile_qr_scan"}, "fusion_lon": 0.0, "lat": 38.91048766666667, "lon": -77.01512333333334, "bike_id": "dcd2c4c2219d1d6e3bb2389dfce80a5a"}, {"type": "electric_scooter", "is_reserved": 0, "is_disabled": 0, "fusion_lat": 0.0, "name": "8b5fa14a15e72e81e667668345f90b44", "rental_uris": {"android": "https://dc.lft.to/lastmile_qr_scan", "ios": "https://dc.lft.to/lastmile_qr_scan"}, "fusion_lon": 0.0, "lat": 38.899187, "lon": -76.93382716666666, "bike_id": "8b5fa14a15e72e81e667668345f90b44"}, {"type": "electric_scooter", "is_reserved": 0, "is_disabled": 0, "fusion_lat": 0.0, "name": "e3f73a3d359ec17552917d12357aa1f4", "rental_uris": {"android": "https://dc.lft.to/lastmile_qr_scan", "ios": "https://dc.lft.to/lastmile_qr_scan"}, "fusion_lon": 0.0, "lat": 38.93348566666667, "lon": -77.05869233333334, "bike_id": "e3f73a3d359ec17552917d12357aa1f4"}, {"type": "electric_scooter", "is_reserved": 0, "is_disabled": 0, "fusion_lat": 0.0, "name": "53e3eef99f53cc54a58e9fb9e1bef2b6", "rental_uris": {"android": "https://dc.lft.to/lastmile_qr_scan", "ios": "https://dc.lft.to/lastmile_qr_scan"}, "fusion_lon": 0.0, "lat": 38.93161766666667, "lon": -77.036292, "bike_id": "53e3eef99f53cc54a58e9fb9e1bef2b6"}, {"type": "electric_scooter", "is_reserved": 0, "is_disabled": 0, "fusion_lat": 0.0, "name": "547f0804ab88973eb687d9e4702db536", "rental_uris": {"android": "https://dc.lft.to/lastmile_qr_scan", "ios": "https://dc.lft.to/lastmile_qr_scan"}, "fusion_lon": 0.0, "lat": 38.89731183333333, "lon": -77.03167, "bike_id": "547f0804ab88973eb687d9e4702db536"}, {"type": "electric_scooter", "is_reserved": 0, "is_disabled": 0, "fusion_lat": 0.0, "name": "0dac6531e29ef3cbffd9600248497ecd", "rental_uris": {"android": "https://dc.lft.to/lastmile_qr_scan", "ios": "https://dc.lft.to/lastmile_qr_scan"}, "fusion_lon": 0.0, "lat": 38.898438, "lon": -77.02885433333333, "bike_id": "0dac6531e29ef3cbffd9600248497ecd"}, {"type": "electric_scooter", "is_reserved": 0, "is_disabled": 0, "fusion_lat": 0.0, "name": "a697eadc0c54c79aa96bc62fb204fdf1", "rental_uris": {"android": "https://dc.lft.to/lastmile_qr_scan", "ios": "https://dc.lft.to/lastmile_qr_scan"}, "fusion_lon": 0.0, "lat": 38.9002125, "lon": -77.01173533333333, "bike_id": "a697eadc0c54c79aa96bc62fb204fdf1"}, {"type": "electric_scooter", "is_reserved": 0, "is_disabled": 0, "fusion_lat": 0.0, "name": "d1c68f97628dcaa53b64b9746f7d6f2e", "rental_uris": {"android": "https://dc.lft.to/lastmile_qr_scan", "ios": "https://dc.lft.to/lastmile_qr_scan"}, "fusion_lon": 0.0, "lat": 38.9126805, "lon": -77.03869916666666, "bike_id": "d1c68f97628dcaa53b64b9746f7d6f2e"}, {"type": "electric_scooter", "is_reserved": 0, "is_disabled": 0, "fusion_lat": 0.0, "name": "c745ab80d2610da104302571b2444612", "rental_uris": {"android": "https://dc.lft.to/lastmile_qr_scan", "ios": "https://dc.lft.to/lastmile_qr_scan"}, "fusion_lon": 0.0, "lat": 38.9231435, "lon": -77.03804083333333, "bike_id": "c745ab80d2610da104302571b2444612"}, {"type": "electric_bike", "is_reserved": 0, "is_disabled": 0, "fusion_lat": 0.0, "name": "b05062e1515b0da455a5a1227b91a588", "rental_uris": {"android": "https://dc.lft.to/lastmile_qr_scan", "ios": "https://dc.lft.to/lastmile_qr_scan"}, "fusion_lon": 0.0, "lat": 38.89773733333333, "lon": -76.90443216666667, "bike_id": "b05062e1515b0da455a5a1227b91a588"}, {"type": "electric_scooter", "is_reserved": 0, "is_disabled": 0, "fusion_lat": 0.0, "name": "ef501641c3528f6405d747105be2e7f5", "rental_uris": {"android": "https://dc.lft.to/lastmile_qr_scan", "ios": "https://dc.lft.to/lastmile_qr_scan"}, "fusion_lon": 0.0, "lat": 38.917685166666665, "lon": -77.023165, "bike_id": "ef501641c3528f6405d747105be2e7f5"}, {"type": "electric_scooter", "is_reserved": 0, "is_disabled": 0, "fusion_lat": 0.0, "name": "7e570cd46440a67b285ebb495f281c84", "rental_uris": {"android": "https://dc.lft.to/lastmile_qr_scan", "ios": "https://dc.lft.to/lastmile_qr_scan"}, "fusion_lon": 0.0, "lat": 38.90026916666667, "lon": -77.008709, "bike_id": "7e570cd46440a67b285ebb495f281c84"}, {"type": "electric_bike", "is_reserved": 0, "is_disabled": 0, "fusion_lat": 0.0, "name": "56674e3bd6ef4e569c67c8b248a8aa96", "rental_uris": {"android": "https://dc.lft.to/lastmile_qr_scan", "ios": "https://dc.lft.to/lastmile_qr_scan"}, "fusion_lon": 0.0, "lat": 38.84275516666666, "lon": -76.9884675, "bike_id": "56674e3bd6ef4e569c67c8b248a8aa96"}, {"type": "electric_scooter", "is_reserved": 0, "is_disabled": 0, "fusion_lat": 0.0, "name": "f640f3677516dfc99b9af8e4dbeb8322", "rental_uris": {"android": "https://dc.lft.to/lastmile_qr_scan", "ios": "https://dc.lft.to/lastmile_qr_scan"}, "fusion_lon": 0.0, "lat": 38.88504183333333, "lon": -77.00569866666666, "bike_id": "f640f3677516dfc99b9af8e4dbeb8322"}, {"type": "electric_scooter", "is_reserved": 0, "is_disabled": 0, "fusion_lat": 0.0, "name": "2c4d8017dfa5c62e7958e438c8dbe411", "rental_uris": {"android": "https://dc.lft.to/lastmile_qr_scan", "ios": "https://dc.lft.to/lastmile_qr_scan"}, "fusion_lon": 0.0, "lat": 38.9443185, "lon": -77.06305833333333, "bike_id": "2c4d8017dfa5c62e7958e438c8dbe411"}, {"type": "electric_scooter", "is_reserved": 0, "is_disabled": 0, "fusion_lat": 0.0, "name": "87425465c82181afec8ba6793a7e8c6c", "rental_uris": {"android": "https://dc.lft.to/lastmile_qr_scan", "ios": "https://dc.lft.to/lastmile_qr_scan"}, "fusion_lon": 0.0, "lat": 38.9175395, "lon": -77.03860266666666, "bike_id": "87425465c82181afec8ba6793a7e8c6c"}, {"type": "electric_scooter", "is_reserved": 0, "is_disabled": 0, "fusion_lat": 0.0, "name": "882f1a582298edcab1efd85c48d938ca", "rental_uris": {"android": "https://dc.lft.to/lastmile_qr_scan", "ios": "https://dc.lft.to/lastmile_qr_scan"}, "fusion_lon": 0.0, "lat": 38.899037666666665, "lon": -77.03345533333334, "bike_id": "882f1a582298edcab1efd85c48d938ca"}, {"type": "electric_bike", "is_reserved": 0, "is_disabled": 0, "fusion_lat": 0.0, "name": "528614ad81a64fec44a24454afed2bd9", "rental_uris": {"android": "https://dc.lft.to/lastmile_qr_scan", "ios": "https://dc.lft.to/lastmile_qr_scan"}, "fusion_lon": 0.0, "lat": 38.95642766666667, "lon": -76.9388265, "bike_id": "528614ad81a64fec44a24454afed2bd9"}, {"type": "electric_scooter", "is_reserved": 0, "is_disabled": 0, "fusion_lat": 0.0, "name": "5dbbd61866e0aa43133f90814c9cb3b8", "rental_uris": {"android": "https://dc.lft.to/lastmile_qr_scan", "ios": "https://dc.lft.to/lastmile_qr_scan"}, "fusion_lon": 0.0, "lat": 38.91689016666667, "lon": -77.02203166666666, "bike_id": "5dbbd61866e0aa43133f90814c9cb3b8"}, {"type": "electric_scooter", "is_reserved": 0, "is_disabled": 0, "fusion_lat": 0.0, "name": "ae1ec8e222e586b79c484a233317e962", "rental_uris": {"android": "https://dc.lft.to/lastmile_qr_scan", "ios": "https://dc.lft.to/lastmile_qr_scan"}, "fusion_lon": 0.0, "lat": 38.892430833333336, "lon": -77.0281005, "bike_id": "ae1ec8e222e586b79c484a233317e962"}, {"type": "electric_scooter", "is_reserved": 0, "is_disabled": 0, "fusion_lat": 0.0, "name": "ad14d133b2bf72a08caa9c14eb801c3c", "rental_uris": {"android": "https://dc.lft.to/lastmile_qr_scan", "ios": "https://dc.lft.to/lastmile_qr_scan"}, "fusion_lon": 0.0, "lat": 38.86627983333333, "lon": -76.987153, "bike_id": "ad14d133b2bf72a08caa9c14eb801c3c"}, {"type": "electric_scooter", "is_reserved": 0, "is_disabled": 0, "fusion_lat": 0.0, "name": "2c31d35c0cf923542e9a68e288748620", "rental_uris": {"android": "https://dc.lft.to/lastmile_qr_scan", "ios": "https://dc.lft.to/lastmile_qr_scan"}, "fusion_lon": 0.0, "lat": 38.9211755, "lon": -77.03160433333333, "bike_id": "2c31d35c0cf923542e9a68e288748620"}, {"type": "electric_scooter", "is_reserved": 0, "is_disabled": 0, "fusion_lat": 0.0, "name": "b79b6e6b8d1aa109ff9920e200958cd4", "rental_uris": {"android": "https://dc.lft.to/lastmile_qr_scan", "ios": "https://dc.lft.to/lastmile_qr_scan"}, "fusion_lon": 0.0, "lat": 38.89663933333333, "lon": -76.98836633333333, "bike_id": "b79b6e6b8d1aa109ff9920e200958cd4"}, {"type": "electric_scooter", "is_reserved": 0, "is_disabled": 0, "fusion_lat": 0.0, "name": "3ab7d7f737d613513ed4df5403f6db3f", "rental_uris": {"android": "https://dc.lft.to/lastmile_qr_scan", "ios": "https://dc.lft.to/lastmile_qr_scan"}, "fusion_lon": 0.0, "lat": 38.895185833333336, "lon": -77.029382, "bike_id": "3ab7d7f737d613513ed4df5403f6db3f"}, {"type": "electric_scooter", "is_reserved": 0, "is_disabled": 0, "fusion_lat": 0.0, "name": "b0ee107c57723a54ce84c1f5ce491c9e", "rental_uris": {"android": "https://dc.lft.to/lastmile_qr_scan", "ios": "https://dc.lft.to/lastmile_qr_scan"}, "fusion_lon": 0.0, "lat": 38.905322, "lon": -77.0568145, "bike_id": "b0ee107c57723a54ce84c1f5ce491c9e"}, {"type": "electric_scooter", "is_reserved": 0, "is_disabled": 0, "fusion_lat": 0.0, "name": "aff50569b82a61aa1f3c1cf79679cb42", "rental_uris": {"android": "https://dc.lft.to/lastmile_qr_scan", "ios": "https://dc.lft.to/lastmile_qr_scan"}, "fusion_lon": 0.0, "lat": 38.900196666666666, "lon": -77.01216816666667, "bike_id": "aff50569b82a61aa1f3c1cf79679cb42"}, {"type": "electric_scooter", "is_reserved": 0, "is_disabled": 0, "fusion_lat": 0.0, "name": "c1a18ee9130d11345aa404802367b418", "rental_uris": {"android": "https://dc.lft.to/lastmile_qr_scan", "ios": "https://dc.lft.to/lastmile_qr_scan"}, "fusion_lon": 0.0, "lat": 38.929032166666666, "lon": -77.06422483333333, "bike_id": "c1a18ee9130d11345aa404802367b418"}, {"type": "electric_scooter", "is_reserved": 0, "is_disabled": 0, "fusion_lat": 0.0, "name": "03e35ae24922a40c8d7437045df8edb3", "rental_uris": {"android": "https://dc.lft.to/lastmile_qr_scan", "ios": "https://dc.lft.to/lastmile_qr_scan"}, "fusion_lon": 0.0, "lat": 38.902623166666665, "lon": -77.01753466666666, "bike_id": "03e35ae24922a40c8d7437045df8edb3"}, {"type": "electric_scooter", "is_reserved": 0, "is_disabled": 0, "fusion_lat": 0.0, "name": "3263fa9000035c536c6ee45ed87af0f6", "rental_uris": {"android": "https://dc.lft.to/lastmile_qr_scan", "ios": "https://dc.lft.to/lastmile_qr_scan"}, "fusion_lon": 0.0, "lat": 38.91467766666667, "lon": -77.03184433333334, "bike_id": "3263fa9000035c536c6ee45ed87af0f6"}, {"type": "electric_scooter", "is_reserved": 0, "is_disabled": 0, "fusion_lat": 0.0, "name": "b0070f8b5d0fc9723a1abccfacb05364", "rental_uris": {"android": "https://dc.lft.to/lastmile_qr_scan", "ios": "https://dc.lft.to/lastmile_qr_scan"}, "fusion_lon": 0.0, "lat": 38.90091016666667, "lon": -77.025313, "bike_id": "b0070f8b5d0fc9723a1abccfacb05364"}, {"type": "electric_bike", "is_reserved": 0, "is_disabled": 0, "fusion_lat": 0.0, "name": "5a1ebcba12c879d3192ceb6aa93bb07f", "rental_uris": {"android": "https://dc.lft.to/lastmile_qr_scan", "ios": "https://dc.lft.to/lastmile_qr_scan"}, "fusion_lon": 0.0, "lat": 38.9983455, "lon": -77.02907783333333, "bike_id": "5a1ebcba12c879d3192ceb6aa93bb07f"}, {"type": "electric_scooter", "is_reserved": 0, "is_disabled": 0, "fusion_lat": 0.0, "name": "9980648b8957c3e9dbb6a45ff926e534", "rental_uris": {"android": "https://dc.lft.to/lastmile_qr_scan", "ios": "https://dc.lft.to/lastmile_qr_scan"}, "fusion_lon": 0.0, "lat": 38.9221295, "lon": -77.03661283333334, "bike_id": "9980648b8957c3e9dbb6a45ff926e534"}, {"type": "electric_scooter", "is_reserved": 0, "is_disabled": 0, "fusion_lat": 0.0, "name": "03c1219ee9b99ae90625c745a931e7ad", "rental_uris": {"android": "https://dc.lft.to/lastmile_qr_scan", "ios": "https://dc.lft.to/lastmile_qr_scan"}, "fusion_lon": 0.0, "lat": 38.87197366666667, "lon": -77.00610433333334, "bike_id": "03c1219ee9b99ae90625c745a931e7ad"}, {"type": "electric_scooter", "is_reserved": 0, "is_disabled": 0, "fusion_lat": 0.0, "name": "878f97369e8e78680eb2b23b46934432", "rental_uris": {"android": "https://dc.lft.to/lastmile_qr_scan", "ios": "https://dc.lft.to/lastmile_qr_scan"}, "fusion_lon": 0.0, "lat": 38.928414, "lon": -77.01590883333333, "bike_id": "878f97369e8e78680eb2b23b46934432"}, {"type": "electric_scooter", "is_reserved": 0, "is_disabled": 0, "fusion_lat": 0.0, "name": "f69617078f17be53c30d2eaa4e693a40", "rental_uris": {"android": "https://dc.lft.to/lastmile_qr_scan", "ios": "https://dc.lft.to/lastmile_qr_scan"}, "fusion_lon": 0.0, "lat": 38.90549866666667, "lon": -77.04192133333333, "bike_id": "f69617078f17be53c30d2eaa4e693a40"}, {"type": "electric_bike", "is_reserved": 0, "is_disabled": 0, "fusion_lat": 0.0, "name": "7b3dda11c6ab3432fa5757bcdd5ce34e", "rental_uris": {"android": "https://dc.lft.to/lastmile_qr_scan", "ios": "https://dc.lft.to/lastmile_qr_scan"}, "fusion_lon": 0.0, "lat": 38.88715, "lon": -77.133033, "bike_id": "7b3dda11c6ab3432fa5757bcdd5ce34e"}, {"type": "electric_scooter", "is_reserved": 0, "is_disabled": 0, "fusion_lat": 0.0, "name": "75a8d83c1607a30226e594bdc96b0e59", "rental_uris": {"android": "https://dc.lft.to/lastmile_qr_scan", "ios": "https://dc.lft.to/lastmile_qr_scan"}, "fusion_lon": 0.0, "lat": 38.92846083333333, "lon": -77.03638933333333, "bike_id": "75a8d83c1607a30226e594bdc96b0e59"}, {"type": "electric_bike", "is_reserved": 0, "is_disabled": 0, "fusion_lat": 0.0, "name": "d10c0a940f4b81da37c615023c51dbaf", "rental_uris": {"android": "https://dc.lft.to/lastmile_qr_scan", "ios": "https://dc.lft.to/lastmile_qr_scan"}, "fusion_lon": 0.0, "lat": 38.88544666666667, "lon": -77.11786216666667, "bike_id": "d10c0a940f4b81da37c615023c51dbaf"}, {"type": "electric_scooter", "is_reserved": 0, "is_disabled": 0, "fusion_lat": 0.0, "name": "ba87deb5fc91c5f8dce56e137b251007", "rental_uris": {"android": "https://dc.lft.to/lastmile_qr_scan", "ios": "https://dc.lft.to/lastmile_qr_scan"}, "fusion_lon": 0.0, "lat": 38.901605833333335, "lon": -77.025648, "bike_id": "ba87deb5fc91c5f8dce56e137b251007"}, {"type": "electric_scooter", "is_reserved": 0, "is_disabled": 0, "fusion_lat": 0.0, "name": "75643809d591c71c1b5f3e050141151a", "rental_uris": {"android": "https://dc.lft.to/lastmile_qr_scan", "ios": "https://dc.lft.to/lastmile_qr_scan"}, "fusion_lon": 0.0, "lat": 38.89828983333334, "lon": -77.03310383333333, "bike_id": "75643809d591c71c1b5f3e050141151a"}, {"type": "electric_scooter", "is_reserved": 0, "is_disabled": 0, "fusion_lat": 0.0, "name": "2d53ea57e57ff0040f93b2756e8fe973", "rental_uris": {"android": "https://dc.lft.to/lastmile_qr_scan", "ios": "https://dc.lft.to/lastmile_qr_scan"}, "fusion_lon": 0.0, "lat": 38.880636333333335, "lon": -76.9321995, "bike_id": "2d53ea57e57ff0040f93b2756e8fe973"}, {"type": "electric_scooter", "is_reserved": 0, "is_disabled": 0, "fusion_lat": 0.0, "name": "c481fa04920772ebda7224bf0287adf3", "rental_uris": {"android": "https://dc.lft.to/lastmile_qr_scan", "ios": "https://dc.lft.to/lastmile_qr_scan"}, "fusion_lon": 0.0, "lat": 38.9182305, "lon": -77.02717466666667, "bike_id": "c481fa04920772ebda7224bf0287adf3"}, {"type": "electric_scooter", "is_reserved": 0, "is_disabled": 0, "fusion_lat": 0.0, "name": "f1532e9aa5c06e610069a63cb20603bd", "rental_uris": {"android": "https://dc.lft.to/lastmile_qr_scan", "ios": "https://dc.lft.to/lastmile_qr_scan"}, "fusion_lon": 0.0, "lat": 38.9343225, "lon": -76.965095, "bike_id": "f1532e9aa5c06e610069a63cb20603bd"}, {"type": "electric_scooter", "is_reserved": 0, "is_disabled": 0, "fusion_lat": 0.0, "name": "cb498e60bc8fa8f0353a31e579b9c06c", "rental_uris": {"android": "https://dc.lft.to/lastmile_qr_scan", "ios": "https://dc.lft.to/lastmile_qr_scan"}, "fusion_lon": 0.0, "lat": 38.92130083333333, "lon": -77.04415383333334, "bike_id": "cb498e60bc8fa8f0353a31e579b9c06c"}, {"type": "electric_scooter", "is_reserved": 0, "is_disabled": 0, "fusion_lat": 0.0, "name": "50c38960c129661f45dd73f4a1d66795", "rental_uris": {"android": "https://dc.lft.to/lastmile_qr_scan", "ios": "https://dc.lft.to/lastmile_qr_scan"}, "fusion_lon": 0.0, "lat": 38.957783666666664, "lon": -77.02464616666667, "bike_id": "50c38960c129661f45dd73f4a1d66795"}, {"type": "electric_bike", "is_reserved": 0, "is_disabled": 0, "fusion_lat": 0.0, "name": "38d3af480768f07b8bedaca0cd44543a", "rental_uris": {"android": "https://dc.lft.to/lastmile_qr_scan", "ios": "https://dc.lft.to/lastmile_qr_scan"}, "fusion_lon": 0.0, "lat": 38.9555425, "lon": -76.93547116666667, "bike_id": "38d3af480768f07b8bedaca0cd44543a"}, {"type": "electric_scooter", "is_reserved": 0, "is_disabled": 0, "fusion_lat": 0.0, "name": "dd372782461c6beb6d581b97c0762091", "rental_uris": {"android": "https://dc.lft.to/lastmile_qr_scan", "ios": "https://dc.lft.to/lastmile_qr_scan"}, "fusion_lon": 0.0, "lat": 38.842915166666664, "lon": -76.99952266666666, "bike_id": "dd372782461c6beb6d581b97c0762091"}, {"type": "electric_scooter", "is_reserved": 0, "is_disabled": 0, "fusion_lat": 0.0, "name": "d7b6e47c6b94210322ea6b4a5962a4a7", "rental_uris": {"android": "https://dc.lft.to/lastmile_qr_scan", "ios": "https://dc.lft.to/lastmile_qr_scan"}, "fusion_lon": 0.0, "lat": 38.899166, "lon": -76.93381683333334, "bike_id": "d7b6e47c6b94210322ea6b4a5962a4a7"}, {"type": "electric_scooter", "is_reserved": 0, "is_disabled": 0, "fusion_lat": 0.0, "name": "6fb9d34798ebe7bb74c4f32a1dfe98ce", "rental_uris": {"android": "https://dc.lft.to/lastmile_qr_scan", "ios": "https://dc.lft.to/lastmile_qr_scan"}, "fusion_lon": 0.0, "lat": 38.903279833333336, "lon": -77.066009, "bike_id": "6fb9d34798ebe7bb74c4f32a1dfe98ce"}, {"type": "electric_scooter", "is_reserved": 0, "is_disabled": 0, "fusion_lat": 0.0, "name": "961198c949f83a644a7ec6e6817528ad", "rental_uris": {"android": "https://dc.lft.to/lastmile_qr_scan", "ios": "https://dc.lft.to/lastmile_qr_scan"}, "fusion_lon": 0.0, "lat": 38.905340833333334, "lon": -77.04753916666667, "bike_id": "961198c949f83a644a7ec6e6817528ad"}, {"type": "electric_scooter", "is_reserved": 0, "is_disabled": 0, "fusion_lat": 0.0, "name": "ca1156392a7a9cbaeb92f12be1e0e145", "rental_uris": {"android": "https://dc.lft.to/lastmile_qr_scan", "ios": "https://dc.lft.to/lastmile_qr_scan"}, "fusion_lon": 0.0, "lat": 38.863457, "lon": -76.99000933333333, "bike_id": "ca1156392a7a9cbaeb92f12be1e0e145"}, {"type": "electric_scooter", "is_reserved": 0, "is_disabled": 0, "fusion_lat": 0.0, "name": "d5dd796710c36357f0d8563b804a9a85", "rental_uris": {"android": "https://dc.lft.to/lastmile_qr_scan", "ios": "https://dc.lft.to/lastmile_qr_scan"}, "fusion_lon": 0.0, "lat": 38.89851383333333, "lon": -77.0330295, "bike_id": "d5dd796710c36357f0d8563b804a9a85"}, {"type": "electric_scooter", "is_reserved": 0, "is_disabled": 0, "fusion_lat": 0.0, "name": "7b6a2250650618fdff396155398c7da0", "rental_uris": {"android": "https://dc.lft.to/lastmile_qr_scan", "ios": "https://dc.lft.to/lastmile_qr_scan"}, "fusion_lon": 0.0, "lat": 38.89222866666667, "lon": -77.04443866666666, "bike_id": "7b6a2250650618fdff396155398c7da0"}, {"type": "electric_scooter", "is_reserved": 0, "is_disabled": 0, "fusion_lat": 0.0, "name": "3dc1fa7ecb88da35f0bcf633f7215a3a", "rental_uris": {"android": "https://dc.lft.to/lastmile_qr_scan", "ios": "https://dc.lft.to/lastmile_qr_scan"}, "fusion_lon": 0.0, "lat": 38.915882333333336, "lon": -77.04985066666667, "bike_id": "3dc1fa7ecb88da35f0bcf633f7215a3a"}, {"type": "electric_scooter", "is_reserved": 0, "is_disabled": 0, "fusion_lat": 0.0, "name": "4fa7c458f055501e8c56c31c8f21f50b", "rental_uris": {"android": "https://dc.lft.to/lastmile_qr_scan", "ios": "https://dc.lft.to/lastmile_qr_scan"}, "fusion_lon": 0.0, "lat": 38.91697216666667, "lon": -77.03263383333334, "bike_id": "4fa7c458f055501e8c56c31c8f21f50b"}, {"type": "electric_scooter", "is_reserved": 0, "is_disabled": 0, "fusion_lat": 0.0, "name": "6c5cbe07a287921e4283f0b74f6e0d36", "rental_uris": {"android": "https://dc.lft.to/lastmile_qr_scan", "ios": "https://dc.lft.to/lastmile_qr_scan"}, "fusion_lon": 0.0, "lat": 38.923655, "lon": -77.0512865, "bike_id": "6c5cbe07a287921e4283f0b74f6e0d36"}, {"type": "electric_scooter", "is_reserved": 0, "is_disabled": 0, "fusion_lat": 0.0, "name": "1dd261043d4b83c7b5ccd92481083112", "rental_uris": {"android": "https://dc.lft.to/lastmile_qr_scan", "ios": "https://dc.lft.to/lastmile_qr_scan"}, "fusion_lon": 0.0, "lat": 38.9214335, "lon": -77.017922, "bike_id": "1dd261043d4b83c7b5ccd92481083112"}, {"type": "electric_scooter", "is_reserved": 0, "is_disabled": 0, "fusion_lat": 0.0, "name": "54317742427ef5524e33372814cc1430", "rental_uris": {"android": "https://dc.lft.to/lastmile_qr_scan", "ios": "https://dc.lft.to/lastmile_qr_scan"}, "fusion_lon": 0.0, "lat": 38.907304833333335, "lon": -77.03993866666667, "bike_id": "54317742427ef5524e33372814cc1430"}, {"type": "electric_scooter", "is_reserved": 0, "is_disabled": 0, "fusion_lat": 0.0, "name": "c630de5f41d14b00e42e5eccc1559efa", "rental_uris": {"android": "https://dc.lft.to/lastmile_qr_scan", "ios": "https://dc.lft.to/lastmile_qr_scan"}, "fusion_lon": 0.0, "lat": 38.89534833333333, "lon": -76.94888133333333, "bike_id": "c630de5f41d14b00e42e5eccc1559efa"}, {"type": "electric_scooter", "is_reserved": 0, "is_disabled": 0, "fusion_lat": 0.0, "name": "2c2413c047cb809c6ec48002f255a1ea", "rental_uris": {"android": "https://dc.lft.to/lastmile_qr_scan", "ios": "https://dc.lft.to/lastmile_qr_scan"}, "fusion_lon": 0.0, "lat": 38.927862, "lon": -77.03693333333334, "bike_id": "2c2413c047cb809c6ec48002f255a1ea"}, {"type": "electric_scooter", "is_reserved": 0, "is_disabled": 0, "fusion_lat": 0.0, "name": "4e6750497e0306871a24f9843dcb0817", "rental_uris": {"android": "https://dc.lft.to/lastmile_qr_scan", "ios": "https://dc.lft.to/lastmile_qr_scan"}, "fusion_lon": 0.0, "lat": 38.87245466666667, "lon": -76.97724916666667, "bike_id": "4e6750497e0306871a24f9843dcb0817"}, {"type": "electric_scooter", "is_reserved": 0, "is_disabled": 0, "fusion_lat": 0.0, "name": "67529bb0e66e515dd31d7e27372e17c0", "rental_uris": {"android": "https://dc.lft.to/lastmile_qr_scan", "ios": "https://dc.lft.to/lastmile_qr_scan"}, "fusion_lon": 0.0, "lat": 38.926569, "lon": -77.0372845, "bike_id": "67529bb0e66e515dd31d7e27372e17c0"}, {"type": "electric_scooter", "is_reserved": 0, "is_disabled": 0, "fusion_lat": 0.0, "name": "0637f108351efa1ecd3b260e342075f2", "rental_uris": {"android": "https://dc.lft.to/lastmile_qr_scan", "ios": "https://dc.lft.to/lastmile_qr_scan"}, "fusion_lon": 0.0, "lat": 38.854552166666664, "lon": -76.97231233333333, "bike_id": "0637f108351efa1ecd3b260e342075f2"}, {"type": "electric_scooter", "is_reserved": 0, "is_disabled": 0, "fusion_lat": 0.0, "name": "4651d0fd904ad6faf6445407481d4c71", "rental_uris": {"android": "https://dc.lft.to/lastmile_qr_scan", "ios": "https://dc.lft.to/lastmile_qr_scan"}, "fusion_lon": 0.0, "lat": 38.890442, "lon": -76.93767966666667, "bike_id": "4651d0fd904ad6faf6445407481d4c71"}, {"type": "electric_scooter", "is_reserved": 0, "is_disabled": 0, "fusion_lat": 0.0, "name": "c79eb206bbf185075f9a68b0902c17e3", "rental_uris": {"android": "https://dc.lft.to/lastmile_qr_scan", "ios": "https://dc.lft.to/lastmile_qr_scan"}, "fusion_lon": 0.0, "lat": 38.905531333333336, "lon": -77.046503, "bike_id": "c79eb206bbf185075f9a68b0902c17e3"}, {"type": "electric_scooter", "is_reserved": 0, "is_disabled": 0, "fusion_lat": 0.0, "name": "f8d6dacbf6a315a795b4637bbd511b48", "rental_uris": {"android": "https://dc.lft.to/lastmile_qr_scan", "ios": "https://dc.lft.to/lastmile_qr_scan"}, "fusion_lon": 0.0, "lat": 38.9167015, "lon": -77.02705366666666, "bike_id": "f8d6dacbf6a315a795b4637bbd511b48"}, {"type": "electric_scooter", "is_reserved": 0, "is_disabled": 0, "fusion_lat": 0.0, "name": "ee0cf72384e5a518dccc46f79f124d98", "rental_uris": {"android": "https://dc.lft.to/lastmile_qr_scan", "ios": "https://dc.lft.to/lastmile_qr_scan"}, "fusion_lon": 0.0, "lat": 38.905303833333335, "lon": -77.06530383333333, "bike_id": "ee0cf72384e5a518dccc46f79f124d98"}, {"type": "electric_scooter", "is_reserved": 0, "is_disabled": 0, "fusion_lat": 0.0, "name": "f36c83485328bb38f58318f3436d8595", "rental_uris": {"android": "https://dc.lft.to/lastmile_qr_scan", "ios": "https://dc.lft.to/lastmile_qr_scan"}, "fusion_lon": 0.0, "lat": 38.89453733333333, "lon": -77.04677416666667, "bike_id": "f36c83485328bb38f58318f3436d8595"}, {"type": "electric_scooter", "is_reserved": 0, "is_disabled": 0, "fusion_lat": 0.0, "name": "26ae1e81a0cb99fd14a74a284c193a48", "rental_uris": {"android": "https://dc.lft.to/lastmile_qr_scan", "ios": "https://dc.lft.to/lastmile_qr_scan"}, "fusion_lon": 0.0, "lat": 38.892365166666664, "lon": -77.02816716666666, "bike_id": "26ae1e81a0cb99fd14a74a284c193a48"}, {"type": "electric_bike", "is_reserved": 0, "is_disabled": 0, "fusion_lat": 0.0, "name": "dce0c0db5c86c2c2220cb4ed42c2af21", "rental_uris": {"android": "https://dc.lft.to/lastmile_qr_scan", "ios": "https://dc.lft.to/lastmile_qr_scan"}, "fusion_lon": 0.0, "lat": 38.857866, "lon": -77.09959316666666, "bike_id": "dce0c0db5c86c2c2220cb4ed42c2af21"}, {"type": "electric_scooter", "is_reserved": 0, "is_disabled": 0, "fusion_lat": 0.0, "name": "dc466b0982d4e159372d481cf9a3ae5f", "rental_uris": {"android": "https://dc.lft.to/lastmile_qr_scan", "ios": "https://dc.lft.to/lastmile_qr_scan"}, "fusion_lon": 0.0, "lat": 38.897578, "lon": -76.94185383333334, "bike_id": "dc466b0982d4e159372d481cf9a3ae5f"}, {"type": "electric_bike", "is_reserved": 0, "is_disabled": 0, "fusion_lat": 0.0, "name": "84ee139b2a7ce72ff76c66435d982454", "rental_uris": {"android": "https://dc.lft.to/lastmile_qr_scan", "ios": "https://dc.lft.to/lastmile_qr_scan"}, "fusion_lon": 0.0, "lat": 38.855148166666666, "lon": -76.98438233333333, "bike_id": "84ee139b2a7ce72ff76c66435d982454"}, {"type": "electric_scooter", "is_reserved": 0, "is_disabled": 0, "fusion_lat": 0.0, "name": "4c9402ca4e6b58e5e3a12c8c2ee528ad", "rental_uris": {"android": "https://dc.lft.to/lastmile_qr_scan", "ios": "https://dc.lft.to/lastmile_qr_scan"}, "fusion_lon": 0.0, "lat": 38.92587, "lon": -77.05060083333333, "bike_id": "4c9402ca4e6b58e5e3a12c8c2ee528ad"}, {"type": "electric_scooter", "is_reserved": 0, "is_disabled": 0, "fusion_lat": 0.0, "name": "2a8e725a15470dec4fb972d25cd37aaa", "rental_uris": {"android": "https://dc.lft.to/lastmile_qr_scan", "ios": "https://dc.lft.to/lastmile_qr_scan"}, "fusion_lon": 0.0, "lat": 38.908122, "lon": -77.03459966666667, "bike_id": "2a8e725a15470dec4fb972d25cd37aaa"}, {"type": "electric_scooter", "is_reserved": 0, "is_disabled": 0, "fusion_lat": 0.0, "name": "f3379b13140c5d429266d51eb4cb78ca", "rental_uris": {"android": "https://dc.lft.to/lastmile_qr_scan", "ios": "https://dc.lft.to/lastmile_qr_scan"}, "fusion_lon": 0.0, "lat": 38.90612383333333, "lon": -77.0435575, "bike_id": "f3379b13140c5d429266d51eb4cb78ca"}, {"type": "electric_scooter", "is_reserved": 0, "is_disabled": 0, "fusion_lat": 0.0, "name": "cfbf92bdfa2b97cbf1fc8804769e0222", "rental_uris": {"android": "https://dc.lft.to/lastmile_qr_scan", "ios": "https://dc.lft.to/lastmile_qr_scan"}, "fusion_lon": 0.0, "lat": 38.8843565, "lon": -76.9575875, "bike_id": "cfbf92bdfa2b97cbf1fc8804769e0222"}, {"type": "electric_scooter", "is_reserved": 0, "is_disabled": 0, "fusion_lat": 0.0, "name": "d8b9fd69d850f55104e3fca57f5b5657", "rental_uris": {"android": "https://dc.lft.to/lastmile_qr_scan", "ios": "https://dc.lft.to/lastmile_qr_scan"}, "fusion_lon": 0.0, "lat": 38.8976905, "lon": -77.03191083333333, "bike_id": "d8b9fd69d850f55104e3fca57f5b5657"}, {"type": "electric_scooter", "is_reserved": 0, "is_disabled": 0, "fusion_lat": 0.0, "name": "0a1273cea60d556098dad4cd95532e07", "rental_uris": {"android": "https://dc.lft.to/lastmile_qr_scan", "ios": "https://dc.lft.to/lastmile_qr_scan"}, "fusion_lon": 0.0, "lat": 38.91696666666667, "lon": -77.0326215, "bike_id": "0a1273cea60d556098dad4cd95532e07"}, {"type": "electric_scooter", "is_reserved": 0, "is_disabled": 0, "fusion_lat": 0.0, "name": "d2e391251988763bc0ca879573fe1f31", "rental_uris": {"android": "https://dc.lft.to/lastmile_qr_scan", "ios": "https://dc.lft.to/lastmile_qr_scan"}, "fusion_lon": 0.0, "lat": 38.90813333333333, "lon": -76.9986605, "bike_id": "d2e391251988763bc0ca879573fe1f31"}, {"type": "electric_scooter", "is_reserved": 0, "is_disabled": 0, "fusion_lat": 0.0, "name": "2f74c0fd0f45be572cb01e3c0a576a18", "rental_uris": {"android": "https://dc.lft.to/lastmile_qr_scan", "ios": "https://dc.lft.to/lastmile_qr_scan"}, "fusion_lon": 0.0, "lat": 38.905847333333334, "lon": -76.98622966666667, "bike_id": "2f74c0fd0f45be572cb01e3c0a576a18"}, {"type": "electric_scooter", "is_reserved": 0, "is_disabled": 0, "fusion_lat": 0.0, "name": "aaeb835cee65a731171784e8babbbd6e", "rental_uris": {"android": "https://dc.lft.to/lastmile_qr_scan", "ios": "https://dc.lft.to/lastmile_qr_scan"}, "fusion_lon": 0.0, "lat": 38.920668, "lon": -77.04548733333333, "bike_id": "aaeb835cee65a731171784e8babbbd6e"}, {"type": "electric_scooter", "is_reserved": 0, "is_disabled": 0, "fusion_lat": 0.0, "name": "489718a34b25c6ab4f4a2aad0a5818c0", "rental_uris": {"android": "https://dc.lft.to/lastmile_qr_scan", "ios": "https://dc.lft.to/lastmile_qr_scan"}, "fusion_lon": 0.0, "lat": 38.8858035, "lon": -77.0199545, "bike_id": "489718a34b25c6ab4f4a2aad0a5818c0"}, {"type": "electric_scooter", "is_reserved": 0, "is_disabled": 0, "fusion_lat": 0.0, "name": "e61ce0f1aeedf577e7878ed93ce7476c", "rental_uris": {"android": "https://dc.lft.to/lastmile_qr_scan", "ios": "https://dc.lft.to/lastmile_qr_scan"}, "fusion_lon": 0.0, "lat": 38.9196755, "lon": -77.04140483333333, "bike_id": "e61ce0f1aeedf577e7878ed93ce7476c"}, {"type": "electric_scooter", "is_reserved": 0, "is_disabled": 0, "fusion_lat": 0.0, "name": "707a325094d404c391d53d60fd72371e", "rental_uris": {"android": "https://dc.lft.to/lastmile_qr_scan", "ios": "https://dc.lft.to/lastmile_qr_scan"}, "fusion_lon": 0.0, "lat": 38.897316833333335, "lon": -77.0468245, "bike_id": "707a325094d404c391d53d60fd72371e"}, {"type": "electric_scooter", "is_reserved": 0, "is_disabled": 0, "fusion_lat": 0.0, "name": "33c3d00f092f0ef5aafcdbf48440de74", "rental_uris": {"android": "https://dc.lft.to/lastmile_qr_scan", "ios": "https://dc.lft.to/lastmile_qr_scan"}, "fusion_lon": 0.0, "lat": 38.920632, "lon": -77.031971, "bike_id": "33c3d00f092f0ef5aafcdbf48440de74"}, {"type": "electric_scooter", "is_reserved": 0, "is_disabled": 0, "fusion_lat": 0.0, "name": "ef8db20dae0690af539aaca675315b00", "rental_uris": {"android": "https://dc.lft.to/lastmile_qr_scan", "ios": "https://dc.lft.to/lastmile_qr_scan"}, "fusion_lon": 0.0, "lat": 38.926221166666664, "lon": -77.04219566666667, "bike_id": "ef8db20dae0690af539aaca675315b00"}, {"type": "electric_bike", "is_reserved": 0, "is_disabled": 0, "fusion_lat": 0.0, "name": "8dbdd5c1ecf015e7a7f54f9a9c096211", "rental_uris": {"android": "https://dc.lft.to/lastmile_qr_scan", "ios": "https://dc.lft.to/lastmile_qr_scan"}, "fusion_lon": 0.0, "lat": 38.90381716666667, "lon": -77.0612585, "bike_id": "8dbdd5c1ecf015e7a7f54f9a9c096211"}, {"type": "electric_bike", "is_reserved": 0, "is_disabled": 0, "fusion_lat": 0.0, "name": "77a08f4ab87f8352ac5fed2800df5ef0", "rental_uris": {"android": "https://dc.lft.to/lastmile_qr_scan", "ios": "https://dc.lft.to/lastmile_qr_scan"}, "fusion_lon": 0.0, "lat": 38.89317966666667, "lon": -76.92110416666667, "bike_id": "77a08f4ab87f8352ac5fed2800df5ef0"}, {"type": "electric_scooter", "is_reserved": 0, "is_disabled": 0, "fusion_lat": 0.0, "name": "e9235250356a187baec2ba3aef41a2bf", "rental_uris": {"android": "https://dc.lft.to/lastmile_qr_scan", "ios": "https://dc.lft.to/lastmile_qr_scan"}, "fusion_lon": 0.0, "lat": 38.91918733333333, "lon": -77.03417833333333, "bike_id": "e9235250356a187baec2ba3aef41a2bf"}, {"type": "electric_scooter", "is_reserved": 0, "is_disabled": 0, "fusion_lat": 0.0, "name": "d7f3ba4738f3bf2f721a200e592f35d6", "rental_uris": {"android": "https://dc.lft.to/lastmile_qr_scan", "ios": "https://dc.lft.to/lastmile_qr_scan"}, "fusion_lon": 0.0, "lat": 38.916783, "lon": -77.029759, "bike_id": "d7f3ba4738f3bf2f721a200e592f35d6"}, {"type": "electric_scooter", "is_reserved": 0, "is_disabled": 0, "fusion_lat": 0.0, "name": "348023244705a5a809a8708c016802ec", "rental_uris": {"android": "https://dc.lft.to/lastmile_qr_scan", "ios": "https://dc.lft.to/lastmile_qr_scan"}, "fusion_lon": 0.0, "lat": 38.896016, "lon": -77.0217825, "bike_id": "348023244705a5a809a8708c016802ec"}, {"type": "electric_scooter", "is_reserved": 0, "is_disabled": 0, "fusion_lat": 0.0, "name": "290bbec3e4544c82cffb9df6672f9c2a", "rental_uris": {"android": "https://dc.lft.to/lastmile_qr_scan", "ios": "https://dc.lft.to/lastmile_qr_scan"}, "fusion_lon": 0.0, "lat": 38.909738, "lon": -77.03822333333333, "bike_id": "290bbec3e4544c82cffb9df6672f9c2a"}, {"type": "electric_scooter", "is_reserved": 0, "is_disabled": 0, "fusion_lat": 0.0, "name": "9b746431832ce4d5544e19518a495647", "rental_uris": {"android": "https://dc.lft.to/lastmile_qr_scan", "ios": "https://dc.lft.to/lastmile_qr_scan"}, "fusion_lon": 0.0, "lat": 38.9315325, "lon": -77.0422495, "bike_id": "9b746431832ce4d5544e19518a495647"}, {"type": "electric_scooter", "is_reserved": 0, "is_disabled": 0, "fusion_lat": 0.0, "name": "d2386ab850ba606ee747a1a203e61ce5", "rental_uris": {"android": "https://dc.lft.to/lastmile_qr_scan", "ios": "https://dc.lft.to/lastmile_qr_scan"}, "fusion_lon": 0.0, "lat": 38.9002355, "lon": -77.011783, "bike_id": "d2386ab850ba606ee747a1a203e61ce5"}, {"type": "electric_scooter", "is_reserved": 0, "is_disabled": 0, "fusion_lat": 0.0, "name": "ffe0652954ecd33f124bc38b7b1894eb", "rental_uris": {"android": "https://dc.lft.to/lastmile_qr_scan", "ios": "https://dc.lft.to/lastmile_qr_scan"}, "fusion_lon": 0.0, "lat": 38.89954983333333, "lon": -77.0414195, "bike_id": "ffe0652954ecd33f124bc38b7b1894eb"}, {"type": "electric_scooter", "is_reserved": 0, "is_disabled": 0, "fusion_lat": 0.0, "name": "6bb10e69e1a4afc21193a475fe6784ed", "rental_uris": {"android": "https://dc.lft.to/lastmile_qr_scan", "ios": "https://dc.lft.to/lastmile_qr_scan"}, "fusion_lon": 0.0, "lat": 38.89736383333333, "lon": -76.9472225, "bike_id": "6bb10e69e1a4afc21193a475fe6784ed"}, {"type": "electric_scooter", "is_reserved": 0, "is_disabled": 0, "fusion_lat": 0.0, "name": "4b2a2dc450875312d149f49bfba3f8f7", "rental_uris": {"android": "https://dc.lft.to/lastmile_qr_scan", "ios": "https://dc.lft.to/lastmile_qr_scan"}, "fusion_lon": 0.0, "lat": 38.914415166666664, "lon": -77.03663883333333, "bike_id": "4b2a2dc450875312d149f49bfba3f8f7"}, {"type": "electric_scooter", "is_reserved": 0, "is_disabled": 0, "fusion_lat": 0.0, "name": "49a201d8c2fa50761c73d6d758063c78", "rental_uris": {"android": "https://dc.lft.to/lastmile_qr_scan", "ios": "https://dc.lft.to/lastmile_qr_scan"}, "fusion_lon": 0.0, "lat": 38.935303166666664, "lon": -77.0237135, "bike_id": "49a201d8c2fa50761c73d6d758063c78"}, {"type": "electric_scooter", "is_reserved": 0, "is_disabled": 0, "fusion_lat": 0.0, "name": "9142a9fef3bd139cd2efae83cdd5d8fc", "rental_uris": {"android": "https://dc.lft.to/lastmile_qr_scan", "ios": "https://dc.lft.to/lastmile_qr_scan"}, "fusion_lon": 0.0, "lat": 38.882790166666666, "lon": -76.99366233333333, "bike_id": "9142a9fef3bd139cd2efae83cdd5d8fc"}, {"type": "electric_scooter", "is_reserved": 0, "is_disabled": 0, "fusion_lat": 0.0, "name": "ac86e208c7f165891444e5e134f55174", "rental_uris": {"android": "https://dc.lft.to/lastmile_qr_scan", "ios": "https://dc.lft.to/lastmile_qr_scan"}, "fusion_lon": 0.0, "lat": 38.887472833333334, "lon": -77.02030866666666, "bike_id": "ac86e208c7f165891444e5e134f55174"}, {"type": "electric_bike", "is_reserved": 0, "is_disabled": 0, "fusion_lat": 0.0, "name": "53df903407dbe40173f7639f015ee231", "rental_uris": {"android": "https://dc.lft.to/lastmile_qr_scan", "ios": "https://dc.lft.to/lastmile_qr_scan"}, "fusion_lon": 0.0, "lat": 38.960213, "lon": -77.017263, "bike_id": "53df903407dbe40173f7639f015ee231"}, {"type": "electric_bike", "is_reserved": 0, "is_disabled": 0, "fusion_lat": 0.0, "name": "c2e8bc970ad25d47228570e99a6aecf3", "rental_uris": {"android": "https://dc.lft.to/lastmile_qr_scan", "ios": "https://dc.lft.to/lastmile_qr_scan"}, "fusion_lon": 0.0, "lat": 38.90856216666667, "lon": -77.08082583333334, "bike_id": "c2e8bc970ad25d47228570e99a6aecf3"}, {"type": "electric_scooter", "is_reserved": 0, "is_disabled": 0, "fusion_lat": 0.0, "name": "ee1e57a9415ae24ccdcf4190535b1ec9", "rental_uris": {"android": "https://dc.lft.to/lastmile_qr_scan", "ios": "https://dc.lft.to/lastmile_qr_scan"}, "fusion_lon": 0.0, "lat": 38.954056, "lon": -77.027496, "bike_id": "ee1e57a9415ae24ccdcf4190535b1ec9"}, {"type": "electric_scooter", "is_reserved": 0, "is_disabled": 0, "fusion_lat": 0.0, "name": "f8d2a585d120ab3ed3c0e10f037715ad", "rental_uris": {"android": "https://dc.lft.to/lastmile_qr_scan", "ios": "https://dc.lft.to/lastmile_qr_scan"}, "fusion_lon": 0.0, "lat": 38.9359265, "lon": -77.0365885, "bike_id": "f8d2a585d120ab3ed3c0e10f037715ad"}, {"type": "electric_scooter", "is_reserved": 0, "is_disabled": 0, "fusion_lat": 0.0, "name": "25e170ca520da6c76a01322bc3160f0f", "rental_uris": {"android": "https://dc.lft.to/lastmile_qr_scan", "ios": "https://dc.lft.to/lastmile_qr_scan"}, "fusion_lon": 0.0, "lat": 38.919839333333336, "lon": -76.973107, "bike_id": "25e170ca520da6c76a01322bc3160f0f"}, {"type": "electric_scooter", "is_reserved": 0, "is_disabled": 0, "fusion_lat": 0.0, "name": "59f5d7e83e2fbf76759cb34eb76f55f9", "rental_uris": {"android": "https://dc.lft.to/lastmile_qr_scan", "ios": "https://dc.lft.to/lastmile_qr_scan"}, "fusion_lon": 0.0, "lat": 38.879718, "lon": -76.985382, "bike_id": "59f5d7e83e2fbf76759cb34eb76f55f9"}, {"type": "electric_scooter", "is_reserved": 0, "is_disabled": 0, "fusion_lat": 0.0, "name": "c2721c220a607b3af20d619539899fcb", "rental_uris": {"android": "https://dc.lft.to/lastmile_qr_scan", "ios": "https://dc.lft.to/lastmile_qr_scan"}, "fusion_lon": 0.0, "lat": 38.957155166666666, "lon": -77.00283916666666, "bike_id": "c2721c220a607b3af20d619539899fcb"}, {"type": "electric_scooter", "is_reserved": 0, "is_disabled": 0, "fusion_lat": 0.0, "name": "d525fff836cfcf86773e0536852ebd7c", "rental_uris": {"android": "https://dc.lft.to/lastmile_qr_scan", "ios": "https://dc.lft.to/lastmile_qr_scan"}, "fusion_lon": 0.0, "lat": 38.9189485, "lon": -77.04156, "bike_id": "d525fff836cfcf86773e0536852ebd7c"}, {"type": "electric_scooter", "is_reserved": 0, "is_disabled": 0, "fusion_lat": 0.0, "name": "39da685b6f425559db463f214f7ddd53", "rental_uris": {"android": "https://dc.lft.to/lastmile_qr_scan", "ios": "https://dc.lft.to/lastmile_qr_scan"}, "fusion_lon": 0.0, "lat": 38.915709666666665, "lon": -77.01954283333333, "bike_id": "39da685b6f425559db463f214f7ddd53"}, {"type": "electric_scooter", "is_reserved": 0, "is_disabled": 0, "fusion_lat": 0.0, "name": "fecf29de16fd8235490022a99fc31cca", "rental_uris": {"android": "https://dc.lft.to/lastmile_qr_scan", "ios": "https://dc.lft.to/lastmile_qr_scan"}, "fusion_lon": 0.0, "lat": 38.911013, "lon": -77.04204016666667, "bike_id": "fecf29de16fd8235490022a99fc31cca"}, {"type": "electric_scooter", "is_reserved": 0, "is_disabled": 0, "fusion_lat": 0.0, "name": "ff694977e2c7ae69031382fa8f4b9204", "rental_uris": {"android": "https://dc.lft.to/lastmile_qr_scan", "ios": "https://dc.lft.to/lastmile_qr_scan"}, "fusion_lon": 0.0, "lat": 38.875835, "lon": -77.01321933333334, "bike_id": "ff694977e2c7ae69031382fa8f4b9204"}, {"type": "electric_scooter", "is_reserved": 0, "is_disabled": 0, "fusion_lat": 0.0, "name": "8313b58649b263dcafabf01019b8cff1", "rental_uris": {"android": "https://dc.lft.to/lastmile_qr_scan", "ios": "https://dc.lft.to/lastmile_qr_scan"}, "fusion_lon": 0.0, "lat": 38.8979325, "lon": -77.02212716666666, "bike_id": "8313b58649b263dcafabf01019b8cff1"}, {"type": "electric_bike", "is_reserved": 0, "is_disabled": 0, "fusion_lat": 0.0, "name": "798faf42122a21616a07143403b77e52", "rental_uris": {"android": "https://dc.lft.to/lastmile_qr_scan", "ios": "https://dc.lft.to/lastmile_qr_scan"}, "fusion_lon": 0.0, "lat": 38.93206466666667, "lon": -76.97427, "bike_id": "798faf42122a21616a07143403b77e52"}, {"type": "electric_scooter", "is_reserved": 0, "is_disabled": 0, "fusion_lat": 0.0, "name": "a9f6c3e4866fdd046759f92747362685", "rental_uris": {"android": "https://dc.lft.to/lastmile_qr_scan", "ios": "https://dc.lft.to/lastmile_qr_scan"}, "fusion_lon": 0.0, "lat": 38.90732083333333, "lon": -77.03169, "bike_id": "a9f6c3e4866fdd046759f92747362685"}, {"type": "electric_scooter", "is_reserved": 0, "is_disabled": 0, "fusion_lat": 0.0, "name": "c05381ec03b67310264246b6d310da43", "rental_uris": {"android": "https://dc.lft.to/lastmile_qr_scan", "ios": "https://dc.lft.to/lastmile_qr_scan"}, "fusion_lon": 0.0, "lat": 38.903133833333335, "lon": -77.0345505, "bike_id": "c05381ec03b67310264246b6d310da43"}, {"type": "electric_scooter", "is_reserved": 0, "is_disabled": 0, "fusion_lat": 0.0, "name": "4d1250cf2cc8c4903ca4059d75e72455", "rental_uris": {"android": "https://dc.lft.to/lastmile_qr_scan", "ios": "https://dc.lft.to/lastmile_qr_scan"}, "fusion_lon": 0.0, "lat": 38.909764333333335, "lon": -77.03428116666667, "bike_id": "4d1250cf2cc8c4903ca4059d75e72455"}, {"type": "electric_scooter", "is_reserved": 0, "is_disabled": 0, "fusion_lat": 0.0, "name": "6494672c91144beeb23a41c9ba2b8fc3", "rental_uris": {"android": "https://dc.lft.to/lastmile_qr_scan", "ios": "https://dc.lft.to/lastmile_qr_scan"}, "fusion_lon": 0.0, "lat": 38.872242, "lon": -77.01763383333333, "bike_id": "6494672c91144beeb23a41c9ba2b8fc3"}, {"type": "electric_scooter", "is_reserved": 0, "is_disabled": 0, "fusion_lat": 0.0, "name": "d4945cf41cc1a532344fad7d1114cf60", "rental_uris": {"android": "https://dc.lft.to/lastmile_qr_scan", "ios": "https://dc.lft.to/lastmile_qr_scan"}, "fusion_lon": 0.0, "lat": 38.92580433333333, "lon": -77.05771783333333, "bike_id": "d4945cf41cc1a532344fad7d1114cf60"}, {"type": "electric_scooter", "is_reserved": 0, "is_disabled": 0, "fusion_lat": 0.0, "name": "666450370d3bdd4aaaaca048cc04a682", "rental_uris": {"android": "https://dc.lft.to/lastmile_qr_scan", "ios": "https://dc.lft.to/lastmile_qr_scan"}, "fusion_lon": 0.0, "lat": 38.884325, "lon": -77.03034933333333, "bike_id": "666450370d3bdd4aaaaca048cc04a682"}, {"type": "electric_scooter", "is_reserved": 0, "is_disabled": 0, "fusion_lat": 0.0, "name": "8952bc333b99dc7532a7e2eed1577f49", "rental_uris": {"android": "https://dc.lft.to/lastmile_qr_scan", "ios": "https://dc.lft.to/lastmile_qr_scan"}, "fusion_lon": 0.0, "lat": 38.8962985, "lon": -77.02992633333334, "bike_id": "8952bc333b99dc7532a7e2eed1577f49"}, {"type": "electric_scooter", "is_reserved": 0, "is_disabled": 0, "fusion_lat": 0.0, "name": "32e6b0545988d2fc25f7380777fcdb62", "rental_uris": {"android": "https://dc.lft.to/lastmile_qr_scan", "ios": "https://dc.lft.to/lastmile_qr_scan"}, "fusion_lon": 0.0, "lat": 38.9017605, "lon": -77.00004183333333, "bike_id": "32e6b0545988d2fc25f7380777fcdb62"}, {"type": "electric_scooter", "is_reserved": 0, "is_disabled": 0, "fusion_lat": 0.0, "name": "7091f932379121282003302de7cf6f18", "rental_uris": {"android": "https://dc.lft.to/lastmile_qr_scan", "ios": "https://dc.lft.to/lastmile_qr_scan"}, "fusion_lon": 0.0, "lat": 38.928855, "lon": -77.0138235, "bike_id": "7091f932379121282003302de7cf6f18"}, {"type": "electric_scooter", "is_reserved": 0, "is_disabled": 0, "fusion_lat": 0.0, "name": "f5a6e26def07ee32ab9bb7f1a77edc63", "rental_uris": {"android": "https://dc.lft.to/lastmile_qr_scan", "ios": "https://dc.lft.to/lastmile_qr_scan"}, "fusion_lon": 0.0, "lat": 38.92365866666667, "lon": -77.05754566666667, "bike_id": "f5a6e26def07ee32ab9bb7f1a77edc63"}, {"type": "electric_bike", "is_reserved": 0, "is_disabled": 0, "fusion_lat": 0.0, "name": "759abfecf13a61d33e4f60bce143b394", "rental_uris": {"android": "https://dc.lft.to/lastmile_qr_scan", "ios": "https://dc.lft.to/lastmile_qr_scan"}, "fusion_lon": 0.0, "lat": 38.986548166666665, "lon": -77.05653866666667, "bike_id": "759abfecf13a61d33e4f60bce143b394"}, {"type": "electric_scooter", "is_reserved": 0, "is_disabled": 0, "fusion_lat": 0.0, "name": "a546a03bace2b5e66d49448ea0bbdcc5", "rental_uris": {"android": "https://dc.lft.to/lastmile_qr_scan", "ios": "https://dc.lft.to/lastmile_qr_scan"}, "fusion_lon": 0.0, "lat": 38.88501016666667, "lon": -77.00566366666666, "bike_id": "a546a03bace2b5e66d49448ea0bbdcc5"}, {"type": "electric_scooter", "is_reserved": 0, "is_disabled": 0, "fusion_lat": 0.0, "name": "9a1a053bfb247aab3270d4cec8022a45", "rental_uris": {"android": "https://dc.lft.to/lastmile_qr_scan", "ios": "https://dc.lft.to/lastmile_qr_scan"}, "fusion_lon": 0.0, "lat": 38.844215, "lon": -76.99775633333333, "bike_id": "9a1a053bfb247aab3270d4cec8022a45"}, {"type": "electric_scooter", "is_reserved": 0, "is_disabled": 0, "fusion_lat": 0.0, "name": "a13dac018b0fae3739f44755728b1c96", "rental_uris": {"android": "https://dc.lft.to/lastmile_qr_scan", "ios": "https://dc.lft.to/lastmile_qr_scan"}, "fusion_lon": 0.0, "lat": 38.911731333333336, "lon": -77.06826683333334, "bike_id": "a13dac018b0fae3739f44755728b1c96"}, {"type": "electric_scooter", "is_reserved": 0, "is_disabled": 0, "fusion_lat": 0.0, "name": "cc1e96aa2d0e822de0d3fb5669b329c4", "rental_uris": {"android": "https://dc.lft.to/lastmile_qr_scan", "ios": "https://dc.lft.to/lastmile_qr_scan"}, "fusion_lon": 0.0, "lat": 38.90335433333333, "lon": -77.0433815, "bike_id": "cc1e96aa2d0e822de0d3fb5669b329c4"}, {"type": "electric_scooter", "is_reserved": 0, "is_disabled": 0, "fusion_lat": 0.0, "name": "39bfe052da7ed13c67e34bf50234822b", "rental_uris": {"android": "https://dc.lft.to/lastmile_qr_scan", "ios": "https://dc.lft.to/lastmile_qr_scan"}, "fusion_lon": 0.0, "lat": 38.921841666666666, "lon": -77.0318695, "bike_id": "39bfe052da7ed13c67e34bf50234822b"}, {"type": "electric_scooter", "is_reserved": 0, "is_disabled": 0, "fusion_lat": 0.0, "name": "b3b64f1977b48a634aed892d14f3e174", "rental_uris": {"android": "https://dc.lft.to/lastmile_qr_scan", "ios": "https://dc.lft.to/lastmile_qr_scan"}, "fusion_lon": 0.0, "lat": 38.879572333333336, "lon": -77.00488666666666, "bike_id": "b3b64f1977b48a634aed892d14f3e174"}, {"type": "electric_scooter", "is_reserved": 0, "is_disabled": 0, "fusion_lat": 0.0, "name": "ed447d0cae9ee7fb90e4da41c04799f6", "rental_uris": {"android": "https://dc.lft.to/lastmile_qr_scan", "ios": "https://dc.lft.to/lastmile_qr_scan"}, "fusion_lon": 0.0, "lat": 38.869192166666664, "lon": -76.98308316666666, "bike_id": "ed447d0cae9ee7fb90e4da41c04799f6"}, {"type": "electric_scooter", "is_reserved": 0, "is_disabled": 0, "fusion_lat": 0.0, "name": "20e9ba06725e6a1b86ea0e5b515f1947", "rental_uris": {"android": "https://dc.lft.to/lastmile_qr_scan", "ios": "https://dc.lft.to/lastmile_qr_scan"}, "fusion_lon": 0.0, "lat": 38.904501, "lon": -77.03274283333333, "bike_id": "20e9ba06725e6a1b86ea0e5b515f1947"}, {"type": "electric_scooter", "is_reserved": 0, "is_disabled": 0, "fusion_lat": 0.0, "name": "1dd0d79b8c3f0d26cc5e48460cfa3434", "rental_uris": {"android": "https://dc.lft.to/lastmile_qr_scan", "ios": "https://dc.lft.to/lastmile_qr_scan"}, "fusion_lon": 0.0, "lat": 38.916777833333335, "lon": -77.0297025, "bike_id": "1dd0d79b8c3f0d26cc5e48460cfa3434"}, {"type": "electric_scooter", "is_reserved": 0, "is_disabled": 0, "fusion_lat": 0.0, "name": "84b60b78a9e8fcc2aecfd0d6197f10a0", "rental_uris": {"android": "https://dc.lft.to/lastmile_qr_scan", "ios": "https://dc.lft.to/lastmile_qr_scan"}, "fusion_lon": 0.0, "lat": 38.90697516666667, "lon": -77.021798, "bike_id": "84b60b78a9e8fcc2aecfd0d6197f10a0"}, {"type": "electric_scooter", "is_reserved": 0, "is_disabled": 0, "fusion_lat": 0.0, "name": "9f8356fbb2985eeba19b8447748c28f4", "rental_uris": {"android": "https://dc.lft.to/lastmile_qr_scan", "ios": "https://dc.lft.to/lastmile_qr_scan"}, "fusion_lon": 0.0, "lat": 38.899083, "lon": -76.933555, "bike_id": "9f8356fbb2985eeba19b8447748c28f4"}, {"type": "electric_scooter", "is_reserved": 0, "is_disabled": 0, "fusion_lat": 0.0, "name": "81471085a99fc3acd38e2d089697b615", "rental_uris": {"android": "https://dc.lft.to/lastmile_qr_scan", "ios": "https://dc.lft.to/lastmile_qr_scan"}, "fusion_lon": 0.0, "lat": 38.904856833333334, "lon": -77.0433815, "bike_id": "81471085a99fc3acd38e2d089697b615"}, {"type": "electric_scooter", "is_reserved": 0, "is_disabled": 0, "fusion_lat": 0.0, "name": "146ab2352293e950af1b2c566c9d0670", "rental_uris": {"android": "https://dc.lft.to/lastmile_qr_scan", "ios": "https://dc.lft.to/lastmile_qr_scan"}, "fusion_lon": 0.0, "lat": 38.923215166666665, "lon": -77.03907566666666, "bike_id": "146ab2352293e950af1b2c566c9d0670"}, {"type": "electric_scooter", "is_reserved": 0, "is_disabled": 0, "fusion_lat": 0.0, "name": "754f58f7e5989024a60d58de0078764b", "rental_uris": {"android": "https://dc.lft.to/lastmile_qr_scan", "ios": "https://dc.lft.to/lastmile_qr_scan"}, "fusion_lon": 0.0, "lat": 38.91684466666667, "lon": -77.02923916666667, "bike_id": "754f58f7e5989024a60d58de0078764b"}, {"type": "electric_scooter", "is_reserved": 0, "is_disabled": 0, "fusion_lat": 0.0, "name": "9892a8daadce786c75ee95d136e70d46", "rental_uris": {"android": "https://dc.lft.to/lastmile_qr_scan", "ios": "https://dc.lft.to/lastmile_qr_scan"}, "fusion_lon": 0.0, "lat": 38.90771733333333, "lon": -77.03208316666667, "bike_id": "9892a8daadce786c75ee95d136e70d46"}, {"type": "electric_scooter", "is_reserved": 0, "is_disabled": 0, "fusion_lat": 0.0, "name": "f3d25853bdade8ce96896abd0d61d885", "rental_uris": {"android": "https://dc.lft.to/lastmile_qr_scan", "ios": "https://dc.lft.to/lastmile_qr_scan"}, "fusion_lon": 0.0, "lat": 38.858112166666665, "lon": -76.98652216666666, "bike_id": "f3d25853bdade8ce96896abd0d61d885"}, {"type": "electric_scooter", "is_reserved": 0, "is_disabled": 0, "fusion_lat": 0.0, "name": "f3497e273029a7d69bef8647d55fe316", "rental_uris": {"android": "https://dc.lft.to/lastmile_qr_scan", "ios": "https://dc.lft.to/lastmile_qr_scan"}, "fusion_lon": 0.0, "lat": 38.9012845, "lon": -77.0403765, "bike_id": "f3497e273029a7d69bef8647d55fe316"}, {"type": "electric_scooter", "is_reserved": 0, "is_disabled": 0, "fusion_lat": 0.0, "name": "1eca6d147513b1fd4f0df3aa0f15d786", "rental_uris": {"android": "https://dc.lft.to/lastmile_qr_scan", "ios": "https://dc.lft.to/lastmile_qr_scan"}, "fusion_lon": 0.0, "lat": 38.90867016666667, "lon": -77.08593383333333, "bike_id": "1eca6d147513b1fd4f0df3aa0f15d786"}, {"type": "electric_scooter", "is_reserved": 0, "is_disabled": 0, "fusion_lat": 0.0, "name": "d3589ecfc00aca78d377ab2777138612", "rental_uris": {"android": "https://dc.lft.to/lastmile_qr_scan", "ios": "https://dc.lft.to/lastmile_qr_scan"}, "fusion_lon": 0.0, "lat": 38.930422666666665, "lon": -77.03226483333333, "bike_id": "d3589ecfc00aca78d377ab2777138612"}, {"type": "electric_scooter", "is_reserved": 0, "is_disabled": 0, "fusion_lat": 0.0, "name": "61e1b7dfe7474904c5dc88fc2c415c7f", "rental_uris": {"android": "https://dc.lft.to/lastmile_qr_scan", "ios": "https://dc.lft.to/lastmile_qr_scan"}, "fusion_lon": 0.0, "lat": 38.920575166666666, "lon": -77.033818, "bike_id": "61e1b7dfe7474904c5dc88fc2c415c7f"}, {"type": "electric_scooter", "is_reserved": 0, "is_disabled": 0, "fusion_lat": 0.0, "name": "752c0035d2adc1853272a904f9867018", "rental_uris": {"android": "https://dc.lft.to/lastmile_qr_scan", "ios": "https://dc.lft.to/lastmile_qr_scan"}, "fusion_lon": 0.0, "lat": 38.89835, "lon": -76.94633733333333, "bike_id": "752c0035d2adc1853272a904f9867018"}, {"type": "electric_scooter", "is_reserved": 0, "is_disabled": 0, "fusion_lat": 0.0, "name": "c2cc5ba1d654c41ba4536af45fa78454", "rental_uris": {"android": "https://dc.lft.to/lastmile_qr_scan", "ios": "https://dc.lft.to/lastmile_qr_scan"}, "fusion_lon": 0.0, "lat": 38.903727, "lon": -77.04793033333333, "bike_id": "c2cc5ba1d654c41ba4536af45fa78454"}, {"type": "electric_scooter", "is_reserved": 0, "is_disabled": 0, "fusion_lat": 0.0, "name": "5bb4b0c2a4b84085fac2baca11f2beff", "rental_uris": {"android": "https://dc.lft.to/lastmile_qr_scan", "ios": "https://dc.lft.to/lastmile_qr_scan"}, "fusion_lon": 0.0, "lat": 38.89050016666667, "lon": -76.93753533333333, "bike_id": "5bb4b0c2a4b84085fac2baca11f2beff"}, {"type": "electric_scooter", "is_reserved": 0, "is_disabled": 0, "fusion_lat": 0.0, "name": "a3379d3037dc7ed59cd64fe2344e13e3", "rental_uris": {"android": "https://dc.lft.to/lastmile_qr_scan", "ios": "https://dc.lft.to/lastmile_qr_scan"}, "fusion_lon": 0.0, "lat": 38.930622666666665, "lon": -77.04183366666666, "bike_id": "a3379d3037dc7ed59cd64fe2344e13e3"}, {"type": "electric_scooter", "is_reserved": 0, "is_disabled": 0, "fusion_lat": 0.0, "name": "bd0622182e3b037288ef0d622ea136d2", "rental_uris": {"android": "https://dc.lft.to/lastmile_qr_scan", "ios": "https://dc.lft.to/lastmile_qr_scan"}, "fusion_lon": 0.0, "lat": 38.8747305, "lon": -77.0093725, "bike_id": "bd0622182e3b037288ef0d622ea136d2"}, {"type": "electric_scooter", "is_reserved": 0, "is_disabled": 0, "fusion_lat": 0.0, "name": "08301ce5cee35cf210d6cef79ce5f159", "rental_uris": {"android": "https://dc.lft.to/lastmile_qr_scan", "ios": "https://dc.lft.to/lastmile_qr_scan"}, "fusion_lon": 0.0, "lat": 38.92038183333333, "lon": -77.04182766666666, "bike_id": "08301ce5cee35cf210d6cef79ce5f159"}, {"type": "electric_scooter", "is_reserved": 0, "is_disabled": 0, "fusion_lat": 0.0, "name": "eba8dd864dd9602830e8a6b1849ca9ad", "rental_uris": {"android": "https://dc.lft.to/lastmile_qr_scan", "ios": "https://dc.lft.to/lastmile_qr_scan"},