{"data": {"bikes": [{"is_reserved": 0, "type": "electric_scooter", "bike_id": "148b6254b4c34e26fc8bc4b26f7a93bd", "lat": 38.92063366666667, "lon": -77.03209733333334, "rental_uris": {"android": "https://dc.lft.to/lastmile_qr_scan", "ios": "https://dc.lft.to/lastmile_qr_scan"}, "is_disabled": 0, "fusion_lat": 0.0, "name": "148b6254b4c34e26fc8bc4b26f7a93bd", "fusion_lon": 0.0}, {"is_reserved": 0, "type": "electric_scooter", "bike_id": "835871862f0d3f5926f484340d869ae0", "lat": 38.887272333333335, "lon": -76.98379166666666, "rental_uris": {"android": "https://dc.lft.to/lastmile_qr_scan", "ios": "https://dc.lft.to/lastmile_qr_scan"}, "is_disabled": 0, "fusion_lat": 0.0, "name": "835871862f0d3f5926f484340d869ae0", "fusion_lon": 0.0}, {"is_reserved": 0, "type": "electric_bike", "bike_id": "5be467486ed3961d416263b4386e9bc5", "lat": 38.839383166666664, "lon": -77.078964, "rental_uris": {"android": "https://dc.lft.to/lastmile_qr_scan", "ios": "https://dc.lft.to/lastmile_qr_scan"}, "is_disabled": 0, "fusion_lat": 0.0, "name": "5be467486ed3961d416263b4386e9bc5", "fusion_lon": 0.0}, {"is_reserved": 0, "type": "electric_scooter", "bike_id": "54eb175421d7822d5c9a62b42a1fcca6", "lat": 38.9155735, "lon": -77.030962, "rental_uris": {"android": "https://dc.lft.to/lastmile_qr_scan", "ios": "https://dc.lft.to/lastmile_qr_scan"}, "is_disabled": 0, "fusion_lat": 0.0, "name": "54eb175421d7822d5c9a62b42a1fcca6", "fusion_lon": 0.0}, {"is_reserved": 0, "type": "electric_scooter", "bike_id": "540bb1d5e7769d71cfa39df5735b556b", "lat": 38.9340415, "lon": -77.03988283333334, "rental_uris": {"android": "https://dc.lft.to/lastmile_qr_scan", "ios": "https://dc.lft.to/lastmile_qr_scan"}, "is_disabled": 0, "fusion_lat": 0.0, "name": "540bb1d5e7769d71cfa39df5735b556b", "fusion_lon": 0.0}, {"is_reserved": 0, "type": "electric_scooter", "bike_id": "edba412e6b82a958aca1a4aba642a2c1", "lat": 38.916777, "lon": -77.02890016666667, "rental_uris": {"android": "https://dc.lft.to/lastmile_qr_scan", "ios": "https://dc.lft.to/lastmile_qr_scan"}, "is_disabled": 0, "fusion_lat": 0.0, "name": "edba412e6b82a958aca1a4aba642a2c1", "fusion_lon": 0.0}, {"is_reserved": 0, "type": "electric_scooter", "bike_id": "4ed2bad46bc55147b949a22ea532c012", "lat": 38.92243783333333, "lon": -77.042551, "rental_uris": {"android": "https://dc.lft.to/lastmile_qr_scan", "ios": "https://dc.lft.to/lastmile_qr_scan"}, "is_disabled": 0, "fusion_lat": 0.0, "name": "4ed2bad46bc55147b949a22ea532c012", "fusion_lon": 0.0}, {"is_reserved": 0, "type": "electric_scooter", "bike_id": "088ee3f900c1edf06ff4e8b03edf8870", "lat": 38.90970866666667, "lon": -77.0450905, "rental_uris": {"android": "https://dc.lft.to/lastmile_qr_scan", "ios": "https://dc.lft.to/lastmile_qr_scan"}, "is_disabled": 0, "fusion_lat": 0.0, "name": "088ee3f900c1edf06ff4e8b03edf8870", "fusion_lon": 0.0}, {"is_reserved": 0, "type": "electric_bike", "bike_id": "8fdb29a6ddd2e52f48151589abd8da05", "lat": 38.9069135, "lon": -76.95254433333334, "rental_uris": {"android": "https://dc.lft.to/lastmile_qr_scan", "ios": "https://dc.lft.to/lastmile_qr_scan"}, "is_disabled": 0, "fusion_lat": 0.0, "name": "8fdb29a6ddd2e52f48151589abd8da05", "fusion_lon": 0.0}, {"is_reserved": 0, "type": "electric_scooter", "bike_id": "993091e2496c21cd8b2600af8578b362", "lat": 38.894413166666666, "lon": -77.00200283333334, "rental_uris": {"android": "https://dc.lft.to/lastmile_qr_scan", "ios": "https://dc.lft.to/lastmile_qr_scan"}, "is_disabled": 0, "fusion_lat": 0.0, "name": "993091e2496c21cd8b2600af8578b362", "fusion_lon": 0.0}, {"is_reserved": 0, "type": "electric_scooter", "bike_id": "b5b21bc3266bcd12042ca13db7057c2c", "lat": 38.93978283333333, "lon": -77.054749, "rental_uris": {"android": "https://dc.lft.to/lastmile_qr_scan", "ios": "https://dc.lft.to/lastmile_qr_scan"}, "is_disabled": 0, "fusion_lat": 0.0, "name": "b5b21bc3266bcd12042ca13db7057c2c", "fusion_lon": 0.0}, {"is_reserved": 0, "type": "electric_scooter", "bike_id": "5d87b9d098ef9fd56210dd42f30bf065", "lat": 38.9194075, "lon": -77.0289125, "rental_uris": {"android": "https://dc.lft.to/lastmile_qr_scan", "ios": "https://dc.lft.to/lastmile_qr_scan"}, "is_disabled": 0, "fusion_lat": 0.0, "name": "5d87b9d098ef9fd56210dd42f30bf065", "fusion_lon": 0.0}, {"is_reserved": 0, "type": "electric_scooter", "bike_id": "a47091afa028b6cd55735e835a211407", "lat": 38.917963666666665, "lon": -77.02705816666666, "rental_uris": {"android": "https://dc.lft.to/lastmile_qr_scan", "ios": "https://dc.lft.to/lastmile_qr_scan"}, "is_disabled": 0, "fusion_lat": 0.0, "name": "a47091afa028b6cd55735e835a211407", "fusion_lon": 0.0}, {"is_reserved": 0, "type": "electric_scooter", "bike_id": "b3dfc30b1169bebe832e5dd4998bca5c", "lat": 38.92473483333333, "lon": -77.02248816666666, "rental_uris": {"android": "https://dc.lft.to/lastmile_qr_scan", "ios": "https://dc.lft.to/lastmile_qr_scan"}, "is_disabled": 0, "fusion_lat": 0.0, "name": "b3dfc30b1169bebe832e5dd4998bca5c", "fusion_lon": 0.0}, {"is_reserved": 0, "type": "electric_scooter", "bike_id": "0ebe2cbe19809eddbc0cc1c07167de1d", "lat": 38.94037616666667, "lon": -77.025097, "rental_uris": {"android": "https://dc.lft.to/lastmile_qr_scan", "ios": "https://dc.lft.to/lastmile_qr_scan"}, "is_disabled": 0, "fusion_lat": 0.0, "name": "0ebe2cbe19809eddbc0cc1c07167de1d", "fusion_lon": 0.0}, {"is_reserved": 0, "type": "electric_scooter", "bike_id": "e29ea5647bf4d18d6f3ec3510c9edb06", "lat": 38.926447333333336, "lon": -77.02715066666667, "rental_uris": {"android": "https://dc.lft.to/lastmile_qr_scan", "ios": "https://dc.lft.to/lastmile_qr_scan"}, "is_disabled": 0, "fusion_lat": 0.0, "name": "e29ea5647bf4d18d6f3ec3510c9edb06", "fusion_lon": 0.0}, {"is_reserved": 0, "type": "electric_scooter", "bike_id": "3d6e82c2e10f802bc4668aa6aa1ec478", "lat": 38.928708, "lon": -77.05654916666667, "rental_uris": {"android": "https://dc.lft.to/lastmile_qr_scan", "ios": "https://dc.lft.to/lastmile_qr_scan"}, "is_disabled": 0, "fusion_lat": 0.0, "name": "3d6e82c2e10f802bc4668aa6aa1ec478", "fusion_lon": 0.0}, {"is_reserved": 0, "type": "electric_scooter", "bike_id": "f8ef39f69b5457c4b0b74f42bf6428e9", "lat": 38.934588166666664, "lon": -77.07239316666667, "rental_uris": {"android": "https://dc.lft.to/lastmile_qr_scan", "ios": "https://dc.lft.to/lastmile_qr_scan"}, "is_disabled": 0, "fusion_lat": 0.0, "name": "f8ef39f69b5457c4b0b74f42bf6428e9", "fusion_lon": 0.0}, {"is_reserved": 0, "type": "electric_scooter", "bike_id": "0ec3eb21abfbdf90e2271348bdae7c21", "lat": 38.891946, "lon": -77.02229516666667, "rental_uris": {"android": "https://dc.lft.to/lastmile_qr_scan", "ios": "https://dc.lft.to/lastmile_qr_scan"}, "is_disabled": 0, "fusion_lat": 0.0, "name": "0ec3eb21abfbdf90e2271348bdae7c21", "fusion_lon": 0.0}, {"is_reserved": 0, "type": "electric_scooter", "bike_id": "2fe6505f34988a399169a5376e3897ce", "lat": 38.910926, "lon": -77.0385095, "rental_uris": {"android": "https://dc.lft.to/lastmile_qr_scan", "ios": "https://dc.lft.to/lastmile_qr_scan"}, "is_disabled": 0, "fusion_lat": 0.0, "name": "2fe6505f34988a399169a5376e3897ce", "fusion_lon": 0.0}, {"is_reserved": 0, "type": "electric_bike", "bike_id": "3845740a91ffb91133d2aaf9fd7e5d8f", "lat": 38.920369666666666, "lon": -76.97959383333334, "rental_uris": {"android": "https://dc.lft.to/lastmile_qr_scan", "ios": "https://dc.lft.to/lastmile_qr_scan"}, "is_disabled": 0, "fusion_lat": 0.0, "name": "3845740a91ffb91133d2aaf9fd7e5d8f", "fusion_lon": 0.0}, {"is_reserved": 0, "type": "electric_scooter", "bike_id": "b3b1a46f09d148ae4cf75f064a2ac441", "lat": 38.89685016666667, "lon": -77.04350216666667, "rental_uris": {"android": "https://dc.lft.to/lastmile_qr_scan", "ios": "https://dc.lft.to/lastmile_qr_scan"}, "is_disabled": 0, "fusion_lat": 0.0, "name": "b3b1a46f09d148ae4cf75f064a2ac441", "fusion_lon": 0.0}, {"is_reserved": 0, "type": "electric_scooter", "bike_id": "fdfb0dfaecf50840beeb39a838b5a47e", "lat": 38.917580666666666, "lon": -77.00453333333333, "rental_uris": {"android": "https://dc.lft.to/lastmile_qr_scan", "ios": "https://dc.lft.to/lastmile_qr_scan"}, "is_disabled": 0, "fusion_lat": 0.0, "name": "fdfb0dfaecf50840beeb39a838b5a47e", "fusion_lon": 0.0}, {"is_reserved": 0, "type": "electric_scooter", "bike_id": "149ad35ad90a4a581278c0c5dfe65606", "lat": 38.90322333333334, "lon": -77.0108315, "rental_uris": {"android": "https://dc.lft.to/lastmile_qr_scan", "ios": "https://dc.lft.to/lastmile_qr_scan"}, "is_disabled": 0, "fusion_lat": 0.0, "name": "149ad35ad90a4a581278c0c5dfe65606", "fusion_lon": 0.0}, {"is_reserved": 0, "type": "electric_bike", "bike_id": "46e37fcac082b032d878e939866ba193", "lat": 38.91700633333333, "lon": -77.05720983333333, "rental_uris": {"android": "https://dc.lft.to/lastmile_qr_scan", "ios": "https://dc.lft.to/lastmile_qr_scan"}, "is_disabled": 0, "fusion_lat": 0.0, "name": "46e37fcac082b032d878e939866ba193", "fusion_lon": 0.0}, {"is_reserved": 0, "type": "electric_scooter", "bike_id": "12a92b4627481620cc5bb18a176fbf55", "lat": 38.91395833333333, "lon": -77.043342, "rental_uris": {"android": "https://dc.lft.to/lastmile_qr_scan", "ios": "https://dc.lft.to/lastmile_qr_scan"}, "is_disabled": 0, "fusion_lat": 0.0, "name": "12a92b4627481620cc5bb18a176fbf55", "fusion_lon": 0.0}, {"is_reserved": 0, "type": "electric_scooter", "bike_id": "ee102b3ee050cdbff692dd1ea15e9957", "lat": 38.91251366666667, "lon": -77.04532133333333, "rental_uris": {"android": "https://dc.lft.to/lastmile_qr_scan", "ios": "https://dc.lft.to/lastmile_qr_scan"}, "is_disabled": 0, "fusion_lat": 0.0, "name": "ee102b3ee050cdbff692dd1ea15e9957", "fusion_lon": 0.0}, {"is_reserved": 0, "type": "electric_bike", "bike_id": "99dc9450f9c0755a1cf3e583e66d32f0", "lat": 38.920694, "lon": -76.99578316666667, "rental_uris": {"android": "https://dc.lft.to/lastmile_qr_scan", "ios": "https://dc.lft.to/lastmile_qr_scan"}, "is_disabled": 0, "fusion_lat": 0.0, "name": "99dc9450f9c0755a1cf3e583e66d32f0", "fusion_lon": 0.0}, {"is_reserved": 0, "type": "electric_scooter", "bike_id": "20f53dc58d2731b489d1d680ddf62674", "lat": 38.883083166666665, "lon": -77.02372533333333, "rental_uris": {"android": "https://dc.lft.to/lastmile_qr_scan", "ios": "https://dc.lft.to/lastmile_qr_scan"}, "is_disabled": 0, "fusion_lat": 0.0, "name": "20f53dc58d2731b489d1d680ddf62674", "fusion_lon": 0.0}, {"is_reserved": 0, "type": "electric_scooter", "bike_id": "16c77acc2aa58a52e45372560d25b6c7", "lat": 38.924489, "lon": -77.0213075, "rental_uris": {"android": "https://dc.lft.to/lastmile_qr_scan", "ios": "https://dc.lft.to/lastmile_qr_scan"}, "is_disabled": 0, "fusion_lat": 0.0, "name": "16c77acc2aa58a52e45372560d25b6c7", "fusion_lon": 0.0}, {"is_reserved": 0, "type": "electric_scooter", "bike_id": "fe1710c05f61da4d9565b46c51ae56d3", "lat": 38.911086, "lon": -77.03829866666666, "rental_uris": {"android": "https://dc.lft.to/lastmile_qr_scan", "ios": "https://dc.lft.to/lastmile_qr_scan"}, "is_disabled": 0, "fusion_lat": 0.0, "name": "fe1710c05f61da4d9565b46c51ae56d3", "fusion_lon": 0.0}, {"is_reserved": 0, "type": "electric_scooter", "bike_id": "3567e31103bb9af3ea70ae7cd17ad170", "lat": 38.95626716666666, "lon": -77.03557216666667, "rental_uris": {"android": "https://dc.lft.to/lastmile_qr_scan", "ios": "https://dc.lft.to/lastmile_qr_scan"}, "is_disabled": 0, "fusion_lat": 0.0, "name": "3567e31103bb9af3ea70ae7cd17ad170", "fusion_lon": 0.0}, {"is_reserved": 0, "type": "electric_scooter", "bike_id": "9222006effbe784478e626ba051d7c3f", "lat": 38.92444966666667, "lon": -77.020327, "rental_uris": {"android": "https://dc.lft.to/lastmile_qr_scan", "ios": "https://dc.lft.to/lastmile_qr_scan"}, "is_disabled": 0, "fusion_lat": 0.0, "name": "9222006effbe784478e626ba051d7c3f", "fusion_lon": 0.0}, {"is_reserved": 0, "type": "electric_scooter", "bike_id": "acd630c6d5e46d34c3460c5ebd21cbd3", "lat": 38.90082316666667, "lon": -77.03640483333334, "rental_uris": {"android": "https://dc.lft.to/lastmile_qr_scan", "ios": "https://dc.lft.to/lastmile_qr_scan"}, "is_disabled": 0, "fusion_lat": 0.0, "name": "acd630c6d5e46d34c3460c5ebd21cbd3", "fusion_lon": 0.0}, {"is_reserved": 0, "type": "electric_bike", "bike_id": "fd3dd238193e73365d29f08a6c132d1a", "lat": 38.803821666666664, "lon": -76.98817166666667, "rental_uris": {"android": "https://dc.lft.to/lastmile_qr_scan", "ios": "https://dc.lft.to/lastmile_qr_scan"}, "is_disabled": 0, "fusion_lat": 0.0, "name": "fd3dd238193e73365d29f08a6c132d1a", "fusion_lon": 0.0}, {"is_reserved": 0, "type": "electric_scooter", "bike_id": "e9584bf8ccb05938f3cb6e359a33d038", "lat": 38.848154666666666, "lon": -76.978199, "rental_uris": {"android": "https://dc.lft.to/lastmile_qr_scan", "ios": "https://dc.lft.to/lastmile_qr_scan"}, "is_disabled": 0, "fusion_lat": 0.0, "name": "e9584bf8ccb05938f3cb6e359a33d038", "fusion_lon": 0.0}, {"is_reserved": 0, "type": "electric_scooter", "bike_id": "16ee6a3e8ee82d4b97e1d8a8b30413aa", "lat": 38.9054795, "lon": -77.0295935, "rental_uris": {"android": "https://dc.lft.to/lastmile_qr_scan", "ios": "https://dc.lft.to/lastmile_qr_scan"}, "is_disabled": 0, "fusion_lat": 0.0, "name": "16ee6a3e8ee82d4b97e1d8a8b30413aa", "fusion_lon": 0.0}, {"is_reserved": 0, "type": "electric_scooter", "bike_id": "0db6e77ae0f2455c220e8a7d79e824ec", "lat": 38.931982, "lon": -77.038566, "rental_uris": {"android": "https://dc.lft.to/lastmile_qr_scan", "ios": "https://dc.lft.to/lastmile_qr_scan"}, "is_disabled": 0, "fusion_lat": 0.0, "name": "0db6e77ae0f2455c220e8a7d79e824ec", "fusion_lon": 0.0}, {"is_reserved": 0, "type": "electric_scooter", "bike_id": "074bc5ad87f474b83c42135c8f411bf7", "lat": 38.926369666666666, "lon": -77.03793016666667, "rental_uris": {"android": "https://dc.lft.to/lastmile_qr_scan", "ios": "https://dc.lft.to/lastmile_qr_scan"}, "is_disabled": 0, "fusion_lat": 0.0, "name": "074bc5ad87f474b83c42135c8f411bf7", "fusion_lon": 0.0}, {"is_reserved": 0, "type": "electric_scooter", "bike_id": "1f076cc77654cd317becaaeb32e173c1", "lat": 38.900300333333334, "lon": -76.99602216666666, "rental_uris": {"android": "https://dc.lft.to/lastmile_qr_scan", "ios": "https://dc.lft.to/lastmile_qr_scan"}, "is_disabled": 0, "fusion_lat": 0.0, "name": "1f076cc77654cd317becaaeb32e173c1", "fusion_lon": 0.0}, {"is_reserved": 0, "type": "electric_scooter", "bike_id": "e389e87b063b86df7f593591b4dd6c1c", "lat": 38.913477, "lon": -77.03207416666666, "rental_uris": {"android": "https://dc.lft.to/lastmile_qr_scan", "ios": "https://dc.lft.to/lastmile_qr_scan"}, "is_disabled": 0, "fusion_lat": 0.0, "name": "e389e87b063b86df7f593591b4dd6c1c", "fusion_lon": 0.0}, {"is_reserved": 0, "type": "electric_scooter", "bike_id": "3f32415879151c4660ba6252d0116950", "lat": 38.9146375, "lon": -77.01829983333333, "rental_uris": {"android": "https://dc.lft.to/lastmile_qr_scan", "ios": "https://dc.lft.to/lastmile_qr_scan"}, "is_disabled": 0, "fusion_lat": 0.0, "name": "3f32415879151c4660ba6252d0116950", "fusion_lon": 0.0}, {"is_reserved": 0, "type": "electric_scooter", "bike_id": "a2984dca474a8c8d429fae051e1bb037", "lat": 38.876219166666665, "lon": -77.01251616666667, "rental_uris": {"android": "https://dc.lft.to/lastmile_qr_scan", "ios": "https://dc.lft.to/lastmile_qr_scan"}, "is_disabled": 0, "fusion_lat": 0.0, "name": "a2984dca474a8c8d429fae051e1bb037", "fusion_lon": 0.0}, {"is_reserved": 0, "type": "electric_bike", "bike_id": "fcbda9dbdcda6238d4e4630e36950f74", "lat": 38.92765433333334, "lon": -77.04515083333334, "rental_uris": {"android": "https://dc.lft.to/lastmile_qr_scan", "ios": "https://dc.lft.to/lastmile_qr_scan"}, "is_disabled": 0, "fusion_lat": 0.0, "name": "fcbda9dbdcda6238d4e4630e36950f74", "fusion_lon": 0.0}, {"is_reserved": 0, "type": "electric_bike", "bike_id": "04078ae4f4b10f09b0d26ac0fe7dfdcb", "lat": 38.8381255, "lon": -77.09525566666667, "rental_uris": {"android": "https://dc.lft.to/lastmile_qr_scan", "ios": "https://dc.lft.to/lastmile_qr_scan"}, "is_disabled": 0, "fusion_lat": 0.0, "name": "04078ae4f4b10f09b0d26ac0fe7dfdcb", "fusion_lon": 0.0}, {"is_reserved": 0, "type": "electric_scooter", "bike_id": "663ae9cd93905e770161768e040715dc", "lat": 38.94073983333333, "lon": -77.02908166666667, "rental_uris": {"android": "https://dc.lft.to/lastmile_qr_scan", "ios": "https://dc.lft.to/lastmile_qr_scan"}, "is_disabled": 0, "fusion_lat": 0.0, "name": "663ae9cd93905e770161768e040715dc", "fusion_lon": 0.0}, {"is_reserved": 0, "type": "electric_scooter", "bike_id": "8179f7bcd69f31fd6306760a69fd175d", "lat": 38.90542466666667, "lon": -76.984653, "rental_uris": {"android": "https://dc.lft.to/lastmile_qr_scan", "ios": "https://dc.lft.to/lastmile_qr_scan"}, "is_disabled": 0, "fusion_lat": 0.0, "name": "8179f7bcd69f31fd6306760a69fd175d", "fusion_lon": 0.0}, {"is_reserved": 0, "type": "electric_bike", "bike_id": "4b10b55525a2c621d4a5246caa990ded", "lat": 38.84559983333333, "lon": -76.97059316666666, "rental_uris": {"android": "https://dc.lft.to/lastmile_qr_scan", "ios": "https://dc.lft.to/lastmile_qr_scan"}, "is_disabled": 0, "fusion_lat": 0.0, "name": "4b10b55525a2c621d4a5246caa990ded", "fusion_lon": 0.0}, {"is_reserved": 0, "type": "electric_scooter", "bike_id": "6b78d85fe13a45c9b10518b0b6a70428", "lat": 38.882918, "lon": -77.0313675, "rental_uris": {"android": "https://dc.lft.to/lastmile_qr_scan", "ios": "https://dc.lft.to/lastmile_qr_scan"}, "is_disabled": 0, "fusion_lat": 0.0, "name": "6b78d85fe13a45c9b10518b0b6a70428", "fusion_lon": 0.0}, {"is_reserved": 0, "type": "electric_scooter", "bike_id": "223ddfeabbd79e60dd49d4a283248ae8", "lat": 38.87171133333333, "lon": -77.00626233333334, "rental_uris": {"android": "https://dc.lft.to/lastmile_qr_scan", "ios": "https://dc.lft.to/lastmile_qr_scan"}, "is_disabled": 0, "fusion_lat": 0.0, "name": "223ddfeabbd79e60dd49d4a283248ae8", "fusion_lon": 0.0}, {"is_reserved": 0, "type": "electric_scooter", "bike_id": "aca8694ed0cf97ed91afcb9f60421184", "lat": 38.8953815, "lon": -77.01101483333333, "rental_uris": {"android": "https://dc.lft.to/lastmile_qr_scan", "ios": "https://dc.lft.to/lastmile_qr_scan"}, "is_disabled": 0, "fusion_lat": 0.0, "name": "aca8694ed0cf97ed91afcb9f60421184", "fusion_lon": 0.0}, {"is_reserved": 0, "type": "electric_scooter", "bike_id": "256a34c6be7aa75f0e07086d11a3debf", "lat": 38.945159333333336, "lon": -77.0335455, "rental_uris": {"android": "https://dc.lft.to/lastmile_qr_scan", "ios": "https://dc.lft.to/lastmile_qr_scan"}, "is_disabled": 0, "fusion_lat": 0.0, "name": "256a34c6be7aa75f0e07086d11a3debf", "fusion_lon": 0.0}, {"is_reserved": 0, "type": "electric_scooter", "bike_id": "9963e2de5722789899dc3956dec9ae39", "lat": 38.91013566666667, "lon": -77.04465233333333, "rental_uris": {"android": "https://dc.lft.to/lastmile_qr_scan", "ios": "https://dc.lft.to/lastmile_qr_scan"}, "is_disabled": 0, "fusion_lat": 0.0, "name": "9963e2de5722789899dc3956dec9ae39", "fusion_lon": 0.0}, {"is_reserved": 0, "type": "electric_scooter", "bike_id": "35b0643d9411b273e672aa2d4d6fa066", "lat": 38.91360566666667, "lon": -77.02001033333333, "rental_uris": {"android": "https://dc.lft.to/lastmile_qr_scan", "ios": "https://dc.lft.to/lastmile_qr_scan"}, "is_disabled": 0, "fusion_lat": 0.0, "name": "35b0643d9411b273e672aa2d4d6fa066", "fusion_lon": 0.0}, {"is_reserved": 0, "type": "electric_scooter", "bike_id": "f5daac3ca652a0dd5d7ed9eb943c34f2", "lat": 38.91806066666667, "lon": -77.02494083333333, "rental_uris": {"android": "https://dc.lft.to/lastmile_qr_scan", "ios": "https://dc.lft.to/lastmile_qr_scan"}, "is_disabled": 0, "fusion_lat": 0.0, "name": "f5daac3ca652a0dd5d7ed9eb943c34f2", "fusion_lon": 0.0}, {"is_reserved": 0, "type": "electric_bike", "bike_id": "7321d7884743a84c04c4a108538e2b17", "lat": 38.974892833333335, "lon": -77.01809916666667, "rental_uris": {"android": "https://dc.lft.to/lastmile_qr_scan", "ios": "https://dc.lft.to/lastmile_qr_scan"}, "is_disabled": 0, "fusion_lat": 0.0, "name": "7321d7884743a84c04c4a108538e2b17", "fusion_lon": 0.0}, {"is_reserved": 0, "type": "electric_scooter", "bike_id": "a597888e7b45a53a984673983a299be3", "lat": 38.89890166666667, "lon": -77.0407485, "rental_uris": {"android": "https://dc.lft.to/lastmile_qr_scan", "ios": "https://dc.lft.to/lastmile_qr_scan"}, "is_disabled": 0, "fusion_lat": 0.0, "name": "a597888e7b45a53a984673983a299be3", "fusion_lon": 0.0}, {"is_reserved": 0, "type": "electric_scooter", "bike_id": "6c87f449b6dc69b04af59aea675ef33c", "lat": 38.90506416666667, "lon": -76.99177083333333, "rental_uris": {"android": "https://dc.lft.to/lastmile_qr_scan", "ios": "https://dc.lft.to/lastmile_qr_scan"}, "is_disabled": 0, "fusion_lat": 0.0, "name": "6c87f449b6dc69b04af59aea675ef33c", "fusion_lon": 0.0}, {"is_reserved": 0, "type": "electric_scooter", "bike_id": "440444776614b7e9d30485aa5f8a6731", "lat": 38.904995166666666, "lon": -77.05685416666667, "rental_uris": {"android": "https://dc.lft.to/lastmile_qr_scan", "ios": "https://dc.lft.to/lastmile_qr_scan"}, "is_disabled": 0, "fusion_lat": 0.0, "name": "440444776614b7e9d30485aa5f8a6731", "fusion_lon": 0.0}, {"is_reserved": 0, "type": "electric_scooter", "bike_id": "4cfd33e842d9559dfb115db7ae463170", "lat": 38.87105483333333, "lon": -77.0075195, "rental_uris": {"android": "https://dc.lft.to/lastmile_qr_scan", "ios": "https://dc.lft.to/lastmile_qr_scan"}, "is_disabled": 0, "fusion_lat": 0.0, "name": "4cfd33e842d9559dfb115db7ae463170", "fusion_lon": 0.0}, {"is_reserved": 0, "type": "electric_scooter", "bike_id": "810ef2ee152e1e4593a500624495e59e", "lat": 38.89465083333333, "lon": -77.0034375, "rental_uris": {"android": "https://dc.lft.to/lastmile_qr_scan", "ios": "https://dc.lft.to/lastmile_qr_scan"}, "is_disabled": 0, "fusion_lat": 0.0, "name": "810ef2ee152e1e4593a500624495e59e", "fusion_lon": 0.0}, {"is_reserved": 0, "type": "electric_scooter", "bike_id": "b1949a41aed85f222a13172d00db494a", "lat": 38.92097866666667, "lon": -77.03011816666667, "rental_uris": {"android": "https://dc.lft.to/lastmile_qr_scan", "ios": "https://dc.lft.to/lastmile_qr_scan"}, "is_disabled": 0, "fusion_lat": 0.0, "name": "b1949a41aed85f222a13172d00db494a", "fusion_lon": 0.0}, {"is_reserved": 0, "type": "electric_scooter", "bike_id": "d90e739421f855cc3fcc05f317abe748", "lat": 38.89719483333333, "lon": -77.028923, "rental_uris": {"android": "https://dc.lft.to/lastmile_qr_scan", "ios": "https://dc.lft.to/lastmile_qr_scan"}, "is_disabled": 0, "fusion_lat": 0.0, "name": "d90e739421f855cc3fcc05f317abe748", "fusion_lon": 0.0}, {"is_reserved": 0, "type": "electric_scooter", "bike_id": "6e4a445f3014bad97794d949880027ec", "lat": 38.9208355, "lon": -77.02299516666666, "rental_uris": {"android": "https://dc.lft.to/lastmile_qr_scan", "ios": "https://dc.lft.to/lastmile_qr_scan"}, "is_disabled": 0, "fusion_lat": 0.0, "name": "6e4a445f3014bad97794d949880027ec", "fusion_lon": 0.0}, {"is_reserved": 0, "type": "electric_scooter", "bike_id": "a7de21e61417c99bb3207e41cdfd6a10", "lat": 38.907843666666665, "lon": -77.01072583333334, "rental_uris": {"android": "https://dc.lft.to/lastmile_qr_scan", "ios": "https://dc.lft.to/lastmile_qr_scan"}, "is_disabled": 0, "fusion_lat": 0.0, "name": "a7de21e61417c99bb3207e41cdfd6a10", "fusion_lon": 0.0}, {"is_reserved": 0, "type": "electric_scooter", "bike_id": "bffd2b4241ce7a56680fc8e814cd24fb", "lat": 38.932420666666665, "lon": -76.99506883333333, "rental_uris": {"android": "https://dc.lft.to/lastmile_qr_scan", "ios": "https://dc.lft.to/lastmile_qr_scan"}, "is_disabled": 0, "fusion_lat": 0.0, "name": "bffd2b4241ce7a56680fc8e814cd24fb", "fusion_lon": 0.0}, {"is_reserved": 0, "type": "electric_scooter", "bike_id": "e8bf08b70bdd30a2da170897c49b1f3d", "lat": 38.9497655, "lon": -77.0201945, "rental_uris": {"android": "https://dc.lft.to/lastmile_qr_scan", "ios": "https://dc.lft.to/lastmile_qr_scan"}, "is_disabled": 0, "fusion_lat": 0.0, "name": "e8bf08b70bdd30a2da170897c49b1f3d", "fusion_lon": 0.0}, {"is_reserved": 0, "type": "electric_bike", "bike_id": "d36d24cb94810a72a16a40916f16b972", "lat": 38.93101866666667, "lon": -77.03827083333333, "rental_uris": {"android": "https://dc.lft.to/lastmile_qr_scan", "ios": "https://dc.lft.to/lastmile_qr_scan"}, "is_disabled": 0, "fusion_lat": 0.0, "name": "d36d24cb94810a72a16a40916f16b972", "fusion_lon": 0.0}, {"is_reserved": 0, "type": "electric_scooter", "bike_id": "e76349213559afff1f75107c3492464c", "lat": 38.92877083333333, "lon": -77.03293666666667, "rental_uris": {"android": "https://dc.lft.to/lastmile_qr_scan", "ios": "https://dc.lft.to/lastmile_qr_scan"}, "is_disabled": 0, "fusion_lat": 0.0, "name": "e76349213559afff1f75107c3492464c", "fusion_lon": 0.0}, {"is_reserved": 0, "type": "electric_scooter", "bike_id": "af4c1c5fbd1aa03e48e66cb11a3873ba", "lat": 38.92335883333333, "lon": -77.029626, "rental_uris": {"android": "https://dc.lft.to/lastmile_qr_scan", "ios": "https://dc.lft.to/lastmile_qr_scan"}, "is_disabled": 0, "fusion_lat": 0.0, "name": "af4c1c5fbd1aa03e48e66cb11a3873ba", "fusion_lon": 0.0}, {"is_reserved": 0, "type": "electric_scooter", "bike_id": "260e58efe2daf45cf19d300a72c35957", "lat": 38.92729933333333, "lon": -77.05252916666667, "rental_uris": {"android": "https://dc.lft.to/lastmile_qr_scan", "ios": "https://dc.lft.to/lastmile_qr_scan"}, "is_disabled": 0, "fusion_lat": 0.0, "name": "260e58efe2daf45cf19d300a72c35957", "fusion_lon": 0.0}, {"is_reserved": 0, "type": "electric_scooter", "bike_id": "0fe4a3274659f4e2effb8ad38bec4ada", "lat": 38.9192135, "lon": -77.03382733333333, "rental_uris": {"android": "https://dc.lft.to/lastmile_qr_scan", "ios": "https://dc.lft.to/lastmile_qr_scan"}, "is_disabled": 0, "fusion_lat": 0.0, "name": "0fe4a3274659f4e2effb8ad38bec4ada", "fusion_lon": 0.0}, {"is_reserved": 0, "type": "electric_scooter", "bike_id": "2cab51e2870ec4749ba3d1d3684c951e", "lat": 38.90791683333333, "lon": -76.99991266666666, "rental_uris": {"android": "https://dc.lft.to/lastmile_qr_scan", "ios": "https://dc.lft.to/lastmile_qr_scan"}, "is_disabled": 0, "fusion_lat": 0.0, "name": "2cab51e2870ec4749ba3d1d3684c951e", "fusion_lon": 0.0}, {"is_reserved": 0, "type": "electric_bike", "bike_id": "b170ac859f610d1cf063f3df49ac3aca", "lat": 38.922015333333334, "lon": -77.0429125, "rental_uris": {"android": "https://dc.lft.to/lastmile_qr_scan", "ios": "https://dc.lft.to/lastmile_qr_scan"}, "is_disabled": 0, "fusion_lat": 0.0, "name": "b170ac859f610d1cf063f3df49ac3aca", "fusion_lon": 0.0}, {"is_reserved": 0, "type": "electric_scooter", "bike_id": "75e45a0bae0f97df9ddc2b9478c241a7", "lat": 38.910097666666665, "lon": -77.04369983333333, "rental_uris": {"android": "https://dc.lft.to/lastmile_qr_scan", "ios": "https://dc.lft.to/lastmile_qr_scan"}, "is_disabled": 0, "fusion_lat": 0.0, "name": "75e45a0bae0f97df9ddc2b9478c241a7", "fusion_lon": 0.0}, {"is_reserved": 0, "type": "electric_scooter", "bike_id": "305b3b91ecd83f35671363fcb8e54acc", "lat": 38.892524333333334, "lon": -77.03349566666667, "rental_uris": {"android": "https://dc.lft.to/lastmile_qr_scan", "ios": "https://dc.lft.to/lastmile_qr_scan"}, "is_disabled": 0, "fusion_lat": 0.0, "name": "305b3b91ecd83f35671363fcb8e54acc", "fusion_lon": 0.0}, {"is_reserved": 0, "type": "electric_scooter", "bike_id": "3c1013290cf8c36e9dcc495bf4867368", "lat": 38.93401166666666, "lon": -77.02844383333333, "rental_uris": {"android": "https://dc.lft.to/lastmile_qr_scan", "ios": "https://dc.lft.to/lastmile_qr_scan"}, "is_disabled": 0, "fusion_lat": 0.0, "name": "3c1013290cf8c36e9dcc495bf4867368", "fusion_lon": 0.0}, {"is_reserved": 0, "type": "electric_scooter", "bike_id": "fa84a8a6013fead14b2de5903ed3c4fd", "lat": 38.8873395, "lon": -77.023979, "rental_uris": {"android": "https://dc.lft.to/lastmile_qr_scan", "ios": "https://dc.lft.to/lastmile_qr_scan"}, "is_disabled": 0, "fusion_lat": 0.0, "name": "fa84a8a6013fead14b2de5903ed3c4fd", "fusion_lon": 0.0}, {"is_reserved": 0, "type": "electric_scooter", "bike_id": "84656447e4f53bcc3d2c4b6354924654", "lat": 38.924147833333336, "lon": -77.02008833333333, "rental_uris": {"android": "https://dc.lft.to/lastmile_qr_scan", "ios": "https://dc.lft.to/lastmile_qr_scan"}, "is_disabled": 0, "fusion_lat": 0.0, "name": "84656447e4f53bcc3d2c4b6354924654", "fusion_lon": 0.0}, {"is_reserved": 0, "type": "electric_bike", "bike_id": "52f7593deb12c7832b1d78399f82d3d7", "lat": 38.877311, "lon": -77.11850366666667, "rental_uris": {"android": "https://dc.lft.to/lastmile_qr_scan", "ios": "https://dc.lft.to/lastmile_qr_scan"}, "is_disabled": 0, "fusion_lat": 0.0, "name": "52f7593deb12c7832b1d78399f82d3d7", "fusion_lon": 0.0}, {"is_reserved": 0, "type": "electric_scooter", "bike_id": "74fd99f27c9cb876c36b871ec38ddb9b", "lat": 38.89890116666667, "lon": -76.99360466666667, "rental_uris": {"android": "https://dc.lft.to/lastmile_qr_scan", "ios": "https://dc.lft.to/lastmile_qr_scan"}, "is_disabled": 0, "fusion_lat": 0.0, "name": "74fd99f27c9cb876c36b871ec38ddb9b", "fusion_lon": 0.0}, {"is_reserved": 0, "type": "electric_scooter", "bike_id": "3f415f91f7eebd54de8cee37aff67749", "lat": 38.93371616666667, "lon": -77.03469133333333, "rental_uris": {"android": "https://dc.lft.to/lastmile_qr_scan", "ios": "https://dc.lft.to/lastmile_qr_scan"}, "is_disabled": 0, "fusion_lat": 0.0, "name": "3f415f91f7eebd54de8cee37aff67749", "fusion_lon": 0.0}, {"is_reserved": 0, "type": "electric_scooter", "bike_id": "5b73fc1fb6e34fb647a0440e4876c646", "lat": 38.907372, "lon": -77.03442633333333, "rental_uris": {"android": "https://dc.lft.to/lastmile_qr_scan", "ios": "https://dc.lft.to/lastmile_qr_scan"}, "is_disabled": 0, "fusion_lat": 0.0, "name": "5b73fc1fb6e34fb647a0440e4876c646", "fusion_lon": 0.0}, {"is_reserved": 0, "type": "electric_scooter", "bike_id": "f527210843fd444862224e52ba0dca67", "lat": 38.933608666666665, "lon": -77.03421866666666, "rental_uris": {"android": "https://dc.lft.to/lastmile_qr_scan", "ios": "https://dc.lft.to/lastmile_qr_scan"}, "is_disabled": 0, "fusion_lat": 0.0, "name": "f527210843fd444862224e52ba0dca67", "fusion_lon": 0.0}, {"is_reserved": 0, "type": "electric_scooter", "bike_id": "6a0b3194448e6004a0aa16643391729b", "lat": 38.92222783333333, "lon": -77.0424515, "rental_uris": {"android": "https://dc.lft.to/lastmile_qr_scan", "ios": "https://dc.lft.to/lastmile_qr_scan"}, "is_disabled": 0, "fusion_lat": 0.0, "name": "6a0b3194448e6004a0aa16643391729b", "fusion_lon": 0.0}, {"is_reserved": 0, "type": "electric_bike", "bike_id": "d6f7ab8f1d8b717df4f16edf2e56cae0", "lat": 38.83631283333333, "lon": -77.002811, "rental_uris": {"android": "https://dc.lft.to/lastmile_qr_scan", "ios": "https://dc.lft.to/lastmile_qr_scan"}, "is_disabled": 0, "fusion_lat": 0.0, "name": "d6f7ab8f1d8b717df4f16edf2e56cae0", "fusion_lon": 0.0}, {"is_reserved": 0, "type": "electric_scooter", "bike_id": "0aaecff584420ac7bdd54e345670e737", "lat": 38.91918733333333, "lon": -77.0480715, "rental_uris": {"android": "https://dc.lft.to/lastmile_qr_scan", "ios": "https://dc.lft.to/lastmile_qr_scan"}, "is_disabled": 0, "fusion_lat": 0.0, "name": "0aaecff584420ac7bdd54e345670e737", "fusion_lon": 0.0}, {"is_reserved": 0, "type": "electric_bike", "bike_id": "da57b9d4ea13650e99c54ab20f1f5e35", "lat": 38.90470833333333, "lon": -77.03233383333334, "rental_uris": {"android": "https://dc.lft.to/lastmile_qr_scan", "ios": "https://dc.lft.to/lastmile_qr_scan"}, "is_disabled": 0, "fusion_lat": 0.0, "name": "da57b9d4ea13650e99c54ab20f1f5e35", "fusion_lon": 0.0}, {"is_reserved": 0, "type": "electric_scooter", "bike_id": "ac67fdc22ba748d8e2b4d19eac427ce8", "lat": 38.909834833333335, "lon": -77.064622, "rental_uris": {"android": "https://dc.lft.to/lastmile_qr_scan", "ios": "https://dc.lft.to/lastmile_qr_scan"}, "is_disabled": 0, "fusion_lat": 0.0, "name": "ac67fdc22ba748d8e2b4d19eac427ce8", "fusion_lon": 0.0}, {"is_reserved": 0, "type": "electric_scooter", "bike_id": "7728313f671b1595cef222f880e47678", "lat": 38.88159016666667, "lon": -77.02772, "rental_uris": {"android": "https://dc.lft.to/lastmile_qr_scan", "ios": "https://dc.lft.to/lastmile_qr_scan"}, "is_disabled": 0, "fusion_lat": 0.0, "name": "7728313f671b1595cef222f880e47678", "fusion_lon": 0.0}, {"is_reserved": 0, "type": "electric_scooter", "bike_id": "6819a84a6d4681f36d3c1f18fec126d9", "lat": 38.93129966666667, "lon": -77.02298766666667, "rental_uris": {"android": "https://dc.lft.to/lastmile_qr_scan", "ios": "https://dc.lft.to/lastmile_qr_scan"}, "is_disabled": 0, "fusion_lat": 0.0, "name": "6819a84a6d4681f36d3c1f18fec126d9", "fusion_lon": 0.0}, {"is_reserved": 0, "type": "electric_scooter", "bike_id": "92ca328cc60fb4c60a5bab61dab90de9", "lat": 38.92308216666667, "lon": -77.04217366666667, "rental_uris": {"android": "https://dc.lft.to/lastmile_qr_scan", "ios": "https://dc.lft.to/lastmile_qr_scan"}, "is_disabled": 0, "fusion_lat": 0.0, "name": "92ca328cc60fb4c60a5bab61dab90de9", "fusion_lon": 0.0}, {"is_reserved": 0, "type": "electric_scooter", "bike_id": "009014c7d368248815c74aa5329da08e", "lat": 38.96031216666667, "lon": -77.071521, "rental_uris": {"android": "https://dc.lft.to/lastmile_qr_scan", "ios": "https://dc.lft.to/lastmile_qr_scan"}, "is_disabled": 0, "fusion_lat": 0.0, "name": "009014c7d368248815c74aa5329da08e", "fusion_lon": 0.0}, {"is_reserved": 0, "type": "electric_scooter", "bike_id": "ea2bf324ad2999eca043c3c48522588b", "lat": 38.90172366666667, "lon": -77.02488266666667, "rental_uris": {"android": "https://dc.lft.to/lastmile_qr_scan", "ios": "https://dc.lft.to/lastmile_qr_scan"}, "is_disabled": 0, "fusion_lat": 0.0, "name": "ea2bf324ad2999eca043c3c48522588b", "fusion_lon": 0.0}, {"is_reserved": 0, "type": "electric_bike", "bike_id": "ea561988bf2ab5e6a82bd73ec9345bf4", "lat": 38.959481333333336, "lon": -77.01988716666666, "rental_uris": {"android": "https://dc.lft.to/lastmile_qr_scan", "ios": "https://dc.lft.to/lastmile_qr_scan"}, "is_disabled": 0, "fusion_lat": 0.0, "name": "ea561988bf2ab5e6a82bd73ec9345bf4", "fusion_lon": 0.0}, {"is_reserved": 0, "type": "electric_bike", "bike_id": "ab6a9696fd90bc7e6469c2a4e1ce52ba", "lat": 38.832944166666664, "lon": -77.08412583333333, "rental_uris": {"android": "https://dc.lft.to/lastmile_qr_scan", "ios": "https://dc.lft.to/lastmile_qr_scan"}, "is_disabled": 0, "fusion_lat": 0.0, "name": "ab6a9696fd90bc7e6469c2a4e1ce52ba", "fusion_lon": 0.0}, {"is_reserved": 0, "type": "electric_scooter", "bike_id": "1111538d46df807a799977ebb6d9b3e2", "lat": 38.92841466666667, "lon": -77.006053, "rental_uris": {"android": "https://dc.lft.to/lastmile_qr_scan", "ios": "https://dc.lft.to/lastmile_qr_scan"}, "is_disabled": 0, "fusion_lat": 0.0, "name": "1111538d46df807a799977ebb6d9b3e2", "fusion_lon": 0.0}, {"is_reserved": 0, "type": "electric_scooter", "bike_id": "d44dae4dd03f74ea4a734fb138d23d4b", "lat": 38.93525916666667, "lon": -77.01936, "rental_uris": {"android": "https://dc.lft.to/lastmile_qr_scan", "ios": "https://dc.lft.to/lastmile_qr_scan"}, "is_disabled": 0, "fusion_lat": 0.0, "name": "d44dae4dd03f74ea4a734fb138d23d4b", "fusion_lon": 0.0}, {"is_reserved": 0, "type": "electric_scooter", "bike_id": "3e391bfe8be4064ca3545d1cec85a694", "lat": 38.89740316666666, "lon": -77.0201385, "rental_uris": {"android": "https://dc.lft.to/lastmile_qr_scan", "ios": "https://dc.lft.to/lastmile_qr_scan"}, "is_disabled": 0, "fusion_lat": 0.0, "name": "3e391bfe8be4064ca3545d1cec85a694", "fusion_lon": 0.0}, {"is_reserved": 0, "type": "electric_scooter", "bike_id": "4f2c030a7e4ff5549bf63d74181b0475", "lat": 38.90259283333333, "lon": -77.01762033333333, "rental_uris": {"android": "https://dc.lft.to/lastmile_qr_scan", "ios": "https://dc.lft.to/lastmile_qr_scan"}, "is_disabled": 0, "fusion_lat": 0.0, "name": "4f2c030a7e4ff5549bf63d74181b0475", "fusion_lon": 0.0}, {"is_reserved": 0, "type": "electric_scooter", "bike_id": "89866b7626ce3151cd1152f89468ecc4", "lat": 38.884421833333334, "lon": -76.95761566666667, "rental_uris": {"android": "https://dc.lft.to/lastmile_qr_scan", "ios": "https://dc.lft.to/lastmile_qr_scan"}, "is_disabled": 0, "fusion_lat": 0.0, "name": "89866b7626ce3151cd1152f89468ecc4", "fusion_lon": 0.0}, {"is_reserved": 0, "type": "electric_scooter", "bike_id": "e69f3bc34bc31c772248ce03b09f1df1", "lat": 38.921557166666666, "lon": -77.0338005, "rental_uris": {"android": "https://dc.lft.to/lastmile_qr_scan", "ios": "https://dc.lft.to/lastmile_qr_scan"}, "is_disabled": 0, "fusion_lat": 0.0, "name": "e69f3bc34bc31c772248ce03b09f1df1", "fusion_lon": 0.0}, {"is_reserved": 0, "type": "electric_scooter", "bike_id": "fb78c6bbc90d4f4e9074ffd53d0d708e", "lat": 38.899989, "lon": -77.04033983333333, "rental_uris": {"android": "https://dc.lft.to/lastmile_qr_scan", "ios": "https://dc.lft.to/lastmile_qr_scan"}, "is_disabled": 0, "fusion_lat": 0.0, "name": "fb78c6bbc90d4f4e9074ffd53d0d708e", "fusion_lon": 0.0}, {"is_reserved": 0, "type": "electric_scooter", "bike_id": "02655a609ea5b508537683cd06292e7d", "lat": 38.92928033333333, "lon": -77.02010133333333, "rental_uris": {"android": "https://dc.lft.to/lastmile_qr_scan", "ios": "https://dc.lft.to/lastmile_qr_scan"}, "is_disabled": 0, "fusion_lat": 0.0, "name": "02655a609ea5b508537683cd06292e7d", "fusion_lon": 0.0}, {"is_reserved": 0, "type": "electric_scooter", "bike_id": "a29974fb746a61639c8a994153703a96", "lat": 38.92814666666666, "lon": -77.0284695, "rental_uris": {"android": "https://dc.lft.to/lastmile_qr_scan", "ios": "https://dc.lft.to/lastmile_qr_scan"}, "is_disabled": 0, "fusion_lat": 0.0, "name": "a29974fb746a61639c8a994153703a96", "fusion_lon": 0.0}, {"is_reserved": 0, "type": "electric_scooter", "bike_id": "9e3b9d7b7fce2755318c123d472d6a50", "lat": 38.899077166666665, "lon": -77.02174133333334, "rental_uris": {"android": "https://dc.lft.to/lastmile_qr_scan", "ios": "https://dc.lft.to/lastmile_qr_scan"}, "is_disabled": 0, "fusion_lat": 0.0, "name": "9e3b9d7b7fce2755318c123d472d6a50", "fusion_lon": 0.0}, {"is_reserved": 0, "type": "electric_scooter", "bike_id": "5cf3b8359dc2f94694e4511c9e5b162b", "lat": 38.921064666666666, "lon": -77.041881, "rental_uris": {"android": "https://dc.lft.to/lastmile_qr_scan", "ios": "https://dc.lft.to/lastmile_qr_scan"}, "is_disabled": 0, "fusion_lat": 0.0, "name": "5cf3b8359dc2f94694e4511c9e5b162b", "fusion_lon": 0.0}, {"is_reserved": 0, "type": "electric_scooter", "bike_id": "2034ebf98855265c9f514416821b1849", "lat": 38.89868583333333, "lon": -76.94665633333334, "rental_uris": {"android": "https://dc.lft.to/lastmile_qr_scan", "ios": "https://dc.lft.to/lastmile_qr_scan"}, "is_disabled": 0, "fusion_lat": 0.0, "name": "2034ebf98855265c9f514416821b1849", "fusion_lon": 0.0}, {"is_reserved": 0, "type": "electric_scooter", "bike_id": "caaeba6bb4a9ea9ee3a3e5dd846d26d8", "lat": 38.901571, "lon": -77.026158, "rental_uris": {"android": "https://dc.lft.to/lastmile_qr_scan", "ios": "https://dc.lft.to/lastmile_qr_scan"}, "is_disabled": 0, "fusion_lat": 0.0, "name": "caaeba6bb4a9ea9ee3a3e5dd846d26d8", "fusion_lon": 0.0}, {"is_reserved": 0, "type": "electric_scooter", "bike_id": "06deb988929b751ade20de3f85fa937c", "lat": 38.9201785, "lon": -77.02951816666666, "rental_uris": {"android": "https://dc.lft.to/lastmile_qr_scan", "ios": "https://dc.lft.to/lastmile_qr_scan"}, "is_disabled": 0, "fusion_lat": 0.0, "name": "06deb988929b751ade20de3f85fa937c", "fusion_lon": 0.0}, {"is_reserved": 0, "type": "electric_scooter", "bike_id": "9eff27f962d2d5064653ed29afbe3029", "lat": 38.89806183333334, "lon": -77.03353683333333, "rental_uris": {"android": "https://dc.lft.to/lastmile_qr_scan", "ios": "https://dc.lft.to/lastmile_qr_scan"}, "is_disabled": 0, "fusion_lat": 0.0, "name": "9eff27f962d2d5064653ed29afbe3029", "fusion_lon": 0.0}, {"is_reserved": 0, "type": "electric_scooter", "bike_id": "87b37807b33b14a90e25dd77e834ded6", "lat": 38.924104, "lon": -77.03552633333334, "rental_uris": {"android": "https://dc.lft.to/lastmile_qr_scan", "ios": "https://dc.lft.to/lastmile_qr_scan"}, "is_disabled": 0, "fusion_lat": 0.0, "name": "87b37807b33b14a90e25dd77e834ded6", "fusion_lon": 0.0}, {"is_reserved": 0, "type": "electric_scooter", "bike_id": "7bb95755984f23a657ebe8947aa5f148", "lat": 38.8961195, "lon": -77.04703116666667, "rental_uris": {"android": "https://dc.lft.to/lastmile_qr_scan", "ios": "https://dc.lft.to/lastmile_qr_scan"}, "is_disabled": 0, "fusion_lat": 0.0, "name": "7bb95755984f23a657ebe8947aa5f148", "fusion_lon": 0.0}, {"is_reserved": 0, "type": "electric_scooter", "bike_id": "f7d1d730248492084f6f1dfaa2e8217d", "lat": 38.920270333333335, "lon": -77.031241, "rental_uris": {"android": "https://dc.lft.to/lastmile_qr_scan", "ios": "https://dc.lft.to/lastmile_qr_scan"}, "is_disabled": 0, "fusion_lat": 0.0, "name": "f7d1d730248492084f6f1dfaa2e8217d", "fusion_lon": 0.0}, {"is_reserved": 0, "type": "electric_scooter", "bike_id": "62e693551b9f7f89a9514c4ad7403645", "lat": 38.91711216666667, "lon": -77.03161216666666, "rental_uris": {"android": "https://dc.lft.to/lastmile_qr_scan", "ios": "https://dc.lft.to/lastmile_qr_scan"}, "is_disabled": 0, "fusion_lat": 0.0, "name": "62e693551b9f7f89a9514c4ad7403645", "fusion_lon": 0.0}, {"is_reserved": 0, "type": "electric_scooter", "bike_id": "a78361559d6d33f14e13a4fcefcb7e6d", "lat": 38.9276085, "lon": -77.06886216666666, "rental_uris": {"android": "https://dc.lft.to/lastmile_qr_scan", "ios": "https://dc.lft.to/lastmile_qr_scan"}, "is_disabled": 0, "fusion_lat": 0.0, "name": "a78361559d6d33f14e13a4fcefcb7e6d", "fusion_lon": 0.0}, {"is_reserved": 0, "type": "electric_scooter", "bike_id": "9e142db0f89f68fa182d43cd959d86d8", "lat": 38.89958433333334, "lon": -77.0268665, "rental_uris": {"android": "https://dc.lft.to/lastmile_qr_scan", "ios": "https://dc.lft.to/lastmile_qr_scan"}, "is_disabled": 0, "fusion_lat": 0.0, "name": "9e142db0f89f68fa182d43cd959d86d8", "fusion_lon": 0.0}, {"is_reserved": 0, "type": "electric_scooter", "bike_id": "5922d51e5e8b8bc49cb27cd39e2cb56f", "lat": 38.938932, "lon": -77.03329533333333, "rental_uris": {"android": "https://dc.lft.to/lastmile_qr_scan", "ios": "https://dc.lft.to/lastmile_qr_scan"}, "is_disabled": 0, "fusion_lat": 0.0, "name": "5922d51e5e8b8bc49cb27cd39e2cb56f", "fusion_lon": 0.0}, {"is_reserved": 0, "type": "electric_scooter", "bike_id": "9c2f0da0696b3a269e3cb7190b97dd9e", "lat": 38.902968, "lon": -77.0023035, "rental_uris": {"android": "https://dc.lft.to/lastmile_qr_scan", "ios": "https://dc.lft.to/lastmile_qr_scan"}, "is_disabled": 0, "fusion_lat": 0.0, "name": "9c2f0da0696b3a269e3cb7190b97dd9e", "fusion_lon": 0.0}, {"is_reserved": 0, "type": "electric_scooter", "bike_id": "bfe5b0926bd8e26ea871a72c8869a0ff", "lat": 38.89909933333333, "lon": -76.93367316666667, "rental_uris": {"android": "https://dc.lft.to/lastmile_qr_scan", "ios": "https://dc.lft.to/lastmile_qr_scan"}, "is_disabled": 0, "fusion_lat": 0.0, "name": "bfe5b0926bd8e26ea871a72c8869a0ff", "fusion_lon": 0.0}, {"is_reserved": 0, "type": "electric_scooter", "bike_id": "ecb75fb20b2de9dbdabcfe7a96da9495", "lat": 38.900372833333336, "lon": -76.99156933333333, "rental_uris": {"android": "https://dc.lft.to/lastmile_qr_scan", "ios": "https://dc.lft.to/lastmile_qr_scan"}, "is_disabled": 0, "fusion_lat": 0.0, "name": "ecb75fb20b2de9dbdabcfe7a96da9495", "fusion_lon": 0.0}, {"is_reserved": 0, "type": "electric_scooter", "bike_id": "c0bc83b391e445e6fd060c58f69360e1", "lat": 38.946591166666664, "lon": -77.03283483333334, "rental_uris": {"android": "https://dc.lft.to/lastmile_qr_scan", "ios": "https://dc.lft.to/lastmile_qr_scan"}, "is_disabled": 0, "fusion_lat": 0.0, "name": "c0bc83b391e445e6fd060c58f69360e1", "fusion_lon": 0.0}, {"is_reserved": 0, "type": "electric_scooter", "bike_id": "93a738ed4a97c2f61289770713b3b156", "lat": 38.91214183333334, "lon": -77.04574816666667, "rental_uris": {"android": "https://dc.lft.to/lastmile_qr_scan", "ios": "https://dc.lft.to/lastmile_qr_scan"}, "is_disabled": 0, "fusion_lat": 0.0, "name": "93a738ed4a97c2f61289770713b3b156", "fusion_lon": 0.0}, {"is_reserved": 0, "type": "electric_scooter", "bike_id": "a457a2f033484bf71aae975d42dcef54", "lat": 38.912471, "lon": -77.03844433333333, "rental_uris": {"android": "https://dc.lft.to/lastmile_qr_scan", "ios": "https://dc.lft.to/lastmile_qr_scan"}, "is_disabled": 0, "fusion_lat": 0.0, "name": "a457a2f033484bf71aae975d42dcef54", "fusion_lon": 0.0}, {"is_reserved": 0, "type": "electric_scooter", "bike_id": "e3e87c92a826e4f0f7392e5bc1aa1689", "lat": 38.90561116666667, "lon": -76.99776, "rental_uris": {"android": "https://dc.lft.to/lastmile_qr_scan", "ios": "https://dc.lft.to/lastmile_qr_scan"}, "is_disabled": 0, "fusion_lat": 0.0, "name": "e3e87c92a826e4f0f7392e5bc1aa1689", "fusion_lon": 0.0}, {"is_reserved": 0, "type": "electric_scooter", "bike_id": "7f02cccee2d8e29a9e7af69a912ef3f8", "lat": 38.9046, "lon": -77.003324, "rental_uris": {"android": "https://dc.lft.to/lastmile_qr_scan", "ios": "https://dc.lft.to/lastmile_qr_scan"}, "is_disabled": 0, "fusion_lat": 0.0, "name": "7f02cccee2d8e29a9e7af69a912ef3f8", "fusion_lon": 0.0}, {"is_reserved": 0, "type": "electric_scooter", "bike_id": "3624a4b4829d0c3a8d494acddab35ee1", "lat": 38.9006915, "lon": -77.01626216666666, "rental_uris": {"android": "https://dc.lft.to/lastmile_qr_scan", "ios": "https://dc.lft.to/lastmile_qr_scan"}, "is_disabled": 0, "fusion_lat": 0.0, "name": "3624a4b4829d0c3a8d494acddab35ee1", "fusion_lon": 0.0}, {"is_reserved": 0, "type": "electric_scooter", "bike_id": "e2bfd199f3a62a25790796fc4148f537", "lat": 38.92450316666667, "lon": -77.020333, "rental_uris": {"android": "https://dc.lft.to/lastmile_qr_scan", "ios": "https://dc.lft.to/lastmile_qr_scan"}, "is_disabled": 0, "fusion_lat": 0.0, "name": "e2bfd199f3a62a25790796fc4148f537", "fusion_lon": 0.0}, {"is_reserved": 0, "type": "electric_bike", "bike_id": "cb2404b72e9ca8e13ef876e8e68905ca", "lat": 38.955974166666664, "lon": -76.99534566666667, "rental_uris": {"android": "https://dc.lft.to/lastmile_qr_scan", "ios": "https://dc.lft.to/lastmile_qr_scan"}, "is_disabled": 0, "fusion_lat": 0.0, "name": "cb2404b72e9ca8e13ef876e8e68905ca", "fusion_lon": 0.0}, {"is_reserved": 0, "type": "electric_scooter", "bike_id": "1d2199e0e07d7acf14c92d695fef6dc8", "lat": 38.93781516666667, "lon": -77.07451033333334, "rental_uris": {"android": "https://dc.lft.to/lastmile_qr_scan", "ios": "https://dc.lft.to/lastmile_qr_scan"}, "is_disabled": 0, "fusion_lat": 0.0, "name": "1d2199e0e07d7acf14c92d695fef6dc8", "fusion_lon": 0.0}, {"is_reserved": 0, "type": "electric_scooter", "bike_id": "872d451f30e5ace42e635a9a9b626dfa", "lat": 38.90713866666667, "lon": -77.05584783333333, "rental_uris": {"android": "https://dc.lft.to/lastmile_qr_scan", "ios": "https://dc.lft.to/lastmile_qr_scan"}, "is_disabled": 0, "fusion_lat": 0.0, "name": "872d451f30e5ace42e635a9a9b626dfa", "fusion_lon": 0.0}, {"is_reserved": 0, "type": "electric_scooter", "bike_id": "0ff83578340f1932c0c40c33272af7f0", "lat": 38.887463833333335, "lon": -77.0174035, "rental_uris": {"android": "https://dc.lft.to/lastmile_qr_scan", "ios": "https://dc.lft.to/lastmile_qr_scan"}, "is_disabled": 0, "fusion_lat": 0.0, "name": "0ff83578340f1932c0c40c33272af7f0", "fusion_lon": 0.0}, {"is_reserved": 0, "type": "electric_scooter", "bike_id": "490cc0785cf2a40cffd730cfb0b715ab", "lat": 38.906430666666665, "lon": -77.01425066666667, "rental_uris": {"android": "https://dc.lft.to/lastmile_qr_scan", "ios": "https://dc.lft.to/lastmile_qr_scan"}, "is_disabled": 0, "fusion_lat": 0.0, "name": "490cc0785cf2a40cffd730cfb0b715ab", "fusion_lon": 0.0}, {"is_reserved": 0, "type": "electric_scooter", "bike_id": "d967509a8d08c83f08de55cb1dda901d", "lat": 38.9011225, "lon": -77.06000616666667, "rental_uris": {"android": "https://dc.lft.to/lastmile_qr_scan", "ios": "https://dc.lft.to/lastmile_qr_scan"}, "is_disabled": 0, "fusion_lat": 0.0, "name": "d967509a8d08c83f08de55cb1dda901d", "fusion_lon": 0.0}, {"is_reserved": 0, "type": "electric_scooter", "bike_id": "6ed16006319ec403419f8236a50ab076", "lat": 38.95290833333333, "lon": -77.06864033333333, "rental_uris": {"android": "https://dc.lft.to/lastmile_qr_scan", "ios": "https://dc.lft.to/lastmile_qr_scan"}, "is_disabled": 0, "fusion_lat": 0.0, "name": "6ed16006319ec403419f8236a50ab076", "fusion_lon": 0.0}, {"is_reserved": 0, "type": "electric_scooter", "bike_id": "3571857e6f7a629ee441f2cf7ebe74fe", "lat": 38.9208675, "lon": -77.07188033333334, "rental_uris": {"android": "https://dc.lft.to/lastmile_qr_scan", "ios": "https://dc.lft.to/lastmile_qr_scan"}, "is_disabled": 0, "fusion_lat": 0.0, "name": "3571857e6f7a629ee441f2cf7ebe74fe", "fusion_lon": 0.0}, {"is_reserved": 0, "type": "electric_scooter", "bike_id": "4c0ff1e98185c3e5f98c5eaed5ad1b51", "lat": 38.8934475, "lon": -77.0282485, "rental_uris": {"android": "https://dc.lft.to/lastmile_qr_scan", "ios": "https://dc.lft.to/lastmile_qr_scan"}, "is_disabled": 0, "fusion_lat": 0.0, "name": "4c0ff1e98185c3e5f98c5eaed5ad1b51", "fusion_lon": 0.0}, {"is_reserved": 0, "type": "electric_scooter", "bike_id": "df4ed81a9fa0b60dc470bc05227a374b", "lat": 38.905980666666665, "lon": -77.06421483333334, "rental_uris": {"android": "https://dc.lft.to/lastmile_qr_scan", "ios": "https://dc.lft.to/lastmile_qr_scan"}, "is_disabled": 0, "fusion_lat": 0.0, "name": "df4ed81a9fa0b60dc470bc05227a374b", "fusion_lon": 0.0}, {"is_reserved": 0, "type": "electric_scooter", "bike_id": "a3238e15f4d27d69abbcb90c32a55d57", "lat": 38.907375, "lon": -77.0029725, "rental_uris": {"android": "https://dc.lft.to/lastmile_qr_scan", "ios": "https://dc.lft.to/lastmile_qr_scan"}, "is_disabled": 0, "fusion_lat": 0.0, "name": "a3238e15f4d27d69abbcb90c32a55d57", "fusion_lon": 0.0}, {"is_reserved": 0, "type": "electric_scooter", "bike_id": "fd6fc42ea60573263148596cfeafcb28", "lat": 38.932876, "lon": -77.028392, "rental_uris": {"android": "https://dc.lft.to/lastmile_qr_scan", "ios": "https://dc.lft.to/lastmile_qr_scan"}, "is_disabled": 0, "fusion_lat": 0.0, "name": "fd6fc42ea60573263148596cfeafcb28", "fusion_lon": 0.0}, {"is_reserved": 0, "type": "electric_bike", "bike_id": "a1c624d85bd0ca7b4d57685f961aebba", "lat": 38.986768, "lon": -77.10074433333334, "rental_uris": {"android": "https://dc.lft.to/lastmile_qr_scan", "ios": "https://dc.lft.to/lastmile_qr_scan"}, "is_disabled": 0, "fusion_lat": 0.0, "name": "a1c624d85bd0ca7b4d57685f961aebba", "fusion_lon": 0.0}, {"is_reserved": 0, "type": "electric_scooter", "bike_id": "2747f04597e191e93059b8ece4cb3419", "lat": 38.89351083333333, "lon": -77.03003033333333, "rental_uris": {"android": "https://dc.lft.to/lastmile_qr_scan", "ios": "https://dc.lft.to/lastmile_qr_scan"}, "is_disabled": 0, "fusion_lat": 0.0, "name": "2747f04597e191e93059b8ece4cb3419", "fusion_lon": 0.0}, {"is_reserved": 0, "type": "electric_scooter", "bike_id": "18e4a8a0f34df5642abc32dd5fb85945", "lat": 38.924584833333334, "lon": -77.0085395, "rental_uris": {"android": "https://dc.lft.to/lastmile_qr_scan", "ios": "https://dc.lft.to/lastmile_qr_scan"}, "is_disabled": 0, "fusion_lat": 0.0, "name": "18e4a8a0f34df5642abc32dd5fb85945", "fusion_lon": 0.0}, {"is_reserved": 0, "type": "electric_scooter", "bike_id": "5219b4af3fb3a609631d2937a34dc638", "lat": 38.911037666666665, "lon": -76.99717883333334, "rental_uris": {"android": "https://dc.lft.to/lastmile_qr_scan", "ios": "https://dc.lft.to/lastmile_qr_scan"}, "is_disabled": 0, "fusion_lat": 0.0, "name": "5219b4af3fb3a609631d2937a34dc638", "fusion_lon": 0.0}, {"is_reserved": 0, "type": "electric_scooter", "bike_id": "93d3242c48b1d035b43df51b3cd798b0", "lat": 38.91050116666667, "lon": -77.03445433333333, "rental_uris": {"android": "https://dc.lft.to/lastmile_qr_scan", "ios": "https://dc.lft.to/lastmile_qr_scan"}, "is_disabled": 0, "fusion_lat": 0.0, "name": "93d3242c48b1d035b43df51b3cd798b0", "fusion_lon": 0.0}, {"is_reserved": 0, "type": "electric_scooter", "bike_id": "1bebc945e01bf1c93ded1230dd753ee7", "lat": 38.90720683333333, "lon": -77.00409583333334, "rental_uris": {"android": "https://dc.lft.to/lastmile_qr_scan", "ios": "https://dc.lft.to/lastmile_qr_scan"}, "is_disabled": 0, "fusion_lat": 0.0, "name": "1bebc945e01bf1c93ded1230dd753ee7", "fusion_lon": 0.0}, {"is_reserved": 0, "type": "electric_scooter", "bike_id": "ee068ed6c0a3f0838fa42316da88d6a0", "lat": 38.928818166666666, "lon": -77.03340633333333, "rental_uris": {"android": "https://dc.lft.to/lastmile_qr_scan", "ios": "https://dc.lft.to/lastmile_qr_scan"}, "is_disabled": 0, "fusion_lat": 0.0, "name": "ee068ed6c0a3f0838fa42316da88d6a0", "fusion_lon": 0.0}, {"is_reserved": 0, "type": "electric_scooter", "bike_id": "cc70315ef714c5221730d685e4b55c8b", "lat": 38.90033616666667, "lon": -77.01224116666667, "rental_uris": {"android": "https://dc.lft.to/lastmile_qr_scan", "ios": "https://dc.lft.to/lastmile_qr_scan"}, "is_disabled": 0, "fusion_lat": 0.0, "name": "cc70315ef714c5221730d685e4b55c8b", "fusion_lon": 0.0}, {"is_reserved": 0, "type": "electric_bike", "bike_id": "66ec3404590ec5d9b8a19f0bffe247b3", "lat": 38.83231983333334, "lon": -76.94621566666666, "rental_uris": {"android": "https://dc.lft.to/lastmile_qr_scan", "ios": "https://dc.lft.to/lastmile_qr_scan"}, "is_disabled": 0, "fusion_lat": 0.0, "name": "66ec3404590ec5d9b8a19f0bffe247b3", "fusion_lon": 0.0}, {"is_reserved": 0, "type": "electric_bike", "bike_id": "9ff8fd64bcd22da86c41f2e065006230", "lat": 38.8839025, "lon": -76.95451516666667, "rental_uris": {"android": "https://dc.lft.to/lastmile_qr_scan", "ios": "https://dc.lft.to/lastmile_qr_scan"}, "is_disabled": 0, "fusion_lat": 0.0, "name": "9ff8fd64bcd22da86c41f2e065006230", "fusion_lon": 0.0}, {"is_reserved": 0, "type": "electric_scooter", "bike_id": "37e7df8369f879439f556b3e902f8583", "lat": 38.93211866666667, "lon": -77.02731516666667, "rental_uris": {"android": "https://dc.lft.to/lastmile_qr_scan", "ios": "https://dc.lft.to/lastmile_qr_scan"}, "is_disabled": 0, "fusion_lat": 0.0, "name": "37e7df8369f879439f556b3e902f8583", "fusion_lon": 0.0}, {"is_reserved": 0, "type": "electric_scooter", "bike_id": "ba95f6e3cc3b77862352611b9d62f740", "lat": 38.932800666666665, "lon": -77.0391005, "rental_uris": {"android": "https://dc.lft.to/lastmile_qr_scan", "ios": "https://dc.lft.to/lastmile_qr_scan"}, "is_disabled": 0, "fusion_lat": 0.0, "name": "ba95f6e3cc3b77862352611b9d62f740", "fusion_lon": 0.0}, {"is_reserved": 0, "type": "electric_scooter", "bike_id": "6e9e685055404aa05eeeb57943699e5e", "lat": 38.91113266666667, "lon": -77.01823233333333, "rental_uris": {"android": "https://dc.lft.to/lastmile_qr_scan", "ios": "https://dc.lft.to/lastmile_qr_scan"}, "is_disabled": 0, "fusion_lat": 0.0, "name": "6e9e685055404aa05eeeb57943699e5e", "fusion_lon": 0.0}, {"is_reserved": 0, "type": "electric_scooter", "bike_id": "38e545fd095a82593093e283fd0c800c", "lat": 38.90340616666667, "lon": -77.02570616666667, "rental_uris": {"android": "https://dc.lft.to/lastmile_qr_scan", "ios": "https://dc.lft.to/lastmile_qr_scan"}, "is_disabled": 0, "fusion_lat": 0.0, "name": "38e545fd095a82593093e283fd0c800c", "fusion_lon": 0.0}, {"is_reserved": 0, "type": "electric_scooter", "bike_id": "b46245b4a832a93d76db1cb75c6e7ddb", "lat": 38.93065516666667, "lon": -77.02838833333334, "rental_uris": {"android": "https://dc.lft.to/lastmile_qr_scan", "ios": "https://dc.lft.to/lastmile_qr_scan"}, "is_disabled": 0, "fusion_lat": 0.0, "name": "b46245b4a832a93d76db1cb75c6e7ddb", "fusion_lon": 0.0}, {"is_reserved": 0, "type": "electric_scooter", "bike_id": "e8d45b8d19f94c0a7e751dbe80a2a9db", "lat": 38.93901916666667, "lon": -77.0326365, "rental_uris": {"android": "https://dc.lft.to/lastmile_qr_scan", "ios": "https://dc.lft.to/lastmile_qr_scan"}, "is_disabled": 0, "fusion_lat": 0.0, "name": "e8d45b8d19f94c0a7e751dbe80a2a9db", "fusion_lon": 0.0}, {"is_reserved": 0, "type": "electric_bike", "bike_id": "4c703e41485db2f9d1e2641c68928dce", "lat": 38.974260666666666, "lon": -77.01255233333333, "rental_uris": {"android": "https://dc.lft.to/lastmile_qr_scan", "ios": "https://dc.lft.to/lastmile_qr_scan"}, "is_disabled": 0, "fusion_lat": 0.0, "name": "4c703e41485db2f9d1e2641c68928dce", "fusion_lon": 0.0}, {"is_reserved": 0, "type": "electric_scooter", "bike_id": "237cf38d989996148c1aeaf760a099f1", "lat": 38.90954716666667, "lon": -76.985417, "rental_uris": {"android": "https://dc.lft.to/lastmile_qr_scan", "ios": "https://dc.lft.to/lastmile_qr_scan"}, "is_disabled": 0, "fusion_lat": 0.0, "name": "237cf38d989996148c1aeaf760a099f1", "fusion_lon": 0.0}, {"is_reserved": 0, "type": "electric_bike", "bike_id": "439a753d436366a6769d1a81e73c696d", "lat": 39.00028416666667, "lon": -77.04742866666666, "rental_uris": {"android": "https://dc.lft.to/lastmile_qr_scan", "ios": "https://dc.lft.to/lastmile_qr_scan"}, "is_disabled": 0, "fusion_lat": 0.0, "name": "439a753d436366a6769d1a81e73c696d", "fusion_lon": 0.0}, {"is_reserved": 0, "type": "electric_scooter", "bike_id": "499ffb7d8163e3c897319fadb6754ec0", "lat": 38.907724, "lon": -77.03539266666667, "rental_uris": {"android": "https://dc.lft.to/lastmile_qr_scan", "ios": "https://dc.lft.to/lastmile_qr_scan"}, "is_disabled": 0, "fusion_lat": 0.0, "name": "499ffb7d8163e3c897319fadb6754ec0", "fusion_lon": 0.0}, {"is_reserved": 0, "type": "electric_scooter", "bike_id": "017bceffaad2a1ece52029413951a49a", "lat": 38.92156283333333, "lon": -77.0352025, "rental_uris": {"android": "https://dc.lft.to/lastmile_qr_scan", "ios": "https://dc.lft.to/lastmile_qr_scan"}, "is_disabled": 0, "fusion_lat": 0.0, "name": "017bceffaad2a1ece52029413951a49a", "fusion_lon": 0.0}, {"is_reserved": 0, "type": "electric_scooter", "bike_id": "7e56f5c9419f27f93e09fa259620459b", "lat": 38.882559, "lon": -77.00627266666666, "rental_uris": {"android": "https://dc.lft.to/lastmile_qr_scan", "ios": "https://dc.lft.to/lastmile_qr_scan"}, "is_disabled": 0, "fusion_lat": 0.0, "name": "7e56f5c9419f27f93e09fa259620459b", "fusion_lon": 0.0}, {"is_reserved": 0, "type": "electric_bike", "bike_id": "1355c207c06ff3e4a4cc79506599f998", "lat": 38.90029216666667, "lon": -77.0122415, "rental_uris": {"android": "https://dc.lft.to/lastmile_qr_scan", "ios": "https://dc.lft.to/lastmile_qr_scan"}, "is_disabled": 0, "fusion_lat": 0.0, "name": "1355c207c06ff3e4a4cc79506599f998", "fusion_lon": 0.0}, {"is_reserved": 0, "type": "electric_scooter", "bike_id": "7373950a0637dc565647fce6e85caa71", "lat": 38.904485666666666, "lon": -77.030721, "rental_uris": {"android": "https://dc.lft.to/lastmile_qr_scan", "ios": "https://dc.lft.to/lastmile_qr_scan"}, "is_disabled": 0, "fusion_lat": 0.0, "name": "7373950a0637dc565647fce6e85caa71", "fusion_lon": 0.0}, {"is_reserved": 0, "type": "electric_scooter", "bike_id": "7763ef5b0ae79b56878bb911cf6f7540", "lat": 38.908538, "lon": -77.01017983333334, "rental_uris": {"android": "https://dc.lft.to/lastmile_qr_scan", "ios": "https://dc.lft.to/lastmile_qr_scan"}, "is_disabled": 0, "fusion_lat": 0.0, "name": "7763ef5b0ae79b56878bb911cf6f7540", "fusion_lon": 0.0}, {"is_reserved": 0, "type": "electric_scooter", "bike_id": "e0615de06d89cca2a3c75e5f0aeeb867", "lat": 38.92486866666667, "lon": -77.02139783333334, "rental_uris": {"android": "https://dc.lft.to/lastmile_qr_scan", "ios": "https://dc.lft.to/lastmile_qr_scan"}, "is_disabled": 0, "fusion_lat": 0.0, "name": "e0615de06d89cca2a3c75e5f0aeeb867", "fusion_lon": 0.0}, {"is_reserved": 0, "type": "electric_scooter", "bike_id": "f382ab1af94cf839fa21e599ed06a1ab", "lat": 38.93404783333333, "lon": -77.0421975, "rental_uris": {"android": "https://dc.lft.to/lastmile_qr_scan", "ios": "https://dc.lft.to/lastmile_qr_scan"}, "is_disabled": 0, "fusion_lat": 0.0, "name": "f382ab1af94cf839fa21e599ed06a1ab", "fusion_lon": 0.0}, {"is_reserved": 0, "type": "electric_scooter", "bike_id": "8c6053ad0637f4818d1d94af46e0582e", "lat": 38.897305, "lon": -77.00319066666667, "rental_uris": {"android": "https://dc.lft.to/lastmile_qr_scan", "ios": "https://dc.lft.to/lastmile_qr_scan"}, "is_disabled": 0, "fusion_lat": 0.0, "name": "8c6053ad0637f4818d1d94af46e0582e", "fusion_lon": 0.0}, {"is_reserved": 0, "type": "electric_scooter", "bike_id": "772d2f87ca3d4fd4ba4ec38ea84260d4", "lat": 38.932455166666664, "lon": -76.9950455, "rental_uris": {"android": "https://dc.lft.to/lastmile_qr_scan", "ios": "https://dc.lft.to/lastmile_qr_scan"}, "is_disabled": 0, "fusion_lat": 0.0, "name": "772d2f87ca3d4fd4ba4ec38ea84260d4", "fusion_lon": 0.0}, {"is_reserved": 0, "type": "electric_scooter", "bike_id": "6075d20315401e4f80cb606c46f16e1a", "lat": 38.9063375, "lon": -77.0423575, "rental_uris": {"android": "https://dc.lft.to/lastmile_qr_scan", "ios": "https://dc.lft.to/lastmile_qr_scan"}, "is_disabled": 0, "fusion_lat": 0.0, "name": "6075d20315401e4f80cb606c46f16e1a", "fusion_lon": 0.0}, {"is_reserved": 0, "type": "electric_scooter", "bike_id": "b04a02610cfc000c2109a82a6c99caeb", "lat": 38.921591666666664, "lon": -77.0340345, "rental_uris": {"android": "https://dc.lft.to/lastmile_qr_scan", "ios": "https://dc.lft.to/lastmile_qr_scan"}, "is_disabled": 0, "fusion_lat": 0.0, "name": "b04a02610cfc000c2109a82a6c99caeb", "fusion_lon": 0.0}, {"is_reserved": 0, "type": "electric_bike", "bike_id": "2530046c226b99a4614b04be788fbb82", "lat": 38.90221616666667, "lon": -77.05908883333333, "rental_uris": {"android": "https://dc.lft.to/lastmile_qr_scan", "ios": "https://dc.lft.to/lastmile_qr_scan"}, "is_disabled": 0, "fusion_lat": 0.0, "name": "2530046c226b99a4614b04be788fbb82", "fusion_lon": 0.0}, {"is_reserved": 0, "type": "electric_scooter", "bike_id": "c1543b685074bf070098c08b4cafed3b", "lat": 38.92449116666667, "lon": -77.02032083333333, "rental_uris": {"android": "https://dc.lft.to/lastmile_qr_scan", "ios": "https://dc.lft.to/lastmile_qr_scan"}, "is_disabled": 0, "fusion_lat": 0.0, "name": "c1543b685074bf070098c08b4cafed3b", "fusion_lon": 0.0}, {"is_reserved": 0, "type": "electric_bike", "bike_id": "d5f2a92f0b51b0250c03a45d088a59fa", "lat": 38.921316, "lon": -77.0040145, "rental_uris": {"android": "https://dc.lft.to/lastmile_qr_scan", "ios": "https://dc.lft.to/lastmile_qr_scan"}, "is_disabled": 0, "fusion_lat": 0.0, "name": "d5f2a92f0b51b0250c03a45d088a59fa", "fusion_lon": 0.0}, {"is_reserved": 0, "type": "electric_scooter", "bike_id": "0ff430c8212c66670a7afd35eabbee13", "lat": 38.89389383333334, "lon": -76.92305516666667, "rental_uris": {"android": "https://dc.lft.to/lastmile_qr_scan", "ios": "https://dc.lft.to/lastmile_qr_scan"}, "is_disabled": 0, "fusion_lat": 0.0, "name": "0ff430c8212c66670a7afd35eabbee13", "fusion_lon": 0.0}, {"is_reserved": 0, "type": "electric_scooter", "bike_id": "dd407d903991df7316af80977ff93f2a", "lat": 38.90582933333334, "lon": -77.02396866666666, "rental_uris": {"android": "https://dc.lft.to/lastmile_qr_scan", "ios": "https://dc.lft.to/lastmile_qr_scan"}, "is_disabled": 0, "fusion_lat": 0.0, "name": "dd407d903991df7316af80977ff93f2a", "fusion_lon": 0.0}, {"is_reserved": 0, "type": "electric_scooter", "bike_id": "a8336fc414091c7fdbdc88750e6e6b6f", "lat": 38.94051616666667, "lon": -77.02503883333333, "rental_uris": {"android": "https://dc.lft.to/lastmile_qr_scan", "ios": "https://dc.lft.to/lastmile_qr_scan"}, "is_disabled": 0, "fusion_lat": 0.0, "name": "a8336fc414091c7fdbdc88750e6e6b6f", "fusion_lon": 0.0}, {"is_reserved": 0, "type": "electric_scooter", "bike_id": "9a268dbc33afa12394bfadba4eb42cc9", "lat": 38.933173333333336, "lon": -77.04419583333333, "rental_uris": {"android": "https://dc.lft.to/lastmile_qr_scan", "ios": "https://dc.lft.to/lastmile_qr_scan"}, "is_disabled": 0, "fusion_lat": 0.0, "name": "9a268dbc33afa12394bfadba4eb42cc9", "fusion_lon": 0.0}, {"is_reserved": 0, "type": "electric_scooter", "bike_id": "6d7b32c93e4f72eab890de4e891dd29c", "lat": 38.908435, "lon": -77.05495283333333, "rental_uris": {"android": "https://dc.lft.to/lastmile_qr_scan", "ios": "https://dc.lft.to/lastmile_qr_scan"}, "is_disabled": 0, "fusion_lat": 0.0, "name": "6d7b32c93e4f72eab890de4e891dd29c", "fusion_lon": 0.0}, {"is_reserved": 0, "type": "electric_scooter", "bike_id": "e7b1e674ab187cf1551824271198a810", "lat": 38.9157395, "lon": -77.03639733333333, "rental_uris": {"android": "https://dc.lft.to/lastmile_qr_scan", "ios": "https://dc.lft.to/lastmile_qr_scan"}, "is_disabled": 0, "fusion_lat": 0.0, "name": "e7b1e674ab187cf1551824271198a810", "fusion_lon": 0.0}, {"is_reserved": 0, "type": "electric_bike", "bike_id": "7d072f3376ba3a8bebbbe733fc0946fe", "lat": 39.0044345, "lon": -76.90133816666666, "rental_uris": {"android": "https://dc.lft.to/lastmile_qr_scan", "ios": "https://dc.lft.to/lastmile_qr_scan"}, "is_disabled": 0, "fusion_lat": 0.0, "name": "7d072f3376ba3a8bebbbe733fc0946fe", "fusion_lon": 0.0}, {"is_reserved": 0, "type": "electric_bike", "bike_id": "9558c28bf06a9c413615dd782b24787c", "lat": 38.8542005, "lon": -77.0836605, "rental_uris": {"android": "https://dc.lft.to/lastmile_qr_scan", "ios": "https://dc.lft.to/lastmile_qr_scan"}, "is_disabled": 0, "fusion_lat": 0.0, "name": "9558c28bf06a9c413615dd782b24787c", "fusion_lon": 0.0}, {"is_reserved": 0, "type": "electric_scooter", "bike_id": "0fc332e2c68f534acedb45287a244b73", "lat": 38.900136, "lon": -77.0395115, "rental_uris": {"android": "https://dc.lft.to/lastmile_qr_scan", "ios": "https://dc.lft.to/lastmile_qr_scan"}, "is_disabled": 0, "fusion_lat": 0.0, "name": "0fc332e2c68f534acedb45287a244b73", "fusion_lon": 0.0}, {"is_reserved": 0, "type": "electric_scooter", "bike_id": "772b989d5de865b63d8622039cedad5d", "lat": 38.892224666666664, "lon": -77.032166, "rental_uris": {"android": "https://dc.lft.to/lastmile_qr_scan", "ios": "https://dc.lft.to/lastmile_qr_scan"}, "is_disabled": 0, "fusion_lat": 0.0, "name": "772b989d5de865b63d8622039cedad5d", "fusion_lon": 0.0}, {"is_reserved": 0, "type": "electric_bike", "bike_id": "363478da9bcf7e1806049b9e432a7c08", "lat": 38.87040966666667, "lon": -77.22909983333334, "rental_uris": {"android": "https://dc.lft.to/lastmile_qr_scan", "ios": "https://dc.lft.to/lastmile_qr_scan"}, "is_disabled": 0, "fusion_lat": 0.0, "name": "363478da9bcf7e1806049b9e432a7c08", "fusion_lon": 0.0}, {"is_reserved": 0, "type": "electric_scooter", "bike_id": "750c472b55497d8f5d1f382d8bf05ba7", "lat": 38.92858433333333, "lon": -77.03603916666667, "rental_uris": {"android": "https://dc.lft.to/lastmile_qr_scan", "ios": "https://dc.lft.to/lastmile_qr_scan"}, "is_disabled": 0, "fusion_lat": 0.0, "name": "750c472b55497d8f5d1f382d8bf05ba7", "fusion_lon": 0.0}, {"is_reserved": 0, "type": "electric_scooter", "bike_id": "c171ff8bdd9ba0ce50e4f182f3af8c3c", "lat": 38.912678166666666, "lon": -77.03510033333333, "rental_uris": {"android": "https://dc.lft.to/lastmile_qr_scan", "ios": "https://dc.lft.to/lastmile_qr_scan"}, "is_disabled": 0, "fusion_lat": 0.0, "name": "c171ff8bdd9ba0ce50e4f182f3af8c3c", "fusion_lon": 0.0}, {"is_reserved": 0, "type": "electric_scooter", "bike_id": "677f70d145fe689beb63d9402f74b161", "lat": 38.89949216666667, "lon": -76.97908283333334, "rental_uris": {"android": "https://dc.lft.to/lastmile_qr_scan", "ios": "https://dc.lft.to/lastmile_qr_scan"}, "is_disabled": 0, "fusion_lat": 0.0, "name": "677f70d145fe689beb63d9402f74b161", "fusion_lon": 0.0}, {"is_reserved": 0, "type": "electric_scooter", "bike_id": "5368394f3cf7c7588911828b1add5bde", "lat": 38.90695133333333, "lon": -76.98354616666667, "rental_uris": {"android": "https://dc.lft.to/lastmile_qr_scan", "ios": "https://dc.lft.to/lastmile_qr_scan"}, "is_disabled": 0, "fusion_lat": 0.0, "name": "5368394f3cf7c7588911828b1add5bde", "fusion_lon": 0.0}, {"is_reserved": 0, "type": "electric_scooter", "bike_id": "ae18b8d1f66ccc699b5df42b1c9a9195", "lat": 38.90554933333333, "lon": -77.05699483333333, "rental_uris": {"android": "https://dc.lft.to/lastmile_qr_scan", "ios": "https://dc.lft.to/lastmile_qr_scan"}, "is_disabled": 0, "fusion_lat": 0.0, "name": "ae18b8d1f66ccc699b5df42b1c9a9195", "fusion_lon": 0.0}, {"is_reserved": 0, "type": "electric_scooter", "bike_id": "27adbab43e697ac2ac7544dafdfedf5b", "lat": 38.91422266666667, "lon": -77.01405233333334, "rental_uris": {"android": "https://dc.lft.to/lastmile_qr_scan", "ios": "https://dc.lft.to/lastmile_qr_scan"}, "is_disabled": 0, "fusion_lat": 0.0, "name": "27adbab43e697ac2ac7544dafdfedf5b", "fusion_lon": 0.0}, {"is_reserved": 0, "type": "electric_scooter", "bike_id": "b206b64c51357721a1aa09312d5e338a", "lat": 38.935296666666666, "lon": -77.01941916666667, "rental_uris": {"android": "https://dc.lft.to/lastmile_qr_scan", "ios": "https://dc.lft.to/lastmile_qr_scan"}, "is_disabled": 0, "fusion_lat": 0.0, "name": "b206b64c51357721a1aa09312d5e338a", "fusion_lon": 0.0}, {"is_reserved": 0, "type": "electric_scooter", "bike_id": "ae8004bebde1238b1956f666d6e491e7", "lat": 38.9102765, "lon": -77.034471, "rental_uris": {"android": "https://dc.lft.to/lastmile_qr_scan", "ios": "https://dc.lft.to/lastmile_qr_scan"}, "is_disabled": 0, "fusion_lat": 0.0, "name": "ae8004bebde1238b1956f666d6e491e7", "fusion_lon": 0.0}, {"is_reserved": 0, "type": "electric_scooter", "bike_id": "611fe8d817d199212224d3ebb5b56ce1", "lat": 38.908542, "lon": -77.04344233333333, "rental_uris": {"android": "https://dc.lft.to/lastmile_qr_scan", "ios": "https://dc.lft.to/lastmile_qr_scan"}, "is_disabled": 0, "fusion_lat": 0.0, "name": "611fe8d817d199212224d3ebb5b56ce1", "fusion_lon": 0.0}, {"is_reserved": 0, "type": "electric_scooter", "bike_id": "ab61bfdaa95a9fc836d991da891ecc06", "lat": 38.871347166666666, "lon": -77.0135605, "rental_uris": {"android": "https://dc.lft.to/lastmile_qr_scan", "ios": "https://dc.lft.to/lastmile_qr_scan"}, "is_disabled": 0, "fusion_lat": 0.0, "name": "ab61bfdaa95a9fc836d991da891ecc06", "fusion_lon": 0.0}, {"is_reserved": 0, "type": "electric_scooter", "bike_id": "606b1dd3b0955e0c87285587a8ede35e", "lat": 38.89830083333333, "lon": -77.0490955, "rental_uris": {"android": "https://dc.lft.to/lastmile_qr_scan", "ios": "https://dc.lft.to/lastmile_qr_scan"}, "is_disabled": 0, "fusion_lat": 0.0, "name": "606b1dd3b0955e0c87285587a8ede35e", "fusion_lon": 0.0}, {"is_reserved": 0, "type": "electric_scooter", "bike_id": "5b357b953908f00af178a97770f8433c", "lat": 38.904488, "lon": -77.0628775, "rental_uris": {"android": "https://dc.lft.to/lastmile_qr_scan", "ios": "https://dc.lft.to/lastmile_qr_scan"}, "is_disabled": 0, "fusion_lat": 0.0, "name": "5b357b953908f00af178a97770f8433c", "fusion_lon": 0.0}, {"is_reserved": 0, "type": "electric_scooter", "bike_id": "9388ffc4b709f1ebbda4144fb7adf8b1", "lat": 38.925637, "lon": -77.077824, "rental_uris": {"android": "https://dc.lft.to/lastmile_qr_scan", "ios": "https://dc.lft.to/lastmile_qr_scan"}, "is_disabled": 0, "fusion_lat": 0.0, "name": "9388ffc4b709f1ebbda4144fb7adf8b1", "fusion_lon": 0.0}, {"is_reserved": 0, "type": "electric_scooter", "bike_id": "9ea98cfcd693b5baada795db667f02a1", "lat": 38.8992845, "lon": -76.978321, "rental_uris": {"android": "https://dc.lft.to/lastmile_qr_scan", "ios": "https://dc.lft.to/lastmile_qr_scan"}, "is_disabled": 0, "fusion_lat": 0.0, "name": "9ea98cfcd693b5baada795db667f02a1", "fusion_lon": 0.0}, {"is_reserved": 0, "type": "electric_scooter", "bike_id": "16acf581a731087af2eae0ed5ebe35be", "lat": 38.925744, "lon": -76.9949085, "rental_uris": {"android": "https://dc.lft.to/lastmile_qr_scan", "ios": "https://dc.lft.to/lastmile_qr_scan"}, "is_disabled": 0, "fusion_lat": 0.0, "name": "16acf581a731087af2eae0ed5ebe35be", "fusion_lon": 0.0}, {"is_reserved": 0, "type": "electric_scooter", "bike_id": "184961b2d0771d06b1d83fe62d163743", "lat": 38.89608233333333, "lon": -77.04680666666667, "rental_uris": {"android": "https://dc.lft.to/lastmile_qr_scan", "ios": "https://dc.lft.to/lastmile_qr_scan"}, "is_disabled": 0, "fusion_lat": 0.0, "name": "184961b2d0771d06b1d83fe62d163743", "fusion_lon": 0.0}, {"is_reserved": 0, "type": "electric_scooter", "bike_id": "b7db0d3d7c7d0bbac541dba5f6a075a3", "lat": 38.9236945, "lon": -77.0212115, "rental_uris": {"android": "https://dc.lft.to/lastmile_qr_scan", "ios": "https://dc.lft.to/lastmile_qr_scan"}, "is_disabled": 0, "fusion_lat": 0.0, "name": "b7db0d3d7c7d0bbac541dba5f6a075a3", "fusion_lon": 0.0}, {"is_reserved": 0, "type": "electric_scooter", "bike_id": "c072bf89819344240a4609f5cff716a9", "lat": 38.897587333333334, "lon": -77.00199933333333, "rental_uris": {"android": "https://dc.lft.to/lastmile_qr_scan", "ios": "https://dc.lft.to/lastmile_qr_scan"}, "is_disabled": 0, "fusion_lat": 0.0, "name": "c072bf89819344240a4609f5cff716a9", "fusion_lon": 0.0}, {"is_reserved": 0, "type": "electric_scooter", "bike_id": "a6b13fa3fd8413374810b83a2665938e", "lat": 38.946962666666664, "lon": -77.0745605, "rental_uris": {"android": "https://dc.lft.to/lastmile_qr_scan", "ios": "https://dc.lft.to/lastmile_qr_scan"}, "is_disabled": 0, "fusion_lat": 0.0, "name": "a6b13fa3fd8413374810b83a2665938e", "fusion_lon": 0.0}, {"is_reserved": 0, "type": "electric_scooter", "bike_id": "1cd7c820522a57cdbc605d55d39c49d4", "lat": 38.93239716666667, "lon": -77.0385815, "rental_uris": {"android": "https://dc.lft.to/lastmile_qr_scan", "ios": "https://dc.lft.to/lastmile_qr_scan"}, "is_disabled": 0, "fusion_lat": 0.0, "name": "1cd7c820522a57cdbc605d55d39c49d4", "fusion_lon": 0.0}, {"is_reserved": 0, "type": "electric_scooter", "bike_id": "f9ebc66b3aecff7af1cf6016d7d321d9", "lat": 38.916895, "lon": -77.02686966666667, "rental_uris": {"android": "https://dc.lft.to/lastmile_qr_scan", "ios": "https://dc.lft.to/lastmile_qr_scan"}, "is_disabled": 0, "fusion_lat": 0.0, "name": "f9ebc66b3aecff7af1cf6016d7d321d9", "fusion_lon": 0.0}, {"is_reserved": 0, "type": "electric_scooter", "bike_id": "e08814842a2ccf4c815679a0d0346109", "lat": 38.89571816666667, "lon": -77.02166133333333, "rental_uris": {"android": "https://dc.lft.to/lastmile_qr_scan", "ios": "https://dc.lft.to/lastmile_qr_scan"}, "is_disabled": 0, "fusion_lat": 0.0, "name": "e08814842a2ccf4c815679a0d0346109", "fusion_lon": 0.0}, {"is_reserved": 0, "type": "electric_scooter", "bike_id": "64e2cac17f4e9579036175d37ef8dbfe", "lat": 38.90135166666666, "lon": -76.9979085, "rental_uris": {"android": "https://dc.lft.to/lastmile_qr_scan", "ios": "https://dc.lft.to/lastmile_qr_scan"}, "is_disabled": 0, "fusion_lat": 0.0, "name": "64e2cac17f4e9579036175d37ef8dbfe", "fusion_lon": 0.0}, {"is_reserved": 0, "type": "electric_scooter", "bike_id": "fd34c9f068b6861ba48fda248e56f15d", "lat": 38.913469166666665, "lon": -77.02198133333333, "rental_uris": {"android": "https://dc.lft.to/lastmile_qr_scan", "ios": "https://dc.lft.to/lastmile_qr_scan"}, "is_disabled": 0, "fusion_lat": 0.0, "name": "fd34c9f068b6861ba48fda248e56f15d", "fusion_lon": 0.0}, {"is_reserved": 0, "type": "electric_scooter", "bike_id": "dd81281e3387e8f27381ef40a6c579d0", "lat": 38.92747466666667, "lon": -77.03301166666667, "rental_uris": {"android": "https://dc.lft.to/lastmile_qr_scan", "ios": "https://dc.lft.to/lastmile_qr_scan"}, "is_disabled": 0, "fusion_lat": 0.0, "name": "dd81281e3387e8f27381ef40a6c579d0", "fusion_lon": 0.0}, {"is_reserved": 0, "type": "electric_bike", "bike_id": "3b1eb7cbe2c44ca6c978e13d11acd074", "lat": 38.924503333333334, "lon": -77.01920066666666, "rental_uris": {"android": "https://dc.lft.to/lastmile_qr_scan", "ios": "https://dc.lft.to/lastmile_qr_scan"}, "is_disabled": 0, "fusion_lat": 0.0, "name": "3b1eb7cbe2c44ca6c978e13d11acd074", "fusion_lon": 0.0}, {"is_reserved": 0, "type": "electric_bike", "bike_id": "1200e483fbac9020efce79ffe8757969", "lat": 38.8133435, "lon": -77.05110416666666, "rental_uris": {"android": "https://dc.lft.to/lastmile_qr_scan", "ios": "https://dc.lft.to/lastmile_qr_scan"}, "is_disabled": 0, "fusion_lat": 0.0, "name": "1200e483fbac9020efce79ffe8757969", "fusion_lon": 0.0}, {"is_reserved": 0, "type": "electric_scooter", "bike_id": "7dd27e704ad89d0f416f795bef18dfd2", "lat": 38.92392133333333, "lon": -77.02966266666667, "rental_uris": {"android": "https://dc.lft.to/lastmile_qr_scan", "ios": "https://dc.lft.to/lastmile_qr_scan"}, "is_disabled": 0, "fusion_lat": 0.0, "name": "7dd27e704ad89d0f416f795bef18dfd2", "fusion_lon": 0.0}, {"is_reserved": 0, "type": "electric_scooter", "bike_id": "5ebd5029c1dd96200ee4ed6f6231b0f0", "lat": 38.897981, "lon": -77.02792616666666, "rental_uris": {"android": "https://dc.lft.to/lastmile_qr_scan", "ios": "https://dc.lft.to/lastmile_qr_scan"}, "is_disabled": 0, "fusion_lat": 0.0, "name": "5ebd5029c1dd96200ee4ed6f6231b0f0", "fusion_lon": 0.0}, {"is_reserved": 0, "type": "electric_scooter", "bike_id": "30cae4975e8b4109e073bc854ced94c1", "lat": 38.897178, "lon": -77.008004, "rental_uris": {"android": "https://dc.lft.to/lastmile_qr_scan", "ios": "https://dc.lft.to/lastmile_qr_scan"}, "is_disabled": 0, "fusion_lat": 0.0, "name": "30cae4975e8b4109e073bc854ced94c1", "fusion_lon": 0.0}, {"is_reserved": 0, "type": "electric_scooter", "bike_id": "65de531ef8eeaafdbc78b0d430e011aa", "lat": 38.8941215, "lon": -77.02147116666667, "rental_uris": {"android": "https://dc.lft.to/lastmile_qr_scan", "ios": "https://dc.lft.to/lastmile_qr_scan"}, "is_disabled": 0, "fusion_lat": 0.0, "name": "65de531ef8eeaafdbc78b0d430e011aa", "fusion_lon": 0.0}, {"is_reserved": 0, "type": "electric_scooter", "bike_id": "63dec415f18cd221605fd8c6f00c6ca2", "lat": 38.930313, "lon": -77.08319466666667, "rental_uris": {"android": "https://dc.lft.to/lastmile_qr_scan", "ios": "https://dc.lft.to/lastmile_qr_scan"}, "is_disabled": 0, "fusion_lat": 0.0, "name": "63dec415f18cd221605fd8c6f00c6ca2", "fusion_lon": 0.0}, {"is_reserved": 0, "type": "electric_scooter", "bike_id": "d147a5be8ea194b4fa46097f7215f085", "lat": 38.92381, "lon": -77.02743, "rental_uris": {"android": "https://dc.lft.to/lastmile_qr_scan", "ios": "https://dc.lft.to/lastmile_qr_scan"}, "is_disabled": 0, "fusion_lat": 0.0, "name": "d147a5be8ea194b4fa46097f7215f085", "fusion_lon": 0.0}, {"is_reserved": 0, "type": "electric_scooter", "bike_id": "69cbc68b60d569c60489e71b09034e74", "lat": 38.90616816666667, "lon": -77.03299066666666, "rental_uris": {"android": "https://dc.lft.to/lastmile_qr_scan", "ios": "https://dc.lft.to/lastmile_qr_scan"}, "is_disabled": 0, "fusion_lat": 0.0, "name": "69cbc68b60d569c60489e71b09034e74", "fusion_lon": 0.0}, {"is_reserved": 0, "type": "electric_scooter", "bike_id": "cbda778b25dcaea25bef6e05a7b4df6d", "lat": 38.89533333333333, "lon": -77.02946, "rental_uris": {"android": "https://dc.lft.to/lastmile_qr_scan", "ios": "https://dc.lft.to/lastmile_qr_scan"}, "is_disabled": 0, "fusion_lat": 0.0, "name": "cbda778b25dcaea25bef6e05a7b4df6d", "fusion_lon": 0.0}, {"is_reserved": 0, "type": "electric_scooter", "bike_id": "fbc3090dba04e3d9fe24e0be2c8aeb98", "lat": 38.89884383333333, "lon": -76.93176366666667, "rental_uris": {"android": "https://dc.lft.to/lastmile_qr_scan", "ios": "https://dc.lft.to/lastmile_qr_scan"}, "is_disabled": 0, "fusion_lat": 0.0, "name": "fbc3090dba04e3d9fe24e0be2c8aeb98", "fusion_lon": 0.0}, {"is_reserved": 0, "type": "electric_scooter", "bike_id": "bea333c2c8b35554f758a22ea6eeae2a", "lat": 38.9158235, "lon": -77.012335, "rental_uris": {"android": "https://dc.lft.to/lastmile_qr_scan", "ios": "https://dc.lft.to/lastmile_qr_scan"}, "is_disabled": 0, "fusion_lat": 0.0, "name": "bea333c2c8b35554f758a22ea6eeae2a", "fusion_lon": 0.0}, {"is_reserved": 0, "type": "electric_scooter", "bike_id": "31e9d54638615dee3dd53ae9576078ab", "lat": 38.9171055, "lon": -77.0387315, "rental_uris": {"android": "https://dc.lft.to/lastmile_qr_scan", "ios": "https://dc.lft.to/lastmile_qr_scan"}, "is_disabled": 0, "fusion_lat": 0.0, "name": "31e9d54638615dee3dd53ae9576078ab", "fusion_lon": 0.0}, {"is_reserved": 0, "type": "electric_scooter", "bike_id": "97568be795cde0fafba05329b7dc0010", "lat": 38.918027333333335, "lon": -77.040185, "rental_uris": {"android": "https://dc.lft.to/lastmile_qr_scan", "ios": "https://dc.lft.to/lastmile_qr_scan"}, "is_disabled": 0, "fusion_lat": 0.0, "name": "97568be795cde0fafba05329b7dc0010", "fusion_lon": 0.0}, {"is_reserved": 0, "type": "electric_scooter", "bike_id": "5d3316bdae31c85ee0adb45a88d5a5b9", "lat": 38.940762, "lon": -77.03333133333334, "rental_uris": {"android": "https://dc.lft.to/lastmile_qr_scan", "ios": "https://dc.lft.to/lastmile_qr_scan"}, "is_disabled": 0, "fusion_lat": 0.0, "name": "5d3316bdae31c85ee0adb45a88d5a5b9", "fusion_lon": 0.0}, {"is_reserved": 0, "type": "electric_scooter", "bike_id": "813143d6e65ff34e246cfd31cfea168d", "lat": 38.88396383333333, "lon": -76.98979766666666, "rental_uris": {"android": "https://dc.lft.to/lastmile_qr_scan", "ios": "https://dc.lft.to/lastmile_qr_scan"}, "is_disabled": 0, "fusion_lat": 0.0, "name": "813143d6e65ff34e246cfd31cfea168d", "fusion_lon": 0.0}, {"is_reserved": 0, "type": "electric_scooter", "bike_id": "7fecf6e6ac733fbc2354a2fe19335108", "lat": 38.91991066666667, "lon": -77.0288625, "rental_uris": {"android": "https://dc.lft.to/lastmile_qr_scan", "ios": "https://dc.lft.to/lastmile_qr_scan"}, "is_disabled": 0, "fusion_lat": 0.0, "name": "7fecf6e6ac733fbc2354a2fe19335108", "fusion_lon": 0.0}, {"is_reserved": 0, "type": "electric_scooter", "bike_id": "38d203a7cacce126b3d0fb82bceda982", "lat": 38.94243783333334, "lon": -77.03581916666667, "rental_uris": {"android": "https://dc.lft.to/lastmile_qr_scan", "ios": "https://dc.lft.to/lastmile_qr_scan"}, "is_disabled": 0, "fusion_lat": 0.0, "name": "38d203a7cacce126b3d0fb82bceda982", "fusion_lon": 0.0}, {"is_reserved": 0, "type": "electric_scooter", "bike_id": "9c61fd33913e6831e7cb27501bcd3873", "lat": 38.90869883333333, "lon": -77.04588816666667, "rental_uris": {"android": "https://dc.lft.to/lastmile_qr_scan", "ios": "https://dc.lft.to/lastmile_qr_scan"}, "is_disabled": 0, "fusion_lat": 0.0, "name": "9c61fd33913e6831e7cb27501bcd3873", "fusion_lon": 0.0}, {"is_reserved": 0, "type": "electric_scooter", "bike_id": "96d0bea0eb5ed95db0994e3155e38cce", "lat": 38.89608366666667, "lon": -77.04507133333334, "rental_uris": {"android": "https://dc.lft.to/lastmile_qr_scan", "ios": "https://dc.lft.to/lastmile_qr_scan"}, "is_disabled": 0, "fusion_lat": 0.0, "name": "96d0bea0eb5ed95db0994e3155e38cce", "fusion_lon": 0.0}, {"is_reserved": 0, "type": "electric_bike", "bike_id": "5df6c77e7f97d7d5e4dac8b3958f6756", "lat": 38.94369066666667, "lon": -77.07752383333333, "rental_uris": {"android": "https://dc.lft.to/lastmile_qr_scan", "ios": "https://dc.lft.to/lastmile_qr_scan"}, "is_disabled": 0, "fusion_lat": 0.0, "name": "5df6c77e7f97d7d5e4dac8b3958f6756", "fusion_lon": 0.0}, {"is_reserved": 0, "type": "electric_scooter", "bike_id": "79f26824d690e3071cdf062c906d7d58", "lat": 38.892225333333336, "lon": -77.02619916666667, "rental_uris": {"android": "https://dc.lft.to/lastmile_qr_scan", "ios": "https://dc.lft.to/lastmile_qr_scan"}, "is_disabled": 0, "fusion_lat": 0.0, "name": "79f26824d690e3071cdf062c906d7d58", "fusion_lon": 0.0}, {"is_reserved": 0, "type": "electric_scooter", "bike_id": "2be172a81eee13ff8f13e4f54f993133", "lat": 38.877623166666666, "lon": -76.994266, "rental_uris": {"android": "https://dc.lft.to/lastmile_qr_scan", "ios": "https://dc.lft.to/lastmile_qr_scan"}, "is_disabled": 0, "fusion_lat": 0.0, "name": "2be172a81eee13ff8f13e4f54f993133", "fusion_lon": 0.0}, {"is_reserved": 0, "type": "electric_scooter", "bike_id": "065ed111907fb98f75bae173351528bc", "lat": 38.920965333333335, "lon": -77.01781183333334, "rental_uris": {"android": "https://dc.lft.to/lastmile_qr_scan", "ios": "https://dc.lft.to/lastmile_qr_scan"}, "is_disabled": 0, "fusion_lat": 0.0, "name": "065ed111907fb98f75bae173351528bc", "fusion_lon": 0.0}, {"is_reserved": 0, "type": "electric_scooter", "bike_id": "d3200efa6d39fcfb04bb01c7262bbe28", "lat": 38.892211833333334, "lon": -77.02310066666666, "rental_uris": {"android": "https://dc.lft.to/lastmile_qr_scan", "ios": "https://dc.lft.to/lastmile_qr_scan"}, "is_disabled": 0, "fusion_lat": 0.0, "name": "d3200efa6d39fcfb04bb01c7262bbe28", "fusion_lon": 0.0}, {"is_reserved": 0, "type": "electric_scooter", "bike_id": "428c17e7ad290692262853853f1880f8", "lat": 38.916991333333335, "lon": -77.041425, "rental_uris": {"android": "https://dc.lft.to/lastmile_qr_scan", "ios": "https://dc.lft.to/lastmile_qr_scan"}, "is_disabled": 0, "fusion_lat": 0.0, "name": "428c17e7ad290692262853853f1880f8", "fusion_lon": 0.0}, {"is_reserved": 0, "type": "electric_scooter", "bike_id": "6825b7ed72ba5655ac31650e6c780aa2", "lat": 38.897845333333336, "lon": -77.04782216666666, "rental_uris": {"android": "https://dc.lft.to/lastmile_qr_scan", "ios": "https://dc.lft.to/lastmile_qr_scan"}, "is_disabled": 0, "fusion_lat": 0.0, "name": "6825b7ed72ba5655ac31650e6c780aa2", "fusion_lon": 0.0}, {"is_reserved": 0, "type": "electric_scooter", "bike_id": "01b2d9875a55023f9f331e5d881072e0", "lat": 38.922010666666665, "lon": -77.02037716666666, "rental_uris": {"android": "https://dc.lft.to/lastmile_qr_scan", "ios": "https://dc.lft.to/lastmile_qr_scan"}, "is_disabled": 0, "fusion_lat": 0.0, "name": "01b2d9875a55023f9f331e5d881072e0", "fusion_lon": 0.0}, {"is_reserved": 0, "type": "electric_scooter", "bike_id": "8dae4cf959ce41921134816faa65a4ab", "lat": 38.903797833333336, "lon": -77.0367475, "rental_uris": {"android": "https://dc.lft.to/lastmile_qr_scan", "ios": "https://dc.lft.to/lastmile_qr_scan"}, "is_disabled": 0, "fusion_lat": 0.0, "name": "8dae4cf959ce41921134816faa65a4ab", "fusion_lon": 0.0}, {"is_reserved": 0, "type": "electric_scooter", "bike_id": "f9a5d1b076c93d212bd4ae22edb12e52", "lat": 38.91016416666667, "lon": -76.99371133333334, "rental_uris": {"android": "https://dc.lft.to/lastmile_qr_scan", "ios": "https://dc.lft.to/lastmile_qr_scan"}, "is_disabled": 0, "fusion_lat": 0.0, "name": "f9a5d1b076c93d212bd4ae22edb12e52", "fusion_lon": 0.0}, {"is_reserved": 0, "type": "electric_scooter", "bike_id": "91de37f19e78a290a737d4b91fe4a8b5", "lat": 38.916941333333334, "lon": -77.01192883333333, "rental_uris": {"android": "https://dc.lft.to/lastmile_qr_scan", "ios": "https://dc.lft.to/lastmile_qr_scan"}, "is_disabled": 0, "fusion_lat": 0.0, "name": "91de37f19e78a290a737d4b91fe4a8b5", "fusion_lon": 0.0}, {"is_reserved": 0, "type": "electric_scooter", "bike_id": "880f811c609c3d57853c459aa9ede480", "lat": 38.89409466666667, "lon": -77.02148133333333, "rental_uris": {"android": "https://dc.lft.to/lastmile_qr_scan", "ios": "https://dc.lft.to/lastmile_qr_scan"}, "is_disabled": 0, "fusion_lat": 0.0, "name": "880f811c609c3d57853c459aa9ede480", "fusion_lon": 0.0}, {"is_reserved": 0, "type": "electric_scooter", "bike_id": "7205c90597970845b212565e9928214b", "lat": 38.87473966666667, "lon": -77.00337083333334, "rental_uris": {"android": "https://dc.lft.to/lastmile_qr_scan", "ios": "https://dc.lft.to/lastmile_qr_scan"}, "is_disabled": 0, "fusion_lat": 0.0, "name": "7205c90597970845b212565e9928214b", "fusion_lon": 0.0}, {"is_reserved": 0, "type": "electric_scooter", "bike_id": "3102aa565dde7947c06ffebd7032d217", "lat": 38.90021633333333, "lon": -77.00044666666666, "rental_uris": {"android": "https://dc.lft.to/lastmile_qr_scan", "ios": "https://dc.lft.to/lastmile_qr_scan"}, "is_disabled": 0, "fusion_lat": 0.0, "name": "3102aa565dde7947c06ffebd7032d217", "fusion_lon": 0.0}, {"is_reserved": 0, "type": "electric_scooter", "bike_id": "84f1497a6a01a771533c7a3775374eb5", "lat": 38.91003766666667, "lon": -77.0442825, "rental_uris": {"android": "https://dc.lft.to/lastmile_qr_scan", "ios": "https://dc.lft.to/lastmile_qr_scan"}, "is_disabled": 0, "fusion_lat": 0.0, "name": "84f1497a6a01a771533c7a3775374eb5", "fusion_lon": 0.0}, {"is_reserved": 0, "type": "electric_scooter", "bike_id": "3a5793d772dab078daefffafdbe8f9c5", "lat": 38.959587166666665, "lon": -77.072617, "rental_uris": {"android": "https://dc.lft.to/lastmile_qr_scan", "ios": "https://dc.lft.to/lastmile_qr_scan"}, "is_disabled": 0, "fusion_lat": 0.0, "name": "3a5793d772dab078daefffafdbe8f9c5", "fusion_lon": 0.0}, {"is_reserved": 0, "type": "electric_scooter", "bike_id": "1bfa4cbf41df35e8d421ec1c37f93dff", "lat": 38.89649, "lon": -77.032989, "rental_uris": {"android": "https://dc.lft.to/lastmile_qr_scan", "ios": "https://dc.lft.to/lastmile_qr_scan"}, "is_disabled": 0, "fusion_lat": 0.0, "name": "1bfa4cbf41df35e8d421ec1c37f93dff", "fusion_lon": 0.0}, {"is_reserved": 0, "type": "electric_bike", "bike_id": "ce04663ecb1c38396fd14a89e1092458", "lat": 38.93266783333333, "lon": -77.072349, "rental_uris": {"android": "https://dc.lft.to/lastmile_qr_scan", "ios": "https://dc.lft.to/lastmile_qr_scan"}, "is_disabled": 0, "fusion_lat": 0.0, "name": "ce04663ecb1c38396fd14a89e1092458", "fusion_lon": 0.0}, {"is_reserved": 0, "type": "electric_scooter", "bike_id": "6715c75655737cf9bcbaa73175c71f02", "lat": 38.907071, "lon": -77.0420905, "rental_uris": {"android": "https://dc.lft.to/lastmile_qr_scan", "ios": "https://dc.lft.to/lastmile_qr_scan"}, "is_disabled": 0, "fusion_lat": 0.0, "name": "6715c75655737cf9bcbaa73175c71f02", "fusion_lon": 0.0}, {"is_reserved": 0, "type": "electric_scooter", "bike_id": "403f85719518c52b7bcbe98d9563589f", "lat": 38.89960333333333, "lon": -77.00788266666666, "rental_uris": {"android": "https://dc.lft.to/lastmile_qr_scan", "ios": "https://dc.lft.to/lastmile_qr_scan"}, "is_disabled": 0, "fusion_lat": 0.0, "name": "403f85719518c52b7bcbe98d9563589f", "fusion_lon": 0.0}, {"is_reserved": 0, "type": "electric_scooter", "bike_id": "b592ac9c151149da9f778b224392a663", "lat": 38.920632166666664, "lon": -77.029476, "rental_uris": {"android": "https://dc.lft.to/lastmile_qr_scan", "ios": "https://dc.lft.to/lastmile_qr_scan"}, "is_disabled": 0, "fusion_lat": 0.0, "name": "b592ac9c151149da9f778b224392a663", "fusion_lon": 0.0}, {"is_reserved": 0, "type": "electric_scooter", "bike_id": "1b06c6dea226b0666b7eb817e8238dbb", "lat": 38.90482883333333, "lon": -77.06859416666667, "rental_uris": {"android": "https://dc.lft.to/lastmile_qr_scan", "ios": "https://dc.lft.to/lastmile_qr_scan"}, "is_disabled": 0, "fusion_lat": 0.0, "name": "1b06c6dea226b0666b7eb817e8238dbb", "fusion_lon": 0.0}, {"is_reserved": 0, "type": "electric_scooter", "bike_id": "b55bafb8c9fbb5f27cede54727ac1b34", "lat": 38.913975666666666, "lon": -77.04335083333334, "rental_uris": {"android": "https://dc.lft.to/lastmile_qr_scan", "ios": "https://dc.lft.to/lastmile_qr_scan"}, "is_disabled": 0, "fusion_lat": 0.0, "name": "b55bafb8c9fbb5f27cede54727ac1b34", "fusion_lon": 0.0}, {"is_reserved": 0, "type": "electric_scooter", "bike_id": "382295fc8c574def50e2a23ffa7ef9d1", "lat": 38.913424166666665, "lon": -77.04186333333334, "rental_uris": {"android": "https://dc.lft.to/lastmile_qr_scan", "ios": "https://dc.lft.to/lastmile_qr_scan"}, "is_disabled": 0, "fusion_lat": 0.0, "name": "382295fc8c574def50e2a23ffa7ef9d1", "fusion_lon": 0.0}, {"is_reserved": 0, "type": "electric_scooter", "bike_id": "179ead00f93c840afc8d781deb8c996f", "lat": 38.921368333333334, "lon": -77.01830666666666, "rental_uris": {"android": "https://dc.lft.to/lastmile_qr_scan", "ios": "https://dc.lft.to/lastmile_qr_scan"}, "is_disabled": 0, "fusion_lat": 0.0, "name": "179ead00f93c840afc8d781deb8c996f", "fusion_lon": 0.0}, {"is_reserved": 0, "type": "electric_scooter", "bike_id": "f3b307c2f6e1476ac8ede0c7e847584a", "lat": 38.926735666666666, "lon": -77.0150935, "rental_uris": {"android": "https://dc.lft.to/lastmile_qr_scan", "ios": "https://dc.lft.to/lastmile_qr_scan"}, "is_disabled": 0, "fusion_lat": 0.0, "name": "f3b307c2f6e1476ac8ede0c7e847584a", "fusion_lon": 0.0}, {"is_reserved": 0, "type": "electric_scooter", "bike_id": "91d6ee9529443916d7c6cab096b9ab9c", "lat": 38.91524183333333, "lon": -77.01328266666667, "rental_uris": {"android": "https://dc.lft.to/lastmile_qr_scan", "ios": "https://dc.lft.to/lastmile_qr_scan"}, "is_disabled": 0, "fusion_lat": 0.0, "name": "91d6ee9529443916d7c6cab096b9ab9c", "fusion_lon": 0.0}, {"is_reserved": 0, "type": "electric_scooter", "bike_id": "8b91e2006d1773b4203e454ca13f017a", "lat": 38.90028383333333, "lon": -77.011809, "rental_uris": {"android": "https://dc.lft.to/lastmile_qr_scan", "ios": "https://dc.lft.to/lastmile_qr_scan"}, "is_disabled": 0, "fusion_lat": 0.0, "name": "8b91e2006d1773b4203e454ca13f017a", "fusion_lon": 0.0}, {"is_reserved": 0, "type": "electric_scooter", "bike_id": "b01e5c770f3655b6e8b02c44f9ed4b9f", "lat": 38.876818, "lon": -76.99627183333334, "rental_uris": {"android": "https://dc.lft.to/lastmile_qr_scan", "ios": "https://dc.lft.to/lastmile_qr_scan"}, "is_disabled": 0, "fusion_lat": 0.0, "name": "b01e5c770f3655b6e8b02c44f9ed4b9f", "fusion_lon": 0.0}, {"is_reserved": 0, "type": "electric_scooter", "bike_id": "ea3e6211dd152139acafbda87e2ba648", "lat": 38.924856166666665, "lon": -77.031877, "rental_uris": {"android": "https://dc.lft.to/lastmile_qr_scan", "ios": "https://dc.lft.to/lastmile_qr_scan"}, "is_disabled": 0, "fusion_lat": 0.0, "name": "ea3e6211dd152139acafbda87e2ba648", "fusion_lon": 0.0}, {"is_reserved": 0, "type": "electric_bike", "bike_id": "146c45f44efd39a8242f1bc99d1a7f54", "lat": 38.91861016666667, "lon": -76.96084616666667, "rental_uris": {"android": "https://dc.lft.to/lastmile_qr_scan", "ios": "https://dc.lft.to/lastmile_qr_scan"}, "is_disabled": 0, "fusion_lat": 0.0, "name": "146c45f44efd39a8242f1bc99d1a7f54", "fusion_lon": 0.0}, {"is_reserved": 0, "type": "electric_scooter", "bike_id": "8fdac26d2f7f6bbd5ba381255ad49b4e", "lat": 38.88989433333333, "lon": -77.0007585, "rental_uris": {"android": "https://dc.lft.to/lastmile_qr_scan", "ios": "https://dc.lft.to/lastmile_qr_scan"}, "is_disabled": 0, "fusion_lat": 0.0, "name": "8fdac26d2f7f6bbd5ba381255ad49b4e", "fusion_lon": 0.0}, {"is_reserved": 0, "type": "electric_scooter", "bike_id": "aba07765b7b45931384172e663da15d1", "lat": 38.897342333333334, "lon": -77.02014166666666, "rental_uris": {"android": "https://dc.lft.to/lastmile_qr_scan", "ios": "https://dc.lft.to/lastmile_qr_scan"}, "is_disabled": 0, "fusion_lat": 0.0, "name": "aba07765b7b45931384172e663da15d1", "fusion_lon": 0.0}, {"is_reserved": 0, "type": "electric_scooter", "bike_id": "7e6af2a430378f05681e0028d0853146", "lat": 38.91266066666667, "lon": -77.03711266666667, "rental_uris": {"android": "https://dc.lft.to/lastmile_qr_scan", "ios": "https://dc.lft.to/lastmile_qr_scan"}, "is_disabled": 0, "fusion_lat": 0.0, "name": "7e6af2a430378f05681e0028d0853146", "fusion_lon": 0.0}, {"is_reserved": 0, "type": "electric_scooter", "bike_id": "b9034d537ff34739f13129be71918d81", "lat": 38.920891166666664, "lon": -77.0136895, "rental_uris": {"android": "https://dc.lft.to/lastmile_qr_scan", "ios": "https://dc.lft.to/lastmile_qr_scan"}, "is_disabled": 0, "fusion_lat": 0.0, "name": "b9034d537ff34739f13129be71918d81", "fusion_lon": 0.0}, {"is_reserved": 0, "type": "electric_scooter", "bike_id": "b46853a3f7f867368dd7bf259c276365", "lat": 38.90398783333333, "lon": -77.06780533333334, "rental_uris": {"android": "https://dc.lft.to/lastmile_qr_scan", "ios": "https://dc.lft.to/lastmile_qr_scan"}, "is_disabled": 0, "fusion_lat": 0.0, "name": "b46853a3f7f867368dd7bf259c276365", "fusion_lon": 0.0}, {"is_reserved": 0, "type": "electric_scooter", "bike_id": "ca129bccb7e80588fd5f839967677c18", "lat": 38.89350733333333, "lon": -77.02817583333334, "rental_uris": {"android": "https://dc.lft.to/lastmile_qr_scan", "ios": "https://dc.lft.to/lastmile_qr_scan"}, "is_disabled": 0, "fusion_lat": 0.0, "name": "ca129bccb7e80588fd5f839967677c18", "fusion_lon": 0.0}, {"is_reserved": 0, "type": "electric_scooter", "bike_id": "8c50ac6157d9f5889cb970eb9b710b03", "lat": 38.923162, "lon": -77.0412835, "rental_uris": {"android": "https://dc.lft.to/lastmile_qr_scan", "ios": "https://dc.lft.to/lastmile_qr_scan"}, "is_disabled": 0, "fusion_lat": 0.0, "name": "8c50ac6157d9f5889cb970eb9b710b03", "fusion_lon": 0.0}, {"is_reserved": 0, "type": "electric_scooter", "bike_id": "b5ef0ee1a8a63a539e5bfcfac15d7ff3", "lat": 38.9257175, "lon": -76.99504633333333, "rental_uris": {"android": "https://dc.lft.to/lastmile_qr_scan", "ios": "https://dc.lft.to/lastmile_qr_scan"}, "is_disabled": 0, "fusion_lat": 0.0, "name": "b5ef0ee1a8a63a539e5bfcfac15d7ff3", "fusion_lon": 0.0}, {"is_reserved": 0, "type": "electric_scooter", "bike_id": "d72ffa9429b7cd60cfb51eddd7130a43", "lat": 38.901854166666666, "lon": -77.02193966666667, "rental_uris": {"android": "https://dc.lft.to/lastmile_qr_scan", "ios": "https://dc.lft.to/lastmile_qr_scan"}, "is_disabled": 0, "fusion_lat": 0.0, "name": "d72ffa9429b7cd60cfb51eddd7130a43", "fusion_lon": 0.0}, {"is_reserved": 0, "type": "electric_scooter", "bike_id": "3b32158814c84d7d2f568698975a2e2a", "lat": 38.92566266666667, "lon": -76.9700685, "rental_uris": {"android": "https://dc.lft.to/lastmile_qr_scan", "ios": "https://dc.lft.to/lastmile_qr_scan"}, "is_disabled": 0, "fusion_lat": 0.0, "name": "3b32158814c84d7d2f568698975a2e2a", "fusion_lon": 0.0}, {"is_reserved": 0, "type": "electric_scooter", "bike_id": "0e5c1f8036dbc2c0980dfc2e920335f4", "lat": 38.90546416666667, "lon": -77.02954833333334, "rental_uris": {"android": "https://dc.lft.to/lastmile_qr_scan", "ios": "https://dc.lft.to/lastmile_qr_scan"}, "is_disabled": 0, "fusion_lat": 0.0, "name": "0e5c1f8036dbc2c0980dfc2e920335f4", "fusion_lon": 0.0}, {"is_reserved": 0, "type": "electric_scooter", "bike_id": "a6ed5014fd3232f9d2c9b5e3659fd776", "lat": 38.892270333333336, "lon": -77.02311833333333, "rental_uris": {"android": "https://dc.lft.to/lastmile_qr_scan", "ios": "https://dc.lft.to/lastmile_qr_scan"}, "is_disabled": 0, "fusion_lat": 0.0, "name": "a6ed5014fd3232f9d2c9b5e3659fd776", "fusion_lon": 0.0}, {"is_reserved": 0, "type": "electric_scooter", "bike_id": "0ddbd92f312231a1202574143b82b19e", "lat": 38.908285166666666, "lon": -77.034648, "rental_uris": {"android": "https://dc.lft.to/lastmile_qr_scan", "ios": "https://dc.lft.to/lastmile_qr_scan"}, "is_disabled": 0, "fusion_lat": 0.0, "name": "0ddbd92f312231a1202574143b82b19e", "fusion_lon": 0.0}, {"is_reserved": 0, "type": "electric_bike", "bike_id": "0d0782321bed62b1f94feb75bdaefb30", "lat": 38.95133033333333, "lon": -76.96583683333333, "rental_uris": {"android": "https://dc.lft.to/lastmile_qr_scan", "ios": "https://dc.lft.to/lastmile_qr_scan"}, "is_disabled": 0, "fusion_lat": 0.0, "name": "0d0782321bed62b1f94feb75bdaefb30", "fusion_lon": 0.0}, {"is_reserved": 0, "type": "electric_bike", "bike_id": "1fdeeed2b81dc0d0bacc5141370310ef", "lat": 38.86093183333333, "lon": -77.05640733333334, "rental_uris": {"android": "https://dc.lft.to/lastmile_qr_scan", "ios": "https://dc.lft.to/lastmile_qr_scan"}, "is_disabled": 0, "fusion_lat": 0.0, "name": "1fdeeed2b81dc0d0bacc5141370310ef", "fusion_lon": 0.0}, {"is_reserved": 0, "type": "electric_scooter", "bike_id": "c715eb790e19714860f45c9c765e0531", "lat": 38.918109333333334, "lon": -77.01078783333334, "rental_uris": {"android": "https://dc.lft.to/lastmile_qr_scan", "ios": "https://dc.lft.to/lastmile_qr_scan"}, "is_disabled": 0, "fusion_lat": 0.0, "name": "c715eb790e19714860f45c9c765e0531", "fusion_lon": 0.0}, {"is_reserved": 0, "type": "electric_scooter", "bike_id": "a7ea6f350f9a38eb000d6062c8f92b83", "lat": 38.91695166666667, "lon": -77.037727, "rental_uris": {"android": "https://dc.lft.to/lastmile_qr_scan", "ios": "https://dc.lft.to/lastmile_qr_scan"}, "is_disabled": 0, "fusion_lat": 0.0, "name": "a7ea6f350f9a38eb000d6062c8f92b83", "fusion_lon": 0.0}, {"is_reserved": 0, "type": "electric_scooter", "bike_id": "e59a4ed4b3a93b5146d2918f6f69429d", "lat": 38.92055883333333, "lon": -77.02193983333333, "rental_uris": {"android": "https://dc.lft.to/lastmile_qr_scan", "ios": "https://dc.lft.to/lastmile_qr_scan"}, "is_disabled": 0, "fusion_lat": 0.0, "name": "e59a4ed4b3a93b5146d2918f6f69429d", "fusion_lon": 0.0}, {"is_reserved": 0, "type": "electric_scooter", "bike_id": "e57f4fbf9d1d5b0f0bcb558d4157bdb1", "lat": 38.899455333333336, "lon": -77.03181666666667, "rental_uris": {"android": "https://dc.lft.to/lastmile_qr_scan", "ios": "https://dc.lft.to/lastmile_qr_scan"}, "is_disabled": 0, "fusion_lat": 0.0, "name": "e57f4fbf9d1d5b0f0bcb558d4157bdb1", "fusion_lon": 0.0}, {"is_reserved": 0, "type": "electric_scooter", "bike_id": "e67d5d6b9c29526e1ca075ed0ac641e5", "lat": 38.90037933333333, "lon": -76.991524, "rental_uris": {"android": "https://dc.lft.to/lastmile_qr_scan", "ios": "https://dc.lft.to/lastmile_qr_scan"}, "is_disabled": 0, "fusion_lat": 0.0, "name": "e67d5d6b9c29526e1ca075ed0ac641e5", "fusion_lon": 0.0}, {"is_reserved": 0, "type": "electric_scooter", "bike_id": "69b290c4a9ec57ccb1f83c6fb0675ee8", "lat": 38.92266466666667, "lon": -76.99772966666667, "rental_uris": {"android": "https://dc.lft.to/lastmile_qr_scan", "ios": "https://dc.lft.to/lastmile_qr_scan"}, "is_disabled": 0, "fusion_lat": 0.0, "name": "69b290c4a9ec57ccb1f83c6fb0675ee8", "fusion_lon": 0.0},