{"data": {"bikes": [{"rental_uris": {"ios": "https://dc.lft.to/lastmile_qr_scan", "android": "https://dc.lft.to/lastmile_qr_scan"}, "is_disabled": 0, "bike_id": "d0a85070bf93a72f3ec6061e8463e629", "fusion_lon": 0.0, "fusion_lat": 0.0, "is_reserved": 0, "type": "electric_scooter", "lon": -77.05260516666667, "name": "d0a85070bf93a72f3ec6061e8463e629", "lat": 38.89995433333333}, {"rental_uris": {"ios": "https://dc.lft.to/lastmile_qr_scan", "android": "https://dc.lft.to/lastmile_qr_scan"}, "is_disabled": 0, "bike_id": "462204b68b975aa422abc954c6be7c04", "fusion_lon": 0.0, "fusion_lat": 0.0, "is_reserved": 0, "type": "electric_scooter", "lon": -77.024186, "name": "462204b68b975aa422abc954c6be7c04", "lat": 38.895133}, {"rental_uris": {"ios": "https://dc.lft.to/lastmile_qr_scan", "android": "https://dc.lft.to/lastmile_qr_scan"}, "is_disabled": 0, "bike_id": "feee14834497de04fddc97646ddab11b", "fusion_lon": 0.0, "fusion_lat": 0.0, "is_reserved": 0, "type": "electric_scooter", "lon": -76.98178966666667, "name": "feee14834497de04fddc97646ddab11b", "lat": 38.895814666666666}, {"rental_uris": {"ios": "https://dc.lft.to/lastmile_qr_scan", "android": "https://dc.lft.to/lastmile_qr_scan"}, "is_disabled": 0, "bike_id": "63728c6804430d80e10da60e40b3b1d7", "fusion_lon": 0.0, "fusion_lat": 0.0, "is_reserved": 0, "type": "electric_scooter", "lon": -76.9951415, "name": "63728c6804430d80e10da60e40b3b1d7", "lat": 38.88375383333333}, {"rental_uris": {"ios": "https://dc.lft.to/lastmile_qr_scan", "android": "https://dc.lft.to/lastmile_qr_scan"}, "is_disabled": 0, "bike_id": "c48c3db89d021e6d052490fddb49afbe", "fusion_lon": 0.0, "fusion_lat": 0.0, "is_reserved": 0, "type": "electric_scooter", "lon": -77.0020595, "name": "c48c3db89d021e6d052490fddb49afbe", "lat": 38.900771666666664}, {"rental_uris": {"ios": "https://dc.lft.to/lastmile_qr_scan", "android": "https://dc.lft.to/lastmile_qr_scan"}, "is_disabled": 0, "bike_id": "8627a7cede3e4a2f142da2c278af6069", "fusion_lon": 0.0, "fusion_lat": 0.0, "is_reserved": 0, "type": "electric_scooter", "lon": -77.038521, "name": "8627a7cede3e4a2f142da2c278af6069", "lat": 38.915508333333335}, {"rental_uris": {"ios": "https://dc.lft.to/lastmile_qr_scan", "android": "https://dc.lft.to/lastmile_qr_scan"}, "is_disabled": 0, "bike_id": "ac3fbe105e657c4b475a96f06a374454", "fusion_lon": 0.0, "fusion_lat": 0.0, "is_reserved": 0, "type": "electric_bike", "lon": -76.94568333333333, "name": "ac3fbe105e657c4b475a96f06a374454", "lat": 38.841365833333334}, {"rental_uris": {"ios": "https://dc.lft.to/lastmile_qr_scan", "android": "https://dc.lft.to/lastmile_qr_scan"}, "is_disabled": 0, "bike_id": "dd7983c01fec4c07810afb3ba83cf890", "fusion_lon": 0.0, "fusion_lat": 0.0, "is_reserved": 0, "type": "electric_scooter", "lon": -77.04129866666666, "name": "dd7983c01fec4c07810afb3ba83cf890", "lat": 38.92537566666667}, {"rental_uris": {"ios": "https://dc.lft.to/lastmile_qr_scan", "android": "https://dc.lft.to/lastmile_qr_scan"}, "is_disabled": 0, "bike_id": "159f7259e94eda3a70318a637c4339cf", "fusion_lon": 0.0, "fusion_lat": 0.0, "is_reserved": 0, "type": "electric_scooter", "lon": -77.02685383333333, "name": "159f7259e94eda3a70318a637c4339cf", "lat": 38.89446866666667}, {"rental_uris": {"ios": "https://dc.lft.to/lastmile_qr_scan", "android": "https://dc.lft.to/lastmile_qr_scan"}, "is_disabled": 0, "bike_id": "9bf00c914ab87d97a343f53d6b7be364", "fusion_lon": 0.0, "fusion_lat": 0.0, "is_reserved": 0, "type": "electric_scooter", "lon": -77.02663883333334, "name": "9bf00c914ab87d97a343f53d6b7be364", "lat": 38.89992633333333}, {"rental_uris": {"ios": "https://dc.lft.to/lastmile_qr_scan", "android": "https://dc.lft.to/lastmile_qr_scan"}, "is_disabled": 0, "bike_id": "806d5300cedbfef68f9cc6a03d2a24c0", "fusion_lon": 0.0, "fusion_lat": 0.0, "is_reserved": 0, "type": "electric_bike", "lon": -77.12480366666666, "name": "806d5300cedbfef68f9cc6a03d2a24c0", "lat": 38.8539705}, {"rental_uris": {"ios": "https://dc.lft.to/lastmile_qr_scan", "android": "https://dc.lft.to/lastmile_qr_scan"}, "is_disabled": 0, "bike_id": "20aa44323c029d81ec03d99d2469aabd", "fusion_lon": 0.0, "fusion_lat": 0.0, "is_reserved": 0, "type": "electric_scooter", "lon": -77.02762433333334, "name": "20aa44323c029d81ec03d99d2469aabd", "lat": 38.90731133333333}, {"rental_uris": {"ios": "https://dc.lft.to/lastmile_qr_scan", "android": "https://dc.lft.to/lastmile_qr_scan"}, "is_disabled": 0, "bike_id": "070b67e971af5194fb6ec5036b3cc49d", "fusion_lon": 0.0, "fusion_lat": 0.0, "is_reserved": 0, "type": "electric_scooter", "lon": -77.05231033333334, "name": "070b67e971af5194fb6ec5036b3cc49d", "lat": 38.924665833333336}, {"rental_uris": {"ios": "https://dc.lft.to/lastmile_qr_scan", "android": "https://dc.lft.to/lastmile_qr_scan"}, "is_disabled": 0, "bike_id": "11afbf92886ca36afb858a4ee04d5930", "fusion_lon": 0.0, "fusion_lat": 0.0, "is_reserved": 0, "type": "electric_scooter", "lon": -77.03675233333334, "name": "11afbf92886ca36afb858a4ee04d5930", "lat": 38.9181405}, {"rental_uris": {"ios": "https://dc.lft.to/lastmile_qr_scan", "android": "https://dc.lft.to/lastmile_qr_scan"}, "is_disabled": 0, "bike_id": "613b316f818bcaa2a20958466e23dc6c", "fusion_lon": 0.0, "fusion_lat": 0.0, "is_reserved": 0, "type": "electric_scooter", "lon": -77.02182483333333, "name": "613b316f818bcaa2a20958466e23dc6c", "lat": 38.9174445}, {"rental_uris": {"ios": "https://dc.lft.to/lastmile_qr_scan", "android": "https://dc.lft.to/lastmile_qr_scan"}, "is_disabled": 0, "bike_id": "0d1f3ab8282fca07275a3ffaf609a28d", "fusion_lon": 0.0, "fusion_lat": 0.0, "is_reserved": 0, "type": "electric_scooter", "lon": -77.06298883333334, "name": "0d1f3ab8282fca07275a3ffaf609a28d", "lat": 38.903360166666666}, {"rental_uris": {"ios": "https://dc.lft.to/lastmile_qr_scan", "android": "https://dc.lft.to/lastmile_qr_scan"}, "is_disabled": 0, "bike_id": "b38c638fee610d8c9904d80f2c35eab1", "fusion_lon": 0.0, "fusion_lat": 0.0, "is_reserved": 0, "type": "electric_scooter", "lon": -77.00056216666667, "name": "b38c638fee610d8c9904d80f2c35eab1", "lat": 38.9005055}, {"rental_uris": {"ios": "https://dc.lft.to/lastmile_qr_scan", "android": "https://dc.lft.to/lastmile_qr_scan"}, "is_disabled": 0, "bike_id": "1402ab52736b23dbf639bc80bfdc4980", "fusion_lon": 0.0, "fusion_lat": 0.0, "is_reserved": 0, "type": "electric_bike", "lon": -77.049207, "name": "1402ab52736b23dbf639bc80bfdc4980", "lat": 38.81349783333334}, {"rental_uris": {"ios": "https://dc.lft.to/lastmile_qr_scan", "android": "https://dc.lft.to/lastmile_qr_scan"}, "is_disabled": 0, "bike_id": "70706acea3026fe4caee48dbde2f4360", "fusion_lon": 0.0, "fusion_lat": 0.0, "is_reserved": 0, "type": "electric_scooter", "lon": -77.05735383333334, "name": "70706acea3026fe4caee48dbde2f4360", "lat": 38.93355116666667}, {"rental_uris": {"ios": "https://dc.lft.to/lastmile_qr_scan", "android": "https://dc.lft.to/lastmile_qr_scan"}, "is_disabled": 0, "bike_id": "76d39496b236f16b9e30c5347abc7f51", "fusion_lon": 0.0, "fusion_lat": 0.0, "is_reserved": 0, "type": "electric_scooter", "lon": -77.049526, "name": "76d39496b236f16b9e30c5347abc7f51", "lat": 38.9052115}, {"rental_uris": {"ios": "https://dc.lft.to/lastmile_qr_scan", "android": "https://dc.lft.to/lastmile_qr_scan"}, "is_disabled": 0, "bike_id": "73a53e6026c0838706f0e5e8bdf9d179", "fusion_lon": 0.0, "fusion_lat": 0.0, "is_reserved": 0, "type": "electric_scooter", "lon": -77.04815566666667, "name": "73a53e6026c0838706f0e5e8bdf9d179", "lat": 38.911093666666666}, {"rental_uris": {"ios": "https://dc.lft.to/lastmile_qr_scan", "android": "https://dc.lft.to/lastmile_qr_scan"}, "is_disabled": 0, "bike_id": "a8e62165d705ac7a5a8c945955c6c0c8", "fusion_lon": 0.0, "fusion_lat": 0.0, "is_reserved": 0, "type": "electric_scooter", "lon": -77.04351766666667, "name": "a8e62165d705ac7a5a8c945955c6c0c8", "lat": 38.90831816666667}, {"rental_uris": {"ios": "https://dc.lft.to/lastmile_qr_scan", "android": "https://dc.lft.to/lastmile_qr_scan"}, "is_disabled": 0, "bike_id": "917c1983b80c1a337a731625efe0b9ae", "fusion_lon": 0.0, "fusion_lat": 0.0, "is_reserved": 0, "type": "electric_scooter", "lon": -77.055524, "name": "917c1983b80c1a337a731625efe0b9ae", "lat": 38.9342755}, {"rental_uris": {"ios": "https://dc.lft.to/lastmile_qr_scan", "android": "https://dc.lft.to/lastmile_qr_scan"}, "is_disabled": 0, "bike_id": "ea6b6dcad7381c957f736b9161fa6fe0", "fusion_lon": 0.0, "fusion_lat": 0.0, "is_reserved": 0, "type": "electric_scooter", "lon": -77.02691833333333, "name": "ea6b6dcad7381c957f736b9161fa6fe0", "lat": 38.9112715}, {"rental_uris": {"ios": "https://dc.lft.to/lastmile_qr_scan", "android": "https://dc.lft.to/lastmile_qr_scan"}, "is_disabled": 0, "bike_id": "25522b1098343b991bcbb3f1bf347223", "fusion_lon": 0.0, "fusion_lat": 0.0, "is_reserved": 0, "type": "electric_scooter", "lon": -77.00473516666666, "name": "25522b1098343b991bcbb3f1bf347223", "lat": 38.911414666666666}, {"rental_uris": {"ios": "https://dc.lft.to/lastmile_qr_scan", "android": "https://dc.lft.to/lastmile_qr_scan"}, "is_disabled": 0, "bike_id": "0094fe31cfc963ef9923304d392be728", "fusion_lon": 0.0, "fusion_lat": 0.0, "is_reserved": 0, "type": "electric_bike", "lon": -76.98422133333334, "name": "0094fe31cfc963ef9923304d392be728", "lat": 38.855163}, {"rental_uris": {"ios": "https://dc.lft.to/lastmile_qr_scan", "android": "https://dc.lft.to/lastmile_qr_scan"}, "is_disabled": 0, "bike_id": "df07091aacc96b4c2870f1d97d70ad71", "fusion_lon": 0.0, "fusion_lat": 0.0, "is_reserved": 0, "type": "electric_scooter", "lon": -77.022441, "name": "df07091aacc96b4c2870f1d97d70ad71", "lat": 38.92066883333333}, {"rental_uris": {"ios": "https://dc.lft.to/lastmile_qr_scan", "android": "https://dc.lft.to/lastmile_qr_scan"}, "is_disabled": 0, "bike_id": "6e587dfc5cdd41c40c97519c198df5ce", "fusion_lon": 0.0, "fusion_lat": 0.0, "is_reserved": 0, "type": "electric_scooter", "lon": -77.0315965, "name": "6e587dfc5cdd41c40c97519c198df5ce", "lat": 38.915595333333336}, {"rental_uris": {"ios": "https://dc.lft.to/lastmile_qr_scan", "android": "https://dc.lft.to/lastmile_qr_scan"}, "is_disabled": 0, "bike_id": "5e9fdafeb84d55c339d6908be2d36c73", "fusion_lon": 0.0, "fusion_lat": 0.0, "is_reserved": 0, "type": "electric_scooter", "lon": -77.05086583333333, "name": "5e9fdafeb84d55c339d6908be2d36c73", "lat": 38.900617}, {"rental_uris": {"ios": "https://dc.lft.to/lastmile_qr_scan", "android": "https://dc.lft.to/lastmile_qr_scan"}, "is_disabled": 0, "bike_id": "ad0652b053fa903e6bac1ece56379b0d", "fusion_lon": 0.0, "fusion_lat": 0.0, "is_reserved": 0, "type": "electric_scooter", "lon": -77.03224883333333, "name": "ad0652b053fa903e6bac1ece56379b0d", "lat": 38.92014916666667}, {"rental_uris": {"ios": "https://dc.lft.to/lastmile_qr_scan", "android": "https://dc.lft.to/lastmile_qr_scan"}, "is_disabled": 0, "bike_id": "4d695d95f65ebd4f14ae748f2c83cc9c", "fusion_lon": 0.0, "fusion_lat": 0.0, "is_reserved": 0, "type": "electric_scooter", "lon": -77.04858783333333, "name": "4d695d95f65ebd4f14ae748f2c83cc9c", "lat": 38.892228}, {"rental_uris": {"ios": "https://dc.lft.to/lastmile_qr_scan", "android": "https://dc.lft.to/lastmile_qr_scan"}, "is_disabled": 0, "bike_id": "8210117013efb3981104b6dfe15a3099", "fusion_lon": 0.0, "fusion_lat": 0.0, "is_reserved": 0, "type": "electric_scooter", "lon": -77.0362825, "name": "8210117013efb3981104b6dfe15a3099", "lat": 38.9374185}, {"rental_uris": {"ios": "https://dc.lft.to/lastmile_qr_scan", "android": "https://dc.lft.to/lastmile_qr_scan"}, "is_disabled": 0, "bike_id": "8838376cfbfbfeb669600af4330ff6ed", "fusion_lon": 0.0, "fusion_lat": 0.0, "is_reserved": 0, "type": "electric_scooter", "lon": -77.03157366666667, "name": "8838376cfbfbfeb669600af4330ff6ed", "lat": 38.892193666666664}, {"rental_uris": {"ios": "https://dc.lft.to/lastmile_qr_scan", "android": "https://dc.lft.to/lastmile_qr_scan"}, "is_disabled": 0, "bike_id": "619cca237999314b57788d3b717e8bbb", "fusion_lon": 0.0, "fusion_lat": 0.0, "is_reserved": 0, "type": "electric_scooter", "lon": -77.06113333333333, "name": "619cca237999314b57788d3b717e8bbb", "lat": 38.90485116666667}, {"rental_uris": {"ios": "https://dc.lft.to/lastmile_qr_scan", "android": "https://dc.lft.to/lastmile_qr_scan"}, "is_disabled": 0, "bike_id": "b0e6391d18652c2a67ed0f95369d7c17", "fusion_lon": 0.0, "fusion_lat": 0.0, "is_reserved": 0, "type": "electric_scooter", "lon": -77.04672533333333, "name": "b0e6391d18652c2a67ed0f95369d7c17", "lat": 38.8957705}, {"rental_uris": {"ios": "https://dc.lft.to/lastmile_qr_scan", "android": "https://dc.lft.to/lastmile_qr_scan"}, "is_disabled": 0, "bike_id": "313c7299c93c8b8f28fb998e4645e781", "fusion_lon": 0.0, "fusion_lat": 0.0, "is_reserved": 0, "type": "electric_bike", "lon": -77.0028685, "name": "313c7299c93c8b8f28fb998e4645e781", "lat": 38.916177}, {"rental_uris": {"ios": "https://dc.lft.to/lastmile_qr_scan", "android": "https://dc.lft.to/lastmile_qr_scan"}, "is_disabled": 0, "bike_id": "94a461862028e9dbe5aa2522bc5d7979", "fusion_lon": 0.0, "fusion_lat": 0.0, "is_reserved": 0, "type": "electric_scooter", "lon": -77.04144366666667, "name": "94a461862028e9dbe5aa2522bc5d7979", "lat": 38.92361866666667}, {"rental_uris": {"ios": "https://dc.lft.to/lastmile_qr_scan", "android": "https://dc.lft.to/lastmile_qr_scan"}, "is_disabled": 0, "bike_id": "e4eaebf0038c7c8bfe2741eef1b6ec7e", "fusion_lon": 0.0, "fusion_lat": 0.0, "is_reserved": 0, "type": "electric_scooter", "lon": -76.97740516666667, "name": "e4eaebf0038c7c8bfe2741eef1b6ec7e", "lat": 38.8683415}, {"rental_uris": {"ios": "https://dc.lft.to/lastmile_qr_scan", "android": "https://dc.lft.to/lastmile_qr_scan"}, "is_disabled": 0, "bike_id": "c970101772c1a90fffdcfaaa14449832", "fusion_lon": 0.0, "fusion_lat": 0.0, "is_reserved": 0, "type": "electric_bike", "lon": -76.93700483333333, "name": "c970101772c1a90fffdcfaaa14449832", "lat": 38.871422}, {"rental_uris": {"ios": "https://dc.lft.to/lastmile_qr_scan", "android": "https://dc.lft.to/lastmile_qr_scan"}, "is_disabled": 0, "bike_id": "12721649fcbe6fe5856c6e807c64fe32", "fusion_lon": 0.0, "fusion_lat": 0.0, "is_reserved": 0, "type": "electric_scooter", "lon": -77.03154783333333, "name": "12721649fcbe6fe5856c6e807c64fe32", "lat": 38.89789666666667}, {"rental_uris": {"ios": "https://dc.lft.to/lastmile_qr_scan", "android": "https://dc.lft.to/lastmile_qr_scan"}, "is_disabled": 0, "bike_id": "2e59b7c5d92121e6e6f9481b0bce438a", "fusion_lon": 0.0, "fusion_lat": 0.0, "is_reserved": 0, "type": "electric_scooter", "lon": -76.9524555, "name": "2e59b7c5d92121e6e6f9481b0bce438a", "lat": 38.890421833333335}, {"rental_uris": {"ios": "https://dc.lft.to/lastmile_qr_scan", "android": "https://dc.lft.to/lastmile_qr_scan"}, "is_disabled": 0, "bike_id": "4cfd1277c1e5f4bbf811084d2051fa39", "fusion_lon": 0.0, "fusion_lat": 0.0, "is_reserved": 0, "type": "electric_bike", "lon": -76.94227066666667, "name": "4cfd1277c1e5f4bbf811084d2051fa39", "lat": 38.892717}, {"rental_uris": {"ios": "https://dc.lft.to/lastmile_qr_scan", "android": "https://dc.lft.to/lastmile_qr_scan"}, "is_disabled": 0, "bike_id": "82698cc3efe685f0c5fbe3964dd94d72", "fusion_lon": 0.0, "fusion_lat": 0.0, "is_reserved": 0, "type": "electric_scooter", "lon": -77.04380416666666, "name": "82698cc3efe685f0c5fbe3964dd94d72", "lat": 38.9026255}, {"rental_uris": {"ios": "https://dc.lft.to/lastmile_qr_scan", "android": "https://dc.lft.to/lastmile_qr_scan"}, "is_disabled": 0, "bike_id": "74319ed5ac1a5b17c8508bd908d04d07", "fusion_lon": 0.0, "fusion_lat": 0.0, "is_reserved": 0, "type": "electric_bike", "lon": -77.1252485, "name": "74319ed5ac1a5b17c8508bd908d04d07", "lat": 39.05633683333333}, {"rental_uris": {"ios": "https://dc.lft.to/lastmile_qr_scan", "android": "https://dc.lft.to/lastmile_qr_scan"}, "is_disabled": 0, "bike_id": "7ea1b006a28aa7b4f8d0bea34d11ca8b", "fusion_lon": 0.0, "fusion_lat": 0.0, "is_reserved": 0, "type": "electric_scooter", "lon": -77.01531766666666, "name": "7ea1b006a28aa7b4f8d0bea34d11ca8b", "lat": 38.887403666666664}, {"rental_uris": {"ios": "https://dc.lft.to/lastmile_qr_scan", "android": "https://dc.lft.to/lastmile_qr_scan"}, "is_disabled": 0, "bike_id": "e465b87d01ffd7c801063f8d2ea7fbcf", "fusion_lon": 0.0, "fusion_lat": 0.0, "is_reserved": 0, "type": "electric_scooter", "lon": -77.03634866666667, "name": "e465b87d01ffd7c801063f8d2ea7fbcf", "lat": 38.917681}, {"rental_uris": {"ios": "https://dc.lft.to/lastmile_qr_scan", "android": "https://dc.lft.to/lastmile_qr_scan"}, "is_disabled": 0, "bike_id": "6029e947ca45dd151a3bf23bbd0104fd", "fusion_lon": 0.0, "fusion_lat": 0.0, "is_reserved": 0, "type": "electric_scooter", "lon": -77.0317615, "name": "6029e947ca45dd151a3bf23bbd0104fd", "lat": 38.918724}, {"rental_uris": {"ios": "https://dc.lft.to/lastmile_qr_scan", "android": "https://dc.lft.to/lastmile_qr_scan"}, "is_disabled": 0, "bike_id": "76c938a0b320754b8ef32bf32bb437e9", "fusion_lon": 0.0, "fusion_lat": 0.0, "is_reserved": 0, "type": "electric_scooter", "lon": -77.03098316666667, "name": "76c938a0b320754b8ef32bf32bb437e9", "lat": 38.898144}, {"rental_uris": {"ios": "https://dc.lft.to/lastmile_qr_scan", "android": "https://dc.lft.to/lastmile_qr_scan"}, "is_disabled": 0, "bike_id": "02d581f2fc503f1dc683941719bcaf01", "fusion_lon": 0.0, "fusion_lat": 0.0, "is_reserved": 0, "type": "electric_scooter", "lon": -77.02415083333334, "name": "02d581f2fc503f1dc683941719bcaf01", "lat": 38.90729616666667}, {"rental_uris": {"ios": "https://dc.lft.to/lastmile_qr_scan", "android": "https://dc.lft.to/lastmile_qr_scan"}, "is_disabled": 0, "bike_id": "6842560ec7694a1122c32ae65a6ea870", "fusion_lon": 0.0, "fusion_lat": 0.0, "is_reserved": 0, "type": "electric_scooter", "lon": -77.00429433333333, "name": "6842560ec7694a1122c32ae65a6ea870", "lat": 38.876409833333334}, {"rental_uris": {"ios": "https://dc.lft.to/lastmile_qr_scan", "android": "https://dc.lft.to/lastmile_qr_scan"}, "is_disabled": 0, "bike_id": "1623b434e10ecd43cb979e02b80e4218", "fusion_lon": 0.0, "fusion_lat": 0.0, "is_reserved": 0, "type": "electric_scooter", "lon": -77.052111, "name": "1623b434e10ecd43cb979e02b80e4218", "lat": 38.924333}, {"rental_uris": {"ios": "https://dc.lft.to/lastmile_qr_scan", "android": "https://dc.lft.to/lastmile_qr_scan"}, "is_disabled": 0, "bike_id": "6873fcb4053057d09db853de45b5a751", "fusion_lon": 0.0, "fusion_lat": 0.0, "is_reserved": 0, "type": "electric_scooter", "lon": -77.03786783333334, "name": "6873fcb4053057d09db853de45b5a751", "lat": 38.911236833333334}, {"rental_uris": {"ios": "https://dc.lft.to/lastmile_qr_scan", "android": "https://dc.lft.to/lastmile_qr_scan"}, "is_disabled": 0, "bike_id": "04b83bbfcf7651c89b9776f90048726e", "fusion_lon": 0.0, "fusion_lat": 0.0, "is_reserved": 0, "type": "electric_scooter", "lon": -77.03442833333334, "name": "04b83bbfcf7651c89b9776f90048726e", "lat": 38.918012}, {"rental_uris": {"ios": "https://dc.lft.to/lastmile_qr_scan", "android": "https://dc.lft.to/lastmile_qr_scan"}, "is_disabled": 0, "bike_id": "962bf058fcf1bf8cb3ceda8717f6718d", "fusion_lon": 0.0, "fusion_lat": 0.0, "is_reserved": 0, "type": "electric_scooter", "lon": -77.02709816666666, "name": "962bf058fcf1bf8cb3ceda8717f6718d", "lat": 38.907409666666666}, {"rental_uris": {"ios": "https://dc.lft.to/lastmile_qr_scan", "android": "https://dc.lft.to/lastmile_qr_scan"}, "is_disabled": 0, "bike_id": "be0543ed646cce6db5b2f08faf26a87e", "fusion_lon": 0.0, "fusion_lat": 0.0, "is_reserved": 0, "type": "electric_scooter", "lon": -77.03835866666667, "name": "be0543ed646cce6db5b2f08faf26a87e", "lat": 38.9027865}, {"rental_uris": {"ios": "https://dc.lft.to/lastmile_qr_scan", "android": "https://dc.lft.to/lastmile_qr_scan"}, "is_disabled": 0, "bike_id": "f746ba74a71d5870cd583a19f959e805", "fusion_lon": 0.0, "fusion_lat": 0.0, "is_reserved": 0, "type": "electric_scooter", "lon": -77.01814283333333, "name": "f746ba74a71d5870cd583a19f959e805", "lat": 38.911219}, {"rental_uris": {"ios": "https://dc.lft.to/lastmile_qr_scan", "android": "https://dc.lft.to/lastmile_qr_scan"}, "is_disabled": 0, "bike_id": "a09f3a6301664a6b06cde7828fba2b3c", "fusion_lon": 0.0, "fusion_lat": 0.0, "is_reserved": 0, "type": "electric_scooter", "lon": -77.043783, "name": "a09f3a6301664a6b06cde7828fba2b3c", "lat": 38.9027305}, {"rental_uris": {"ios": "https://dc.lft.to/lastmile_qr_scan", "android": "https://dc.lft.to/lastmile_qr_scan"}, "is_disabled": 0, "bike_id": "0a6035183cb504214ca29ffdb31c4156", "fusion_lon": 0.0, "fusion_lat": 0.0, "is_reserved": 0, "type": "electric_scooter", "lon": -77.0270505, "name": "0a6035183cb504214ca29ffdb31c4156", "lat": 38.928810666666664}, {"rental_uris": {"ios": "https://dc.lft.to/lastmile_qr_scan", "android": "https://dc.lft.to/lastmile_qr_scan"}, "is_disabled": 0, "bike_id": "815ce6269c47d04a49d6241fb685eacc", "fusion_lon": 0.0, "fusion_lat": 0.0, "is_reserved": 0, "type": "electric_scooter", "lon": -76.98918733333333, "name": "815ce6269c47d04a49d6241fb685eacc", "lat": 38.84076966666667}, {"rental_uris": {"ios": "https://dc.lft.to/lastmile_qr_scan", "android": "https://dc.lft.to/lastmile_qr_scan"}, "is_disabled": 0, "bike_id": "675a5bb1be9a75f1e8ae5c91dcedcdaf", "fusion_lon": 0.0, "fusion_lat": 0.0, "is_reserved": 0, "type": "electric_scooter", "lon": -77.0223235, "name": "675a5bb1be9a75f1e8ae5c91dcedcdaf", "lat": 38.91270766666667}, {"rental_uris": {"ios": "https://dc.lft.to/lastmile_qr_scan", "android": "https://dc.lft.to/lastmile_qr_scan"}, "is_disabled": 0, "bike_id": "012f96e900fc1966bf7ec03b845768ae", "fusion_lon": 0.0, "fusion_lat": 0.0, "is_reserved": 0, "type": "electric_scooter", "lon": -77.02757733333333, "name": "012f96e900fc1966bf7ec03b845768ae", "lat": 38.8973965}, {"rental_uris": {"ios": "https://dc.lft.to/lastmile_qr_scan", "android": "https://dc.lft.to/lastmile_qr_scan"}, "is_disabled": 0, "bike_id": "22689862b1b13ea1c660004e97f734aa", "fusion_lon": 0.0, "fusion_lat": 0.0, "is_reserved": 0, "type": "electric_scooter", "lon": -77.04241516666667, "name": "22689862b1b13ea1c660004e97f734aa", "lat": 38.92220483333333}, {"rental_uris": {"ios": "https://dc.lft.to/lastmile_qr_scan", "android": "https://dc.lft.to/lastmile_qr_scan"}, "is_disabled": 0, "bike_id": "215e488722879ae9c098074d3969bc8f", "fusion_lon": 0.0, "fusion_lat": 0.0, "is_reserved": 0, "type": "electric_scooter", "lon": -77.0328135, "name": "215e488722879ae9c098074d3969bc8f", "lat": 38.937417833333335}, {"rental_uris": {"ios": "https://dc.lft.to/lastmile_qr_scan", "android": "https://dc.lft.to/lastmile_qr_scan"}, "is_disabled": 0, "bike_id": "4d4bef7fcda0868c62101469183699bf", "fusion_lon": 0.0, "fusion_lat": 0.0, "is_reserved": 0, "type": "electric_scooter", "lon": -77.02663216666667, "name": "4d4bef7fcda0868c62101469183699bf", "lat": 38.90080233333333}, {"rental_uris": {"ios": "https://dc.lft.to/lastmile_qr_scan", "android": "https://dc.lft.to/lastmile_qr_scan"}, "is_disabled": 0, "bike_id": "dad053c633856f5c4d517c111d23269f", "fusion_lon": 0.0, "fusion_lat": 0.0, "is_reserved": 0, "type": "electric_scooter", "lon": -76.97945466666667, "name": "dad053c633856f5c4d517c111d23269f", "lat": 38.916941333333334}, {"rental_uris": {"ios": "https://dc.lft.to/lastmile_qr_scan", "android": "https://dc.lft.to/lastmile_qr_scan"}, "is_disabled": 0, "bike_id": "1c6b42dfea5f1828a056fbb581fc53c1", "fusion_lon": 0.0, "fusion_lat": 0.0, "is_reserved": 0, "type": "electric_bike", "lon": -77.16253266666666, "name": "1c6b42dfea5f1828a056fbb581fc53c1", "lat": 38.886715}, {"rental_uris": {"ios": "https://dc.lft.to/lastmile_qr_scan", "android": "https://dc.lft.to/lastmile_qr_scan"}, "is_disabled": 0, "bike_id": "2fd12aac0d14db64d58358e55bd0fd53", "fusion_lon": 0.0, "fusion_lat": 0.0, "is_reserved": 0, "type": "electric_bike", "lon": -77.11781716666667, "name": "2fd12aac0d14db64d58358e55bd0fd53", "lat": 38.885488}, {"rental_uris": {"ios": "https://dc.lft.to/lastmile_qr_scan", "android": "https://dc.lft.to/lastmile_qr_scan"}, "is_disabled": 0, "bike_id": "06b7d70580551e963c8d8290acf7a147", "fusion_lon": 0.0, "fusion_lat": 0.0, "is_reserved": 0, "type": "electric_scooter", "lon": -77.0505275, "name": "06b7d70580551e963c8d8290acf7a147", "lat": 38.904148}, {"rental_uris": {"ios": "https://dc.lft.to/lastmile_qr_scan", "android": "https://dc.lft.to/lastmile_qr_scan"}, "is_disabled": 0, "bike_id": "3fdc247718a694dc0cb1ee34b94bc60f", "fusion_lon": 0.0, "fusion_lat": 0.0, "is_reserved": 0, "type": "electric_scooter", "lon": -76.99026, "name": "3fdc247718a694dc0cb1ee34b94bc60f", "lat": 38.900397166666664}, {"rental_uris": {"ios": "https://dc.lft.to/lastmile_qr_scan", "android": "https://dc.lft.to/lastmile_qr_scan"}, "is_disabled": 0, "bike_id": "b72c1431675ae83cd73d135fd805f155", "fusion_lon": 0.0, "fusion_lat": 0.0, "is_reserved": 0, "type": "electric_scooter", "lon": -77.01891166666667, "name": "b72c1431675ae83cd73d135fd805f155", "lat": 38.886005833333336}, {"rental_uris": {"ios": "https://dc.lft.to/lastmile_qr_scan", "android": "https://dc.lft.to/lastmile_qr_scan"}, "is_disabled": 0, "bike_id": "1ac18dfe572b5292358fe747b2bdc11f", "fusion_lon": 0.0, "fusion_lat": 0.0, "is_reserved": 0, "type": "electric_scooter", "lon": -77.02412866666667, "name": "1ac18dfe572b5292358fe747b2bdc11f", "lat": 38.907269166666666}, {"rental_uris": {"ios": "https://dc.lft.to/lastmile_qr_scan", "android": "https://dc.lft.to/lastmile_qr_scan"}, "is_disabled": 0, "bike_id": "b019dac8ddf16ffdb84c280fe65ae6a1", "fusion_lon": 0.0, "fusion_lat": 0.0, "is_reserved": 0, "type": "electric_scooter", "lon": -77.0200655, "name": "b019dac8ddf16ffdb84c280fe65ae6a1", "lat": 38.9082735}, {"rental_uris": {"ios": "https://dc.lft.to/lastmile_qr_scan", "android": "https://dc.lft.to/lastmile_qr_scan"}, "is_disabled": 0, "bike_id": "74477c2e92881e7f19e8501b49c651ee", "fusion_lon": 0.0, "fusion_lat": 0.0, "is_reserved": 0, "type": "electric_scooter", "lon": -77.03343283333334, "name": "74477c2e92881e7f19e8501b49c651ee", "lat": 38.909592333333336}, {"rental_uris": {"ios": "https://dc.lft.to/lastmile_qr_scan", "android": "https://dc.lft.to/lastmile_qr_scan"}, "is_disabled": 0, "bike_id": "f032ee1ace2fad65cda9991c0f0e9366", "fusion_lon": 0.0, "fusion_lat": 0.0, "is_reserved": 0, "type": "electric_scooter", "lon": -77.04030833333333, "name": "f032ee1ace2fad65cda9991c0f0e9366", "lat": 38.918591}, {"rental_uris": {"ios": "https://dc.lft.to/lastmile_qr_scan", "android": "https://dc.lft.to/lastmile_qr_scan"}, "is_disabled": 0, "bike_id": "90b1a268fb0b288ca83fd459377f4e19", "fusion_lon": 0.0, "fusion_lat": 0.0, "is_reserved": 0, "type": "electric_scooter", "lon": -77.03871433333333, "name": "90b1a268fb0b288ca83fd459377f4e19", "lat": 38.921535}, {"rental_uris": {"ios": "https://dc.lft.to/lastmile_qr_scan", "android": "https://dc.lft.to/lastmile_qr_scan"}, "is_disabled": 0, "bike_id": "fdf5a11cc69082ad20662078ccfd9f2a", "fusion_lon": 0.0, "fusion_lat": 0.0, "is_reserved": 0, "type": "electric_scooter", "lon": -77.0439375, "name": "fdf5a11cc69082ad20662078ccfd9f2a", "lat": 38.923550666666664}, {"rental_uris": {"ios": "https://dc.lft.to/lastmile_qr_scan", "android": "https://dc.lft.to/lastmile_qr_scan"}, "is_disabled": 0, "bike_id": "f08943aaec5a15ba989f14e702436a28", "fusion_lon": 0.0, "fusion_lat": 0.0, "is_reserved": 0, "type": "electric_scooter", "lon": -77.03156583333333, "name": "f08943aaec5a15ba989f14e702436a28", "lat": 38.923643166666665}, {"rental_uris": {"ios": "https://dc.lft.to/lastmile_qr_scan", "android": "https://dc.lft.to/lastmile_qr_scan"}, "is_disabled": 0, "bike_id": "df2eea6ae6a6cf9543d0e0b557728f94", "fusion_lon": 0.0, "fusion_lat": 0.0, "is_reserved": 0, "type": "electric_scooter", "lon": -76.97231866666667, "name": "df2eea6ae6a6cf9543d0e0b557728f94", "lat": 38.8545725}, {"rental_uris": {"ios": "https://dc.lft.to/lastmile_qr_scan", "android": "https://dc.lft.to/lastmile_qr_scan"}, "is_disabled": 0, "bike_id": "24fe4f0ab4d414cad300570e78c4cdf4", "fusion_lon": 0.0, "fusion_lat": 0.0, "is_reserved": 0, "type": "electric_scooter", "lon": -77.0269145, "name": "24fe4f0ab4d414cad300570e78c4cdf4", "lat": 38.911221833333336}, {"rental_uris": {"ios": "https://dc.lft.to/lastmile_qr_scan", "android": "https://dc.lft.to/lastmile_qr_scan"}, "is_disabled": 0, "bike_id": "f612ddd220f802799f78d22778e5dc33", "fusion_lon": 0.0, "fusion_lat": 0.0, "is_reserved": 0, "type": "electric_scooter", "lon": -76.992473, "name": "f612ddd220f802799f78d22778e5dc33", "lat": 38.863865833333335}, {"rental_uris": {"ios": "https://dc.lft.to/lastmile_qr_scan", "android": "https://dc.lft.to/lastmile_qr_scan"}, "is_disabled": 0, "bike_id": "59c1667723be07239e92ad85211caf3d", "fusion_lon": 0.0, "fusion_lat": 0.0, "is_reserved": 0, "type": "electric_bike", "lon": -77.063473, "name": "59c1667723be07239e92ad85211caf3d", "lat": 38.90283216666667}, {"rental_uris": {"ios": "https://dc.lft.to/lastmile_qr_scan", "android": "https://dc.lft.to/lastmile_qr_scan"}, "is_disabled": 0, "bike_id": "71d78588f68797465c657a6fea605b16", "fusion_lon": 0.0, "fusion_lat": 0.0, "is_reserved": 0, "type": "electric_scooter", "lon": -77.021901, "name": "71d78588f68797465c657a6fea605b16", "lat": 38.91661583333333}, {"rental_uris": {"ios": "https://dc.lft.to/lastmile_qr_scan", "android": "https://dc.lft.to/lastmile_qr_scan"}, "is_disabled": 0, "bike_id": "59e63fa1f64473085781344f4cfc73fa", "fusion_lon": 0.0, "fusion_lat": 0.0, "is_reserved": 0, "type": "electric_scooter", "lon": -77.03812066666667, "name": "59e63fa1f64473085781344f4cfc73fa", "lat": 38.909609333333336}, {"rental_uris": {"ios": "https://dc.lft.to/lastmile_qr_scan", "android": "https://dc.lft.to/lastmile_qr_scan"}, "is_disabled": 0, "bike_id": "0cf8a462ca0dc299570f5ed5f57b7b13", "fusion_lon": 0.0, "fusion_lat": 0.0, "is_reserved": 0, "type": "electric_scooter", "lon": -77.04306816666667, "name": "0cf8a462ca0dc299570f5ed5f57b7b13", "lat": 38.91123183333333}, {"rental_uris": {"ios": "https://dc.lft.to/lastmile_qr_scan", "android": "https://dc.lft.to/lastmile_qr_scan"}, "is_disabled": 0, "bike_id": "d9c31aea0f6774d77df0bd83895b60c9", "fusion_lon": 0.0, "fusion_lat": 0.0, "is_reserved": 0, "type": "electric_scooter", "lon": -77.046035, "name": "d9c31aea0f6774d77df0bd83895b60c9", "lat": 38.90228466666667}, {"rental_uris": {"ios": "https://dc.lft.to/lastmile_qr_scan", "android": "https://dc.lft.to/lastmile_qr_scan"}, "is_disabled": 0, "bike_id": "deefab0776c40e2738e5786b6c6b6188", "fusion_lon": 0.0, "fusion_lat": 0.0, "is_reserved": 0, "type": "electric_scooter", "lon": -76.985573, "name": "deefab0776c40e2738e5786b6c6b6188", "lat": 38.8867555}, {"rental_uris": {"ios": "https://dc.lft.to/lastmile_qr_scan", "android": "https://dc.lft.to/lastmile_qr_scan"}, "is_disabled": 0, "bike_id": "d9f2df2b8fab79eca76e0b39157b6ecc", "fusion_lon": 0.0, "fusion_lat": 0.0, "is_reserved": 0, "type": "electric_bike", "lon": -76.98552966666666, "name": "d9f2df2b8fab79eca76e0b39157b6ecc", "lat": 38.852086666666665}, {"rental_uris": {"ios": "https://dc.lft.to/lastmile_qr_scan", "android": "https://dc.lft.to/lastmile_qr_scan"}, "is_disabled": 0, "bike_id": "478c65d8bd789ba33be5137a37a73d7c", "fusion_lon": 0.0, "fusion_lat": 0.0, "is_reserved": 0, "type": "electric_scooter", "lon": -77.00494466666666, "name": "478c65d8bd789ba33be5137a37a73d7c", "lat": 38.89693416666667}, {"rental_uris": {"ios": "https://dc.lft.to/lastmile_qr_scan", "android": "https://dc.lft.to/lastmile_qr_scan"}, "is_disabled": 0, "bike_id": "bc2d2589df7af44b1d27e9accafc4cd7", "fusion_lon": 0.0, "fusion_lat": 0.0, "is_reserved": 0, "type": "electric_scooter", "lon": -77.025841, "name": "bc2d2589df7af44b1d27e9accafc4cd7", "lat": 38.90422816666667}, {"rental_uris": {"ios": "https://dc.lft.to/lastmile_qr_scan", "android": "https://dc.lft.to/lastmile_qr_scan"}, "is_disabled": 0, "bike_id": "1bba96ab9b4f1b3cd5938e3cd2918359", "fusion_lon": 0.0, "fusion_lat": 0.0, "is_reserved": 0, "type": "electric_scooter", "lon": -77.01592466666666, "name": "1bba96ab9b4f1b3cd5938e3cd2918359", "lat": 38.928420833333334}, {"rental_uris": {"ios": "https://dc.lft.to/lastmile_qr_scan", "android": "https://dc.lft.to/lastmile_qr_scan"}, "is_disabled": 0, "bike_id": "1c35b2199d3d55ea3a7a683e43446f6d", "fusion_lon": 0.0, "fusion_lat": 0.0, "is_reserved": 0, "type": "electric_scooter", "lon": -77.04170266666667, "name": "1c35b2199d3d55ea3a7a683e43446f6d", "lat": 38.918374}, {"rental_uris": {"ios": "https://dc.lft.to/lastmile_qr_scan", "android": "https://dc.lft.to/lastmile_qr_scan"}, "is_disabled": 0, "bike_id": "7476538103c929a6765d65453b7cab23", "fusion_lon": 0.0, "fusion_lat": 0.0, "is_reserved": 0, "type": "electric_scooter", "lon": -77.05751716666667, "name": "7476538103c929a6765d65453b7cab23", "lat": 38.9257255}, {"rental_uris": {"ios": "https://dc.lft.to/lastmile_qr_scan", "android": "https://dc.lft.to/lastmile_qr_scan"}, "is_disabled": 0, "bike_id": "b30e155541f310273eacdd00750a2f92", "fusion_lon": 0.0, "fusion_lat": 0.0, "is_reserved": 0, "type": "electric_scooter", "lon": -77.025751, "name": "b30e155541f310273eacdd00750a2f92", "lat": 38.9171045}, {"rental_uris": {"ios": "https://dc.lft.to/lastmile_qr_scan", "android": "https://dc.lft.to/lastmile_qr_scan"}, "is_disabled": 0, "bike_id": "f33e5463ba7c30934fb48b2a8871ba1b", "fusion_lon": 0.0, "fusion_lat": 0.0, "is_reserved": 0, "type": "electric_scooter", "lon": -77.01827183333333, "name": "f33e5463ba7c30934fb48b2a8871ba1b", "lat": 38.9036695}, {"rental_uris": {"ios": "https://dc.lft.to/lastmile_qr_scan", "android": "https://dc.lft.to/lastmile_qr_scan"}, "is_disabled": 0, "bike_id": "1931f31bc347d0f274a742bd0fc128ba", "fusion_lon": 0.0, "fusion_lat": 0.0, "is_reserved": 0, "type": "electric_scooter", "lon": -77.0546275, "name": "1931f31bc347d0f274a742bd0fc128ba", "lat": 38.9083325}, {"rental_uris": {"ios": "https://dc.lft.to/lastmile_qr_scan", "android": "https://dc.lft.to/lastmile_qr_scan"}, "is_disabled": 0, "bike_id": "882e2bb8a984f0aaa1476026bd732d57", "fusion_lon": 0.0, "fusion_lat": 0.0, "is_reserved": 0, "type": "electric_scooter", "lon": -77.04802966666666, "name": "882e2bb8a984f0aaa1476026bd732d57", "lat": 38.91929433333333}, {"rental_uris": {"ios": "https://dc.lft.to/lastmile_qr_scan", "android": "https://dc.lft.to/lastmile_qr_scan"}, "is_disabled": 0, "bike_id": "4f853101ec5cdd548cfb573d071ac989", "fusion_lon": 0.0, "fusion_lat": 0.0, "is_reserved": 0, "type": "electric_bike", "lon": -76.9388555, "name": "4f853101ec5cdd548cfb573d071ac989", "lat": 38.956408833333334}, {"rental_uris": {"ios": "https://dc.lft.to/lastmile_qr_scan", "android": "https://dc.lft.to/lastmile_qr_scan"}, "is_disabled": 0, "bike_id": "ca068da142a1e186a31c3f314608b399", "fusion_lon": 0.0, "fusion_lat": 0.0, "is_reserved": 0, "type": "electric_scooter", "lon": -77.03270316666666, "name": "ca068da142a1e186a31c3f314608b399", "lat": 38.93256866666667}, {"rental_uris": {"ios": "https://dc.lft.to/lastmile_qr_scan", "android": "https://dc.lft.to/lastmile_qr_scan"}, "is_disabled": 0, "bike_id": "7890f30ae7a012da7fe002114af33516", "fusion_lon": 0.0, "fusion_lat": 0.0, "is_reserved": 0, "type": "electric_bike", "lon": -76.90434033333334, "name": "7890f30ae7a012da7fe002114af33516", "lat": 38.89771283333333}, {"rental_uris": {"ios": "https://dc.lft.to/lastmile_qr_scan", "android": "https://dc.lft.to/lastmile_qr_scan"}, "is_disabled": 0, "bike_id": "030eb5c270c1d2e70471d73361c752cd", "fusion_lon": 0.0, "fusion_lat": 0.0, "is_reserved": 0, "type": "electric_scooter", "lon": -77.00428466666666, "name": "030eb5c270c1d2e70471d73361c752cd", "lat": 38.87642983333333}, {"rental_uris": {"ios": "https://dc.lft.to/lastmile_qr_scan", "android": "https://dc.lft.to/lastmile_qr_scan"}, "is_disabled": 0, "bike_id": "a7bfc3b722c6a16001d9ee5858f27c20", "fusion_lon": 0.0, "fusion_lat": 0.0, "is_reserved": 0, "type": "electric_scooter", "lon": -77.03259716666666, "name": "a7bfc3b722c6a16001d9ee5858f27c20", "lat": 38.9352275}, {"rental_uris": {"ios": "https://dc.lft.to/lastmile_qr_scan", "android": "https://dc.lft.to/lastmile_qr_scan"}, "is_disabled": 0, "bike_id": "8dfe91aa0a9f5e56dde09fd9c0ea218f", "fusion_lon": 0.0, "fusion_lat": 0.0, "is_reserved": 0, "type": "electric_scooter", "lon": -77.04492533333334, "name": "8dfe91aa0a9f5e56dde09fd9c0ea218f", "lat": 38.9038545}, {"rental_uris": {"ios": "https://dc.lft.to/lastmile_qr_scan", "android": "https://dc.lft.to/lastmile_qr_scan"}, "is_disabled": 0, "bike_id": "16814ff3bc9f57e94c5513309a2b4748", "fusion_lon": 0.0, "fusion_lat": 0.0, "is_reserved": 0, "type": "electric_scooter", "lon": -76.99555333333333, "name": "16814ff3bc9f57e94c5513309a2b4748", "lat": 38.926635833333336}, {"rental_uris": {"ios": "https://dc.lft.to/lastmile_qr_scan", "android": "https://dc.lft.to/lastmile_qr_scan"}, "is_disabled": 0, "bike_id": "d72930a25af9a1cb03b2547b3d457d48", "fusion_lon": 0.0, "fusion_lat": 0.0, "is_reserved": 0, "type": "electric_bike", "lon": -76.99479466666666, "name": "d72930a25af9a1cb03b2547b3d457d48", "lat": 38.88870133333333}, {"rental_uris": {"ios": "https://dc.lft.to/lastmile_qr_scan", "android": "https://dc.lft.to/lastmile_qr_scan"}, "is_disabled": 0, "bike_id": "09290bc49a998d6074518b738c6709af", "fusion_lon": 0.0, "fusion_lat": 0.0, "is_reserved": 0, "type": "electric_scooter", "lon": -77.0271835, "name": "09290bc49a998d6074518b738c6709af", "lat": 38.92480966666667}, {"rental_uris": {"ios": "https://dc.lft.to/lastmile_qr_scan", "android": "https://dc.lft.to/lastmile_qr_scan"}, "is_disabled": 0, "bike_id": "c1bda3a169b9cd40de6c0d7aa4968caf", "fusion_lon": 0.0, "fusion_lat": 0.0, "is_reserved": 0, "type": "electric_scooter", "lon": -77.0149215, "name": "c1bda3a169b9cd40de6c0d7aa4968caf", "lat": 38.88820333333334}, {"rental_uris": {"ios": "https://dc.lft.to/lastmile_qr_scan", "android": "https://dc.lft.to/lastmile_qr_scan"}, "is_disabled": 0, "bike_id": "38ceb39c5841af290917f2df7c7fcabc", "fusion_lon": 0.0, "fusion_lat": 0.0, "is_reserved": 0, "type": "electric_scooter", "lon": -77.01680666666667, "name": "38ceb39c5841af290917f2df7c7fcabc", "lat": 38.90723533333333}, {"rental_uris": {"ios": "https://dc.lft.to/lastmile_qr_scan", "android": "https://dc.lft.to/lastmile_qr_scan"}, "is_disabled": 0, "bike_id": "b944b50fb76f9e85ef6a8ae201b1a1d9", "fusion_lon": 0.0, "fusion_lat": 0.0, "is_reserved": 0, "type": "electric_bike", "lon": -77.03804016666666, "name": "b944b50fb76f9e85ef6a8ae201b1a1d9", "lat": 38.9141555}, {"rental_uris": {"ios": "https://dc.lft.to/lastmile_qr_scan", "android": "https://dc.lft.to/lastmile_qr_scan"}, "is_disabled": 0, "bike_id": "f1a4b593655a3f4ad140a0ed897629b5", "fusion_lon": 0.0, "fusion_lat": 0.0, "is_reserved": 0, "type": "electric_scooter", "lon": -77.00570033333334, "name": "f1a4b593655a3f4ad140a0ed897629b5", "lat": 38.9057885}, {"rental_uris": {"ios": "https://dc.lft.to/lastmile_qr_scan", "android": "https://dc.lft.to/lastmile_qr_scan"}, "is_disabled": 0, "bike_id": "7b2bb1bfdb1b732d92e323d0f14e5b58", "fusion_lon": 0.0, "fusion_lat": 0.0, "is_reserved": 0, "type": "electric_scooter", "lon": -77.03334716666667, "name": "7b2bb1bfdb1b732d92e323d0f14e5b58", "lat": 38.91711433333333}, {"rental_uris": {"ios": "https://dc.lft.to/lastmile_qr_scan", "android": "https://dc.lft.to/lastmile_qr_scan"}, "is_disabled": 0, "bike_id": "644783ecbfa3089376f303b8b868f6e4", "fusion_lon": 0.0, "fusion_lat": 0.0, "is_reserved": 0, "type": "electric_bike", "lon": -77.08931183333333, "name": "644783ecbfa3089376f303b8b868f6e4", "lat": 38.8410995}, {"rental_uris": {"ios": "https://dc.lft.to/lastmile_qr_scan", "android": "https://dc.lft.to/lastmile_qr_scan"}, "is_disabled": 0, "bike_id": "be1d02f45bc338fe4bcb356e9c4a020b", "fusion_lon": 0.0, "fusion_lat": 0.0, "is_reserved": 0, "type": "electric_scooter", "lon": -77.02663883333334, "name": "be1d02f45bc338fe4bcb356e9c4a020b", "lat": 38.917062666666666}, {"rental_uris": {"ios": "https://dc.lft.to/lastmile_qr_scan", "android": "https://dc.lft.to/lastmile_qr_scan"}, "is_disabled": 0, "bike_id": "772f69ff2c98d316619afdc0648e1fbd", "fusion_lon": 0.0, "fusion_lat": 0.0, "is_reserved": 0, "type": "electric_scooter", "lon": -77.0309385, "name": "772f69ff2c98d316619afdc0648e1fbd", "lat": 38.87922983333333}, {"rental_uris": {"ios": "https://dc.lft.to/lastmile_qr_scan", "android": "https://dc.lft.to/lastmile_qr_scan"}, "is_disabled": 0, "bike_id": "ffbd8262a8f0e1d0ba9fc43427132124", "fusion_lon": 0.0, "fusion_lat": 0.0, "is_reserved": 0, "type": "electric_scooter", "lon": -77.0256525, "name": "ffbd8262a8f0e1d0ba9fc43427132124", "lat": 38.89949716666667}, {"rental_uris": {"ios": "https://dc.lft.to/lastmile_qr_scan", "android": "https://dc.lft.to/lastmile_qr_scan"}, "is_disabled": 0, "bike_id": "7fd39116c4e3c28b1f94ac9a25ddb237", "fusion_lon": 0.0, "fusion_lat": 0.0, "is_reserved": 0, "type": "electric_scooter", "lon": -77.04194, "name": "7fd39116c4e3c28b1f94ac9a25ddb237", "lat": 38.905673666666665}, {"rental_uris": {"ios": "https://dc.lft.to/lastmile_qr_scan", "android": "https://dc.lft.to/lastmile_qr_scan"}, "is_disabled": 0, "bike_id": "aac87ba9333714987d6705d4b4d2a449", "fusion_lon": 0.0, "fusion_lat": 0.0, "is_reserved": 0, "type": "electric_bike", "lon": -77.06965283333334, "name": "aac87ba9333714987d6705d4b4d2a449", "lat": 38.97091983333333}, {"rental_uris": {"ios": "https://dc.lft.to/lastmile_qr_scan", "android": "https://dc.lft.to/lastmile_qr_scan"}, "is_disabled": 0, "bike_id": "6cee429f7ab4186fc7a7933784023e82", "fusion_lon": 0.0, "fusion_lat": 0.0, "is_reserved": 0, "type": "electric_scooter", "lon": -77.02689733333334, "name": "6cee429f7ab4186fc7a7933784023e82", "lat": 38.918259166666665}, {"rental_uris": {"ios": "https://dc.lft.to/lastmile_qr_scan", "android": "https://dc.lft.to/lastmile_qr_scan"}, "is_disabled": 0, "bike_id": "7896d4abb31f842543c1c139f7ee1546", "fusion_lon": 0.0, "fusion_lat": 0.0, "is_reserved": 0, "type": "electric_scooter", "lon": -77.02687766666666, "name": "7896d4abb31f842543c1c139f7ee1546", "lat": 38.906827}, {"rental_uris": {"ios": "https://dc.lft.to/lastmile_qr_scan", "android": "https://dc.lft.to/lastmile_qr_scan"}, "is_disabled": 0, "bike_id": "fc0b6a4ca7500e4aba608d91a8c54805", "fusion_lon": 0.0, "fusion_lat": 0.0, "is_reserved": 0, "type": "electric_scooter", "lon": -77.0262305, "name": "fc0b6a4ca7500e4aba608d91a8c54805", "lat": 38.8922155}, {"rental_uris": {"ios": "https://dc.lft.to/lastmile_qr_scan", "android": "https://dc.lft.to/lastmile_qr_scan"}, "is_disabled": 0, "bike_id": "1bfc687b1575ed9cd15ace8da9ec526b", "fusion_lon": 0.0, "fusion_lat": 0.0, "is_reserved": 0, "type": "electric_scooter", "lon": -77.026901, "name": "1bfc687b1575ed9cd15ace8da9ec526b", "lat": 38.90684866666667}, {"rental_uris": {"ios": "https://dc.lft.to/lastmile_qr_scan", "android": "https://dc.lft.to/lastmile_qr_scan"}, "is_disabled": 0, "bike_id": "d765f28ce175eee60c908240f9cf230a", "fusion_lon": 0.0, "fusion_lat": 0.0, "is_reserved": 0, "type": "electric_scooter", "lon": -77.00928083333334, "name": "d765f28ce175eee60c908240f9cf230a", "lat": 38.88336}, {"rental_uris": {"ios": "https://dc.lft.to/lastmile_qr_scan", "android": "https://dc.lft.to/lastmile_qr_scan"}, "is_disabled": 0, "bike_id": "18afcb4983647089ef1876d8e8166c2b", "fusion_lon": 0.0, "fusion_lat": 0.0, "is_reserved": 0, "type": "electric_scooter", "lon": -77.03240216666667, "name": "18afcb4983647089ef1876d8e8166c2b", "lat": 38.89906933333333}, {"rental_uris": {"ios": "https://dc.lft.to/lastmile_qr_scan", "android": "https://dc.lft.to/lastmile_qr_scan"}, "is_disabled": 0, "bike_id": "be2464bbb524e316f57ea20180937822", "fusion_lon": 0.0, "fusion_lat": 0.0, "is_reserved": 0, "type": "electric_scooter", "lon": -77.043944, "name": "be2464bbb524e316f57ea20180937822", "lat": 38.9014115}, {"rental_uris": {"ios": "https://dc.lft.to/lastmile_qr_scan", "android": "https://dc.lft.to/lastmile_qr_scan"}, "is_disabled": 0, "bike_id": "a8cd048f0b10d4ebf6f8ca4750d41f2c", "fusion_lon": 0.0, "fusion_lat": 0.0, "is_reserved": 0, "type": "electric_scooter", "lon": -77.0282765, "name": "a8cd048f0b10d4ebf6f8ca4750d41f2c", "lat": 38.931944}, {"rental_uris": {"ios": "https://dc.lft.to/lastmile_qr_scan", "android": "https://dc.lft.to/lastmile_qr_scan"}, "is_disabled": 0, "bike_id": "2166331208b2fa06bb21d807a65455c9", "fusion_lon": 0.0, "fusion_lat": 0.0, "is_reserved": 0, "type": "electric_bike", "lon": -77.11799033333334, "name": "2166331208b2fa06bb21d807a65455c9", "lat": 38.87373616666667}, {"rental_uris": {"ios": "https://dc.lft.to/lastmile_qr_scan", "android": "https://dc.lft.to/lastmile_qr_scan"}, "is_disabled": 0, "bike_id": "1e7f64af2fd176c2ced1f3fbb9abd4dc", "fusion_lon": 0.0, "fusion_lat": 0.0, "is_reserved": 0, "type": "electric_scooter", "lon": -77.03178933333334, "name": "1e7f64af2fd176c2ced1f3fbb9abd4dc", "lat": 38.9132575}, {"rental_uris": {"ios": "https://dc.lft.to/lastmile_qr_scan", "android": "https://dc.lft.to/lastmile_qr_scan"}, "is_disabled": 0, "bike_id": "54dfe946acf7c34806ff2d73adf58da6", "fusion_lon": 0.0, "fusion_lat": 0.0, "is_reserved": 0, "type": "electric_bike", "lon": -77.04015233333334, "name": "54dfe946acf7c34806ff2d73adf58da6", "lat": 38.79329883333333}, {"rental_uris": {"ios": "https://dc.lft.to/lastmile_qr_scan", "android": "https://dc.lft.to/lastmile_qr_scan"}, "is_disabled": 0, "bike_id": "6d177855a7967b8b50c9d468f9692272", "fusion_lon": 0.0, "fusion_lat": 0.0, "is_reserved": 0, "type": "electric_bike", "lon": -76.97235916666666, "name": "6d177855a7967b8b50c9d468f9692272", "lat": 38.949063833333334}, {"rental_uris": {"ios": "https://dc.lft.to/lastmile_qr_scan", "android": "https://dc.lft.to/lastmile_qr_scan"}, "is_disabled": 0, "bike_id": "b819f6250ed82c4a637fb26d12ae6e9a", "fusion_lon": 0.0, "fusion_lat": 0.0, "is_reserved": 0, "type": "electric_scooter", "lon": -76.9951375, "name": "b819f6250ed82c4a637fb26d12ae6e9a", "lat": 38.8837445}, {"rental_uris": {"ios": "https://dc.lft.to/lastmile_qr_scan", "android": "https://dc.lft.to/lastmile_qr_scan"}, "is_disabled": 0, "bike_id": "3253d52dddbb9ae19b02af37514e3f78", "fusion_lon": 0.0, "fusion_lat": 0.0, "is_reserved": 0, "type": "electric_scooter", "lon": -77.00867066666666, "name": "3253d52dddbb9ae19b02af37514e3f78", "lat": 38.917064833333335}, {"rental_uris": {"ios": "https://dc.lft.to/lastmile_qr_scan", "android": "https://dc.lft.to/lastmile_qr_scan"}, "is_disabled": 0, "bike_id": "dcc3a65c74a22afb6716fef84e58b7fc", "fusion_lon": 0.0, "fusion_lat": 0.0, "is_reserved": 0, "type": "electric_scooter", "lon": -77.03188416666667, "name": "dcc3a65c74a22afb6716fef84e58b7fc", "lat": 38.914264833333334}, {"rental_uris": {"ios": "https://dc.lft.to/lastmile_qr_scan", "android": "https://dc.lft.to/lastmile_qr_scan"}, "is_disabled": 0, "bike_id": "9fe99d37c097618cca0fa2b13db10056", "fusion_lon": 0.0, "fusion_lat": 0.0, "is_reserved": 0, "type": "electric_scooter", "lon": -77.040221, "name": "9fe99d37c097618cca0fa2b13db10056", "lat": 38.91808233333333}, {"rental_uris": {"ios": "https://dc.lft.to/lastmile_qr_scan", "android": "https://dc.lft.to/lastmile_qr_scan"}, "is_disabled": 0, "bike_id": "0f129480ac14fea5becc1281e71e80fa", "fusion_lon": 0.0, "fusion_lat": 0.0, "is_reserved": 0, "type": "electric_scooter", "lon": -77.03285983333333, "name": "0f129480ac14fea5becc1281e71e80fa", "lat": 38.89925683333333}, {"rental_uris": {"ios": "https://dc.lft.to/lastmile_qr_scan", "android": "https://dc.lft.to/lastmile_qr_scan"}, "is_disabled": 0, "bike_id": "62ed71ebf49c94edc56d098076169b58", "fusion_lon": 0.0, "fusion_lat": 0.0, "is_reserved": 0, "type": "electric_scooter", "lon": -77.0426755, "name": "62ed71ebf49c94edc56d098076169b58", "lat": 38.907700166666665}, {"rental_uris": {"ios": "https://dc.lft.to/lastmile_qr_scan", "android": "https://dc.lft.to/lastmile_qr_scan"}, "is_disabled": 0, "bike_id": "c8bfd795d1645b6fbad7c04d223c5bb6", "fusion_lon": 0.0, "fusion_lat": 0.0, "is_reserved": 0, "type": "electric_bike", "lon": -77.13180416666667, "name": "c8bfd795d1645b6fbad7c04d223c5bb6", "lat": 38.8691205}, {"rental_uris": {"ios": "https://dc.lft.to/lastmile_qr_scan", "android": "https://dc.lft.to/lastmile_qr_scan"}, "is_disabled": 0, "bike_id": "03481214fc13a25a864d0487123d2e79", "fusion_lon": 0.0, "fusion_lat": 0.0, "is_reserved": 0, "type": "electric_scooter", "lon": -77.05702383333333, "name": "03481214fc13a25a864d0487123d2e79", "lat": 38.90550266666666}, {"rental_uris": {"ios": "https://dc.lft.to/lastmile_qr_scan", "android": "https://dc.lft.to/lastmile_qr_scan"}, "is_disabled": 0, "bike_id": "ced9233ebc4f0fdb8cb853091bfb36ef", "fusion_lon": 0.0, "fusion_lat": 0.0, "is_reserved": 0, "type": "electric_scooter", "lon": -77.02332116666666, "name": "ced9233ebc4f0fdb8cb853091bfb36ef", "lat": 38.91759666666667}, {"rental_uris": {"ios": "https://dc.lft.to/lastmile_qr_scan", "android": "https://dc.lft.to/lastmile_qr_scan"}, "is_disabled": 0, "bike_id": "89226a6e64fccae0607f30c939f94cf0", "fusion_lon": 0.0, "fusion_lat": 0.0, "is_reserved": 0, "type": "electric_scooter", "lon": -77.01515416666666, "name": "89226a6e64fccae0607f30c939f94cf0", "lat": 38.910501833333335}, {"rental_uris": {"ios": "https://dc.lft.to/lastmile_qr_scan", "android": "https://dc.lft.to/lastmile_qr_scan"}, "is_disabled": 0, "bike_id": "64052f04a3733bd55a7682a76d1f662c", "fusion_lon": 0.0, "fusion_lat": 0.0, "is_reserved": 0, "type": "electric_scooter", "lon": -77.04477233333333, "name": "64052f04a3733bd55a7682a76d1f662c", "lat": 38.91209766666667}, {"rental_uris": {"ios": "https://dc.lft.to/lastmile_qr_scan", "android": "https://dc.lft.to/lastmile_qr_scan"}, "is_disabled": 0, "bike_id": "71c524cec73410c8b407b4a729755032", "fusion_lon": 0.0, "fusion_lat": 0.0, "is_reserved": 0, "type": "electric_scooter", "lon": -77.02684083333334, "name": "71c524cec73410c8b407b4a729755032", "lat": 38.899344}, {"rental_uris": {"ios": "https://dc.lft.to/lastmile_qr_scan", "android": "https://dc.lft.to/lastmile_qr_scan"}, "is_disabled": 0, "bike_id": "135d24067d013faf3127f39316639483", "fusion_lon": 0.0, "fusion_lat": 0.0, "is_reserved": 0, "type": "electric_bike", "lon": -77.010331, "name": "135d24067d013faf3127f39316639483", "lat": 38.958801333333334}, {"rental_uris": {"ios": "https://dc.lft.to/lastmile_qr_scan", "android": "https://dc.lft.to/lastmile_qr_scan"}, "is_disabled": 0, "bike_id": "3f1d4ff7b15bac54d6007f588ab9c70d", "fusion_lon": 0.0, "fusion_lat": 0.0, "is_reserved": 0, "type": "electric_scooter", "lon": -77.0259505, "name": "3f1d4ff7b15bac54d6007f588ab9c70d", "lat": 38.90733216666667}, {"rental_uris": {"ios": "https://dc.lft.to/lastmile_qr_scan", "android": "https://dc.lft.to/lastmile_qr_scan"}, "is_disabled": 0, "bike_id": "0d02a733c7598075d9c02983eb4f076e", "fusion_lon": 0.0, "fusion_lat": 0.0, "is_reserved": 0, "type": "electric_scooter", "lon": -77.0155575, "name": "0d02a733c7598075d9c02983eb4f076e", "lat": 38.8798975}, {"rental_uris": {"ios": "https://dc.lft.to/lastmile_qr_scan", "android": "https://dc.lft.to/lastmile_qr_scan"}, "is_disabled": 0, "bike_id": "c49a13a2bccc7470227bca9cec8f729d", "fusion_lon": 0.0, "fusion_lat": 0.0, "is_reserved": 0, "type": "electric_scooter", "lon": -77.02667116666667, "name": "c49a13a2bccc7470227bca9cec8f729d", "lat": 38.900780166666664}, {"rental_uris": {"ios": "https://dc.lft.to/lastmile_qr_scan", "android": "https://dc.lft.to/lastmile_qr_scan"}, "is_disabled": 0, "bike_id": "c2b1312e12dcabae1d069176a34f7bce", "fusion_lon": 0.0, "fusion_lat": 0.0, "is_reserved": 0, "type": "electric_scooter", "lon": -77.04008283333333, "name": "c2b1312e12dcabae1d069176a34f7bce", "lat": 38.92207116666667}, {"rental_uris": {"ios": "https://dc.lft.to/lastmile_qr_scan", "android": "https://dc.lft.to/lastmile_qr_scan"}, "is_disabled": 0, "bike_id": "bb498e54c74dc07d32cc5e7d6b5c852f", "fusion_lon": 0.0, "fusion_lat": 0.0, "is_reserved": 0, "type": "electric_scooter", "lon": -77.0259895, "name": "bb498e54c74dc07d32cc5e7d6b5c852f", "lat": 38.914153}, {"rental_uris": {"ios": "https://dc.lft.to/lastmile_qr_scan", "android": "https://dc.lft.to/lastmile_qr_scan"}, "is_disabled": 0, "bike_id": "4fdea66cca0abc524b52f2a5e2b62cd5", "fusion_lon": 0.0, "fusion_lat": 0.0, "is_reserved": 0, "type": "electric_scooter", "lon": -77.06389566666667, "name": "4fdea66cca0abc524b52f2a5e2b62cd5", "lat": 38.94485866666667}, {"rental_uris": {"ios": "https://dc.lft.to/lastmile_qr_scan", "android": "https://dc.lft.to/lastmile_qr_scan"}, "is_disabled": 0, "bike_id": "932a086754720138cceddc223c0d9c11", "fusion_lon": 0.0, "fusion_lat": 0.0, "is_reserved": 0, "type": "electric_scooter", "lon": -76.94631133333333, "name": "932a086754720138cceddc223c0d9c11", "lat": 38.898431}, {"rental_uris": {"ios": "https://dc.lft.to/lastmile_qr_scan", "android": "https://dc.lft.to/lastmile_qr_scan"}, "is_disabled": 0, "bike_id": "b4479d32cfc7ec3dfe4d2be2597363d2", "fusion_lon": 0.0, "fusion_lat": 0.0, "is_reserved": 0, "type": "electric_bike", "lon": -77.04412333333333, "name": "b4479d32cfc7ec3dfe4d2be2597363d2", "lat": 39.0156635}, {"rental_uris": {"ios": "https://dc.lft.to/lastmile_qr_scan", "android": "https://dc.lft.to/lastmile_qr_scan"}, "is_disabled": 0, "bike_id": "e047446f041ad91d276af8c65e149da6", "fusion_lon": 0.0, "fusion_lat": 0.0, "is_reserved": 0, "type": "electric_scooter", "lon": -77.03624683333334, "name": "e047446f041ad91d276af8c65e149da6", "lat": 38.95405683333333}, {"rental_uris": {"ios": "https://dc.lft.to/lastmile_qr_scan", "android": "https://dc.lft.to/lastmile_qr_scan"}, "is_disabled": 0, "bike_id": "fd8d43bbd19305db35de30738fbfb934", "fusion_lon": 0.0, "fusion_lat": 0.0, "is_reserved": 0, "type": "electric_scooter", "lon": -77.0219835, "name": "fd8d43bbd19305db35de30738fbfb934", "lat": 38.899379333333336}, {"rental_uris": {"ios": "https://dc.lft.to/lastmile_qr_scan", "android": "https://dc.lft.to/lastmile_qr_scan"}, "is_disabled": 0, "bike_id": "f4beef4e6c56e3070b491edbd60cebf9", "fusion_lon": 0.0, "fusion_lat": 0.0, "is_reserved": 0, "type": "electric_scooter", "lon": -77.0369305, "name": "f4beef4e6c56e3070b491edbd60cebf9", "lat": 38.93059916666667}, {"rental_uris": {"ios": "https://dc.lft.to/lastmile_qr_scan", "android": "https://dc.lft.to/lastmile_qr_scan"}, "is_disabled": 0, "bike_id": "3daebb6ee33319275f4638cf5f62b351", "fusion_lon": 0.0, "fusion_lat": 0.0, "is_reserved": 0, "type": "electric_bike", "lon": -77.11217683333334, "name": "3daebb6ee33319275f4638cf5f62b351", "lat": 38.82875466666667}, {"rental_uris": {"ios": "https://dc.lft.to/lastmile_qr_scan", "android": "https://dc.lft.to/lastmile_qr_scan"}, "is_disabled": 0, "bike_id": "21ee451a8ceb0bdc54f0b79f5090da2d", "fusion_lon": 0.0, "fusion_lat": 0.0, "is_reserved": 0, "type": "electric_scooter", "lon": -77.0433395, "name": "21ee451a8ceb0bdc54f0b79f5090da2d", "lat": 38.9008305}, {"rental_uris": {"ios": "https://dc.lft.to/lastmile_qr_scan", "android": "https://dc.lft.to/lastmile_qr_scan"}, "is_disabled": 0, "bike_id": "3f9b60d8e3d21c0840830e83faeb2551", "fusion_lon": 0.0, "fusion_lat": 0.0, "is_reserved": 0, "type": "electric_scooter", "lon": -77.044515, "name": "3f9b60d8e3d21c0840830e83faeb2551", "lat": 38.93017483333333}, {"rental_uris": {"ios": "https://dc.lft.to/lastmile_qr_scan", "android": "https://dc.lft.to/lastmile_qr_scan"}, "is_disabled": 0, "bike_id": "24af3fb39d19740162b48f506078dcf4", "fusion_lon": 0.0, "fusion_lat": 0.0, "is_reserved": 0, "type": "electric_scooter", "lon": -77.0639205, "name": "24af3fb39d19740162b48f506078dcf4", "lat": 38.944398166666666}, {"rental_uris": {"ios": "https://dc.lft.to/lastmile_qr_scan", "android": "https://dc.lft.to/lastmile_qr_scan"}, "is_disabled": 0, "bike_id": "0e5d60c7858d4599e18deba6f2a6b8ec", "fusion_lon": 0.0, "fusion_lat": 0.0, "is_reserved": 0, "type": "electric_scooter", "lon": -77.03161533333333, "name": "0e5d60c7858d4599e18deba6f2a6b8ec", "lat": 38.892225333333336}, {"rental_uris": {"ios": "https://dc.lft.to/lastmile_qr_scan", "android": "https://dc.lft.to/lastmile_qr_scan"}, "is_disabled": 0, "bike_id": "c4b407cfeb77bb5d08fe4c2cbc1507bd", "fusion_lon": 0.0, "fusion_lat": 0.0, "is_reserved": 0, "type": "electric_scooter", "lon": -76.9973615, "name": "c4b407cfeb77bb5d08fe4c2cbc1507bd", "lat": 38.909929166666664}, {"rental_uris": {"ios": "https://dc.lft.to/lastmile_qr_scan", "android": "https://dc.lft.to/lastmile_qr_scan"}, "is_disabled": 0, "bike_id": "6cced166aa04e302441a730c4b94e6db", "fusion_lon": 0.0, "fusion_lat": 0.0, "is_reserved": 0, "type": "electric_scooter", "lon": -76.99613166666667, "name": "6cced166aa04e302441a730c4b94e6db", "lat": 38.8844325}, {"rental_uris": {"ios": "https://dc.lft.to/lastmile_qr_scan", "android": "https://dc.lft.to/lastmile_qr_scan"}, "is_disabled": 0, "bike_id": "25b4a15374b0848de5a2a067e7356f33", "fusion_lon": 0.0, "fusion_lat": 0.0, "is_reserved": 0, "type": "electric_bike", "lon": -76.90135616666667, "name": "25b4a15374b0848de5a2a067e7356f33", "lat": 39.00475466666666}, {"rental_uris": {"ios": "https://dc.lft.to/lastmile_qr_scan", "android": "https://dc.lft.to/lastmile_qr_scan"}, "is_disabled": 0, "bike_id": "a70cd0c103f67b69832d4728497d30b1", "fusion_lon": 0.0, "fusion_lat": 0.0, "is_reserved": 0, "type": "electric_scooter", "lon": -76.93173516666667, "name": "a70cd0c103f67b69832d4728497d30b1", "lat": 38.89886}, {"rental_uris": {"ios": "https://dc.lft.to/lastmile_qr_scan", "android": "https://dc.lft.to/lastmile_qr_scan"}, "is_disabled": 0, "bike_id": "9e8e802f48d9057b0e5e0f2c9adad222", "fusion_lon": 0.0, "fusion_lat": 0.0, "is_reserved": 0, "type": "electric_scooter", "lon": -77.02739833333334, "name": "9e8e802f48d9057b0e5e0f2c9adad222", "lat": 38.901460166666666}, {"rental_uris": {"ios": "https://dc.lft.to/lastmile_qr_scan", "android": "https://dc.lft.to/lastmile_qr_scan"}, "is_disabled": 0, "bike_id": "ee3fab5a856e4ee8b1f34f34399574ae", "fusion_lon": 0.0, "fusion_lat": 0.0, "is_reserved": 0, "type": "electric_scooter", "lon": -77.03381883333333, "name": "ee3fab5a856e4ee8b1f34f34399574ae", "lat": 38.90204033333333}, {"rental_uris": {"ios": "https://dc.lft.to/lastmile_qr_scan", "android": "https://dc.lft.to/lastmile_qr_scan"}, "is_disabled": 0, "bike_id": "3e32e6de3bdbf9b12d89a8e507e476b8", "fusion_lon": 0.0, "fusion_lat": 0.0, "is_reserved": 0, "type": "electric_bike", "lon": -77.04055216666667, "name": "3e32e6de3bdbf9b12d89a8e507e476b8", "lat": 38.900446333333335}, {"rental_uris": {"ios": "https://dc.lft.to/lastmile_qr_scan", "android": "https://dc.lft.to/lastmile_qr_scan"}, "is_disabled": 0, "bike_id": "eaf6055ee42d453f7fc6da0766b983ef", "fusion_lon": 0.0, "fusion_lat": 0.0, "is_reserved": 0, "type": "electric_scooter", "lon": -77.04193233333334, "name": "eaf6055ee42d453f7fc6da0766b983ef", "lat": 38.905661}, {"rental_uris": {"ios": "https://dc.lft.to/lastmile_qr_scan", "android": "https://dc.lft.to/lastmile_qr_scan"}, "is_disabled": 0, "bike_id": "5789373b00047d3d9d15905ebc44938a", "fusion_lon": 0.0, "fusion_lat": 0.0, "is_reserved": 0, "type": "electric_scooter", "lon": -77.05218733333334, "name": "5789373b00047d3d9d15905ebc44938a", "lat": 38.92501133333333}, {"rental_uris": {"ios": "https://dc.lft.to/lastmile_qr_scan", "android": "https://dc.lft.to/lastmile_qr_scan"}, "is_disabled": 0, "bike_id": "ec11c57eef1e6c503744c613a5a09351", "fusion_lon": 0.0, "fusion_lat": 0.0, "is_reserved": 0, "type": "electric_scooter", "lon": -76.99899766666667, "name": "ec11c57eef1e6c503744c613a5a09351", "lat": 38.94824166666667}, {"rental_uris": {"ios": "https://dc.lft.to/lastmile_qr_scan", "android": "https://dc.lft.to/lastmile_qr_scan"}, "is_disabled": 0, "bike_id": "0456d9390bec8992cad319d1c2abbd06", "fusion_lon": 0.0, "fusion_lat": 0.0, "is_reserved": 0, "type": "electric_scooter", "lon": -77.03196466666667, "name": "0456d9390bec8992cad319d1c2abbd06", "lat": 38.91735233333333}, {"rental_uris": {"ios": "https://dc.lft.to/lastmile_qr_scan", "android": "https://dc.lft.to/lastmile_qr_scan"}, "is_disabled": 0, "bike_id": "38774c8085069b491b0fd38b74cb3222", "fusion_lon": 0.0, "fusion_lat": 0.0, "is_reserved": 0, "type": "electric_scooter", "lon": -77.060403, "name": "38774c8085069b491b0fd38b74cb3222", "lat": 38.9446185}, {"rental_uris": {"ios": "https://dc.lft.to/lastmile_qr_scan", "android": "https://dc.lft.to/lastmile_qr_scan"}, "is_disabled": 0, "bike_id": "b9d7551275282eaa3cf997b5f585907a", "fusion_lon": 0.0, "fusion_lat": 0.0, "is_reserved": 0, "type": "electric_scooter", "lon": -77.03230733333334, "name": "b9d7551275282eaa3cf997b5f585907a", "lat": 38.92000133333333}, {"rental_uris": {"ios": "https://dc.lft.to/lastmile_qr_scan", "android": "https://dc.lft.to/lastmile_qr_scan"}, "is_disabled": 0, "bike_id": "0d8b027e967982558691253f7d695bd1", "fusion_lon": 0.0, "fusion_lat": 0.0, "is_reserved": 0, "type": "electric_scooter", "lon": -77.060532, "name": "0d8b027e967982558691253f7d695bd1", "lat": 38.902300333333336}, {"rental_uris": {"ios": "https://dc.lft.to/lastmile_qr_scan", "android": "https://dc.lft.to/lastmile_qr_scan"}, "is_disabled": 0, "bike_id": "0d46ad97e75331b4c8057c2d7bb782cb", "fusion_lon": 0.0, "fusion_lat": 0.0, "is_reserved": 0, "type": "electric_scooter", "lon": -76.93604016666667, "name": "0d46ad97e75331b4c8057c2d7bb782cb", "lat": 38.896856}, {"rental_uris": {"ios": "https://dc.lft.to/lastmile_qr_scan", "android": "https://dc.lft.to/lastmile_qr_scan"}, "is_disabled": 0, "bike_id": "e7dc650e853c520074b7ef5a8ff23241", "fusion_lon": 0.0, "fusion_lat": 0.0, "is_reserved": 0, "type": "electric_scooter", "lon": -76.95094133333333, "name": "e7dc650e853c520074b7ef5a8ff23241", "lat": 38.884539333333336}, {"rental_uris": {"ios": "https://dc.lft.to/lastmile_qr_scan", "android": "https://dc.lft.to/lastmile_qr_scan"}, "is_disabled": 0, "bike_id": "27d4baa36038b80344822948c3f51216", "fusion_lon": 0.0, "fusion_lat": 0.0, "is_reserved": 0, "type": "electric_scooter", "lon": -77.018431, "name": "27d4baa36038b80344822948c3f51216", "lat": 38.94634883333333}, {"rental_uris": {"ios": "https://dc.lft.to/lastmile_qr_scan", "android": "https://dc.lft.to/lastmile_qr_scan"}, "is_disabled": 0, "bike_id": "893d8dc1ba4af7ddc0cb172d4539035d", "fusion_lon": 0.0, "fusion_lat": 0.0, "is_reserved": 0, "type": "electric_bike", "lon": -77.11848566666667, "name": "893d8dc1ba4af7ddc0cb172d4539035d", "lat": 38.87734666666667}, {"rental_uris": {"ios": "https://dc.lft.to/lastmile_qr_scan", "android": "https://dc.lft.to/lastmile_qr_scan"}, "is_disabled": 0, "bike_id": "ca0c9fc6a5e56c86db193c21ff5faac3", "fusion_lon": 0.0, "fusion_lat": 0.0, "is_reserved": 0, "type": "electric_bike", "lon": -77.0283415, "name": "ca0c9fc6a5e56c86db193c21ff5faac3", "lat": 38.92642383333333}, {"rental_uris": {"ios": "https://dc.lft.to/lastmile_qr_scan", "android": "https://dc.lft.to/lastmile_qr_scan"}, "is_disabled": 0, "bike_id": "fcb805c101327a8076b9a03d78ebfac7", "fusion_lon": 0.0, "fusion_lat": 0.0, "is_reserved": 0, "type": "electric_scooter", "lon": -77.02763083333333, "name": "fcb805c101327a8076b9a03d78ebfac7", "lat": 38.9073125}, {"rental_uris": {"ios": "https://dc.lft.to/lastmile_qr_scan", "android": "https://dc.lft.to/lastmile_qr_scan"}, "is_disabled": 0, "bike_id": "ff94e3209aa19bd35c386b367689c7bf", "fusion_lon": 0.0, "fusion_lat": 0.0, "is_reserved": 0, "type": "electric_scooter", "lon": -77.04480366666667, "name": "ff94e3209aa19bd35c386b367689c7bf", "lat": 38.912817833333335}, {"rental_uris": {"ios": "https://dc.lft.to/lastmile_qr_scan", "android": "https://dc.lft.to/lastmile_qr_scan"}, "is_disabled": 0, "bike_id": "d6766c80d111ad69bb0789042418dcae", "fusion_lon": 0.0, "fusion_lat": 0.0, "is_reserved": 0, "type": "electric_scooter", "lon": -77.02762383333334, "name": "d6766c80d111ad69bb0789042418dcae", "lat": 38.90734366666667}, {"rental_uris": {"ios": "https://dc.lft.to/lastmile_qr_scan", "android": "https://dc.lft.to/lastmile_qr_scan"}, "is_disabled": 0, "bike_id": "dfbdd8213a81df87eb0df05ef5e75f0c", "fusion_lon": 0.0, "fusion_lat": 0.0, "is_reserved": 0, "type": "electric_bike", "lon": -76.935417, "name": "dfbdd8213a81df87eb0df05ef5e75f0c", "lat": 38.9518585}, {"rental_uris": {"ios": "https://dc.lft.to/lastmile_qr_scan", "android": "https://dc.lft.to/lastmile_qr_scan"}, "is_disabled": 0, "bike_id": "2cbbd17ef7c3148e699f9358efdccb26", "fusion_lon": 0.0, "fusion_lat": 0.0, "is_reserved": 0, "type": "electric_scooter", "lon": -76.9984515, "name": "2cbbd17ef7c3148e699f9358efdccb26", "lat": 38.89625933333333}, {"rental_uris": {"ios": "https://dc.lft.to/lastmile_qr_scan", "android": "https://dc.lft.to/lastmile_qr_scan"}, "is_disabled": 0, "bike_id": "8c59f435a17cc55e391ab2621e137c75", "fusion_lon": 0.0, "fusion_lat": 0.0, "is_reserved": 0, "type": "electric_scooter", "lon": -77.0802055, "name": "8c59f435a17cc55e391ab2621e137c75", "lat": 38.909224}, {"rental_uris": {"ios": "https://dc.lft.to/lastmile_qr_scan", "android": "https://dc.lft.to/lastmile_qr_scan"}, "is_disabled": 0, "bike_id": "9cb635b2f48396f9d264e7c969a7102f", "fusion_lon": 0.0, "fusion_lat": 0.0, "is_reserved": 0, "type": "electric_scooter", "lon": -77.03162133333333, "name": "9cb635b2f48396f9d264e7c969a7102f", "lat": 38.892197833333334}, {"rental_uris": {"ios": "https://dc.lft.to/lastmile_qr_scan", "android": "https://dc.lft.to/lastmile_qr_scan"}, "is_disabled": 0, "bike_id": "3ab25b7f5dcd5b23940de6923bb0738f", "fusion_lon": 0.0, "fusion_lat": 0.0, "is_reserved": 0, "type": "electric_scooter", "lon": -77.04488316666666, "name": "3ab25b7f5dcd5b23940de6923bb0738f", "lat": 38.919214333333336}, {"rental_uris": {"ios": "https://dc.lft.to/lastmile_qr_scan", "android": "https://dc.lft.to/lastmile_qr_scan"}, "is_disabled": 0, "bike_id": "c7c45210ab04e38e967961abe320e5c5", "fusion_lon": 0.0, "fusion_lat": 0.0, "is_reserved": 0, "type": "electric_scooter", "lon": -76.97660833333333, "name": "c7c45210ab04e38e967961abe320e5c5", "lat": 38.867491}, {"rental_uris": {"ios": "https://dc.lft.to/lastmile_qr_scan", "android": "https://dc.lft.to/lastmile_qr_scan"}, "is_disabled": 0, "bike_id": "0a0e18be4868c0f9f4988c5a1c0ee3e5", "fusion_lon": 0.0, "fusion_lat": 0.0, "is_reserved": 0, "type": "electric_bike", "lon": -77.00829866666666, "name": "0a0e18be4868c0f9f4988c5a1c0ee3e5", "lat": 38.870707833333334}, {"rental_uris": {"ios": "https://dc.lft.to/lastmile_qr_scan", "android": "https://dc.lft.to/lastmile_qr_scan"}, "is_disabled": 0, "bike_id": "124550a31cac04bc38dc5b88dd83c682", "fusion_lon": 0.0, "fusion_lat": 0.0, "is_reserved": 0, "type": "electric_scooter", "lon": -77.0184335, "name": "124550a31cac04bc38dc5b88dd83c682", "lat": 38.908174}, {"rental_uris": {"ios": "https://dc.lft.to/lastmile_qr_scan", "android": "https://dc.lft.to/lastmile_qr_scan"}, "is_disabled": 0, "bike_id": "84d92289d041b7dc6c0d88f91b8420ff", "fusion_lon": 0.0, "fusion_lat": 0.0, "is_reserved": 0, "type": "electric_scooter", "lon": -76.99849483333334, "name": "84d92289d041b7dc6c0d88f91b8420ff", "lat": 38.900017}, {"rental_uris": {"ios": "https://dc.lft.to/lastmile_qr_scan", "android": "https://dc.lft.to/lastmile_qr_scan"}, "is_disabled": 0, "bike_id": "f68daa43b8085b1df27c87159e08144b", "fusion_lon": 0.0, "fusion_lat": 0.0, "is_reserved": 0, "type": "electric_scooter", "lon": -77.04186333333334, "name": "f68daa43b8085b1df27c87159e08144b", "lat": 38.905713166666665}, {"rental_uris": {"ios": "https://dc.lft.to/lastmile_qr_scan", "android": "https://dc.lft.to/lastmile_qr_scan"}, "is_disabled": 0, "bike_id": "ab3009126e1f242ff5d1c6816dd0be84", "fusion_lon": 0.0, "fusion_lat": 0.0, "is_reserved": 0, "type": "electric_scooter", "lon": -77.021574, "name": "ab3009126e1f242ff5d1c6816dd0be84", "lat": 38.926139666666664}, {"rental_uris": {"ios": "https://dc.lft.to/lastmile_qr_scan", "android": "https://dc.lft.to/lastmile_qr_scan"}, "is_disabled": 0, "bike_id": "31155152299af78384c974f4d7fe18f0", "fusion_lon": 0.0, "fusion_lat": 0.0, "is_reserved": 0, "type": "electric_scooter", "lon": -77.0486195, "name": "31155152299af78384c974f4d7fe18f0", "lat": 38.892246166666666}, {"rental_uris": {"ios": "https://dc.lft.to/lastmile_qr_scan", "android": "https://dc.lft.to/lastmile_qr_scan"}, "is_disabled": 0, "bike_id": "d573a6b520d80db6df826559416fabe2", "fusion_lon": 0.0, "fusion_lat": 0.0, "is_reserved": 0, "type": "electric_scooter", "lon": -77.007234, "name": "d573a6b520d80db6df826559416fabe2", "lat": 38.899654}, {"rental_uris": {"ios": "https://dc.lft.to/lastmile_qr_scan", "android": "https://dc.lft.to/lastmile_qr_scan"}, "is_disabled": 0, "bike_id": "45c052261a1ba5e1db72600443b2058d", "fusion_lon": 0.0, "fusion_lat": 0.0, "is_reserved": 0, "type": "electric_scooter", "lon": -77.049279, "name": "45c052261a1ba5e1db72600443b2058d", "lat": 38.90519466666667}, {"rental_uris": {"ios": "https://dc.lft.to/lastmile_qr_scan", "android": "https://dc.lft.to/lastmile_qr_scan"}, "is_disabled": 0, "bike_id": "2a8f2a182dedef3e205228c501f649ba", "fusion_lon": 0.0, "fusion_lat": 0.0, "is_reserved": 0, "type": "electric_scooter", "lon": -77.0457205, "name": "2a8f2a182dedef3e205228c501f649ba", "lat": 38.92242783333333}, {"rental_uris": {"ios": "https://dc.lft.to/lastmile_qr_scan", "android": "https://dc.lft.to/lastmile_qr_scan"}, "is_disabled": 0, "bike_id": "716f503a1b20e0695af2cbced493c838", "fusion_lon": 0.0, "fusion_lat": 0.0, "is_reserved": 0, "type": "electric_scooter", "lon": -77.04652883333333, "name": "716f503a1b20e0695af2cbced493c838", "lat": 38.9001215}, {"rental_uris": {"ios": "https://dc.lft.to/lastmile_qr_scan", "android": "https://dc.lft.to/lastmile_qr_scan"}, "is_disabled": 0, "bike_id": "53258a76fa761a00fed986e2ac2450bf", "fusion_lon": 0.0, "fusion_lat": 0.0, "is_reserved": 0, "type": "electric_scooter", "lon": -76.97727866666666, "name": "53258a76fa761a00fed986e2ac2450bf", "lat": 38.87287633333333}, {"rental_uris": {"ios": "https://dc.lft.to/lastmile_qr_scan", "android": "https://dc.lft.to/lastmile_qr_scan"}, "is_disabled": 0, "bike_id": "8325a54ee0f6366553eaf8b95a97b3cc", "fusion_lon": 0.0, "fusion_lat": 0.0, "is_reserved": 0, "type": "electric_scooter", "lon": -76.99204916666666, "name": "8325a54ee0f6366553eaf8b95a97b3cc", "lat": 38.908206}, {"rental_uris": {"ios": "https://dc.lft.to/lastmile_qr_scan", "android": "https://dc.lft.to/lastmile_qr_scan"}, "is_disabled": 0, "bike_id": "39dbb36b9230c4b7fa187e81d89b8c5f", "fusion_lon": 0.0, "fusion_lat": 0.0, "is_reserved": 0, "type": "electric_scooter", "lon": -77.061116, "name": "39dbb36b9230c4b7fa187e81d89b8c5f", "lat": 38.905406}, {"rental_uris": {"ios": "https://dc.lft.to/lastmile_qr_scan", "android": "https://dc.lft.to/lastmile_qr_scan"}, "is_disabled": 0, "bike_id": "2e2c5de435fe0afe9de0b74a0a29d5f6", "fusion_lon": 0.0, "fusion_lat": 0.0, "is_reserved": 0, "type": "electric_scooter", "lon": -77.04182216666666, "name": "2e2c5de435fe0afe9de0b74a0a29d5f6", "lat": 38.905293}, {"rental_uris": {"ios": "https://dc.lft.to/lastmile_qr_scan", "android": "https://dc.lft.to/lastmile_qr_scan"}, "is_disabled": 0, "bike_id": "29bbbdf3b428ee27c8f2fbec84101b17", "fusion_lon": 0.0, "fusion_lat": 0.0, "is_reserved": 0, "type": "electric_scooter", "lon": -77.02287383333334, "name": "29bbbdf3b428ee27c8f2fbec84101b17", "lat": 38.916101}, {"rental_uris": {"ios": "https://dc.lft.to/lastmile_qr_scan", "android": "https://dc.lft.to/lastmile_qr_scan"}, "is_disabled": 0, "bike_id": "fe976863df239dc202c25ac7e47b5503", "fusion_lon": 0.0, "fusion_lat": 0.0, "is_reserved": 0, "type": "electric_scooter", "lon": -76.99630033333334, "name": "fe976863df239dc202c25ac7e47b5503", "lat": 38.90890816666667}, {"rental_uris": {"ios": "https://dc.lft.to/lastmile_qr_scan", "android": "https://dc.lft.to/lastmile_qr_scan"}, "is_disabled": 0, "bike_id": "75a8949e8fd3bfd16b7313063bf6971c", "fusion_lon": 0.0, "fusion_lat": 0.0, "is_reserved": 0, "type": "electric_scooter", "lon": -77.01947116666666, "name": "75a8949e8fd3bfd16b7313063bf6971c", "lat": 38.92261}, {"rental_uris": {"ios": "https://dc.lft.to/lastmile_qr_scan", "android": "https://dc.lft.to/lastmile_qr_scan"}, "is_disabled": 0, "bike_id": "16a3944c662a8dcb15ff9fa79c2aa266", "fusion_lon": 0.0, "fusion_lat": 0.0, "is_reserved": 0, "type": "electric_scooter", "lon": -77.038573, "name": "16a3944c662a8dcb15ff9fa79c2aa266", "lat": 38.908154333333336}, {"rental_uris": {"ios": "https://dc.lft.to/lastmile_qr_scan", "android": "https://dc.lft.to/lastmile_qr_scan"}, "is_disabled": 0, "bike_id": "97426f87eb39166c7291631e7ff2f603", "fusion_lon": 0.0, "fusion_lat": 0.0, "is_reserved": 0, "type": "electric_bike", "lon": -77.0417065, "name": "97426f87eb39166c7291631e7ff2f603", "lat": 38.917047}, {"rental_uris": {"ios": "https://dc.lft.to/lastmile_qr_scan", "android": "https://dc.lft.to/lastmile_qr_scan"}, "is_disabled": 0, "bike_id": "f015b9ea10eb1178d40bcc58765f5e90", "fusion_lon": 0.0, "fusion_lat": 0.0, "is_reserved": 0, "type": "electric_scooter", "lon": -77.02692666666667, "name": "f015b9ea10eb1178d40bcc58765f5e90", "lat": 38.906812333333335}, {"rental_uris": {"ios": "https://dc.lft.to/lastmile_qr_scan", "android": "https://dc.lft.to/lastmile_qr_scan"}, "is_disabled": 0, "bike_id": "5887ad5b2d44735c04b25d53f9b1f8ad", "fusion_lon": 0.0, "fusion_lat": 0.0, "is_reserved": 0, "type": "electric_scooter", "lon": -77.04025983333334, "name": "5887ad5b2d44735c04b25d53f9b1f8ad", "lat": 38.92442616666666}, {"rental_uris": {"ios": "https://dc.lft.to/lastmile_qr_scan", "android": "https://dc.lft.to/lastmile_qr_scan"}, "is_disabled": 0, "bike_id": "ef6b181e9d17683f8a3a847de4584c85", "fusion_lon": 0.0, "fusion_lat": 0.0, "is_reserved": 0, "type": "electric_bike", "lon": -76.98904433333334, "name": "ef6b181e9d17683f8a3a847de4584c85", "lat": 38.90029166666667}, {"rental_uris": {"ios": "https://dc.lft.to/lastmile_qr_scan", "android": "https://dc.lft.to/lastmile_qr_scan"}, "is_disabled": 0, "bike_id": "df9592328ac89c1ec57bfd10717cf45b", "fusion_lon": 0.0, "fusion_lat": 0.0, "is_reserved": 0, "type": "electric_bike", "lon": -77.131451, "name": "df9592328ac89c1ec57bfd10717cf45b", "lat": 38.8617185}, {"rental_uris": {"ios": "https://dc.lft.to/lastmile_qr_scan", "android": "https://dc.lft.to/lastmile_qr_scan"}, "is_disabled": 0, "bike_id": "28bc5ddbdaa408f5e285b569fb07db08", "fusion_lon": 0.0, "fusion_lat": 0.0, "is_reserved": 0, "type": "electric_bike", "lon": -76.9718715, "name": "28bc5ddbdaa408f5e285b569fb07db08", "lat": 38.9179225}, {"rental_uris": {"ios": "https://dc.lft.to/lastmile_qr_scan", "android": "https://dc.lft.to/lastmile_qr_scan"}, "is_disabled": 0, "bike_id": "0660e60980fa5cd7eb71e6e5f14235bd", "fusion_lon": 0.0, "fusion_lat": 0.0, "is_reserved": 0, "type": "electric_scooter", "lon": -77.04501966666666, "name": "0660e60980fa5cd7eb71e6e5f14235bd", "lat": 38.9037655}, {"rental_uris": {"ios": "https://dc.lft.to/lastmile_qr_scan", "android": "https://dc.lft.to/lastmile_qr_scan"}, "is_disabled": 0, "bike_id": "ca5bcc0de928a6194489e17f56ac5506", "fusion_lon": 0.0, "fusion_lat": 0.0, "is_reserved": 0, "type": "electric_scooter", "lon": -77.02691216666666, "name": "ca5bcc0de928a6194489e17f56ac5506", "lat": 38.9182675}, {"rental_uris": {"ios": "https://dc.lft.to/lastmile_qr_scan", "android": "https://dc.lft.to/lastmile_qr_scan"}, "is_disabled": 0, "bike_id": "15b182d8f0108ae937f68c13b7db1c28", "fusion_lon": 0.0, "fusion_lat": 0.0, "is_reserved": 0, "type": "electric_scooter", "lon": -76.93175333333333, "name": "15b182d8f0108ae937f68c13b7db1c28", "lat": 38.89886216666667}, {"rental_uris": {"ios": "https://dc.lft.to/lastmile_qr_scan", "android": "https://dc.lft.to/lastmile_qr_scan"}, "is_disabled": 0, "bike_id": "b9f876196ead9b61b5c02bf57a38e878", "fusion_lon": 0.0, "fusion_lat": 0.0, "is_reserved": 0, "type": "electric_scooter", "lon": -76.98702183333333, "name": "b9f876196ead9b61b5c02bf57a38e878", "lat": 38.865416833333335}, {"rental_uris": {"ios": "https://dc.lft.to/lastmile_qr_scan", "android": "https://dc.lft.to/lastmile_qr_scan"}, "is_disabled": 0, "bike_id": "1f4de421705221f46b040354fe404ce5", "fusion_lon": 0.0, "fusion_lat": 0.0, "is_reserved": 0, "type": "electric_scooter", "lon": -77.0176945, "name": "1f4de421705221f46b040354fe404ce5", "lat": 38.90563133333333}, {"rental_uris": {"ios": "https://dc.lft.to/lastmile_qr_scan", "android": "https://dc.lft.to/lastmile_qr_scan"}, "is_disabled": 0, "bike_id": "6fe93c624a20428452e4ef662e3a87b8", "fusion_lon": 0.0, "fusion_lat": 0.0, "is_reserved": 0, "type": "electric_scooter", "lon": -77.03137, "name": "6fe93c624a20428452e4ef662e3a87b8", "lat": 38.912760666666664}, {"rental_uris": {"ios": "https://dc.lft.to/lastmile_qr_scan", "android": "https://dc.lft.to/lastmile_qr_scan"}, "is_disabled": 0, "bike_id": "839f56f915aca3aa0b54ae2e4577ef28", "fusion_lon": 0.0, "fusion_lat": 0.0, "is_reserved": 0, "type": "electric_scooter", "lon": -77.0113695, "name": "839f56f915aca3aa0b54ae2e4577ef28", "lat": 38.885273833333336}, {"rental_uris": {"ios": "https://dc.lft.to/lastmile_qr_scan", "android": "https://dc.lft.to/lastmile_qr_scan"}, "is_disabled": 0, "bike_id": "a95e6e62f77c719d99e2a47c8f31fa76", "fusion_lon": 0.0, "fusion_lat": 0.0, "is_reserved": 0, "type": "electric_scooter", "lon": -76.987271, "name": "a95e6e62f77c719d99e2a47c8f31fa76", "lat": 38.85809616666667}, {"rental_uris": {"ios": "https://dc.lft.to/lastmile_qr_scan", "android": "https://dc.lft.to/lastmile_qr_scan"}, "is_disabled": 0, "bike_id": "a093a6996003c7f15f1261f34d7cbfa0", "fusion_lon": 0.0, "fusion_lat": 0.0, "is_reserved": 0, "type": "electric_bike", "lon": -77.15827533333334, "name": "a093a6996003c7f15f1261f34d7cbfa0", "lat": 38.8945025}, {"rental_uris": {"ios": "https://dc.lft.to/lastmile_qr_scan", "android": "https://dc.lft.to/lastmile_qr_scan"}, "is_disabled": 0, "bike_id": "799970bab279e928bc7eea17b74eac47", "fusion_lon": 0.0, "fusion_lat": 0.0, "is_reserved": 0, "type": "electric_scooter", "lon": -77.03087933333333, "name": "799970bab279e928bc7eea17b74eac47", "lat": 38.901255}, {"rental_uris": {"ios": "https://dc.lft.to/lastmile_qr_scan", "android": "https://dc.lft.to/lastmile_qr_scan"}, "is_disabled": 0, "bike_id": "2fca9d70ca3e3426d37b822ae86799a2", "fusion_lon": 0.0, "fusion_lat": 0.0, "is_reserved": 0, "type": "electric_scooter", "lon": -77.03531883333333, "name": "2fca9d70ca3e3426d37b822ae86799a2", "lat": 38.923923}, {"rental_uris": {"ios": "https://dc.lft.to/lastmile_qr_scan", "android": "https://dc.lft.to/lastmile_qr_scan"}, "is_disabled": 0, "bike_id": "b8be0fd824926180b2cdeff46390968e", "fusion_lon": 0.0, "fusion_lat": 0.0, "is_reserved": 0, "type": "electric_scooter", "lon": -77.04352083333333, "name": "b8be0fd824926180b2cdeff46390968e", "lat": 38.928004333333334}, {"rental_uris": {"ios": "https://dc.lft.to/lastmile_qr_scan", "android": "https://dc.lft.to/lastmile_qr_scan"}, "is_disabled": 0, "bike_id": "2c37f569488de4a9011e883306b9411d", "fusion_lon": 0.0, "fusion_lat": 0.0, "is_reserved": 0, "type": "electric_scooter", "lon": -77.0743175, "name": "2c37f569488de4a9011e883306b9411d", "lat": 38.90671616666667}, {"rental_uris": {"ios": "https://dc.lft.to/lastmile_qr_scan", "android": "https://dc.lft.to/lastmile_qr_scan"}, "is_disabled": 0, "bike_id": "11528d69b4d5cdc4321df7a98e773662", "fusion_lon": 0.0, "fusion_lat": 0.0, "is_reserved": 0, "type": "electric_scooter", "lon": -77.0351885, "name": "11528d69b4d5cdc4321df7a98e773662", "lat": 38.921502333333336}, {"rental_uris": {"ios": "https://dc.lft.to/lastmile_qr_scan", "android": "https://dc.lft.to/lastmile_qr_scan"}, "is_disabled": 0, "bike_id": "125ac003b41f78e0ccb8332d4c559d95", "fusion_lon": 0.0, "fusion_lat": 0.0, "is_reserved": 0, "type": "electric_scooter", "lon": -77.03449633333334, "name": "125ac003b41f78e0ccb8332d4c559d95", "lat": 38.90996916666667}, {"rental_uris": {"ios": "https://dc.lft.to/lastmile_qr_scan", "android": "https://dc.lft.to/lastmile_qr_scan"}, "is_disabled": 0, "bike_id": "f2de55ffb39a0ce15acb20a37b304298", "fusion_lon": 0.0, "fusion_lat": 0.0, "is_reserved": 0, "type": "electric_scooter", "lon": -77.0409165, "name": "f2de55ffb39a0ce15acb20a37b304298", "lat": 38.91846783333333}, {"rental_uris": {"ios": "https://dc.lft.to/lastmile_qr_scan", "android": "https://dc.lft.to/lastmile_qr_scan"}, "is_disabled": 0, "bike_id": "9a8f8ae8552678d41ac6cf37bd33eca4", "fusion_lon": 0.0, "fusion_lat": 0.0, "is_reserved": 0, "type": "electric_scooter", "lon": -77.04646966666667, "name": "9a8f8ae8552678d41ac6cf37bd33eca4", "lat": 38.900083}, {"rental_uris": {"ios": "https://dc.lft.to/lastmile_qr_scan", "android": "https://dc.lft.to/lastmile_qr_scan"}, "is_disabled": 0, "bike_id": "e6a82ae90a836c54243b2141267a5e1d", "fusion_lon": 0.0, "fusion_lat": 0.0, "is_reserved": 0, "type": "electric_scooter", "lon": -77.04989916666666, "name": "e6a82ae90a836c54243b2141267a5e1d", "lat": 38.90125583333333}, {"rental_uris": {"ios": "https://dc.lft.to/lastmile_qr_scan", "android": "https://dc.lft.to/lastmile_qr_scan"}, "is_disabled": 0, "bike_id": "be1cdf122282697e84f49c26a233e922", "fusion_lon": 0.0, "fusion_lat": 0.0, "is_reserved": 0, "type": "electric_scooter", "lon": -77.0505045, "name": "be1cdf122282697e84f49c26a233e922", "lat": 38.923701333333334}, {"rental_uris": {"ios": "https://dc.lft.to/lastmile_qr_scan", "android": "https://dc.lft.to/lastmile_qr_scan"}, "is_disabled": 0, "bike_id": "6f7564a895ff99f3d574c875882bb90a", "fusion_lon": 0.0, "fusion_lat": 0.0, "is_reserved": 0, "type": "electric_bike", "lon": -77.09477866666667, "name": "6f7564a895ff99f3d574c875882bb90a", "lat": 39.030491833333336}, {"rental_uris": {"ios": "https://dc.lft.to/lastmile_qr_scan", "android": "https://dc.lft.to/lastmile_qr_scan"}, "is_disabled": 0, "bike_id": "f517001fd1918e2a20695f1f84f8057e", "fusion_lon": 0.0, "fusion_lat": 0.0, "is_reserved": 0, "type": "electric_scooter", "lon": -77.03091133333334, "name": "f517001fd1918e2a20695f1f84f8057e", "lat": 38.93863916666667}, {"rental_uris": {"ios": "https://dc.lft.to/lastmile_qr_scan", "android": "https://dc.lft.to/lastmile_qr_scan"}, "is_disabled": 0, "bike_id": "5a4ef61822f670960a057b4eb21c1e18", "fusion_lon": 0.0, "fusion_lat": 0.0, "is_reserved": 0, "type": "electric_scooter", "lon": -77.03468083333334, "name": "5a4ef61822f670960a057b4eb21c1e18", "lat": 38.90850183333333}, {"rental_uris": {"ios": "https://dc.lft.to/lastmile_qr_scan", "android": "https://dc.lft.to/lastmile_qr_scan"}, "is_disabled": 0, "bike_id": "629f9e463afee5d571b07fc86f3aaa10", "fusion_lon": 0.0, "fusion_lat": 0.0, "is_reserved": 0, "type": "electric_scooter", "lon": -77.011301, "name": "629f9e463afee5d571b07fc86f3aaa10", "lat": 38.907311166666666}, {"rental_uris": {"ios": "https://dc.lft.to/lastmile_qr_scan", "android": "https://dc.lft.to/lastmile_qr_scan"}, "is_disabled": 0, "bike_id": "acba47dbb443dae781e7f45cb1793ca1", "fusion_lon": 0.0, "fusion_lat": 0.0, "is_reserved": 0, "type": "electric_scooter", "lon": -77.00440683333333, "name": "acba47dbb443dae781e7f45cb1793ca1", "lat": 38.876484}, {"rental_uris": {"ios": "https://dc.lft.to/lastmile_qr_scan", "android": "https://dc.lft.to/lastmile_qr_scan"}, "is_disabled": 0, "bike_id": "70ff19485e44f535a39c3a162506ca1d", "fusion_lon": 0.0, "fusion_lat": 0.0, "is_reserved": 0, "type": "electric_scooter", "lon": -77.07241766666667, "name": "70ff19485e44f535a39c3a162506ca1d", "lat": 38.939495666666666}, {"rental_uris": {"ios": "https://dc.lft.to/lastmile_qr_scan", "android": "https://dc.lft.to/lastmile_qr_scan"}, "is_disabled": 0, "bike_id": "257c2387cb07d5407ceba19f54a776be", "fusion_lon": 0.0, "fusion_lat": 0.0, "is_reserved": 0, "type": "electric_scooter", "lon": -76.9489305, "name": "257c2387cb07d5407ceba19f54a776be", "lat": 38.895296}, {"rental_uris": {"ios": "https://dc.lft.to/lastmile_qr_scan", "android": "https://dc.lft.to/lastmile_qr_scan"}, "is_disabled": 0, "bike_id": "f1059e4d829a62a7a383a9954dc58638", "fusion_lon": 0.0, "fusion_lat": 0.0, "is_reserved": 0, "type": "electric_bike", "lon": -77.13099466666667, "name": "f1059e4d829a62a7a383a9954dc58638", "lat": 39.02432783333333}, {"rental_uris": {"ios": "https://dc.lft.to/lastmile_qr_scan", "android": "https://dc.lft.to/lastmile_qr_scan"}, "is_disabled": 0, "bike_id": "168c6f284e951da3e02275caaddd3947", "fusion_lon": 0.0, "fusion_lat": 0.0, "is_reserved": 0, "type": "electric_scooter", "lon": -76.99340316666667, "name": "168c6f284e951da3e02275caaddd3947", "lat": 38.91036}, {"rental_uris": {"ios": "https://dc.lft.to/lastmile_qr_scan", "android": "https://dc.lft.to/lastmile_qr_scan"}, "is_disabled": 0, "bike_id": "3c067a83a646ea1eb4329ef613fd6386", "fusion_lon": 0.0, "fusion_lat": 0.0, "is_reserved": 0, "type": "electric_scooter", "lon": -77.02007516666667, "name": "3c067a83a646ea1eb4329ef613fd6386", "lat": 38.89873016666667}, {"rental_uris": {"ios": "https://dc.lft.to/lastmile_qr_scan", "android": "https://dc.lft.to/lastmile_qr_scan"}, "is_disabled": 0, "bike_id": "044e8ba21f3a8282b025fd893bd3f3cf", "fusion_lon": 0.0, "fusion_lat": 0.0, "is_reserved": 0, "type": "electric_scooter", "lon": -77.0435915, "name": "044e8ba21f3a8282b025fd893bd3f3cf", "lat": 38.89845616666667}, {"rental_uris": {"ios": "https://dc.lft.to/lastmile_qr_scan", "android": "https://dc.lft.to/lastmile_qr_scan"}, "is_disabled": 0, "bike_id": "f3a4c8f5093a4bfdb10c11e16cd69eb1", "fusion_lon": 0.0, "fusion_lat": 0.0, "is_reserved": 0, "type": "electric_scooter", "lon": -77.01623883333333, "name": "f3a4c8f5093a4bfdb10c11e16cd69eb1", "lat": 38.89819516666667}, {"rental_uris": {"ios": "https://dc.lft.to/lastmile_qr_scan", "android": "https://dc.lft.to/lastmile_qr_scan"}, "is_disabled": 0, "bike_id": "30f63532b42f35ecf0578325c88c5139", "fusion_lon": 0.0, "fusion_lat": 0.0, "is_reserved": 0, "type": "electric_scooter", "lon": -76.9853715, "name": "30f63532b42f35ecf0578325c88c5139", "lat": 38.86676166666667}, {"rental_uris": {"ios": "https://dc.lft.to/lastmile_qr_scan", "android": "https://dc.lft.to/lastmile_qr_scan"}, "is_disabled": 0, "bike_id": "964b37e8503bda8751bd6b41fe182e86", "fusion_lon": 0.0, "fusion_lat": 0.0, "is_reserved": 0, "type": "electric_scooter", "lon": -77.02286566666666, "name": "964b37e8503bda8751bd6b41fe182e86", "lat": 38.91608516666667}, {"rental_uris": {"ios": "https://dc.lft.to/lastmile_qr_scan", "android": "https://dc.lft.to/lastmile_qr_scan"}, "is_disabled": 0, "bike_id": "34b1bb61a8e2089c996c637e47607db6", "fusion_lon": 0.0, "fusion_lat": 0.0, "is_reserved": 0, "type": "electric_scooter", "lon": -77.026827, "name": "34b1bb61a8e2089c996c637e47607db6", "lat": 38.897655666666665}, {"rental_uris": {"ios": "https://dc.lft.to/lastmile_qr_scan", "android": "https://dc.lft.to/lastmile_qr_scan"}, "is_disabled": 0, "bike_id": "8ccda596edb743f46866987054a66ab2", "fusion_lon": 0.0, "fusion_lat": 0.0, "is_reserved": 0, "type": "electric_scooter", "lon": -77.02286633333334, "name": "8ccda596edb743f46866987054a66ab2", "lat": 38.9168465}, {"rental_uris": {"ios": "https://dc.lft.to/lastmile_qr_scan", "android": "https://dc.lft.to/lastmile_qr_scan"}, "is_disabled": 0, "bike_id": "6603f0cfafad6a96d72ece37a6daa69a", "fusion_lon": 0.0, "fusion_lat": 0.0, "is_reserved": 0, "type": "electric_scooter", "lon": -77.04018916666666, "name": "6603f0cfafad6a96d72ece37a6daa69a", "lat": 38.92215983333333}, {"rental_uris": {"ios": "https://dc.lft.to/lastmile_qr_scan", "android": "https://dc.lft.to/lastmile_qr_scan"}, "is_disabled": 0, "bike_id": "0c4334471b9ea4824d61f27946a37c36", "fusion_lon": 0.0, "fusion_lat": 0.0, "is_reserved": 0, "type": "electric_scooter", "lon": -77.037795, "name": "0c4334471b9ea4824d61f27946a37c36", "lat": 38.9070135}, {"rental_uris": {"ios": "https://dc.lft.to/lastmile_qr_scan", "android": "https://dc.lft.to/lastmile_qr_scan"}, "is_disabled": 0, "bike_id": "b2aa233de7af41813614634d17aa9ebe", "fusion_lon": 0.0, "fusion_lat": 0.0, "is_reserved": 0, "type": "electric_scooter", "lon": -77.03163083333334, "name": "b2aa233de7af41813614634d17aa9ebe", "lat": 38.89220733333333}, {"rental_uris": {"ios": "https://dc.lft.to/lastmile_qr_scan", "android": "https://dc.lft.to/lastmile_qr_scan"}, "is_disabled": 0, "bike_id": "61ed20609bf21c005efbcff56abf7e0c", "fusion_lon": 0.0, "fusion_lat": 0.0, "is_reserved": 0, "type": "electric_bike", "lon": -77.043642, "name": "61ed20609bf21c005efbcff56abf7e0c", "lat": 38.920643166666665}, {"rental_uris": {"ios": "https://dc.lft.to/lastmile_qr_scan", "android": "https://dc.lft.to/lastmile_qr_scan"}, "is_disabled": 0, "bike_id": "cb9205a3de5fb4ea71619eba86c7f6cc", "fusion_lon": 0.0, "fusion_lat": 0.0, "is_reserved": 0, "type": "electric_scooter", "lon": -77.04357233333333, "name": "cb9205a3de5fb4ea71619eba86c7f6cc", "lat": 38.908586}, {"rental_uris": {"ios": "https://dc.lft.to/lastmile_qr_scan", "android": "https://dc.lft.to/lastmile_qr_scan"}, "is_disabled": 0, "bike_id": "d86683113afe12341fc93cf0c3069c47", "fusion_lon": 0.0, "fusion_lat": 0.0, "is_reserved": 0, "type": "electric_bike", "lon": -76.98104883333333, "name": "d86683113afe12341fc93cf0c3069c47", "lat": 38.87731683333333}, {"rental_uris": {"ios": "https://dc.lft.to/lastmile_qr_scan", "android": "https://dc.lft.to/lastmile_qr_scan"}, "is_disabled": 0, "bike_id": "e26ed9480e100972538e4d3ac88fe949", "fusion_lon": 0.0, "fusion_lat": 0.0, "is_reserved": 0, "type": "electric_scooter", "lon": -77.04518466666667, "name": "e26ed9480e100972538e4d3ac88fe949", "lat": 38.933165333333335}, {"rental_uris": {"ios": "https://dc.lft.to/lastmile_qr_scan", "android": "https://dc.lft.to/lastmile_qr_scan"}, "is_disabled": 0, "bike_id": "8b2f0fd662ed4a1f4c15b9878c82bee1", "fusion_lon": 0.0, "fusion_lat": 0.0, "is_reserved": 0, "type": "electric_scooter", "lon": -77.01975766666666, "name": "8b2f0fd662ed4a1f4c15b9878c82bee1", "lat": 38.9013325}, {"rental_uris": {"ios": "https://dc.lft.to/lastmile_qr_scan", "android": "https://dc.lft.to/lastmile_qr_scan"}, "is_disabled": 0, "bike_id": "95c75afeb338fcf1eb9537253ab70d15", "fusion_lon": 0.0, "fusion_lat": 0.0, "is_reserved": 0, "type": "electric_scooter", "lon": -77.02642783333333, "name": "95c75afeb338fcf1eb9537253ab70d15", "lat": 38.9440785}, {"rental_uris": {"ios": "https://dc.lft.to/lastmile_qr_scan", "android": "https://dc.lft.to/lastmile_qr_scan"}, "is_disabled": 0, "bike_id": "bf3e63bc0e2c11d727e8290f9196f976", "fusion_lon": 0.0, "fusion_lat": 0.0, "is_reserved": 0, "type": "electric_scooter", "lon": -76.97725016666666, "name": "bf3e63bc0e2c11d727e8290f9196f976", "lat": 38.87245983333333}, {"rental_uris": {"ios": "https://dc.lft.to/lastmile_qr_scan", "android": "https://dc.lft.to/lastmile_qr_scan"}, "is_disabled": 0, "bike_id": "e255eb5415fe553786751927631d9232", "fusion_lon": 0.0, "fusion_lat": 0.0, "is_reserved": 0, "type": "electric_scooter", "lon": -77.02913133333334, "name": "e255eb5415fe553786751927631d9232", "lat": 38.905564166666665}, {"rental_uris": {"ios": "https://dc.lft.to/lastmile_qr_scan", "android": "https://dc.lft.to/lastmile_qr_scan"}, "is_disabled": 0, "bike_id": "c755aaee923265fadbcee03dc9d8945e", "fusion_lon": 0.0, "fusion_lat": 0.0, "is_reserved": 0, "type": "electric_scooter", "lon": -77.03342, "name": "c755aaee923265fadbcee03dc9d8945e", "lat": 38.91708166666667}, {"rental_uris": {"ios": "https://dc.lft.to/lastmile_qr_scan", "android": "https://dc.lft.to/lastmile_qr_scan"}, "is_disabled": 0, "bike_id": "9c0daf286b8858338ea09366fcd3d689", "fusion_lon": 0.0, "fusion_lat": 0.0, "is_reserved": 0, "type": "electric_scooter", "lon": -77.02222833333333, "name": "9c0daf286b8858338ea09366fcd3d689", "lat": 38.912707166666664}, {"rental_uris": {"ios": "https://dc.lft.to/lastmile_qr_scan", "android": "https://dc.lft.to/lastmile_qr_scan"}, "is_disabled": 0, "bike_id": "9948e20b5ae96d8052bb0d3f5bbbba5b", "fusion_lon": 0.0, "fusion_lat": 0.0, "is_reserved": 0, "type": "electric_scooter", "lon": -77.04765066666667, "name": "9948e20b5ae96d8052bb0d3f5bbbba5b", "lat": 38.9085245}, {"rental_uris": {"ios": "https://dc.lft.to/lastmile_qr_scan", "android": "https://dc.lft.to/lastmile_qr_scan"}, "is_disabled": 0, "bike_id": "ea2734058082fcc7fad99c32b8580329", "fusion_lon": 0.0, "fusion_lat": 0.0, "is_reserved": 0, "type": "electric_scooter", "lon": -77.0306675, "name": "ea2734058082fcc7fad99c32b8580329", "lat": 38.90260083333333}, {"rental_uris": {"ios": "https://dc.lft.to/lastmile_qr_scan", "android": "https://dc.lft.to/lastmile_qr_scan"}, "is_disabled": 0, "bike_id": "c52176fdb6c07f68863783a47702f77e", "fusion_lon": 0.0, "fusion_lat": 0.0, "is_reserved": 0, "type": "electric_scooter", "lon": -77.04271283333334, "name": "c52176fdb6c07f68863783a47702f77e", "lat": 38.902463166666664}, {"rental_uris": {"ios": "https://dc.lft.to/lastmile_qr_scan", "android": "https://dc.lft.to/lastmile_qr_scan"}, "is_disabled": 0, "bike_id": "f0305b748b93663405d1a429a9ea5f54", "fusion_lon": 0.0, "fusion_lat": 0.0, "is_reserved": 0, "type": "electric_bike", "lon": -76.9840015, "name": "f0305b748b93663405d1a429a9ea5f54", "lat": 38.8550915}, {"rental_uris": {"ios": "https://dc.lft.to/lastmile_qr_scan", "android": "https://dc.lft.to/lastmile_qr_scan"}, "is_disabled": 0, "bike_id": "7f444c5edab2a1e1228717de76ab6462", "fusion_lon": 0.0, "fusion_lat": 0.0, "is_reserved": 0, "type": "electric_scooter", "lon": -77.027198, "name": "7f444c5edab2a1e1228717de76ab6462", "lat": 38.92480616666667}, {"rental_uris": {"ios": "https://dc.lft.to/lastmile_qr_scan", "android": "https://dc.lft.to/lastmile_qr_scan"}, "is_disabled": 0, "bike_id": "be27a58f7180f0b05bf98b261538fbc9", "fusion_lon": 0.0, "fusion_lat": 0.0, "is_reserved": 0, "type": "electric_scooter", "lon": -76.96854266666666, "name": "be27a58f7180f0b05bf98b261538fbc9", "lat": 38.8707735}, {"rental_uris": {"ios": "https://dc.lft.to/lastmile_qr_scan", "android": "https://dc.lft.to/lastmile_qr_scan"}, "is_disabled": 0, "bike_id": "76b3c8e1c35e01278117981c1f9510ee", "fusion_lon": 0.0, "fusion_lat": 0.0, "is_reserved": 0, "type": "electric_scooter", "lon": -77.00208433333333, "name": "76b3c8e1c35e01278117981c1f9510ee", "lat": 38.9007405}, {"rental_uris": {"ios": "https://dc.lft.to/lastmile_qr_scan", "android": "https://dc.lft.to/lastmile_qr_scan"}, "is_disabled": 0, "bike_id": "f3c7cdbc0586f432de18312cc74bb54a", "fusion_lon": 0.0, "fusion_lat": 0.0, "is_reserved": 0, "type": "electric_scooter", "lon": -77.031787, "name": "f3c7cdbc0586f432de18312cc74bb54a", "lat": 38.9078985}, {"rental_uris": {"ios": "https://dc.lft.to/lastmile_qr_scan", "android": "https://dc.lft.to/lastmile_qr_scan"}, "is_disabled": 0, "bike_id": "dbb342b5bc5bfa8bdb4e1738da6c4198", "fusion_lon": 0.0, "fusion_lat": 0.0, "is_reserved": 0, "type": "electric_bike", "lon": -77.01196983333334, "name": "dbb342b5bc5bfa8bdb4e1738da6c4198", "lat": 38.9508065}, {"rental_uris": {"ios": "https://dc.lft.to/lastmile_qr_scan", "android": "https://dc.lft.to/lastmile_qr_scan"}, "is_disabled": 0, "bike_id": "69c75f66b38cec3ad2c4dc8ec165337b", "fusion_lon": 0.0, "fusion_lat": 0.0, "is_reserved": 0, "type": "electric_scooter", "lon": -77.02180316666667, "name": "69c75f66b38cec3ad2c4dc8ec165337b", "lat": 38.90621316666667}, {"rental_uris": {"ios": "https://dc.lft.to/lastmile_qr_scan", "android": "https://dc.lft.to/lastmile_qr_scan"}, "is_disabled": 0, "bike_id": "88891f2f760421e68b753d296978eb84", "fusion_lon": 0.0, "fusion_lat": 0.0, "is_reserved": 0, "type": "electric_bike", "lon": -76.93248883333334, "name": "88891f2f760421e68b753d296978eb84", "lat": 38.882786333333335}, {"rental_uris": {"ios": "https://dc.lft.to/lastmile_qr_scan", "android": "https://dc.lft.to/lastmile_qr_scan"}, "is_disabled": 0, "bike_id": "cfe26ef19940ca6a13067a960aa115ef", "fusion_lon": 0.0, "fusion_lat": 0.0, "is_reserved": 0, "type": "electric_scooter", "lon": -77.00303733333334, "name": "cfe26ef19940ca6a13067a960aa115ef", "lat": 38.90143483333333}, {"rental_uris": {"ios": "https://dc.lft.to/lastmile_qr_scan", "android": "https://dc.lft.to/lastmile_qr_scan"}, "is_disabled": 0, "bike_id": "7bb55cfe853c05f776720fae00b812a3", "fusion_lon": 0.0, "fusion_lat": 0.0, "is_reserved": 0, "type": "electric_scooter", "lon": -77.06024666666667, "name": "7bb55cfe853c05f776720fae00b812a3", "lat": 38.9023375}, {"rental_uris": {"ios": "https://dc.lft.to/lastmile_qr_scan", "android": "https://dc.lft.to/lastmile_qr_scan"}, "is_disabled": 0, "bike_id": "e34195ecfae83087f2047bfb6fa4cd12", "fusion_lon": 0.0, "fusion_lat": 0.0, "is_reserved": 0, "type": "electric_scooter", "lon": -77.0501685, "name": "e34195ecfae83087f2047bfb6fa4cd12", "lat": 38.923557833333334}, {"rental_uris": {"ios": "https://dc.lft.to/lastmile_qr_scan", "android": "https://dc.lft.to/lastmile_qr_scan"}, "is_disabled": 0, "bike_id": "ca03b303f4f2b86134c2ef7dded442aa", "fusion_lon": 0.0, "fusion_lat": 0.0, "is_reserved": 0, "type": "electric_scooter", "lon": -77.05260716666666, "name": "ca03b303f4f2b86134c2ef7dded442aa", "lat": 38.92552466666667}, {"rental_uris": {"ios": "https://dc.lft.to/lastmile_qr_scan", "android": "https://dc.lft.to/lastmile_qr_scan"}, "is_disabled": 0, "bike_id": "ca5b5c9edd0b1e5dcce432fd9c2031f7", "fusion_lon": 0.0, "fusion_lat": 0.0, "is_reserved": 0, "type": "electric_scooter", "lon": -77.04028066666666, "name": "ca5b5c9edd0b1e5dcce432fd9c2031f7", "lat": 38.90255116666667}, {"rental_uris": {"ios": "https://dc.lft.to/lastmile_qr_scan", "android": "https://dc.lft.to/lastmile_qr_scan"}, "is_disabled": 0, "bike_id": "fe54e20e13cc6095e3e9eb0cf367acb9", "fusion_lon": 0.0, "fusion_lat": 0.0, "is_reserved": 0, "type": "electric_scooter", "lon": -76.9866245, "name": "fe54e20e13cc6095e3e9eb0cf367acb9", "lat": 38.866165333333335}, {"rental_uris": {"ios": "https://dc.lft.to/lastmile_qr_scan", "android": "https://dc.lft.to/lastmile_qr_scan"}, "is_disabled": 0, "bike_id": "f124210db233b411e6a36f2ce475d3f0", "fusion_lon": 0.0, "fusion_lat": 0.0, "is_reserved": 0, "type": "electric_scooter", "lon": -77.05050616666666, "name": "f124210db233b411e6a36f2ce475d3f0", "lat": 38.92363483333333}, {"rental_uris": {"ios": "https://dc.lft.to/lastmile_qr_scan", "android": "https://dc.lft.to/lastmile_qr_scan"}, "is_disabled": 0, "bike_id": "b853402d8d84dd177c79cc3a891e99b4", "fusion_lon": 0.0, "fusion_lat": 0.0, "is_reserved": 0, "type": "electric_scooter", "lon": -77.041729, "name": "b853402d8d84dd177c79cc3a891e99b4", "lat": 38.902978166666664}, {"rental_uris": {"ios": "https://dc.lft.to/lastmile_qr_scan", "android": "https://dc.lft.to/lastmile_qr_scan"}, "is_disabled": 0, "bike_id": "0e9a6d0604f9b0aa8728c751469dde5e", "fusion_lon": 0.0, "fusion_lat": 0.0, "is_reserved": 0, "type": "electric_scooter", "lon": -77.0373175, "name": "0e9a6d0604f9b0aa8728c751469dde5e", "lat": 38.925774}, {"rental_uris": {"ios": "https://dc.lft.to/lastmile_qr_scan", "android": "https://dc.lft.to/lastmile_qr_scan"}, "is_disabled": 0, "bike_id": "04aad1eb2fe15b300203fe2764e3adac", "fusion_lon": 0.0, "fusion_lat": 0.0, "is_reserved": 0, "type": "electric_scooter", "lon": -77.01741833333334, "name": "04aad1eb2fe15b300203fe2764e3adac", "lat": 38.91608216666667}, {"rental_uris": {"ios": "https://dc.lft.to/lastmile_qr_scan", "android": "https://dc.lft.to/lastmile_qr_scan"}, "is_disabled": 0, "bike_id": "54eb8c84435617a072b0d325f671eebc", "fusion_lon": 0.0, "fusion_lat": 0.0, "is_reserved": 0, "type": "electric_scooter", "lon": -77.062562, "name": "54eb8c84435617a072b0d325f671eebc", "lat": 38.90238083333333}, {"rental_uris": {"ios": "https://dc.lft.to/lastmile_qr_scan", "android": "https://dc.lft.to/lastmile_qr_scan"}, "is_disabled": 0, "bike_id": "daf2b23bb926e50a6a0268653a9684e3", "fusion_lon": 0.0, "fusion_lat": 0.0, "is_reserved": 0, "type": "electric_scooter", "lon": -77.03754133333334, "name": "daf2b23bb926e50a6a0268653a9684e3", "lat": 38.9358425}, {"rental_uris": {"ios": "https://dc.lft.to/lastmile_qr_scan", "android": "https://dc.lft.to/lastmile_qr_scan"}, "is_disabled": 0, "bike_id": "fbc265ee26e36e336d4056245f142f60", "fusion_lon": 0.0, "fusion_lat": 0.0, "is_reserved": 0, "type": "electric_scooter", "lon": -77.05854833333333, "name": "fbc265ee26e36e336d4056245f142f60", "lat": 38.936077833333336}, {"rental_uris": {"ios": "https://dc.lft.to/lastmile_qr_scan", "android": "https://dc.lft.to/lastmile_qr_scan"}, "is_disabled": 0, "bike_id": "f49e7794366bfc9cab6c61c916ccbdda", "fusion_lon": 0.0, "fusion_lat": 0.0, "is_reserved": 0, "type": "electric_scooter", "lon": -77.00711833333334, "name": "f49e7794366bfc9cab6c61c916ccbdda", "lat": 38.88494883333333}, {"rental_uris": {"ios": "https://dc.lft.to/lastmile_qr_scan", "android": "https://dc.lft.to/lastmile_qr_scan"},