{"data": {"bikes": [{"fusion_lon": 0.0, "fusion_lat": 0.0, "rental_uris": {"android": "https://dc.lft.to/lastmile_qr_scan", "ios": "https://dc.lft.to/lastmile_qr_scan"}, "is_disabled": 0, "type": "electric_scooter", "is_reserved": 0, "name": "e8e47a0efd41b552a11510e897ef68ee", "lon": -77.0200185, "bike_id": "e8e47a0efd41b552a11510e897ef68ee", "lat": 38.88563533333333}, {"fusion_lon": 0.0, "fusion_lat": 0.0, "rental_uris": {"android": "https://dc.lft.to/lastmile_qr_scan", "ios": "https://dc.lft.to/lastmile_qr_scan"}, "is_disabled": 0, "type": "electric_scooter", "is_reserved": 0, "name": "c16c89d52245f3c341bda4077d8bb626", "lon": -77.03388083333333, "bike_id": "c16c89d52245f3c341bda4077d8bb626", "lat": 38.9246345}, {"fusion_lon": 0.0, "fusion_lat": 0.0, "rental_uris": {"android": "https://dc.lft.to/lastmile_qr_scan", "ios": "https://dc.lft.to/lastmile_qr_scan"}, "is_disabled": 0, "type": "electric_scooter", "is_reserved": 0, "name": "b97cc0e2673851bfba5b3e09ace68157", "lon": -77.07545916666666, "bike_id": "b97cc0e2673851bfba5b3e09ace68157", "lat": 38.915363166666666}, {"fusion_lon": 0.0, "fusion_lat": 0.0, "rental_uris": {"android": "https://dc.lft.to/lastmile_qr_scan", "ios": "https://dc.lft.to/lastmile_qr_scan"}, "is_disabled": 0, "type": "electric_bike", "is_reserved": 0, "name": "c2630e03240c6132a2dbe04eccb012f0", "lon": -76.9180305, "bike_id": "c2630e03240c6132a2dbe04eccb012f0", "lat": 38.999972}, {"fusion_lon": 0.0, "fusion_lat": 0.0, "rental_uris": {"android": "https://dc.lft.to/lastmile_qr_scan", "ios": "https://dc.lft.to/lastmile_qr_scan"}, "is_disabled": 0, "type": "electric_scooter", "is_reserved": 0, "name": "dd326874109e6711301692df70cc68b7", "lon": -77.064027, "bike_id": "dd326874109e6711301692df70cc68b7", "lat": 38.913443666666666}, {"fusion_lon": 0.0, "fusion_lat": 0.0, "rental_uris": {"android": "https://dc.lft.to/lastmile_qr_scan", "ios": "https://dc.lft.to/lastmile_qr_scan"}, "is_disabled": 0, "type": "electric_scooter", "is_reserved": 0, "name": "bd621512cacf8abe0b5eafdf6e18a4b4", "lon": -76.99118633333333, "bike_id": "bd621512cacf8abe0b5eafdf6e18a4b4", "lat": 38.900285333333336}, {"fusion_lon": 0.0, "fusion_lat": 0.0, "rental_uris": {"android": "https://dc.lft.to/lastmile_qr_scan", "ios": "https://dc.lft.to/lastmile_qr_scan"}, "is_disabled": 0, "type": "electric_scooter", "is_reserved": 0, "name": "c3041498e4b9fa87dfd7f673a2aa47bd", "lon": -77.06693966666667, "bike_id": "c3041498e4b9fa87dfd7f673a2aa47bd", "lat": 38.914216333333336}, {"fusion_lon": 0.0, "fusion_lat": 0.0, "rental_uris": {"android": "https://dc.lft.to/lastmile_qr_scan", "ios": "https://dc.lft.to/lastmile_qr_scan"}, "is_disabled": 0, "type": "electric_scooter", "is_reserved": 0, "name": "e037d93bd1dd39e73d50da212a756e59", "lon": -77.06596633333334, "bike_id": "e037d93bd1dd39e73d50da212a756e59", "lat": 38.91220766666667}, {"fusion_lon": 0.0, "fusion_lat": 0.0, "rental_uris": {"android": "https://dc.lft.to/lastmile_qr_scan", "ios": "https://dc.lft.to/lastmile_qr_scan"}, "is_disabled": 0, "type": "electric_scooter", "is_reserved": 0, "name": "bab237682fd5dfffb9e9dda96dae7156", "lon": -77.02713116666666, "bike_id": "bab237682fd5dfffb9e9dda96dae7156", "lat": 38.8981785}, {"fusion_lon": 0.0, "fusion_lat": 0.0, "rental_uris": {"android": "https://dc.lft.to/lastmile_qr_scan", "ios": "https://dc.lft.to/lastmile_qr_scan"}, "is_disabled": 0, "type": "electric_scooter", "is_reserved": 0, "name": "b0af6fc0fb45dcddb05170ba9f7befa2", "lon": -77.02216583333333, "bike_id": "b0af6fc0fb45dcddb05170ba9f7befa2", "lat": 38.91641633333333}, {"fusion_lon": 0.0, "fusion_lat": 0.0, "rental_uris": {"android": "https://dc.lft.to/lastmile_qr_scan", "ios": "https://dc.lft.to/lastmile_qr_scan"}, "is_disabled": 0, "type": "electric_scooter", "is_reserved": 0, "name": "7fe8df153210886b546d606598504574", "lon": -77.03386, "bike_id": "7fe8df153210886b546d606598504574", "lat": 38.901143833333336}, {"fusion_lon": 0.0, "fusion_lat": 0.0, "rental_uris": {"android": "https://dc.lft.to/lastmile_qr_scan", "ios": "https://dc.lft.to/lastmile_qr_scan"}, "is_disabled": 0, "type": "electric_scooter", "is_reserved": 0, "name": "0e1639ca59e31b2129fd3995fbe24232", "lon": -76.99334766666666, "bike_id": "0e1639ca59e31b2129fd3995fbe24232", "lat": 38.90049583333333}, {"fusion_lon": 0.0, "fusion_lat": 0.0, "rental_uris": {"android": "https://dc.lft.to/lastmile_qr_scan", "ios": "https://dc.lft.to/lastmile_qr_scan"}, "is_disabled": 0, "type": "electric_scooter", "is_reserved": 0, "name": "3b72e9ec28553840f5f4226b54af353c", "lon": -77.05473833333333, "bike_id": "3b72e9ec28553840f5f4226b54af353c", "lat": 38.893911833333334}, {"fusion_lon": 0.0, "fusion_lat": 0.0, "rental_uris": {"android": "https://dc.lft.to/lastmile_qr_scan", "ios": "https://dc.lft.to/lastmile_qr_scan"}, "is_disabled": 0, "type": "electric_scooter", "is_reserved": 0, "name": "7767c0ef709a5ca950395b4c7842d16c", "lon": -77.02768183333333, "bike_id": "7767c0ef709a5ca950395b4c7842d16c", "lat": 38.96381783333333}, {"fusion_lon": 0.0, "fusion_lat": 0.0, "rental_uris": {"android": "https://dc.lft.to/lastmile_qr_scan", "ios": "https://dc.lft.to/lastmile_qr_scan"}, "is_disabled": 0, "type": "electric_scooter", "is_reserved": 0, "name": "2af33bedcd1c08013ad06ac69648a250", "lon": -76.92510983333334, "bike_id": "2af33bedcd1c08013ad06ac69648a250", "lat": 38.886001}, {"fusion_lon": 0.0, "fusion_lat": 0.0, "rental_uris": {"android": "https://dc.lft.to/lastmile_qr_scan", "ios": "https://dc.lft.to/lastmile_qr_scan"}, "is_disabled": 0, "type": "electric_scooter", "is_reserved": 0, "name": "63f04cf2379a4684d1ea588499d6fa5d", "lon": -77.0128225, "bike_id": "63f04cf2379a4684d1ea588499d6fa5d", "lat": 38.956547666666665}, {"fusion_lon": 0.0, "fusion_lat": 0.0, "rental_uris": {"android": "https://dc.lft.to/lastmile_qr_scan", "ios": "https://dc.lft.to/lastmile_qr_scan"}, "is_disabled": 0, "type": "electric_scooter", "is_reserved": 0, "name": "0ed332ff12a57c4d81d6816ebde2d5fb", "lon": -77.02119216666667, "bike_id": "0ed332ff12a57c4d81d6816ebde2d5fb", "lat": 38.923653333333334}, {"fusion_lon": 0.0, "fusion_lat": 0.0, "rental_uris": {"android": "https://dc.lft.to/lastmile_qr_scan", "ios": "https://dc.lft.to/lastmile_qr_scan"}, "is_disabled": 0, "type": "electric_scooter", "is_reserved": 0, "name": "4049d6af1e42ff3c19aefba10a0297cc", "lon": -77.026902, "bike_id": "4049d6af1e42ff3c19aefba10a0297cc", "lat": 38.9006975}, {"fusion_lon": 0.0, "fusion_lat": 0.0, "rental_uris": {"android": "https://dc.lft.to/lastmile_qr_scan", "ios": "https://dc.lft.to/lastmile_qr_scan"}, "is_disabled": 0, "type": "electric_scooter", "is_reserved": 0, "name": "b66042252ed26ad344e482fe5bc08ff1", "lon": -77.00192916666667, "bike_id": "b66042252ed26ad344e482fe5bc08ff1", "lat": 38.873884833333335}, {"fusion_lon": 0.0, "fusion_lat": 0.0, "rental_uris": {"android": "https://dc.lft.to/lastmile_qr_scan", "ios": "https://dc.lft.to/lastmile_qr_scan"}, "is_disabled": 0, "type": "electric_scooter", "is_reserved": 0, "name": "e21149c76a50e6baae5e44bb777cbd2b", "lon": -77.02527333333333, "bike_id": "e21149c76a50e6baae5e44bb777cbd2b", "lat": 38.89600383333333}, {"fusion_lon": 0.0, "fusion_lat": 0.0, "rental_uris": {"android": "https://dc.lft.to/lastmile_qr_scan", "ios": "https://dc.lft.to/lastmile_qr_scan"}, "is_disabled": 0, "type": "electric_scooter", "is_reserved": 0, "name": "1164afd79c60f9cc694715336fbd1603", "lon": -77.0531795, "bike_id": "1164afd79c60f9cc694715336fbd1603", "lat": 38.934537}, {"fusion_lon": 0.0, "fusion_lat": 0.0, "rental_uris": {"android": "https://dc.lft.to/lastmile_qr_scan", "ios": "https://dc.lft.to/lastmile_qr_scan"}, "is_disabled": 0, "type": "electric_scooter", "is_reserved": 0, "name": "fd0538bf1ed27d1e90a2babdd2474ede", "lon": -77.0120685, "bike_id": "fd0538bf1ed27d1e90a2babdd2474ede", "lat": 38.897925666666666}, {"fusion_lon": 0.0, "fusion_lat": 0.0, "rental_uris": {"android": "https://dc.lft.to/lastmile_qr_scan", "ios": "https://dc.lft.to/lastmile_qr_scan"}, "is_disabled": 0, "type": "electric_scooter", "is_reserved": 0, "name": "fae028ba6e11edd370e44d261b48235a", "lon": -77.03267283333334, "bike_id": "fae028ba6e11edd370e44d261b48235a", "lat": 38.92711116666667}, {"fusion_lon": 0.0, "fusion_lat": 0.0, "rental_uris": {"android": "https://dc.lft.to/lastmile_qr_scan", "ios": "https://dc.lft.to/lastmile_qr_scan"}, "is_disabled": 0, "type": "electric_scooter", "is_reserved": 0, "name": "5fdd8678f31ad85b8c2a931678bb856d", "lon": -77.0215775, "bike_id": "5fdd8678f31ad85b8c2a931678bb856d", "lat": 38.924401833333334}, {"fusion_lon": 0.0, "fusion_lat": 0.0, "rental_uris": {"android": "https://dc.lft.to/lastmile_qr_scan", "ios": "https://dc.lft.to/lastmile_qr_scan"}, "is_disabled": 0, "type": "electric_scooter", "is_reserved": 0, "name": "0920dc445dc07424682ab0482b26d6ea", "lon": -77.0843255, "bike_id": "0920dc445dc07424682ab0482b26d6ea", "lat": 38.936905833333334}, {"fusion_lon": 0.0, "fusion_lat": 0.0, "rental_uris": {"android": "https://dc.lft.to/lastmile_qr_scan", "ios": "https://dc.lft.to/lastmile_qr_scan"}, "is_disabled": 0, "type": "electric_scooter", "is_reserved": 0, "name": "4ca62c8a6f11c7b2e263c6ec973c65de", "lon": -77.0120135, "bike_id": "4ca62c8a6f11c7b2e263c6ec973c65de", "lat": 38.896775}, {"fusion_lon": 0.0, "fusion_lat": 0.0, "rental_uris": {"android": "https://dc.lft.to/lastmile_qr_scan", "ios": "https://dc.lft.to/lastmile_qr_scan"}, "is_disabled": 0, "type": "electric_scooter", "is_reserved": 0, "name": "71b603fdf7836bede143e91a5dfc0ec7", "lon": -77.03043116666667, "bike_id": "71b603fdf7836bede143e91a5dfc0ec7", "lat": 38.9026355}, {"fusion_lon": 0.0, "fusion_lat": 0.0, "rental_uris": {"android": "https://dc.lft.to/lastmile_qr_scan", "ios": "https://dc.lft.to/lastmile_qr_scan"}, "is_disabled": 0, "type": "electric_scooter", "is_reserved": 0, "name": "1508ef152a031771d47b09ecc3185623", "lon": -77.003109, "bike_id": "1508ef152a031771d47b09ecc3185623", "lat": 38.87661083333333}, {"fusion_lon": 0.0, "fusion_lat": 0.0, "rental_uris": {"android": "https://dc.lft.to/lastmile_qr_scan", "ios": "https://dc.lft.to/lastmile_qr_scan"}, "is_disabled": 0, "type": "electric_scooter", "is_reserved": 0, "name": "1a5548ddbb162b4a4043e190066c866c", "lon": -77.04998483333334, "bike_id": "1a5548ddbb162b4a4043e190066c866c", "lat": 38.8923055}, {"fusion_lon": 0.0, "fusion_lat": 0.0, "rental_uris": {"android": "https://dc.lft.to/lastmile_qr_scan", "ios": "https://dc.lft.to/lastmile_qr_scan"}, "is_disabled": 0, "type": "electric_scooter", "is_reserved": 0, "name": "db2fdbd05cf21c15d1fa80b76a42f045", "lon": -77.0058075, "bike_id": "db2fdbd05cf21c15d1fa80b76a42f045", "lat": 38.8721415}, {"fusion_lon": 0.0, "fusion_lat": 0.0, "rental_uris": {"android": "https://dc.lft.to/lastmile_qr_scan", "ios": "https://dc.lft.to/lastmile_qr_scan"}, "is_disabled": 0, "type": "electric_scooter", "is_reserved": 0, "name": "9f92dff11f9c1ed71e85f41fd7caa534", "lon": -77.03062033333333, "bike_id": "9f92dff11f9c1ed71e85f41fd7caa534", "lat": 38.8996675}, {"fusion_lon": 0.0, "fusion_lat": 0.0, "rental_uris": {"android": "https://dc.lft.to/lastmile_qr_scan", "ios": "https://dc.lft.to/lastmile_qr_scan"}, "is_disabled": 0, "type": "electric_bike", "is_reserved": 0, "name": "530a5b2542a4e27c3000086760e1e4d9", "lon": -76.91724733333334, "bike_id": "530a5b2542a4e27c3000086760e1e4d9", "lat": 38.8802255}, {"fusion_lon": 0.0, "fusion_lat": 0.0, "rental_uris": {"android": "https://dc.lft.to/lastmile_qr_scan", "ios": "https://dc.lft.to/lastmile_qr_scan"}, "is_disabled": 0, "type": "electric_scooter", "is_reserved": 0, "name": "2d1a862faf50ef2297d93b6b98946a1b", "lon": -77.032079, "bike_id": "2d1a862faf50ef2297d93b6b98946a1b", "lat": 38.91382433333333}, {"fusion_lon": 0.0, "fusion_lat": 0.0, "rental_uris": {"android": "https://dc.lft.to/lastmile_qr_scan", "ios": "https://dc.lft.to/lastmile_qr_scan"}, "is_disabled": 0, "type": "electric_bike", "is_reserved": 0, "name": "4e7646170d688617bb206a5ca36609f0", "lon": -76.99652, "bike_id": "4e7646170d688617bb206a5ca36609f0", "lat": 38.96775216666666}, {"fusion_lon": 0.0, "fusion_lat": 0.0, "rental_uris": {"android": "https://dc.lft.to/lastmile_qr_scan", "ios": "https://dc.lft.to/lastmile_qr_scan"}, "is_disabled": 0, "type": "electric_scooter", "is_reserved": 0, "name": "ace9d3243e302683b7bb074376fb171c", "lon": -77.0340885, "bike_id": "ace9d3243e302683b7bb074376fb171c", "lat": 38.96687683333333}, {"fusion_lon": 0.0, "fusion_lat": 0.0, "rental_uris": {"android": "https://dc.lft.to/lastmile_qr_scan", "ios": "https://dc.lft.to/lastmile_qr_scan"}, "is_disabled": 0, "type": "electric_scooter", "is_reserved": 0, "name": "6407e0dff41df31ab0c889c832381215", "lon": -77.01522116666666, "bike_id": "6407e0dff41df31ab0c889c832381215", "lat": 38.896655333333335}, {"fusion_lon": 0.0, "fusion_lat": 0.0, "rental_uris": {"android": "https://dc.lft.to/lastmile_qr_scan", "ios": "https://dc.lft.to/lastmile_qr_scan"}, "is_disabled": 0, "type": "electric_scooter", "is_reserved": 0, "name": "61d96af2a39539b10cf503c49b1da2a1", "lon": -77.03261283333333, "bike_id": "61d96af2a39539b10cf503c49b1da2a1", "lat": 38.9074}, {"fusion_lon": 0.0, "fusion_lat": 0.0, "rental_uris": {"android": "https://dc.lft.to/lastmile_qr_scan", "ios": "https://dc.lft.to/lastmile_qr_scan"}, "is_disabled": 0, "type": "electric_scooter", "is_reserved": 0, "name": "7d91b04710820525b6404ad107afe587", "lon": -77.03829133333333, "bike_id": "7d91b04710820525b6404ad107afe587", "lat": 38.91690366666667}, {"fusion_lon": 0.0, "fusion_lat": 0.0, "rental_uris": {"android": "https://dc.lft.to/lastmile_qr_scan", "ios": "https://dc.lft.to/lastmile_qr_scan"}, "is_disabled": 0, "type": "electric_scooter", "is_reserved": 0, "name": "3d728c5406bfe6b7a188caffb63ba418", "lon": -77.0257735, "bike_id": "3d728c5406bfe6b7a188caffb63ba418", "lat": 38.89219883333333}, {"fusion_lon": 0.0, "fusion_lat": 0.0, "rental_uris": {"android": "https://dc.lft.to/lastmile_qr_scan", "ios": "https://dc.lft.to/lastmile_qr_scan"}, "is_disabled": 0, "type": "electric_scooter", "is_reserved": 0, "name": "85e7d0344d46a56f56c849c5b96074e9", "lon": -77.01914083333334, "bike_id": "85e7d0344d46a56f56c849c5b96074e9", "lat": 38.89725166666667}, {"fusion_lon": 0.0, "fusion_lat": 0.0, "rental_uris": {"android": "https://dc.lft.to/lastmile_qr_scan", "ios": "https://dc.lft.to/lastmile_qr_scan"}, "is_disabled": 0, "type": "electric_scooter", "is_reserved": 0, "name": "e50bc718a6c9bf626ab856d8568d1ebb", "lon": -77.0513445, "bike_id": "e50bc718a6c9bf626ab856d8568d1ebb", "lat": 38.901632}, {"fusion_lon": 0.0, "fusion_lat": 0.0, "rental_uris": {"android": "https://dc.lft.to/lastmile_qr_scan", "ios": "https://dc.lft.to/lastmile_qr_scan"}, "is_disabled": 0, "type": "electric_scooter", "is_reserved": 0, "name": "f5cf6555d29d03a1a312d3f65062c8b2", "lon": -77.04504283333333, "bike_id": "f5cf6555d29d03a1a312d3f65062c8b2", "lat": 38.907120166666665}, {"fusion_lon": 0.0, "fusion_lat": 0.0, "rental_uris": {"android": "https://dc.lft.to/lastmile_qr_scan", "ios": "https://dc.lft.to/lastmile_qr_scan"}, "is_disabled": 0, "type": "electric_scooter", "is_reserved": 0, "name": "a15afea8d583d524178a9d46db0ae0fe", "lon": -76.9768095, "bike_id": "a15afea8d583d524178a9d46db0ae0fe", "lat": 38.891927333333335}, {"fusion_lon": 0.0, "fusion_lat": 0.0, "rental_uris": {"android": "https://dc.lft.to/lastmile_qr_scan", "ios": "https://dc.lft.to/lastmile_qr_scan"}, "is_disabled": 0, "type": "electric_scooter", "is_reserved": 0, "name": "25128f4245751b87a12de14d417a913d", "lon": -77.0384375, "bike_id": "25128f4245751b87a12de14d417a913d", "lat": 38.903839}, {"fusion_lon": 0.0, "fusion_lat": 0.0, "rental_uris": {"android": "https://dc.lft.to/lastmile_qr_scan", "ios": "https://dc.lft.to/lastmile_qr_scan"}, "is_disabled": 0, "type": "electric_scooter", "is_reserved": 0, "name": "8bdcb1ea78df6738e3d754a2ef79ab58", "lon": -76.99518333333333, "bike_id": "8bdcb1ea78df6738e3d754a2ef79ab58", "lat": 38.88985616666667}, {"fusion_lon": 0.0, "fusion_lat": 0.0, "rental_uris": {"android": "https://dc.lft.to/lastmile_qr_scan", "ios": "https://dc.lft.to/lastmile_qr_scan"}, "is_disabled": 0, "type": "electric_scooter", "is_reserved": 0, "name": "4835a49eaf2f563ebf0172af702211a9", "lon": -77.03203283333333, "bike_id": "4835a49eaf2f563ebf0172af702211a9", "lat": 38.92288}, {"fusion_lon": 0.0, "fusion_lat": 0.0, "rental_uris": {"android": "https://dc.lft.to/lastmile_qr_scan", "ios": "https://dc.lft.to/lastmile_qr_scan"}, "is_disabled": 0, "type": "electric_scooter", "is_reserved": 0, "name": "6426897ccbf68daeff60527b23eb4ead", "lon": -77.01118383333333, "bike_id": "6426897ccbf68daeff60527b23eb4ead", "lat": 38.88508216666666}, {"fusion_lon": 0.0, "fusion_lat": 0.0, "rental_uris": {"android": "https://dc.lft.to/lastmile_qr_scan", "ios": "https://dc.lft.to/lastmile_qr_scan"}, "is_disabled": 0, "type": "electric_scooter", "is_reserved": 0, "name": "ede389c1f3d281215f6f452fbca571ce", "lon": -77.01959883333333, "bike_id": "ede389c1f3d281215f6f452fbca571ce", "lat": 38.9236255}, {"fusion_lon": 0.0, "fusion_lat": 0.0, "rental_uris": {"android": "https://dc.lft.to/lastmile_qr_scan", "ios": "https://dc.lft.to/lastmile_qr_scan"}, "is_disabled": 0, "type": "electric_bike", "is_reserved": 0, "name": "29b4f4185d7655db484790f5dd1d1f40", "lon": -76.91995066666667, "bike_id": "29b4f4185d7655db484790f5dd1d1f40", "lat": 38.891277}, {"fusion_lon": 0.0, "fusion_lat": 0.0, "rental_uris": {"android": "https://dc.lft.to/lastmile_qr_scan", "ios": "https://dc.lft.to/lastmile_qr_scan"}, "is_disabled": 0, "type": "electric_scooter", "is_reserved": 0, "name": "825ca9ce007c13d20d95c5848505e8c4", "lon": -77.0622645, "bike_id": "825ca9ce007c13d20d95c5848505e8c4", "lat": 38.91311916666667}, {"fusion_lon": 0.0, "fusion_lat": 0.0, "rental_uris": {"android": "https://dc.lft.to/lastmile_qr_scan", "ios": "https://dc.lft.to/lastmile_qr_scan"}, "is_disabled": 0, "type": "electric_scooter", "is_reserved": 0, "name": "0c553b18586c411f639cd406ca4002b8", "lon": -77.0880105, "bike_id": "0c553b18586c411f639cd406ca4002b8", "lat": 38.9353535}, {"fusion_lon": 0.0, "fusion_lat": 0.0, "rental_uris": {"android": "https://dc.lft.to/lastmile_qr_scan", "ios": "https://dc.lft.to/lastmile_qr_scan"}, "is_disabled": 0, "type": "electric_scooter", "is_reserved": 0, "name": "156436a9fb48cfcd77c53d7a4618598e", "lon": -77.01683833333334, "bike_id": "156436a9fb48cfcd77c53d7a4618598e", "lat": 38.92043183333333}, {"fusion_lon": 0.0, "fusion_lat": 0.0, "rental_uris": {"android": "https://dc.lft.to/lastmile_qr_scan", "ios": "https://dc.lft.to/lastmile_qr_scan"}, "is_disabled": 0, "type": "electric_scooter", "is_reserved": 0, "name": "fa82a466efe78e452c38e947ad21bc81", "lon": -77.02276966666666, "bike_id": "fa82a466efe78e452c38e947ad21bc81", "lat": 38.91652916666666}, {"fusion_lon": 0.0, "fusion_lat": 0.0, "rental_uris": {"android": "https://dc.lft.to/lastmile_qr_scan", "ios": "https://dc.lft.to/lastmile_qr_scan"}, "is_disabled": 0, "type": "electric_scooter", "is_reserved": 0, "name": "caa52ba0e1f2c807722533e0fadf4e65", "lon": -77.052982, "bike_id": "caa52ba0e1f2c807722533e0fadf4e65", "lat": 38.925496833333334}, {"fusion_lon": 0.0, "fusion_lat": 0.0, "rental_uris": {"android": "https://dc.lft.to/lastmile_qr_scan", "ios": "https://dc.lft.to/lastmile_qr_scan"}, "is_disabled": 0, "type": "electric_scooter", "is_reserved": 0, "name": "0a87e7ac62bf0f454eaa36b01235c5c0", "lon": -77.00313383333334, "bike_id": "0a87e7ac62bf0f454eaa36b01235c5c0", "lat": 38.898943833333334}, {"fusion_lon": 0.0, "fusion_lat": 0.0, "rental_uris": {"android": "https://dc.lft.to/lastmile_qr_scan", "ios": "https://dc.lft.to/lastmile_qr_scan"}, "is_disabled": 0, "type": "electric_scooter", "is_reserved": 0, "name": "efe5a043fa36c3f407942be48da947e6", "lon": -77.02487066666667, "bike_id": "efe5a043fa36c3f407942be48da947e6", "lat": 38.880152833333334}, {"fusion_lon": 0.0, "fusion_lat": 0.0, "rental_uris": {"android": "https://dc.lft.to/lastmile_qr_scan", "ios": "https://dc.lft.to/lastmile_qr_scan"}, "is_disabled": 0, "type": "electric_scooter", "is_reserved": 0, "name": "3660e493760068926fbde6499ccc9a81", "lon": -77.01718516666666, "bike_id": "3660e493760068926fbde6499ccc9a81", "lat": 38.90729566666667}, {"fusion_lon": 0.0, "fusion_lat": 0.0, "rental_uris": {"android": "https://dc.lft.to/lastmile_qr_scan", "ios": "https://dc.lft.to/lastmile_qr_scan"}, "is_disabled": 0, "type": "electric_scooter", "is_reserved": 0, "name": "fa88880e429cba9b1b342239eb3c21b0", "lon": -77.04487583333334, "bike_id": "fa88880e429cba9b1b342239eb3c21b0", "lat": 38.89427516666667}, {"fusion_lon": 0.0, "fusion_lat": 0.0, "rental_uris": {"android": "https://dc.lft.to/lastmile_qr_scan", "ios": "https://dc.lft.to/lastmile_qr_scan"}, "is_disabled": 0, "type": "electric_scooter", "is_reserved": 0, "name": "c478dfff3f3609b8c82233bfcafc5cb9", "lon": -77.03571983333333, "bike_id": "c478dfff3f3609b8c82233bfcafc5cb9", "lat": 38.903718166666664}, {"fusion_lon": 0.0, "fusion_lat": 0.0, "rental_uris": {"android": "https://dc.lft.to/lastmile_qr_scan", "ios": "https://dc.lft.to/lastmile_qr_scan"}, "is_disabled": 0, "type": "electric_scooter", "is_reserved": 0, "name": "67fb0646b441e1ee0df8f298c585d636", "lon": -77.04443566666667, "bike_id": "67fb0646b441e1ee0df8f298c585d636", "lat": 38.89618433333333}, {"fusion_lon": 0.0, "fusion_lat": 0.0, "rental_uris": {"android": "https://dc.lft.to/lastmile_qr_scan", "ios": "https://dc.lft.to/lastmile_qr_scan"}, "is_disabled": 0, "type": "electric_scooter", "is_reserved": 0, "name": "9b4c5565402ede03797f3e21ea512ca1", "lon": -77.0020885, "bike_id": "9b4c5565402ede03797f3e21ea512ca1", "lat": 38.900254}, {"fusion_lon": 0.0, "fusion_lat": 0.0, "rental_uris": {"android": "https://dc.lft.to/lastmile_qr_scan", "ios": "https://dc.lft.to/lastmile_qr_scan"}, "is_disabled": 0, "type": "electric_scooter", "is_reserved": 0, "name": "30bfafb42686b091c325314c0f72767a", "lon": -77.03308616666666, "bike_id": "30bfafb42686b091c325314c0f72767a", "lat": 38.903887166666664}, {"fusion_lon": 0.0, "fusion_lat": 0.0, "rental_uris": {"android": "https://dc.lft.to/lastmile_qr_scan", "ios": "https://dc.lft.to/lastmile_qr_scan"}, "is_disabled": 0, "type": "electric_scooter", "is_reserved": 0, "name": "9fdf8b39f66c19444daea2c6b8adfc24", "lon": -77.02848916666666, "bike_id": "9fdf8b39f66c19444daea2c6b8adfc24", "lat": 38.94192433333333}, {"fusion_lon": 0.0, "fusion_lat": 0.0, "rental_uris": {"android": "https://dc.lft.to/lastmile_qr_scan", "ios": "https://dc.lft.to/lastmile_qr_scan"}, "is_disabled": 0, "type": "electric_scooter", "is_reserved": 0, "name": "618240061077d01220ce6ffe2e55fc42", "lon": -77.03294983333333, "bike_id": "618240061077d01220ce6ffe2e55fc42", "lat": 38.92749666666667}, {"fusion_lon": 0.0, "fusion_lat": 0.0, "rental_uris": {"android": "https://dc.lft.to/lastmile_qr_scan", "ios": "https://dc.lft.to/lastmile_qr_scan"}, "is_disabled": 0, "type": "electric_scooter", "is_reserved": 0, "name": "09e860039c2192be7879995820c6528c", "lon": -77.04257183333333, "bike_id": "09e860039c2192be7879995820c6528c", "lat": 38.9205415}, {"fusion_lon": 0.0, "fusion_lat": 0.0, "rental_uris": {"android": "https://dc.lft.to/lastmile_qr_scan", "ios": "https://dc.lft.to/lastmile_qr_scan"}, "is_disabled": 0, "type": "electric_scooter", "is_reserved": 0, "name": "d0cb05fba7a58394ab4cbd12390dd968", "lon": -77.00290683333333, "bike_id": "d0cb05fba7a58394ab4cbd12390dd968", "lat": 38.892011}, {"fusion_lon": 0.0, "fusion_lat": 0.0, "rental_uris": {"android": "https://dc.lft.to/lastmile_qr_scan", "ios": "https://dc.lft.to/lastmile_qr_scan"}, "is_disabled": 0, "type": "electric_scooter", "is_reserved": 0, "name": "10e113efb717df1c0175f059adfdde0c", "lon": -77.0328245, "bike_id": "10e113efb717df1c0175f059adfdde0c", "lat": 38.9366765}, {"fusion_lon": 0.0, "fusion_lat": 0.0, "rental_uris": {"android": "https://dc.lft.to/lastmile_qr_scan", "ios": "https://dc.lft.to/lastmile_qr_scan"}, "is_disabled": 0, "type": "electric_scooter", "is_reserved": 0, "name": "72b51ecca8a9549f251996e5b5a1fdfa", "lon": -77.00594033333333, "bike_id": "72b51ecca8a9549f251996e5b5a1fdfa", "lat": 38.90568066666667}, {"fusion_lon": 0.0, "fusion_lat": 0.0, "rental_uris": {"android": "https://dc.lft.to/lastmile_qr_scan", "ios": "https://dc.lft.to/lastmile_qr_scan"}, "is_disabled": 0, "type": "electric_bike", "is_reserved": 0, "name": "e3407159519d349d2501076d01a2a950", "lon": -77.04648466666667, "bike_id": "e3407159519d349d2501076d01a2a950", "lat": 38.8154375}, {"fusion_lon": 0.0, "fusion_lat": 0.0, "rental_uris": {"android": "https://dc.lft.to/lastmile_qr_scan", "ios": "https://dc.lft.to/lastmile_qr_scan"}, "is_disabled": 0, "type": "electric_scooter", "is_reserved": 0, "name": "eb067a0b5f98cfc910d693b6fcf31553", "lon": -77.0114735, "bike_id": "eb067a0b5f98cfc910d693b6fcf31553", "lat": 38.9147805}, {"fusion_lon": 0.0, "fusion_lat": 0.0, "rental_uris": {"android": "https://dc.lft.to/lastmile_qr_scan", "ios": "https://dc.lft.to/lastmile_qr_scan"}, "is_disabled": 0, "type": "electric_scooter", "is_reserved": 0, "name": "ccf19657a384950a6067060073938e98", "lon": -77.04676316666666, "bike_id": "ccf19657a384950a6067060073938e98", "lat": 38.89360333333333}, {"fusion_lon": 0.0, "fusion_lat": 0.0, "rental_uris": {"android": "https://dc.lft.to/lastmile_qr_scan", "ios": "https://dc.lft.to/lastmile_qr_scan"}, "is_disabled": 0, "type": "electric_bike", "is_reserved": 0, "name": "5239d78cf76ed209e270f097c2c3cf87", "lon": -77.01266766666667, "bike_id": "5239d78cf76ed209e270f097c2c3cf87", "lat": 38.864575}, {"fusion_lon": 0.0, "fusion_lat": 0.0, "rental_uris": {"android": "https://dc.lft.to/lastmile_qr_scan", "ios": "https://dc.lft.to/lastmile_qr_scan"}, "is_disabled": 0, "type": "electric_scooter", "is_reserved": 0, "name": "75b253f9a6477b69f8fe5a62ccae5446", "lon": -77.0213685, "bike_id": "75b253f9a6477b69f8fe5a62ccae5446", "lat": 38.93114533333333}, {"fusion_lon": 0.0, "fusion_lat": 0.0, "rental_uris": {"android": "https://dc.lft.to/lastmile_qr_scan", "ios": "https://dc.lft.to/lastmile_qr_scan"}, "is_disabled": 0, "type": "electric_scooter", "is_reserved": 0, "name": "50603531d0d460ed70b6289d267ca720", "lon": -76.98599683333333, "bike_id": "50603531d0d460ed70b6289d267ca720", "lat": 38.90025983333334}, {"fusion_lon": 0.0, "fusion_lat": 0.0, "rental_uris": {"android": "https://dc.lft.to/lastmile_qr_scan", "ios": "https://dc.lft.to/lastmile_qr_scan"}, "is_disabled": 0, "type": "electric_scooter", "is_reserved": 0, "name": "ca34a6ac8c76778ae1adcaeabbd4ca4b", "lon": -77.00970116666667, "bike_id": "ca34a6ac8c76778ae1adcaeabbd4ca4b", "lat": 38.898859333333334}, {"fusion_lon": 0.0, "fusion_lat": 0.0, "rental_uris": {"android": "https://dc.lft.to/lastmile_qr_scan", "ios": "https://dc.lft.to/lastmile_qr_scan"}, "is_disabled": 0, "type": "electric_scooter", "is_reserved": 0, "name": "9635b525bb1a5b54d10defeebfbb4916", "lon": -76.97868483333333, "bike_id": "9635b525bb1a5b54d10defeebfbb4916", "lat": 38.897150833333335}, {"fusion_lon": 0.0, "fusion_lat": 0.0, "rental_uris": {"android": "https://dc.lft.to/lastmile_qr_scan", "ios": "https://dc.lft.to/lastmile_qr_scan"}, "is_disabled": 0, "type": "electric_scooter", "is_reserved": 0, "name": "5d7dccc1c06d601ccd48ef8f4df7dddd", "lon": -77.0449955, "bike_id": "5d7dccc1c06d601ccd48ef8f4df7dddd", "lat": 38.9001125}, {"fusion_lon": 0.0, "fusion_lat": 0.0, "rental_uris": {"android": "https://dc.lft.to/lastmile_qr_scan", "ios": "https://dc.lft.to/lastmile_qr_scan"}, "is_disabled": 0, "type": "electric_scooter", "is_reserved": 0, "name": "ea8b9bc2da7c7862fa36b07073393cd1", "lon": -77.02381466666667, "bike_id": "ea8b9bc2da7c7862fa36b07073393cd1", "lat": 38.90575916666667}, {"fusion_lon": 0.0, "fusion_lat": 0.0, "rental_uris": {"android": "https://dc.lft.to/lastmile_qr_scan", "ios": "https://dc.lft.to/lastmile_qr_scan"}, "is_disabled": 0, "type": "electric_scooter", "is_reserved": 0, "name": "9b90ab945df72673e264d47240c996c9", "lon": -77.0264385, "bike_id": "9b90ab945df72673e264d47240c996c9", "lat": 38.90235083333334}, {"fusion_lon": 0.0, "fusion_lat": 0.0, "rental_uris": {"android": "https://dc.lft.to/lastmile_qr_scan", "ios": "https://dc.lft.to/lastmile_qr_scan"}, "is_disabled": 0, "type": "electric_scooter", "is_reserved": 0, "name": "154008e20b6b695dc1b8b79af24806fd", "lon": -76.98334916666667, "bike_id": "154008e20b6b695dc1b8b79af24806fd", "lat": 38.89542733333333}, {"fusion_lon": 0.0, "fusion_lat": 0.0, "rental_uris": {"android": "https://dc.lft.to/lastmile_qr_scan", "ios": "https://dc.lft.to/lastmile_qr_scan"}, "is_disabled": 0, "type": "electric_scooter", "is_reserved": 0, "name": "6b80dc40e4db2c267286dbe3e6eb5a84", "lon": -77.0266205, "bike_id": "6b80dc40e4db2c267286dbe3e6eb5a84", "lat": 38.93208683333334}, {"fusion_lon": 0.0, "fusion_lat": 0.0, "rental_uris": {"android": "https://dc.lft.to/lastmile_qr_scan", "ios": "https://dc.lft.to/lastmile_qr_scan"}, "is_disabled": 0, "type": "electric_scooter", "is_reserved": 0, "name": "20317f0c56d30ff7415bec4403ad2b78", "lon": -77.02322566666666, "bike_id": "20317f0c56d30ff7415bec4403ad2b78", "lat": 38.9207045}, {"fusion_lon": 0.0, "fusion_lat": 0.0, "rental_uris": {"android": "https://dc.lft.to/lastmile_qr_scan", "ios": "https://dc.lft.to/lastmile_qr_scan"}, "is_disabled": 0, "type": "electric_scooter", "is_reserved": 0, "name": "58a97f75ab4d78629a1be747f51356f1", "lon": -77.0106795, "bike_id": "58a97f75ab4d78629a1be747f51356f1", "lat": 38.87308183333333}, {"fusion_lon": 0.0, "fusion_lat": 0.0, "rental_uris": {"android": "https://dc.lft.to/lastmile_qr_scan", "ios": "https://dc.lft.to/lastmile_qr_scan"}, "is_disabled": 0, "type": "electric_scooter", "is_reserved": 0, "name": "6ec97f7a96f3dd85096933a9cbb2f296", "lon": -77.00203233333333, "bike_id": "6ec97f7a96f3dd85096933a9cbb2f296", "lat": 38.902414}, {"fusion_lon": 0.0, "fusion_lat": 0.0, "rental_uris": {"android": "https://dc.lft.to/lastmile_qr_scan", "ios": "https://dc.lft.to/lastmile_qr_scan"}, "is_disabled": 0, "type": "electric_scooter", "is_reserved": 0, "name": "049d24a149f382c39fdf54a28ef80af1", "lon": -76.93756883333333, "bike_id": "049d24a149f382c39fdf54a28ef80af1", "lat": 38.899331}, {"fusion_lon": 0.0, "fusion_lat": 0.0, "rental_uris": {"android": "https://dc.lft.to/lastmile_qr_scan", "ios": "https://dc.lft.to/lastmile_qr_scan"}, "is_disabled": 0, "type": "electric_scooter", "is_reserved": 0, "name": "240a7f090590a007b99c09318a673d47", "lon": -77.02140016666667, "bike_id": "240a7f090590a007b99c09318a673d47", "lat": 38.9236545}, {"fusion_lon": 0.0, "fusion_lat": 0.0, "rental_uris": {"android": "https://dc.lft.to/lastmile_qr_scan", "ios": "https://dc.lft.to/lastmile_qr_scan"}, "is_disabled": 0, "type": "electric_bike", "is_reserved": 0, "name": "cf0088f373846d3448b6e98b28f48f9e", "lon": -77.04308583333334, "bike_id": "cf0088f373846d3448b6e98b28f48f9e", "lat": 39.034251833333336}, {"fusion_lon": 0.0, "fusion_lat": 0.0, "rental_uris": {"android": "https://dc.lft.to/lastmile_qr_scan", "ios": "https://dc.lft.to/lastmile_qr_scan"}, "is_disabled": 0, "type": "electric_scooter", "is_reserved": 0, "name": "8a4853e2a518364106a24a41b4f14c65", "lon": -77.02032366666667, "bike_id": "8a4853e2a518364106a24a41b4f14c65", "lat": 38.92410666666667}, {"fusion_lon": 0.0, "fusion_lat": 0.0, "rental_uris": {"android": "https://dc.lft.to/lastmile_qr_scan", "ios": "https://dc.lft.to/lastmile_qr_scan"}, "is_disabled": 0, "type": "electric_scooter", "is_reserved": 0, "name": "91985daf722313ff1f078360048a449b", "lon": -77.04199966666667, "bike_id": "91985daf722313ff1f078360048a449b", "lat": 38.92058383333333}, {"fusion_lon": 0.0, "fusion_lat": 0.0, "rental_uris": {"android": "https://dc.lft.to/lastmile_qr_scan", "ios": "https://dc.lft.to/lastmile_qr_scan"}, "is_disabled": 0, "type": "electric_bike", "is_reserved": 0, "name": "3cd14717773edc99972569f536e6f8b2", "lon": -76.90022, "bike_id": "3cd14717773edc99972569f536e6f8b2", "lat": 39.0064855}, {"fusion_lon": 0.0, "fusion_lat": 0.0, "rental_uris": {"android": "https://dc.lft.to/lastmile_qr_scan", "ios": "https://dc.lft.to/lastmile_qr_scan"}, "is_disabled": 0, "type": "electric_scooter", "is_reserved": 0, "name": "68d53b0ccee639493cb3e4ac13272077", "lon": -77.03830866666667, "bike_id": "68d53b0ccee639493cb3e4ac13272077", "lat": 38.91109983333333}, {"fusion_lon": 0.0, "fusion_lat": 0.0, "rental_uris": {"android": "https://dc.lft.to/lastmile_qr_scan", "ios": "https://dc.lft.to/lastmile_qr_scan"}, "is_disabled": 0, "type": "electric_scooter", "is_reserved": 0, "name": "75613461646924172d233f98f07b1149", "lon": -77.01833216666667, "bike_id": "75613461646924172d233f98f07b1149", "lat": 38.922084166666664}, {"fusion_lon": 0.0, "fusion_lat": 0.0, "rental_uris": {"android": "https://dc.lft.to/lastmile_qr_scan", "ios": "https://dc.lft.to/lastmile_qr_scan"}, "is_disabled": 0, "type": "electric_scooter", "is_reserved": 0, "name": "8f3ee2fcb4a25fc971f75d2552469958", "lon": -77.01782766666666, "bike_id": "8f3ee2fcb4a25fc971f75d2552469958", "lat": 38.92148483333333}, {"fusion_lon": 0.0, "fusion_lat": 0.0, "rental_uris": {"android": "https://dc.lft.to/lastmile_qr_scan", "ios": "https://dc.lft.to/lastmile_qr_scan"}, "is_disabled": 0, "type": "electric_scooter", "is_reserved": 0, "name": "d519a0eb9d4c4b36de47f06c5fe1b2e2", "lon": -77.02236633333334, "bike_id": "d519a0eb9d4c4b36de47f06c5fe1b2e2", "lat": 38.92455533333333}, {"fusion_lon": 0.0, "fusion_lat": 0.0, "rental_uris": {"android": "https://dc.lft.to/lastmile_qr_scan", "ios": "https://dc.lft.to/lastmile_qr_scan"}, "is_disabled": 0, "type": "electric_scooter", "is_reserved": 0, "name": "8b3c90ccadd2e8a6e699cc96b284118d", "lon": -77.00429366666667, "bike_id": "8b3c90ccadd2e8a6e699cc96b284118d", "lat": 38.90396583333333}, {"fusion_lon": 0.0, "fusion_lat": 0.0, "rental_uris": {"android": "https://dc.lft.to/lastmile_qr_scan", "ios": "https://dc.lft.to/lastmile_qr_scan"}, "is_disabled": 0, "type": "electric_scooter", "is_reserved": 0, "name": "8c00fbd80bc4928e151b6980b34c1a23", "lon": -77.02191466666666, "bike_id": "8c00fbd80bc4928e151b6980b34c1a23", "lat": 38.910562666666664}, {"fusion_lon": 0.0, "fusion_lat": 0.0, "rental_uris": {"android": "https://dc.lft.to/lastmile_qr_scan", "ios": "https://dc.lft.to/lastmile_qr_scan"}, "is_disabled": 0, "type": "electric_scooter", "is_reserved": 0, "name": "e0fe42bac56f90efca1d74482fd016ff", "lon": -77.04157866666667, "bike_id": "e0fe42bac56f90efca1d74482fd016ff", "lat": 38.917447333333335}, {"fusion_lon": 0.0, "fusion_lat": 0.0, "rental_uris": {"android": "https://dc.lft.to/lastmile_qr_scan", "ios": "https://dc.lft.to/lastmile_qr_scan"}, "is_disabled": 0, "type": "electric_scooter", "is_reserved": 0, "name": "9d21a2d2207233654d0840ebd71e5251", "lon": -76.98494816666667, "bike_id": "9d21a2d2207233654d0840ebd71e5251", "lat": 38.88023533333333}, {"fusion_lon": 0.0, "fusion_lat": 0.0, "rental_uris": {"android": "https://dc.lft.to/lastmile_qr_scan", "ios": "https://dc.lft.to/lastmile_qr_scan"}, "is_disabled": 0, "type": "electric_scooter", "is_reserved": 0, "name": "7024b172e364d4c93da8ea956bc76e5c", "lon": -77.0410705, "bike_id": "7024b172e364d4c93da8ea956bc76e5c", "lat": 38.9126405}, {"fusion_lon": 0.0, "fusion_lat": 0.0, "rental_uris": {"android": "https://dc.lft.to/lastmile_qr_scan", "ios": "https://dc.lft.to/lastmile_qr_scan"}, "is_disabled": 0, "type": "electric_scooter", "is_reserved": 0, "name": "46b84f87ebeeed7e55c7fe559b916eb2", "lon": -77.0065535, "bike_id": "46b84f87ebeeed7e55c7fe559b916eb2", "lat": 38.87635366666667}, {"fusion_lon": 0.0, "fusion_lat": 0.0, "rental_uris": {"android": "https://dc.lft.to/lastmile_qr_scan", "ios": "https://dc.lft.to/lastmile_qr_scan"}, "is_disabled": 0, "type": "electric_bike", "is_reserved": 0, "name": "a3e517b4505d5803341ff18f80a926b0", "lon": -77.11411683333333, "bike_id": "a3e517b4505d5803341ff18f80a926b0", "lat": 38.8524255}, {"fusion_lon": 0.0, "fusion_lat": 0.0, "rental_uris": {"android": "https://dc.lft.to/lastmile_qr_scan", "ios": "https://dc.lft.to/lastmile_qr_scan"}, "is_disabled": 0, "type": "electric_scooter", "is_reserved": 0, "name": "4d416cc32e24f484880c8bdf184edfe0", "lon": -77.025275, "bike_id": "4d416cc32e24f484880c8bdf184edfe0", "lat": 38.92084216666667}, {"fusion_lon": 0.0, "fusion_lat": 0.0, "rental_uris": {"android": "https://dc.lft.to/lastmile_qr_scan", "ios": "https://dc.lft.to/lastmile_qr_scan"}, "is_disabled": 0, "type": "electric_bike", "is_reserved": 0, "name": "8f96917bb097712a1d3cb59367393d06", "lon": -77.01224816666667, "bike_id": "8f96917bb097712a1d3cb59367393d06", "lat": 38.950869}, {"fusion_lon": 0.0, "fusion_lat": 0.0, "rental_uris": {"android": "https://dc.lft.to/lastmile_qr_scan", "ios": "https://dc.lft.to/lastmile_qr_scan"}, "is_disabled": 0, "type": "electric_scooter", "is_reserved": 0, "name": "d10dfafa6f2c9b6d54ca13e9bfb7673c", "lon": -77.02647866666666, "bike_id": "d10dfafa6f2c9b6d54ca13e9bfb7673c", "lat": 38.8947745}, {"fusion_lon": 0.0, "fusion_lat": 0.0, "rental_uris": {"android": "https://dc.lft.to/lastmile_qr_scan", "ios": "https://dc.lft.to/lastmile_qr_scan"}, "is_disabled": 0, "type": "electric_scooter", "is_reserved": 0, "name": "c3e7ac78329e693fa7539245a211c25b", "lon": -77.0106715, "bike_id": "c3e7ac78329e693fa7539245a211c25b", "lat": 38.897885333333335}, {"fusion_lon": 0.0, "fusion_lat": 0.0, "rental_uris": {"android": "https://dc.lft.to/lastmile_qr_scan", "ios": "https://dc.lft.to/lastmile_qr_scan"}, "is_disabled": 0, "type": "electric_scooter", "is_reserved": 0, "name": "ed83981b2da953fcb7112d7d26adec96", "lon": -77.035991, "bike_id": "ed83981b2da953fcb7112d7d26adec96", "lat": 38.908148}, {"fusion_lon": 0.0, "fusion_lat": 0.0, "rental_uris": {"android": "https://dc.lft.to/lastmile_qr_scan", "ios": "https://dc.lft.to/lastmile_qr_scan"}, "is_disabled": 0, "type": "electric_scooter", "is_reserved": 0, "name": "27c0147949980e2e1ca8b06bd89b03f0", "lon": -76.9352415, "bike_id": "27c0147949980e2e1ca8b06bd89b03f0", "lat": 38.8789615}, {"fusion_lon": 0.0, "fusion_lat": 0.0, "rental_uris": {"android": "https://dc.lft.to/lastmile_qr_scan", "ios": "https://dc.lft.to/lastmile_qr_scan"}, "is_disabled": 0, "type": "electric_bike", "is_reserved": 0, "name": "917b68e18e102a2c6bedc9c4f1789e80", "lon": -76.97704883333333, "bike_id": "917b68e18e102a2c6bedc9c4f1789e80", "lat": 38.82205533333333}, {"fusion_lon": 0.0, "fusion_lat": 0.0, "rental_uris": {"android": "https://dc.lft.to/lastmile_qr_scan", "ios": "https://dc.lft.to/lastmile_qr_scan"}, "is_disabled": 0, "type": "electric_scooter", "is_reserved": 0, "name": "e8e5692558f739249f45bfe4b8919f77", "lon": -77.0417695, "bike_id": "e8e5692558f739249f45bfe4b8919f77", "lat": 38.91922733333333}, {"fusion_lon": 0.0, "fusion_lat": 0.0, "rental_uris": {"android": "https://dc.lft.to/lastmile_qr_scan", "ios": "https://dc.lft.to/lastmile_qr_scan"}, "is_disabled": 0, "type": "electric_scooter", "is_reserved": 0, "name": "75f876e5670ba0d209d8031cd5c2e018", "lon": -77.0252995, "bike_id": "75f876e5670ba0d209d8031cd5c2e018", "lat": 38.96728683333333}, {"fusion_lon": 0.0, "fusion_lat": 0.0, "rental_uris": {"android": "https://dc.lft.to/lastmile_qr_scan", "ios": "https://dc.lft.to/lastmile_qr_scan"}, "is_disabled": 0, "type": "electric_scooter", "is_reserved": 0, "name": "56d4ad96c970759f546800c81367f709", "lon": -76.98393583333333, "bike_id": "56d4ad96c970759f546800c81367f709", "lat": 38.9051025}, {"fusion_lon": 0.0, "fusion_lat": 0.0, "rental_uris": {"android": "https://dc.lft.to/lastmile_qr_scan", "ios": "https://dc.lft.to/lastmile_qr_scan"}, "is_disabled": 0, "type": "electric_scooter", "is_reserved": 0, "name": "936e26b4612055e19fb5f4c660f69434", "lon": -77.03505316666667, "bike_id": "936e26b4612055e19fb5f4c660f69434", "lat": 38.92472633333333}, {"fusion_lon": 0.0, "fusion_lat": 0.0, "rental_uris": {"android": "https://dc.lft.to/lastmile_qr_scan", "ios": "https://dc.lft.to/lastmile_qr_scan"}, "is_disabled": 0, "type": "electric_scooter", "is_reserved": 0, "name": "4c50d6dafb7567ff2733158616dd5dbc", "lon": -76.99792083333334, "bike_id": "4c50d6dafb7567ff2733158616dd5dbc", "lat": 38.879992}, {"fusion_lon": 0.0, "fusion_lat": 0.0, "rental_uris": {"android": "https://dc.lft.to/lastmile_qr_scan", "ios": "https://dc.lft.to/lastmile_qr_scan"}, "is_disabled": 0, "type": "electric_scooter", "is_reserved": 0, "name": "64164eec871282db1cc5019d075148bb", "lon": -77.01953416666667, "bike_id": "64164eec871282db1cc5019d075148bb", "lat": 38.93194583333333}, {"fusion_lon": 0.0, "fusion_lat": 0.0, "rental_uris": {"android": "https://dc.lft.to/lastmile_qr_scan", "ios": "https://dc.lft.to/lastmile_qr_scan"}, "is_disabled": 0, "type": "electric_scooter", "is_reserved": 0, "name": "758471c537f2f7a45f6c3a144cf3e105", "lon": -77.02602, "bike_id": "758471c537f2f7a45f6c3a144cf3e105", "lat": 38.898843666666664}, {"fusion_lon": 0.0, "fusion_lat": 0.0, "rental_uris": {"android": "https://dc.lft.to/lastmile_qr_scan", "ios": "https://dc.lft.to/lastmile_qr_scan"}, "is_disabled": 0, "type": "electric_scooter", "is_reserved": 0, "name": "792a9e110954516d998f662f864cb135", "lon": -76.98375166666666, "bike_id": "792a9e110954516d998f662f864cb135", "lat": 38.89259466666667}, {"fusion_lon": 0.0, "fusion_lat": 0.0, "rental_uris": {"android": "https://dc.lft.to/lastmile_qr_scan", "ios": "https://dc.lft.to/lastmile_qr_scan"}, "is_disabled": 0, "type": "electric_scooter", "is_reserved": 0, "name": "844dc8cf9462d3f53d130f3a4a265057", "lon": -77.02448016666666, "bike_id": "844dc8cf9462d3f53d130f3a4a265057", "lat": 38.920807}, {"fusion_lon": 0.0, "fusion_lat": 0.0, "rental_uris": {"android": "https://dc.lft.to/lastmile_qr_scan", "ios": "https://dc.lft.to/lastmile_qr_scan"}, "is_disabled": 0, "type": "electric_scooter", "is_reserved": 0, "name": "ea4ccbb50f452d064754c7f3bf4f7460", "lon": -77.00250833333334, "bike_id": "ea4ccbb50f452d064754c7f3bf4f7460", "lat": 38.905441}, {"fusion_lon": 0.0, "fusion_lat": 0.0, "rental_uris": {"android": "https://dc.lft.to/lastmile_qr_scan", "ios": "https://dc.lft.to/lastmile_qr_scan"}, "is_disabled": 0, "type": "electric_scooter", "is_reserved": 0, "name": "e57bc6cfc465c0dbe0500a60b0b81294", "lon": -77.02944733333334, "bike_id": "e57bc6cfc465c0dbe0500a60b0b81294", "lat": 38.93968316666667}, {"fusion_lon": 0.0, "fusion_lat": 0.0, "rental_uris": {"android": "https://dc.lft.to/lastmile_qr_scan", "ios": "https://dc.lft.to/lastmile_qr_scan"}, "is_disabled": 0, "type": "electric_scooter", "is_reserved": 0, "name": "1c61c63bd174ac3325897a9cd46a6590", "lon": -77.04534616666666, "bike_id": "1c61c63bd174ac3325897a9cd46a6590", "lat": 38.900616666666664}, {"fusion_lon": 0.0, "fusion_lat": 0.0, "rental_uris": {"android": "https://dc.lft.to/lastmile_qr_scan", "ios": "https://dc.lft.to/lastmile_qr_scan"}, "is_disabled": 0, "type": "electric_scooter", "is_reserved": 0, "name": "f92823c268224f50f23401004588c468", "lon": -77.03191266666667, "bike_id": "f92823c268224f50f23401004588c468", "lat": 38.91610716666667}, {"fusion_lon": 0.0, "fusion_lat": 0.0, "rental_uris": {"android": "https://dc.lft.to/lastmile_qr_scan", "ios": "https://dc.lft.to/lastmile_qr_scan"}, "is_disabled": 0, "type": "electric_scooter", "is_reserved": 0, "name": "6b2328c1e79c6bc875c874e5a0df0088", "lon": -76.98826466666667, "bike_id": "6b2328c1e79c6bc875c874e5a0df0088", "lat": 38.89072133333333}, {"fusion_lon": 0.0, "fusion_lat": 0.0, "rental_uris": {"android": "https://dc.lft.to/lastmile_qr_scan", "ios": "https://dc.lft.to/lastmile_qr_scan"}, "is_disabled": 0, "type": "electric_scooter", "is_reserved": 0, "name": "b5b9f31c25bc85ea8c1ac240c8bca7c5", "lon": -77.00599733333334, "bike_id": "b5b9f31c25bc85ea8c1ac240c8bca7c5", "lat": 38.871858833333334}, {"fusion_lon": 0.0, "fusion_lat": 0.0, "rental_uris": {"android": "https://dc.lft.to/lastmile_qr_scan", "ios": "https://dc.lft.to/lastmile_qr_scan"}, "is_disabled": 0, "type": "electric_scooter", "is_reserved": 0, "name": "307ca00167e906686b584df93a240a40", "lon": -77.00729416666667, "bike_id": "307ca00167e906686b584df93a240a40", "lat": 38.90554016666667}, {"fusion_lon": 0.0, "fusion_lat": 0.0, "rental_uris": {"android": "https://dc.lft.to/lastmile_qr_scan", "ios": "https://dc.lft.to/lastmile_qr_scan"}, "is_disabled": 0, "type": "electric_scooter", "is_reserved": 0, "name": "f9449eeacf2d9e3ff3730b964ff09578", "lon": -77.02368183333333, "bike_id": "f9449eeacf2d9e3ff3730b964ff09578", "lat": 38.90216183333333}, {"fusion_lon": 0.0, "fusion_lat": 0.0, "rental_uris": {"android": "https://dc.lft.to/lastmile_qr_scan", "ios": "https://dc.lft.to/lastmile_qr_scan"}, "is_disabled": 0, "type": "electric_scooter", "is_reserved": 0, "name": "d287071708483c405ead3dc21008e1fd", "lon": -77.02294116666667, "bike_id": "d287071708483c405ead3dc21008e1fd", "lat": 38.91486366666667}, {"fusion_lon": 0.0, "fusion_lat": 0.0, "rental_uris": {"android": "https://dc.lft.to/lastmile_qr_scan", "ios": "https://dc.lft.to/lastmile_qr_scan"}, "is_disabled": 0, "type": "electric_scooter", "is_reserved": 0, "name": "872a455ecb211d921ee39fd642d065ba", "lon": -77.019553, "bike_id": "872a455ecb211d921ee39fd642d065ba", "lat": 38.92332716666667}, {"fusion_lon": 0.0, "fusion_lat": 0.0, "rental_uris": {"android": "https://dc.lft.to/lastmile_qr_scan", "ios": "https://dc.lft.to/lastmile_qr_scan"}, "is_disabled": 0, "type": "electric_scooter", "is_reserved": 0, "name": "eeeed28fa525ec40b1bfe833a0e6f281", "lon": -76.93938383333334, "bike_id": "eeeed28fa525ec40b1bfe833a0e6f281", "lat": 38.908581833333336}, {"fusion_lon": 0.0, "fusion_lat": 0.0, "rental_uris": {"android": "https://dc.lft.to/lastmile_qr_scan", "ios": "https://dc.lft.to/lastmile_qr_scan"}, "is_disabled": 0, "type": "electric_scooter", "is_reserved": 0, "name": "ce3355826b0b18a7baafd0dd8a7c7526", "lon": -77.02282766666667, "bike_id": "ce3355826b0b18a7baafd0dd8a7c7526", "lat": 38.92660683333333}, {"fusion_lon": 0.0, "fusion_lat": 0.0, "rental_uris": {"android": "https://dc.lft.to/lastmile_qr_scan", "ios": "https://dc.lft.to/lastmile_qr_scan"}, "is_disabled": 0, "type": "electric_scooter", "is_reserved": 0, "name": "195b8f194df5a99a823476d798cc1c9c", "lon": -77.09214266666666, "bike_id": "195b8f194df5a99a823476d798cc1c9c", "lat": 38.91704566666667}, {"fusion_lon": 0.0, "fusion_lat": 0.0, "rental_uris": {"android": "https://dc.lft.to/lastmile_qr_scan", "ios": "https://dc.lft.to/lastmile_qr_scan"}, "is_disabled": 0, "type": "electric_scooter", "is_reserved": 0, "name": "303765b846884f7a34f2c92a43006cb1", "lon": -77.03938233333334, "bike_id": "303765b846884f7a34f2c92a43006cb1", "lat": 38.89859416666667}, {"fusion_lon": 0.0, "fusion_lat": 0.0, "rental_uris": {"android": "https://dc.lft.to/lastmile_qr_scan", "ios": "https://dc.lft.to/lastmile_qr_scan"}, "is_disabled": 0, "type": "electric_scooter", "is_reserved": 0, "name": "d41cef3aff5e3633b2c95039292a951e", "lon": -77.00095416666667, "bike_id": "d41cef3aff5e3633b2c95039292a951e", "lat": 38.886456833333334}, {"fusion_lon": 0.0, "fusion_lat": 0.0, "rental_uris": {"android": "https://dc.lft.to/lastmile_qr_scan", "ios": "https://dc.lft.to/lastmile_qr_scan"}, "is_disabled": 0, "type": "electric_scooter", "is_reserved": 0, "name": "299fad7206b2ab95b5affd70e87901fc", "lon": -77.00830333333333, "bike_id": "299fad7206b2ab95b5affd70e87901fc", "lat": 38.9224485}, {"fusion_lon": 0.0, "fusion_lat": 0.0, "rental_uris": {"android": "https://dc.lft.to/lastmile_qr_scan", "ios": "https://dc.lft.to/lastmile_qr_scan"}, "is_disabled": 0, "type": "electric_scooter", "is_reserved": 0, "name": "316b3d81f515bd2adb84a0f82656184e", "lon": -77.0468995, "bike_id": "316b3d81f515bd2adb84a0f82656184e", "lat": 38.902863833333335}, {"fusion_lon": 0.0, "fusion_lat": 0.0, "rental_uris": {"android": "https://dc.lft.to/lastmile_qr_scan", "ios": "https://dc.lft.to/lastmile_qr_scan"}, "is_disabled": 0, "type": "electric_scooter", "is_reserved": 0, "name": "343ee8ca2c8e8c35367b86d7df60c697", "lon": -76.99866, "bike_id": "343ee8ca2c8e8c35367b86d7df60c697", "lat": 38.90020116666667}, {"fusion_lon": 0.0, "fusion_lat": 0.0, "rental_uris": {"android": "https://dc.lft.to/lastmile_qr_scan", "ios": "https://dc.lft.to/lastmile_qr_scan"}, "is_disabled": 0, "type": "electric_bike", "is_reserved": 0, "name": "7b48e34919f16e8b8c7d255fc3bf6baa", "lon": -76.98086183333334, "bike_id": "7b48e34919f16e8b8c7d255fc3bf6baa", "lat": 38.953517833333336}, {"fusion_lon": 0.0, "fusion_lat": 0.0, "rental_uris": {"android": "https://dc.lft.to/lastmile_qr_scan", "ios": "https://dc.lft.to/lastmile_qr_scan"}, "is_disabled": 0, "type": "electric_scooter", "is_reserved": 0, "name": "98c9b424246eb6b2664a47bd4d71a4d2", "lon": -77.045875, "bike_id": "98c9b424246eb6b2664a47bd4d71a4d2", "lat": 38.9005835}, {"fusion_lon": 0.0, "fusion_lat": 0.0, "rental_uris": {"android": "https://dc.lft.to/lastmile_qr_scan", "ios": "https://dc.lft.to/lastmile_qr_scan"}, "is_disabled": 0, "type": "electric_scooter", "is_reserved": 0, "name": "fa4aa44056d67b8605e375939539e2e7", "lon": -77.04609766666667, "bike_id": "fa4aa44056d67b8605e375939539e2e7", "lat": 38.89823533333333}, {"fusion_lon": 0.0, "fusion_lat": 0.0, "rental_uris": {"android": "https://dc.lft.to/lastmile_qr_scan", "ios": "https://dc.lft.to/lastmile_qr_scan"}, "is_disabled": 0, "type": "electric_scooter", "is_reserved": 0, "name": "24305df85df7448c138b05bbd9a2cbab", "lon": -76.99512966666667, "bike_id": "24305df85df7448c138b05bbd9a2cbab", "lat": 38.877702}, {"fusion_lon": 0.0, "fusion_lat": 0.0, "rental_uris": {"android": "https://dc.lft.to/lastmile_qr_scan", "ios": "https://dc.lft.to/lastmile_qr_scan"}, "is_disabled": 0, "type": "electric_scooter", "is_reserved": 0, "name": "dd02018e6afebdb2bd08f1bc266bf518", "lon": -77.03203833333333, "bike_id": "dd02018e6afebdb2bd08f1bc266bf518", "lat": 38.892308}, {"fusion_lon": 0.0, "fusion_lat": 0.0, "rental_uris": {"android": "https://dc.lft.to/lastmile_qr_scan", "ios": "https://dc.lft.to/lastmile_qr_scan"}, "is_disabled": 0, "type": "electric_scooter", "is_reserved": 0, "name": "b97fbb538cb8f1c1716908ef7e7b3aff", "lon": -77.01838116666667, "bike_id": "b97fbb538cb8f1c1716908ef7e7b3aff", "lat": 38.90862966666667}, {"fusion_lon": 0.0, "fusion_lat": 0.0, "rental_uris": {"android": "https://dc.lft.to/lastmile_qr_scan", "ios": "https://dc.lft.to/lastmile_qr_scan"}, "is_disabled": 0, "type": "electric_scooter", "is_reserved": 0, "name": "e5636f16fbfcff4512ca1e7695cc6191", "lon": -76.97330566666666, "bike_id": "e5636f16fbfcff4512ca1e7695cc6191", "lat": 38.904094}, {"fusion_lon": 0.0, "fusion_lat": 0.0, "rental_uris": {"android": "https://dc.lft.to/lastmile_qr_scan", "ios": "https://dc.lft.to/lastmile_qr_scan"}, "is_disabled": 0, "type": "electric_scooter", "is_reserved": 0, "name": "8e7b3d9b127c4d2b75a1c27750405cf5", "lon": -76.98612583333333, "bike_id": "8e7b3d9b127c4d2b75a1c27750405cf5", "lat": 38.90345166666667}, {"fusion_lon": 0.0, "fusion_lat": 0.0, "rental_uris": {"android": "https://dc.lft.to/lastmile_qr_scan", "ios": "https://dc.lft.to/lastmile_qr_scan"}, "is_disabled": 0, "type": "electric_scooter", "is_reserved": 0, "name": "fec1647d9a1fe1e434e989c95363de48", "lon": -77.00535916666666, "bike_id": "fec1647d9a1fe1e434e989c95363de48", "lat": 38.87543066666667}, {"fusion_lon": 0.0, "fusion_lat": 0.0, "rental_uris": {"android": "https://dc.lft.to/lastmile_qr_scan", "ios": "https://dc.lft.to/lastmile_qr_scan"}, "is_disabled": 0, "type": "electric_scooter", "is_reserved": 0, "name": "3f97a4445356acff271ba1db8c4c5610", "lon": -77.06408833333333, "bike_id": "3f97a4445356acff271ba1db8c4c5610", "lat": 38.94437533333333}, {"fusion_lon": 0.0, "fusion_lat": 0.0, "rental_uris": {"android": "https://dc.lft.to/lastmile_qr_scan", "ios": "https://dc.lft.to/lastmile_qr_scan"}, "is_disabled": 0, "type": "electric_scooter", "is_reserved": 0, "name": "405f957fdab9348d804c55c0fe537397", "lon": -77.040124, "bike_id": "405f957fdab9348d804c55c0fe537397", "lat": 38.92177733333333}, {"fusion_lon": 0.0, "fusion_lat": 0.0, "rental_uris": {"android": "https://dc.lft.to/lastmile_qr_scan", "ios": "https://dc.lft.to/lastmile_qr_scan"}, "is_disabled": 0, "type": "electric_scooter", "is_reserved": 0, "name": "040e7def0a10bd367ffd7438372b2b97", "lon": -76.98320766666667, "bike_id": "040e7def0a10bd367ffd7438372b2b97", "lat": 38.90319566666667}, {"fusion_lon": 0.0, "fusion_lat": 0.0, "rental_uris": {"android": "https://dc.lft.to/lastmile_qr_scan", "ios": "https://dc.lft.to/lastmile_qr_scan"}, "is_disabled": 0, "type": "electric_scooter", "is_reserved": 0, "name": "8df4cbc07356eb80da9e6739b4f18d03", "lon": -77.04501383333333, "bike_id": "8df4cbc07356eb80da9e6739b4f18d03", "lat": 38.897519}, {"fusion_lon": 0.0, "fusion_lat": 0.0, "rental_uris": {"android": "https://dc.lft.to/lastmile_qr_scan", "ios": "https://dc.lft.to/lastmile_qr_scan"}, "is_disabled": 0, "type": "electric_scooter", "is_reserved": 0, "name": "221aa8a5ade1c2dae8eefc6b65b45602", "lon": -77.021291, "bike_id": "221aa8a5ade1c2dae8eefc6b65b45602", "lat": 38.92363316666667}, {"fusion_lon": 0.0, "fusion_lat": 0.0, "rental_uris": {"android": "https://dc.lft.to/lastmile_qr_scan", "ios": "https://dc.lft.to/lastmile_qr_scan"}, "is_disabled": 0, "type": "electric_scooter", "is_reserved": 0, "name": "85fcc1710ea5087dfa2d348d1e0227db", "lon": -77.02157716666666, "bike_id": "85fcc1710ea5087dfa2d348d1e0227db", "lat": 38.92600816666667}, {"fusion_lon": 0.0, "fusion_lat": 0.0, "rental_uris": {"android": "https://dc.lft.to/lastmile_qr_scan", "ios": "https://dc.lft.to/lastmile_qr_scan"}, "is_disabled": 0, "type": "electric_scooter", "is_reserved": 0, "name": "d955ff6aa6457152edae2219ffd2d8b3", "lon": -77.0376095, "bike_id": "d955ff6aa6457152edae2219ffd2d8b3", "lat": 38.916983}, {"fusion_lon": 0.0, "fusion_lat": 0.0, "rental_uris": {"android": "https://dc.lft.to/lastmile_qr_scan", "ios": "https://dc.lft.to/lastmile_qr_scan"}, "is_disabled": 0, "type": "electric_scooter", "is_reserved": 0, "name": "d0b7d214d51c4c8409002e140c187ce1", "lon": -77.0285115, "bike_id": "d0b7d214d51c4c8409002e140c187ce1", "lat": 38.92235766666667}, {"fusion_lon": 0.0, "fusion_lat": 0.0, "rental_uris": {"android": "https://dc.lft.to/lastmile_qr_scan", "ios": "https://dc.lft.to/lastmile_qr_scan"}, "is_disabled": 0, "type": "electric_scooter", "is_reserved": 0, "name": "04eeeadb70736d640fd3204b09f2fefa", "lon": -76.97330916666667, "bike_id": "04eeeadb70736d640fd3204b09f2fefa", "lat": 38.904103}, {"fusion_lon": 0.0, "fusion_lat": 0.0, "rental_uris": {"android": "https://dc.lft.to/lastmile_qr_scan", "ios": "https://dc.lft.to/lastmile_qr_scan"}, "is_disabled": 0, "type": "electric_scooter", "is_reserved": 0, "name": "0f6f5865b08e38ccbdd8bc413ee25a75", "lon": -77.02216033333333, "bike_id": "0f6f5865b08e38ccbdd8bc413ee25a75", "lat": 38.92469966666667}, {"fusion_lon": 0.0, "fusion_lat": 0.0, "rental_uris": {"android": "https://dc.lft.to/lastmile_qr_scan", "ios": "https://dc.lft.to/lastmile_qr_scan"}, "is_disabled": 0, "type": "electric_scooter", "is_reserved": 0, "name": "e5d9326ffd1ce64172a4c08f44636588", "lon": -76.99561566666667, "bike_id": "e5d9326ffd1ce64172a4c08f44636588", "lat": 38.900053}, {"fusion_lon": 0.0, "fusion_lat": 0.0, "rental_uris": {"android": "https://dc.lft.to/lastmile_qr_scan", "ios": "https://dc.lft.to/lastmile_qr_scan"}, "is_disabled": 0, "type": "electric_scooter", "is_reserved": 0, "name": "920fd3b6225d19869774719d83b1a8c5", "lon": -77.00507283333333, "bike_id": "920fd3b6225d19869774719d83b1a8c5", "lat": 38.87532983333333}, {"fusion_lon": 0.0, "fusion_lat": 0.0, "rental_uris": {"android": "https://dc.lft.to/lastmile_qr_scan", "ios": "https://dc.lft.to/lastmile_qr_scan"}, "is_disabled": 0, "type": "electric_bike", "is_reserved": 0, "name": "d6fca11ac82c9fe18df13c3aa6113f3a", "lon": -77.07334833333333, "bike_id": "d6fca11ac82c9fe18df13c3aa6113f3a", "lat": 38.89011633333333}, {"fusion_lon": 0.0, "fusion_lat": 0.0, "rental_uris": {"android": "https://dc.lft.to/lastmile_qr_scan", "ios": "https://dc.lft.to/lastmile_qr_scan"}, "is_disabled": 0, "type": "electric_scooter", "is_reserved": 0, "name": "d950cdaac0b7bd06973f24cdc7a709f7", "lon": -77.04299516666667, "bike_id": "d950cdaac0b7bd06973f24cdc7a709f7", "lat": 38.922585833333336}, {"fusion_lon": 0.0, "fusion_lat": 0.0, "rental_uris": {"android": "https://dc.lft.to/lastmile_qr_scan", "ios": "https://dc.lft.to/lastmile_qr_scan"}, "is_disabled": 0, "type": "electric_scooter", "is_reserved": 0, "name": "7961c7c1d5b25faf12c7395375af8d12", "lon": -77.0483235, "bike_id": "7961c7c1d5b25faf12c7395375af8d12", "lat": 38.89959116666667}, {"fusion_lon": 0.0, "fusion_lat": 0.0, "rental_uris": {"android": "https://dc.lft.to/lastmile_qr_scan", "ios": "https://dc.lft.to/lastmile_qr_scan"}, "is_disabled": 0, "type": "electric_scooter", "is_reserved": 0, "name": "4d9f731e742e1e8668ecb9065e2a6fed", "lon": -76.98596716666667, "bike_id": "4d9f731e742e1e8668ecb9065e2a6fed", "lat": 38.894724}, {"fusion_lon": 0.0, "fusion_lat": 0.0, "rental_uris": {"android": "https://dc.lft.to/lastmile_qr_scan", "ios": "https://dc.lft.to/lastmile_qr_scan"}, "is_disabled": 0, "type": "electric_scooter", "is_reserved": 0, "name": "3cd061dc8f34384b25d87e0a4fee7aa7", "lon": -77.03252833333333, "bike_id": "3cd061dc8f34384b25d87e0a4fee7aa7", "lat": 38.92783283333333}, {"fusion_lon": 0.0, "fusion_lat": 0.0, "rental_uris": {"android": "https://dc.lft.to/lastmile_qr_scan", "ios": "https://dc.lft.to/lastmile_qr_scan"}, "is_disabled": 0, "type": "electric_scooter", "is_reserved": 0, "name": "54a3956cc356a2339ba0c7c6d22f2d38", "lon": -77.09942316666667, "bike_id": "54a3956cc356a2339ba0c7c6d22f2d38", "lat": 38.92190883333333}, {"fusion_lon": 0.0, "fusion_lat": 0.0, "rental_uris": {"android": "https://dc.lft.to/lastmile_qr_scan", "ios": "https://dc.lft.to/lastmile_qr_scan"}, "is_disabled": 0, "type": "electric_scooter", "is_reserved": 0, "name": "735a91c58c00c1e6c3202f73c04ea743", "lon": -77.03200266666667, "bike_id": "735a91c58c00c1e6c3202f73c04ea743", "lat": 38.899928833333334}, {"fusion_lon": 0.0, "fusion_lat": 0.0, "rental_uris": {"android": "https://dc.lft.to/lastmile_qr_scan", "ios": "https://dc.lft.to/lastmile_qr_scan"}, "is_disabled": 0, "type": "electric_scooter", "is_reserved": 0, "name": "3646121a471896485dc7f2eda96698e7", "lon": -76.99729916666666, "bike_id": "3646121a471896485dc7f2eda96698e7", "lat": 38.90430966666667}, {"fusion_lon": 0.0, "fusion_lat": 0.0, "rental_uris": {"android": "https://dc.lft.to/lastmile_qr_scan", "ios": "https://dc.lft.to/lastmile_qr_scan"}, "is_disabled": 0, "type": "electric_scooter", "is_reserved": 0, "name": "3b9fce00d1fb55dceffe7d1b6de32983", "lon": -77.02703933333333, "bike_id": "3b9fce00d1fb55dceffe7d1b6de32983", "lat": 38.9017245}, {"fusion_lon": 0.0, "fusion_lat": 0.0, "rental_uris": {"android": "https://dc.lft.to/lastmile_qr_scan", "ios": "https://dc.lft.to/lastmile_qr_scan"}, "is_disabled": 0, "type": "electric_scooter", "is_reserved": 0, "name": "47106310f6e6c62c4741a69384b3c03f", "lon": -77.032453, "bike_id": "47106310f6e6c62c4741a69384b3c03f", "lat": 38.920921}, {"fusion_lon": 0.0, "fusion_lat": 0.0, "rental_uris": {"android": "https://dc.lft.to/lastmile_qr_scan", "ios": "https://dc.lft.to/lastmile_qr_scan"}, "is_disabled": 0, "type": "electric_scooter", "is_reserved": 0, "name": "fc64f5ccdaeccf9d0d0879d236bd3c40", "lon": -77.07461566666667, "bike_id": "fc64f5ccdaeccf9d0d0879d236bd3c40", "lat": 38.938517166666664}, {"fusion_lon": 0.0, "fusion_lat": 0.0, "rental_uris": {"android": "https://dc.lft.to/lastmile_qr_scan", "ios": "https://dc.lft.to/lastmile_qr_scan"}, "is_disabled": 0, "type": "electric_scooter", "is_reserved": 0, "name": "09884a727aac36d34eddd34b916eace0", "lon": -77.0167585, "bike_id": "09884a727aac36d34eddd34b916eace0", "lat": 38.905626166666664}, {"fusion_lon": 0.0, "fusion_lat": 0.0, "rental_uris": {"android": "https://dc.lft.to/lastmile_qr_scan", "ios": "https://dc.lft.to/lastmile_qr_scan"}, "is_disabled": 0, "type": "electric_scooter", "is_reserved": 0, "name": "4563acf7617ebc1309cd06b9226d0393", "lon": -77.02713616666666, "bike_id": "4563acf7617ebc1309cd06b9226d0393", "lat": 38.91797966666667}, {"fusion_lon": 0.0, "fusion_lat": 0.0, "rental_uris": {"android": "https://dc.lft.to/lastmile_qr_scan", "ios": "https://dc.lft.to/lastmile_qr_scan"}, "is_disabled": 0, "type": "electric_scooter", "is_reserved": 0, "name": "29c622d794f59607db632af77ae6197e", "lon": -77.02828033333333, "bike_id": "29c622d794f59607db632af77ae6197e", "lat": 38.90054516666667}, {"fusion_lon": 0.0, "fusion_lat": 0.0, "rental_uris": {"android": "https://dc.lft.to/lastmile_qr_scan", "ios": "https://dc.lft.to/lastmile_qr_scan"}, "is_disabled": 0, "type": "electric_scooter", "is_reserved": 0, "name": "41bb8a973874ce5bc73e1c5762bda8c5", "lon": -77.02029383333333, "bike_id": "41bb8a973874ce5bc73e1c5762bda8c5", "lat": 38.92443866666667}, {"fusion_lon": 0.0, "fusion_lat": 0.0, "rental_uris": {"android": "https://dc.lft.to/lastmile_qr_scan", "ios": "https://dc.lft.to/lastmile_qr_scan"}, "is_disabled": 0, "type": "electric_scooter", "is_reserved": 0, "name": "02744e1f06da210d6f3b017f97ab77df", "lon": -76.99912166666667, "bike_id": "02744e1f06da210d6f3b017f97ab77df", "lat": 38.896033333333335}, {"fusion_lon": 0.0, "fusion_lat": 0.0, "rental_uris": {"android": "https://dc.lft.to/lastmile_qr_scan", "ios": "https://dc.lft.to/lastmile_qr_scan"}, "is_disabled": 0, "type": "electric_scooter", "is_reserved": 0, "name": "85e67aae66bcc513f4b8de1c13b31461", "lon": -77.02729216666667, "bike_id": "85e67aae66bcc513f4b8de1c13b31461", "lat": 38.9106445}, {"fusion_lon": 0.0, "fusion_lat": 0.0, "rental_uris": {"android": "https://dc.lft.to/lastmile_qr_scan", "ios": "https://dc.lft.to/lastmile_qr_scan"}, "is_disabled": 0, "type": "electric_scooter", "is_reserved": 0, "name": "2e257faf0cdab13bb5fcb1ce8576087b", "lon": -76.95768483333333, "bike_id": "2e257faf0cdab13bb5fcb1ce8576087b", "lat": 38.88356916666667}, {"fusion_lon": 0.0, "fusion_lat": 0.0, "rental_uris": {"android": "https://dc.lft.to/lastmile_qr_scan", "ios": "https://dc.lft.to/lastmile_qr_scan"}, "is_disabled": 0, "type": "electric_scooter", "is_reserved": 0, "name": "5683ac8ec890e49a9118a6d9dc33f46b", "lon": -77.02265116666666, "bike_id": "5683ac8ec890e49a9118a6d9dc33f46b", "lat": 38.92426866666667}, {"fusion_lon": 0.0, "fusion_lat": 0.0, "rental_uris": {"android": "https://dc.lft.to/lastmile_qr_scan", "ios": "https://dc.lft.to/lastmile_qr_scan"}, "is_disabled": 0, "type": "electric_scooter", "is_reserved": 0, "name": "0bbf1ef96b489dab14de622fcf360ede", "lon": -77.02151083333334, "bike_id": "0bbf1ef96b489dab14de622fcf360ede", "lat": 38.91986583333333}, {"fusion_lon": 0.0, "fusion_lat": 0.0, "rental_uris": {"android": "https://dc.lft.to/lastmile_qr_scan", "ios": "https://dc.lft.to/lastmile_qr_scan"}, "is_disabled": 0, "type": "electric_scooter", "is_reserved": 0, "name": "3c97f45da0e8edcd1828301464109c1a", "lon": -76.98270816666667, "bike_id": "3c97f45da0e8edcd1828301464109c1a", "lat": 38.88531833333333}, {"fusion_lon": 0.0, "fusion_lat": 0.0, "rental_uris": {"android": "https://dc.lft.to/lastmile_qr_scan", "ios": "https://dc.lft.to/lastmile_qr_scan"}, "is_disabled": 0, "type": "electric_scooter", "is_reserved": 0, "name": "f41ca51c64b39253f3791e400333e2bb", "lon": -77.02127683333333, "bike_id": "f41ca51c64b39253f3791e400333e2bb", "lat": 38.9241535}, {"fusion_lon": 0.0, "fusion_lat": 0.0, "rental_uris": {"android": "https://dc.lft.to/lastmile_qr_scan", "ios": "https://dc.lft.to/lastmile_qr_scan"}, "is_disabled": 0, "type": "electric_scooter", "is_reserved": 0, "name": "a789366daa406efa44bfaa9629b4bdd9", "lon": -77.03741483333333, "bike_id": "a789366daa406efa44bfaa9629b4bdd9", "lat": 38.912703}, {"fusion_lon": 0.0, "fusion_lat": 0.0, "rental_uris": {"android": "https://dc.lft.to/lastmile_qr_scan", "ios": "https://dc.lft.to/lastmile_qr_scan"}, "is_disabled": 0, "type": "electric_scooter", "is_reserved": 0, "name": "3ab0d97fe997379582cbefec135d321a", "lon": -76.93769466666667, "bike_id": "3ab0d97fe997379582cbefec135d321a", "lat": 38.899655333333335}, {"fusion_lon": 0.0, "fusion_lat": 0.0, "rental_uris": {"android": "https://dc.lft.to/lastmile_qr_scan", "ios": "https://dc.lft.to/lastmile_qr_scan"}, "is_disabled": 0, "type": "electric_scooter", "is_reserved": 0, "name": "c8c5bebeca285715108a8a5780c865e6", "lon": -77.0344395, "bike_id": "c8c5bebeca285715108a8a5780c865e6", "lat": 38.925272}, {"fusion_lon": 0.0, "fusion_lat": 0.0, "rental_uris": {"android": "https://dc.lft.to/lastmile_qr_scan", "ios": "https://dc.lft.to/lastmile_qr_scan"}, "is_disabled": 0, "type": "electric_scooter", "is_reserved": 0, "name": "95caae2d6fcd125518dc7f5212f08346", "lon": -77.03202216666666, "bike_id": "95caae2d6fcd125518dc7f5212f08346", "lat": 38.91601766666667}, {"fusion_lon": 0.0, "fusion_lat": 0.0, "rental_uris": {"android": "https://dc.lft.to/lastmile_qr_scan", "ios": "https://dc.lft.to/lastmile_qr_scan"}, "is_disabled": 0, "type": "electric_scooter", "is_reserved": 0, "name": "a2d4b0f2f4199989d51178080a7ce4d6", "lon": -77.03275116666667, "bike_id": "a2d4b0f2f4199989d51178080a7ce4d6", "lat": 38.9292515}, {"fusion_lon": 0.0, "fusion_lat": 0.0, "rental_uris": {"android": "https://dc.lft.to/lastmile_qr_scan", "ios": "https://dc.lft.to/lastmile_qr_scan"}, "is_disabled": 0, "type": "electric_scooter", "is_reserved": 0, "name": "ff38c3921b774759ed9fae3eb689370d", "lon": -77.00935133333333, "bike_id": "ff38c3921b774759ed9fae3eb689370d", "lat": 38.91099916666667}, {"fusion_lon": 0.0, "fusion_lat": 0.0, "rental_uris": {"android": "https://dc.lft.to/lastmile_qr_scan", "ios": "https://dc.lft.to/lastmile_qr_scan"}, "is_disabled": 0, "type": "electric_scooter", "is_reserved": 0, "name": "76a68287cb85b68cf9c8ce740ebe83de", "lon": -77.0241385, "bike_id": "76a68287cb85b68cf9c8ce740ebe83de", "lat": 38.92654233333333}, {"fusion_lon": 0.0, "fusion_lat": 0.0, "rental_uris": {"android": "https://dc.lft.to/lastmile_qr_scan", "ios": "https://dc.lft.to/lastmile_qr_scan"}, "is_disabled": 0, "type": "electric_scooter", "is_reserved": 0, "name": "1d517db8bc25dbcf47a4a7f0e8601618", "lon": -77.04601533333333, "bike_id": "1d517db8bc25dbcf47a4a7f0e8601618", "lat": 38.89609016666667}, {"fusion_lon": 0.0, "fusion_lat": 0.0, "rental_uris": {"android": "https://dc.lft.to/lastmile_qr_scan", "ios": "https://dc.lft.to/lastmile_qr_scan"}, "is_disabled": 0, "type": "electric_scooter", "is_reserved": 0, "name": "4d2878aaebdfeda121463498dd35133e", "lon": -77.01925533333333, "bike_id": "4d2878aaebdfeda121463498dd35133e", "lat": 38.93268183333333}, {"fusion_lon": 0.0, "fusion_lat": 0.0, "rental_uris": {"android": "https://dc.lft.to/lastmile_qr_scan", "ios": "https://dc.lft.to/lastmile_qr_scan"}, "is_disabled": 0, "type": "electric_scooter", "is_reserved": 0, "name": "85c0ad041cd30d892bee29de472615cb", "lon": -77.07474883333333, "bike_id": "85c0ad041cd30d892bee29de472615cb", "lat": 38.92236916666667}, {"fusion_lon": 0.0, "fusion_lat": 0.0, "rental_uris": {"android": "https://dc.lft.to/lastmile_qr_scan", "ios": "https://dc.lft.to/lastmile_qr_scan"}, "is_disabled": 0, "type": "electric_bike", "is_reserved": 0, "name": "f8500a695ecadaf69c2b938788206000", "lon": -76.95126516666667, "bike_id": "f8500a695ecadaf69c2b938788206000", "lat": 38.95184066666667}, {"fusion_lon": 0.0, "fusion_lat": 0.0, "rental_uris": {"android": "https://dc.lft.to/lastmile_qr_scan", "ios": "https://dc.lft.to/lastmile_qr_scan"}, "is_disabled": 0, "type": "electric_scooter", "is_reserved": 0, "name": "94a70ed113afbf7c2a7347b71933fa37", "lon": -77.024068, "bike_id": "94a70ed113afbf7c2a7347b71933fa37", "lat": 38.916018666666666}, {"fusion_lon": 0.0, "fusion_lat": 0.0, "rental_uris": {"android": "https://dc.lft.to/lastmile_qr_scan", "ios": "https://dc.lft.to/lastmile_qr_scan"}, "is_disabled": 0, "type": "electric_scooter", "is_reserved": 0, "name": "a874c0e3cab6d12fa633d2d21749b2a6", "lon": -77.02503333333334, "bike_id": "a874c0e3cab6d12fa633d2d21749b2a6", "lat": 38.91802916666666}, {"fusion_lon": 0.0, "fusion_lat": 0.0, "rental_uris": {"android": "https://dc.lft.to/lastmile_qr_scan", "ios": "https://dc.lft.to/lastmile_qr_scan"}, "is_disabled": 0, "type": "electric_scooter", "is_reserved": 0, "name": "f87bb38fa51b4f0d81d13a80470f20c8", "lon": -77.00602633333334, "bike_id": "f87bb38fa51b4f0d81d13a80470f20c8", "lat": 38.9057045}, {"fusion_lon": 0.0, "fusion_lat": 0.0, "rental_uris": {"android": "https://dc.lft.to/lastmile_qr_scan", "ios": "https://dc.lft.to/lastmile_qr_scan"}, "is_disabled": 0, "type": "electric_bike", "is_reserved": 0, "name": "038e44af6ccf279189d367e30f084014", "lon": -76.99707016666666, "bike_id": "038e44af6ccf279189d367e30f084014", "lat": 38.8386255}, {"fusion_lon": 0.0, "fusion_lat": 0.0, "rental_uris": {"android": "https://dc.lft.to/lastmile_qr_scan", "ios": "https://dc.lft.to/lastmile_qr_scan"}, "is_disabled": 0, "type": "electric_scooter", "is_reserved": 0, "name": "c1f6e97433a2bffb6c22b84a27db9909", "lon": -77.02244933333333, "bike_id": "c1f6e97433a2bffb6c22b84a27db9909", "lat": 38.924284666666665}, {"fusion_lon": 0.0, "fusion_lat": 0.0, "rental_uris": {"android": "https://dc.lft.to/lastmile_qr_scan", "ios": "https://dc.lft.to/lastmile_qr_scan"}, "is_disabled": 0, "type": "electric_scooter", "is_reserved": 0, "name": "08f11e66540d28788acd1b0ed66f13e3", "lon": -77.02348883333333, "bike_id": "08f11e66540d28788acd1b0ed66f13e3", "lat": 38.931076833333336}, {"fusion_lon": 0.0, "fusion_lat": 0.0, "rental_uris": {"android": "https://dc.lft.to/lastmile_qr_scan", "ios": "https://dc.lft.to/lastmile_qr_scan"}, "is_disabled": 0, "type": "electric_scooter", "is_reserved": 0, "name": "cb6569132062b8d4ba58889f7f67a684", "lon": -77.04997183333333, "bike_id": "cb6569132062b8d4ba58889f7f67a684", "lat": 38.89230366666666}, {"fusion_lon": 0.0, "fusion_lat": 0.0, "rental_uris": {"android": "https://dc.lft.to/lastmile_qr_scan", "ios": "https://dc.lft.to/lastmile_qr_scan"}, "is_disabled": 0, "type": "electric_scooter", "is_reserved": 0, "name": "6355201924262fd23d317a219279d1f7", "lon": -77.01593833333334, "bike_id": "6355201924262fd23d317a219279d1f7", "lat": 38.874637666666665}, {"fusion_lon": 0.0, "fusion_lat": 0.0, "rental_uris": {"android": "https://dc.lft.to/lastmile_qr_scan", "ios": "https://dc.lft.to/lastmile_qr_scan"}, "is_disabled": 0, "type": "electric_scooter", "is_reserved": 0, "name": "1459afb564b2047fe51e5966c97008e3", "lon": -77.02883816666667, "bike_id": "1459afb564b2047fe51e5966c97008e3", "lat": 38.904345}, {"fusion_lon": 0.0, "fusion_lat": 0.0, "rental_uris": {"android": "https://dc.lft.to/lastmile_qr_scan", "ios": "https://dc.lft.to/lastmile_qr_scan"}, "is_disabled": 0, "type": "electric_scooter", "is_reserved": 0, "name": "505111866c2dac8bef5f5395770558a1", "lon": -77.02009466666667, "bike_id": "505111866c2dac8bef5f5395770558a1", "lat": 38.8993955}, {"fusion_lon": 0.0, "fusion_lat": 0.0, "rental_uris": {"android": "https://dc.lft.to/lastmile_qr_scan", "ios": "https://dc.lft.to/lastmile_qr_scan"}, "is_disabled": 0, "type": "electric_scooter", "is_reserved": 0, "name": "b544c5542186dfa2e5be89d7d1625d17", "lon": -77.00199066666667, "bike_id": "b544c5542186dfa2e5be89d7d1625d17", "lat": 38.9023615}, {"fusion_lon": 0.0, "fusion_lat": 0.0, "rental_uris": {"android": "https://dc.lft.to/lastmile_qr_scan", "ios": "https://dc.lft.to/lastmile_qr_scan"}, "is_disabled": 0, "type": "electric_scooter", "is_reserved": 0, "name": "6a6bf34556f052219807794b530c2f43", "lon": -77.029832, "bike_id": "6a6bf34556f052219807794b530c2f43", "lat": 38.94255283333333}, {"fusion_lon": 0.0, "fusion_lat": 0.0, "rental_uris": {"android": "https://dc.lft.to/lastmile_qr_scan", "ios": "https://dc.lft.to/lastmile_qr_scan"}, "is_disabled": 0, "type": "electric_scooter", "is_reserved": 0, "name": "4297a52cf5c16b2cbe22e23776ca2dc8", "lon": -77.03237383333334, "bike_id": "4297a52cf5c16b2cbe22e23776ca2dc8", "lat": 38.9250505}, {"fusion_lon": 0.0, "fusion_lat": 0.0, "rental_uris": {"android": "https://dc.lft.to/lastmile_qr_scan", "ios": "https://dc.lft.to/lastmile_qr_scan"}, "is_disabled": 0, "type": "electric_bike", "is_reserved": 0, "name": "76f05e923f13b948253f2cc2df7f7fab", "lon": -76.95250983333334, "bike_id": "76f05e923f13b948253f2cc2df7f7fab", "lat": 38.90690266666667}, {"fusion_lon": 0.0, "fusion_lat": 0.0, "rental_uris": {"android": "https://dc.lft.to/lastmile_qr_scan", "ios": "https://dc.lft.to/lastmile_qr_scan"}, "is_disabled": 0, "type": "electric_scooter", "is_reserved": 0, "name": "74b736dd0a5635b0f916f65edc92f28f", "lon": -77.034585, "bike_id": "74b736dd0a5635b0f916f65edc92f28f", "lat": 38.93258016666667}, {"fusion_lon": 0.0, "fusion_lat": 0.0, "rental_uris": {"android": "https://dc.lft.to/lastmile_qr_scan", "ios": "https://dc.lft.to/lastmile_qr_scan"}, "is_disabled": 0, "type": "electric_scooter", "is_reserved": 0, "name": "f24d3730b8e106adb47f6ff785581926", "lon": -77.08332033333333, "bike_id": "f24d3730b8e106adb47f6ff785581926", "lat": 38.92983816666667}, {"fusion_lon": 0.0, "fusion_lat": 0.0, "rental_uris": {"android": "https://dc.lft.to/lastmile_qr_scan", "ios": "https://dc.lft.to/lastmile_qr_scan"}, "is_disabled": 0, "type": "electric_scooter", "is_reserved": 0, "name": "b0116cdd570b7d72c796cc7d4c9e0957", "lon": -76.9835385, "bike_id": "b0116cdd570b7d72c796cc7d4c9e0957", "lat": 38.89156033333333}, {"fusion_lon": 0.0, "fusion_lat": 0.0, "rental_uris": {"android": "https://dc.lft.to/lastmile_qr_scan", "ios": "https://dc.lft.to/lastmile_qr_scan"}, "is_disabled": 0, "type": "electric_scooter", "is_reserved": 0, "name": "d0691a6adf2a30b4eba03dd2681a2c26", "lon": -77.018561, "bike_id": "d0691a6adf2a30b4eba03dd2681a2c26", "lat": 38.949203833333335}, {"fusion_lon": 0.0, "fusion_lat": 0.0, "rental_uris": {"android": "https://dc.lft.to/lastmile_qr_scan", "ios": "https://dc.lft.to/lastmile_qr_scan"}, "is_disabled": 0, "type": "electric_scooter", "is_reserved": 0, "name": "1f90d7e273715ff8923f0ab15eac7e42", "lon": -77.04108466666666, "bike_id": "1f90d7e273715ff8923f0ab15eac7e42", "lat": 38.905160333333335}, {"fusion_lon": 0.0, "fusion_lat": 0.0, "rental_uris": {"android": "https://dc.lft.to/lastmile_qr_scan", "ios": "https://dc.lft.to/lastmile_qr_scan"}, "is_disabled": 0, "type": "electric_scooter", "is_reserved": 0, "name": "dfd88402a793f945190564095a47a73b", "lon": -77.02708283333334, "bike_id": "dfd88402a793f945190564095a47a73b", "lat": 38.91796866666667}, {"fusion_lon": 0.0, "fusion_lat": 0.0, "rental_uris": {"android": "https://dc.lft.to/lastmile_qr_scan", "ios": "https://dc.lft.to/lastmile_qr_scan"}, "is_disabled": 0, "type": "electric_scooter", "is_reserved": 0, "name": "cc4108c270b1017c3667573cec60cc46", "lon": -77.007153, "bike_id": "cc4108c270b1017c3667573cec60cc46", "lat": 38.884857833333335}, {"fusion_lon": 0.0, "fusion_lat": 0.0, "rental_uris": {"android": "https://dc.lft.to/lastmile_qr_scan", "ios": "https://dc.lft.to/lastmile_qr_scan"}, "is_disabled": 0, "type": "electric_scooter", "is_reserved": 0, "name": "9af745966cd866d2b757833c92d105de", "lon": -77.03059283333333, "bike_id": "9af745966cd866d2b757833c92d105de", "lat": 38.899669333333335}, {"fusion_lon": 0.0, "fusion_lat": 0.0, "rental_uris": {"android": "https://dc.lft.to/lastmile_qr_scan", "ios": "https://dc.lft.to/lastmile_qr_scan"}, "is_disabled": 0, "type": "electric_scooter", "is_reserved": 0, "name": "66c3f5fbf45f0ef47e7b4e0d9c3cc1a0", "lon": -76.98569666666667, "bike_id": "66c3f5fbf45f0ef47e7b4e0d9c3cc1a0", "lat": 38.896179000000004}, {"fusion_lon": 0.0, "fusion_lat": 0.0, "rental_uris": {"android": "https://dc.lft.to/lastmile_qr_scan", "ios": "https://dc.lft.to/lastmile_qr_scan"}, "is_disabled": 0, "type": "electric_scooter", "is_reserved": 0, "name": "945a21385889a50d75ed6f784c47dada", "lon": -77.02712316666667, "bike_id": "945a21385889a50d75ed6f784c47dada", "lat": 38.89991533333333}, {"fusion_lon": 0.0, "fusion_lat": 0.0, "rental_uris": {"android": "https://dc.lft.to/lastmile_qr_scan", "ios": "https://dc.lft.to/lastmile_qr_scan"}, "is_disabled": 0, "type": "electric_scooter", "is_reserved": 0, "name": "6dff81febfd3834af71df0c0d01c2008", "lon": -77.02598516666667, "bike_id": "6dff81febfd3834af71df0c0d01c2008", "lat": 38.899584}, {"fusion_lon": 0.0, "fusion_lat": 0.0, "rental_uris": {"android": "https://dc.lft.to/lastmile_qr_scan", "ios": "https://dc.lft.to/lastmile_qr_scan"}, "is_disabled": 0, "type": "electric_bike", "is_reserved": 0, "name": "72023eb728fcf04f4ce750bd64171f68", "lon": -76.9387145, "bike_id": "72023eb728fcf04f4ce750bd64171f68", "lat": 38.9561825}, {"fusion_lon": 0.0, "fusion_lat": 0.0, "rental_uris": {"android": "https://dc.lft.to/lastmile_qr_scan", "ios": "https://dc.lft.to/lastmile_qr_scan"}, "is_disabled": 0, "type": "electric_scooter", "is_reserved": 0, "name": "ffeea74576b13eff2599b3d2a09b738e", "lon": -77.02861016666667, "bike_id": "ffeea74576b13eff2599b3d2a09b738e", "lat": 38.913048833333335}, {"fusion_lon": 0.0, "fusion_lat": 0.0, "rental_uris": {"android": "https://dc.lft.to/lastmile_qr_scan", "ios": "https://dc.lft.to/lastmile_qr_scan"}, "is_disabled": 0, "type": "electric_scooter", "is_reserved": 0, "name": "ee7ad06733e30550b656d53148701691", "lon": -77.02394833333334, "bike_id": "ee7ad06733e30550b656d53148701691", "lat": 38.917586}, {"fusion_lon": 0.0, "fusion_lat": 0.0, "rental_uris": {"android": "https://dc.lft.to/lastmile_qr_scan", "ios": "https://dc.lft.to/lastmile_qr_scan"}, "is_disabled": 0, "type": "electric_scooter", "is_reserved": 0, "name": "1d0ed23cab12e0199ec26c962be7ce11", "lon": -76.94576683333334, "bike_id": "1d0ed23cab12e0199ec26c962be7ce11", "lat": 38.899230333333335}, {"fusion_lon": 0.0, "fusion_lat": 0.0, "rental_uris": {"android": "https://dc.lft.to/lastmile_qr_scan", "ios": "https://dc.lft.to/lastmile_qr_scan"}, "is_disabled": 0, "type": "electric_bike", "is_reserved": 0, "name": "9916a1adbdcb3c935a3d77fe0c596cce", "lon": -77.025556, "bike_id": "9916a1adbdcb3c935a3d77fe0c596cce", "lat": 38.99665616666667}, {"fusion_lon": 0.0, "fusion_lat": 0.0, "rental_uris": {"android": "https://dc.lft.to/lastmile_qr_scan", "ios": "https://dc.lft.to/lastmile_qr_scan"}, "is_disabled": 0, "type": "electric_bike", "is_reserved": 0, "name": "aa8129c6594e5eeb333043a0b523c705", "lon": -77.03880416666667, "bike_id": "aa8129c6594e5eeb333043a0b523c705", "lat": 39.026206}, {"fusion_lon": 0.0, "fusion_lat": 0.0, "rental_uris": {"android": "https://dc.lft.to/lastmile_qr_scan", "ios": "https://dc.lft.to/lastmile_qr_scan"}, "is_disabled": 0, "type": "electric_bike", "is_reserved": 0, "name": "ad728e939597a8dc310b576753924ac3", "lon": -77.127382, "bike_id": "ad728e939597a8dc310b576753924ac3", "lat": 38.895639333333335}, {"fusion_lon": 0.0, "fusion_lat": 0.0, "rental_uris": {"android": "https://dc.lft.to/lastmile_qr_scan", "ios": "https://dc.lft.to/lastmile_qr_scan"}, "is_disabled": 0, "type": "electric_scooter", "is_reserved": 0, "name": "b8a11bcb179547df086ca394855d78be", "lon": -77.02167933333334, "bike_id": "b8a11bcb179547df086ca394855d78be", "lat": 38.897260333333335}, {"fusion_lon": 0.0, "fusion_lat": 0.0, "rental_uris": {"android": "https://dc.lft.to/lastmile_qr_scan", "ios": "https://dc.lft.to/lastmile_qr_scan"}, "is_disabled": 0, "type": "electric_scooter", "is_reserved": 0, "name": "d18ef5fbefa6bcfdfbc9c30230950b79", "lon": -77.0465795, "bike_id": "d18ef5fbefa6bcfdfbc9c30230950b79", "lat": 38.89465933333334}, {"fusion_lon": 0.0, "fusion_lat": 0.0, "rental_uris": {"android": "https://dc.lft.to/lastmile_qr_scan", "ios": "https://dc.lft.to/lastmile_qr_scan"}, "is_disabled": 0, "type": "electric_scooter", "is_reserved": 0, "name": "2ed2c7c0ce168f0377811694ce07a6b1", "lon": -77.01555766666667, "bike_id": "2ed2c7c0ce168f0377811694ce07a6b1", "lat": 38.89366233333333}, {"fusion_lon": 0.0, "fusion_lat": 0.0, "rental_uris": {"android": "https://dc.lft.to/lastmile_qr_scan", "ios": "https://dc.lft.to/lastmile_qr_scan"}, "is_disabled": 0, "type": "electric_scooter", "is_reserved": 0, "name": "57bc1d2b827301d58ff3faa26ea8ccb4", "lon": -77.0213135, "bike_id": "57bc1d2b827301d58ff3faa26ea8ccb4", "lat": 38.92422416666667}, {"fusion_lon": 0.0, "fusion_lat": 0.0, "rental_uris": {"android": "https://dc.lft.to/lastmile_qr_scan", "ios": "https://dc.lft.to/lastmile_qr_scan"}, "is_disabled": 0, "type": "electric_scooter", "is_reserved": 0, "name": "8ac4b8554fca84f4c7590ae26cb2426d", "lon": -77.03958333333334, "bike_id": "8ac4b8554fca84f4c7590ae26cb2426d", "lat": 38.893650666666666}, {"fusion_lon": 0.0, "fusion_lat": 0.0, "rental_uris": {"android": "https://dc.lft.to/lastmile_qr_scan", "ios": "https://dc.lft.to/lastmile_qr_scan"}, "is_disabled": 0, "type": "electric_scooter", "is_reserved": 0, "name": "9c8cc4632f996544bb712af45c7f3a72", "lon": -76.98114283333334, "bike_id": "9c8cc4632f996544bb712af45c7f3a72", "lat": 38.9147}, {"fusion_lon": 0.0, "fusion_lat": 0.0, "rental_uris": {"android": "https://dc.lft.to/lastmile_qr_scan", "ios": "https://dc.lft.to/lastmile_qr_scan"}, "is_disabled": 0, "type": "electric_bike", "is_reserved": 0, "name": "2aaed8d5d4c1f9a4c7988962e631a77d", "lon": -77.13935633333334, "bike_id": "2aaed8d5d4c1f9a4c7988962e631a77d", "lat": 38.846693}, {"fusion_lon": 0.0, "fusion_lat": 0.0, "rental_uris": {"android": "https://dc.lft.to/lastmile_qr_scan", "ios": "https://dc.lft.to/lastmile_qr_scan"}, "is_disabled": 0, "type": "electric_scooter", "is_reserved": 0, "name": "c7ec608ccb6093ad95c257d4bada72ff", "lon": -76.98823166666666, "bike_id": "c7ec608ccb6093ad95c257d4bada72ff", "lat": 38.890949}, {"fusion_lon": 0.0, "fusion_lat": 0.0, "rental_uris": {"android": "https://dc.lft.to/lastmile_qr_scan", "ios": "https://dc.lft.to/lastmile_qr_scan"}, "is_disabled": 0, "type": "electric_scooter", "is_reserved": 0, "name": "15df2d352b401f5269732d0b5bbee885", "lon": -77.018057, "bike_id": "15df2d352b401f5269732d0b5bbee885", "lat": 38.91424166666667}, {"fusion_lon": 0.0, "fusion_lat": 0.0, "rental_uris": {"android": "https://dc.lft.to/lastmile_qr_scan", "ios": "https://dc.lft.to/lastmile_qr_scan"}, "is_disabled": 0, "type": "electric_scooter", "is_reserved": 0, "name": "85ca02fc96be5a21b9a50e21c7c1352e", "lon": -77.0396825, "bike_id": "85ca02fc96be5a21b9a50e21c7c1352e", "lat": 38.90265266666667}, {"fusion_lon": 0.0, "fusion_lat": 0.0, "rental_uris": {"android": "https://dc.lft.to/lastmile_qr_scan", "ios": "https://dc.lft.to/lastmile_qr_scan"}, "is_disabled": 0, "type": "electric_scooter", "is_reserved": 0, "name": "12293643b026556d11594b4e81cec627", "lon": -76.993986, "bike_id": "12293643b026556d11594b4e81cec627", "lat": 38.91003883333333}, {"fusion_lon": 0.0, "fusion_lat": 0.0, "rental_uris": {"android": "https://dc.lft.to/lastmile_qr_scan", "ios": "https://dc.lft.to/lastmile_qr_scan"}, "is_disabled": 0, "type": "electric_scooter", "is_reserved": 0, "name": "20bb1c747e315597fe28094b31a85496", "lon": -76.9821115, "bike_id": "20bb1c747e315597fe28094b31a85496", "lat": 38.88641483333333}, {"fusion_lon": 0.0, "fusion_lat": 0.0, "rental_uris": {"android": "https://dc.lft.to/lastmile_qr_scan", "ios": "https://dc.lft.to/lastmile_qr_scan"}, "is_disabled": 0, "type": "electric_scooter", "is_reserved": 0, "name": "8015d3e14ea13100c4b2ffb65111c96f", "lon": -77.02823066666667, "bike_id": "8015d3e14ea13100c4b2ffb65111c96f", "lat": 38.92237333333333}, {"fusion_lon": 0.0, "fusion_lat": 0.0, "rental_uris": {"android": "https://dc.lft.to/lastmile_qr_scan", "ios": "https://dc.lft.to/lastmile_qr_scan"}, "is_disabled": 0, "type": "electric_bike", "is_reserved": 0, "name": "6fd6facfdf5503a1c7cf755fbfd7f1e3", "lon": -76.99414233333333, "bike_id": "6fd6facfdf5503a1c7cf755fbfd7f1e3", "lat": 38.9210055}, {"fusion_lon": 0.0, "fusion_lat": 0.0, "rental_uris": {"android": "https://dc.lft.to/lastmile_qr_scan", "ios": "https://dc.lft.to/lastmile_qr_scan"}, "is_disabled": 0, "type": "electric_scooter", "is_reserved": 0, "name": "655a604f4e92f2f038301429c02ee883", "lon": -77.03084316666667, "bike_id": "655a604f4e92f2f038301429c02ee883", "lat": 38.932724666666665}, {"fusion_lon": 0.0, "fusion_lat": 0.0, "rental_uris": {"android": "https://dc.lft.to/lastmile_qr_scan", "ios": "https://dc.lft.to/lastmile_qr_scan"}, "is_disabled": 0, "type": "electric_scooter", "is_reserved": 0, "name": "08245c25be5c539dffd5ff4629f6b687", "lon": -77.0122485, "bike_id": "08245c25be5c539dffd5ff4629f6b687", "lat": 38.900120333333334}, {"fusion_lon": 0.0, "fusion_lat": 0.0, "rental_uris": {"android": "https://dc.lft.to/lastmile_qr_scan", "ios": "https://dc.lft.to/lastmile_qr_scan"}, "is_disabled": 0, "type": "electric_scooter", "is_reserved": 0, "name": "3fc021adcfe45810980df130a5452b8a", "lon": -77.01921666666667, "bike_id": "3fc021adcfe45810980df130a5452b8a", "lat": 38.92174283333333}, {"fusion_lon": 0.0, "fusion_lat": 0.0, "rental_uris": {"android": "https://dc.lft.to/lastmile_qr_scan", "ios": "https://dc.lft.to/lastmile_qr_scan"}, "is_disabled": 0, "type": "electric_scooter", "is_reserved": 0, "name": "a4fbe1faaad0494e3aeac8176df58839", "lon": -77.0211925, "bike_id": "a4fbe1faaad0494e3aeac8176df58839", "lat": 38.917362833333335}, {"fusion_lon": 0.0, "fusion_lat": 0.0, "rental_uris": {"android": "https://dc.lft.to/lastmile_qr_scan", "ios": "https://dc.lft.to/lastmile_qr_scan"}, "is_disabled": 0, "type": "electric_scooter", "is_reserved": 0, "name": "809746cfa60cfc40ea4c591e75190368", "lon": -77.02935533333333, "bike_id": "809746cfa60cfc40ea4c591e75190368", "lat": 38.94270083333333}, {"fusion_lon": 0.0, "fusion_lat": 0.0, "rental_uris": {"android": "https://dc.lft.to/lastmile_qr_scan", "ios": "https://dc.lft.to/lastmile_qr_scan"}, "is_disabled": 0, "type": "electric_scooter", "is_reserved": 0, "name": "deaa394b392832a48956bad30e7be82a", "lon": -77.0348905, "bike_id": "deaa394b392832a48956bad30e7be82a", "lat": 38.90123333333333}, {"fusion_lon": 0.0, "fusion_lat": 0.0, "rental_uris": {"android": "https://dc.lft.to/lastmile_qr_scan", "ios": "https://dc.lft.to/lastmile_qr_scan"}, "is_disabled": 0, "type": "electric_scooter", "is_reserved": 0, "name": "76606499178043434837dfdf0d64993b", "lon": -76.9939675, "bike_id": "76606499178043434837dfdf0d64993b", "lat": 38.876360166666664}, {"fusion_lon": 0.0, "fusion_lat": 0.0, "rental_uris": {"android": "https://dc.lft.to/lastmile_qr_scan", "ios": "https://dc.lft.to/lastmile_qr_scan"}, "is_disabled": 0, "type": "electric_scooter", "is_reserved": 0, "name": "7b440f698c31682a0da971ebc6c229b5", "lon": -77.03355366666666, "bike_id": "7b440f698c31682a0da971ebc6c229b5", "lat": 38.909532666666664}, {"fusion_lon": 0.0, "fusion_lat": 0.0, "rental_uris": {"android": "https://dc.lft.to/lastmile_qr_scan", "ios": "https://dc.lft.to/lastmile_qr_scan"}, "is_disabled": 0, "type": "electric_scooter", "is_reserved": 0, "name": "0167e6f110c0a09bd5ff9ba805eefd8e", "lon": -77.02189766666666, "bike_id": "0167e6f110c0a09bd5ff9ba805eefd8e", "lat": 38.91504183333333}, {"fusion_lon": 0.0, "fusion_lat": 0.0, "rental_uris": {"android": "https://dc.lft.to/lastmile_qr_scan", "ios": "https://dc.lft.to/lastmile_qr_scan"}, "is_disabled": 0, "type": "electric_scooter", "is_reserved": 0, "name": "a701afc060328a8fcfc42c9ef6900416", "lon": -77.02439216666667, "bike_id": "a701afc060328a8fcfc42c9ef6900416", "lat": 38.918209}, {"fusion_lon": 0.0, "fusion_lat": 0.0, "rental_uris": {"android": "https://dc.lft.to/lastmile_qr_scan", "ios": "https://dc.lft.to/lastmile_qr_scan"}, "is_disabled": 0, "type": "electric_scooter", "is_reserved": 0, "name": "f16ca9121ce3f2b98e9b7278e8556257", "lon": -77.070202, "bike_id": "f16ca9121ce3f2b98e9b7278e8556257", "lat": 38.905879666666664}, {"fusion_lon": 0.0, "fusion_lat": 0.0, "rental_uris": {"android": "https://dc.lft.to/lastmile_qr_scan", "ios": "https://dc.lft.to/lastmile_qr_scan"}, "is_disabled": 0, "type": "electric_bike", "is_reserved": 0, "name": "13e36e8287944c93ac64e9a19b8e1ac8", "lon": -76.9075335, "bike_id": "13e36e8287944c93ac64e9a19b8e1ac8", "lat": 38.896169}, {"fusion_lon": 0.0, "fusion_lat": 0.0, "rental_uris": {"android": "https://dc.lft.to/lastmile_qr_scan", "ios": "https://dc.lft.to/lastmile_qr_scan"}, "is_disabled": 0, "type": "electric_scooter", "is_reserved": 0, "name": "ad87b414abdf996f9f10ee1714ee4097", "lon": -77.02224166666667, "bike_id": "ad87b414abdf996f9f10ee1714ee4097", "lat": 38.9015745}, {"fusion_lon": 0.0, "fusion_lat": 0.0, "rental_uris": {"android": "https://dc.lft.to/lastmile_qr_scan", "ios": "https://dc.lft.to/lastmile_qr_scan"}, "is_disabled": 0, "type": "electric_scooter", "is_reserved": 0, "name": "22f546d7c04a38f7d52c891ba9049b4a", "lon": -77.0266935, "bike_id": "22f546d7c04a38f7d52c891ba9049b4a", "lat": 38.8945685}, {"fusion_lon": 0.0, "fusion_lat": 0.0, "rental_uris": {"android": "https://dc.lft.to/lastmile_qr_scan", "ios": "https://dc.lft.to/lastmile_qr_scan"}, "is_disabled": 0, "type": "electric_scooter", "is_reserved": 0, "name": "0d27cfdabe05fdda6b5a0b43fa2171f3", "lon": -77.0201, "bike_id": "0d27cfdabe05fdda6b5a0b43fa2171f3", "lat": 38.92407033333333}, {"fusion_lon": 0.0, "fusion_lat": 0.0, "rental_uris": {"android": "https://dc.lft.to/lastmile_qr_scan", "ios": "https://dc.lft.to/lastmile_qr_scan"}, "is_disabled": 0, "type": "electric_scooter", "is_reserved": 0, "name": "9e8fba4cd703220561efb02702733575", "lon": -76.92439, "bike_id": "9e8fba4cd703220561efb02702733575", "lat": 38.885163}, {"fusion_lon": 0.0, "fusion_lat": 0.0, "rental_uris": {"android": "https://dc.lft.to/lastmile_qr_scan", "ios": "https://dc.lft.to/lastmile_qr_scan"}, "is_disabled": 0, "type": "electric_scooter", "is_reserved": 0, "name": "664d55f1e5ce6799203a89bd3035999f", "lon": -77.0265255, "bike_id": "664d55f1e5ce6799203a89bd3035999f", "lat": 38.89973366666667}, {"fusion_lon": 0.0, "fusion_lat": 0.0, "rental_uris": {"android": "https://dc.lft.to/lastmile_qr_scan", "ios": "https://dc.lft.to/lastmile_qr_scan"}, "is_disabled": 0, "type": "electric_scooter", "is_reserved": 0, "name": "080ffdc8a5ed94cbd28d837faa6107e9", "lon": -77.0215405, "bike_id": "080ffdc8a5ed94cbd28d837faa6107e9", "lat": 38.87925333333333}, {"fusion_lon": 0.0, "fusion_lat": 0.0, "rental_uris": {"android": "https://dc.lft.to/lastmile_qr_scan", "ios": "https://dc.lft.to/lastmile_qr_scan"}, "is_disabled": 0, "type": "electric_scooter", "is_reserved": 0, "name": "8198265dff1ed3255996ce3cd196112b", "lon": -77.02707416666667, "bike_id": "8198265dff1ed3255996ce3cd196112b", "lat": 38.91772733333333}, {"fusion_lon": 0.0, "fusion_lat": 0.0, "rental_uris": {"android": "https://dc.lft.to/lastmile_qr_scan", "ios": "https://dc.lft.to/lastmile_qr_scan"}, "is_disabled": 0, "type": "electric_scooter", "is_reserved": 0, "name": "94423d6e81af6552e16d66dbbe492d75", "lon": -77.0136795, "bike_id": "94423d6e81af6552e16d66dbbe492d75", "lat": 38.913279833333334}, {"fusion_lon": 0.0, "fusion_lat": 0.0, "rental_uris": {"android": "https://dc.lft.to/lastmile_qr_scan", "ios": "https://dc.lft.to/lastmile_qr_scan"}, "is_disabled": 0, "type": "electric_scooter", "is_reserved": 0, "name": "3f0a04258f36fd97779c1f97b05d2b21", "lon": -77.02974766666667, "bike_id": "3f0a04258f36fd97779c1f97b05d2b21", "lat": 38.94357266666667}, {"fusion_lon": 0.0, "fusion_lat": 0.0, "rental_uris": {"android": "https://dc.lft.to/lastmile_qr_scan", "ios": "https://dc.lft.to/lastmile_qr_scan"}, "is_disabled": 0, "type": "electric_scooter", "is_reserved": 0, "name": "7ca222881c47d6d22b4f53b733493853", "lon": -76.984855, "bike_id": "7ca222881c47d6d22b4f53b733493853", "lat": 38.92028666666667}, {"fusion_lon": 0.0, "fusion_lat": 0.0, "rental_uris": {"android": "https://dc.lft.to/lastmile_qr_scan", "ios": "https://dc.lft.to/lastmile_qr_scan"}, "is_disabled": 0, "type": "electric_scooter", "is_reserved": 0, "name": "b3bb296b44e57e71a1b0b75dff2ed7ec", "lon": -77.06395233333333, "bike_id": "b3bb296b44e57e71a1b0b75dff2ed7ec", "lat": 38.90686383333333}, {"fusion_lon": 0.0, "fusion_lat": 0.0, "rental_uris": {"android": "https://dc.lft.to/lastmile_qr_scan", "ios": "https://dc.lft.to/lastmile_qr_scan"}, "is_disabled": 0, "type": "electric_scooter", "is_reserved": 0, "name": "b5e489b8884c1ca678f39651abd38cb9", "lon": -77.040061, "bike_id": "b5e489b8884c1ca678f39651abd38cb9", "lat": 38.91689866666667}, {"fusion_lon": 0.0, "fusion_lat": 0.0, "rental_uris": {"android": "https://dc.lft.to/lastmile_qr_scan", "ios": "https://dc.lft.to/lastmile_qr_scan"}, "is_disabled": 0, "type": "electric_scooter", "is_reserved": 0, "name": "3189818d262f8a293363e49725165484", "lon": -76.99830716666666, "bike_id": "3189818d262f8a293363e49725165484", "lat": 38.9036655}, {"fusion_lon": 0.0, "fusion_lat": 0.0, "rental_uris": {"android": "https://dc.lft.to/lastmile_qr_scan", "ios": "https://dc.lft.to/lastmile_qr_scan"}, "is_disabled": 0, "type": "electric_scooter", "is_reserved": 0, "name": "c763c9fbeb5355c8c3b404cd61ac4900", "lon": -77.02283383333334, "bike_id": "c763c9fbeb5355c8c3b404cd61ac4900", "lat": 38.908713}, {"fusion_lon": 0.0, "fusion_lat": 0.0, "rental_uris": {"android": "https://dc.lft.to/lastmile_qr_scan", "ios": "https://dc.lft.to/lastmile_qr_scan"}, "is_disabled": 0, "type": "electric_scooter", "is_reserved": 0, "name": "4e6280a9f6e56edc301f38ac4ab92b9b", "lon": -77.04719433333334, "bike_id": "4e6280a9f6e56edc301f38ac4ab92b9b", "lat": 38.89954783333334}, {"fusion_lon": 0.0, "fusion_lat": 0.0, "rental_uris": {"android": "https://dc.lft.to/lastmile_qr_scan", "ios": "https://dc.lft.to/lastmile_qr_scan"}, "is_disabled": 0, "type": "electric_scooter", "is_reserved": 0, "name": "8d78c055d5e51b192e177394a41fac77", "lon": -77.02484383333334, "bike_id": "8d78c055d5e51b192e177394a41fac77", "lat": 38.918120333333334}, {"fusion_lon": 0.0, "fusion_lat": 0.0, "rental_uris": {"android": "https://dc.lft.to/lastmile_qr_scan", "ios": "https://dc.lft.to/lastmile_qr_scan"}, "is_disabled": 0, "type": "electric_scooter", "is_reserved": 0, "name": "09c9c6cddef036f80dfa2381951f8f9f", "lon": -77.00920183333334, "bike_id": "09c9c6cddef036f80dfa2381951f8f9f", "lat": 38.9233785}, {"fusion_lon": 0.0, "fusion_lat": 0.0, "rental_uris": {"android": "https://dc.lft.to/lastmile_qr_scan", "ios": "https://dc.lft.to/lastmile_qr_scan"}, "is_disabled": 0, "type": "electric_scooter", "is_reserved": 0, "name": "d51ed65de93d11c8f8f0ae87674c954b", "lon": -77.02211383333334, "bike_id": "d51ed65de93d11c8f8f0ae87674c954b", "lat": 38.8971405}, {"fusion_lon": 0.0, "fusion_lat": 0.0, "rental_uris": {"android": "https://dc.lft.to/lastmile_qr_scan", "ios": "https://dc.lft.to/lastmile_qr_scan"}, "is_disabled": 0, "type": "electric_scooter", "is_reserved": 0, "name": "a5ed3e264427e41e01bfe5a7ed525191", "lon": -77.045978, "bike_id": "a5ed3e264427e41e01bfe5a7ed525191", "lat": 38.90258866666667}, {"fusion_lon": 0.0, "fusion_lat": 0.0, "rental_uris": {"android": "https://dc.lft.to/lastmile_qr_scan", "ios": "https://dc.lft.to/lastmile_qr_scan"}, "is_disabled": 0, "type": "electric_scooter", "is_reserved": 0, "name": "44e23214093124a3a92a1f16aa90c7d6", "lon": -77.019104, "bike_id": "44e23214093124a3a92a1f16aa90c7d6", "lat": 38.923060666666665}, {"fusion_lon": 0.0, "fusion_lat": 0.0, "rental_uris": {"android": "https://dc.lft.to/lastmile_qr_scan", "ios": "https://dc.lft.to/lastmile_qr_scan"}, "is_disabled": 0, "type": "electric_bike", "is_reserved": 0, "name": "ba385d3380f60cb378c6deba7d4c0088", "lon": -76.99836116666667, "bike_id": "ba385d3380f60cb378c6deba7d4c0088", "lat": 38.8390835}, {"fusion_lon": 0.0, "fusion_lat": 0.0, "rental_uris": {"android": "https://dc.lft.to/lastmile_qr_scan", "ios": "https://dc.lft.to/lastmile_qr_scan"}, "is_disabled": 0, "type": "electric_scooter", "is_reserved": 0, "name": "66a8b2449deb961caf2bc14e8cfc47c4", "lon": -77.04173616666667, "bike_id": "66a8b2449deb961caf2bc14e8cfc47c4", "lat": 38.91860066666667}, {"fusion_lon": 0.0, "fusion_lat": 0.0, "rental_uris": {"android": "https://dc.lft.to/lastmile_qr_scan", "ios": "https://dc.lft.to/lastmile_qr_scan"}, "is_disabled": 0, "type": "electric_bike", "is_reserved": 0, "name": "45d3f5640b836ca7de04c08678be84eb", "lon": -76.99994833333334, "bike_id": "45d3f5640b836ca7de04c08678be84eb", "lat": 38.9180345}, {"fusion_lon": 0.0, "fusion_lat": 0.0, "rental_uris": {"android": "https://dc.lft.to/lastmile_qr_scan", "ios": "https://dc.lft.to/lastmile_qr_scan"}, "is_disabled": 0, "type": "electric_scooter", "is_reserved": 0, "name": "cabefe9e40806cc26216dfa36270f66e", "lon": -77.0839255, "bike_id": "cabefe9e40806cc26216dfa36270f66e", "lat": 38.94029916666667}, {"fusion_lon": 0.0, "fusion_lat": 0.0, "rental_uris": {"android": "https://dc.lft.to/lastmile_qr_scan", "ios": "https://dc.lft.to/lastmile_qr_scan"}, "is_disabled": 0, "type": "electric_scooter", "is_reserved": 0, "name": "5cd371634749720f1bd2f40383b3e087", "lon": -77.02530616666667, "bike_id": "5cd371634749720f1bd2f40383b3e087", "lat": 38.9412715}, {"fusion_lon": 0.0, "fusion_lat": 0.0, "rental_uris": {"android": "https://dc.lft.to/lastmile_qr_scan", "ios": "https://dc.lft.to/lastmile_qr_scan"}, "is_disabled": 0, "type": "electric_scooter", "is_reserved": 0, "name": "e44a5d31cabc45bce889c181feaea3a2", "lon": -77.0036575, "bike_id": "e44a5d31cabc45bce889c181feaea3a2", "lat": 38.9072595}, {"fusion_lon": 0.0, "fusion_lat": 0.0, "rental_uris": {"android": "https://dc.lft.to/lastmile_qr_scan", "ios": "https://dc.lft.to/lastmile_qr_scan"}, "is_disabled": 0, "type": "electric_scooter", "is_reserved": 0, "name": "17cff08f04669b7e5cc3635b2ce8a1fe", "lon": -77.02387083333333, "bike_id": "17cff08f04669b7e5cc3635b2ce8a1fe", "lat": 38.903383}, {"fusion_lon": 0.0, "fusion_lat": 0.0, "rental_uris": {"android": "https://dc.lft.to/lastmile_qr_scan", "ios": "https://dc.lft.to/lastmile_qr_scan"}, "is_disabled": 0, "type": "electric_scooter", "is_reserved": 0, "name": "7d073fbca078307b54293c2a7c8bcb45", "lon": -77.00579916666666, "bike_id": "7d073fbca078307b54293c2a7c8bcb45", "lat": 38.8754515}, {"fusion_lon": 0.0, "fusion_lat": 0.0, "rental_uris": {"android": "https://dc.lft.to/lastmile_qr_scan", "ios": "https://dc.lft.to/lastmile_qr_scan"}, "is_disabled": 0, "type": "electric_bike", "is_reserved": 0, "name": "d31ceeff9bfcc09e17814ad1b619009f", "lon": -76.97325516666666, "bike_id": "d31ceeff9bfcc09e17814ad1b619009f", "lat": 38.86502216666667}, {"fusion_lon": 0.0, "fusion_lat": 0.0, "rental_uris": {"android": "https://dc.lft.to/lastmile_qr_scan", "ios": "https://dc.lft.to/lastmile_qr_scan"}, "is_disabled": 0, "type": "electric_scooter", "is_reserved": 0, "name": "6073bf27b151cbb5f6820d6a8b9ead2d", "lon": -77.044753, "bike_id": "6073bf27b151cbb5f6820d6a8b9ead2d", "lat": 38.9111215}, {"fusion_lon": 0.0, "fusion_lat": 0.0, "rental_uris": {"android": "https://dc.lft.to/lastmile_qr_scan", "ios": "https://dc.lft.to/lastmile_qr_scan"}, "is_disabled": 0, "type": "electric_scooter", "is_reserved": 0, "name": "cc20849caf14d8545dc05179a2bed6cd", "lon": -77.032487, "bike_id": "cc20849caf14d8545dc05179a2bed6cd", "lat": 38.927785}, {"fusion_lon": 0.0, "fusion_lat": 0.0, "rental_uris": {"android": "https://dc.lft.to/lastmile_qr_scan", "ios": "https://dc.lft.to/lastmile_qr_scan"}, "is_disabled": 0, "type": "electric_scooter", "is_reserved": 0, "name": "7c3f160975e3a2d35d2829f6a6cb8d5f", "lon": -76.97804066666667, "bike_id": "7c3f160975e3a2d35d2829f6a6cb8d5f", "lat": 38.92032783333333}, {"fusion_lon": 0.0, "fusion_lat": 0.0, "rental_uris": {"android": "https://dc.lft.to/lastmile_qr_scan", "ios": "https://dc.lft.to/lastmile_qr_scan"}, "is_disabled": 0, "type": "electric_scooter", "is_reserved": 0, "name": "4413e7078f31f137b8182c677a86508c", "lon": -77.02162583333333, "bike_id": "4413e7078f31f137b8182c677a86508c", "lat": 38.926081333333336}, {"fusion_lon": 0.0, "fusion_lat": 0.0, "rental_uris": {"android": "https://dc.lft.to/lastmile_qr_scan", "ios": "https://dc.lft.to/lastmile_qr_scan"}, "is_disabled": 0, "type": "electric_scooter", "is_reserved": 0, "name": "087d15b6c8d60197b94f21a6c095e55f", "lon": -77.0320235, "bike_id": "087d15b6c8d60197b94f21a6c095e55f", "lat": 38.903642833333336}, {"fusion_lon": 0.0, "fusion_lat": 0.0, "rental_uris": {"android": "https://dc.lft.to/lastmile_qr_scan", "ios": "https://dc.lft.to/lastmile_qr_scan"}, "is_disabled": 0, "type": "electric_bike", "is_reserved": 0, "name": "53fdd68757911dd019156785911f2212", "lon": -76.98210216666666, "bike_id": "53fdd68757911dd019156785911f2212", "lat": 38.98507333333333},