{"data": {"bikes": [{"name": "4ec2e852e8e5712a5fa97c710eace55c", "fusion_lat": 0.0, "type": "electric_scooter", "lat": 38.9248325, "is_reserved": 0, "is_disabled": 0, "fusion_lon": 0.0, "bike_id": "4ec2e852e8e5712a5fa97c710eace55c", "lon": -77.0392445, "rental_uris": {"ios": "https://dc.lft.to/lastmile_qr_scan", "android": "https://dc.lft.to/lastmile_qr_scan"}}, {"name": "0f22a5d216b924f9a9074555c2c47c8d", "fusion_lat": 0.0, "type": "electric_scooter", "lat": 38.90116733333333, "is_reserved": 0, "is_disabled": 0, "fusion_lon": 0.0, "bike_id": "0f22a5d216b924f9a9074555c2c47c8d", "lon": -77.02998983333333, "rental_uris": {"ios": "https://dc.lft.to/lastmile_qr_scan", "android": "https://dc.lft.to/lastmile_qr_scan"}}, {"name": "84404b378a3861c17c1cdc5f0be09303", "fusion_lat": 0.0, "type": "electric_scooter", "lat": 38.9161995, "is_reserved": 0, "is_disabled": 0, "fusion_lon": 0.0, "bike_id": "84404b378a3861c17c1cdc5f0be09303", "lon": -77.04280866666667, "rental_uris": {"ios": "https://dc.lft.to/lastmile_qr_scan", "android": "https://dc.lft.to/lastmile_qr_scan"}}, {"name": "8bee075d92f0da7316a1f92a1da6c137", "fusion_lat": 0.0, "type": "electric_scooter", "lat": 38.92566133333333, "is_reserved": 0, "is_disabled": 0, "fusion_lon": 0.0, "bike_id": "8bee075d92f0da7316a1f92a1da6c137", "lon": -77.02850516666666, "rental_uris": {"ios": "https://dc.lft.to/lastmile_qr_scan", "android": "https://dc.lft.to/lastmile_qr_scan"}}, {"name": "bbed329d539975629462ca9f83bf9bd9", "fusion_lat": 0.0, "type": "electric_scooter", "lat": 38.899736, "is_reserved": 0, "is_disabled": 0, "fusion_lon": 0.0, "bike_id": "bbed329d539975629462ca9f83bf9bd9", "lon": -77.029477, "rental_uris": {"ios": "https://dc.lft.to/lastmile_qr_scan", "android": "https://dc.lft.to/lastmile_qr_scan"}}, {"name": "7929bd18e4e1bd3db4d9cc577a9d5e7c", "fusion_lat": 0.0, "type": "electric_scooter", "lat": 38.9123795, "is_reserved": 0, "is_disabled": 0, "fusion_lon": 0.0, "bike_id": "7929bd18e4e1bd3db4d9cc577a9d5e7c", "lon": -77.0091685, "rental_uris": {"ios": "https://dc.lft.to/lastmile_qr_scan", "android": "https://dc.lft.to/lastmile_qr_scan"}}, {"name": "4859564e4b1545377581a73c6c43419a", "fusion_lat": 0.0, "type": "electric_scooter", "lat": 38.90279366666667, "is_reserved": 0, "is_disabled": 0, "fusion_lon": 0.0, "bike_id": "4859564e4b1545377581a73c6c43419a", "lon": -76.99863166666667, "rental_uris": {"ios": "https://dc.lft.to/lastmile_qr_scan", "android": "https://dc.lft.to/lastmile_qr_scan"}}, {"name": "4a77ad5fa0bd3c81a8e5b9de5a74a210", "fusion_lat": 0.0, "type": "electric_scooter", "lat": 38.907100666666665, "is_reserved": 0, "is_disabled": 0, "fusion_lon": 0.0, "bike_id": "4a77ad5fa0bd3c81a8e5b9de5a74a210", "lon": -77.04164683333333, "rental_uris": {"ios": "https://dc.lft.to/lastmile_qr_scan", "android": "https://dc.lft.to/lastmile_qr_scan"}}, {"name": "3c3649255077fc8d69fdc218bf88d1ff", "fusion_lat": 0.0, "type": "electric_bike", "lat": 38.9649315, "is_reserved": 0, "is_disabled": 0, "fusion_lon": 0.0, "bike_id": "3c3649255077fc8d69fdc218bf88d1ff", "lon": -77.064896, "rental_uris": {"ios": "https://dc.lft.to/lastmile_qr_scan", "android": "https://dc.lft.to/lastmile_qr_scan"}}, {"name": "ccec213bd10b349335f48d8ec61e9cf6", "fusion_lat": 0.0, "type": "electric_scooter", "lat": 38.90576133333333, "is_reserved": 0, "is_disabled": 0, "fusion_lon": 0.0, "bike_id": "ccec213bd10b349335f48d8ec61e9cf6", "lon": -77.04452516666667, "rental_uris": {"ios": "https://dc.lft.to/lastmile_qr_scan", "android": "https://dc.lft.to/lastmile_qr_scan"}}, {"name": "72f07a0cda79ceec0ae3d41b0319db11", "fusion_lat": 0.0, "type": "electric_scooter", "lat": 38.91849033333333, "is_reserved": 0, "is_disabled": 0, "fusion_lon": 0.0, "bike_id": "72f07a0cda79ceec0ae3d41b0319db11", "lon": -77.02452316666667, "rental_uris": {"ios": "https://dc.lft.to/lastmile_qr_scan", "android": "https://dc.lft.to/lastmile_qr_scan"}}, {"name": "f00816fbd466b2ce05c6c5a6acb487e9", "fusion_lat": 0.0, "type": "electric_scooter", "lat": 38.89790816666667, "is_reserved": 0, "is_disabled": 0, "fusion_lon": 0.0, "bike_id": "f00816fbd466b2ce05c6c5a6acb487e9", "lon": -76.9442145, "rental_uris": {"ios": "https://dc.lft.to/lastmile_qr_scan", "android": "https://dc.lft.to/lastmile_qr_scan"}}, {"name": "96e0b6d56a40b83cccc1283e58684f06", "fusion_lat": 0.0, "type": "electric_scooter", "lat": 38.907676333333335, "is_reserved": 0, "is_disabled": 0, "fusion_lon": 0.0, "bike_id": "96e0b6d56a40b83cccc1283e58684f06", "lon": -77.069423, "rental_uris": {"ios": "https://dc.lft.to/lastmile_qr_scan", "android": "https://dc.lft.to/lastmile_qr_scan"}}, {"name": "a07bc2787a1da415db07a1b9efdc8cd8", "fusion_lat": 0.0, "type": "electric_scooter", "lat": 38.88703183333333, "is_reserved": 0, "is_disabled": 0, "fusion_lon": 0.0, "bike_id": "a07bc2787a1da415db07a1b9efdc8cd8", "lon": -77.02836733333334, "rental_uris": {"ios": "https://dc.lft.to/lastmile_qr_scan", "android": "https://dc.lft.to/lastmile_qr_scan"}}, {"name": "7c92d5f5a313522142f5342edc2e89ad", "fusion_lat": 0.0, "type": "electric_scooter", "lat": 38.912767333333335, "is_reserved": 0, "is_disabled": 0, "fusion_lon": 0.0, "bike_id": "7c92d5f5a313522142f5342edc2e89ad", "lon": -76.93796316666666, "rental_uris": {"ios": "https://dc.lft.to/lastmile_qr_scan", "android": "https://dc.lft.to/lastmile_qr_scan"}}, {"name": "e84b8b4ede702a2a4ad22b52b8493cd7", "fusion_lat": 0.0, "type": "electric_scooter", "lat": 38.9056655, "is_reserved": 0, "is_disabled": 0, "fusion_lon": 0.0, "bike_id": "e84b8b4ede702a2a4ad22b52b8493cd7", "lon": -77.034479, "rental_uris": {"ios": "https://dc.lft.to/lastmile_qr_scan", "android": "https://dc.lft.to/lastmile_qr_scan"}}, {"name": "f1397a1f901012cac9a4901d2d83b6cf", "fusion_lat": 0.0, "type": "electric_bike", "lat": 38.9304495, "is_reserved": 0, "is_disabled": 0, "fusion_lon": 0.0, "bike_id": "f1397a1f901012cac9a4901d2d83b6cf", "lon": -77.03214066666666, "rental_uris": {"ios": "https://dc.lft.to/lastmile_qr_scan", "android": "https://dc.lft.to/lastmile_qr_scan"}}, {"name": "5c08067a0c43d863d69cf18b04e13345", "fusion_lat": 0.0, "type": "electric_scooter", "lat": 38.9027445, "is_reserved": 0, "is_disabled": 0, "fusion_lon": 0.0, "bike_id": "5c08067a0c43d863d69cf18b04e13345", "lon": -77.04643116666666, "rental_uris": {"ios": "https://dc.lft.to/lastmile_qr_scan", "android": "https://dc.lft.to/lastmile_qr_scan"}}, {"name": "74dd716dacb531ea6da92c722983e35e", "fusion_lat": 0.0, "type": "electric_scooter", "lat": 38.930325833333335, "is_reserved": 0, "is_disabled": 0, "fusion_lon": 0.0, "bike_id": "74dd716dacb531ea6da92c722983e35e", "lon": -77.08362716666667, "rental_uris": {"ios": "https://dc.lft.to/lastmile_qr_scan", "android": "https://dc.lft.to/lastmile_qr_scan"}}, {"name": "bc416c4d225f4d407fab6a6ccc0e4acc", "fusion_lat": 0.0, "type": "electric_bike", "lat": 38.8788625, "is_reserved": 0, "is_disabled": 0, "fusion_lon": 0.0, "bike_id": "bc416c4d225f4d407fab6a6ccc0e4acc", "lon": -77.10911816666666, "rental_uris": {"ios": "https://dc.lft.to/lastmile_qr_scan", "android": "https://dc.lft.to/lastmile_qr_scan"}}, {"name": "b5f45f6fbf4b68595738a5c171ff7790", "fusion_lat": 0.0, "type": "electric_scooter", "lat": 38.89833816666667, "is_reserved": 0, "is_disabled": 0, "fusion_lon": 0.0, "bike_id": "b5f45f6fbf4b68595738a5c171ff7790", "lon": -76.946401, "rental_uris": {"ios": "https://dc.lft.to/lastmile_qr_scan", "android": "https://dc.lft.to/lastmile_qr_scan"}}, {"name": "598f69c40b39e456d55a1dc68534e20b", "fusion_lat": 0.0, "type": "electric_scooter", "lat": 38.9181975, "is_reserved": 0, "is_disabled": 0, "fusion_lon": 0.0, "bike_id": "598f69c40b39e456d55a1dc68534e20b", "lon": -77.03205116666666, "rental_uris": {"ios": "https://dc.lft.to/lastmile_qr_scan", "android": "https://dc.lft.to/lastmile_qr_scan"}}, {"name": "e3d8413177eaeea471448a33a98c213c", "fusion_lat": 0.0, "type": "electric_scooter", "lat": 38.899853, "is_reserved": 0, "is_disabled": 0, "fusion_lon": 0.0, "bike_id": "e3d8413177eaeea471448a33a98c213c", "lon": -77.03931333333334, "rental_uris": {"ios": "https://dc.lft.to/lastmile_qr_scan", "android": "https://dc.lft.to/lastmile_qr_scan"}}, {"name": "3f55bdb0411aa07d465a4a0806255dd1", "fusion_lat": 0.0, "type": "electric_scooter", "lat": 38.926651, "is_reserved": 0, "is_disabled": 0, "fusion_lon": 0.0, "bike_id": "3f55bdb0411aa07d465a4a0806255dd1", "lon": -76.99541583333334, "rental_uris": {"ios": "https://dc.lft.to/lastmile_qr_scan", "android": "https://dc.lft.to/lastmile_qr_scan"}}, {"name": "0a0f686c5b4ea2339f27508b42f9ebe0", "fusion_lat": 0.0, "type": "electric_scooter", "lat": 38.90379216666667, "is_reserved": 0, "is_disabled": 0, "fusion_lon": 0.0, "bike_id": "0a0f686c5b4ea2339f27508b42f9ebe0", "lon": -77.0451895, "rental_uris": {"ios": "https://dc.lft.to/lastmile_qr_scan", "android": "https://dc.lft.to/lastmile_qr_scan"}}, {"name": "d8057f3e348c6038a2e194adf83849b3", "fusion_lat": 0.0, "type": "electric_scooter", "lat": 38.92479683333333, "is_reserved": 0, "is_disabled": 0, "fusion_lon": 0.0, "bike_id": "d8057f3e348c6038a2e194adf83849b3", "lon": -77.02999883333334, "rental_uris": {"ios": "https://dc.lft.to/lastmile_qr_scan", "android": "https://dc.lft.to/lastmile_qr_scan"}}, {"name": "1bab8591d6c5bcb3bd7702f6a077f18b", "fusion_lat": 0.0, "type": "electric_scooter", "lat": 38.938947, "is_reserved": 0, "is_disabled": 0, "fusion_lon": 0.0, "bike_id": "1bab8591d6c5bcb3bd7702f6a077f18b", "lon": -77.0175775, "rental_uris": {"ios": "https://dc.lft.to/lastmile_qr_scan", "android": "https://dc.lft.to/lastmile_qr_scan"}}, {"name": "8e12850955cc51d2ed48cd530753cadf", "fusion_lat": 0.0, "type": "electric_scooter", "lat": 38.925964, "is_reserved": 0, "is_disabled": 0, "fusion_lon": 0.0, "bike_id": "8e12850955cc51d2ed48cd530753cadf", "lon": -77.00855516666667, "rental_uris": {"ios": "https://dc.lft.to/lastmile_qr_scan", "android": "https://dc.lft.to/lastmile_qr_scan"}}, {"name": "68da6f2f7a18f6f0ac75ca63045e1b82", "fusion_lat": 0.0, "type": "electric_scooter", "lat": 38.914157833333334, "is_reserved": 0, "is_disabled": 0, "fusion_lon": 0.0, "bike_id": "68da6f2f7a18f6f0ac75ca63045e1b82", "lon": -77.04501116666667, "rental_uris": {"ios": "https://dc.lft.to/lastmile_qr_scan", "android": "https://dc.lft.to/lastmile_qr_scan"}}, {"name": "d9c0e40824f055a1ae5921c772f21505", "fusion_lat": 0.0, "type": "electric_scooter", "lat": 38.915487666666664, "is_reserved": 0, "is_disabled": 0, "fusion_lon": 0.0, "bike_id": "d9c0e40824f055a1ae5921c772f21505", "lon": -77.0323845, "rental_uris": {"ios": "https://dc.lft.to/lastmile_qr_scan", "android": "https://dc.lft.to/lastmile_qr_scan"}}, {"name": "effc577683854d5f4f754dd3d2ceac3c", "fusion_lat": 0.0, "type": "electric_scooter", "lat": 38.8996655, "is_reserved": 0, "is_disabled": 0, "fusion_lon": 0.0, "bike_id": "effc577683854d5f4f754dd3d2ceac3c", "lon": -77.033507, "rental_uris": {"ios": "https://dc.lft.to/lastmile_qr_scan", "android": "https://dc.lft.to/lastmile_qr_scan"}}, {"name": "dcb2f5e3ffd2f738b7998512898fa5a6", "fusion_lat": 0.0, "type": "electric_scooter", "lat": 38.916596, "is_reserved": 0, "is_disabled": 0, "fusion_lon": 0.0, "bike_id": "dcb2f5e3ffd2f738b7998512898fa5a6", "lon": -77.04194183333334, "rental_uris": {"ios": "https://dc.lft.to/lastmile_qr_scan", "android": "https://dc.lft.to/lastmile_qr_scan"}}, {"name": "51d2ceee528ac56a2aaf9eb25e845b73", "fusion_lat": 0.0, "type": "electric_scooter", "lat": 38.90379683333333, "is_reserved": 0, "is_disabled": 0, "fusion_lon": 0.0, "bike_id": "51d2ceee528ac56a2aaf9eb25e845b73", "lon": -77.027209, "rental_uris": {"ios": "https://dc.lft.to/lastmile_qr_scan", "android": "https://dc.lft.to/lastmile_qr_scan"}}, {"name": "6c58471a58f2aca9f4e176b34e36c2f9", "fusion_lat": 0.0, "type": "electric_scooter", "lat": 38.90288616666667, "is_reserved": 0, "is_disabled": 0, "fusion_lon": 0.0, "bike_id": "6c58471a58f2aca9f4e176b34e36c2f9", "lon": -77.04469316666666, "rental_uris": {"ios": "https://dc.lft.to/lastmile_qr_scan", "android": "https://dc.lft.to/lastmile_qr_scan"}}, {"name": "8c2217bb4378351066c05da496158fa3", "fusion_lat": 0.0, "type": "electric_bike", "lat": 38.843445, "is_reserved": 0, "is_disabled": 0, "fusion_lon": 0.0, "bike_id": "8c2217bb4378351066c05da496158fa3", "lon": -77.064007, "rental_uris": {"ios": "https://dc.lft.to/lastmile_qr_scan", "android": "https://dc.lft.to/lastmile_qr_scan"}}, {"name": "15319f399a407e064b35b82a817d0568", "fusion_lat": 0.0, "type": "electric_scooter", "lat": 38.92752216666667, "is_reserved": 0, "is_disabled": 0, "fusion_lon": 0.0, "bike_id": "15319f399a407e064b35b82a817d0568", "lon": -77.02418516666667, "rental_uris": {"ios": "https://dc.lft.to/lastmile_qr_scan", "android": "https://dc.lft.to/lastmile_qr_scan"}}, {"name": "04d3859ccf8a6cf4326eb617a3de9d6c", "fusion_lat": 0.0, "type": "electric_scooter", "lat": 38.897244, "is_reserved": 0, "is_disabled": 0, "fusion_lon": 0.0, "bike_id": "04d3859ccf8a6cf4326eb617a3de9d6c", "lon": -77.0433695, "rental_uris": {"ios": "https://dc.lft.to/lastmile_qr_scan", "android": "https://dc.lft.to/lastmile_qr_scan"}}, {"name": "d0467390204a20dcfda7b5121f159a89", "fusion_lat": 0.0, "type": "electric_scooter", "lat": 38.88870933333333, "is_reserved": 0, "is_disabled": 0, "fusion_lon": 0.0, "bike_id": "d0467390204a20dcfda7b5121f159a89", "lon": -76.99032783333334, "rental_uris": {"ios": "https://dc.lft.to/lastmile_qr_scan", "android": "https://dc.lft.to/lastmile_qr_scan"}}, {"name": "fe199225536b802d81977516f624cabf", "fusion_lat": 0.0, "type": "electric_bike", "lat": 38.96622033333333, "is_reserved": 0, "is_disabled": 0, "fusion_lon": 0.0, "bike_id": "fe199225536b802d81977516f624cabf", "lon": -76.976673, "rental_uris": {"ios": "https://dc.lft.to/lastmile_qr_scan", "android": "https://dc.lft.to/lastmile_qr_scan"}}, {"name": "e5ed4997a93a7e61bc2267a00924d97e", "fusion_lat": 0.0, "type": "electric_scooter", "lat": 38.934546, "is_reserved": 0, "is_disabled": 0, "fusion_lon": 0.0, "bike_id": "e5ed4997a93a7e61bc2267a00924d97e", "lon": -77.03097766666667, "rental_uris": {"ios": "https://dc.lft.to/lastmile_qr_scan", "android": "https://dc.lft.to/lastmile_qr_scan"}}, {"name": "1e3c95f4a64f10b5a0f504bcd811f2af", "fusion_lat": 0.0, "type": "electric_scooter", "lat": 38.91936716666667, "is_reserved": 0, "is_disabled": 0, "fusion_lon": 0.0, "bike_id": "1e3c95f4a64f10b5a0f504bcd811f2af", "lon": -77.041728, "rental_uris": {"ios": "https://dc.lft.to/lastmile_qr_scan", "android": "https://dc.lft.to/lastmile_qr_scan"}}, {"name": "b6b9904c35f6a50a3ba1352065848dbc", "fusion_lat": 0.0, "type": "electric_scooter", "lat": 38.912563666666664, "is_reserved": 0, "is_disabled": 0, "fusion_lon": 0.0, "bike_id": "b6b9904c35f6a50a3ba1352065848dbc", "lon": -77.00952316666667, "rental_uris": {"ios": "https://dc.lft.to/lastmile_qr_scan", "android": "https://dc.lft.to/lastmile_qr_scan"}}, {"name": "74e4ecf97d936946823ea6cb885b7b14", "fusion_lat": 0.0, "type": "electric_scooter", "lat": 38.883603, "is_reserved": 0, "is_disabled": 0, "fusion_lon": 0.0, "bike_id": "74e4ecf97d936946823ea6cb885b7b14", "lon": -77.03173133333334, "rental_uris": {"ios": "https://dc.lft.to/lastmile_qr_scan", "android": "https://dc.lft.to/lastmile_qr_scan"}}, {"name": "a808c7d3426d4bb586c86762255f013f", "fusion_lat": 0.0, "type": "electric_scooter", "lat": 38.910374166666664, "is_reserved": 0, "is_disabled": 0, "fusion_lon": 0.0, "bike_id": "a808c7d3426d4bb586c86762255f013f", "lon": -77.0379815, "rental_uris": {"ios": "https://dc.lft.to/lastmile_qr_scan", "android": "https://dc.lft.to/lastmile_qr_scan"}}, {"name": "1917d6293a57f528bb428dd4d1b22f0f", "fusion_lat": 0.0, "type": "electric_bike", "lat": 38.893500333333336, "is_reserved": 0, "is_disabled": 0, "fusion_lon": 0.0, "bike_id": "1917d6293a57f528bb428dd4d1b22f0f", "lon": -77.187403, "rental_uris": {"ios": "https://dc.lft.to/lastmile_qr_scan", "android": "https://dc.lft.to/lastmile_qr_scan"}}, {"name": "4d77d3f98d1e061185bd9afdffe3c6ac", "fusion_lat": 0.0, "type": "electric_scooter", "lat": 38.902715, "is_reserved": 0, "is_disabled": 0, "fusion_lon": 0.0, "bike_id": "4d77d3f98d1e061185bd9afdffe3c6ac", "lon": -77.03670566666666, "rental_uris": {"ios": "https://dc.lft.to/lastmile_qr_scan", "android": "https://dc.lft.to/lastmile_qr_scan"}}, {"name": "8dc754f684e8636ed418d73ab1565999", "fusion_lat": 0.0, "type": "electric_scooter", "lat": 38.92817266666667, "is_reserved": 0, "is_disabled": 0, "fusion_lon": 0.0, "bike_id": "8dc754f684e8636ed418d73ab1565999", "lon": -77.013111, "rental_uris": {"ios": "https://dc.lft.to/lastmile_qr_scan", "android": "https://dc.lft.to/lastmile_qr_scan"}}, {"name": "16ea7907711981b110ba5487350d0b0a", "fusion_lat": 0.0, "type": "electric_scooter", "lat": 38.90450233333333, "is_reserved": 0, "is_disabled": 0, "fusion_lon": 0.0, "bike_id": "16ea7907711981b110ba5487350d0b0a", "lon": -77.03456033333333, "rental_uris": {"ios": "https://dc.lft.to/lastmile_qr_scan", "android": "https://dc.lft.to/lastmile_qr_scan"}}, {"name": "4a7a83984abb7ab6dc7c5e77857dac13", "fusion_lat": 0.0, "type": "electric_bike", "lat": 39.03880066666667, "is_reserved": 0, "is_disabled": 0, "fusion_lon": 0.0, "bike_id": "4a7a83984abb7ab6dc7c5e77857dac13", "lon": -76.99040583333333, "rental_uris": {"ios": "https://dc.lft.to/lastmile_qr_scan", "android": "https://dc.lft.to/lastmile_qr_scan"}}, {"name": "c5d92d08fadda33bd5cadb7fcbd9f836", "fusion_lat": 0.0, "type": "electric_scooter", "lat": 38.8919615, "is_reserved": 0, "is_disabled": 0, "fusion_lon": 0.0, "bike_id": "c5d92d08fadda33bd5cadb7fcbd9f836", "lon": -77.03026416666667, "rental_uris": {"ios": "https://dc.lft.to/lastmile_qr_scan", "android": "https://dc.lft.to/lastmile_qr_scan"}}, {"name": "64f54a62e94863122ef3c93da5d62c37", "fusion_lat": 0.0, "type": "electric_scooter", "lat": 38.915975833333334, "is_reserved": 0, "is_disabled": 0, "fusion_lon": 0.0, "bike_id": "64f54a62e94863122ef3c93da5d62c37", "lon": -77.03214766666666, "rental_uris": {"ios": "https://dc.lft.to/lastmile_qr_scan", "android": "https://dc.lft.to/lastmile_qr_scan"}}, {"name": "80a563c1b29816469bfcccca4163ab8d", "fusion_lat": 0.0, "type": "electric_scooter", "lat": 38.89745516666667, "is_reserved": 0, "is_disabled": 0, "fusion_lon": 0.0, "bike_id": "80a563c1b29816469bfcccca4163ab8d", "lon": -77.02020366666666, "rental_uris": {"ios": "https://dc.lft.to/lastmile_qr_scan", "android": "https://dc.lft.to/lastmile_qr_scan"}}, {"name": "c5d4a10c7dcaceea94d261c59167db93", "fusion_lat": 0.0, "type": "electric_scooter", "lat": 38.943959666666665, "is_reserved": 0, "is_disabled": 0, "fusion_lon": 0.0, "bike_id": "c5d4a10c7dcaceea94d261c59167db93", "lon": -77.06335516666667, "rental_uris": {"ios": "https://dc.lft.to/lastmile_qr_scan", "android": "https://dc.lft.to/lastmile_qr_scan"}}, {"name": "282469098c3a7803730baf88dca173ce", "fusion_lat": 0.0, "type": "electric_scooter", "lat": 38.90052433333334, "is_reserved": 0, "is_disabled": 0, "fusion_lon": 0.0, "bike_id": "282469098c3a7803730baf88dca173ce", "lon": -77.00889983333333, "rental_uris": {"ios": "https://dc.lft.to/lastmile_qr_scan", "android": "https://dc.lft.to/lastmile_qr_scan"}}, {"name": "d9762a50139b6e8ef214ef56c8dfb1d4", "fusion_lat": 0.0, "type": "electric_scooter", "lat": 38.902720333333335, "is_reserved": 0, "is_disabled": 0, "fusion_lon": 0.0, "bike_id": "d9762a50139b6e8ef214ef56c8dfb1d4", "lon": -77.0036685, "rental_uris": {"ios": "https://dc.lft.to/lastmile_qr_scan", "android": "https://dc.lft.to/lastmile_qr_scan"}}, {"name": "5e1e85ed93ced7f80b42120c804068db", "fusion_lat": 0.0, "type": "electric_scooter", "lat": 38.907282333333335, "is_reserved": 0, "is_disabled": 0, "fusion_lon": 0.0, "bike_id": "5e1e85ed93ced7f80b42120c804068db", "lon": -76.99776383333334, "rental_uris": {"ios": "https://dc.lft.to/lastmile_qr_scan", "android": "https://dc.lft.to/lastmile_qr_scan"}}, {"name": "f62d4fae1414a6cd4b46eec1f42fc034", "fusion_lat": 0.0, "type": "electric_scooter", "lat": 38.92151766666667, "is_reserved": 0, "is_disabled": 0, "fusion_lon": 0.0, "bike_id": "f62d4fae1414a6cd4b46eec1f42fc034", "lon": -77.03384816666667, "rental_uris": {"ios": "https://dc.lft.to/lastmile_qr_scan", "android": "https://dc.lft.to/lastmile_qr_scan"}}, {"name": "372d485c892b7f77c86b9d89d662271c", "fusion_lat": 0.0, "type": "electric_scooter", "lat": 38.92160166666667, "is_reserved": 0, "is_disabled": 0, "fusion_lon": 0.0, "bike_id": "372d485c892b7f77c86b9d89d662271c", "lon": -77.03379, "rental_uris": {"ios": "https://dc.lft.to/lastmile_qr_scan", "android": "https://dc.lft.to/lastmile_qr_scan"}}, {"name": "83e1fd3f1d26dbefac25b62ae2bd839d", "fusion_lat": 0.0, "type": "electric_scooter", "lat": 38.930903666666666, "is_reserved": 0, "is_disabled": 0, "fusion_lon": 0.0, "bike_id": "83e1fd3f1d26dbefac25b62ae2bd839d", "lon": -77.0248775, "rental_uris": {"ios": "https://dc.lft.to/lastmile_qr_scan", "android": "https://dc.lft.to/lastmile_qr_scan"}}, {"name": "db873eb3ad9a29b655a3935bb9b01b5a", "fusion_lat": 0.0, "type": "electric_scooter", "lat": 38.899969166666665, "is_reserved": 0, "is_disabled": 0, "fusion_lon": 0.0, "bike_id": "db873eb3ad9a29b655a3935bb9b01b5a", "lon": -77.040426, "rental_uris": {"ios": "https://dc.lft.to/lastmile_qr_scan", "android": "https://dc.lft.to/lastmile_qr_scan"}}, {"name": "2e3a02884ce31866ca6fa30b820a14b3", "fusion_lat": 0.0, "type": "electric_scooter", "lat": 38.90965466666667, "is_reserved": 0, "is_disabled": 0, "fusion_lon": 0.0, "bike_id": "2e3a02884ce31866ca6fa30b820a14b3", "lon": -77.048045, "rental_uris": {"ios": "https://dc.lft.to/lastmile_qr_scan", "android": "https://dc.lft.to/lastmile_qr_scan"}}, {"name": "cc11e9873892c2409ea874ca7db8da80", "fusion_lat": 0.0, "type": "electric_scooter", "lat": 38.87705733333333, "is_reserved": 0, "is_disabled": 0, "fusion_lon": 0.0, "bike_id": "cc11e9873892c2409ea874ca7db8da80", "lon": -77.01660566666666, "rental_uris": {"ios": "https://dc.lft.to/lastmile_qr_scan", "android": "https://dc.lft.to/lastmile_qr_scan"}}, {"name": "5929ff8fb7d8290cdc49d4f679fce33e", "fusion_lat": 0.0, "type": "electric_scooter", "lat": 38.9113855, "is_reserved": 0, "is_disabled": 0, "fusion_lon": 0.0, "bike_id": "5929ff8fb7d8290cdc49d4f679fce33e", "lon": -77.04202083333334, "rental_uris": {"ios": "https://dc.lft.to/lastmile_qr_scan", "android": "https://dc.lft.to/lastmile_qr_scan"}}, {"name": "2329ae0b30b1a71c6412bc0b153b5d9f", "fusion_lat": 0.0, "type": "electric_scooter", "lat": 38.933979, "is_reserved": 0, "is_disabled": 0, "fusion_lon": 0.0, "bike_id": "2329ae0b30b1a71c6412bc0b153b5d9f", "lon": -77.0272045, "rental_uris": {"ios": "https://dc.lft.to/lastmile_qr_scan", "android": "https://dc.lft.to/lastmile_qr_scan"}}, {"name": "952c332ca3f9afd4a1d19e7aa524b754", "fusion_lat": 0.0, "type": "electric_scooter", "lat": 38.90276516666667, "is_reserved": 0, "is_disabled": 0, "fusion_lon": 0.0, "bike_id": "952c332ca3f9afd4a1d19e7aa524b754", "lon": -77.0459795, "rental_uris": {"ios": "https://dc.lft.to/lastmile_qr_scan", "android": "https://dc.lft.to/lastmile_qr_scan"}}, {"name": "8eb53c4ec3feb2c9123006065650e62b", "fusion_lat": 0.0, "type": "electric_scooter", "lat": 38.880357333333336, "is_reserved": 0, "is_disabled": 0, "fusion_lon": 0.0, "bike_id": "8eb53c4ec3feb2c9123006065650e62b", "lon": -76.927249, "rental_uris": {"ios": "https://dc.lft.to/lastmile_qr_scan", "android": "https://dc.lft.to/lastmile_qr_scan"}}, {"name": "05c5cae2055678b4c266f589568e2fd1", "fusion_lat": 0.0, "type": "electric_scooter", "lat": 38.90496483333333, "is_reserved": 0, "is_disabled": 0, "fusion_lon": 0.0, "bike_id": "05c5cae2055678b4c266f589568e2fd1", "lon": -77.0434485, "rental_uris": {"ios": "https://dc.lft.to/lastmile_qr_scan", "android": "https://dc.lft.to/lastmile_qr_scan"}}, {"name": "de6dda52139cc585bc635f5649ad2bc6", "fusion_lat": 0.0, "type": "electric_bike", "lat": 38.8804265, "is_reserved": 0, "is_disabled": 0, "fusion_lon": 0.0, "bike_id": "de6dda52139cc585bc635f5649ad2bc6", "lon": -77.0131975, "rental_uris": {"ios": "https://dc.lft.to/lastmile_qr_scan", "android": "https://dc.lft.to/lastmile_qr_scan"}}, {"name": "93c3d30f93eb6b25c26770d704adb5eb", "fusion_lat": 0.0, "type": "electric_scooter", "lat": 38.90624616666667, "is_reserved": 0, "is_disabled": 0, "fusion_lon": 0.0, "bike_id": "93c3d30f93eb6b25c26770d704adb5eb", "lon": -77.0367315, "rental_uris": {"ios": "https://dc.lft.to/lastmile_qr_scan", "android": "https://dc.lft.to/lastmile_qr_scan"}}, {"name": "cdcce30eb5bc220bb886c9c3c5f8a85d", "fusion_lat": 0.0, "type": "electric_scooter", "lat": 38.91411683333333, "is_reserved": 0, "is_disabled": 0, "fusion_lon": 0.0, "bike_id": "cdcce30eb5bc220bb886c9c3c5f8a85d", "lon": -77.04565466666666, "rental_uris": {"ios": "https://dc.lft.to/lastmile_qr_scan", "android": "https://dc.lft.to/lastmile_qr_scan"}}, {"name": "fbca283ea69e00fb3cdf90dd5f27436f", "fusion_lat": 0.0, "type": "electric_bike", "lat": 38.9751315, "is_reserved": 0, "is_disabled": 0, "fusion_lon": 0.0, "bike_id": "fbca283ea69e00fb3cdf90dd5f27436f", "lon": -77.0173985, "rental_uris": {"ios": "https://dc.lft.to/lastmile_qr_scan", "android": "https://dc.lft.to/lastmile_qr_scan"}}, {"name": "03f045ed7b6f15a80f0be784947aa754", "fusion_lat": 0.0, "type": "electric_bike", "lat": 38.85226183333333, "is_reserved": 0, "is_disabled": 0, "fusion_lon": 0.0, "bike_id": "03f045ed7b6f15a80f0be784947aa754", "lon": -77.10335766666667, "rental_uris": {"ios": "https://dc.lft.to/lastmile_qr_scan", "android": "https://dc.lft.to/lastmile_qr_scan"}}, {"name": "8c5feb35040e6b930d1c6edbe5bec933", "fusion_lat": 0.0, "type": "electric_scooter", "lat": 38.90721716666667, "is_reserved": 0, "is_disabled": 0, "fusion_lon": 0.0, "bike_id": "8c5feb35040e6b930d1c6edbe5bec933", "lon": -77.04506266666667, "rental_uris": {"ios": "https://dc.lft.to/lastmile_qr_scan", "android": "https://dc.lft.to/lastmile_qr_scan"}}, {"name": "567ef63be88e823b4d910ade0df3ae04", "fusion_lat": 0.0, "type": "electric_scooter", "lat": 38.905691166666664, "is_reserved": 0, "is_disabled": 0, "fusion_lon": 0.0, "bike_id": "567ef63be88e823b4d910ade0df3ae04", "lon": -77.00603133333334, "rental_uris": {"ios": "https://dc.lft.to/lastmile_qr_scan", "android": "https://dc.lft.to/lastmile_qr_scan"}}, {"name": "7094448499f347ecabad88ee9c31553a", "fusion_lat": 0.0, "type": "electric_scooter", "lat": 38.934624166666666, "is_reserved": 0, "is_disabled": 0, "fusion_lon": 0.0, "bike_id": "7094448499f347ecabad88ee9c31553a", "lon": -77.02851733333334, "rental_uris": {"ios": "https://dc.lft.to/lastmile_qr_scan", "android": "https://dc.lft.to/lastmile_qr_scan"}}, {"name": "37016fc01f8ee1017922f7a702999652", "fusion_lat": 0.0, "type": "electric_scooter", "lat": 38.917972, "is_reserved": 0, "is_disabled": 0, "fusion_lon": 0.0, "bike_id": "37016fc01f8ee1017922f7a702999652", "lon": -77.04011366666667, "rental_uris": {"ios": "https://dc.lft.to/lastmile_qr_scan", "android": "https://dc.lft.to/lastmile_qr_scan"}}, {"name": "8c79afd93e359f0c2dbc3b9a55c7b046", "fusion_lat": 0.0, "type": "electric_scooter", "lat": 38.91710333333333, "is_reserved": 0, "is_disabled": 0, "fusion_lon": 0.0, "bike_id": "8c79afd93e359f0c2dbc3b9a55c7b046", "lon": -77.03143983333334, "rental_uris": {"ios": "https://dc.lft.to/lastmile_qr_scan", "android": "https://dc.lft.to/lastmile_qr_scan"}}, {"name": "159b506dcd7ad23b9d0f60381200fbac", "fusion_lat": 0.0, "type": "electric_scooter", "lat": 38.9195935, "is_reserved": 0, "is_disabled": 0, "fusion_lon": 0.0, "bike_id": "159b506dcd7ad23b9d0f60381200fbac", "lon": -77.02513283333333, "rental_uris": {"ios": "https://dc.lft.to/lastmile_qr_scan", "android": "https://dc.lft.to/lastmile_qr_scan"}}, {"name": "2f948c126126b0f8cd35bd3fd9d9432d", "fusion_lat": 0.0, "type": "electric_scooter", "lat": 38.97502933333333, "is_reserved": 0, "is_disabled": 0, "fusion_lon": 0.0, "bike_id": "2f948c126126b0f8cd35bd3fd9d9432d", "lon": -77.01723666666666, "rental_uris": {"ios": "https://dc.lft.to/lastmile_qr_scan", "android": "https://dc.lft.to/lastmile_qr_scan"}}, {"name": "c544ffc7e4b8ef939230f4f081338040", "fusion_lat": 0.0, "type": "electric_scooter", "lat": 38.912694, "is_reserved": 0, "is_disabled": 0, "fusion_lon": 0.0, "bike_id": "c544ffc7e4b8ef939230f4f081338040", "lon": -77.03863466666667, "rental_uris": {"ios": "https://dc.lft.to/lastmile_qr_scan", "android": "https://dc.lft.to/lastmile_qr_scan"}}, {"name": "2a499c267feba45399abb70e75201ced", "fusion_lat": 0.0, "type": "electric_bike", "lat": 38.8524335, "is_reserved": 0, "is_disabled": 0, "fusion_lon": 0.0, "bike_id": "2a499c267feba45399abb70e75201ced", "lon": -77.11429166666667, "rental_uris": {"ios": "https://dc.lft.to/lastmile_qr_scan", "android": "https://dc.lft.to/lastmile_qr_scan"}}, {"name": "b162d57c0a1b2e034be44e02e2725222", "fusion_lat": 0.0, "type": "electric_scooter", "lat": 38.9183075, "is_reserved": 0, "is_disabled": 0, "fusion_lon": 0.0, "bike_id": "b162d57c0a1b2e034be44e02e2725222", "lon": -77.0272, "rental_uris": {"ios": "https://dc.lft.to/lastmile_qr_scan", "android": "https://dc.lft.to/lastmile_qr_scan"}}, {"name": "85283316d6adc34a3dc84f0829dc6455", "fusion_lat": 0.0, "type": "electric_scooter", "lat": 38.91291733333333, "is_reserved": 0, "is_disabled": 0, "fusion_lon": 0.0, "bike_id": "85283316d6adc34a3dc84f0829dc6455", "lon": -77.0616325, "rental_uris": {"ios": "https://dc.lft.to/lastmile_qr_scan", "android": "https://dc.lft.to/lastmile_qr_scan"}}, {"name": "2004142935ee1ee3461d4b9ab0401805", "fusion_lat": 0.0, "type": "electric_scooter", "lat": 38.911400666666665, "is_reserved": 0, "is_disabled": 0, "fusion_lon": 0.0, "bike_id": "2004142935ee1ee3461d4b9ab0401805", "lon": -77.0419825, "rental_uris": {"ios": "https://dc.lft.to/lastmile_qr_scan", "android": "https://dc.lft.to/lastmile_qr_scan"}}, {"name": "780f204c2c3fc0c9a701367f7dd718ef", "fusion_lat": 0.0, "type": "electric_scooter", "lat": 38.88990016666666, "is_reserved": 0, "is_disabled": 0, "fusion_lon": 0.0, "bike_id": "780f204c2c3fc0c9a701367f7dd718ef", "lon": -76.99249433333334, "rental_uris": {"ios": "https://dc.lft.to/lastmile_qr_scan", "android": "https://dc.lft.to/lastmile_qr_scan"}}, {"name": "aef5ffd49a730bf141d5cdfab8ae5d2d", "fusion_lat": 0.0, "type": "electric_scooter", "lat": 38.891886666666664, "is_reserved": 0, "is_disabled": 0, "fusion_lon": 0.0, "bike_id": "aef5ffd49a730bf141d5cdfab8ae5d2d", "lon": -77.01584966666667, "rental_uris": {"ios": "https://dc.lft.to/lastmile_qr_scan", "android": "https://dc.lft.to/lastmile_qr_scan"}}, {"name": "58e6654af4470f1487782bf7e3eab42c", "fusion_lat": 0.0, "type": "electric_scooter", "lat": 38.942926, "is_reserved": 0, "is_disabled": 0, "fusion_lon": 0.0, "bike_id": "58e6654af4470f1487782bf7e3eab42c", "lon": -77.021736, "rental_uris": {"ios": "https://dc.lft.to/lastmile_qr_scan", "android": "https://dc.lft.to/lastmile_qr_scan"}}, {"name": "4165dd70176e6fd21949ff877f8357e1", "fusion_lat": 0.0, "type": "electric_bike", "lat": 38.892174, "is_reserved": 0, "is_disabled": 0, "fusion_lon": 0.0, "bike_id": "4165dd70176e6fd21949ff877f8357e1", "lon": -77.1078015, "rental_uris": {"ios": "https://dc.lft.to/lastmile_qr_scan", "android": "https://dc.lft.to/lastmile_qr_scan"}}, {"name": "10f7f34a3cd406d6130a26282b729e4c", "fusion_lat": 0.0, "type": "electric_scooter", "lat": 38.910981, "is_reserved": 0, "is_disabled": 0, "fusion_lon": 0.0, "bike_id": "10f7f34a3cd406d6130a26282b729e4c", "lon": -77.0734715, "rental_uris": {"ios": "https://dc.lft.to/lastmile_qr_scan", "android": "https://dc.lft.to/lastmile_qr_scan"}}, {"name": "8f6b90379b5ad1750b9499ddfbb914b4", "fusion_lat": 0.0, "type": "electric_scooter", "lat": 38.90559283333333, "is_reserved": 0, "is_disabled": 0, "fusion_lon": 0.0, "bike_id": "8f6b90379b5ad1750b9499ddfbb914b4", "lon": -77.02763833333333, "rental_uris": {"ios": "https://dc.lft.to/lastmile_qr_scan", "android": "https://dc.lft.to/lastmile_qr_scan"}}, {"name": "c077240109a4d96f909e34f4b929503a", "fusion_lat": 0.0, "type": "electric_scooter", "lat": 38.911849833333335, "is_reserved": 0, "is_disabled": 0, "fusion_lon": 0.0, "bike_id": "c077240109a4d96f909e34f4b929503a", "lon": -77.03863533333333, "rental_uris": {"ios": "https://dc.lft.to/lastmile_qr_scan", "android": "https://dc.lft.to/lastmile_qr_scan"}}, {"name": "fa1d524be9d26f18b930e8dee8195828", "fusion_lat": 0.0, "type": "electric_scooter", "lat": 38.957286333333336, "is_reserved": 0, "is_disabled": 0, "fusion_lon": 0.0, "bike_id": "fa1d524be9d26f18b930e8dee8195828", "lon": -77.02402533333333, "rental_uris": {"ios": "https://dc.lft.to/lastmile_qr_scan", "android": "https://dc.lft.to/lastmile_qr_scan"}}, {"name": "e2976a9081daf6831fcdaeb13d9a7f7a", "fusion_lat": 0.0, "type": "electric_scooter", "lat": 38.859236833333334, "is_reserved": 0, "is_disabled": 0, "fusion_lon": 0.0, "bike_id": "e2976a9081daf6831fcdaeb13d9a7f7a", "lon": -76.98978483333333, "rental_uris": {"ios": "https://dc.lft.to/lastmile_qr_scan", "android": "https://dc.lft.to/lastmile_qr_scan"}}, {"name": "56f1e94a48a3c7436c7240ca17ed70f6", "fusion_lat": 0.0, "type": "electric_scooter", "lat": 38.900709166666665, "is_reserved": 0, "is_disabled": 0, "fusion_lon": 0.0, "bike_id": "56f1e94a48a3c7436c7240ca17ed70f6", "lon": -77.03174366666667, "rental_uris": {"ios": "https://dc.lft.to/lastmile_qr_scan", "android": "https://dc.lft.to/lastmile_qr_scan"}}, {"name": "0c4059c093fad3b5dfc6d7673ae96eff", "fusion_lat": 0.0, "type": "electric_scooter", "lat": 38.872855666666666, "is_reserved": 0, "is_disabled": 0, "fusion_lon": 0.0, "bike_id": "0c4059c093fad3b5dfc6d7673ae96eff", "lon": -77.00981683333333, "rental_uris": {"ios": "https://dc.lft.to/lastmile_qr_scan", "android": "https://dc.lft.to/lastmile_qr_scan"}}, {"name": "2f739f8e2db5e62eb779e36499685cfb", "fusion_lat": 0.0, "type": "electric_scooter", "lat": 38.88316666666667, "is_reserved": 0, "is_disabled": 0, "fusion_lon": 0.0, "bike_id": "2f739f8e2db5e62eb779e36499685cfb", "lon": -77.02379466666666, "rental_uris": {"ios": "https://dc.lft.to/lastmile_qr_scan", "android": "https://dc.lft.to/lastmile_qr_scan"}}, {"name": "f20425ef670547560e013f26a2e0047f", "fusion_lat": 0.0, "type": "electric_scooter", "lat": 38.93390566666667, "is_reserved": 0, "is_disabled": 0, "fusion_lon": 0.0, "bike_id": "f20425ef670547560e013f26a2e0047f", "lon": -77.03580333333333, "rental_uris": {"ios": "https://dc.lft.to/lastmile_qr_scan", "android": "https://dc.lft.to/lastmile_qr_scan"}}, {"name": "5b17fbce70d30ee14d60ec5ee737f341", "fusion_lat": 0.0, "type": "electric_scooter", "lat": 38.921821666666666, "is_reserved": 0, "is_disabled": 0, "fusion_lon": 0.0, "bike_id": "5b17fbce70d30ee14d60ec5ee737f341", "lon": -77.04020733333333, "rental_uris": {"ios": "https://dc.lft.to/lastmile_qr_scan", "android": "https://dc.lft.to/lastmile_qr_scan"}}, {"name": "d6ca8814bd92defce56827fe779290bb", "fusion_lat": 0.0, "type": "electric_bike", "lat": 38.905241833333335, "is_reserved": 0, "is_disabled": 0, "fusion_lon": 0.0, "bike_id": "d6ca8814bd92defce56827fe779290bb", "lon": -77.02962883333333, "rental_uris": {"ios": "https://dc.lft.to/lastmile_qr_scan", "android": "https://dc.lft.to/lastmile_qr_scan"}}, {"name": "234f5df45eb89733b7125d6fe5ca4424", "fusion_lat": 0.0, "type": "electric_scooter", "lat": 38.88380216666667, "is_reserved": 0, "is_disabled": 0, "fusion_lon": 0.0, "bike_id": "234f5df45eb89733b7125d6fe5ca4424", "lon": -76.99519533333333, "rental_uris": {"ios": "https://dc.lft.to/lastmile_qr_scan", "android": "https://dc.lft.to/lastmile_qr_scan"}}, {"name": "a7e327ba52aa878f4b67e5a4020c600e", "fusion_lat": 0.0, "type": "electric_scooter", "lat": 38.901338, "is_reserved": 0, "is_disabled": 0, "fusion_lon": 0.0, "bike_id": "a7e327ba52aa878f4b67e5a4020c600e", "lon": -77.028749, "rental_uris": {"ios": "https://dc.lft.to/lastmile_qr_scan", "android": "https://dc.lft.to/lastmile_qr_scan"}}, {"name": "af6e9b492d427577682d6f95ad35a2dd", "fusion_lat": 0.0, "type": "electric_scooter", "lat": 38.89593516666667, "is_reserved": 0, "is_disabled": 0, "fusion_lon": 0.0, "bike_id": "af6e9b492d427577682d6f95ad35a2dd", "lon": -77.02323733333333, "rental_uris": {"ios": "https://dc.lft.to/lastmile_qr_scan", "android": "https://dc.lft.to/lastmile_qr_scan"}}, {"name": "976e684d24577a46ce3ad276f474bff4", "fusion_lat": 0.0, "type": "electric_bike", "lat": 38.9409075, "is_reserved": 0, "is_disabled": 0, "fusion_lon": 0.0, "bike_id": "976e684d24577a46ce3ad276f474bff4", "lon": -77.03263183333334, "rental_uris": {"ios": "https://dc.lft.to/lastmile_qr_scan", "android": "https://dc.lft.to/lastmile_qr_scan"}}, {"name": "af5e87ee5eee0b4e0c3212edd2d835c5", "fusion_lat": 0.0, "type": "electric_bike", "lat": 38.936710166666664, "is_reserved": 0, "is_disabled": 0, "fusion_lon": 0.0, "bike_id": "af5e87ee5eee0b4e0c3212edd2d835c5", "lon": -76.95207883333333, "rental_uris": {"ios": "https://dc.lft.to/lastmile_qr_scan", "android": "https://dc.lft.to/lastmile_qr_scan"}}, {"name": "c02ceb59ea5388ab7fe1a7c6a854c041", "fusion_lat": 0.0, "type": "electric_scooter", "lat": 38.894139333333335, "is_reserved": 0, "is_disabled": 0, "fusion_lon": 0.0, "bike_id": "c02ceb59ea5388ab7fe1a7c6a854c041", "lon": -76.93958983333333, "rental_uris": {"ios": "https://dc.lft.to/lastmile_qr_scan", "android": "https://dc.lft.to/lastmile_qr_scan"}}, {"name": "daa3abb70ac6fb0f102cde17600c4057", "fusion_lat": 0.0, "type": "electric_scooter", "lat": 38.903202, "is_reserved": 0, "is_disabled": 0, "fusion_lon": 0.0, "bike_id": "daa3abb70ac6fb0f102cde17600c4057", "lon": -77.01599783333333, "rental_uris": {"ios": "https://dc.lft.to/lastmile_qr_scan", "android": "https://dc.lft.to/lastmile_qr_scan"}}, {"name": "7dc3896c3597e4a3b457699adcabc86b", "fusion_lat": 0.0, "type": "electric_scooter", "lat": 38.9223015, "is_reserved": 0, "is_disabled": 0, "fusion_lon": 0.0, "bike_id": "7dc3896c3597e4a3b457699adcabc86b", "lon": -77.02334033333334, "rental_uris": {"ios": "https://dc.lft.to/lastmile_qr_scan", "android": "https://dc.lft.to/lastmile_qr_scan"}}, {"name": "8a54f37e5a574f0eb8c9f23803b056d9", "fusion_lat": 0.0, "type": "electric_scooter", "lat": 38.89697733333333, "is_reserved": 0, "is_disabled": 0, "fusion_lon": 0.0, "bike_id": "8a54f37e5a574f0eb8c9f23803b056d9", "lon": -77.0262965, "rental_uris": {"ios": "https://dc.lft.to/lastmile_qr_scan", "android": "https://dc.lft.to/lastmile_qr_scan"}}, {"name": "9937b678f9b7c6bb7b35e5ddabd478fd", "fusion_lat": 0.0, "type": "electric_scooter", "lat": 38.876412333333334, "is_reserved": 0, "is_disabled": 0, "fusion_lon": 0.0, "bike_id": "9937b678f9b7c6bb7b35e5ddabd478fd", "lon": -77.00835533333333, "rental_uris": {"ios": "https://dc.lft.to/lastmile_qr_scan", "android": "https://dc.lft.to/lastmile_qr_scan"}}, {"name": "88a9527c9bed34a52c8347f5483051a3", "fusion_lat": 0.0, "type": "electric_bike", "lat": 38.881313666666664, "is_reserved": 0, "is_disabled": 0, "fusion_lon": 0.0, "bike_id": "88a9527c9bed34a52c8347f5483051a3", "lon": -76.98091966666667, "rental_uris": {"ios": "https://dc.lft.to/lastmile_qr_scan", "android": "https://dc.lft.to/lastmile_qr_scan"}}, {"name": "ecbe84b24cac2051f64650d983bcd8c6", "fusion_lat": 0.0, "type": "electric_scooter", "lat": 38.88501333333333, "is_reserved": 0, "is_disabled": 0, "fusion_lon": 0.0, "bike_id": "ecbe84b24cac2051f64650d983bcd8c6", "lon": -77.00564816666666, "rental_uris": {"ios": "https://dc.lft.to/lastmile_qr_scan", "android": "https://dc.lft.to/lastmile_qr_scan"}}, {"name": "a81bd443ec4ef3272c402059c79ed074", "fusion_lat": 0.0, "type": "electric_scooter", "lat": 38.8985425, "is_reserved": 0, "is_disabled": 0, "fusion_lon": 0.0, "bike_id": "a81bd443ec4ef3272c402059c79ed074", "lon": -76.975551, "rental_uris": {"ios": "https://dc.lft.to/lastmile_qr_scan", "android": "https://dc.lft.to/lastmile_qr_scan"}}, {"name": "5634632b61fdeaf2eb0c8e8db08d8f27", "fusion_lat": 0.0, "type": "electric_scooter", "lat": 38.8834285, "is_reserved": 0, "is_disabled": 0, "fusion_lon": 0.0, "bike_id": "5634632b61fdeaf2eb0c8e8db08d8f27", "lon": -77.031655, "rental_uris": {"ios": "https://dc.lft.to/lastmile_qr_scan", "android": "https://dc.lft.to/lastmile_qr_scan"}}, {"name": "d5b83d1c4f5372362adcdb38ab20b0b5", "fusion_lat": 0.0, "type": "electric_scooter", "lat": 38.86511933333333, "is_reserved": 0, "is_disabled": 0, "fusion_lon": 0.0, "bike_id": "d5b83d1c4f5372362adcdb38ab20b0b5", "lon": -76.9734405, "rental_uris": {"ios": "https://dc.lft.to/lastmile_qr_scan", "android": "https://dc.lft.to/lastmile_qr_scan"}}, {"name": "82d87a05ee7b30cded1bbbba36d04f10", "fusion_lat": 0.0, "type": "electric_scooter", "lat": 38.89472716666667, "is_reserved": 0, "is_disabled": 0, "fusion_lon": 0.0, "bike_id": "82d87a05ee7b30cded1bbbba36d04f10", "lon": -76.98399966666666, "rental_uris": {"ios": "https://dc.lft.to/lastmile_qr_scan", "android": "https://dc.lft.to/lastmile_qr_scan"}}, {"name": "9a295c5ae87b9485674335840550146e", "fusion_lat": 0.0, "type": "electric_scooter", "lat": 38.899199333333335, "is_reserved": 0, "is_disabled": 0, "fusion_lon": 0.0, "bike_id": "9a295c5ae87b9485674335840550146e", "lon": -76.93383516666667, "rental_uris": {"ios": "https://dc.lft.to/lastmile_qr_scan", "android": "https://dc.lft.to/lastmile_qr_scan"}}, {"name": "31a749c9cd4d583cc3fda6a8d89f13e3", "fusion_lat": 0.0, "type": "electric_bike", "lat": 38.872251166666665, "is_reserved": 0, "is_disabled": 0, "fusion_lon": 0.0, "bike_id": "31a749c9cd4d583cc3fda6a8d89f13e3", "lon": -77.01183633333333, "rental_uris": {"ios": "https://dc.lft.to/lastmile_qr_scan", "android": "https://dc.lft.to/lastmile_qr_scan"}}, {"name": "c820875c3e308d6d33fdb8566ff726dd", "fusion_lat": 0.0, "type": "electric_scooter", "lat": 38.90568833333333, "is_reserved": 0, "is_disabled": 0, "fusion_lon": 0.0, "bike_id": "c820875c3e308d6d33fdb8566ff726dd", "lon": -77.04147266666666, "rental_uris": {"ios": "https://dc.lft.to/lastmile_qr_scan", "android": "https://dc.lft.to/lastmile_qr_scan"}}, {"name": "0c5d81a703a739986031abcbab39c875", "fusion_lat": 0.0, "type": "electric_bike", "lat": 38.939699833333336, "is_reserved": 0, "is_disabled": 0, "fusion_lon": 0.0, "bike_id": "0c5d81a703a739986031abcbab39c875", "lon": -76.98656116666666, "rental_uris": {"ios": "https://dc.lft.to/lastmile_qr_scan", "android": "https://dc.lft.to/lastmile_qr_scan"}}, {"name": "8b74a9c0fd8443f1428c108fa7bf2a6e", "fusion_lat": 0.0, "type": "electric_scooter", "lat": 38.943076166666664, "is_reserved": 0, "is_disabled": 0, "fusion_lon": 0.0, "bike_id": "8b74a9c0fd8443f1428c108fa7bf2a6e", "lon": -77.05915566666667, "rental_uris": {"ios": "https://dc.lft.to/lastmile_qr_scan", "android": "https://dc.lft.to/lastmile_qr_scan"}}, {"name": "92b2e60a810ba9072e9bef33a87915dc", "fusion_lat": 0.0, "type": "electric_scooter", "lat": 38.858105, "is_reserved": 0, "is_disabled": 0, "fusion_lon": 0.0, "bike_id": "92b2e60a810ba9072e9bef33a87915dc", "lon": -76.98654983333333, "rental_uris": {"ios": "https://dc.lft.to/lastmile_qr_scan", "android": "https://dc.lft.to/lastmile_qr_scan"}}, {"name": "753827fa15d196670f5c265e0c77028b", "fusion_lat": 0.0, "type": "electric_scooter", "lat": 38.87938883333333, "is_reserved": 0, "is_disabled": 0, "fusion_lon": 0.0, "bike_id": "753827fa15d196670f5c265e0c77028b", "lon": -77.00828333333334, "rental_uris": {"ios": "https://dc.lft.to/lastmile_qr_scan", "android": "https://dc.lft.to/lastmile_qr_scan"}}, {"name": "b869f20cb29655ddb9dbc0df552dd10b", "fusion_lat": 0.0, "type": "electric_bike", "lat": 38.841637, "is_reserved": 0, "is_disabled": 0, "fusion_lon": 0.0, "bike_id": "b869f20cb29655ddb9dbc0df552dd10b", "lon": -77.08898183333334, "rental_uris": {"ios": "https://dc.lft.to/lastmile_qr_scan", "android": "https://dc.lft.to/lastmile_qr_scan"}}, {"name": "1f77d44a03e114146f59ee33bd6c1757", "fusion_lat": 0.0, "type": "electric_scooter", "lat": 38.897140666666665, "is_reserved": 0, "is_disabled": 0, "fusion_lon": 0.0, "bike_id": "1f77d44a03e114146f59ee33bd6c1757", "lon": -77.020493, "rental_uris": {"ios": "https://dc.lft.to/lastmile_qr_scan", "android": "https://dc.lft.to/lastmile_qr_scan"}}, {"name": "eb4da6b5291c6b72f49f27a90c5d1bc9", "fusion_lat": 0.0, "type": "electric_scooter", "lat": 38.90135633333333, "is_reserved": 0, "is_disabled": 0, "fusion_lon": 0.0, "bike_id": "eb4da6b5291c6b72f49f27a90c5d1bc9", "lon": -76.9912115, "rental_uris": {"ios": "https://dc.lft.to/lastmile_qr_scan", "android": "https://dc.lft.to/lastmile_qr_scan"}}, {"name": "39a896fa4a37cc730b6025e73773c88b", "fusion_lat": 0.0, "type": "electric_scooter", "lat": 38.900271833333335, "is_reserved": 0, "is_disabled": 0, "fusion_lon": 0.0, "bike_id": "39a896fa4a37cc730b6025e73773c88b", "lon": -76.99964116666666, "rental_uris": {"ios": "https://dc.lft.to/lastmile_qr_scan", "android": "https://dc.lft.to/lastmile_qr_scan"}}, {"name": "227d8410da893e19adb8c7d1c6a74a60", "fusion_lat": 0.0, "type": "electric_bike", "lat": 39.051932, "is_reserved": 0, "is_disabled": 0, "fusion_lon": 0.0, "bike_id": "227d8410da893e19adb8c7d1c6a74a60", "lon": -77.10926633333334, "rental_uris": {"ios": "https://dc.lft.to/lastmile_qr_scan", "android": "https://dc.lft.to/lastmile_qr_scan"}}, {"name": "daa19fdc356608010b9ab0b19a8dab4a", "fusion_lat": 0.0, "type": "electric_scooter", "lat": 38.91812983333333, "is_reserved": 0, "is_disabled": 0, "fusion_lon": 0.0, "bike_id": "daa19fdc356608010b9ab0b19a8dab4a", "lon": -77.02801883333333, "rental_uris": {"ios": "https://dc.lft.to/lastmile_qr_scan", "android": "https://dc.lft.to/lastmile_qr_scan"}}, {"name": "7df1022ae672d8c340ca9190ffaa754b", "fusion_lat": 0.0, "type": "electric_scooter", "lat": 38.912581333333335, "is_reserved": 0, "is_disabled": 0, "fusion_lon": 0.0, "bike_id": "7df1022ae672d8c340ca9190ffaa754b", "lon": -77.03803483333333, "rental_uris": {"ios": "https://dc.lft.to/lastmile_qr_scan", "android": "https://dc.lft.to/lastmile_qr_scan"}}, {"name": "95cdefe6e12b8327d9a5804c8481330b", "fusion_lat": 0.0, "type": "electric_scooter", "lat": 38.899114833333336, "is_reserved": 0, "is_disabled": 0, "fusion_lon": 0.0, "bike_id": "95cdefe6e12b8327d9a5804c8481330b", "lon": -76.9336495, "rental_uris": {"ios": "https://dc.lft.to/lastmile_qr_scan", "android": "https://dc.lft.to/lastmile_qr_scan"}}, {"name": "be1263ed7fe09e94cf7c7e2e0061c3ce", "fusion_lat": 0.0, "type": "electric_bike", "lat": 38.87083966666667, "is_reserved": 0, "is_disabled": 0, "fusion_lon": 0.0, "bike_id": "be1263ed7fe09e94cf7c7e2e0061c3ce", "lon": -77.01199133333333, "rental_uris": {"ios": "https://dc.lft.to/lastmile_qr_scan", "android": "https://dc.lft.to/lastmile_qr_scan"}}, {"name": "790923dbb00eb2e203b1b9dee78d9812", "fusion_lat": 0.0, "type": "electric_scooter", "lat": 38.92721733333333, "is_reserved": 0, "is_disabled": 0, "fusion_lon": 0.0, "bike_id": "790923dbb00eb2e203b1b9dee78d9812", "lon": -77.005629, "rental_uris": {"ios": "https://dc.lft.to/lastmile_qr_scan", "android": "https://dc.lft.to/lastmile_qr_scan"}}, {"name": "0149ad8a2698fd481934e1c40c3ea049", "fusion_lat": 0.0, "type": "electric_bike", "lat": 38.8752485, "is_reserved": 0, "is_disabled": 0, "fusion_lon": 0.0, "bike_id": "0149ad8a2698fd481934e1c40c3ea049", "lon": -77.19907066666667, "rental_uris": {"ios": "https://dc.lft.to/lastmile_qr_scan", "android": "https://dc.lft.to/lastmile_qr_scan"}}, {"name": "ed84fa678a381d231a10e774ddb564d9", "fusion_lat": 0.0, "type": "electric_scooter", "lat": 38.90140866666667, "is_reserved": 0, "is_disabled": 0, "fusion_lon": 0.0, "bike_id": "ed84fa678a381d231a10e774ddb564d9", "lon": -77.04358133333334, "rental_uris": {"ios": "https://dc.lft.to/lastmile_qr_scan", "android": "https://dc.lft.to/lastmile_qr_scan"}}, {"name": "376639acd680d6ffac1b7669027688a4", "fusion_lat": 0.0, "type": "electric_scooter", "lat": 38.92373, "is_reserved": 0, "is_disabled": 0, "fusion_lon": 0.0, "bike_id": "376639acd680d6ffac1b7669027688a4", "lon": -77.02987366666666, "rental_uris": {"ios": "https://dc.lft.to/lastmile_qr_scan", "android": "https://dc.lft.to/lastmile_qr_scan"}}, {"name": "84eece5c1edea84e921f901b5245fe2a", "fusion_lat": 0.0, "type": "electric_bike", "lat": 39.094594, "is_reserved": 0, "is_disabled": 0, "fusion_lon": 0.0, "bike_id": "84eece5c1edea84e921f901b5245fe2a", "lon": -77.14992733333334, "rental_uris": {"ios": "https://dc.lft.to/lastmile_qr_scan", "android": "https://dc.lft.to/lastmile_qr_scan"}}, {"name": "2dc308f84b25fde8c492945696f9c690", "fusion_lat": 0.0, "type": "electric_bike", "lat": 38.928524, "is_reserved": 0, "is_disabled": 0, "fusion_lon": 0.0, "bike_id": "2dc308f84b25fde8c492945696f9c690", "lon": -77.22215416666667, "rental_uris": {"ios": "https://dc.lft.to/lastmile_qr_scan", "android": "https://dc.lft.to/lastmile_qr_scan"}}, {"name": "59cd8aaed5a927f9c12ec79df5abdaf5", "fusion_lat": 0.0, "type": "electric_scooter", "lat": 38.905112833333334, "is_reserved": 0, "is_disabled": 0, "fusion_lon": 0.0, "bike_id": "59cd8aaed5a927f9c12ec79df5abdaf5", "lon": -77.04343166666666, "rental_uris": {"ios": "https://dc.lft.to/lastmile_qr_scan", "android": "https://dc.lft.to/lastmile_qr_scan"}}, {"name": "e0ee5f16c6df9b330f87c7ac9caf58ad", "fusion_lat": 0.0, "type": "electric_scooter", "lat": 38.902717333333335, "is_reserved": 0, "is_disabled": 0, "fusion_lon": 0.0, "bike_id": "e0ee5f16c6df9b330f87c7ac9caf58ad", "lon": -76.98713, "rental_uris": {"ios": "https://dc.lft.to/lastmile_qr_scan", "android": "https://dc.lft.to/lastmile_qr_scan"}}, {"name": "893bdc040d945c791f948b9ffc3cc6ed", "fusion_lat": 0.0, "type": "electric_bike", "lat": 39.05311016666667, "is_reserved": 0, "is_disabled": 0, "fusion_lon": 0.0, "bike_id": "893bdc040d945c791f948b9ffc3cc6ed", "lon": -77.0477445, "rental_uris": {"ios": "https://dc.lft.to/lastmile_qr_scan", "android": "https://dc.lft.to/lastmile_qr_scan"}}, {"name": "bdfff7fdcbde37140116e70e6a408a2b", "fusion_lat": 0.0, "type": "electric_scooter", "lat": 38.865344666666665, "is_reserved": 0, "is_disabled": 0, "fusion_lon": 0.0, "bike_id": "bdfff7fdcbde37140116e70e6a408a2b", "lon": -76.98704033333334, "rental_uris": {"ios": "https://dc.lft.to/lastmile_qr_scan", "android": "https://dc.lft.to/lastmile_qr_scan"}}, {"name": "7a055e564349deac856d6f53ff1ebac5", "fusion_lat": 0.0, "type": "electric_bike", "lat": 39.088541166666666, "is_reserved": 0, "is_disabled": 0, "fusion_lon": 0.0, "bike_id": "7a055e564349deac856d6f53ff1ebac5", "lon": -77.1783935, "rental_uris": {"ios": "https://dc.lft.to/lastmile_qr_scan", "android": "https://dc.lft.to/lastmile_qr_scan"}}, {"name": "7369ac4ebc764789f0e6b00b742f98d5", "fusion_lat": 0.0, "type": "electric_scooter", "lat": 38.905809, "is_reserved": 0, "is_disabled": 0, "fusion_lon": 0.0, "bike_id": "7369ac4ebc764789f0e6b00b742f98d5", "lon": -77.02428533333334, "rental_uris": {"ios": "https://dc.lft.to/lastmile_qr_scan", "android": "https://dc.lft.to/lastmile_qr_scan"}}, {"name": "01e877a43738d021ed04904dfebb09da", "fusion_lat": 0.0, "type": "electric_bike", "lat": 38.935223, "is_reserved": 0, "is_disabled": 0, "fusion_lon": 0.0, "bike_id": "01e877a43738d021ed04904dfebb09da", "lon": -76.95059966666666, "rental_uris": {"ios": "https://dc.lft.to/lastmile_qr_scan", "android": "https://dc.lft.to/lastmile_qr_scan"}}, {"name": "7b89d2f6306d5dca3aadb721cd8726a7", "fusion_lat": 0.0, "type": "electric_scooter", "lat": 38.90274616666667, "is_reserved": 0, "is_disabled": 0, "fusion_lon": 0.0, "bike_id": "7b89d2f6306d5dca3aadb721cd8726a7", "lon": -77.03651983333333, "rental_uris": {"ios": "https://dc.lft.to/lastmile_qr_scan", "android": "https://dc.lft.to/lastmile_qr_scan"}}, {"name": "e6f9fb2829c4b4931ae077992a16c087", "fusion_lat": 0.0, "type": "electric_scooter", "lat": 38.9111055, "is_reserved": 0, "is_disabled": 0, "fusion_lon": 0.0, "bike_id": "e6f9fb2829c4b4931ae077992a16c087", "lon": -77.00265883333333, "rental_uris": {"ios": "https://dc.lft.to/lastmile_qr_scan", "android": "https://dc.lft.to/lastmile_qr_scan"}}, {"name": "1c2db3e3a46c16a44f6a41e9fefa8108", "fusion_lat": 0.0, "type": "electric_scooter", "lat": 38.866882333333336, "is_reserved": 0, "is_disabled": 0, "fusion_lon": 0.0, "bike_id": "1c2db3e3a46c16a44f6a41e9fefa8108", "lon": -76.98905383333333, "rental_uris": {"ios": "https://dc.lft.to/lastmile_qr_scan", "android": "https://dc.lft.to/lastmile_qr_scan"}}, {"name": "2d41f78e01461d757b3edac8803fb1dd", "fusion_lat": 0.0, "type": "electric_scooter", "lat": 38.91092966666667, "is_reserved": 0, "is_disabled": 0, "fusion_lon": 0.0, "bike_id": "2d41f78e01461d757b3edac8803fb1dd", "lon": -77.0383785, "rental_uris": {"ios": "https://dc.lft.to/lastmile_qr_scan", "android": "https://dc.lft.to/lastmile_qr_scan"}}, {"name": "992d5f4301123dc017af173ed0160804", "fusion_lat": 0.0, "type": "electric_scooter", "lat": 38.889958666666665, "is_reserved": 0, "is_disabled": 0, "fusion_lon": 0.0, "bike_id": "992d5f4301123dc017af173ed0160804", "lon": -76.95413583333334, "rental_uris": {"ios": "https://dc.lft.to/lastmile_qr_scan", "android": "https://dc.lft.to/lastmile_qr_scan"}}, {"name": "3fe45cc4b33f13e418ac41fa0062c236", "fusion_lat": 0.0, "type": "electric_scooter", "lat": 38.89641733333333, "is_reserved": 0, "is_disabled": 0, "fusion_lon": 0.0, "bike_id": "3fe45cc4b33f13e418ac41fa0062c236", "lon": -77.025772, "rental_uris": {"ios": "https://dc.lft.to/lastmile_qr_scan", "android": "https://dc.lft.to/lastmile_qr_scan"}}, {"name": "2b71977518f0e53af299edc18c2bc757", "fusion_lat": 0.0, "type": "electric_scooter", "lat": 38.9014315, "is_reserved": 0, "is_disabled": 0, "fusion_lon": 0.0, "bike_id": "2b71977518f0e53af299edc18c2bc757", "lon": -77.0397615, "rental_uris": {"ios": "https://dc.lft.to/lastmile_qr_scan", "android": "https://dc.lft.to/lastmile_qr_scan"}}, {"name": "d97532359dc26082e6eb570ffa096757", "fusion_lat": 0.0, "type": "electric_scooter", "lat": 38.923392666666665, "is_reserved": 0, "is_disabled": 0, "fusion_lon": 0.0, "bike_id": "d97532359dc26082e6eb570ffa096757", "lon": -77.05012833333333, "rental_uris": {"ios": "https://dc.lft.to/lastmile_qr_scan", "android": "https://dc.lft.to/lastmile_qr_scan"}}, {"name": "75a946192c1639af47dced28801eead4", "fusion_lat": 0.0, "type": "electric_scooter", "lat": 38.9121325, "is_reserved": 0, "is_disabled": 0, "fusion_lon": 0.0, "bike_id": "75a946192c1639af47dced28801eead4", "lon": -77.07596533333333, "rental_uris": {"ios": "https://dc.lft.to/lastmile_qr_scan", "android": "https://dc.lft.to/lastmile_qr_scan"}}, {"name": "ec48eccbf46b0240065bb2ff4e65bc6d", "fusion_lat": 0.0, "type": "electric_scooter", "lat": 38.914882666666664, "is_reserved": 0, "is_disabled": 0, "fusion_lon": 0.0, "bike_id": "ec48eccbf46b0240065bb2ff4e65bc6d", "lon": -77.0186735, "rental_uris": {"ios": "https://dc.lft.to/lastmile_qr_scan", "android": "https://dc.lft.to/lastmile_qr_scan"}}, {"name": "22b4a68117cea5b8d4d572768eb4f4c0", "fusion_lat": 0.0, "type": "electric_scooter", "lat": 38.894796, "is_reserved": 0, "is_disabled": 0, "fusion_lon": 0.0, "bike_id": "22b4a68117cea5b8d4d572768eb4f4c0", "lon": -76.94871416666666, "rental_uris": {"ios": "https://dc.lft.to/lastmile_qr_scan", "android": "https://dc.lft.to/lastmile_qr_scan"}}, {"name": "74f1d2c064ab5b9f8f330aca58b21772", "fusion_lat": 0.0, "type": "electric_bike", "lat": 38.994540666666666, "is_reserved": 0, "is_disabled": 0, "fusion_lon": 0.0, "bike_id": "74f1d2c064ab5b9f8f330aca58b21772", "lon": -76.90815116666667, "rental_uris": {"ios": "https://dc.lft.to/lastmile_qr_scan", "android": "https://dc.lft.to/lastmile_qr_scan"}}, {"name": "f2665fb54dac325647872c96da6027bc", "fusion_lat": 0.0, "type": "electric_scooter", "lat": 38.921127166666665, "is_reserved": 0, "is_disabled": 0, "fusion_lon": 0.0, "bike_id": "f2665fb54dac325647872c96da6027bc", "lon": -77.041998, "rental_uris": {"ios": "https://dc.lft.to/lastmile_qr_scan", "android": "https://dc.lft.to/lastmile_qr_scan"}}, {"name": "1872f2e29fb3ef5f951d7ff909edfed8", "fusion_lat": 0.0, "type": "electric_scooter", "lat": 38.92238316666667, "is_reserved": 0, "is_disabled": 0, "fusion_lon": 0.0, "bike_id": "1872f2e29fb3ef5f951d7ff909edfed8", "lon": -77.03086116666667, "rental_uris": {"ios": "https://dc.lft.to/lastmile_qr_scan", "android": "https://dc.lft.to/lastmile_qr_scan"}}, {"name": "67ae5d53fabace95e513962a9fcd4f7e", "fusion_lat": 0.0, "type": "electric_scooter", "lat": 38.911694833333335, "is_reserved": 0, "is_disabled": 0, "fusion_lon": 0.0, "bike_id": "67ae5d53fabace95e513962a9fcd4f7e", "lon": -77.03176983333333, "rental_uris": {"ios": "https://dc.lft.to/lastmile_qr_scan", "android": "https://dc.lft.to/lastmile_qr_scan"}}, {"name": "3d0479c36e6d120c43bba4ff4d0e613d", "fusion_lat": 0.0, "type": "electric_scooter", "lat": 38.902783166666666, "is_reserved": 0, "is_disabled": 0, "fusion_lon": 0.0, "bike_id": "3d0479c36e6d120c43bba4ff4d0e613d", "lon": -77.03858466666667, "rental_uris": {"ios": "https://dc.lft.to/lastmile_qr_scan", "android": "https://dc.lft.to/lastmile_qr_scan"}}, {"name": "e8f2736b5a26a47ce12e41f51e8bd327", "fusion_lat": 0.0, "type": "electric_scooter", "lat": 38.9054255, "is_reserved": 0, "is_disabled": 0, "fusion_lon": 0.0, "bike_id": "e8f2736b5a26a47ce12e41f51e8bd327", "lon": -77.050029, "rental_uris": {"ios": "https://dc.lft.to/lastmile_qr_scan", "android": "https://dc.lft.to/lastmile_qr_scan"}}, {"name": "36d1311a3629d874a10c7c8f6c7886c7", "fusion_lat": 0.0, "type": "electric_scooter", "lat": 38.917991, "is_reserved": 0, "is_disabled": 0, "fusion_lon": 0.0, "bike_id": "36d1311a3629d874a10c7c8f6c7886c7", "lon": -77.02814666666667, "rental_uris": {"ios": "https://dc.lft.to/lastmile_qr_scan", "android": "https://dc.lft.to/lastmile_qr_scan"}}, {"name": "baf1895de25aadf0b342f9b2bb7b4e97", "fusion_lat": 0.0, "type": "electric_scooter", "lat": 38.9069585, "is_reserved": 0, "is_disabled": 0, "fusion_lon": 0.0, "bike_id": "baf1895de25aadf0b342f9b2bb7b4e97", "lon": -77.0240635, "rental_uris": {"ios": "https://dc.lft.to/lastmile_qr_scan", "android": "https://dc.lft.to/lastmile_qr_scan"}}, {"name": "5759d9c3a4badac3ef179cc0467d5fb4", "fusion_lat": 0.0, "type": "electric_bike", "lat": 38.8747465, "is_reserved": 0, "is_disabled": 0, "fusion_lon": 0.0, "bike_id": "5759d9c3a4badac3ef179cc0467d5fb4", "lon": -76.96519916666666, "rental_uris": {"ios": "https://dc.lft.to/lastmile_qr_scan", "android": "https://dc.lft.to/lastmile_qr_scan"}}, {"name": "ad2c52d380785b8a0a46f34c3c172679", "fusion_lat": 0.0, "type": "electric_scooter", "lat": 38.90005283333333, "is_reserved": 0, "is_disabled": 0, "fusion_lon": 0.0, "bike_id": "ad2c52d380785b8a0a46f34c3c172679", "lon": -77.0110545, "rental_uris": {"ios": "https://dc.lft.to/lastmile_qr_scan", "android": "https://dc.lft.to/lastmile_qr_scan"}}, {"name": "f5be689bcbd9daf4699b25a4e6018455", "fusion_lat": 0.0, "type": "electric_scooter", "lat": 38.915873500000004, "is_reserved": 0, "is_disabled": 0, "fusion_lon": 0.0, "bike_id": "f5be689bcbd9daf4699b25a4e6018455", "lon": -77.03838666666667, "rental_uris": {"ios": "https://dc.lft.to/lastmile_qr_scan", "android": "https://dc.lft.to/lastmile_qr_scan"}}, {"name": "0444590fe7be451154bf8aecaa9fef89", "fusion_lat": 0.0, "type": "electric_bike", "lat": 38.938731, "is_reserved": 0, "is_disabled": 0, "fusion_lon": 0.0, "bike_id": "0444590fe7be451154bf8aecaa9fef89", "lon": -77.029263, "rental_uris": {"ios": "https://dc.lft.to/lastmile_qr_scan", "android": "https://dc.lft.to/lastmile_qr_scan"}}, {"name": "3787af6edb0577e9d95fe0840d431699", "fusion_lat": 0.0, "type": "electric_bike", "lat": 39.000041, "is_reserved": 0, "is_disabled": 0, "fusion_lon": 0.0, "bike_id": "3787af6edb0577e9d95fe0840d431699", "lon": -77.10979966666666, "rental_uris": {"ios": "https://dc.lft.to/lastmile_qr_scan", "android": "https://dc.lft.to/lastmile_qr_scan"}}, {"name": "b3ba389c1d56302a30c91742e7f2ff4f", "fusion_lat": 0.0, "type": "electric_scooter", "lat": 38.902556, "is_reserved": 0, "is_disabled": 0, "fusion_lon": 0.0, "bike_id": "b3ba389c1d56302a30c91742e7f2ff4f", "lon": -77.01561616666666, "rental_uris": {"ios": "https://dc.lft.to/lastmile_qr_scan", "android": "https://dc.lft.to/lastmile_qr_scan"}}, {"name": "28d61525ac746dc6ca0fd0ccb97c58a7", "fusion_lat": 0.0, "type": "electric_scooter", "lat": 38.900441666666666, "is_reserved": 0, "is_disabled": 0, "fusion_lon": 0.0, "bike_id": "28d61525ac746dc6ca0fd0ccb97c58a7", "lon": -76.98831266666667, "rental_uris": {"ios": "https://dc.lft.to/lastmile_qr_scan", "android": "https://dc.lft.to/lastmile_qr_scan"}}, {"name": "8c90a8823fb4fed464e7901a503c1ee4", "fusion_lat": 0.0, "type": "electric_scooter", "lat": 38.90076783333333, "is_reserved": 0, "is_disabled": 0, "fusion_lon": 0.0, "bike_id": "8c90a8823fb4fed464e7901a503c1ee4", "lon": -77.02584266666666, "rental_uris": {"ios": "https://dc.lft.to/lastmile_qr_scan", "android": "https://dc.lft.to/lastmile_qr_scan"}}, {"name": "9e5b79075382126573391bc091406323", "fusion_lat": 0.0, "type": "electric_scooter", "lat": 38.905134, "is_reserved": 0, "is_disabled": 0, "fusion_lon": 0.0, "bike_id": "9e5b79075382126573391bc091406323", "lon": -77.04775716666667, "rental_uris": {"ios": "https://dc.lft.to/lastmile_qr_scan", "android": "https://dc.lft.to/lastmile_qr_scan"}}, {"name": "5d89b31d0f2f2d05afd1fc6daf73cd93", "fusion_lat": 0.0, "type": "electric_scooter", "lat": 38.87574216666667, "is_reserved": 0, "is_disabled": 0, "fusion_lon": 0.0, "bike_id": "5d89b31d0f2f2d05afd1fc6daf73cd93", "lon": -77.01057616666667, "rental_uris": {"ios": "https://dc.lft.to/lastmile_qr_scan", "android": "https://dc.lft.to/lastmile_qr_scan"}}, {"name": "f53462d54536d8d47b3fb78ef757ee16", "fusion_lat": 0.0, "type": "electric_scooter", "lat": 38.9100995, "is_reserved": 0, "is_disabled": 0, "fusion_lon": 0.0, "bike_id": "f53462d54536d8d47b3fb78ef757ee16", "lon": -76.9938645, "rental_uris": {"ios": "https://dc.lft.to/lastmile_qr_scan", "android": "https://dc.lft.to/lastmile_qr_scan"}}, {"name": "011cbb3e2ef6587d5ff0334556689a21", "fusion_lat": 0.0, "type": "electric_scooter", "lat": 38.91695816666667, "is_reserved": 0, "is_disabled": 0, "fusion_lon": 0.0, "bike_id": "011cbb3e2ef6587d5ff0334556689a21", "lon": -77.02305616666666, "rental_uris": {"ios": "https://dc.lft.to/lastmile_qr_scan", "android": "https://dc.lft.to/lastmile_qr_scan"}}, {"name": "2bffa6d6509547ba020eb6cf6c072c0d", "fusion_lat": 0.0, "type": "electric_scooter", "lat": 38.92180416666667, "is_reserved": 0, "is_disabled": 0, "fusion_lon": 0.0, "bike_id": "2bffa6d6509547ba020eb6cf6c072c0d", "lon": -77.02665916666666, "rental_uris": {"ios": "https://dc.lft.to/lastmile_qr_scan", "android": "https://dc.lft.to/lastmile_qr_scan"}}, {"name": "61b90135293c349a00a623c49d9ebca7", "fusion_lat": 0.0, "type": "electric_scooter", "lat": 38.92067566666667, "is_reserved": 0, "is_disabled": 0, "fusion_lon": 0.0, "bike_id": "61b90135293c349a00a623c49d9ebca7", "lon": -77.0424555, "rental_uris": {"ios": "https://dc.lft.to/lastmile_qr_scan", "android": "https://dc.lft.to/lastmile_qr_scan"}}, {"name": "94ee8321512d06cfaad455a0ef77bad6", "fusion_lat": 0.0, "type": "electric_scooter", "lat": 38.91552, "is_reserved": 0, "is_disabled": 0, "fusion_lon": 0.0, "bike_id": "94ee8321512d06cfaad455a0ef77bad6", "lon": -77.03173933333333, "rental_uris": {"ios": "https://dc.lft.to/lastmile_qr_scan", "android": "https://dc.lft.to/lastmile_qr_scan"}}, {"name": "cee71cce37d5c3d25d5244ba1b0e0cd5", "fusion_lat": 0.0, "type": "electric_scooter", "lat": 38.886148, "is_reserved": 0, "is_disabled": 0, "fusion_lon": 0.0, "bike_id": "cee71cce37d5c3d25d5244ba1b0e0cd5", "lon": -77.0195555, "rental_uris": {"ios": "https://dc.lft.to/lastmile_qr_scan", "android": "https://dc.lft.to/lastmile_qr_scan"}}, {"name": "5ed7fa9807f24da2b78b0a41119f7ff2", "fusion_lat": 0.0, "type": "electric_scooter", "lat": 38.8665935, "is_reserved": 0, "is_disabled": 0, "fusion_lon": 0.0, "bike_id": "5ed7fa9807f24da2b78b0a41119f7ff2", "lon": -76.98891333333333, "rental_uris": {"ios": "https://dc.lft.to/lastmile_qr_scan", "android": "https://dc.lft.to/lastmile_qr_scan"}}, {"name": "e5d2c38e7c58598bcdcae9049dc03b71", "fusion_lat": 0.0, "type": "electric_bike", "lat": 38.942717333333334, "is_reserved": 0, "is_disabled": 0, "fusion_lon": 0.0, "bike_id": "e5d2c38e7c58598bcdcae9049dc03b71", "lon": -76.98068683333334, "rental_uris": {"ios": "https://dc.lft.to/lastmile_qr_scan", "android": "https://dc.lft.to/lastmile_qr_scan"}}, {"name": "bd867d62e5ad8edc3dddbf2bdd4078bf", "fusion_lat": 0.0, "type": "electric_scooter", "lat": 38.90818466666666, "is_reserved": 0, "is_disabled": 0, "fusion_lon": 0.0, "bike_id": "bd867d62e5ad8edc3dddbf2bdd4078bf", "lon": -77.039337, "rental_uris": {"ios": "https://dc.lft.to/lastmile_qr_scan", "android": "https://dc.lft.to/lastmile_qr_scan"}}, {"name": "774ed35a93c1c6a23376047eff6926c5", "fusion_lat": 0.0, "type": "electric_scooter", "lat": 38.926549333333334, "is_reserved": 0, "is_disabled": 0, "fusion_lon": 0.0, "bike_id": "774ed35a93c1c6a23376047eff6926c5", "lon": -77.03721266666666, "rental_uris": {"ios": "https://dc.lft.to/lastmile_qr_scan", "android": "https://dc.lft.to/lastmile_qr_scan"}}, {"name": "596c313609c93be79ba98b33fa185d98", "fusion_lat": 0.0, "type": "electric_scooter", "lat": 38.92047516666667, "is_reserved": 0, "is_disabled": 0, "fusion_lon": 0.0, "bike_id": "596c313609c93be79ba98b33fa185d98", "lon": -77.03356616666666, "rental_uris": {"ios": "https://dc.lft.to/lastmile_qr_scan", "android": "https://dc.lft.to/lastmile_qr_scan"}}, {"name": "5fdcf26492728b8bd63a3f185c5346bf", "fusion_lat": 0.0, "type": "electric_scooter", "lat": 38.903199, "is_reserved": 0, "is_disabled": 0, "fusion_lon": 0.0, "bike_id": "5fdcf26492728b8bd63a3f185c5346bf", "lon": -77.05021683333334, "rental_uris": {"ios": "https://dc.lft.to/lastmile_qr_scan", "android": "https://dc.lft.to/lastmile_qr_scan"}}, {"name": "2705ede27450d9353e3020ec3339b67c", "fusion_lat": 0.0, "type": "electric_scooter", "lat": 38.90965416666667, "is_reserved": 0, "is_disabled": 0, "fusion_lon": 0.0, "bike_id": "2705ede27450d9353e3020ec3339b67c", "lon": -77.03422866666666, "rental_uris": {"ios": "https://dc.lft.to/lastmile_qr_scan", "android": "https://dc.lft.to/lastmile_qr_scan"}}, {"name": "95bdea8053411caaa6216942311a51de", "fusion_lat": 0.0, "type": "electric_scooter", "lat": 38.92822366666667, "is_reserved": 0, "is_disabled": 0, "fusion_lon": 0.0, "bike_id": "95bdea8053411caaa6216942311a51de", "lon": -77.02259666666667, "rental_uris": {"ios": "https://dc.lft.to/lastmile_qr_scan", "android": "https://dc.lft.to/lastmile_qr_scan"}}, {"name": "8e95dded270fa7de5665eced57b9e7a8", "fusion_lat": 0.0, "type": "electric_scooter", "lat": 38.893517, "is_reserved": 0, "is_disabled": 0, "fusion_lon": 0.0, "bike_id": "8e95dded270fa7de5665eced57b9e7a8", "lon": -77.0033315, "rental_uris": {"ios": "https://dc.lft.to/lastmile_qr_scan", "android": "https://dc.lft.to/lastmile_qr_scan"}}, {"name": "39a1d3ac663a856ccf825a6a174bb3a6", "fusion_lat": 0.0, "type": "electric_scooter", "lat": 38.90782, "is_reserved": 0, "is_disabled": 0, "fusion_lon": 0.0, "bike_id": "39a1d3ac663a856ccf825a6a174bb3a6", "lon": -77.07252533333333, "rental_uris": {"ios": "https://dc.lft.to/lastmile_qr_scan", "android": "https://dc.lft.to/lastmile_qr_scan"}}, {"name": "f756056045f73ac289ba59ab85a456a4", "fusion_lat": 0.0, "type": "electric_scooter", "lat": 38.90006016666667, "is_reserved": 0, "is_disabled": 0, "fusion_lon": 0.0, "bike_id": "f756056045f73ac289ba59ab85a456a4", "lon": -77.05336216666667, "rental_uris": {"ios": "https://dc.lft.to/lastmile_qr_scan", "android": "https://dc.lft.to/lastmile_qr_scan"}}, {"name": "f45b85f88014ebb0d12f8da2fa7f1174", "fusion_lat": 0.0, "type": "electric_scooter", "lat": 38.928693333333335, "is_reserved": 0, "is_disabled": 0, "fusion_lon": 0.0, "bike_id": "f45b85f88014ebb0d12f8da2fa7f1174", "lon": -77.03445416666666, "rental_uris": {"ios": "https://dc.lft.to/lastmile_qr_scan", "android": "https://dc.lft.to/lastmile_qr_scan"}}, {"name": "56f0a6b44a14c73cd9c5898973b9ac28", "fusion_lat": 0.0, "type": "electric_scooter", "lat": 38.907583, "is_reserved": 0, "is_disabled": 0, "fusion_lon": 0.0, "bike_id": "56f0a6b44a14c73cd9c5898973b9ac28", "lon": -77.03221733333334, "rental_uris": {"ios": "https://dc.lft.to/lastmile_qr_scan", "android": "https://dc.lft.to/lastmile_qr_scan"}}, {"name": "ce04a79cccbd8947a63073fe7c1fffcd", "fusion_lat": 0.0, "type": "electric_scooter", "lat": 38.895480666666664, "is_reserved": 0, "is_disabled": 0, "fusion_lon": 0.0, "bike_id": "ce04a79cccbd8947a63073fe7c1fffcd", "lon": -76.94873233333334, "rental_uris": {"ios": "https://dc.lft.to/lastmile_qr_scan", "android": "https://dc.lft.to/lastmile_qr_scan"}}, {"name": "938e415d2092a255f2798364fee06aba", "fusion_lat": 0.0, "type": "electric_bike", "lat": 38.95928683333333, "is_reserved": 0, "is_disabled": 0, "fusion_lon": 0.0, "bike_id": "938e415d2092a255f2798364fee06aba", "lon": -76.92533733333333, "rental_uris": {"ios": "https://dc.lft.to/lastmile_qr_scan", "android": "https://dc.lft.to/lastmile_qr_scan"}}, {"name": "82a6fc55ae36ca5fbd68975e6262eaae", "fusion_lat": 0.0, "type": "electric_scooter", "lat": 38.91233016666666, "is_reserved": 0, "is_disabled": 0, "fusion_lon": 0.0, "bike_id": "82a6fc55ae36ca5fbd68975e6262eaae", "lon": -77.0487705, "rental_uris": {"ios": "https://dc.lft.to/lastmile_qr_scan", "android": "https://dc.lft.to/lastmile_qr_scan"}}, {"name": "70c42534dd06c6cd940179e64d637ec2", "fusion_lat": 0.0, "type": "electric_scooter", "lat": 38.909568666666665, "is_reserved": 0, "is_disabled": 0, "fusion_lon": 0.0, "bike_id": "70c42534dd06c6cd940179e64d637ec2", "lon": -77.0231035, "rental_uris": {"ios": "https://dc.lft.to/lastmile_qr_scan", "android": "https://dc.lft.to/lastmile_qr_scan"}}, {"name": "64cd6e1501085a6107744be5d976c1a1", "fusion_lat": 0.0, "type": "electric_bike", "lat": 38.939537666666666, "is_reserved": 0, "is_disabled": 0, "fusion_lon": 0.0, "bike_id": "64cd6e1501085a6107744be5d976c1a1", "lon": -77.36091283333333, "rental_uris": {"ios": "https://dc.lft.to/lastmile_qr_scan", "android": "https://dc.lft.to/lastmile_qr_scan"}}, {"name": "9bcc420704a0fc02f2af6bf3a5551c38", "fusion_lat": 0.0, "type": "electric_bike", "lat": 38.926887666666666, "is_reserved": 0, "is_disabled": 0, "fusion_lon": 0.0, "bike_id": "9bcc420704a0fc02f2af6bf3a5551c38", "lon": -77.00785516666667, "rental_uris": {"ios": "https://dc.lft.to/lastmile_qr_scan", "android": "https://dc.lft.to/lastmile_qr_scan"}}, {"name": "a8e02536fbe3c6ceb7f72c8e331eebcf", "fusion_lat": 0.0, "type": "electric_bike", "lat": 38.845918, "is_reserved": 0, "is_disabled": 0, "fusion_lon": 0.0, "bike_id": "a8e02536fbe3c6ceb7f72c8e331eebcf", "lon": -76.9687495, "rental_uris": {"ios": "https://dc.lft.to/lastmile_qr_scan", "android": "https://dc.lft.to/lastmile_qr_scan"}}, {"name": "d8b25a0d91df44bff072cba5b447ab0d", "fusion_lat": 0.0, "type": "electric_bike", "lat": 38.8774915, "is_reserved": 0, "is_disabled": 0, "fusion_lon": 0.0, "bike_id": "d8b25a0d91df44bff072cba5b447ab0d", "lon": -76.97986016666667, "rental_uris": {"ios": "https://dc.lft.to/lastmile_qr_scan", "android": "https://dc.lft.to/lastmile_qr_scan"}}, {"name": "d2170c198b273eb6a02c1b9f25ba58f8", "fusion_lat": 0.0, "type": "electric_scooter", "lat": 38.931915333333336, "is_reserved": 0, "is_disabled": 0, "fusion_lon": 0.0, "bike_id": "d2170c198b273eb6a02c1b9f25ba58f8", "lon": -77.02772066666667, "rental_uris": {"ios": "https://dc.lft.to/lastmile_qr_scan", "android": "https://dc.lft.to/lastmile_qr_scan"}}, {"name": "e2965f0544fe12b032f76e002c215d1f", "fusion_lat": 0.0, "type": "electric_scooter", "lat": 38.89835133333333, "is_reserved": 0, "is_disabled": 0, "fusion_lon": 0.0, "bike_id": "e2965f0544fe12b032f76e002c215d1f", "lon": -76.945689, "rental_uris": {"ios": "https://dc.lft.to/lastmile_qr_scan", "android": "https://dc.lft.to/lastmile_qr_scan"}}, {"name": "e059a165865c3cd4c47165364d4473eb", "fusion_lat": 0.0, "type": "electric_scooter", "lat": 38.90378316666666, "is_reserved": 0, "is_disabled": 0, "fusion_lon": 0.0, "bike_id": "e059a165865c3cd4c47165364d4473eb", "lon": -77.01096016666666, "rental_uris": {"ios": "https://dc.lft.to/lastmile_qr_scan", "android": "https://dc.lft.to/lastmile_qr_scan"}}, {"name": "88d604d79eb0c58f9f4249458ece0f40", "fusion_lat": 0.0, "type": "electric_scooter", "lat": 38.89528816666667, "is_reserved": 0, "is_disabled": 0, "fusion_lon": 0.0, "bike_id": "88d604d79eb0c58f9f4249458ece0f40", "lon": -77.04288766666667, "rental_uris": {"ios": "https://dc.lft.to/lastmile_qr_scan", "android": "https://dc.lft.to/lastmile_qr_scan"}}, {"name": "dc2afbcdd138f964c47402b9bd7366f4", "fusion_lat": 0.0, "type": "electric_scooter", "lat": 38.898481, "is_reserved": 0, "is_disabled": 0, "fusion_lon": 0.0, "bike_id": "dc2afbcdd138f964c47402b9bd7366f4", "lon": -76.99028983333334, "rental_uris": {"ios": "https://dc.lft.to/lastmile_qr_scan", "android": "https://dc.lft.to/lastmile_qr_scan"}}, {"name": "54ca4339f046f64ecf2fe39220710d06", "fusion_lat": 0.0, "type": "electric_scooter", "lat": 38.92030666666667, "is_reserved": 0, "is_disabled": 0, "fusion_lon": 0.0, "bike_id": "54ca4339f046f64ecf2fe39220710d06", "lon": -76.977986, "rental_uris": {"ios": "https://dc.lft.to/lastmile_qr_scan", "android": "https://dc.lft.to/lastmile_qr_scan"}}, {"name": "38a37c15fbca350d4065e131f38dfc21", "fusion_lat": 0.0, "type": "electric_bike", "lat": 38.8022245, "is_reserved": 0, "is_disabled": 0, "fusion_lon": 0.0, "bike_id": "38a37c15fbca350d4065e131f38dfc21", "lon": -77.07915083333333, "rental_uris": {"ios": "https://dc.lft.to/lastmile_qr_scan", "android": "https://dc.lft.to/lastmile_qr_scan"}}, {"name": "e3648fe378a47d4c314a73e7e05574d3", "fusion_lat": 0.0, "type": "electric_scooter", "lat": 38.912495166666666, "is_reserved": 0, "is_disabled": 0, "fusion_lon": 0.0, "bike_id": "e3648fe378a47d4c314a73e7e05574d3", "lon": -77.03838533333334, "rental_uris": {"ios": "https://dc.lft.to/lastmile_qr_scan", "android": "https://dc.lft.to/lastmile_qr_scan"}}, {"name": "faaa4b4d33cdd5db308a85df9a8e233d", "fusion_lat": 0.0, "type": "electric_bike", "lat": 38.9068215, "is_reserved": 0, "is_disabled": 0, "fusion_lon": 0.0, "bike_id": "faaa4b4d33cdd5db308a85df9a8e233d", "lon": -76.95187466666667, "rental_uris": {"ios": "https://dc.lft.to/lastmile_qr_scan", "android": "https://dc.lft.to/lastmile_qr_scan"}}, {"name": "e7fc3d20cb9229051e408b58c21d2d8e", "fusion_lat": 0.0, "type": "electric_scooter", "lat": 38.91701316666666, "is_reserved": 0, "is_disabled": 0, "fusion_lon": 0.0, "bike_id": "e7fc3d20cb9229051e408b58c21d2d8e", "lon": -77.037374, "rental_uris": {"ios": "https://dc.lft.to/lastmile_qr_scan", "android": "https://dc.lft.to/lastmile_qr_scan"}}, {"name": "d31e20d5a200ce700a630db9010f52ab", "fusion_lat": 0.0, "type": "electric_scooter", "lat": 38.906124166666665, "is_reserved": 0, "is_disabled": 0, "fusion_lon": 0.0, "bike_id": "d31e20d5a200ce700a630db9010f52ab", "lon": -77.02407316666667, "rental_uris": {"ios": "https://dc.lft.to/lastmile_qr_scan", "android": "https://dc.lft.to/lastmile_qr_scan"}}, {"name": "08c06d64f3147310532916eea3619b6f", "fusion_lat": 0.0, "type": "electric_scooter", "lat": 38.8865435, "is_reserved": 0, "is_disabled": 0, "fusion_lon": 0.0, "bike_id": "08c06d64f3147310532916eea3619b6f", "lon": -77.0137185, "rental_uris": {"ios": "https://dc.lft.to/lastmile_qr_scan", "android": "https://dc.lft.to/lastmile_qr_scan"}}, {"name": "70823a4fea6891f18c801df1fe64c59a", "fusion_lat": 0.0, "type": "electric_scooter", "lat": 38.92341583333334, "is_reserved": 0, "is_disabled": 0, "fusion_lon": 0.0, "bike_id": "70823a4fea6891f18c801df1fe64c59a", "lon": -77.05015083333333, "rental_uris": {"ios": "https://dc.lft.to/lastmile_qr_scan", "android": "https://dc.lft.to/lastmile_qr_scan"}}, {"name": "9497aa8befdd842ff3e783ec96f88e07", "fusion_lat": 0.0, "type": "electric_scooter", "lat": 38.881262, "is_reserved": 0, "is_disabled": 0, "fusion_lon": 0.0, "bike_id": "9497aa8befdd842ff3e783ec96f88e07", "lon": -77.01654516666666, "rental_uris": {"ios": "https://dc.lft.to/lastmile_qr_scan", "android": "https://dc.lft.to/lastmile_qr_scan"}}, {"name": "a030606e3cd2af3e65f354d7385e321f", "fusion_lat": 0.0, "type": "electric_scooter", "lat": 38.895986666666666, "is_reserved": 0, "is_disabled": 0, "fusion_lon": 0.0, "bike_id": "a030606e3cd2af3e65f354d7385e321f", "lon": -77.041341, "rental_uris": {"ios": "https://dc.lft.to/lastmile_qr_scan", "android": "https://dc.lft.to/lastmile_qr_scan"}}, {"name": "ecde9d82d3771588f265a2a050918313", "fusion_lat": 0.0, "type": "electric_scooter", "lat": 38.915630166666666, "is_reserved": 0, "is_disabled": 0, "fusion_lon": 0.0, "bike_id": "ecde9d82d3771588f265a2a050918313", "lon": -77.03895766666666, "rental_uris": {"ios": "https://dc.lft.to/lastmile_qr_scan", "android": "https://dc.lft.to/lastmile_qr_scan"}}, {"name": "1724268f25f3a423b48cfa3b3d5a5593", "fusion_lat": 0.0, "type": "electric_scooter", "lat": 38.88378633333333, "is_reserved": 0, "is_disabled": 0, "fusion_lon": 0.0, "bike_id": "1724268f25f3a423b48cfa3b3d5a5593", "lon": -76.995215, "rental_uris": {"ios": "https://dc.lft.to/lastmile_qr_scan", "android": "https://dc.lft.to/lastmile_qr_scan"}}, {"name": "b78536a896524a39dc2ead5b38884a61", "fusion_lat": 0.0, "type": "electric_bike", "lat": 39.024161166666666, "is_reserved": 0, "is_disabled": 0, "fusion_lon": 0.0, "bike_id": "b78536a896524a39dc2ead5b38884a61", "lon": -77.12498933333333, "rental_uris": {"ios": "https://dc.lft.to/lastmile_qr_scan", "android": "https://dc.lft.to/lastmile_qr_scan"}}, {"name": "c9691e790f840fa41536759e0a3476f7", "fusion_lat": 0.0, "type": "electric_scooter", "lat": 38.91805333333333, "is_reserved": 0, "is_disabled": 0, "fusion_lon": 0.0, "bike_id": "c9691e790f840fa41536759e0a3476f7", "lon": -77.02495033333334, "rental_uris": {"ios": "https://dc.lft.to/lastmile_qr_scan", "android": "https://dc.lft.to/lastmile_qr_scan"}}, {"name": "8f7bb201b180020a38943679589ca9e0", "fusion_lat": 0.0, "type": "electric_scooter", "lat": 38.900471833333334, "is_reserved": 0, "is_disabled": 0, "fusion_lon": 0.0, "bike_id": "8f7bb201b180020a38943679589ca9e0", "lon": -77.00072733333333, "rental_uris": {"ios": "https://dc.lft.to/lastmile_qr_scan", "android": "https://dc.lft.to/lastmile_qr_scan"}}, {"name": "42ae819b6b61dde84ec7e73bc7ecaacd", "fusion_lat": 0.0, "type": "electric_scooter", "lat": 38.909128333333335, "is_reserved": 0, "is_disabled": 0, "fusion_lon": 0.0, "bike_id": "42ae819b6b61dde84ec7e73bc7ecaacd", "lon": -77.0642965, "rental_uris": {"ios": "https://dc.lft.to/lastmile_qr_scan", "android": "https://dc.lft.to/lastmile_qr_scan"}}, {"name": "6b819f94c5814d9bcf73f0f5700b714c", "fusion_lat": 0.0, "type": "electric_scooter", "lat": 38.917144, "is_reserved": 0, "is_disabled": 0, "fusion_lon": 0.0, "bike_id": "6b819f94c5814d9bcf73f0f5700b714c", "lon": -77.02899283333333, "rental_uris": {"ios": "https://dc.lft.to/lastmile_qr_scan", "android": "https://dc.lft.to/lastmile_qr_scan"}}, {"name": "f6a73b71ac86579692af093d57b49036", "fusion_lat": 0.0, "type": "electric_scooter", "lat": 38.897725, "is_reserved": 0, "is_disabled": 0, "fusion_lon": 0.0, "bike_id": "f6a73b71ac86579692af093d57b49036", "lon": -77.0514495, "rental_uris": {"ios": "https://dc.lft.to/lastmile_qr_scan", "android": "https://dc.lft.to/lastmile_qr_scan"}}, {"name": "3c9b5e7b2e5a8a86fe463dd23945e198", "fusion_lat": 0.0, "type": "electric_scooter", "lat": 38.901277666666665, "is_reserved": 0, "is_disabled": 0, "fusion_lon": 0.0, "bike_id": "3c9b5e7b2e5a8a86fe463dd23945e198", "lon": -77.03201933333334, "rental_uris": {"ios": "https://dc.lft.to/lastmile_qr_scan", "android": "https://dc.lft.to/lastmile_qr_scan"}}, {"name": "68d1b5acede9d3a0b918632bd0274357", "fusion_lat": 0.0, "type": "electric_scooter", "lat": 38.9050305, "is_reserved": 0, "is_disabled": 0, "fusion_lon": 0.0, "bike_id": "68d1b5acede9d3a0b918632bd0274357", "lon": -77.065233, "rental_uris": {"ios": "https://dc.lft.to/lastmile_qr_scan", "android": "https://dc.lft.to/lastmile_qr_scan"}}, {"name": "86b78c056749267003af9e9f3dd5e3ba", "fusion_lat": 0.0, "type": "electric_scooter", "lat": 38.923307333333334, "is_reserved": 0, "is_disabled": 0, "fusion_lon": 0.0, "bike_id": "86b78c056749267003af9e9f3dd5e3ba", "lon": -77.019569, "rental_uris": {"ios": "https://dc.lft.to/lastmile_qr_scan", "android": "https://dc.lft.to/lastmile_qr_scan"}}, {"name": "f3e7dd7916629bc1e66ba905f2fe40ab", "fusion_lat": 0.0, "type": "electric_scooter", "lat": 38.90479716666667, "is_reserved": 0, "is_disabled": 0, "fusion_lon": 0.0, "bike_id": "f3e7dd7916629bc1e66ba905f2fe40ab", "lon": -77.0356365, "rental_uris": {"ios": "https://dc.lft.to/lastmile_qr_scan", "android": "https://dc.lft.to/lastmile_qr_scan"}}, {"name": "b76118c46e843ff9299a49d85161e003", "fusion_lat": 0.0, "type": "electric_scooter", "lat": 38.923442, "is_reserved": 0, "is_disabled": 0, "fusion_lon": 0.0, "bike_id": "b76118c46e843ff9299a49d85161e003", "lon": -77.04202433333333, "rental_uris": {"ios": "https://dc.lft.to/lastmile_qr_scan", "android": "https://dc.lft.to/lastmile_qr_scan"}}, {"name": "e073bea5394c3b87dbdae6f28fa6cd8f", "fusion_lat": 0.0, "type": "electric_scooter", "lat": 38.92927483333333, "is_reserved": 0, "is_disabled": 0, "fusion_lon": 0.0, "bike_id": "e073bea5394c3b87dbdae6f28fa6cd8f", "lon": -77.03653516666667, "rental_uris": {"ios": "https://dc.lft.to/lastmile_qr_scan", "android": "https://dc.lft.to/lastmile_qr_scan"}}, {"name": "ee5ab4c482d3ea4d0a9ba73d6db07d95", "fusion_lat": 0.0, "type": "electric_scooter", "lat": 38.909569166666664, "is_reserved": 0, "is_disabled": 0, "fusion_lon": 0.0, "bike_id": "ee5ab4c482d3ea4d0a9ba73d6db07d95", "lon": -77.04647716666666, "rental_uris": {"ios": "https://dc.lft.to/lastmile_qr_scan", "android": "https://dc.lft.to/lastmile_qr_scan"}}, {"name": "ec5381a5cb867197a3b7631352a0a9fb", "fusion_lat": 0.0, "type": "electric_scooter", "lat": 38.911457166666665, "is_reserved": 0, "is_disabled": 0, "fusion_lon": 0.0, "bike_id": "ec5381a5cb867197a3b7631352a0a9fb", "lon": -77.0443855, "rental_uris": {"ios": "https://dc.lft.to/lastmile_qr_scan", "android": "https://dc.lft.to/lastmile_qr_scan"}}, {"name": "6b26a7cbc335564290bff33c972cab94", "fusion_lat": 0.0, "type": "electric_scooter", "lat": 38.886850833333334, "is_reserved": 0, "is_disabled": 0, "fusion_lon": 0.0, "bike_id": "6b26a7cbc335564290bff33c972cab94", "lon": -76.95757983333333, "rental_uris": {"ios": "https://dc.lft.to/lastmile_qr_scan", "android": "https://dc.lft.to/lastmile_qr_scan"}}, {"name": "9874fdeaa3e0e0ef53dae41862e13ccc", "fusion_lat": 0.0, "type": "electric_scooter", "lat": 38.93202866666667, "is_reserved": 0, "is_disabled": 0, "fusion_lon": 0.0, "bike_id": "9874fdeaa3e0e0ef53dae41862e13ccc", "lon": -77.03853733333334, "rental_uris": {"ios": "https://dc.lft.to/lastmile_qr_scan", "android": "https://dc.lft.to/lastmile_qr_scan"}}, {"name": "f768e7d8ffd385b1550bd45ab291f8d7", "fusion_lat": 0.0, "type": "electric_scooter", "lat": 38.907748833333336, "is_reserved": 0, "is_disabled": 0, "fusion_lon": 0.0, "bike_id": "f768e7d8ffd385b1550bd45ab291f8d7", "lon": -77.0716035, "rental_uris": {"ios": "https://dc.lft.to/lastmile_qr_scan", "android": "https://dc.lft.to/lastmile_qr_scan"}}, {"name": "c21c54f61c234eb5d6d5d7b1eb4e78b1", "fusion_lat": 0.0, "type": "electric_scooter", "lat": 38.89731866666666, "is_reserved": 0, "is_disabled": 0, "fusion_lon": 0.0, "bike_id": "c21c54f61c234eb5d6d5d7b1eb4e78b1", "lon": -76.93844033333333, "rental_uris": {"ios": "https://dc.lft.to/lastmile_qr_scan", "android": "https://dc.lft.to/lastmile_qr_scan"}}, {"name": "2c7ba8c1b9c4bde43933413dc2dd1361", "fusion_lat": 0.0, "type": "electric_scooter", "lat": 38.85849366666667, "is_reserved": 0, "is_disabled": 0, "fusion_lon": 0.0, "bike_id": "2c7ba8c1b9c4bde43933413dc2dd1361", "lon": -76.9588535, "rental_uris": {"ios": "https://dc.lft.to/lastmile_qr_scan", "android": "https://dc.lft.to/lastmile_qr_scan"}}, {"name": "70f6d61181c450b2afb786d6e2e02ac2", "fusion_lat": 0.0, "type": "electric_bike", "lat": 38.83824116666667, "is_reserved": 0, "is_disabled": 0, "fusion_lon": 0.0, "bike_id": "70f6d61181c450b2afb786d6e2e02ac2", "lon": -76.99684383333333, "rental_uris": {"ios": "https://dc.lft.to/lastmile_qr_scan", "android": "https://dc.lft.to/lastmile_qr_scan"}}, {"name": "d9af30b0c4c0bc089adda84b89883069", "fusion_lat": 0.0, "type": "electric_scooter", "lat": 38.9159005, "is_reserved": 0, "is_disabled": 0, "fusion_lon": 0.0, "bike_id": "d9af30b0c4c0bc089adda84b89883069", "lon": -77.0384355, "rental_uris": {"ios": "https://dc.lft.to/lastmile_qr_scan", "android": "https://dc.lft.to/lastmile_qr_scan"}}, {"name": "2f5f6aede851ccaeb980e45663867fc5", "fusion_lat": 0.0, "type": "electric_bike", "lat": 38.799837, "is_reserved": 0, "is_disabled": 0, "fusion_lon": 0.0, "bike_id": "2f5f6aede851ccaeb980e45663867fc5", "lon": -77.12980983333334, "rental_uris": {"ios": "https://dc.lft.to/lastmile_qr_scan", "android": "https://dc.lft.to/lastmile_qr_scan"}}, {"name": "32b39c23e2390c8f8fcc81bc12834a84", "fusion_lat": 0.0, "type": "electric_scooter", "lat": 38.904961166666666, "is_reserved": 0, "is_disabled": 0, "fusion_lon": 0.0, "bike_id": "32b39c23e2390c8f8fcc81bc12834a84", "lon": -77.06524366666666, "rental_uris": {"ios": "https://dc.lft.to/lastmile_qr_scan", "android": "https://dc.lft.to/lastmile_qr_scan"}}, {"name": "ab1c92f5b53d5a7a5b0f16ff1e18ca82", "fusion_lat": 0.0, "type": "electric_scooter", "lat": 38.921562, "is_reserved": 0, "is_disabled": 0, "fusion_lon": 0.0, "bike_id": "ab1c92f5b53d5a7a5b0f16ff1e18ca82", "lon": -77.04233633333334, "rental_uris": {"ios": "https://dc.lft.to/lastmile_qr_scan", "android": "https://dc.lft.to/lastmile_qr_scan"}}, {"name": "6cc7717dd8c724eaba70dcc144c645b0", "fusion_lat": 0.0, "type": "electric_scooter", "lat": 38.89524733333333, "is_reserved": 0, "is_disabled": 0, "fusion_lon": 0.0, "bike_id": "6cc7717dd8c724eaba70dcc144c645b0", "lon": -77.02587633333333, "rental_uris": {"ios": "https://dc.lft.to/lastmile_qr_scan", "android": "https://dc.lft.to/lastmile_qr_scan"}}, {"name": "8468f738fb7c14f6ccd879c614af7800", "fusion_lat": 0.0, "type": "electric_scooter", "lat": 38.89216733333333, "is_reserved": 0, "is_disabled": 0, "fusion_lon": 0.0, "bike_id": "8468f738fb7c14f6ccd879c614af7800", "lon": -77.02367366666667, "rental_uris": {"ios": "https://dc.lft.to/lastmile_qr_scan", "android": "https://dc.lft.to/lastmile_qr_scan"}}, {"name": "a8704ef395f709ead1dec1c72e072612", "fusion_lat": 0.0, "type": "electric_scooter", "lat": 38.911109, "is_reserved": 0, "is_disabled": 0, "fusion_lon": 0.0, "bike_id": "a8704ef395f709ead1dec1c72e072612", "lon": -77.03146583333333, "rental_uris": {"ios": "https://dc.lft.to/lastmile_qr_scan", "android": "https://dc.lft.to/lastmile_qr_scan"}}, {"name": "b60f5b8b6165bbef8190e50f6a1f1ff0", "fusion_lat": 0.0, "type": "electric_scooter", "lat": 38.89215933333333, "is_reserved": 0, "is_disabled": 0, "fusion_lon": 0.0, "bike_id": "b60f5b8b6165bbef8190e50f6a1f1ff0", "lon": -76.99574216666667, "rental_uris": {"ios": "https://dc.lft.to/lastmile_qr_scan", "android": "https://dc.lft.to/lastmile_qr_scan"}}, {"name": "35f665131f4b1b35440bfc87a8280045", "fusion_lat": 0.0, "type": "electric_scooter", "lat": 38.921288, "is_reserved": 0, "is_disabled": 0, "fusion_lon": 0.0, "bike_id": "35f665131f4b1b35440bfc87a8280045", "lon": -77.0413375, "rental_uris": {"ios": "https://dc.lft.to/lastmile_qr_scan", "android": "https://dc.lft.to/lastmile_qr_scan"}}, {"name": "b31afd6289bf96dc854007cec8751925", "fusion_lat": 0.0, "type": "electric_scooter", "lat": 38.929543833333334, "is_reserved": 0, "is_disabled": 0, "fusion_lon": 0.0, "bike_id": "b31afd6289bf96dc854007cec8751925", "lon": -77.03763666666667, "rental_uris": {"ios": "https://dc.lft.to/lastmile_qr_scan", "android": "https://dc.lft.to/lastmile_qr_scan"}}, {"name": "6d31379e4af82f0dbb787cc8dca99e6d", "fusion_lat": 0.0, "type": "electric_scooter", "lat": 38.8822105, "is_reserved": 0, "is_disabled": 0, "fusion_lon": 0.0, "bike_id": "6d31379e4af82f0dbb787cc8dca99e6d", "lon": -76.94176783333333, "rental_uris": {"ios": "https://dc.lft.to/lastmile_qr_scan", "android": "https://dc.lft.to/lastmile_qr_scan"}}, {"name": "9c9dbeb87fd50aeed50f647cbd2c4050", "fusion_lat": 0.0, "type": "electric_scooter", "lat": 38.862589666666665, "is_reserved": 0, "is_disabled": 0, "fusion_lon": 0.0, "bike_id": "9c9dbeb87fd50aeed50f647cbd2c4050", "lon": -76.98712966666666, "rental_uris": {"ios": "https://dc.lft.to/lastmile_qr_scan", "android": "https://dc.lft.to/lastmile_qr_scan"}}, {"name": "3de4135cba9ffab0f86396b896da98a6", "fusion_lat": 0.0, "type": "electric_scooter", "lat": 38.9141755, "is_reserved": 0, "is_disabled": 0, "fusion_lon": 0.0, "bike_id": "3de4135cba9ffab0f86396b896da98a6", "lon": -77.02801833333334, "rental_uris": {"ios": "https://dc.lft.to/lastmile_qr_scan", "android": "https://dc.lft.to/lastmile_qr_scan"}}, {"name": "8e4e67764611ecb1547cc2cf620f1e38", "fusion_lat": 0.0, "type": "electric_scooter", "lat": 38.924927833333335, "is_reserved": 0, "is_disabled": 0, "fusion_lon": 0.0, "bike_id": "8e4e67764611ecb1547cc2cf620f1e38", "lon": -77.02707016666666, "rental_uris": {"ios": "https://dc.lft.to/lastmile_qr_scan", "android": "https://dc.lft.to/lastmile_qr_scan"}}, {"name": "45b94aa11a6320a0b0022428a3841ea3", "fusion_lat": 0.0, "type": "electric_scooter", "lat": 38.924719, "is_reserved": 0, "is_disabled": 0, "fusion_lon": 0.0, "bike_id": "45b94aa11a6320a0b0022428a3841ea3", "lon": -77.03053016666667, "rental_uris": {"ios": "https://dc.lft.to/lastmile_qr_scan", "android": "https://dc.lft.to/lastmile_qr_scan"}}, {"name": "225933fa9461a55d3e191e8c0544ef02", "fusion_lat": 0.0, "type": "electric_scooter", "lat": 38.90972333333333, "is_reserved": 0, "is_disabled": 0, "fusion_lon": 0.0, "bike_id": "225933fa9461a55d3e191e8c0544ef02", "lon": -77.0466745, "rental_uris": {"ios": "https://dc.lft.to/lastmile_qr_scan", "android": "https://dc.lft.to/lastmile_qr_scan"}}, {"name": "6ea80d2b9d55c7f46fc302e5f30aa606", "fusion_lat": 0.0, "type": "electric_scooter", "lat": 38.921117333333335, "is_reserved": 0, "is_disabled": 0, "fusion_lon": 0.0, "bike_id": "6ea80d2b9d55c7f46fc302e5f30aa606", "lon": -77.017781, "rental_uris": {"ios": "https://dc.lft.to/lastmile_qr_scan", "android": "https://dc.lft.to/lastmile_qr_scan"}}, {"name": "2306f01f38a86c998b97beb6d9605855", "fusion_lat": 0.0, "type": "electric_scooter", "lat": 38.92132733333333, "is_reserved": 0, "is_disabled": 0, "fusion_lon": 0.0, "bike_id": "2306f01f38a86c998b97beb6d9605855", "lon": -77.0456445, "rental_uris": {"ios": "https://dc.lft.to/lastmile_qr_scan", "android": "https://dc.lft.to/lastmile_qr_scan"}}, {"name": "8ab4a2150be727d3c5b579e30c363b13", "fusion_lat": 0.0, "type": "electric_scooter", "lat": 38.915991166666664, "is_reserved": 0, "is_disabled": 0, "fusion_lon": 0.0, "bike_id": "8ab4a2150be727d3c5b579e30c363b13", "lon": -77.031722, "rental_uris": {"ios": "https://dc.lft.to/lastmile_qr_scan", "android": "https://dc.lft.to/lastmile_qr_scan"}}, {"name": "d6ff39eb6a0b2ce2e63ff7626acba45e", "fusion_lat": 0.0, "type": "electric_scooter", "lat": 38.900428166666664, "is_reserved": 0, "is_disabled": 0, "fusion_lon": 0.0, "bike_id": "d6ff39eb6a0b2ce2e63ff7626acba45e", "lon": -76.99141066666667, "rental_uris": {"ios": "https://dc.lft.to/lastmile_qr_scan", "android": "https://dc.lft.to/lastmile_qr_scan"}}, {"name": "7ca77c0ec78cd59e1fbfd5018c97b5d7", "fusion_lat": 0.0, "type": "electric_scooter", "lat": 38.905704166666666, "is_reserved": 0, "is_disabled": 0, "fusion_lon": 0.0, "bike_id": "7ca77c0ec78cd59e1fbfd5018c97b5d7", "lon": -77.02200283333333, "rental_uris": {"ios": "https://dc.lft.to/lastmile_qr_scan", "android": "https://dc.lft.to/lastmile_qr_scan"}}, {"name": "e7d45cdcef61bba894a39a41f068d7ad", "fusion_lat": 0.0, "type": "electric_scooter", "lat": 38.88149716666667, "is_reserved": 0, "is_disabled": 0, "fusion_lon": 0.0, "bike_id": "e7d45cdcef61bba894a39a41f068d7ad", "lon": -77.01311133333333, "rental_uris": {"ios": "https://dc.lft.to/lastmile_qr_scan", "android": "https://dc.lft.to/lastmile_qr_scan"}}, {"name": "670b18ab0d737b5abf21c113d644e612", "fusion_lat": 0.0, "type": "electric_scooter", "lat": 38.91091183333333, "is_reserved": 0, "is_disabled": 0, "fusion_lon": 0.0, "bike_id": "670b18ab0d737b5abf21c113d644e612", "lon": -77.03841683333333, "rental_uris": {"ios": "https://dc.lft.to/lastmile_qr_scan", "android": "https://dc.lft.to/lastmile_qr_scan"}}, {"name": "9f3ddb76ac7af8fd0fe3a47f61a0fa38", "fusion_lat": 0.0, "type": "electric_scooter", "lat": 38.90252566666667, "is_reserved": 0, "is_disabled": 0, "fusion_lon": 0.0, "bike_id": "9f3ddb76ac7af8fd0fe3a47f61a0fa38", "lon": -77.0346435, "rental_uris": {"ios": "https://dc.lft.to/lastmile_qr_scan", "android": "https://dc.lft.to/lastmile_qr_scan"}}, {"name": "6eecb5b2776ebfc58ba6df8c0ffaaa48", "fusion_lat": 0.0, "type": "electric_scooter", "lat": 38.90607333333333, "is_reserved": 0, "is_disabled": 0, "fusion_lon": 0.0, "bike_id": "6eecb5b2776ebfc58ba6df8c0ffaaa48", "lon": -77.00592666666667, "rental_uris": {"ios": "https://dc.lft.to/lastmile_qr_scan", "android": "https://dc.lft.to/lastmile_qr_scan"}}, {"name": "a016f184cee4e4451acd4bd2a130d7f3", "fusion_lat": 0.0, "type": "electric_scooter", "lat": 38.922906833333336, "is_reserved": 0, "is_disabled": 0, "fusion_lon": 0.0, "bike_id": "a016f184cee4e4451acd4bd2a130d7f3", "lon": -77.02967933333333, "rental_uris": {"ios": "https://dc.lft.to/lastmile_qr_scan", "android": "https://dc.lft.to/lastmile_qr_scan"}}, {"name": "3a907d5ab464c97030460b94e1d870fb", "fusion_lat": 0.0, "type": "electric_scooter", "lat": 38.87498016666667, "is_reserved": 0, "is_disabled": 0, "fusion_lon": 0.0, "bike_id": "3a907d5ab464c97030460b94e1d870fb", "lon": -76.997934, "rental_uris": {"ios": "https://dc.lft.to/lastmile_qr_scan", "android": "https://dc.lft.to/lastmile_qr_scan"}}, {"name": "3fcc4483cfa8c938649985f2af7e5ce4", "fusion_lat": 0.0, "type": "electric_scooter", "lat": 38.902644, "is_reserved": 0, "is_disabled": 0, "fusion_lon": 0.0, "bike_id": "3fcc4483cfa8c938649985f2af7e5ce4", "lon": -77.00330766666667, "rental_uris": {"ios": "https://dc.lft.to/lastmile_qr_scan", "android": "https://dc.lft.to/lastmile_qr_scan"}}, {"name": "355cc0ae1c638476340896a64542bd6b", "fusion_lat": 0.0, "type": "electric_scooter", "lat": 38.87628083333333, "is_reserved": 0, "is_disabled": 0, "fusion_lon": 0.0, "bike_id": "355cc0ae1c638476340896a64542bd6b", "lon": -76.96527866666666, "rental_uris": {"ios": "https://dc.lft.to/lastmile_qr_scan", "android": "https://dc.lft.to/lastmile_qr_scan"}}, {"name": "ff0c8b598311689a2710cdaf7c72dbff", "fusion_lat": 0.0, "type": "electric_bike", "lat": 38.92738, "is_reserved": 0, "is_disabled": 0, "fusion_lon": 0.0, "bike_id": "ff0c8b598311689a2710cdaf7c72dbff", "lon": -77.0258755, "rental_uris": {"ios": "https://dc.lft.to/lastmile_qr_scan", "android": "https://dc.lft.to/lastmile_qr_scan"}}, {"name": "7243e125f67d772d3e4564be657df8e2", "fusion_lat": 0.0, "type": "electric_scooter", "lat": 38.91248933333333, "is_reserved": 0, "is_disabled": 0, "fusion_lon": 0.0, "bike_id": "7243e125f67d772d3e4564be657df8e2", "lon": -77.0383915, "rental_uris": {"ios": "https://dc.lft.to/lastmile_qr_scan", "android": "https://dc.lft.to/lastmile_qr_scan"}}, {"name": "3a638901226867c8d0084dfdbbbb49a8", "fusion_lat": 0.0, "type": "electric_scooter", "lat": 38.88603233333333, "is_reserved": 0, "is_disabled": 0, "fusion_lon": 0.0, "bike_id": "3a638901226867c8d0084dfdbbbb49a8", "lon": -77.02201283333333, "rental_uris": {"ios": "https://dc.lft.to/lastmile_qr_scan", "android": "https://dc.lft.to/lastmile_qr_scan"}}, {"name": "92dd4cd721c80c9776be8358e076cac4", "fusion_lat": 0.0, "type": "electric_scooter", "lat": 38.86246333333333, "is_reserved": 0, "is_disabled": 0, "fusion_lon": 0.0, "bike_id": "92dd4cd721c80c9776be8358e076cac4", "lon": -76.9952895, "rental_uris": {"ios": "https://dc.lft.to/lastmile_qr_scan", "android": "https://dc.lft.to/lastmile_qr_scan"}}, {"name": "02f15eee35734ddcc01eaad55abe4eb7", "fusion_lat": 0.0, "type": "electric_scooter", "lat": 38.91218766666667, "is_reserved": 0, "is_disabled": 0, "fusion_lon": 0.0, "bike_id": "02f15eee35734ddcc01eaad55abe4eb7", "lon": -77.0319035, "rental_uris": {"ios": "https://dc.lft.to/lastmile_qr_scan", "android": "https://dc.lft.to/lastmile_qr_scan"}}, {"name": "df1d35a7935f3286fc1a45c8975eedd1", "fusion_lat": 0.0, "type": "electric_scooter", "lat": 38.876395333333335, "is_reserved": 0, "is_disabled": 0, "fusion_lon": 0.0, "bike_id": "df1d35a7935f3286fc1a45c8975eedd1", "lon": -77.005672, "rental_uris": {"ios": "https://dc.lft.to/lastmile_qr_scan", "android": "https://dc.lft.to/lastmile_qr_scan"}}, {"name": "4690b6722067614f1f3fdfbe63973535", "fusion_lat": 0.0, "type": "electric_bike", "lat": 38.99988333333334, "is_reserved": 0, "is_disabled": 0, "fusion_lon": 0.0, "bike_id": "4690b6722067614f1f3fdfbe63973535", "lon": -77.08004266666667, "rental_uris": {"ios": "https://dc.lft.to/lastmile_qr_scan", "android": "https://dc.lft.to/lastmile_qr_scan"}}, {"name": "81903b88e1641e826acbec7daa7eebf1", "fusion_lat": 0.0, "type": "electric_scooter", "lat": 38.88501483333334, "is_reserved": 0, "is_disabled": 0, "fusion_lon": 0.0, "bike_id": "81903b88e1641e826acbec7daa7eebf1", "lon": -77.00563066666666, "rental_uris": {"ios": "https://dc.lft.to/lastmile_qr_scan", "android": "https://dc.lft.to/lastmile_qr_scan"}}, {"name": "972acffd23f51b987ddf0caa67d35f31", "fusion_lat": 0.0, "type": "electric_scooter", "lat": 38.90058583333333, "is_reserved": 0, "is_disabled": 0, "fusion_lon": 0.0, "bike_id": "972acffd23f51b987ddf0caa67d35f31", "lon": -77.05037166666666, "rental_uris": {"ios": "https://dc.lft.to/lastmile_qr_scan", "android": "https://dc.lft.to/lastmile_qr_scan"}}, {"name": "b2d93a902b09badf8964de9b959ac335", "fusion_lat": 0.0, "type": "electric_scooter", "lat": 38.943160166666665, "is_reserved": 0, "is_disabled": 0, "fusion_lon": 0.0, "bike_id": "b2d93a902b09badf8964de9b959ac335", "lon": -77.02475083333333, "rental_uris": {"ios": "https://dc.lft.to/lastmile_qr_scan", "android": "https://dc.lft.to/lastmile_qr_scan"}}, {"name": "0523503b597aac90a646616854538440", "fusion_lat": 0.0, "type": "electric_bike", "lat": 38.862747666666664, "is_reserved": 0, "is_disabled": 0, "fusion_lon": 0.0, "bike_id": "0523503b597aac90a646616854538440", "lon": -77.05958516666666, "rental_uris": {"ios": "https://dc.lft.to/lastmile_qr_scan", "android": "https://dc.lft.to/lastmile_qr_scan"}}, {"name": "8039cf9d4fbf1f4c2c29cf271efe7597", "fusion_lat": 0.0, "type": "electric_scooter", "lat": 38.9297685, "is_reserved": 0, "is_disabled": 0, "fusion_lon": 0.0, "bike_id": "8039cf9d4fbf1f4c2c29cf271efe7597", "lon": -77.0144505, "rental_uris": {"ios": "https://dc.lft.to/lastmile_qr_scan", "android": "https://dc.lft.to/lastmile_qr_scan"}}, {"name": "3f7c3ef4a1c70135ecaeb676b8351afd", "fusion_lat": 0.0, "type": "electric_scooter", "lat": 38.8917495, "is_reserved": 0, "is_disabled": 0, "fusion_lon": 0.0, "bike_id": "3f7c3ef4a1c70135ecaeb676b8351afd", "lon": -77.01561966666667, "rental_uris": {"ios": "https://dc.lft.to/lastmile_qr_scan", "android": "https://dc.lft.to/lastmile_qr_scan"}}, {"name": "9cbc5050cab583a505b604e0ea24c34d", "fusion_lat": 0.0, "type": "electric_scooter", "lat": 38.912598333333335, "is_reserved": 0, "is_disabled": 0, "fusion_lon": 0.0, "bike_id": "9cbc5050cab583a505b604e0ea24c34d", "lon": -77.03837983333334, "rental_uris": {"ios": "https://dc.lft.to/lastmile_qr_scan", "android": "https://dc.lft.to/lastmile_qr_scan"}}, {"name": "3b2fb1146ba3ac0896a07a37ba776527", "fusion_lat": 0.0, "type": "electric_bike", "lat": 38.839803333333336, "is_reserved": 0, "is_disabled": 0, "fusion_lon": 0.0, "bike_id": "3b2fb1146ba3ac0896a07a37ba776527", "lon": -77.00568666666666, "rental_uris": {"ios": "https://dc.lft.to/lastmile_qr_scan", "android": "https://dc.lft.to/lastmile_qr_scan"}}, {"name": "557b2066c8d87096c7ac0c3d2fd572c4", "fusion_lat": 0.0, "type": "electric_scooter", "lat": 38.923313666666665, "is_reserved": 0, "is_disabled": 0, "fusion_lon": 0.0, "bike_id": "557b2066c8d87096c7ac0c3d2fd572c4", "lon": -77.02044383333333, "rental_uris": {"ios": "https://dc.lft.to/lastmile_qr_scan", "android": "https://dc.lft.to/lastmile_qr_scan"}},