{"data": {"bikes": [{"is_disabled": 0, "fusion_lon": 0.0, "fusion_lat": 0.0, "lat": 38.91478033333333, "type": "electric_scooter", "lon": -76.98356466666667, "bike_id": "cd55d751b9e6e6389c80f10c350ceff9", "rental_uris": {"android": "https://dc.lft.to/lastmile_qr_scan", "ios": "https://dc.lft.to/lastmile_qr_scan"}, "name": "cd55d751b9e6e6389c80f10c350ceff9", "is_reserved": 0}, {"is_disabled": 0, "fusion_lon": 0.0, "fusion_lat": 0.0, "lat": 38.92975416666667, "type": "electric_scooter", "lon": -77.032905, "bike_id": "72e04d8c8b2d5730eb7aae852090f18b", "rental_uris": {"android": "https://dc.lft.to/lastmile_qr_scan", "ios": "https://dc.lft.to/lastmile_qr_scan"}, "name": "72e04d8c8b2d5730eb7aae852090f18b", "is_reserved": 0}, {"is_disabled": 0, "fusion_lon": 0.0, "fusion_lat": 0.0, "lat": 38.93380583333333, "type": "electric_scooter", "lon": -77.02462616666666, "bike_id": "d71c4c88dce1380bba9f85c71857b73c", "rental_uris": {"android": "https://dc.lft.to/lastmile_qr_scan", "ios": "https://dc.lft.to/lastmile_qr_scan"}, "name": "d71c4c88dce1380bba9f85c71857b73c", "is_reserved": 0}, {"is_disabled": 0, "fusion_lon": 0.0, "fusion_lat": 0.0, "lat": 38.92189183333333, "type": "electric_scooter", "lon": -77.038048, "bike_id": "2759d16f7f7df70441a0152d05bbe3e9", "rental_uris": {"android": "https://dc.lft.to/lastmile_qr_scan", "ios": "https://dc.lft.to/lastmile_qr_scan"}, "name": "2759d16f7f7df70441a0152d05bbe3e9", "is_reserved": 0}, {"is_disabled": 0, "fusion_lon": 0.0, "fusion_lat": 0.0, "lat": 38.919099333333335, "type": "electric_scooter", "lon": -77.07048266666666, "bike_id": "c407a23e6ea31f71107beabc01cce831", "rental_uris": {"android": "https://dc.lft.to/lastmile_qr_scan", "ios": "https://dc.lft.to/lastmile_qr_scan"}, "name": "c407a23e6ea31f71107beabc01cce831", "is_reserved": 0}, {"is_disabled": 0, "fusion_lon": 0.0, "fusion_lat": 0.0, "lat": 38.934743, "type": "electric_scooter", "lon": -77.0727095, "bike_id": "08c58873efd1122087a76b4afc6258a4", "rental_uris": {"android": "https://dc.lft.to/lastmile_qr_scan", "ios": "https://dc.lft.to/lastmile_qr_scan"}, "name": "08c58873efd1122087a76b4afc6258a4", "is_reserved": 0}, {"is_disabled": 0, "fusion_lon": 0.0, "fusion_lat": 0.0, "lat": 38.9278185, "type": "electric_scooter", "lon": -77.03201383333334, "bike_id": "d0a62c16e8146967348c241d7462b87f", "rental_uris": {"android": "https://dc.lft.to/lastmile_qr_scan", "ios": "https://dc.lft.to/lastmile_qr_scan"}, "name": "d0a62c16e8146967348c241d7462b87f", "is_reserved": 0}, {"is_disabled": 0, "fusion_lon": 0.0, "fusion_lat": 0.0, "lat": 38.94151883333333, "type": "electric_bike", "lon": -77.001979, "bike_id": "b592d0039f6cc5c4483dee70de589184", "rental_uris": {"android": "https://dc.lft.to/lastmile_qr_scan", "ios": "https://dc.lft.to/lastmile_qr_scan"}, "name": "b592d0039f6cc5c4483dee70de589184", "is_reserved": 0}, {"is_disabled": 0, "fusion_lon": 0.0, "fusion_lat": 0.0, "lat": 38.93529216666667, "type": "electric_scooter", "lon": -77.0235545, "bike_id": "8b12f120c7a41775081e136c31dd725f", "rental_uris": {"android": "https://dc.lft.to/lastmile_qr_scan", "ios": "https://dc.lft.to/lastmile_qr_scan"}, "name": "8b12f120c7a41775081e136c31dd725f", "is_reserved": 0}, {"is_disabled": 0, "fusion_lon": 0.0, "fusion_lat": 0.0, "lat": 38.906984666666666, "type": "electric_scooter", "lon": -77.03760416666667, "bike_id": "f52ad1b93140f4abe6d7b91d7d75046f", "rental_uris": {"android": "https://dc.lft.to/lastmile_qr_scan", "ios": "https://dc.lft.to/lastmile_qr_scan"}, "name": "f52ad1b93140f4abe6d7b91d7d75046f", "is_reserved": 0}, {"is_disabled": 0, "fusion_lon": 0.0, "fusion_lat": 0.0, "lat": 38.899929666666665, "type": "electric_scooter", "lon": -77.05557016666667, "bike_id": "f73af6c0e5918976a7821fd260212d6c", "rental_uris": {"android": "https://dc.lft.to/lastmile_qr_scan", "ios": "https://dc.lft.to/lastmile_qr_scan"}, "name": "f73af6c0e5918976a7821fd260212d6c", "is_reserved": 0}, {"is_disabled": 0, "fusion_lon": 0.0, "fusion_lat": 0.0, "lat": 38.92021, "type": "electric_bike", "lon": -76.9730535, "bike_id": "cf2b68ebaac4bc99bcba9f3763b6a167", "rental_uris": {"android": "https://dc.lft.to/lastmile_qr_scan", "ios": "https://dc.lft.to/lastmile_qr_scan"}, "name": "cf2b68ebaac4bc99bcba9f3763b6a167", "is_reserved": 0}, {"is_disabled": 0, "fusion_lon": 0.0, "fusion_lat": 0.0, "lat": 38.908471666666664, "type": "electric_scooter", "lon": -77.04163716666666, "bike_id": "91a8b4544407454468044754deb59b8e", "rental_uris": {"android": "https://dc.lft.to/lastmile_qr_scan", "ios": "https://dc.lft.to/lastmile_qr_scan"}, "name": "91a8b4544407454468044754deb59b8e", "is_reserved": 0}, {"is_disabled": 0, "fusion_lon": 0.0, "fusion_lat": 0.0, "lat": 38.85977883333334, "type": "electric_scooter", "lon": -76.98423616666666, "bike_id": "90efd202f949081b8bf643992f0fbf50", "rental_uris": {"android": "https://dc.lft.to/lastmile_qr_scan", "ios": "https://dc.lft.to/lastmile_qr_scan"}, "name": "90efd202f949081b8bf643992f0fbf50", "is_reserved": 0}, {"is_disabled": 0, "fusion_lon": 0.0, "fusion_lat": 0.0, "lat": 38.8506865, "type": "electric_bike", "lon": -76.973365, "bike_id": "38e74c204b2c6428388e35265cf4ae3c", "rental_uris": {"android": "https://dc.lft.to/lastmile_qr_scan", "ios": "https://dc.lft.to/lastmile_qr_scan"}, "name": "38e74c204b2c6428388e35265cf4ae3c", "is_reserved": 0}, {"is_disabled": 0, "fusion_lon": 0.0, "fusion_lat": 0.0, "lat": 38.91413566666667, "type": "electric_scooter", "lon": -77.02212916666667, "bike_id": "68bbb6e69160911560075eaa81e24f5b", "rental_uris": {"android": "https://dc.lft.to/lastmile_qr_scan", "ios": "https://dc.lft.to/lastmile_qr_scan"}, "name": "68bbb6e69160911560075eaa81e24f5b", "is_reserved": 0}, {"is_disabled": 0, "fusion_lon": 0.0, "fusion_lat": 0.0, "lat": 38.927391666666665, "type": "electric_bike", "lon": -76.993708, "bike_id": "83d2714c93a9fe5e07efd7c61235fce5", "rental_uris": {"android": "https://dc.lft.to/lastmile_qr_scan", "ios": "https://dc.lft.to/lastmile_qr_scan"}, "name": "83d2714c93a9fe5e07efd7c61235fce5", "is_reserved": 0}, {"is_disabled": 0, "fusion_lon": 0.0, "fusion_lat": 0.0, "lat": 38.95229, "type": "electric_scooter", "lon": -77.02759566666667, "bike_id": "aca5b1f1bd23a99680500be96a6cc5e3", "rental_uris": {"android": "https://dc.lft.to/lastmile_qr_scan", "ios": "https://dc.lft.to/lastmile_qr_scan"}, "name": "aca5b1f1bd23a99680500be96a6cc5e3", "is_reserved": 0}, {"is_disabled": 0, "fusion_lon": 0.0, "fusion_lat": 0.0, "lat": 38.90260216666667, "type": "electric_scooter", "lon": -77.03446966666667, "bike_id": "de2bbcb34784e98fbba9bb6595f4a4c0", "rental_uris": {"android": "https://dc.lft.to/lastmile_qr_scan", "ios": "https://dc.lft.to/lastmile_qr_scan"}, "name": "de2bbcb34784e98fbba9bb6595f4a4c0", "is_reserved": 0}, {"is_disabled": 0, "fusion_lon": 0.0, "fusion_lat": 0.0, "lat": 39.03886133333334, "type": "electric_bike", "lon": -77.109113, "bike_id": "5354641f5649dbc50a10377a84ad15d3", "rental_uris": {"android": "https://dc.lft.to/lastmile_qr_scan", "ios": "https://dc.lft.to/lastmile_qr_scan"}, "name": "5354641f5649dbc50a10377a84ad15d3", "is_reserved": 0}, {"is_disabled": 0, "fusion_lon": 0.0, "fusion_lat": 0.0, "lat": 38.91985066666667, "type": "electric_scooter", "lon": -77.03272616666666, "bike_id": "b1b08cebfc7f6427e15c81ef6657617b", "rental_uris": {"android": "https://dc.lft.to/lastmile_qr_scan", "ios": "https://dc.lft.to/lastmile_qr_scan"}, "name": "b1b08cebfc7f6427e15c81ef6657617b", "is_reserved": 0}, {"is_disabled": 0, "fusion_lon": 0.0, "fusion_lat": 0.0, "lat": 38.885789333333335, "type": "electric_scooter", "lon": -76.91910666666666, "bike_id": "8edf72c37ac76d67f52357a258bc7575", "rental_uris": {"android": "https://dc.lft.to/lastmile_qr_scan", "ios": "https://dc.lft.to/lastmile_qr_scan"}, "name": "8edf72c37ac76d67f52357a258bc7575", "is_reserved": 0}, {"is_disabled": 0, "fusion_lon": 0.0, "fusion_lat": 0.0, "lat": 38.9926885, "type": "electric_scooter", "lon": -77.03607033333333, "bike_id": "c773f3b0b316dd0842f937184300c1bd", "rental_uris": {"android": "https://dc.lft.to/lastmile_qr_scan", "ios": "https://dc.lft.to/lastmile_qr_scan"}, "name": "c773f3b0b316dd0842f937184300c1bd", "is_reserved": 0}, {"is_disabled": 0, "fusion_lon": 0.0, "fusion_lat": 0.0, "lat": 38.9164585, "type": "electric_scooter", "lon": -77.04174783333333, "bike_id": "3ed0c02450c57062548277d775d8a0c4", "rental_uris": {"android": "https://dc.lft.to/lastmile_qr_scan", "ios": "https://dc.lft.to/lastmile_qr_scan"}, "name": "3ed0c02450c57062548277d775d8a0c4", "is_reserved": 0}, {"is_disabled": 0, "fusion_lon": 0.0, "fusion_lat": 0.0, "lat": 38.93664733333333, "type": "electric_bike", "lon": -76.9520675, "bike_id": "4c80b5e0c41f212b9ac5252e50ba59a4", "rental_uris": {"android": "https://dc.lft.to/lastmile_qr_scan", "ios": "https://dc.lft.to/lastmile_qr_scan"}, "name": "4c80b5e0c41f212b9ac5252e50ba59a4", "is_reserved": 0}, {"is_disabled": 0, "fusion_lon": 0.0, "fusion_lat": 0.0, "lat": 38.918363166666666, "type": "electric_scooter", "lon": -77.0393995, "bike_id": "9f2a00f1345a042a9bfe6fbc6994e502", "rental_uris": {"android": "https://dc.lft.to/lastmile_qr_scan", "ios": "https://dc.lft.to/lastmile_qr_scan"}, "name": "9f2a00f1345a042a9bfe6fbc6994e502", "is_reserved": 0}, {"is_disabled": 0, "fusion_lon": 0.0, "fusion_lat": 0.0, "lat": 38.9583605, "type": "electric_scooter", "lon": -77.0716765, "bike_id": "7ee3be494341721971f30ba20801ee0b", "rental_uris": {"android": "https://dc.lft.to/lastmile_qr_scan", "ios": "https://dc.lft.to/lastmile_qr_scan"}, "name": "7ee3be494341721971f30ba20801ee0b", "is_reserved": 0}, {"is_disabled": 0, "fusion_lon": 0.0, "fusion_lat": 0.0, "lat": 38.934724, "type": "electric_scooter", "lon": -77.0726725, "bike_id": "5a490128753cd898a9ce539d55f58bb3", "rental_uris": {"android": "https://dc.lft.to/lastmile_qr_scan", "ios": "https://dc.lft.to/lastmile_qr_scan"}, "name": "5a490128753cd898a9ce539d55f58bb3", "is_reserved": 0}, {"is_disabled": 0, "fusion_lon": 0.0, "fusion_lat": 0.0, "lat": 38.91782533333333, "type": "electric_scooter", "lon": -77.04334966666667, "bike_id": "21cbc24782ded67188ee3980e5c463d1", "rental_uris": {"android": "https://dc.lft.to/lastmile_qr_scan", "ios": "https://dc.lft.to/lastmile_qr_scan"}, "name": "21cbc24782ded67188ee3980e5c463d1", "is_reserved": 0}, {"is_disabled": 0, "fusion_lon": 0.0, "fusion_lat": 0.0, "lat": 38.91701, "type": "electric_scooter", "lon": -77.0512725, "bike_id": "a75b8ee914bea5f4a9d2880fe0796ad0", "rental_uris": {"android": "https://dc.lft.to/lastmile_qr_scan", "ios": "https://dc.lft.to/lastmile_qr_scan"}, "name": "a75b8ee914bea5f4a9d2880fe0796ad0", "is_reserved": 0}, {"is_disabled": 0, "fusion_lon": 0.0, "fusion_lat": 0.0, "lat": 38.906666333333334, "type": "electric_scooter", "lon": -77.00592266666666, "bike_id": "df6304c9c65b8a45498826238600a242", "rental_uris": {"android": "https://dc.lft.to/lastmile_qr_scan", "ios": "https://dc.lft.to/lastmile_qr_scan"}, "name": "df6304c9c65b8a45498826238600a242", "is_reserved": 0}, {"is_disabled": 0, "fusion_lon": 0.0, "fusion_lat": 0.0, "lat": 38.908705833333336, "type": "electric_scooter", "lon": -77.034692, "bike_id": "9df786bb9f9b2f84396749e1da726b2f", "rental_uris": {"android": "https://dc.lft.to/lastmile_qr_scan", "ios": "https://dc.lft.to/lastmile_qr_scan"}, "name": "9df786bb9f9b2f84396749e1da726b2f", "is_reserved": 0}, {"is_disabled": 0, "fusion_lon": 0.0, "fusion_lat": 0.0, "lat": 38.9062645, "type": "electric_scooter", "lon": -77.02184433333333, "bike_id": "61f68da3f4c0823e978a3d1ace5c6361", "rental_uris": {"android": "https://dc.lft.to/lastmile_qr_scan", "ios": "https://dc.lft.to/lastmile_qr_scan"}, "name": "61f68da3f4c0823e978a3d1ace5c6361", "is_reserved": 0}, {"is_disabled": 0, "fusion_lon": 0.0, "fusion_lat": 0.0, "lat": 38.912669, "type": "electric_scooter", "lon": -77.0515515, "bike_id": "67890cde59416acb70ff291e582b17c8", "rental_uris": {"android": "https://dc.lft.to/lastmile_qr_scan", "ios": "https://dc.lft.to/lastmile_qr_scan"}, "name": "67890cde59416acb70ff291e582b17c8", "is_reserved": 0}, {"is_disabled": 0, "fusion_lon": 0.0, "fusion_lat": 0.0, "lat": 38.90781483333333, "type": "electric_scooter", "lon": -77.07233, "bike_id": "35698175d5203c19dfeaa129734be9be", "rental_uris": {"android": "https://dc.lft.to/lastmile_qr_scan", "ios": "https://dc.lft.to/lastmile_qr_scan"}, "name": "35698175d5203c19dfeaa129734be9be", "is_reserved": 0}, {"is_disabled": 0, "fusion_lon": 0.0, "fusion_lat": 0.0, "lat": 38.92264633333333, "type": "electric_scooter", "lon": -77.041336, "bike_id": "7f9c09aa96bccdb376f6b48290457411", "rental_uris": {"android": "https://dc.lft.to/lastmile_qr_scan", "ios": "https://dc.lft.to/lastmile_qr_scan"}, "name": "7f9c09aa96bccdb376f6b48290457411", "is_reserved": 0}, {"is_disabled": 0, "fusion_lon": 0.0, "fusion_lat": 0.0, "lat": 38.84783183333333, "type": "electric_scooter", "lon": -76.99934483333334, "bike_id": "9396f62471478c8f58d041a5a622d27f", "rental_uris": {"android": "https://dc.lft.to/lastmile_qr_scan", "ios": "https://dc.lft.to/lastmile_qr_scan"}, "name": "9396f62471478c8f58d041a5a622d27f", "is_reserved": 0}, {"is_disabled": 0, "fusion_lon": 0.0, "fusion_lat": 0.0, "lat": 38.96288333333333, "type": "electric_bike", "lon": -77.02872266666667, "bike_id": "04808b7379f67e96be2b6203edb36223", "rental_uris": {"android": "https://dc.lft.to/lastmile_qr_scan", "ios": "https://dc.lft.to/lastmile_qr_scan"}, "name": "04808b7379f67e96be2b6203edb36223", "is_reserved": 0}, {"is_disabled": 0, "fusion_lon": 0.0, "fusion_lat": 0.0, "lat": 38.93642883333333, "type": "electric_bike", "lon": -76.95458583333334, "bike_id": "f8f037eccfe801545a0efd9d22441e39", "rental_uris": {"android": "https://dc.lft.to/lastmile_qr_scan", "ios": "https://dc.lft.to/lastmile_qr_scan"}, "name": "f8f037eccfe801545a0efd9d22441e39", "is_reserved": 0}, {"is_disabled": 0, "fusion_lon": 0.0, "fusion_lat": 0.0, "lat": 38.832905, "type": "electric_scooter", "lon": -77.0082515, "bike_id": "0c722f34d23011232e9091e774db6ad5", "rental_uris": {"android": "https://dc.lft.to/lastmile_qr_scan", "ios": "https://dc.lft.to/lastmile_qr_scan"}, "name": "0c722f34d23011232e9091e774db6ad5", "is_reserved": 0}, {"is_disabled": 0, "fusion_lon": 0.0, "fusion_lat": 0.0, "lat": 38.9105685, "type": "electric_scooter", "lon": -77.05444283333334, "bike_id": "8c385c5b68cd9bcbe17aa90ae13524d6", "rental_uris": {"android": "https://dc.lft.to/lastmile_qr_scan", "ios": "https://dc.lft.to/lastmile_qr_scan"}, "name": "8c385c5b68cd9bcbe17aa90ae13524d6", "is_reserved": 0}, {"is_disabled": 0, "fusion_lon": 0.0, "fusion_lat": 0.0, "lat": 38.876387666666666, "type": "electric_scooter", "lon": -77.00385933333334, "bike_id": "64c983cee605dd7543a303f249df157c", "rental_uris": {"android": "https://dc.lft.to/lastmile_qr_scan", "ios": "https://dc.lft.to/lastmile_qr_scan"}, "name": "64c983cee605dd7543a303f249df157c", "is_reserved": 0}, {"is_disabled": 0, "fusion_lon": 0.0, "fusion_lat": 0.0, "lat": 38.89900466666667, "type": "electric_scooter", "lon": -76.931967, "bike_id": "13d80cbe200f5b82dcef9106404ddead", "rental_uris": {"android": "https://dc.lft.to/lastmile_qr_scan", "ios": "https://dc.lft.to/lastmile_qr_scan"}, "name": "13d80cbe200f5b82dcef9106404ddead", "is_reserved": 0}, {"is_disabled": 0, "fusion_lon": 0.0, "fusion_lat": 0.0, "lat": 38.934619166666664, "type": "electric_scooter", "lon": -77.03277633333333, "bike_id": "41ffcdf544b489362d4d5ed1a6f7646e", "rental_uris": {"android": "https://dc.lft.to/lastmile_qr_scan", "ios": "https://dc.lft.to/lastmile_qr_scan"}, "name": "41ffcdf544b489362d4d5ed1a6f7646e", "is_reserved": 0}, {"is_disabled": 0, "fusion_lon": 0.0, "fusion_lat": 0.0, "lat": 38.945570833333335, "type": "electric_bike", "lon": -76.98746033333333, "bike_id": "0eebfc81f96e0204191266d138024462", "rental_uris": {"android": "https://dc.lft.to/lastmile_qr_scan", "ios": "https://dc.lft.to/lastmile_qr_scan"}, "name": "0eebfc81f96e0204191266d138024462", "is_reserved": 0}, {"is_disabled": 0, "fusion_lon": 0.0, "fusion_lat": 0.0, "lat": 38.92038733333333, "type": "electric_scooter", "lon": -77.0418655, "bike_id": "57b3a66f1ce60f818c5b4cd332cd7a1f", "rental_uris": {"android": "https://dc.lft.to/lastmile_qr_scan", "ios": "https://dc.lft.to/lastmile_qr_scan"}, "name": "57b3a66f1ce60f818c5b4cd332cd7a1f", "is_reserved": 0}, {"is_disabled": 0, "fusion_lon": 0.0, "fusion_lat": 0.0, "lat": 38.91456633333333, "type": "electric_scooter", "lon": -77.02003166666667, "bike_id": "4377a0a13b48818b5bb5b842dc974c0e", "rental_uris": {"android": "https://dc.lft.to/lastmile_qr_scan", "ios": "https://dc.lft.to/lastmile_qr_scan"}, "name": "4377a0a13b48818b5bb5b842dc974c0e", "is_reserved": 0}, {"is_disabled": 0, "fusion_lon": 0.0, "fusion_lat": 0.0, "lat": 39.052095666666666, "type": "electric_bike", "lon": -77.04414466666667, "bike_id": "de65e9df293ebb73b5bac2990530f083", "rental_uris": {"android": "https://dc.lft.to/lastmile_qr_scan", "ios": "https://dc.lft.to/lastmile_qr_scan"}, "name": "de65e9df293ebb73b5bac2990530f083", "is_reserved": 0}, {"is_disabled": 0, "fusion_lon": 0.0, "fusion_lat": 0.0, "lat": 38.900184833333334, "type": "electric_scooter", "lon": -77.00186883333333, "bike_id": "f9fcf5f63c187eca4e89280846dc73d3", "rental_uris": {"android": "https://dc.lft.to/lastmile_qr_scan", "ios": "https://dc.lft.to/lastmile_qr_scan"}, "name": "f9fcf5f63c187eca4e89280846dc73d3", "is_reserved": 0}, {"is_disabled": 0, "fusion_lon": 0.0, "fusion_lat": 0.0, "lat": 38.90076033333333, "type": "electric_scooter", "lon": -77.0502565, "bike_id": "1c50160363f1c9a145a5a01ae291ee69", "rental_uris": {"android": "https://dc.lft.to/lastmile_qr_scan", "ios": "https://dc.lft.to/lastmile_qr_scan"}, "name": "1c50160363f1c9a145a5a01ae291ee69", "is_reserved": 0}, {"is_disabled": 0, "fusion_lon": 0.0, "fusion_lat": 0.0, "lat": 38.914031666666666, "type": "electric_scooter", "lon": -77.04536033333333, "bike_id": "b0d354f3ca5cb3ccd3fe22c9e2d469d0", "rental_uris": {"android": "https://dc.lft.to/lastmile_qr_scan", "ios": "https://dc.lft.to/lastmile_qr_scan"}, "name": "b0d354f3ca5cb3ccd3fe22c9e2d469d0", "is_reserved": 0}, {"is_disabled": 0, "fusion_lon": 0.0, "fusion_lat": 0.0, "lat": 38.862432, "type": "electric_scooter", "lon": -76.9950415, "bike_id": "6bbf4cfcce53111ffb27e9cca7fada1e", "rental_uris": {"android": "https://dc.lft.to/lastmile_qr_scan", "ios": "https://dc.lft.to/lastmile_qr_scan"}, "name": "6bbf4cfcce53111ffb27e9cca7fada1e", "is_reserved": 0}, {"is_disabled": 0, "fusion_lon": 0.0, "fusion_lat": 0.0, "lat": 38.8956425, "type": "electric_scooter", "lon": -77.0291965, "bike_id": "2890ff986b52fa56a860c4add437f24e", "rental_uris": {"android": "https://dc.lft.to/lastmile_qr_scan", "ios": "https://dc.lft.to/lastmile_qr_scan"}, "name": "2890ff986b52fa56a860c4add437f24e", "is_reserved": 0}, {"is_disabled": 0, "fusion_lon": 0.0, "fusion_lat": 0.0, "lat": 38.90773216666667, "type": "electric_scooter", "lon": -77.044963, "bike_id": "eca97c2ff3a703d1e9f21cf883620677", "rental_uris": {"android": "https://dc.lft.to/lastmile_qr_scan", "ios": "https://dc.lft.to/lastmile_qr_scan"}, "name": "eca97c2ff3a703d1e9f21cf883620677", "is_reserved": 0}, {"is_disabled": 0, "fusion_lon": 0.0, "fusion_lat": 0.0, "lat": 38.968159666666665, "type": "electric_scooter", "lon": -77.00890233333334, "bike_id": "d2d5618629ea509d7a8a287d6a07a104", "rental_uris": {"android": "https://dc.lft.to/lastmile_qr_scan", "ios": "https://dc.lft.to/lastmile_qr_scan"}, "name": "d2d5618629ea509d7a8a287d6a07a104", "is_reserved": 0}, {"is_disabled": 0, "fusion_lon": 0.0, "fusion_lat": 0.0, "lat": 38.903896333333336, "type": "electric_scooter", "lon": -77.00471716666667, "bike_id": "d4934ebfbf8273cc74566238e34c2ebb", "rental_uris": {"android": "https://dc.lft.to/lastmile_qr_scan", "ios": "https://dc.lft.to/lastmile_qr_scan"}, "name": "d4934ebfbf8273cc74566238e34c2ebb", "is_reserved": 0}, {"is_disabled": 0, "fusion_lon": 0.0, "fusion_lat": 0.0, "lat": 38.8863095, "type": "electric_bike", "lon": -77.09241566666667, "bike_id": "ce5ec8d96e8eb6a93e0600d9bd8d51c3", "rental_uris": {"android": "https://dc.lft.to/lastmile_qr_scan", "ios": "https://dc.lft.to/lastmile_qr_scan"}, "name": "ce5ec8d96e8eb6a93e0600d9bd8d51c3", "is_reserved": 0}, {"is_disabled": 0, "fusion_lon": 0.0, "fusion_lat": 0.0, "lat": 38.905193833333335, "type": "electric_scooter", "lon": -77.0512675, "bike_id": "b025f317dd49c8f5f07c284ea0bdc288", "rental_uris": {"android": "https://dc.lft.to/lastmile_qr_scan", "ios": "https://dc.lft.to/lastmile_qr_scan"}, "name": "b025f317dd49c8f5f07c284ea0bdc288", "is_reserved": 0}, {"is_disabled": 0, "fusion_lon": 0.0, "fusion_lat": 0.0, "lat": 38.909678166666666, "type": "electric_scooter", "lon": -77.03943933333333, "bike_id": "ff1407c5d5bac1f9aaae8f7009887113", "rental_uris": {"android": "https://dc.lft.to/lastmile_qr_scan", "ios": "https://dc.lft.to/lastmile_qr_scan"}, "name": "ff1407c5d5bac1f9aaae8f7009887113", "is_reserved": 0}, {"is_disabled": 0, "fusion_lon": 0.0, "fusion_lat": 0.0, "lat": 38.9203465, "type": "electric_scooter", "lon": -77.025869, "bike_id": "98a7ca2fcf4796f00cea909bc81a14ad", "rental_uris": {"android": "https://dc.lft.to/lastmile_qr_scan", "ios": "https://dc.lft.to/lastmile_qr_scan"}, "name": "98a7ca2fcf4796f00cea909bc81a14ad", "is_reserved": 0}, {"is_disabled": 0, "fusion_lon": 0.0, "fusion_lat": 0.0, "lat": 38.8996835, "type": "electric_scooter", "lon": -77.05154383333333, "bike_id": "c44b771759462af915e88d9ad6b312cd", "rental_uris": {"android": "https://dc.lft.to/lastmile_qr_scan", "ios": "https://dc.lft.to/lastmile_qr_scan"}, "name": "c44b771759462af915e88d9ad6b312cd", "is_reserved": 0}, {"is_disabled": 0, "fusion_lon": 0.0, "fusion_lat": 0.0, "lat": 38.897281666666665, "type": "electric_bike", "lon": -76.90543183333334, "bike_id": "aaaa6091b7c3bf8793fd106c31dd6f29", "rental_uris": {"android": "https://dc.lft.to/lastmile_qr_scan", "ios": "https://dc.lft.to/lastmile_qr_scan"}, "name": "aaaa6091b7c3bf8793fd106c31dd6f29", "is_reserved": 0}, {"is_disabled": 0, "fusion_lon": 0.0, "fusion_lat": 0.0, "lat": 38.846071333333335, "type": "electric_bike", "lon": -76.968795, "bike_id": "70e52cb79a170a82ada4cb18162036e8", "rental_uris": {"android": "https://dc.lft.to/lastmile_qr_scan", "ios": "https://dc.lft.to/lastmile_qr_scan"}, "name": "70e52cb79a170a82ada4cb18162036e8", "is_reserved": 0}, {"is_disabled": 0, "fusion_lon": 0.0, "fusion_lat": 0.0, "lat": 38.959638, "type": "electric_scooter", "lon": -77.0211805, "bike_id": "7e0dda9d54682d933781b3f56e3260f8", "rental_uris": {"android": "https://dc.lft.to/lastmile_qr_scan", "ios": "https://dc.lft.to/lastmile_qr_scan"}, "name": "7e0dda9d54682d933781b3f56e3260f8", "is_reserved": 0}, {"is_disabled": 0, "fusion_lon": 0.0, "fusion_lat": 0.0, "lat": 38.8840145, "type": "electric_bike", "lon": -77.03068166666667, "bike_id": "b40a0299817b0e5bdb6152db09893cb9", "rental_uris": {"android": "https://dc.lft.to/lastmile_qr_scan", "ios": "https://dc.lft.to/lastmile_qr_scan"}, "name": "b40a0299817b0e5bdb6152db09893cb9", "is_reserved": 0}, {"is_disabled": 0, "fusion_lon": 0.0, "fusion_lat": 0.0, "lat": 38.89508466666667, "type": "electric_scooter", "lon": -77.02288666666666, "bike_id": "c3f9efec4e086e4c264a9440047239c7", "rental_uris": {"android": "https://dc.lft.to/lastmile_qr_scan", "ios": "https://dc.lft.to/lastmile_qr_scan"}, "name": "c3f9efec4e086e4c264a9440047239c7", "is_reserved": 0}, {"is_disabled": 0, "fusion_lon": 0.0, "fusion_lat": 0.0, "lat": 38.896126833333334, "type": "electric_scooter", "lon": -77.02569816666667, "bike_id": "ca7232a187a2c43bca421ee5d715d565", "rental_uris": {"android": "https://dc.lft.to/lastmile_qr_scan", "ios": "https://dc.lft.to/lastmile_qr_scan"}, "name": "ca7232a187a2c43bca421ee5d715d565", "is_reserved": 0}, {"is_disabled": 0, "fusion_lon": 0.0, "fusion_lat": 0.0, "lat": 38.9540885, "type": "electric_scooter", "lon": -77.02751366666666, "bike_id": "229c8306d317c7cb57881ba80529fcfc", "rental_uris": {"android": "https://dc.lft.to/lastmile_qr_scan", "ios": "https://dc.lft.to/lastmile_qr_scan"}, "name": "229c8306d317c7cb57881ba80529fcfc", "is_reserved": 0}, {"is_disabled": 0, "fusion_lon": 0.0, "fusion_lat": 0.0, "lat": 38.899096, "type": "electric_scooter", "lon": -76.933949, "bike_id": "1a7fa7bf24c6b20a149f8e2fec03044c", "rental_uris": {"android": "https://dc.lft.to/lastmile_qr_scan", "ios": "https://dc.lft.to/lastmile_qr_scan"}, "name": "1a7fa7bf24c6b20a149f8e2fec03044c", "is_reserved": 0}, {"is_disabled": 0, "fusion_lon": 0.0, "fusion_lat": 0.0, "lat": 38.862991, "type": "electric_scooter", "lon": -76.982726, "bike_id": "94496fd52b112155e3d2ce2a976af86c", "rental_uris": {"android": "https://dc.lft.to/lastmile_qr_scan", "ios": "https://dc.lft.to/lastmile_qr_scan"}, "name": "94496fd52b112155e3d2ce2a976af86c", "is_reserved": 0}, {"is_disabled": 0, "fusion_lon": 0.0, "fusion_lat": 0.0, "lat": 38.907464166666664, "type": "electric_scooter", "lon": -77.00220216666666, "bike_id": "37b8af76d8b79d14cd99d3f6b94ccb92", "rental_uris": {"android": "https://dc.lft.to/lastmile_qr_scan", "ios": "https://dc.lft.to/lastmile_qr_scan"}, "name": "37b8af76d8b79d14cd99d3f6b94ccb92", "is_reserved": 0}, {"is_disabled": 0, "fusion_lon": 0.0, "fusion_lat": 0.0, "lat": 38.922238666666665, "type": "electric_scooter", "lon": -77.04346066666666, "bike_id": "0bcac6880b16afafb803a023564dfaa6", "rental_uris": {"android": "https://dc.lft.to/lastmile_qr_scan", "ios": "https://dc.lft.to/lastmile_qr_scan"}, "name": "0bcac6880b16afafb803a023564dfaa6", "is_reserved": 0}, {"is_disabled": 0, "fusion_lon": 0.0, "fusion_lat": 0.0, "lat": 38.92613266666667, "type": "electric_scooter", "lon": -77.02164616666667, "bike_id": "6040a1c2d3682c85b340e8759584f8d1", "rental_uris": {"android": "https://dc.lft.to/lastmile_qr_scan", "ios": "https://dc.lft.to/lastmile_qr_scan"}, "name": "6040a1c2d3682c85b340e8759584f8d1", "is_reserved": 0}, {"is_disabled": 0, "fusion_lon": 0.0, "fusion_lat": 0.0, "lat": 38.960335666666666, "type": "electric_bike", "lon": -76.92706833333334, "bike_id": "66283038e40f60302f5629e5484a0dbf", "rental_uris": {"android": "https://dc.lft.to/lastmile_qr_scan", "ios": "https://dc.lft.to/lastmile_qr_scan"}, "name": "66283038e40f60302f5629e5484a0dbf", "is_reserved": 0}, {"is_disabled": 0, "fusion_lon": 0.0, "fusion_lat": 0.0, "lat": 38.918768666666665, "type": "electric_scooter", "lon": -77.03503666666667, "bike_id": "a73caaa259f1161b299ae8dec84418f5", "rental_uris": {"android": "https://dc.lft.to/lastmile_qr_scan", "ios": "https://dc.lft.to/lastmile_qr_scan"}, "name": "a73caaa259f1161b299ae8dec84418f5", "is_reserved": 0}, {"is_disabled": 0, "fusion_lon": 0.0, "fusion_lat": 0.0, "lat": 38.893738, "type": "electric_scooter", "lon": -76.9781985, "bike_id": "a753a9fefd857249517d03ab0c97d3c5", "rental_uris": {"android": "https://dc.lft.to/lastmile_qr_scan", "ios": "https://dc.lft.to/lastmile_qr_scan"}, "name": "a753a9fefd857249517d03ab0c97d3c5", "is_reserved": 0}, {"is_disabled": 0, "fusion_lon": 0.0, "fusion_lat": 0.0, "lat": 38.921808666666664, "type": "electric_scooter", "lon": -77.04235316666667, "bike_id": "37e685c196ce7506acb573fcdeb03071", "rental_uris": {"android": "https://dc.lft.to/lastmile_qr_scan", "ios": "https://dc.lft.to/lastmile_qr_scan"}, "name": "37e685c196ce7506acb573fcdeb03071", "is_reserved": 0}, {"is_disabled": 0, "fusion_lon": 0.0, "fusion_lat": 0.0, "lat": 38.90052266666667, "type": "electric_scooter", "lon": -76.98834166666667, "bike_id": "dbef816030f481051f4a1332727270e8", "rental_uris": {"android": "https://dc.lft.to/lastmile_qr_scan", "ios": "https://dc.lft.to/lastmile_qr_scan"}, "name": "dbef816030f481051f4a1332727270e8", "is_reserved": 0}, {"is_disabled": 0, "fusion_lon": 0.0, "fusion_lat": 0.0, "lat": 38.899038166666664, "type": "electric_scooter", "lon": -77.03344183333333, "bike_id": "0c3ca9a36f130036ec5b738d8b398194", "rental_uris": {"android": "https://dc.lft.to/lastmile_qr_scan", "ios": "https://dc.lft.to/lastmile_qr_scan"}, "name": "0c3ca9a36f130036ec5b738d8b398194", "is_reserved": 0}, {"is_disabled": 0, "fusion_lon": 0.0, "fusion_lat": 0.0, "lat": 38.923648, "type": "electric_scooter", "lon": -77.08059366666667, "bike_id": "0e988d149b515ad9e37bf9d10697b342", "rental_uris": {"android": "https://dc.lft.to/lastmile_qr_scan", "ios": "https://dc.lft.to/lastmile_qr_scan"}, "name": "0e988d149b515ad9e37bf9d10697b342", "is_reserved": 0}, {"is_disabled": 0, "fusion_lon": 0.0, "fusion_lat": 0.0, "lat": 38.90024433333333, "type": "electric_scooter", "lon": -76.98852316666667, "bike_id": "2ea45dcac314c0c37d3edd7af2357b9c", "rental_uris": {"android": "https://dc.lft.to/lastmile_qr_scan", "ios": "https://dc.lft.to/lastmile_qr_scan"}, "name": "2ea45dcac314c0c37d3edd7af2357b9c", "is_reserved": 0}, {"is_disabled": 0, "fusion_lon": 0.0, "fusion_lat": 0.0, "lat": 38.858693333333335, "type": "electric_scooter", "lon": -76.99023016666666, "bike_id": "59a6ffe2c4702e2e7c4b02babe23cf82", "rental_uris": {"android": "https://dc.lft.to/lastmile_qr_scan", "ios": "https://dc.lft.to/lastmile_qr_scan"}, "name": "59a6ffe2c4702e2e7c4b02babe23cf82", "is_reserved": 0}, {"is_disabled": 0, "fusion_lon": 0.0, "fusion_lat": 0.0, "lat": 38.91999583333333, "type": "electric_scooter", "lon": -76.97320666666667, "bike_id": "e33079b787578d5b4e71bd16f3270719", "rental_uris": {"android": "https://dc.lft.to/lastmile_qr_scan", "ios": "https://dc.lft.to/lastmile_qr_scan"}, "name": "e33079b787578d5b4e71bd16f3270719", "is_reserved": 0}, {"is_disabled": 0, "fusion_lon": 0.0, "fusion_lat": 0.0, "lat": 38.940376666666666, "type": "electric_scooter", "lon": -77.02916266666666, "bike_id": "bca2bb44be688e9a7fd41206286202ca", "rental_uris": {"android": "https://dc.lft.to/lastmile_qr_scan", "ios": "https://dc.lft.to/lastmile_qr_scan"}, "name": "bca2bb44be688e9a7fd41206286202ca", "is_reserved": 0}, {"is_disabled": 0, "fusion_lon": 0.0, "fusion_lat": 0.0, "lat": 38.90288433333333, "type": "electric_scooter", "lon": -77.02414783333333, "bike_id": "edcacfabf0dcc3d3353e0d332096bec5", "rental_uris": {"android": "https://dc.lft.to/lastmile_qr_scan", "ios": "https://dc.lft.to/lastmile_qr_scan"}, "name": "edcacfabf0dcc3d3353e0d332096bec5", "is_reserved": 0}, {"is_disabled": 0, "fusion_lon": 0.0, "fusion_lat": 0.0, "lat": 38.9006775, "type": "electric_scooter", "lon": -77.00211383333334, "bike_id": "5f709302271f4ba024ca20cf68dbdc4e", "rental_uris": {"android": "https://dc.lft.to/lastmile_qr_scan", "ios": "https://dc.lft.to/lastmile_qr_scan"}, "name": "5f709302271f4ba024ca20cf68dbdc4e", "is_reserved": 0}, {"is_disabled": 0, "fusion_lon": 0.0, "fusion_lat": 0.0, "lat": 38.912557666666665, "type": "electric_scooter", "lon": -77.04440333333334, "bike_id": "44f8017262a59c8a301a055e6c9971f5", "rental_uris": {"android": "https://dc.lft.to/lastmile_qr_scan", "ios": "https://dc.lft.to/lastmile_qr_scan"}, "name": "44f8017262a59c8a301a055e6c9971f5", "is_reserved": 0}, {"is_disabled": 0, "fusion_lon": 0.0, "fusion_lat": 0.0, "lat": 38.890794666666665, "type": "electric_scooter", "lon": -76.9386855, "bike_id": "1c39d6167a202ffe3256d696fde865fe", "rental_uris": {"android": "https://dc.lft.to/lastmile_qr_scan", "ios": "https://dc.lft.to/lastmile_qr_scan"}, "name": "1c39d6167a202ffe3256d696fde865fe", "is_reserved": 0}, {"is_disabled": 0, "fusion_lon": 0.0, "fusion_lat": 0.0, "lat": 38.909439166666665, "type": "electric_scooter", "lon": -77.03525233333333, "bike_id": "c3fe778f9a5e7dfe7e5fbd2e7f04a12e", "rental_uris": {"android": "https://dc.lft.to/lastmile_qr_scan", "ios": "https://dc.lft.to/lastmile_qr_scan"}, "name": "c3fe778f9a5e7dfe7e5fbd2e7f04a12e", "is_reserved": 0}, {"is_disabled": 0, "fusion_lon": 0.0, "fusion_lat": 0.0, "lat": 38.907925666666664, "type": "electric_scooter", "lon": -77.03851783333333, "bike_id": "60dd3c0a14344e8abcb9b627848289c0", "rental_uris": {"android": "https://dc.lft.to/lastmile_qr_scan", "ios": "https://dc.lft.to/lastmile_qr_scan"}, "name": "60dd3c0a14344e8abcb9b627848289c0", "is_reserved": 0}, {"is_disabled": 0, "fusion_lon": 0.0, "fusion_lat": 0.0, "lat": 38.8922495, "type": "electric_scooter", "lon": -77.04708133333334, "bike_id": "2f2aa9d01d101f9e302ba0b0ffa6ea3c", "rental_uris": {"android": "https://dc.lft.to/lastmile_qr_scan", "ios": "https://dc.lft.to/lastmile_qr_scan"}, "name": "2f2aa9d01d101f9e302ba0b0ffa6ea3c", "is_reserved": 0}, {"is_disabled": 0, "fusion_lon": 0.0, "fusion_lat": 0.0, "lat": 38.95019333333333, "type": "electric_bike", "lon": -77.0547485, "bike_id": "dc8bf9961b313663506c58d17e2cd73d", "rental_uris": {"android": "https://dc.lft.to/lastmile_qr_scan", "ios": "https://dc.lft.to/lastmile_qr_scan"}, "name": "dc8bf9961b313663506c58d17e2cd73d", "is_reserved": 0}, {"is_disabled": 0, "fusion_lon": 0.0, "fusion_lat": 0.0, "lat": 38.89223166666667, "type": "electric_scooter", "lon": -77.04791883333333, "bike_id": "7d3a80a819322297c4140041d6d62892", "rental_uris": {"android": "https://dc.lft.to/lastmile_qr_scan", "ios": "https://dc.lft.to/lastmile_qr_scan"}, "name": "7d3a80a819322297c4140041d6d62892", "is_reserved": 0}, {"is_disabled": 0, "fusion_lon": 0.0, "fusion_lat": 0.0, "lat": 38.9327975, "type": "electric_scooter", "lon": -77.03978783333334, "bike_id": "978760666277ebdab96a8af675f00563", "rental_uris": {"android": "https://dc.lft.to/lastmile_qr_scan", "ios": "https://dc.lft.to/lastmile_qr_scan"}, "name": "978760666277ebdab96a8af675f00563", "is_reserved": 0}, {"is_disabled": 0, "fusion_lon": 0.0, "fusion_lat": 0.0, "lat": 38.88120816666667, "type": "electric_bike", "lon": -77.001902, "bike_id": "8c6ea27ac79d1a4838cb9f956bc8dbdf", "rental_uris": {"android": "https://dc.lft.to/lastmile_qr_scan", "ios": "https://dc.lft.to/lastmile_qr_scan"}, "name": "8c6ea27ac79d1a4838cb9f956bc8dbdf", "is_reserved": 0}, {"is_disabled": 0, "fusion_lon": 0.0, "fusion_lat": 0.0, "lat": 38.913022833333336, "type": "electric_scooter", "lon": -77.03200083333333, "bike_id": "33ed4215ac60e241213b43d0d4e11261", "rental_uris": {"android": "https://dc.lft.to/lastmile_qr_scan", "ios": "https://dc.lft.to/lastmile_qr_scan"}, "name": "33ed4215ac60e241213b43d0d4e11261", "is_reserved": 0}, {"is_disabled": 0, "fusion_lon": 0.0, "fusion_lat": 0.0, "lat": 38.885046833333334, "type": "electric_scooter", "lon": -77.0032485, "bike_id": "3ccf3971d10a7d085ab59e90741aed96", "rental_uris": {"android": "https://dc.lft.to/lastmile_qr_scan", "ios": "https://dc.lft.to/lastmile_qr_scan"}, "name": "3ccf3971d10a7d085ab59e90741aed96", "is_reserved": 0}, {"is_disabled": 0, "fusion_lon": 0.0, "fusion_lat": 0.0, "lat": 38.90310083333333, "type": "electric_scooter", "lon": -77.0241115, "bike_id": "ec00e5fb98c4757e49ac2511f5c254dd", "rental_uris": {"android": "https://dc.lft.to/lastmile_qr_scan", "ios": "https://dc.lft.to/lastmile_qr_scan"}, "name": "ec00e5fb98c4757e49ac2511f5c254dd", "is_reserved": 0}, {"is_disabled": 0, "fusion_lon": 0.0, "fusion_lat": 0.0, "lat": 38.895556666666664, "type": "electric_scooter", "lon": -77.02931216666667, "bike_id": "a44fa0c1b0ae71b2522e9762b3b057bf", "rental_uris": {"android": "https://dc.lft.to/lastmile_qr_scan", "ios": "https://dc.lft.to/lastmile_qr_scan"}, "name": "a44fa0c1b0ae71b2522e9762b3b057bf", "is_reserved": 0}, {"is_disabled": 0, "fusion_lon": 0.0, "fusion_lat": 0.0, "lat": 38.959550166666666, "type": "electric_scooter", "lon": -77.0722825, "bike_id": "e8bae4bb98029e4059677b01a4f37d74", "rental_uris": {"android": "https://dc.lft.to/lastmile_qr_scan", "ios": "https://dc.lft.to/lastmile_qr_scan"}, "name": "e8bae4bb98029e4059677b01a4f37d74", "is_reserved": 0}, {"is_disabled": 0, "fusion_lon": 0.0, "fusion_lat": 0.0, "lat": 38.89846383333333, "type": "electric_scooter", "lon": -76.94634933333333, "bike_id": "92ab3fe860145804c37fe3259df95d91", "rental_uris": {"android": "https://dc.lft.to/lastmile_qr_scan", "ios": "https://dc.lft.to/lastmile_qr_scan"}, "name": "92ab3fe860145804c37fe3259df95d91", "is_reserved": 0}, {"is_disabled": 0, "fusion_lon": 0.0, "fusion_lat": 0.0, "lat": 38.919031333333336, "type": "electric_scooter", "lon": -77.02757966666667, "bike_id": "ecfc475b71782b0780abbc009bb39f38", "rental_uris": {"android": "https://dc.lft.to/lastmile_qr_scan", "ios": "https://dc.lft.to/lastmile_qr_scan"}, "name": "ecfc475b71782b0780abbc009bb39f38", "is_reserved": 0}, {"is_disabled": 0, "fusion_lon": 0.0, "fusion_lat": 0.0, "lat": 38.900551166666666, "type": "electric_scooter", "lon": -77.013101, "bike_id": "ef225c32998a27102650abb88969a8af", "rental_uris": {"android": "https://dc.lft.to/lastmile_qr_scan", "ios": "https://dc.lft.to/lastmile_qr_scan"}, "name": "ef225c32998a27102650abb88969a8af", "is_reserved": 0}, {"is_disabled": 0, "fusion_lon": 0.0, "fusion_lat": 0.0, "lat": 38.926231666666666, "type": "electric_scooter", "lon": -77.04334883333334, "bike_id": "d0e8779192d418ab7fec8e37e0b9ce96", "rental_uris": {"android": "https://dc.lft.to/lastmile_qr_scan", "ios": "https://dc.lft.to/lastmile_qr_scan"}, "name": "d0e8779192d418ab7fec8e37e0b9ce96", "is_reserved": 0}, {"is_disabled": 0, "fusion_lon": 0.0, "fusion_lat": 0.0, "lat": 38.90009466666667, "type": "electric_scooter", "lon": -77.00687716666667, "bike_id": "d47e790810ffc45fd3946b463ffc53f9", "rental_uris": {"android": "https://dc.lft.to/lastmile_qr_scan", "ios": "https://dc.lft.to/lastmile_qr_scan"}, "name": "d47e790810ffc45fd3946b463ffc53f9", "is_reserved": 0}, {"is_disabled": 0, "fusion_lon": 0.0, "fusion_lat": 0.0, "lat": 38.88966633333333, "type": "electric_scooter", "lon": -76.92738716666666, "bike_id": "ebc45c5fc5a3323376859f623f47dfcd", "rental_uris": {"android": "https://dc.lft.to/lastmile_qr_scan", "ios": "https://dc.lft.to/lastmile_qr_scan"}, "name": "ebc45c5fc5a3323376859f623f47dfcd", "is_reserved": 0}, {"is_disabled": 0, "fusion_lon": 0.0, "fusion_lat": 0.0, "lat": 38.909583166666664, "type": "electric_scooter", "lon": -77.0591885, "bike_id": "f4ca42ffaf066d1c44dcd767210ea3ca", "rental_uris": {"android": "https://dc.lft.to/lastmile_qr_scan", "ios": "https://dc.lft.to/lastmile_qr_scan"}, "name": "f4ca42ffaf066d1c44dcd767210ea3ca", "is_reserved": 0}, {"is_disabled": 0, "fusion_lon": 0.0, "fusion_lat": 0.0, "lat": 38.9002895, "type": "electric_scooter", "lon": -77.0070705, "bike_id": "ed9252b768ce8b92663c599617445125", "rental_uris": {"android": "https://dc.lft.to/lastmile_qr_scan", "ios": "https://dc.lft.to/lastmile_qr_scan"}, "name": "ed9252b768ce8b92663c599617445125", "is_reserved": 0}, {"is_disabled": 0, "fusion_lon": 0.0, "fusion_lat": 0.0, "lat": 38.9127475, "type": "electric_scooter", "lon": -77.04170166666667, "bike_id": "9adcd3cb315d46f17597f74769d1e0a7", "rental_uris": {"android": "https://dc.lft.to/lastmile_qr_scan", "ios": "https://dc.lft.to/lastmile_qr_scan"}, "name": "9adcd3cb315d46f17597f74769d1e0a7", "is_reserved": 0}, {"is_disabled": 0, "fusion_lon": 0.0, "fusion_lat": 0.0, "lat": 38.878984, "type": "electric_scooter", "lon": -76.935253, "bike_id": "e2eb751c2737acf3e66547329af9bb36", "rental_uris": {"android": "https://dc.lft.to/lastmile_qr_scan", "ios": "https://dc.lft.to/lastmile_qr_scan"}, "name": "e2eb751c2737acf3e66547329af9bb36", "is_reserved": 0}, {"is_disabled": 0, "fusion_lon": 0.0, "fusion_lat": 0.0, "lat": 38.92966366666667, "type": "electric_scooter", "lon": -77.03659716666667, "bike_id": "765bcf0576518eac6bed225fef80e632", "rental_uris": {"android": "https://dc.lft.to/lastmile_qr_scan", "ios": "https://dc.lft.to/lastmile_qr_scan"}, "name": "765bcf0576518eac6bed225fef80e632", "is_reserved": 0}, {"is_disabled": 0, "fusion_lon": 0.0, "fusion_lat": 0.0, "lat": 38.80789083333333, "type": "electric_bike", "lon": -77.13838916666667, "bike_id": "373962114d8859ccbf706db1cd167936", "rental_uris": {"android": "https://dc.lft.to/lastmile_qr_scan", "ios": "https://dc.lft.to/lastmile_qr_scan"}, "name": "373962114d8859ccbf706db1cd167936", "is_reserved": 0}, {"is_disabled": 0, "fusion_lon": 0.0, "fusion_lat": 0.0, "lat": 38.943015, "type": "electric_scooter", "lon": -77.02530316666666, "bike_id": "e0f531768d49ff3309cadf777f79a06b", "rental_uris": {"android": "https://dc.lft.to/lastmile_qr_scan", "ios": "https://dc.lft.to/lastmile_qr_scan"}, "name": "e0f531768d49ff3309cadf777f79a06b", "is_reserved": 0}, {"is_disabled": 0, "fusion_lon": 0.0, "fusion_lat": 0.0, "lat": 38.9027035, "type": "electric_scooter", "lon": -77.0284375, "bike_id": "92960bea463a4f58b2dd93bca7a1e09d", "rental_uris": {"android": "https://dc.lft.to/lastmile_qr_scan", "ios": "https://dc.lft.to/lastmile_qr_scan"}, "name": "92960bea463a4f58b2dd93bca7a1e09d", "is_reserved": 0}, {"is_disabled": 0, "fusion_lon": 0.0, "fusion_lat": 0.0, "lat": 38.901058, "type": "electric_scooter", "lon": -77.04767766666667, "bike_id": "158ad05d5e7810098fdcc47bd42cb715", "rental_uris": {"android": "https://dc.lft.to/lastmile_qr_scan", "ios": "https://dc.lft.to/lastmile_qr_scan"}, "name": "158ad05d5e7810098fdcc47bd42cb715", "is_reserved": 0}, {"is_disabled": 0, "fusion_lon": 0.0, "fusion_lat": 0.0, "lat": 38.874968833333334, "type": "electric_scooter", "lon": -77.00179283333334, "bike_id": "bc6e8b922767052eb2852bc4925229ab", "rental_uris": {"android": "https://dc.lft.to/lastmile_qr_scan", "ios": "https://dc.lft.to/lastmile_qr_scan"}, "name": "bc6e8b922767052eb2852bc4925229ab", "is_reserved": 0}, {"is_disabled": 0, "fusion_lon": 0.0, "fusion_lat": 0.0, "lat": 38.894751166666666, "type": "electric_scooter", "lon": -76.93305816666667, "bike_id": "9669d827fede774aed693de9cefcdd35", "rental_uris": {"android": "https://dc.lft.to/lastmile_qr_scan", "ios": "https://dc.lft.to/lastmile_qr_scan"}, "name": "9669d827fede774aed693de9cefcdd35", "is_reserved": 0}, {"is_disabled": 0, "fusion_lon": 0.0, "fusion_lat": 0.0, "lat": 38.891541, "type": "electric_scooter", "lon": -76.9190205, "bike_id": "8cc133675fa9516667168a8fd7a91feb", "rental_uris": {"android": "https://dc.lft.to/lastmile_qr_scan", "ios": "https://dc.lft.to/lastmile_qr_scan"}, "name": "8cc133675fa9516667168a8fd7a91feb", "is_reserved": 0}, {"is_disabled": 0, "fusion_lon": 0.0, "fusion_lat": 0.0, "lat": 38.88430916666667, "type": "electric_scooter", "lon": -77.01978466666667, "bike_id": "e8c0c08bbf7e2d0e39e6d9bc6343798e", "rental_uris": {"android": "https://dc.lft.to/lastmile_qr_scan", "ios": "https://dc.lft.to/lastmile_qr_scan"}, "name": "e8c0c08bbf7e2d0e39e6d9bc6343798e", "is_reserved": 0}, {"is_disabled": 0, "fusion_lon": 0.0, "fusion_lat": 0.0, "lat": 38.91948266666667, "type": "electric_scooter", "lon": -77.03418, "bike_id": "29a63322637a58a511efc671329e25fd", "rental_uris": {"android": "https://dc.lft.to/lastmile_qr_scan", "ios": "https://dc.lft.to/lastmile_qr_scan"}, "name": "29a63322637a58a511efc671329e25fd", "is_reserved": 0}, {"is_disabled": 0, "fusion_lon": 0.0, "fusion_lat": 0.0, "lat": 38.897969333333336, "type": "electric_scooter", "lon": -77.011844, "bike_id": "782c533938b9a38bffa41bc3b6a4edde", "rental_uris": {"android": "https://dc.lft.to/lastmile_qr_scan", "ios": "https://dc.lft.to/lastmile_qr_scan"}, "name": "782c533938b9a38bffa41bc3b6a4edde", "is_reserved": 0}, {"is_disabled": 0, "fusion_lon": 0.0, "fusion_lat": 0.0, "lat": 38.952288833333334, "type": "electric_scooter", "lon": -77.027627, "bike_id": "7b57f473a72f3c6f55f1598837fe1834", "rental_uris": {"android": "https://dc.lft.to/lastmile_qr_scan", "ios": "https://dc.lft.to/lastmile_qr_scan"}, "name": "7b57f473a72f3c6f55f1598837fe1834", "is_reserved": 0}, {"is_disabled": 0, "fusion_lon": 0.0, "fusion_lat": 0.0, "lat": 38.89766383333333, "type": "electric_scooter", "lon": -76.99270983333334, "bike_id": "afe32c07531230a1e801bf407eb230ec", "rental_uris": {"android": "https://dc.lft.to/lastmile_qr_scan", "ios": "https://dc.lft.to/lastmile_qr_scan"}, "name": "afe32c07531230a1e801bf407eb230ec", "is_reserved": 0}, {"is_disabled": 0, "fusion_lon": 0.0, "fusion_lat": 0.0, "lat": 38.919161833333334, "type": "electric_scooter", "lon": -77.01900066666667, "bike_id": "daabacf75ace6fcec74784d313d30d9f", "rental_uris": {"android": "https://dc.lft.to/lastmile_qr_scan", "ios": "https://dc.lft.to/lastmile_qr_scan"}, "name": "daabacf75ace6fcec74784d313d30d9f", "is_reserved": 0}, {"is_disabled": 0, "fusion_lon": 0.0, "fusion_lat": 0.0, "lat": 38.91322366666667, "type": "electric_scooter", "lon": -77.01506916666666, "bike_id": "54e361aa6f7d8e67a7119a5038043b11", "rental_uris": {"android": "https://dc.lft.to/lastmile_qr_scan", "ios": "https://dc.lft.to/lastmile_qr_scan"}, "name": "54e361aa6f7d8e67a7119a5038043b11", "is_reserved": 0}, {"is_disabled": 0, "fusion_lon": 0.0, "fusion_lat": 0.0, "lat": 38.9335735, "type": "electric_scooter", "lon": -77.0737785, "bike_id": "22658157b428c2cde8f4fcf66882f813", "rental_uris": {"android": "https://dc.lft.to/lastmile_qr_scan", "ios": "https://dc.lft.to/lastmile_qr_scan"}, "name": "22658157b428c2cde8f4fcf66882f813", "is_reserved": 0}, {"is_disabled": 0, "fusion_lon": 0.0, "fusion_lat": 0.0, "lat": 38.914320333333336, "type": "electric_scooter", "lon": -77.02817816666666, "bike_id": "a170fbb4c5d22268afbb1c42e0ccbfb3", "rental_uris": {"android": "https://dc.lft.to/lastmile_qr_scan", "ios": "https://dc.lft.to/lastmile_qr_scan"}, "name": "a170fbb4c5d22268afbb1c42e0ccbfb3", "is_reserved": 0}, {"is_disabled": 0, "fusion_lon": 0.0, "fusion_lat": 0.0, "lat": 38.90777083333333, "type": "electric_scooter", "lon": -76.94127866666666, "bike_id": "64de3391d9b4528f217c094bf6402314", "rental_uris": {"android": "https://dc.lft.to/lastmile_qr_scan", "ios": "https://dc.lft.to/lastmile_qr_scan"}, "name": "64de3391d9b4528f217c094bf6402314", "is_reserved": 0}, {"is_disabled": 0, "fusion_lon": 0.0, "fusion_lat": 0.0, "lat": 38.91957083333333, "type": "electric_scooter", "lon": -77.0004125, "bike_id": "daa60ac89fbd0c2a3bea0e0a6c6dd8d7", "rental_uris": {"android": "https://dc.lft.to/lastmile_qr_scan", "ios": "https://dc.lft.to/lastmile_qr_scan"}, "name": "daa60ac89fbd0c2a3bea0e0a6c6dd8d7", "is_reserved": 0}, {"is_disabled": 0, "fusion_lon": 0.0, "fusion_lat": 0.0, "lat": 38.914801, "type": "electric_scooter", "lon": -77.04288383333333, "bike_id": "6e5c1e2a2a927e6c2e1c70bf04897dcc", "rental_uris": {"android": "https://dc.lft.to/lastmile_qr_scan", "ios": "https://dc.lft.to/lastmile_qr_scan"}, "name": "6e5c1e2a2a927e6c2e1c70bf04897dcc", "is_reserved": 0}, {"is_disabled": 0, "fusion_lon": 0.0, "fusion_lat": 0.0, "lat": 38.905744, "type": "electric_scooter", "lon": -77.0434395, "bike_id": "b45425b6b5778516653c14db181b4e7c", "rental_uris": {"android": "https://dc.lft.to/lastmile_qr_scan", "ios": "https://dc.lft.to/lastmile_qr_scan"}, "name": "b45425b6b5778516653c14db181b4e7c", "is_reserved": 0}, {"is_disabled": 0, "fusion_lon": 0.0, "fusion_lat": 0.0, "lat": 38.9222955, "type": "electric_scooter", "lon": -77.0233515, "bike_id": "3ec16b8432b5698382a0cfa6a81a6398", "rental_uris": {"android": "https://dc.lft.to/lastmile_qr_scan", "ios": "https://dc.lft.to/lastmile_qr_scan"}, "name": "3ec16b8432b5698382a0cfa6a81a6398", "is_reserved": 0}, {"is_disabled": 0, "fusion_lon": 0.0, "fusion_lat": 0.0, "lat": 38.90852433333333, "type": "electric_scooter", "lon": -77.0476935, "bike_id": "99b63c51e9202d29fded55acd76df076", "rental_uris": {"android": "https://dc.lft.to/lastmile_qr_scan", "ios": "https://dc.lft.to/lastmile_qr_scan"}, "name": "99b63c51e9202d29fded55acd76df076", "is_reserved": 0}, {"is_disabled": 0, "fusion_lon": 0.0, "fusion_lat": 0.0, "lat": 38.9180325, "type": "electric_scooter", "lon": -77.03447116666666, "bike_id": "86e7995bf0ff7c07158976991e9a6214", "rental_uris": {"android": "https://dc.lft.to/lastmile_qr_scan", "ios": "https://dc.lft.to/lastmile_qr_scan"}, "name": "86e7995bf0ff7c07158976991e9a6214", "is_reserved": 0}, {"is_disabled": 0, "fusion_lon": 0.0, "fusion_lat": 0.0, "lat": 38.91632366666666, "type": "electric_scooter", "lon": -77.032668, "bike_id": "7e55265870ae0a3cf5719c27739494dc", "rental_uris": {"android": "https://dc.lft.to/lastmile_qr_scan", "ios": "https://dc.lft.to/lastmile_qr_scan"}, "name": "7e55265870ae0a3cf5719c27739494dc", "is_reserved": 0}, {"is_disabled": 0, "fusion_lon": 0.0, "fusion_lat": 0.0, "lat": 38.919856, "type": "electric_scooter", "lon": -77.03273333333334, "bike_id": "e8e3281d3b67417c7a3521f31b6be341", "rental_uris": {"android": "https://dc.lft.to/lastmile_qr_scan", "ios": "https://dc.lft.to/lastmile_qr_scan"}, "name": "e8e3281d3b67417c7a3521f31b6be341", "is_reserved": 0}, {"is_disabled": 0, "fusion_lon": 0.0, "fusion_lat": 0.0, "lat": 38.91108, "type": "electric_scooter", "lon": -77.02420116666667, "bike_id": "4053ae5491feb0d34c38b3754e38feed", "rental_uris": {"android": "https://dc.lft.to/lastmile_qr_scan", "ios": "https://dc.lft.to/lastmile_qr_scan"}, "name": "4053ae5491feb0d34c38b3754e38feed", "is_reserved": 0}, {"is_disabled": 0, "fusion_lon": 0.0, "fusion_lat": 0.0, "lat": 38.9460395, "type": "electric_scooter", "lon": -77.029802, "bike_id": "81612a7a54d741687d402dafb2da720a", "rental_uris": {"android": "https://dc.lft.to/lastmile_qr_scan", "ios": "https://dc.lft.to/lastmile_qr_scan"}, "name": "81612a7a54d741687d402dafb2da720a", "is_reserved": 0}, {"is_disabled": 0, "fusion_lon": 0.0, "fusion_lat": 0.0, "lat": 38.9899535, "type": "electric_scooter", "lon": -77.03363483333334, "bike_id": "ee022bc64b050f005beeada8cf46a4bd", "rental_uris": {"android": "https://dc.lft.to/lastmile_qr_scan", "ios": "https://dc.lft.to/lastmile_qr_scan"}, "name": "ee022bc64b050f005beeada8cf46a4bd", "is_reserved": 0}, {"is_disabled": 0, "fusion_lon": 0.0, "fusion_lat": 0.0, "lat": 38.884978, "type": "electric_scooter", "lon": -77.01729733333333, "bike_id": "79742b17d1f1c0b9212be63fbd83be22", "rental_uris": {"android": "https://dc.lft.to/lastmile_qr_scan", "ios": "https://dc.lft.to/lastmile_qr_scan"}, "name": "79742b17d1f1c0b9212be63fbd83be22", "is_reserved": 0}, {"is_disabled": 0, "fusion_lon": 0.0, "fusion_lat": 0.0, "lat": 38.89759216666667, "type": "electric_scooter", "lon": -77.02152433333333, "bike_id": "1665a123ac918208fc7ba81c08abec8c", "rental_uris": {"android": "https://dc.lft.to/lastmile_qr_scan", "ios": "https://dc.lft.to/lastmile_qr_scan"}, "name": "1665a123ac918208fc7ba81c08abec8c", "is_reserved": 0}, {"is_disabled": 0, "fusion_lon": 0.0, "fusion_lat": 0.0, "lat": 38.902127, "type": "electric_scooter", "lon": -77.024318, "bike_id": "d07858e618f341ccb40e65ea0de59911", "rental_uris": {"android": "https://dc.lft.to/lastmile_qr_scan", "ios": "https://dc.lft.to/lastmile_qr_scan"}, "name": "d07858e618f341ccb40e65ea0de59911", "is_reserved": 0}, {"is_disabled": 0, "fusion_lon": 0.0, "fusion_lat": 0.0, "lat": 38.912686, "type": "electric_scooter", "lon": -77.02239783333333, "bike_id": "54f252a474783b67b526949905d3d837", "rental_uris": {"android": "https://dc.lft.to/lastmile_qr_scan", "ios": "https://dc.lft.to/lastmile_qr_scan"}, "name": "54f252a474783b67b526949905d3d837", "is_reserved": 0}, {"is_disabled": 0, "fusion_lon": 0.0, "fusion_lat": 0.0, "lat": 38.91328733333334, "type": "electric_scooter", "lon": -77.03177583333333, "bike_id": "0bbe987395210061e86a3f6a4e2d5c6c", "rental_uris": {"android": "https://dc.lft.to/lastmile_qr_scan", "ios": "https://dc.lft.to/lastmile_qr_scan"}, "name": "0bbe987395210061e86a3f6a4e2d5c6c", "is_reserved": 0}, {"is_disabled": 0, "fusion_lon": 0.0, "fusion_lat": 0.0, "lat": 38.8743215, "type": "electric_scooter", "lon": -77.00922216666666, "bike_id": "2adf627f0fd1a092a55be3e6d66116fa", "rental_uris": {"android": "https://dc.lft.to/lastmile_qr_scan", "ios": "https://dc.lft.to/lastmile_qr_scan"}, "name": "2adf627f0fd1a092a55be3e6d66116fa", "is_reserved": 0}, {"is_disabled": 0, "fusion_lon": 0.0, "fusion_lat": 0.0, "lat": 38.91108883333333, "type": "electric_scooter", "lon": -77.04263433333334, "bike_id": "7f87fd784f67706ceab4bc0fe839a46e", "rental_uris": {"android": "https://dc.lft.to/lastmile_qr_scan", "ios": "https://dc.lft.to/lastmile_qr_scan"}, "name": "7f87fd784f67706ceab4bc0fe839a46e", "is_reserved": 0}, {"is_disabled": 0, "fusion_lon": 0.0, "fusion_lat": 0.0, "lat": 38.8803555, "type": "electric_scooter", "lon": -76.9950365, "bike_id": "0c9c592b0c707b00895ded734a8d6778", "rental_uris": {"android": "https://dc.lft.to/lastmile_qr_scan", "ios": "https://dc.lft.to/lastmile_qr_scan"}, "name": "0c9c592b0c707b00895ded734a8d6778", "is_reserved": 0}, {"is_disabled": 0, "fusion_lon": 0.0, "fusion_lat": 0.0, "lat": 38.9231945, "type": "electric_scooter", "lon": -77.03955316666666, "bike_id": "6f2855e55609e138f7e4e0fa5e06c237", "rental_uris": {"android": "https://dc.lft.to/lastmile_qr_scan", "ios": "https://dc.lft.to/lastmile_qr_scan"}, "name": "6f2855e55609e138f7e4e0fa5e06c237", "is_reserved": 0}, {"is_disabled": 0, "fusion_lon": 0.0, "fusion_lat": 0.0, "lat": 38.916386, "type": "electric_scooter", "lon": -77.02698716666667, "bike_id": "2063ee94e4c6ad03cac1c9fad111ebf5", "rental_uris": {"android": "https://dc.lft.to/lastmile_qr_scan", "ios": "https://dc.lft.to/lastmile_qr_scan"}, "name": "2063ee94e4c6ad03cac1c9fad111ebf5", "is_reserved": 0}, {"is_disabled": 0, "fusion_lon": 0.0, "fusion_lat": 0.0, "lat": 38.968109, "type": "electric_scooter", "lon": -77.02119, "bike_id": "c78c320745bf7944f6cbb810fe784e25", "rental_uris": {"android": "https://dc.lft.to/lastmile_qr_scan", "ios": "https://dc.lft.to/lastmile_qr_scan"}, "name": "c78c320745bf7944f6cbb810fe784e25", "is_reserved": 0}, {"is_disabled": 0, "fusion_lon": 0.0, "fusion_lat": 0.0, "lat": 38.892980333333334, "type": "electric_scooter", "lon": -76.9891725, "bike_id": "8a5f3edfa936ce4de69ff639203be60f", "rental_uris": {"android": "https://dc.lft.to/lastmile_qr_scan", "ios": "https://dc.lft.to/lastmile_qr_scan"}, "name": "8a5f3edfa936ce4de69ff639203be60f", "is_reserved": 0}, {"is_disabled": 0, "fusion_lon": 0.0, "fusion_lat": 0.0, "lat": 38.905908, "type": "electric_scooter", "lon": -77.04389183333333, "bike_id": "8f92ed57ea3c19ca635ee3bf488a9031", "rental_uris": {"android": "https://dc.lft.to/lastmile_qr_scan", "ios": "https://dc.lft.to/lastmile_qr_scan"}, "name": "8f92ed57ea3c19ca635ee3bf488a9031", "is_reserved": 0}, {"is_disabled": 0, "fusion_lon": 0.0, "fusion_lat": 0.0, "lat": 38.9386645, "type": "electric_scooter", "lon": -77.02791166666667, "bike_id": "efc8b6dfa72b4e266ae57e7ab8e2f2f4", "rental_uris": {"android": "https://dc.lft.to/lastmile_qr_scan", "ios": "https://dc.lft.to/lastmile_qr_scan"}, "name": "efc8b6dfa72b4e266ae57e7ab8e2f2f4", "is_reserved": 0}, {"is_disabled": 0, "fusion_lon": 0.0, "fusion_lat": 0.0, "lat": 38.91804533333333, "type": "electric_scooter", "lon": -77.04161483333333, "bike_id": "ac042a9cbfbf5ee469a2a70ca811f342", "rental_uris": {"android": "https://dc.lft.to/lastmile_qr_scan", "ios": "https://dc.lft.to/lastmile_qr_scan"}, "name": "ac042a9cbfbf5ee469a2a70ca811f342", "is_reserved": 0}, {"is_disabled": 0, "fusion_lon": 0.0, "fusion_lat": 0.0, "lat": 38.8792065, "type": "electric_scooter", "lon": -76.9448195, "bike_id": "871c471d8961d6d52946187e15c72ed7", "rental_uris": {"android": "https://dc.lft.to/lastmile_qr_scan", "ios": "https://dc.lft.to/lastmile_qr_scan"}, "name": "871c471d8961d6d52946187e15c72ed7", "is_reserved": 0}, {"is_disabled": 0, "fusion_lon": 0.0, "fusion_lat": 0.0, "lat": 38.9716955, "type": "electric_bike", "lon": -76.98025966666667, "bike_id": "9179b61886a4d6ded08eb83225899e4c", "rental_uris": {"android": "https://dc.lft.to/lastmile_qr_scan", "ios": "https://dc.lft.to/lastmile_qr_scan"}, "name": "9179b61886a4d6ded08eb83225899e4c", "is_reserved": 0}, {"is_disabled": 0, "fusion_lon": 0.0, "fusion_lat": 0.0, "lat": 38.95421316666667, "type": "electric_scooter", "lon": -77.02173216666667, "bike_id": "2bbd1038f4cdd11a7d721a2ab17356eb", "rental_uris": {"android": "https://dc.lft.to/lastmile_qr_scan", "ios": "https://dc.lft.to/lastmile_qr_scan"}, "name": "2bbd1038f4cdd11a7d721a2ab17356eb", "is_reserved": 0}, {"is_disabled": 0, "fusion_lon": 0.0, "fusion_lat": 0.0, "lat": 38.9408735, "type": "electric_scooter", "lon": -77.0381605, "bike_id": "364fd1efaf78da9fd1832d35345daf0e", "rental_uris": {"android": "https://dc.lft.to/lastmile_qr_scan", "ios": "https://dc.lft.to/lastmile_qr_scan"}, "name": "364fd1efaf78da9fd1832d35345daf0e", "is_reserved": 0}, {"is_disabled": 0, "fusion_lon": 0.0, "fusion_lat": 0.0, "lat": 38.861667833333335, "type": "electric_scooter", "lon": -76.96808766666666, "bike_id": "78fef06e2046f47491301867839277ea", "rental_uris": {"android": "https://dc.lft.to/lastmile_qr_scan", "ios": "https://dc.lft.to/lastmile_qr_scan"}, "name": "78fef06e2046f47491301867839277ea", "is_reserved": 0}, {"is_disabled": 0, "fusion_lon": 0.0, "fusion_lat": 0.0, "lat": 38.914304666666666, "type": "electric_scooter", "lon": -77.02949516666666, "bike_id": "562b92fe32d1c4a3fa14ae3be70b7bdd", "rental_uris": {"android": "https://dc.lft.to/lastmile_qr_scan", "ios": "https://dc.lft.to/lastmile_qr_scan"}, "name": "562b92fe32d1c4a3fa14ae3be70b7bdd", "is_reserved": 0}, {"is_disabled": 0, "fusion_lon": 0.0, "fusion_lat": 0.0, "lat": 38.85040816666667, "type": "electric_bike", "lon": -77.10110083333333, "bike_id": "f0f67f8827d315c65b70cedf3bc2f6fc", "rental_uris": {"android": "https://dc.lft.to/lastmile_qr_scan", "ios": "https://dc.lft.to/lastmile_qr_scan"}, "name": "f0f67f8827d315c65b70cedf3bc2f6fc", "is_reserved": 0}, {"is_disabled": 0, "fusion_lon": 0.0, "fusion_lat": 0.0, "lat": 38.902440166666665, "type": "electric_bike", "lon": -76.97017166666667, "bike_id": "0c2baa618ac86d7dc77336f542871c81", "rental_uris": {"android": "https://dc.lft.to/lastmile_qr_scan", "ios": "https://dc.lft.to/lastmile_qr_scan"}, "name": "0c2baa618ac86d7dc77336f542871c81", "is_reserved": 0}, {"is_disabled": 0, "fusion_lon": 0.0, "fusion_lat": 0.0, "lat": 38.89677783333333, "type": "electric_scooter", "lon": -76.97620816666667, "bike_id": "0bdfd21ee95d525ccdb9c3bcd5a2ecc2", "rental_uris": {"android": "https://dc.lft.to/lastmile_qr_scan", "ios": "https://dc.lft.to/lastmile_qr_scan"}, "name": "0bdfd21ee95d525ccdb9c3bcd5a2ecc2", "is_reserved": 0}, {"is_disabled": 0, "fusion_lon": 0.0, "fusion_lat": 0.0, "lat": 38.876220333333336, "type": "electric_scooter", "lon": -76.965377, "bike_id": "5c7fa1c8f0f11a5b9e50837bdd25cb95", "rental_uris": {"android": "https://dc.lft.to/lastmile_qr_scan", "ios": "https://dc.lft.to/lastmile_qr_scan"}, "name": "5c7fa1c8f0f11a5b9e50837bdd25cb95", "is_reserved": 0}, {"is_disabled": 0, "fusion_lon": 0.0, "fusion_lat": 0.0, "lat": 38.914641, "type": "electric_scooter", "lon": -77.02181033333333, "bike_id": "fbd2c2e6a4dc7214a5b000ed1c0a7227", "rental_uris": {"android": "https://dc.lft.to/lastmile_qr_scan", "ios": "https://dc.lft.to/lastmile_qr_scan"}, "name": "fbd2c2e6a4dc7214a5b000ed1c0a7227", "is_reserved": 0}, {"is_disabled": 0, "fusion_lon": 0.0, "fusion_lat": 0.0, "lat": 38.928324, "type": "electric_scooter", "lon": -77.02148633333333, "bike_id": "af19bad8c3062d3b9ffae5c2e3a574a9", "rental_uris": {"android": "https://dc.lft.to/lastmile_qr_scan", "ios": "https://dc.lft.to/lastmile_qr_scan"}, "name": "af19bad8c3062d3b9ffae5c2e3a574a9", "is_reserved": 0}, {"is_disabled": 0, "fusion_lon": 0.0, "fusion_lat": 0.0, "lat": 38.897485333333336, "type": "electric_scooter", "lon": -77.04681233333334, "bike_id": "f5cdf10a95dc54a519f03755f1531e9b", "rental_uris": {"android": "https://dc.lft.to/lastmile_qr_scan", "ios": "https://dc.lft.to/lastmile_qr_scan"}, "name": "f5cdf10a95dc54a519f03755f1531e9b", "is_reserved": 0}, {"is_disabled": 0, "fusion_lon": 0.0, "fusion_lat": 0.0, "lat": 38.90020466666667, "type": "electric_scooter", "lon": -77.05589783333333, "bike_id": "ff20a653b23eff9f4985fb7870771039", "rental_uris": {"android": "https://dc.lft.to/lastmile_qr_scan", "ios": "https://dc.lft.to/lastmile_qr_scan"}, "name": "ff20a653b23eff9f4985fb7870771039", "is_reserved": 0}, {"is_disabled": 0, "fusion_lon": 0.0, "fusion_lat": 0.0, "lat": 38.9049385, "type": "electric_scooter", "lon": -77.01977316666667, "bike_id": "852d86e457fde18661debca0f320a6b0", "rental_uris": {"android": "https://dc.lft.to/lastmile_qr_scan", "ios": "https://dc.lft.to/lastmile_qr_scan"}, "name": "852d86e457fde18661debca0f320a6b0", "is_reserved": 0}, {"is_disabled": 0, "fusion_lon": 0.0, "fusion_lat": 0.0, "lat": 38.91838583333333, "type": "electric_scooter", "lon": -77.03449616666667, "bike_id": "ec5cb23591a142d3061c87ec8a37b4f9", "rental_uris": {"android": "https://dc.lft.to/lastmile_qr_scan", "ios": "https://dc.lft.to/lastmile_qr_scan"}, "name": "ec5cb23591a142d3061c87ec8a37b4f9", "is_reserved": 0}, {"is_disabled": 0, "fusion_lon": 0.0, "fusion_lat": 0.0, "lat": 38.92877683333333, "type": "electric_scooter", "lon": -77.03420216666666, "bike_id": "164a41dbcb544ff84a5790aa66d7b195", "rental_uris": {"android": "https://dc.lft.to/lastmile_qr_scan", "ios": "https://dc.lft.to/lastmile_qr_scan"}, "name": "164a41dbcb544ff84a5790aa66d7b195", "is_reserved": 0}, {"is_disabled": 0, "fusion_lon": 0.0, "fusion_lat": 0.0, "lat": 38.970505, "type": "electric_bike", "lon": -77.030807, "bike_id": "eeb0caed24f656c955601ffc49789d23", "rental_uris": {"android": "https://dc.lft.to/lastmile_qr_scan", "ios": "https://dc.lft.to/lastmile_qr_scan"}, "name": "eeb0caed24f656c955601ffc49789d23", "is_reserved": 0}, {"is_disabled": 0, "fusion_lon": 0.0, "fusion_lat": 0.0, "lat": 38.907847833333335, "type": "electric_scooter", "lon": -77.03200366666667, "bike_id": "e8c0bddeaef0dcb3d32708f76f737463", "rental_uris": {"android": "https://dc.lft.to/lastmile_qr_scan", "ios": "https://dc.lft.to/lastmile_qr_scan"}, "name": "e8c0bddeaef0dcb3d32708f76f737463", "is_reserved": 0}, {"is_disabled": 0, "fusion_lon": 0.0, "fusion_lat": 0.0, "lat": 38.916661166666664, "type": "electric_scooter", "lon": -77.02710166666667, "bike_id": "fee542a4dacb4c41bcb337bdd5f3bf9e", "rental_uris": {"android": "https://dc.lft.to/lastmile_qr_scan", "ios": "https://dc.lft.to/lastmile_qr_scan"}, "name": "fee542a4dacb4c41bcb337bdd5f3bf9e", "is_reserved": 0}, {"is_disabled": 0, "fusion_lon": 0.0, "fusion_lat": 0.0, "lat": 38.91265666666666, "type": "electric_scooter", "lon": -77.01137716666666, "bike_id": "d326e3d74604a99bb75189bf70a85e94", "rental_uris": {"android": "https://dc.lft.to/lastmile_qr_scan", "ios": "https://dc.lft.to/lastmile_qr_scan"}, "name": "d326e3d74604a99bb75189bf70a85e94", "is_reserved": 0}, {"is_disabled": 0, "fusion_lon": 0.0, "fusion_lat": 0.0, "lat": 38.91651816666667, "type": "electric_scooter", "lon": -77.04782366666667, "bike_id": "c3b7bf982ccd6e9fa9573c58b47b7bcf", "rental_uris": {"android": "https://dc.lft.to/lastmile_qr_scan", "ios": "https://dc.lft.to/lastmile_qr_scan"}, "name": "c3b7bf982ccd6e9fa9573c58b47b7bcf", "is_reserved": 0}, {"is_disabled": 0, "fusion_lon": 0.0, "fusion_lat": 0.0, "lat": 38.913047166666665, "type": "electric_scooter", "lon": -77.03201833333334, "bike_id": "25d2625df6eb9f41370b34777987035e", "rental_uris": {"android": "https://dc.lft.to/lastmile_qr_scan", "ios": "https://dc.lft.to/lastmile_qr_scan"}, "name": "25d2625df6eb9f41370b34777987035e", "is_reserved": 0}, {"is_disabled": 0, "fusion_lon": 0.0, "fusion_lat": 0.0, "lat": 38.90659983333333, "type": "electric_scooter", "lon": -77.0270715, "bike_id": "8f11e266e336324aa9b2d631580ff1f3", "rental_uris": {"android": "https://dc.lft.to/lastmile_qr_scan", "ios": "https://dc.lft.to/lastmile_qr_scan"}, "name": "8f11e266e336324aa9b2d631580ff1f3", "is_reserved": 0}, {"is_disabled": 0, "fusion_lon": 0.0, "fusion_lat": 0.0, "lat": 38.893906333333334, "type": "electric_scooter", "lon": -76.94997583333334, "bike_id": "daf4445bd985708f475303ecca7460dc", "rental_uris": {"android": "https://dc.lft.to/lastmile_qr_scan", "ios": "https://dc.lft.to/lastmile_qr_scan"}, "name": "daf4445bd985708f475303ecca7460dc", "is_reserved": 0}, {"is_disabled": 0, "fusion_lon": 0.0, "fusion_lat": 0.0, "lat": 38.90975866666667, "type": "electric_scooter", "lon": -77.04291516666666, "bike_id": "3749ce1353ddf8280c9278a2d38fafa9", "rental_uris": {"android": "https://dc.lft.to/lastmile_qr_scan", "ios": "https://dc.lft.to/lastmile_qr_scan"}, "name": "3749ce1353ddf8280c9278a2d38fafa9", "is_reserved": 0}, {"is_disabled": 0, "fusion_lon": 0.0, "fusion_lat": 0.0, "lat": 38.9274555, "type": "electric_bike", "lon": -77.09955316666667, "bike_id": "0c7638a5215875c8893a6c88a5ea3acc", "rental_uris": {"android": "https://dc.lft.to/lastmile_qr_scan", "ios": "https://dc.lft.to/lastmile_qr_scan"}, "name": "0c7638a5215875c8893a6c88a5ea3acc", "is_reserved": 0}, {"is_disabled": 0, "fusion_lon": 0.0, "fusion_lat": 0.0, "lat": 38.91369, "type": "electric_scooter", "lon": -77.02588766666666, "bike_id": "51a1351a3c6b9398e46595d06179b759", "rental_uris": {"android": "https://dc.lft.to/lastmile_qr_scan", "ios": "https://dc.lft.to/lastmile_qr_scan"}, "name": "51a1351a3c6b9398e46595d06179b759", "is_reserved": 0}, {"is_disabled": 0, "fusion_lon": 0.0, "fusion_lat": 0.0, "lat": 38.90405333333333, "type": "electric_scooter", "lon": -76.97524766666666, "bike_id": "5025ac7e4b00cdf99d6f5d5c0b3b4d79", "rental_uris": {"android": "https://dc.lft.to/lastmile_qr_scan", "ios": "https://dc.lft.to/lastmile_qr_scan"}, "name": "5025ac7e4b00cdf99d6f5d5c0b3b4d79", "is_reserved": 0}, {"is_disabled": 0, "fusion_lon": 0.0, "fusion_lat": 0.0, "lat": 38.89400966666667, "type": "electric_scooter", "lon": -77.02276166666667, "bike_id": "7948b81c26371c3769c9d44370e7b81a", "rental_uris": {"android": "https://dc.lft.to/lastmile_qr_scan", "ios": "https://dc.lft.to/lastmile_qr_scan"}, "name": "7948b81c26371c3769c9d44370e7b81a", "is_reserved": 0}, {"is_disabled": 0, "fusion_lon": 0.0, "fusion_lat": 0.0, "lat": 38.918077833333335, "type": "electric_scooter", "lon": -77.03294333333334, "bike_id": "c34badfa265064663c4789895c308a60", "rental_uris": {"android": "https://dc.lft.to/lastmile_qr_scan", "ios": "https://dc.lft.to/lastmile_qr_scan"}, "name": "c34badfa265064663c4789895c308a60", "is_reserved": 0}, {"is_disabled": 0, "fusion_lon": 0.0, "fusion_lat": 0.0, "lat": 38.89967883333333, "type": "electric_scooter", "lon": -77.050854, "bike_id": "343c1a8e5a0454a46ade438fdc19a274", "rental_uris": {"android": "https://dc.lft.to/lastmile_qr_scan", "ios": "https://dc.lft.to/lastmile_qr_scan"}, "name": "343c1a8e5a0454a46ade438fdc19a274", "is_reserved": 0}, {"is_disabled": 0, "fusion_lon": 0.0, "fusion_lat": 0.0, "lat": 38.930043166666664, "type": "electric_scooter", "lon": -77.032537, "bike_id": "5d9ff2792ce96a35dc6a3e8313ea537e", "rental_uris": {"android": "https://dc.lft.to/lastmile_qr_scan", "ios": "https://dc.lft.to/lastmile_qr_scan"}, "name": "5d9ff2792ce96a35dc6a3e8313ea537e", "is_reserved": 0}, {"is_disabled": 0, "fusion_lon": 0.0, "fusion_lat": 0.0, "lat": 38.939144, "type": "electric_scooter", "lon": -77.01903466666667, "bike_id": "6a41c0308490d1563d836e03687b8b1e", "rental_uris": {"android": "https://dc.lft.to/lastmile_qr_scan", "ios": "https://dc.lft.to/lastmile_qr_scan"}, "name": "6a41c0308490d1563d836e03687b8b1e", "is_reserved": 0}, {"is_disabled": 0, "fusion_lon": 0.0, "fusion_lat": 0.0, "lat": 38.906686666666666, "type": "electric_scooter", "lon": -77.02712033333333, "bike_id": "bef36a9f86859246be26e2efb1663bd6", "rental_uris": {"android": "https://dc.lft.to/lastmile_qr_scan", "ios": "https://dc.lft.to/lastmile_qr_scan"}, "name": "bef36a9f86859246be26e2efb1663bd6", "is_reserved": 0}, {"is_disabled": 0, "fusion_lon": 0.0, "fusion_lat": 0.0, "lat": 38.91128583333333, "type": "electric_scooter", "lon": -77.04417616666667, "bike_id": "1242a36d767cb66540f21a34e6b485b5", "rental_uris": {"android": "https://dc.lft.to/lastmile_qr_scan", "ios": "https://dc.lft.to/lastmile_qr_scan"}, "name": "1242a36d767cb66540f21a34e6b485b5", "is_reserved": 0}, {"is_disabled": 0, "fusion_lon": 0.0, "fusion_lat": 0.0, "lat": 38.9179575, "type": "electric_scooter", "lon": -77.03561083333334, "bike_id": "de8b976c9bd6fff93830f021248368d6", "rental_uris": {"android": "https://dc.lft.to/lastmile_qr_scan", "ios": "https://dc.lft.to/lastmile_qr_scan"}, "name": "de8b976c9bd6fff93830f021248368d6", "is_reserved": 0}, {"is_disabled": 0, "fusion_lon": 0.0, "fusion_lat": 0.0, "lat": 38.91726116666667, "type": "electric_scooter", "lon": -77.0366665, "bike_id": "dd41415f00a8a6fb7e266dbf03e19f8a", "rental_uris": {"android": "https://dc.lft.to/lastmile_qr_scan", "ios": "https://dc.lft.to/lastmile_qr_scan"}, "name": "dd41415f00a8a6fb7e266dbf03e19f8a", "is_reserved": 0}, {"is_disabled": 0, "fusion_lon": 0.0, "fusion_lat": 0.0, "lat": 38.860557, "type": "electric_scooter", "lon": -76.98512816666667, "bike_id": "67623228e9680cc85ee2d44d3c571501", "rental_uris": {"android": "https://dc.lft.to/lastmile_qr_scan", "ios": "https://dc.lft.to/lastmile_qr_scan"}, "name": "67623228e9680cc85ee2d44d3c571501", "is_reserved": 0}, {"is_disabled": 0, "fusion_lon": 0.0, "fusion_lat": 0.0, "lat": 38.928799166666664, "type": "electric_scooter", "lon": -77.04129, "bike_id": "d3bdb3e2929153532d61945d9f2f2317", "rental_uris": {"android": "https://dc.lft.to/lastmile_qr_scan", "ios": "https://dc.lft.to/lastmile_qr_scan"}, "name": "d3bdb3e2929153532d61945d9f2f2317", "is_reserved": 0}, {"is_disabled": 0, "fusion_lon": 0.0, "fusion_lat": 0.0, "lat": 38.9236895, "type": "electric_scooter", "lon": -77.050301, "bike_id": "1e15f56deddcb1baffd6806666636314", "rental_uris": {"android": "https://dc.lft.to/lastmile_qr_scan", "ios": "https://dc.lft.to/lastmile_qr_scan"}, "name": "1e15f56deddcb1baffd6806666636314", "is_reserved": 0}, {"is_disabled": 0, "fusion_lon": 0.0, "fusion_lat": 0.0, "lat": 38.9138475, "type": "electric_scooter", "lon": -77.02970766666667, "bike_id": "9c66390fe98cddc1d61e802c46c2e53d", "rental_uris": {"android": "https://dc.lft.to/lastmile_qr_scan", "ios": "https://dc.lft.to/lastmile_qr_scan"}, "name": "9c66390fe98cddc1d61e802c46c2e53d", "is_reserved": 0}, {"is_disabled": 0, "fusion_lon": 0.0, "fusion_lat": 0.0, "lat": 38.9519885, "type": "electric_scooter", "lon": -77.027361, "bike_id": "1d4e145f0a7c54f6699d770b83f21274", "rental_uris": {"android": "https://dc.lft.to/lastmile_qr_scan", "ios": "https://dc.lft.to/lastmile_qr_scan"}, "name": "1d4e145f0a7c54f6699d770b83f21274", "is_reserved": 0}, {"is_disabled": 0, "fusion_lon": 0.0, "fusion_lat": 0.0, "lat": 38.88754216666667, "type": "electric_scooter", "lon": -77.00228466666667, "bike_id": "c24f1e199e1428d0a783c90ee8239bda", "rental_uris": {"android": "https://dc.lft.to/lastmile_qr_scan", "ios": "https://dc.lft.to/lastmile_qr_scan"}, "name": "c24f1e199e1428d0a783c90ee8239bda", "is_reserved": 0}, {"is_disabled": 0, "fusion_lon": 0.0, "fusion_lat": 0.0, "lat": 38.89335916666667, "type": "electric_bike", "lon": -77.12408783333333, "bike_id": "ce7a5c014e32d650a0e6ffdc2ee80518", "rental_uris": {"android": "https://dc.lft.to/lastmile_qr_scan", "ios": "https://dc.lft.to/lastmile_qr_scan"}, "name": "ce7a5c014e32d650a0e6ffdc2ee80518", "is_reserved": 0}, {"is_disabled": 0, "fusion_lon": 0.0, "fusion_lat": 0.0, "lat": 38.9245695, "type": "electric_scooter", "lon": -77.02696783333333, "bike_id": "884ab5ae840f756cf3a40731e983d375", "rental_uris": {"android": "https://dc.lft.to/lastmile_qr_scan", "ios": "https://dc.lft.to/lastmile_qr_scan"}, "name": "884ab5ae840f756cf3a40731e983d375", "is_reserved": 0}, {"is_disabled": 0, "fusion_lon": 0.0, "fusion_lat": 0.0, "lat": 38.8988335, "type": "electric_scooter", "lon": -76.93159133333333, "bike_id": "9f0255966755ec3259a0218cc33f4769", "rental_uris": {"android": "https://dc.lft.to/lastmile_qr_scan", "ios": "https://dc.lft.to/lastmile_qr_scan"}, "name": "9f0255966755ec3259a0218cc33f4769", "is_reserved": 0}, {"is_disabled": 0, "fusion_lon": 0.0, "fusion_lat": 0.0, "lat": 38.9522845, "type": "electric_scooter", "lon": -77.02761733333334, "bike_id": "463affd94259bfcae4b59e5b3ec9ccbb", "rental_uris": {"android": "https://dc.lft.to/lastmile_qr_scan", "ios": "https://dc.lft.to/lastmile_qr_scan"}, "name": "463affd94259bfcae4b59e5b3ec9ccbb", "is_reserved": 0}, {"is_disabled": 0, "fusion_lon": 0.0, "fusion_lat": 0.0, "lat": 38.905334833333335, "type": "electric_scooter", "lon": -77.05767066666667, "bike_id": "d4574ee2eaebc7682014b27b0b620214", "rental_uris": {"android": "https://dc.lft.to/lastmile_qr_scan", "ios": "https://dc.lft.to/lastmile_qr_scan"}, "name": "d4574ee2eaebc7682014b27b0b620214", "is_reserved": 0}, {"is_disabled": 0, "fusion_lon": 0.0, "fusion_lat": 0.0, "lat": 38.904793166666664, "type": "electric_scooter", "lon": -77.00207516666667, "bike_id": "a8c039756abc3a8d3c0c8ce5fda912df", "rental_uris": {"android": "https://dc.lft.to/lastmile_qr_scan", "ios": "https://dc.lft.to/lastmile_qr_scan"}, "name": "a8c039756abc3a8d3c0c8ce5fda912df", "is_reserved": 0}, {"is_disabled": 0, "fusion_lon": 0.0, "fusion_lat": 0.0, "lat": 38.91203466666666, "type": "electric_scooter", "lon": -77.04538016666666, "bike_id": "849166f4f6859148ed2282f0ab5384f8", "rental_uris": {"android": "https://dc.lft.to/lastmile_qr_scan", "ios": "https://dc.lft.to/lastmile_qr_scan"}, "name": "849166f4f6859148ed2282f0ab5384f8", "is_reserved": 0}, {"is_disabled": 0, "fusion_lon": 0.0, "fusion_lat": 0.0, "lat": 38.92156216666667, "type": "electric_scooter", "lon": -77.03441466666666, "bike_id": "f5c5b048eaf0dcb64bf4f1b58cd99e54", "rental_uris": {"android": "https://dc.lft.to/lastmile_qr_scan", "ios": "https://dc.lft.to/lastmile_qr_scan"}, "name": "f5c5b048eaf0dcb64bf4f1b58cd99e54", "is_reserved": 0}, {"is_disabled": 0, "fusion_lon": 0.0, "fusion_lat": 0.0, "lat": 38.92942333333333, "type": "electric_scooter", "lon": -77.03286966666667, "bike_id": "a4bf4db2f7513cb08443155af6f7f145", "rental_uris": {"android": "https://dc.lft.to/lastmile_qr_scan", "ios": "https://dc.lft.to/lastmile_qr_scan"}, "name": "a4bf4db2f7513cb08443155af6f7f145", "is_reserved": 0}, {"is_disabled": 0, "fusion_lon": 0.0, "fusion_lat": 0.0, "lat": 38.898568833333336, "type": "electric_scooter", "lon": -77.02906633333333, "bike_id": "b004d5b90380aff725fd1c82b4c9aca8", "rental_uris": {"android": "https://dc.lft.to/lastmile_qr_scan", "ios": "https://dc.lft.to/lastmile_qr_scan"}, "name": "b004d5b90380aff725fd1c82b4c9aca8", "is_reserved": 0}, {"is_disabled": 0, "fusion_lon": 0.0, "fusion_lat": 0.0, "lat": 38.931332, "type": "electric_scooter", "lon": -77.02347716666667, "bike_id": "3dfb942dc24f96eddba148266684ac05", "rental_uris": {"android": "https://dc.lft.to/lastmile_qr_scan", "ios": "https://dc.lft.to/lastmile_qr_scan"}, "name": "3dfb942dc24f96eddba148266684ac05", "is_reserved": 0}, {"is_disabled": 0, "fusion_lon": 0.0, "fusion_lat": 0.0, "lat": 39.10565283333333, "type": "electric_bike", "lon": -77.15268733333333, "bike_id": "7e0fc994c12c3199ab4a6f9cf28fd70e", "rental_uris": {"android": "https://dc.lft.to/lastmile_qr_scan", "ios": "https://dc.lft.to/lastmile_qr_scan"}, "name": "7e0fc994c12c3199ab4a6f9cf28fd70e", "is_reserved": 0}, {"is_disabled": 0, "fusion_lon": 0.0, "fusion_lat": 0.0, "lat": 38.8968075, "type": "electric_scooter", "lon": -76.94774916666667, "bike_id": "b6347fbbf82ce8755b1e69317e893c15", "rental_uris": {"android": "https://dc.lft.to/lastmile_qr_scan", "ios": "https://dc.lft.to/lastmile_qr_scan"}, "name": "b6347fbbf82ce8755b1e69317e893c15", "is_reserved": 0}, {"is_disabled": 0, "fusion_lon": 0.0, "fusion_lat": 0.0, "lat": 38.91537133333333, "type": "electric_scooter", "lon": -77.01999116666667, "bike_id": "d53f797ab8e46eae147b30689a893d1b", "rental_uris": {"android": "https://dc.lft.to/lastmile_qr_scan", "ios": "https://dc.lft.to/lastmile_qr_scan"}, "name": "d53f797ab8e46eae147b30689a893d1b", "is_reserved": 0}, {"is_disabled": 0, "fusion_lon": 0.0, "fusion_lat": 0.0, "lat": 38.9244685, "type": "electric_bike", "lon": -76.96836283333333, "bike_id": "15b11dce76e7acd5e963b4e845095647", "rental_uris": {"android": "https://dc.lft.to/lastmile_qr_scan", "ios": "https://dc.lft.to/lastmile_qr_scan"}, "name": "15b11dce76e7acd5e963b4e845095647", "is_reserved": 0}, {"is_disabled": 0, "fusion_lon": 0.0, "fusion_lat": 0.0, "lat": 38.91632516666667, "type": "electric_bike", "lon": -77.00450233333333, "bike_id": "df83424984faeae705dd508847e325c5", "rental_uris": {"android": "https://dc.lft.to/lastmile_qr_scan", "ios": "https://dc.lft.to/lastmile_qr_scan"}, "name": "df83424984faeae705dd508847e325c5", "is_reserved": 0}, {"is_disabled": 0, "fusion_lon": 0.0, "fusion_lat": 0.0, "lat": 38.9043765, "type": "electric_scooter", "lon": -77.04060183333333, "bike_id": "ee2a706cdd5feefaec71cba9d8a1258c", "rental_uris": {"android": "https://dc.lft.to/lastmile_qr_scan", "ios": "https://dc.lft.to/lastmile_qr_scan"}, "name": "ee2a706cdd5feefaec71cba9d8a1258c", "is_reserved": 0}, {"is_disabled": 0, "fusion_lon": 0.0, "fusion_lat": 0.0, "lat": 38.92897333333333, "type": "electric_scooter", "lon": -76.98455383333334, "bike_id": "b4618cf62c9507bbef8c1853d5656715", "rental_uris": {"android": "https://dc.lft.to/lastmile_qr_scan", "ios": "https://dc.lft.to/lastmile_qr_scan"}, "name": "b4618cf62c9507bbef8c1853d5656715", "is_reserved": 0}, {"is_disabled": 0, "fusion_lon": 0.0, "fusion_lat": 0.0, "lat": 38.91328633333333, "type": "electric_scooter", "lon": -77.04860033333334, "bike_id": "64fe55834c700678a88a0e7222b99ffd", "rental_uris": {"android": "https://dc.lft.to/lastmile_qr_scan", "ios": "https://dc.lft.to/lastmile_qr_scan"}, "name": "64fe55834c700678a88a0e7222b99ffd", "is_reserved": 0}, {"is_disabled": 0, "fusion_lon": 0.0, "fusion_lat": 0.0, "lat": 38.898779166666664, "type": "electric_scooter", "lon": -76.931602, "bike_id": "7531262a396373e838cf0692b5386219", "rental_uris": {"android": "https://dc.lft.to/lastmile_qr_scan", "ios": "https://dc.lft.to/lastmile_qr_scan"}, "name": "7531262a396373e838cf0692b5386219", "is_reserved": 0}, {"is_disabled": 0, "fusion_lon": 0.0, "fusion_lat": 0.0, "lat": 38.909410666666666, "type": "electric_scooter", "lon": -77.0536495, "bike_id": "640b11cb0b20663de41d39d3fd5f2d45", "rental_uris": {"android": "https://dc.lft.to/lastmile_qr_scan", "ios": "https://dc.lft.to/lastmile_qr_scan"}, "name": "640b11cb0b20663de41d39d3fd5f2d45", "is_reserved": 0}, {"is_disabled": 0, "fusion_lon": 0.0, "fusion_lat": 0.0, "lat": 38.935477166666665, "type": "electric_scooter", "lon": -77.0222165, "bike_id": "f7b1db92f67c414ee05d956da82ccd63", "rental_uris": {"android": "https://dc.lft.to/lastmile_qr_scan", "ios": "https://dc.lft.to/lastmile_qr_scan"}, "name": "f7b1db92f67c414ee05d956da82ccd63", "is_reserved": 0}, {"is_disabled": 0, "fusion_lon": 0.0, "fusion_lat": 0.0, "lat": 38.8288065, "type": "electric_bike", "lon": -77.11221633333334, "bike_id": "456403c3e1d81a007704462bfc43345d", "rental_uris": {"android": "https://dc.lft.to/lastmile_qr_scan", "ios": "https://dc.lft.to/lastmile_qr_scan"}, "name": "456403c3e1d81a007704462bfc43345d", "is_reserved": 0}, {"is_disabled": 0, "fusion_lon": 0.0, "fusion_lat": 0.0, "lat": 38.898498333333336, "type": "electric_scooter", "lon": -76.99035116666667, "bike_id": "1305102303ba161e82f4fb37f121fccd", "rental_uris": {"android": "https://dc.lft.to/lastmile_qr_scan", "ios": "https://dc.lft.to/lastmile_qr_scan"}, "name": "1305102303ba161e82f4fb37f121fccd", "is_reserved": 0}, {"is_disabled": 0, "fusion_lon": 0.0, "fusion_lat": 0.0, "lat": 38.88674866666667, "type": "electric_scooter", "lon": -77.00176066666667, "bike_id": "c0f65e1110e0c6363fc07abe17cc9478", "rental_uris": {"android": "https://dc.lft.to/lastmile_qr_scan", "ios": "https://dc.lft.to/lastmile_qr_scan"}, "name": "c0f65e1110e0c6363fc07abe17cc9478", "is_reserved": 0}, {"is_disabled": 0, "fusion_lon": 0.0, "fusion_lat": 0.0, "lat": 38.906897, "type": "electric_scooter", "lon": -77.05791866666667, "bike_id": "bae380e05f4062fa53a0d31e8a215ef8", "rental_uris": {"android": "https://dc.lft.to/lastmile_qr_scan", "ios": "https://dc.lft.to/lastmile_qr_scan"}, "name": "bae380e05f4062fa53a0d31e8a215ef8", "is_reserved": 0}, {"is_disabled": 0, "fusion_lon": 0.0, "fusion_lat": 0.0, "lat": 38.91649666666667, "type": "electric_scooter", "lon": -77.0320805, "bike_id": "44a9246fea4fe8377b446b5e0f16fee4", "rental_uris": {"android": "https://dc.lft.to/lastmile_qr_scan", "ios": "https://dc.lft.to/lastmile_qr_scan"}, "name": "44a9246fea4fe8377b446b5e0f16fee4", "is_reserved": 0}, {"is_disabled": 0, "fusion_lon": 0.0, "fusion_lat": 0.0, "lat": 38.932798, "type": "electric_scooter", "lon": -77.03984616666666, "bike_id": "fd35ffcebc11a7cf481ace28f1719430", "rental_uris": {"android": "https://dc.lft.to/lastmile_qr_scan", "ios": "https://dc.lft.to/lastmile_qr_scan"}, "name": "fd35ffcebc11a7cf481ace28f1719430", "is_reserved": 0}, {"is_disabled": 0, "fusion_lon": 0.0, "fusion_lat": 0.0, "lat": 38.90843683333333, "type": "electric_scooter", "lon": -77.029548, "bike_id": "a3079b0f4f5527bfce5e98168f095910", "rental_uris": {"android": "https://dc.lft.to/lastmile_qr_scan", "ios": "https://dc.lft.to/lastmile_qr_scan"}, "name": "a3079b0f4f5527bfce5e98168f095910", "is_reserved": 0}, {"is_disabled": 0, "fusion_lon": 0.0, "fusion_lat": 0.0, "lat": 38.9265275, "type": "electric_scooter", "lon": -77.03717666666667, "bike_id": "f1905b69a6211b6e22d137a0b75e7e94", "rental_uris": {"android": "https://dc.lft.to/lastmile_qr_scan", "ios": "https://dc.lft.to/lastmile_qr_scan"}, "name": "f1905b69a6211b6e22d137a0b75e7e94", "is_reserved": 0}, {"is_disabled": 0, "fusion_lon": 0.0, "fusion_lat": 0.0, "lat": 38.941862666666665, "type": "electric_scooter", "lon": -77.033251, "bike_id": "87233917436ba349d0bd03da940e2d7f", "rental_uris": {"android": "https://dc.lft.to/lastmile_qr_scan", "ios": "https://dc.lft.to/lastmile_qr_scan"}, "name": "87233917436ba349d0bd03da940e2d7f", "is_reserved": 0}, {"is_disabled": 0, "fusion_lon": 0.0, "fusion_lat": 0.0, "lat": 38.9071835, "type": "electric_scooter", "lon": -77.04595633333334, "bike_id": "22d9b49fd601d8c00b64eb8392ac3538", "rental_uris": {"android": "https://dc.lft.to/lastmile_qr_scan", "ios": "https://dc.lft.to/lastmile_qr_scan"}, "name": "22d9b49fd601d8c00b64eb8392ac3538", "is_reserved": 0}, {"is_disabled": 0, "fusion_lon": 0.0, "fusion_lat": 0.0, "lat": 38.91281333333333, "type": "electric_scooter", "lon": -77.02242783333334, "bike_id": "f049dac66c0cdeca025c37bb06449a9e", "rental_uris": {"android": "https://dc.lft.to/lastmile_qr_scan", "ios": "https://dc.lft.to/lastmile_qr_scan"}, "name": "f049dac66c0cdeca025c37bb06449a9e", "is_reserved": 0}, {"is_disabled": 0, "fusion_lon": 0.0, "fusion_lat": 0.0, "lat": 38.90265483333334, "type": "electric_scooter", "lon": -77.02145666666667, "bike_id": "6053efd836346959d1ad089397a322ec", "rental_uris": {"android": "https://dc.lft.to/lastmile_qr_scan", "ios": "https://dc.lft.to/lastmile_qr_scan"}, "name": "6053efd836346959d1ad089397a322ec", "is_reserved": 0}, {"is_disabled": 0, "fusion_lon": 0.0, "fusion_lat": 0.0, "lat": 38.90772066666667, "type": "electric_scooter", "lon": -77.03478233333334, "bike_id": "e9a5c81bac5c681de02e054b67543502", "rental_uris": {"android": "https://dc.lft.to/lastmile_qr_scan", "ios": "https://dc.lft.to/lastmile_qr_scan"}, "name": "e9a5c81bac5c681de02e054b67543502", "is_reserved": 0}, {"is_disabled": 0, "fusion_lon": 0.0, "fusion_lat": 0.0, "lat": 38.95559183333334, "type": "electric_bike", "lon": -76.935463, "bike_id": "3764576c7672e81515e9f4e183c78187", "rental_uris": {"android": "https://dc.lft.to/lastmile_qr_scan", "ios": "https://dc.lft.to/lastmile_qr_scan"}, "name": "3764576c7672e81515e9f4e183c78187", "is_reserved": 0}, {"is_disabled": 0, "fusion_lon": 0.0, "fusion_lat": 0.0, "lat": 38.870587666666665, "type": "electric_scooter", "lon": -76.98087866666667, "bike_id": "03bc6af36b3d6726757cb95c350f3473", "rental_uris": {"android": "https://dc.lft.to/lastmile_qr_scan", "ios": "https://dc.lft.to/lastmile_qr_scan"}, "name": "03bc6af36b3d6726757cb95c350f3473", "is_reserved": 0}, {"is_disabled": 0, "fusion_lon": 0.0, "fusion_lat": 0.0, "lat": 38.90126, "type": "electric_scooter", "lon": -77.0488645, "bike_id": "68b942e8194905fbe459949c236e3ac2", "rental_uris": {"android": "https://dc.lft.to/lastmile_qr_scan", "ios": "https://dc.lft.to/lastmile_qr_scan"}, "name": "68b942e8194905fbe459949c236e3ac2", "is_reserved": 0}, {"is_disabled": 0, "fusion_lon": 0.0, "fusion_lat": 0.0, "lat": 38.9181715, "type": "electric_scooter", "lon": -77.010848, "bike_id": "8497ec39aa0e17221cf32f34f73199a8", "rental_uris": {"android": "https://dc.lft.to/lastmile_qr_scan", "ios": "https://dc.lft.to/lastmile_qr_scan"}, "name": "8497ec39aa0e17221cf32f34f73199a8", "is_reserved": 0}, {"is_disabled": 0, "fusion_lon": 0.0, "fusion_lat": 0.0, "lat": 38.9563815, "type": "electric_scooter", "lon": -77.09102766666666, "bike_id": "c6fea39c7bb3c2bccd6ff83e3714121d", "rental_uris": {"android": "https://dc.lft.to/lastmile_qr_scan", "ios": "https://dc.lft.to/lastmile_qr_scan"}, "name": "c6fea39c7bb3c2bccd6ff83e3714121d", "is_reserved": 0}, {"is_disabled": 0, "fusion_lon": 0.0, "fusion_lat": 0.0, "lat": 38.892223, "type": "electric_scooter", "lon": -77.04714733333333, "bike_id": "07bbb6dd73a61f1bb6524c3a20758198", "rental_uris": {"android": "https://dc.lft.to/lastmile_qr_scan", "ios": "https://dc.lft.to/lastmile_qr_scan"}, "name": "07bbb6dd73a61f1bb6524c3a20758198", "is_reserved": 0}, {"is_disabled": 0, "fusion_lon": 0.0, "fusion_lat": 0.0, "lat": 38.93740483333333, "type": "electric_scooter", "lon": -77.02719766666667, "bike_id": "2a96a1b3e80d034efb57ebdd26c45cc8", "rental_uris": {"android": "https://dc.lft.to/lastmile_qr_scan", "ios": "https://dc.lft.to/lastmile_qr_scan"}, "name": "2a96a1b3e80d034efb57ebdd26c45cc8", "is_reserved": 0}, {"is_disabled": 0, "fusion_lon": 0.0, "fusion_lat": 0.0, "lat": 38.84936616666667, "type": "electric_bike", "lon": -77.10013, "bike_id": "300fab2c1d8dbebbde83d1b7f888d8f4", "rental_uris": {"android": "https://dc.lft.to/lastmile_qr_scan", "ios": "https://dc.lft.to/lastmile_qr_scan"}, "name": "300fab2c1d8dbebbde83d1b7f888d8f4", "is_reserved": 0}, {"is_disabled": 0, "fusion_lon": 0.0, "fusion_lat": 0.0, "lat": 38.8843555, "type": "electric_scooter", "lon": -77.02960866666666, "bike_id": "0bdd8308e6e8a3c5771384dbf9f7fd12", "rental_uris": {"android": "https://dc.lft.to/lastmile_qr_scan", "ios": "https://dc.lft.to/lastmile_qr_scan"}, "name": "0bdd8308e6e8a3c5771384dbf9f7fd12", "is_reserved": 0}, {"is_disabled": 0, "fusion_lon": 0.0, "fusion_lat": 0.0, "lat": 38.898333666666666, "type": "electric_scooter", "lon": -76.946357, "bike_id": "93181a75047f749b901b5c6f979a81b1", "rental_uris": {"android": "https://dc.lft.to/lastmile_qr_scan", "ios": "https://dc.lft.to/lastmile_qr_scan"}, "name": "93181a75047f749b901b5c6f979a81b1", "is_reserved": 0}, {"is_disabled": 0, "fusion_lon": 0.0, "fusion_lat": 0.0, "lat": 38.91386133333334, "type": "electric_scooter", "lon": -77.02975516666666, "bike_id": "8a5debc0accefb2cfc88a68c99fe4efa", "rental_uris": {"android": "https://dc.lft.to/lastmile_qr_scan", "ios": "https://dc.lft.to/lastmile_qr_scan"}, "name": "8a5debc0accefb2cfc88a68c99fe4efa", "is_reserved": 0}, {"is_disabled": 0, "fusion_lon": 0.0, "fusion_lat": 0.0, "lat": 38.949256166666665, "type": "electric_scooter", "lon": -77.01934616666666, "bike_id": "161dd4565189299b1fa3b2f41e2bf023", "rental_uris": {"android": "https://dc.lft.to/lastmile_qr_scan", "ios": "https://dc.lft.to/lastmile_qr_scan"}, "name": "161dd4565189299b1fa3b2f41e2bf023", "is_reserved": 0}, {"is_disabled": 0, "fusion_lon": 0.0, "fusion_lat": 0.0, "lat": 38.920365, "type": "electric_scooter", "lon": -77.01818733333333, "bike_id": "3394e856981b0d9c62773bed9442f037", "rental_uris": {"android": "https://dc.lft.to/lastmile_qr_scan", "ios": "https://dc.lft.to/lastmile_qr_scan"}, "name": "3394e856981b0d9c62773bed9442f037", "is_reserved": 0}, {"is_disabled": 0, "fusion_lon": 0.0, "fusion_lat": 0.0, "lat": 38.88610666666667, "type": "electric_scooter", "lon": -77.005801, "bike_id": "626986517fb344a404a0a2d7fd7f00dd", "rental_uris": {"android": "https://dc.lft.to/lastmile_qr_scan", "ios": "https://dc.lft.to/lastmile_qr_scan"}, "name": "626986517fb344a404a0a2d7fd7f00dd", "is_reserved": 0}, {"is_disabled": 0, "fusion_lon": 0.0, "fusion_lat": 0.0, "lat": 38.906433666666665, "type": "electric_scooter", "lon": -77.023874, "bike_id": "24a6a38124dace34b9ffdbda7619cce1", "rental_uris": {"android": "https://dc.lft.to/lastmile_qr_scan", "ios": "https://dc.lft.to/lastmile_qr_scan"}, "name": "24a6a38124dace34b9ffdbda7619cce1", "is_reserved": 0}, {"is_disabled": 0, "fusion_lon": 0.0, "fusion_lat": 0.0, "lat": 38.876496, "type": "electric_scooter", "lon": -77.00347816666667, "bike_id": "cd9c89a309a4746f5c4709f05a7f409c", "rental_uris": {"android": "https://dc.lft.to/lastmile_qr_scan", "ios": "https://dc.lft.to/lastmile_qr_scan"}, "name": "cd9c89a309a4746f5c4709f05a7f409c", "is_reserved": 0}, {"is_disabled": 0, "fusion_lon": 0.0, "fusion_lat": 0.0, "lat": 38.93645216666667, "type": "electric_scooter", "lon": -77.03651383333333, "bike_id": "834def463f3b542ec9a32fc53c972986", "rental_uris": {"android": "https://dc.lft.to/lastmile_qr_scan", "ios": "https://dc.lft.to/lastmile_qr_scan"}, "name": "834def463f3b542ec9a32fc53c972986", "is_reserved": 0}, {"is_disabled": 0, "fusion_lon": 0.0, "fusion_lat": 0.0, "lat": 38.935796833333335, "type": "electric_scooter", "lon": -77.024536, "bike_id": "259c4dd6599be7f6f92f8a185a176a37", "rental_uris": {"android": "https://dc.lft.to/lastmile_qr_scan", "ios": "https://dc.lft.to/lastmile_qr_scan"}, "name": "259c4dd6599be7f6f92f8a185a176a37", "is_reserved": 0}, {"is_disabled": 0, "fusion_lon": 0.0, "fusion_lat": 0.0, "lat": 38.856509833333334, "type": "electric_bike", "lon": -77.08528866666667, "bike_id": "79c33d998c54b10cb17470136a5ffb9b", "rental_uris": {"android": "https://dc.lft.to/lastmile_qr_scan", "ios": "https://dc.lft.to/lastmile_qr_scan"}, "name": "79c33d998c54b10cb17470136a5ffb9b", "is_reserved": 0}, {"is_disabled": 0, "fusion_lon": 0.0, "fusion_lat": 0.0, "lat": 38.899652, "type": "electric_scooter", "lon": -77.05152516666666, "bike_id": "db096d8c9d60f7719cbd5c328b1d993b", "rental_uris": {"android": "https://dc.lft.to/lastmile_qr_scan", "ios": "https://dc.lft.to/lastmile_qr_scan"}, "name": "db096d8c9d60f7719cbd5c328b1d993b", "is_reserved": 0}, {"is_disabled": 0, "fusion_lon": 0.0, "fusion_lat": 0.0, "lat": 38.844378, "type": "electric_bike", "lon": -77.08586016666666, "bike_id": "ca526facd268b9a23914f44d12d1b527", "rental_uris": {"android": "https://dc.lft.to/lastmile_qr_scan", "ios": "https://dc.lft.to/lastmile_qr_scan"}, "name": "ca526facd268b9a23914f44d12d1b527", "is_reserved": 0}, {"is_disabled": 0, "fusion_lon": 0.0, "fusion_lat": 0.0, "lat": 38.8954315, "type": "electric_scooter", "lon": -77.01101916666667, "bike_id": "8cc66a1b15b1f589dec164ab686f34e8", "rental_uris": {"android": "https://dc.lft.to/lastmile_qr_scan", "ios": "https://dc.lft.to/lastmile_qr_scan"}, "name": "8cc66a1b15b1f589dec164ab686f34e8", "is_reserved": 0}, {"is_disabled": 0, "fusion_lon": 0.0, "fusion_lat": 0.0, "lat": 38.83933783333333, "type": "electric_bike", "lon": -77.0790025, "bike_id": "f18a3030dcc0120c74d0a0a20014adb5", "rental_uris": {"android": "https://dc.lft.to/lastmile_qr_scan", "ios": "https://dc.lft.to/lastmile_qr_scan"}, "name": "f18a3030dcc0120c74d0a0a20014adb5", "is_reserved": 0}, {"is_disabled": 0, "fusion_lon": 0.0, "fusion_lat": 0.0, "lat": 38.896277, "type": "electric_scooter", "lon": -77.0091445, "bike_id": "22b9ea63eb98a9be4d928bb8ccd3ad52", "rental_uris": {"android": "https://dc.lft.to/lastmile_qr_scan", "ios": "https://dc.lft.to/lastmile_qr_scan"}, "name": "22b9ea63eb98a9be4d928bb8ccd3ad52", "is_reserved": 0}, {"is_disabled": 0, "fusion_lon": 0.0, "fusion_lat": 0.0, "lat": 38.89222783333334, "type": "electric_scooter", "lon": -77.02219783333334, "bike_id": "e4e94e69f5a5f48461a54386d09db010", "rental_uris": {"android": "https://dc.lft.to/lastmile_qr_scan", "ios": "https://dc.lft.to/lastmile_qr_scan"}, "name": "e4e94e69f5a5f48461a54386d09db010", "is_reserved": 0}, {"is_disabled": 0, "fusion_lon": 0.0, "fusion_lat": 0.0, "lat": 38.896435, "type": "electric_scooter", "lon": -77.00926783333334, "bike_id": "8c59385adde49e58ebb058aad9261a1a", "rental_uris": {"android": "https://dc.lft.to/lastmile_qr_scan", "ios": "https://dc.lft.to/lastmile_qr_scan"}, "name": "8c59385adde49e58ebb058aad9261a1a", "is_reserved": 0}, {"is_disabled": 0, "fusion_lon": 0.0, "fusion_lat": 0.0, "lat": 38.90348866666667, "type": "electric_scooter", "lon": -77.03131, "bike_id": "617f923cf7185590d4c2771fe300be31", "rental_uris": {"android": "https://dc.lft.to/lastmile_qr_scan", "ios": "https://dc.lft.to/lastmile_qr_scan"}, "name": "617f923cf7185590d4c2771fe300be31", "is_reserved": 0}, {"is_disabled": 0, "fusion_lon": 0.0, "fusion_lat": 0.0, "lat": 38.920272833333335, "type": "electric_scooter", "lon": -77.0129155, "bike_id": "9d1f70d1c0e0b13f7dc4f0873fc4046f", "rental_uris": {"android": "https://dc.lft.to/lastmile_qr_scan", "ios": "https://dc.lft.to/lastmile_qr_scan"}, "name": "9d1f70d1c0e0b13f7dc4f0873fc4046f", "is_reserved": 0}, {"is_disabled": 0, "fusion_lon": 0.0, "fusion_lat": 0.0, "lat": 38.97261233333333, "type": "electric_bike", "lon": -76.991702, "bike_id": "5499995583171cfba66dc13a8245a50a", "rental_uris": {"android": "https://dc.lft.to/lastmile_qr_scan", "ios": "https://dc.lft.to/lastmile_qr_scan"}, "name": "5499995583171cfba66dc13a8245a50a", "is_reserved": 0}, {"is_disabled": 0, "fusion_lon": 0.0, "fusion_lat": 0.0, "lat": 38.82046233333333, "type": "electric_bike", "lon": -77.05312833333333, "bike_id": "68ad79e1b223070ee1d1413e0681529b", "rental_uris": {"android": "https://dc.lft.to/lastmile_qr_scan", "ios": "https://dc.lft.to/lastmile_qr_scan"}, "name": "68ad79e1b223070ee1d1413e0681529b", "is_reserved": 0}, {"is_disabled": 0, "fusion_lon": 0.0, "fusion_lat": 0.0, "lat": 38.92307783333333, "type": "electric_scooter", "lon": -77.0414945, "bike_id": "267086dd1e7f70f10ecde841f9ea578e", "rental_uris": {"android": "https://dc.lft.to/lastmile_qr_scan", "ios": "https://dc.lft.to/lastmile_qr_scan"}, "name": "267086dd1e7f70f10ecde841f9ea578e", "is_reserved": 0}, {"is_disabled": 0, "fusion_lon": 0.0, "fusion_lat": 0.0, "lat": 38.91120683333333, "type": "electric_scooter", "lon": -77.04364366666667, "bike_id": "f548c917ca1966789128fc7eadd429ea", "rental_uris": {"android": "https://dc.lft.to/lastmile_qr_scan", "ios": "https://dc.lft.to/lastmile_qr_scan"}, "name": "f548c917ca1966789128fc7eadd429ea", "is_reserved": 0}, {"is_disabled": 0, "fusion_lon": 0.0, "fusion_lat": 0.0, "lat": 38.900184333333335, "type": "electric_scooter", "lon": -76.99973133333333, "bike_id": "8c4a899cc04da52eca76ea316a3f9f6c", "rental_uris": {"android": "https://dc.lft.to/lastmile_qr_scan", "ios": "https://dc.lft.to/lastmile_qr_scan"}, "name": "8c4a899cc04da52eca76ea316a3f9f6c", "is_reserved": 0}, {"is_disabled": 0, "fusion_lon": 0.0, "fusion_lat": 0.0, "lat": 38.956628333333335, "type": "electric_bike", "lon": -77.00233033333333, "bike_id": "99df9cbcc5da49972523f84c2294706d", "rental_uris": {"android": "https://dc.lft.to/lastmile_qr_scan", "ios": "https://dc.lft.to/lastmile_qr_scan"}, "name": "99df9cbcc5da49972523f84c2294706d", "is_reserved": 0}, {"is_disabled": 0, "fusion_lon": 0.0, "fusion_lat": 0.0, "lat": 38.905777, "type": "electric_scooter", "lon": -77.04321783333333, "bike_id": "7bb8cd32ecafede0aefb9a950986ae60", "rental_uris": {"android": "https://dc.lft.to/lastmile_qr_scan", "ios": "https://dc.lft.to/lastmile_qr_scan"}, "name": "7bb8cd32ecafede0aefb9a950986ae60", "is_reserved": 0}, {"is_disabled": 0, "fusion_lon": 0.0, "fusion_lat": 0.0, "lat": 38.90028733333333, "type": "electric_scooter", "lon": -77.00229216666666, "bike_id": "0906fb4e63c6ab2c737c4a8bbee1c3a3", "rental_uris": {"android": "https://dc.lft.to/lastmile_qr_scan", "ios": "https://dc.lft.to/lastmile_qr_scan"}, "name": "0906fb4e63c6ab2c737c4a8bbee1c3a3", "is_reserved": 0}, {"is_disabled": 0, "fusion_lon": 0.0, "fusion_lat": 0.0, "lat": 38.899235166666664, "type": "electric_scooter", "lon": -76.9915975, "bike_id": "54f44c9a94a8af7da1e20d271131c18c", "rental_uris": {"android": "https://dc.lft.to/lastmile_qr_scan", "ios": "https://dc.lft.to/lastmile_qr_scan"}, "name": "54f44c9a94a8af7da1e20d271131c18c", "is_reserved": 0}, {"is_disabled": 0, "fusion_lon": 0.0, "fusion_lat": 0.0, "lat": 38.887542333333336, "type": "electric_scooter", "lon": -77.0023065, "bike_id": "e825578814efe45c95733a4158380d02", "rental_uris": {"android": "https://dc.lft.to/lastmile_qr_scan", "ios": "https://dc.lft.to/lastmile_qr_scan"}, "name": "e825578814efe45c95733a4158380d02", "is_reserved": 0}, {"is_disabled": 0, "fusion_lon": 0.0, "fusion_lat": 0.0, "lat": 38.91734733333333, "type": "electric_scooter", "lon": -76.99179266666667, "bike_id": "746e9e5292b83911c02925e3a05e7b16", "rental_uris": {"android": "https://dc.lft.to/lastmile_qr_scan", "ios": "https://dc.lft.to/lastmile_qr_scan"}, "name": "746e9e5292b83911c02925e3a05e7b16", "is_reserved": 0}, {"is_disabled": 0, "fusion_lon": 0.0, "fusion_lat": 0.0, "lat": 38.926102, "type": "electric_scooter", "lon": -76.98206116666667, "bike_id": "a35f174e80915d472f22530b0b7bf957", "rental_uris": {"android": "https://dc.lft.to/lastmile_qr_scan", "ios": "https://dc.lft.to/lastmile_qr_scan"}, "name": "a35f174e80915d472f22530b0b7bf957", "is_reserved": 0}, {"is_disabled": 0, "fusion_lon": 0.0, "fusion_lat": 0.0, "lat": 38.87546666666667, "type": "electric_scooter", "lon": -77.0046855, "bike_id": "4c71c16d48c624ae99a0b080ba04ba65", "rental_uris": {"android": "https://dc.lft.to/lastmile_qr_scan", "ios": "https://dc.lft.to/lastmile_qr_scan"}, "name": "4c71c16d48c624ae99a0b080ba04ba65", "is_reserved": 0}, {"is_disabled": 0, "fusion_lon": 0.0, "fusion_lat": 0.0, "lat": 38.970473166666665, "type": "electric_bike", "lon": -76.96087233333333, "bike_id": "4a2a609fd80c7d39ce8c75b76663f927", "rental_uris": {"android": "https://dc.lft.to/lastmile_qr_scan", "ios": "https://dc.lft.to/lastmile_qr_scan"}, "name": "4a2a609fd80c7d39ce8c75b76663f927", "is_reserved": 0}, {"is_disabled": 0, "fusion_lon": 0.0, "fusion_lat": 0.0, "lat": 38.923514, "type": "electric_scooter", "lon": -77.04020366666667, "bike_id": "9e3780eb712245c1f8119d5f47c65187", "rental_uris": {"android": "https://dc.lft.to/lastmile_qr_scan", "ios": "https://dc.lft.to/lastmile_qr_scan"}, "name": "9e3780eb712245c1f8119d5f47c65187", "is_reserved": 0}, {"is_disabled": 0, "fusion_lon": 0.0, "fusion_lat": 0.0, "lat": 38.975752666666665, "type": "electric_bike", "lon": -76.96404583333333, "bike_id": "6e0080fa7162f8a194fdb96ce471b049", "rental_uris": {"android": "https://dc.lft.to/lastmile_qr_scan", "ios": "https://dc.lft.to/lastmile_qr_scan"}, "name": "6e0080fa7162f8a194fdb96ce471b049", "is_reserved": 0}, {"is_disabled": 0, "fusion_lon": 0.0, "fusion_lat": 0.0, "lat": 38.888219166666666, "type": "electric_bike", "lon": -77.1274005, "bike_id": "f2e42770138594a638f5401c2c11b191", "rental_uris": {"android": "https://dc.lft.to/lastmile_qr_scan", "ios": "https://dc.lft.to/lastmile_qr_scan"}, "name": "f2e42770138594a638f5401c2c11b191", "is_reserved": 0}, {"is_disabled": 0, "fusion_lon": 0.0, "fusion_lat": 0.0, "lat": 38.8554875, "type": "electric_bike", "lon": -77.10705433333334, "bike_id": "67e833ba5a05a041a43485cfeb43d40c", "rental_uris": {"android": "https://dc.lft.to/lastmile_qr_scan", "ios": "https://dc.lft.to/lastmile_qr_scan"}, "name": "67e833ba5a05a041a43485cfeb43d40c", "is_reserved": 0}, {"is_disabled": 0, "fusion_lon": 0.0, "fusion_lat": 0.0, "lat": 38.90779066666666, "type": "electric_scooter", "lon": -77.03257583333334, "bike_id": "651bd80705e18042a46a0e245000679c", "rental_uris": {"android": "https://dc.lft.to/lastmile_qr_scan", "ios": "https://dc.lft.to/lastmile_qr_scan"}, "name": "651bd80705e18042a46a0e245000679c", "is_reserved": 0}, {"is_disabled": 0, "fusion_lon": 0.0, "fusion_lat": 0.0, "lat": 38.924058333333335, "type": "electric_scooter", "lon": -77.02543883333334, "bike_id": "11cc17fdf12d22407e9609242401f42f", "rental_uris": {"android": "https://dc.lft.to/lastmile_qr_scan", "ios": "https://dc.lft.to/lastmile_qr_scan"}, "name": "11cc17fdf12d22407e9609242401f42f", "is_reserved": 0}, {"is_disabled": 0, "fusion_lon": 0.0, "fusion_lat": 0.0, "lat": 38.957217666666665, "type": "electric_scooter", "lon": -77.0310075, "bike_id": "49f739e03389bdf713f2a033818bc702", "rental_uris": {"android": "https://dc.lft.to/lastmile_qr_scan", "ios": "https://dc.lft.to/lastmile_qr_scan"}, "name": "49f739e03389bdf713f2a033818bc702", "is_reserved": 0},