{"data": {"bikes": [{"bike_id": "4f5019432d705182a05a71b083c182ef", "type": "electric_scooter", "is_disabled": 0, "lat": 38.917166, "rental_uris": {"ios": "https://dc.lft.to/lastmile_qr_scan", "android": "https://dc.lft.to/lastmile_qr_scan"}, "is_reserved": 0, "fusion_lon": 0.0, "fusion_lat": 0.0, "lon": -77.03209183333334, "name": "4f5019432d705182a05a71b083c182ef"}, {"bike_id": "b9e0f2a4b35a914446e4c3a1dcb8ba01", "type": "electric_scooter", "is_disabled": 0, "lat": 38.904094666666666, "rental_uris": {"ios": "https://dc.lft.to/lastmile_qr_scan", "android": "https://dc.lft.to/lastmile_qr_scan"}, "is_reserved": 0, "fusion_lon": 0.0, "fusion_lat": 0.0, "lon": -77.067602, "name": "b9e0f2a4b35a914446e4c3a1dcb8ba01"}, {"bike_id": "b3455f3b40ff992887bc35d64899095a", "type": "electric_scooter", "is_disabled": 0, "lat": 38.9065005, "rental_uris": {"ios": "https://dc.lft.to/lastmile_qr_scan", "android": "https://dc.lft.to/lastmile_qr_scan"}, "is_reserved": 0, "fusion_lon": 0.0, "fusion_lat": 0.0, "lon": -77.0140705, "name": "b3455f3b40ff992887bc35d64899095a"}, {"bike_id": "c425618e99f22949e87e3fabcd2c2f1a", "type": "electric_scooter", "is_disabled": 0, "lat": 38.89990566666667, "rental_uris": {"ios": "https://dc.lft.to/lastmile_qr_scan", "android": "https://dc.lft.to/lastmile_qr_scan"}, "is_reserved": 0, "fusion_lon": 0.0, "fusion_lat": 0.0, "lon": -76.9882855, "name": "c425618e99f22949e87e3fabcd2c2f1a"}, {"bike_id": "a76b1f62681c0d9a06cff2efbcc6aafd", "type": "electric_scooter", "is_disabled": 0, "lat": 38.9161425, "rental_uris": {"ios": "https://dc.lft.to/lastmile_qr_scan", "android": "https://dc.lft.to/lastmile_qr_scan"}, "is_reserved": 0, "fusion_lon": 0.0, "fusion_lat": 0.0, "lon": -77.01123783333334, "name": "a76b1f62681c0d9a06cff2efbcc6aafd"}, {"bike_id": "8ca92b6a75235ae7bb94b363fd68b8e7", "type": "electric_scooter", "is_disabled": 0, "lat": 38.89018216666667, "rental_uris": {"ios": "https://dc.lft.to/lastmile_qr_scan", "android": "https://dc.lft.to/lastmile_qr_scan"}, "is_reserved": 0, "fusion_lon": 0.0, "fusion_lat": 0.0, "lon": -76.93746283333333, "name": "8ca92b6a75235ae7bb94b363fd68b8e7"}, {"bike_id": "6aab36b82b85b6bfdab97e826eb429ae", "type": "electric_scooter", "is_disabled": 0, "lat": 38.911455333333336, "rental_uris": {"ios": "https://dc.lft.to/lastmile_qr_scan", "android": "https://dc.lft.to/lastmile_qr_scan"}, "is_reserved": 0, "fusion_lon": 0.0, "fusion_lat": 0.0, "lon": -77.02806116666666, "name": "6aab36b82b85b6bfdab97e826eb429ae"}, {"bike_id": "084f898542506a6cee52bfe508785f99", "type": "electric_bike", "is_disabled": 0, "lat": 38.9465645, "rental_uris": {"ios": "https://dc.lft.to/lastmile_qr_scan", "android": "https://dc.lft.to/lastmile_qr_scan"}, "is_reserved": 0, "fusion_lon": 0.0, "fusion_lat": 0.0, "lon": -76.9948305, "name": "084f898542506a6cee52bfe508785f99"}, {"bike_id": "fb04d031e66be9b19d258ab277465321", "type": "electric_scooter", "is_disabled": 0, "lat": 38.90803183333333, "rental_uris": {"ios": "https://dc.lft.to/lastmile_qr_scan", "android": "https://dc.lft.to/lastmile_qr_scan"}, "is_reserved": 0, "fusion_lon": 0.0, "fusion_lat": 0.0, "lon": -77.03138, "name": "fb04d031e66be9b19d258ab277465321"}, {"bike_id": "088121231cc2a38eab4f884028de84aa", "type": "electric_scooter", "is_disabled": 0, "lat": 38.9141855, "rental_uris": {"ios": "https://dc.lft.to/lastmile_qr_scan", "android": "https://dc.lft.to/lastmile_qr_scan"}, "is_reserved": 0, "fusion_lon": 0.0, "fusion_lat": 0.0, "lon": -77.02287283333334, "name": "088121231cc2a38eab4f884028de84aa"}, {"bike_id": "c24837673ffd1240b1a64f682df455a5", "type": "electric_scooter", "is_disabled": 0, "lat": 38.918742, "rental_uris": {"ios": "https://dc.lft.to/lastmile_qr_scan", "android": "https://dc.lft.to/lastmile_qr_scan"}, "is_reserved": 0, "fusion_lon": 0.0, "fusion_lat": 0.0, "lon": -77.0414235, "name": "c24837673ffd1240b1a64f682df455a5"}, {"bike_id": "c3828c5e15d48d510105a9c123d6644e", "type": "electric_scooter", "is_disabled": 0, "lat": 38.93535716666667, "rental_uris": {"ios": "https://dc.lft.to/lastmile_qr_scan", "android": "https://dc.lft.to/lastmile_qr_scan"}, "is_reserved": 0, "fusion_lon": 0.0, "fusion_lat": 0.0, "lon": -77.03891816666666, "name": "c3828c5e15d48d510105a9c123d6644e"}, {"bike_id": "f622ceb5c660d009a630ff5557739ee0", "type": "electric_scooter", "is_disabled": 0, "lat": 38.93536683333333, "rental_uris": {"ios": "https://dc.lft.to/lastmile_qr_scan", "android": "https://dc.lft.to/lastmile_qr_scan"}, "is_reserved": 0, "fusion_lon": 0.0, "fusion_lat": 0.0, "lon": -77.02249166666667, "name": "f622ceb5c660d009a630ff5557739ee0"}, {"bike_id": "974b45be6bdba5b552330f4ef99c0027", "type": "electric_scooter", "is_disabled": 0, "lat": 38.91442133333334, "rental_uris": {"ios": "https://dc.lft.to/lastmile_qr_scan", "android": "https://dc.lft.to/lastmile_qr_scan"}, "is_reserved": 0, "fusion_lon": 0.0, "fusion_lat": 0.0, "lon": -77.0217775, "name": "974b45be6bdba5b552330f4ef99c0027"}, {"bike_id": "80aa6b2f0dbc4144e53521c2cf8cb631", "type": "electric_bike", "is_disabled": 0, "lat": 39.037468833333335, "rental_uris": {"ios": "https://dc.lft.to/lastmile_qr_scan", "android": "https://dc.lft.to/lastmile_qr_scan"}, "is_reserved": 0, "fusion_lon": 0.0, "fusion_lat": 0.0, "lon": -77.05483333333333, "name": "80aa6b2f0dbc4144e53521c2cf8cb631"}, {"bike_id": "7fcd8ad0dccd3f9235f82e8d57c189d7", "type": "electric_bike", "is_disabled": 0, "lat": 38.9082795, "rental_uris": {"ios": "https://dc.lft.to/lastmile_qr_scan", "android": "https://dc.lft.to/lastmile_qr_scan"}, "is_reserved": 0, "fusion_lon": 0.0, "fusion_lat": 0.0, "lon": -76.941567, "name": "7fcd8ad0dccd3f9235f82e8d57c189d7"}, {"bike_id": "c48ddd84e2d1e70f0ef2289732607912", "type": "electric_scooter", "is_disabled": 0, "lat": 38.90540633333333, "rental_uris": {"ios": "https://dc.lft.to/lastmile_qr_scan", "android": "https://dc.lft.to/lastmile_qr_scan"}, "is_reserved": 0, "fusion_lon": 0.0, "fusion_lat": 0.0, "lon": -77.06892416666666, "name": "c48ddd84e2d1e70f0ef2289732607912"}, {"bike_id": "fdb495c5f4a6b0032d40163c98ee276a", "type": "electric_scooter", "is_disabled": 0, "lat": 38.887473666666665, "rental_uris": {"ios": "https://dc.lft.to/lastmile_qr_scan", "android": "https://dc.lft.to/lastmile_qr_scan"}, "is_reserved": 0, "fusion_lon": 0.0, "fusion_lat": 0.0, "lon": -76.99623216666667, "name": "fdb495c5f4a6b0032d40163c98ee276a"}, {"bike_id": "ba584dafb5c776041eef03d2f02b1d20", "type": "electric_scooter", "is_disabled": 0, "lat": 38.87748916666666, "rental_uris": {"ios": "https://dc.lft.to/lastmile_qr_scan", "android": "https://dc.lft.to/lastmile_qr_scan"}, "is_reserved": 0, "fusion_lon": 0.0, "fusion_lat": 0.0, "lon": -76.997212, "name": "ba584dafb5c776041eef03d2f02b1d20"}, {"bike_id": "fe4f8fd80652ee32b1cb8d720f6bc2fd", "type": "electric_scooter", "is_disabled": 0, "lat": 38.90845433333333, "rental_uris": {"ios": "https://dc.lft.to/lastmile_qr_scan", "android": "https://dc.lft.to/lastmile_qr_scan"}, "is_reserved": 0, "fusion_lon": 0.0, "fusion_lat": 0.0, "lon": -77.021825, "name": "fe4f8fd80652ee32b1cb8d720f6bc2fd"}, {"bike_id": "31069762bc6629caa6be907122b1e141", "type": "electric_bike", "is_disabled": 0, "lat": 39.05496683333333, "rental_uris": {"ios": "https://dc.lft.to/lastmile_qr_scan", "android": "https://dc.lft.to/lastmile_qr_scan"}, "is_reserved": 0, "fusion_lon": 0.0, "fusion_lat": 0.0, "lon": -77.117895, "name": "31069762bc6629caa6be907122b1e141"}, {"bike_id": "cc3408d9bc472dc46d46ba3db7862362", "type": "electric_scooter", "is_disabled": 0, "lat": 38.9156785, "rental_uris": {"ios": "https://dc.lft.to/lastmile_qr_scan", "android": "https://dc.lft.to/lastmile_qr_scan"}, "is_reserved": 0, "fusion_lon": 0.0, "fusion_lat": 0.0, "lon": -77.03163983333333, "name": "cc3408d9bc472dc46d46ba3db7862362"}, {"bike_id": "904eb9dd1f1319500ed0ee9b79bff903", "type": "electric_scooter", "is_disabled": 0, "lat": 38.910153666666666, "rental_uris": {"ios": "https://dc.lft.to/lastmile_qr_scan", "android": "https://dc.lft.to/lastmile_qr_scan"}, "is_reserved": 0, "fusion_lon": 0.0, "fusion_lat": 0.0, "lon": -77.03395416666666, "name": "904eb9dd1f1319500ed0ee9b79bff903"}, {"bike_id": "42499352990a8cb7ac43d8a78ee781e9", "type": "electric_scooter", "is_disabled": 0, "lat": 38.92283033333333, "rental_uris": {"ios": "https://dc.lft.to/lastmile_qr_scan", "android": "https://dc.lft.to/lastmile_qr_scan"}, "is_reserved": 0, "fusion_lon": 0.0, "fusion_lat": 0.0, "lon": -77.02241083333334, "name": "42499352990a8cb7ac43d8a78ee781e9"}, {"bike_id": "93ddfdcad0d1f101040f3f51fd69c0dd", "type": "electric_scooter", "is_disabled": 0, "lat": 38.907491666666665, "rental_uris": {"ios": "https://dc.lft.to/lastmile_qr_scan", "android": "https://dc.lft.to/lastmile_qr_scan"}, "is_reserved": 0, "fusion_lon": 0.0, "fusion_lat": 0.0, "lon": -77.03177916666667, "name": "93ddfdcad0d1f101040f3f51fd69c0dd"}, {"bike_id": "4984302b025e52794bd5ed1aa7d1e226", "type": "electric_scooter", "is_disabled": 0, "lat": 38.92088566666666, "rental_uris": {"ios": "https://dc.lft.to/lastmile_qr_scan", "android": "https://dc.lft.to/lastmile_qr_scan"}, "is_reserved": 0, "fusion_lon": 0.0, "fusion_lat": 0.0, "lon": -77.00434216666666, "name": "4984302b025e52794bd5ed1aa7d1e226"}, {"bike_id": "c6b868e32d3e2df91098dae0120e0af6", "type": "electric_bike", "is_disabled": 0, "lat": 38.956428, "rental_uris": {"ios": "https://dc.lft.to/lastmile_qr_scan", "android": "https://dc.lft.to/lastmile_qr_scan"}, "is_reserved": 0, "fusion_lon": 0.0, "fusion_lat": 0.0, "lon": -76.997953, "name": "c6b868e32d3e2df91098dae0120e0af6"}, {"bike_id": "69520c94783101cb2bc24ae4c0595666", "type": "electric_scooter", "is_disabled": 0, "lat": 38.90505983333333, "rental_uris": {"ios": "https://dc.lft.to/lastmile_qr_scan", "android": "https://dc.lft.to/lastmile_qr_scan"}, "is_reserved": 0, "fusion_lon": 0.0, "fusion_lat": 0.0, "lon": -77.043165, "name": "69520c94783101cb2bc24ae4c0595666"}, {"bike_id": "70e3229716da639b4deb24ca17ed6fbd", "type": "electric_scooter", "is_disabled": 0, "lat": 38.901135833333335, "rental_uris": {"ios": "https://dc.lft.to/lastmile_qr_scan", "android": "https://dc.lft.to/lastmile_qr_scan"}, "is_reserved": 0, "fusion_lon": 0.0, "fusion_lat": 0.0, "lon": -77.02482083333334, "name": "70e3229716da639b4deb24ca17ed6fbd"}, {"bike_id": "37246986ca881ac4e6519dad83fabcea", "type": "electric_scooter", "is_disabled": 0, "lat": 38.92354266666667, "rental_uris": {"ios": "https://dc.lft.to/lastmile_qr_scan", "android": "https://dc.lft.to/lastmile_qr_scan"}, "is_reserved": 0, "fusion_lon": 0.0, "fusion_lat": 0.0, "lon": -77.04140866666667, "name": "37246986ca881ac4e6519dad83fabcea"}, {"bike_id": "f3fee49195af1d56293bd411098f2535", "type": "electric_scooter", "is_disabled": 0, "lat": 38.938925166666664, "rental_uris": {"ios": "https://dc.lft.to/lastmile_qr_scan", "android": "https://dc.lft.to/lastmile_qr_scan"}, "is_reserved": 0, "fusion_lon": 0.0, "fusion_lat": 0.0, "lon": -77.02822716666667, "name": "f3fee49195af1d56293bd411098f2535"}, {"bike_id": "7e82f9d0121d7c926082c20bf4977757", "type": "electric_scooter", "is_disabled": 0, "lat": 38.911116166666666, "rental_uris": {"ios": "https://dc.lft.to/lastmile_qr_scan", "android": "https://dc.lft.to/lastmile_qr_scan"}, "is_reserved": 0, "fusion_lon": 0.0, "fusion_lat": 0.0, "lon": -77.00998733333333, "name": "7e82f9d0121d7c926082c20bf4977757"}, {"bike_id": "efdbf316c1df8dfd4babf7ddcb468212", "type": "electric_scooter", "is_disabled": 0, "lat": 38.896248666666665, "rental_uris": {"ios": "https://dc.lft.to/lastmile_qr_scan", "android": "https://dc.lft.to/lastmile_qr_scan"}, "is_reserved": 0, "fusion_lon": 0.0, "fusion_lat": 0.0, "lon": -77.03294066666666, "name": "efdbf316c1df8dfd4babf7ddcb468212"}, {"bike_id": "ef767288e853d5a833d0fdb3b70e1217", "type": "electric_bike", "is_disabled": 0, "lat": 39.01371916666667, "rental_uris": {"ios": "https://dc.lft.to/lastmile_qr_scan", "android": "https://dc.lft.to/lastmile_qr_scan"}, "is_reserved": 0, "fusion_lon": 0.0, "fusion_lat": 0.0, "lon": -76.92135483333334, "name": "ef767288e853d5a833d0fdb3b70e1217"}, {"bike_id": "b5fc2230681376a0cd200d4fa08a91bb", "type": "electric_scooter", "is_disabled": 0, "lat": 38.91752433333333, "rental_uris": {"ios": "https://dc.lft.to/lastmile_qr_scan", "android": "https://dc.lft.to/lastmile_qr_scan"}, "is_reserved": 0, "fusion_lon": 0.0, "fusion_lat": 0.0, "lon": -77.0366625, "name": "b5fc2230681376a0cd200d4fa08a91bb"}, {"bike_id": "cc3db428ab97b8b5c78616e2d478f940", "type": "electric_scooter", "is_disabled": 0, "lat": 38.898421, "rental_uris": {"ios": "https://dc.lft.to/lastmile_qr_scan", "android": "https://dc.lft.to/lastmile_qr_scan"}, "is_reserved": 0, "fusion_lon": 0.0, "fusion_lat": 0.0, "lon": -76.94630416666666, "name": "cc3db428ab97b8b5c78616e2d478f940"}, {"bike_id": "91012dbed1f981b2ecbbe1ab9e91e120", "type": "electric_scooter", "is_disabled": 0, "lat": 38.909354, "rental_uris": {"ios": "https://dc.lft.to/lastmile_qr_scan", "android": "https://dc.lft.to/lastmile_qr_scan"}, "is_reserved": 0, "fusion_lon": 0.0, "fusion_lat": 0.0, "lon": -77.02308933333333, "name": "91012dbed1f981b2ecbbe1ab9e91e120"}, {"bike_id": "47ad88e519c676a46ac50aa61289b147", "type": "electric_scooter", "is_disabled": 0, "lat": 38.92606166666667, "rental_uris": {"ios": "https://dc.lft.to/lastmile_qr_scan", "android": "https://dc.lft.to/lastmile_qr_scan"}, "is_reserved": 0, "fusion_lon": 0.0, "fusion_lat": 0.0, "lon": -77.10246416666666, "name": "47ad88e519c676a46ac50aa61289b147"}, {"bike_id": "64841c5c9204c6d485db6df4e6a4df99", "type": "electric_scooter", "is_disabled": 0, "lat": 38.897219166666666, "rental_uris": {"ios": "https://dc.lft.to/lastmile_qr_scan", "android": "https://dc.lft.to/lastmile_qr_scan"}, "is_reserved": 0, "fusion_lon": 0.0, "fusion_lat": 0.0, "lon": -77.0487735, "name": "64841c5c9204c6d485db6df4e6a4df99"}, {"bike_id": "095a899f400d866e45762f1f8969a9d5", "type": "electric_scooter", "is_disabled": 0, "lat": 38.904085, "rental_uris": {"ios": "https://dc.lft.to/lastmile_qr_scan", "android": "https://dc.lft.to/lastmile_qr_scan"}, "is_reserved": 0, "fusion_lon": 0.0, "fusion_lat": 0.0, "lon": -76.97331733333333, "name": "095a899f400d866e45762f1f8969a9d5"}, {"bike_id": "94abc899b5a6a6eb188a5da13eaa1726", "type": "electric_scooter", "is_disabled": 0, "lat": 38.8922085, "rental_uris": {"ios": "https://dc.lft.to/lastmile_qr_scan", "android": "https://dc.lft.to/lastmile_qr_scan"}, "is_reserved": 0, "fusion_lon": 0.0, "fusion_lat": 0.0, "lon": -77.02628316666667, "name": "94abc899b5a6a6eb188a5da13eaa1726"}, {"bike_id": "edf48f3615e17405f17bdcfcdb9c3915", "type": "electric_scooter", "is_disabled": 0, "lat": 38.91701783333333, "rental_uris": {"ios": "https://dc.lft.to/lastmile_qr_scan", "android": "https://dc.lft.to/lastmile_qr_scan"}, "is_reserved": 0, "fusion_lon": 0.0, "fusion_lat": 0.0, "lon": -77.02403666666666, "name": "edf48f3615e17405f17bdcfcdb9c3915"}, {"bike_id": "363cccd96e2d2a09338449deef0a8cf0", "type": "electric_scooter", "is_disabled": 0, "lat": 38.91863516666667, "rental_uris": {"ios": "https://dc.lft.to/lastmile_qr_scan", "android": "https://dc.lft.to/lastmile_qr_scan"}, "is_reserved": 0, "fusion_lon": 0.0, "fusion_lat": 0.0, "lon": -77.03657366666667, "name": "363cccd96e2d2a09338449deef0a8cf0"}, {"bike_id": "5e3363881ef26e7b667cfd0bc90742f9", "type": "electric_scooter", "is_disabled": 0, "lat": 38.8763385, "rental_uris": {"ios": "https://dc.lft.to/lastmile_qr_scan", "android": "https://dc.lft.to/lastmile_qr_scan"}, "is_reserved": 0, "fusion_lon": 0.0, "fusion_lat": 0.0, "lon": -77.00952966666667, "name": "5e3363881ef26e7b667cfd0bc90742f9"}, {"bike_id": "db9802bd63997eeeb61942767dcbb986", "type": "electric_scooter", "is_disabled": 0, "lat": 38.910376, "rental_uris": {"ios": "https://dc.lft.to/lastmile_qr_scan", "android": "https://dc.lft.to/lastmile_qr_scan"}, "is_reserved": 0, "fusion_lon": 0.0, "fusion_lat": 0.0, "lon": -77.042628, "name": "db9802bd63997eeeb61942767dcbb986"}, {"bike_id": "853acb1907e5641f0ca1a8b1dc55f7b3", "type": "electric_scooter", "is_disabled": 0, "lat": 38.890031, "rental_uris": {"ios": "https://dc.lft.to/lastmile_qr_scan", "android": "https://dc.lft.to/lastmile_qr_scan"}, "is_reserved": 0, "fusion_lon": 0.0, "fusion_lat": 0.0, "lon": -76.9374425, "name": "853acb1907e5641f0ca1a8b1dc55f7b3"}, {"bike_id": "6109b2d0a3939651741b71f106a505ba", "type": "electric_scooter", "is_disabled": 0, "lat": 38.906711333333334, "rental_uris": {"ios": "https://dc.lft.to/lastmile_qr_scan", "android": "https://dc.lft.to/lastmile_qr_scan"}, "is_reserved": 0, "fusion_lon": 0.0, "fusion_lat": 0.0, "lon": -77.02709333333334, "name": "6109b2d0a3939651741b71f106a505ba"}, {"bike_id": "af111749e79695760ecc1c45c565fda4", "type": "electric_bike", "is_disabled": 0, "lat": 38.83239066666667, "rental_uris": {"ios": "https://dc.lft.to/lastmile_qr_scan", "android": "https://dc.lft.to/lastmile_qr_scan"}, "is_reserved": 0, "fusion_lon": 0.0, "fusion_lat": 0.0, "lon": -76.94621166666667, "name": "af111749e79695760ecc1c45c565fda4"}, {"bike_id": "5b1f3f4fe45f0c789361988081da1ad5", "type": "electric_scooter", "is_disabled": 0, "lat": 38.90411916666667, "rental_uris": {"ios": "https://dc.lft.to/lastmile_qr_scan", "android": "https://dc.lft.to/lastmile_qr_scan"}, "is_reserved": 0, "fusion_lon": 0.0, "fusion_lat": 0.0, "lon": -76.973274, "name": "5b1f3f4fe45f0c789361988081da1ad5"}, {"bike_id": "d0ecdd7b577072a10187794c11ae6650", "type": "electric_scooter", "is_disabled": 0, "lat": 38.92450266666667, "rental_uris": {"ios": "https://dc.lft.to/lastmile_qr_scan", "android": "https://dc.lft.to/lastmile_qr_scan"}, "is_reserved": 0, "fusion_lon": 0.0, "fusion_lat": 0.0, "lon": -77.03969466666666, "name": "d0ecdd7b577072a10187794c11ae6650"}, {"bike_id": "879d725906b66e57523b6319cf184121", "type": "electric_scooter", "is_disabled": 0, "lat": 38.900188166666666, "rental_uris": {"ios": "https://dc.lft.to/lastmile_qr_scan", "android": "https://dc.lft.to/lastmile_qr_scan"}, "is_reserved": 0, "fusion_lon": 0.0, "fusion_lat": 0.0, "lon": -77.04489133333334, "name": "879d725906b66e57523b6319cf184121"}, {"bike_id": "73220a0e3fc191feb28cb4f3dfa80ec2", "type": "electric_scooter", "is_disabled": 0, "lat": 38.9363105, "rental_uris": {"ios": "https://dc.lft.to/lastmile_qr_scan", "android": "https://dc.lft.to/lastmile_qr_scan"}, "is_reserved": 0, "fusion_lon": 0.0, "fusion_lat": 0.0, "lon": -77.03668366666666, "name": "73220a0e3fc191feb28cb4f3dfa80ec2"}, {"bike_id": "9459e26db2bdd616ccb267445d819739", "type": "electric_scooter", "is_disabled": 0, "lat": 38.932521333333334, "rental_uris": {"ios": "https://dc.lft.to/lastmile_qr_scan", "android": "https://dc.lft.to/lastmile_qr_scan"}, "is_reserved": 0, "fusion_lon": 0.0, "fusion_lat": 0.0, "lon": -77.03852016666667, "name": "9459e26db2bdd616ccb267445d819739"}, {"bike_id": "4e7c73af09f3f37e27775bf7bab707e7", "type": "electric_scooter", "is_disabled": 0, "lat": 38.91279016666667, "rental_uris": {"ios": "https://dc.lft.to/lastmile_qr_scan", "android": "https://dc.lft.to/lastmile_qr_scan"}, "is_reserved": 0, "fusion_lon": 0.0, "fusion_lat": 0.0, "lon": -77.03199266666667, "name": "4e7c73af09f3f37e27775bf7bab707e7"}, {"bike_id": "7a6b741a3f97a918639fc3eaffc2b365", "type": "electric_bike", "is_disabled": 0, "lat": 39.0505925, "rental_uris": {"ios": "https://dc.lft.to/lastmile_qr_scan", "android": "https://dc.lft.to/lastmile_qr_scan"}, "is_reserved": 0, "fusion_lon": 0.0, "fusion_lat": 0.0, "lon": -77.05147583333333, "name": "7a6b741a3f97a918639fc3eaffc2b365"}, {"bike_id": "5526b46414ded00f855519d840b1daa1", "type": "electric_scooter", "is_disabled": 0, "lat": 38.90670983333333, "rental_uris": {"ios": "https://dc.lft.to/lastmile_qr_scan", "android": "https://dc.lft.to/lastmile_qr_scan"}, "is_reserved": 0, "fusion_lon": 0.0, "fusion_lat": 0.0, "lon": -77.02955066666667, "name": "5526b46414ded00f855519d840b1daa1"}, {"bike_id": "a3dfbbc636f0a95ebb226fc1abdfb563", "type": "electric_scooter", "is_disabled": 0, "lat": 38.93678116666667, "rental_uris": {"ios": "https://dc.lft.to/lastmile_qr_scan", "android": "https://dc.lft.to/lastmile_qr_scan"}, "is_reserved": 0, "fusion_lon": 0.0, "fusion_lat": 0.0, "lon": -77.03573, "name": "a3dfbbc636f0a95ebb226fc1abdfb563"}, {"bike_id": "d5338a5b5596eae126015f23cac541fd", "type": "electric_scooter", "is_disabled": 0, "lat": 38.89395183333333, "rental_uris": {"ios": "https://dc.lft.to/lastmile_qr_scan", "android": "https://dc.lft.to/lastmile_qr_scan"}, "is_reserved": 0, "fusion_lon": 0.0, "fusion_lat": 0.0, "lon": -77.02812633333333, "name": "d5338a5b5596eae126015f23cac541fd"}, {"bike_id": "d87b68afabb888a9c38c0e03cde51502", "type": "electric_bike", "is_disabled": 0, "lat": 38.90293283333333, "rental_uris": {"ios": "https://dc.lft.to/lastmile_qr_scan", "android": "https://dc.lft.to/lastmile_qr_scan"}, "is_reserved": 0, "fusion_lon": 0.0, "fusion_lat": 0.0, "lon": -77.03223366666667, "name": "d87b68afabb888a9c38c0e03cde51502"}, {"bike_id": "e97445eb63c12258cf36355d02980ec5", "type": "electric_scooter", "is_disabled": 0, "lat": 38.83092633333333, "rental_uris": {"ios": "https://dc.lft.to/lastmile_qr_scan", "android": "https://dc.lft.to/lastmile_qr_scan"}, "is_reserved": 0, "fusion_lon": 0.0, "fusion_lat": 0.0, "lon": -77.051568, "name": "e97445eb63c12258cf36355d02980ec5"}, {"bike_id": "f270bfd86020f2aa893aa4736df9eda4", "type": "electric_bike", "is_disabled": 0, "lat": 38.9550225, "rental_uris": {"ios": "https://dc.lft.to/lastmile_qr_scan", "android": "https://dc.lft.to/lastmile_qr_scan"}, "is_reserved": 0, "fusion_lon": 0.0, "fusion_lat": 0.0, "lon": -77.06996366666667, "name": "f270bfd86020f2aa893aa4736df9eda4"}, {"bike_id": "df5ca08e9d070015591dbfc27d7a1246", "type": "electric_scooter", "is_disabled": 0, "lat": 38.9082845, "rental_uris": {"ios": "https://dc.lft.to/lastmile_qr_scan", "android": "https://dc.lft.to/lastmile_qr_scan"}, "is_reserved": 0, "fusion_lon": 0.0, "fusion_lat": 0.0, "lon": -77.04470733333333, "name": "df5ca08e9d070015591dbfc27d7a1246"}, {"bike_id": "432af7e9b0b4acd3a91a68e774774667", "type": "electric_scooter", "is_disabled": 0, "lat": 38.867353333333334, "rental_uris": {"ios": "https://dc.lft.to/lastmile_qr_scan", "android": "https://dc.lft.to/lastmile_qr_scan"}, "is_reserved": 0, "fusion_lon": 0.0, "fusion_lat": 0.0, "lon": -76.97860516666667, "name": "432af7e9b0b4acd3a91a68e774774667"}, {"bike_id": "b23aba1b52cc5adfe8956a652cd61426", "type": "electric_scooter", "is_disabled": 0, "lat": 38.907375, "rental_uris": {"ios": "https://dc.lft.to/lastmile_qr_scan", "android": "https://dc.lft.to/lastmile_qr_scan"}, "is_reserved": 0, "fusion_lon": 0.0, "fusion_lat": 0.0, "lon": -76.97969233333333, "name": "b23aba1b52cc5adfe8956a652cd61426"}, {"bike_id": "c22489102cab4247f5e0c54f093ca449", "type": "electric_bike", "is_disabled": 0, "lat": 38.803822, "rental_uris": {"ios": "https://dc.lft.to/lastmile_qr_scan", "android": "https://dc.lft.to/lastmile_qr_scan"}, "is_reserved": 0, "fusion_lon": 0.0, "fusion_lat": 0.0, "lon": -77.06745016666666, "name": "c22489102cab4247f5e0c54f093ca449"}, {"bike_id": "925889fac84a9b4329bc15efe8cb8217", "type": "electric_scooter", "is_disabled": 0, "lat": 38.912502333333336, "rental_uris": {"ios": "https://dc.lft.to/lastmile_qr_scan", "android": "https://dc.lft.to/lastmile_qr_scan"}, "is_reserved": 0, "fusion_lon": 0.0, "fusion_lat": 0.0, "lon": -77.02959316666667, "name": "925889fac84a9b4329bc15efe8cb8217"}, {"bike_id": "f066358da9b4ac29f764321f29418573", "type": "electric_scooter", "is_disabled": 0, "lat": 38.917728333333336, "rental_uris": {"ios": "https://dc.lft.to/lastmile_qr_scan", "android": "https://dc.lft.to/lastmile_qr_scan"}, "is_reserved": 0, "fusion_lon": 0.0, "fusion_lat": 0.0, "lon": -77.03458316666666, "name": "f066358da9b4ac29f764321f29418573"}, {"bike_id": "7145fbb2a9b9e920df88a57810ecb22a", "type": "electric_scooter", "is_disabled": 0, "lat": 38.907566833333334, "rental_uris": {"ios": "https://dc.lft.to/lastmile_qr_scan", "android": "https://dc.lft.to/lastmile_qr_scan"}, "is_reserved": 0, "fusion_lon": 0.0, "fusion_lat": 0.0, "lon": -77.03192483333333, "name": "7145fbb2a9b9e920df88a57810ecb22a"}, {"bike_id": "1b385f21b81305feeb6354d4487dda76", "type": "electric_scooter", "is_disabled": 0, "lat": 38.91017733333333, "rental_uris": {"ios": "https://dc.lft.to/lastmile_qr_scan", "android": "https://dc.lft.to/lastmile_qr_scan"}, "is_reserved": 0, "fusion_lon": 0.0, "fusion_lat": 0.0, "lon": -77.00918316666667, "name": "1b385f21b81305feeb6354d4487dda76"}, {"bike_id": "276da1d4389b507d0e80659df3670c98", "type": "electric_scooter", "is_disabled": 0, "lat": 38.917368833333335, "rental_uris": {"ios": "https://dc.lft.to/lastmile_qr_scan", "android": "https://dc.lft.to/lastmile_qr_scan"}, "is_reserved": 0, "fusion_lon": 0.0, "fusion_lat": 0.0, "lon": -77.04086933333333, "name": "276da1d4389b507d0e80659df3670c98"}, {"bike_id": "b9f7d3aba07e3f812726a986f82c304f", "type": "electric_scooter", "is_disabled": 0, "lat": 38.89008333333334, "rental_uris": {"ios": "https://dc.lft.to/lastmile_qr_scan", "android": "https://dc.lft.to/lastmile_qr_scan"}, "is_reserved": 0, "fusion_lon": 0.0, "fusion_lat": 0.0, "lon": -76.93744966666667, "name": "b9f7d3aba07e3f812726a986f82c304f"}, {"bike_id": "77faf78c6be8eae439ffc866f1f12845", "type": "electric_bike", "is_disabled": 0, "lat": 38.987801166666664, "rental_uris": {"ios": "https://dc.lft.to/lastmile_qr_scan", "android": "https://dc.lft.to/lastmile_qr_scan"}, "is_reserved": 0, "fusion_lon": 0.0, "fusion_lat": 0.0, "lon": -77.02634816666666, "name": "77faf78c6be8eae439ffc866f1f12845"}, {"bike_id": "9439a926f4b83bbc11b051d954e83857", "type": "electric_scooter", "is_disabled": 0, "lat": 38.9231605, "rental_uris": {"ios": "https://dc.lft.to/lastmile_qr_scan", "android": "https://dc.lft.to/lastmile_qr_scan"}, "is_reserved": 0, "fusion_lon": 0.0, "fusion_lat": 0.0, "lon": -77.038792, "name": "9439a926f4b83bbc11b051d954e83857"}, {"bike_id": "127e960ec4be2eedf5947b10d69a077b", "type": "electric_scooter", "is_disabled": 0, "lat": 38.923144666666666, "rental_uris": {"ios": "https://dc.lft.to/lastmile_qr_scan", "android": "https://dc.lft.to/lastmile_qr_scan"}, "is_reserved": 0, "fusion_lon": 0.0, "fusion_lat": 0.0, "lon": -77.03907616666666, "name": "127e960ec4be2eedf5947b10d69a077b"}, {"bike_id": "df4d4c5ed9fe52eab8ebbcb184247c89", "type": "electric_scooter", "is_disabled": 0, "lat": 38.87663, "rental_uris": {"ios": "https://dc.lft.to/lastmile_qr_scan", "android": "https://dc.lft.to/lastmile_qr_scan"}, "is_reserved": 0, "fusion_lon": 0.0, "fusion_lat": 0.0, "lon": -77.00712766666666, "name": "df4d4c5ed9fe52eab8ebbcb184247c89"}, {"bike_id": "caf8dfc6368a6948946d39f4a1c4bd76", "type": "electric_scooter", "is_disabled": 0, "lat": 38.86245866666667, "rental_uris": {"ios": "https://dc.lft.to/lastmile_qr_scan", "android": "https://dc.lft.to/lastmile_qr_scan"}, "is_reserved": 0, "fusion_lon": 0.0, "fusion_lat": 0.0, "lon": -76.99502416666667, "name": "caf8dfc6368a6948946d39f4a1c4bd76"}, {"bike_id": "436f16d785812fadc7efd58a6f1ddaac", "type": "electric_scooter", "is_disabled": 0, "lat": 38.9021625, "rental_uris": {"ios": "https://dc.lft.to/lastmile_qr_scan", "android": "https://dc.lft.to/lastmile_qr_scan"}, "is_reserved": 0, "fusion_lon": 0.0, "fusion_lat": 0.0, "lon": -77.04146966666667, "name": "436f16d785812fadc7efd58a6f1ddaac"}, {"bike_id": "502acf5d6664ae9e2c7673d3c1b0d241", "type": "electric_scooter", "is_disabled": 0, "lat": 38.900062, "rental_uris": {"ios": "https://dc.lft.to/lastmile_qr_scan", "android": "https://dc.lft.to/lastmile_qr_scan"}, "is_reserved": 0, "fusion_lon": 0.0, "fusion_lat": 0.0, "lon": -76.998081, "name": "502acf5d6664ae9e2c7673d3c1b0d241"}, {"bike_id": "c05e57788ae8c291d74e40eb69b4ad61", "type": "electric_bike", "is_disabled": 0, "lat": 38.90014083333333, "rental_uris": {"ios": "https://dc.lft.to/lastmile_qr_scan", "android": "https://dc.lft.to/lastmile_qr_scan"}, "is_reserved": 0, "fusion_lon": 0.0, "fusion_lat": 0.0, "lon": -76.9930425, "name": "c05e57788ae8c291d74e40eb69b4ad61"}, {"bike_id": "888ab3510289badec787b16bf053f378", "type": "electric_scooter", "is_disabled": 0, "lat": 38.95006166666667, "rental_uris": {"ios": "https://dc.lft.to/lastmile_qr_scan", "android": "https://dc.lft.to/lastmile_qr_scan"}, "is_reserved": 0, "fusion_lon": 0.0, "fusion_lat": 0.0, "lon": -77.0156155, "name": "888ab3510289badec787b16bf053f378"}, {"bike_id": "cee3928927600dfb764b486f4dbd889b", "type": "electric_scooter", "is_disabled": 0, "lat": 38.95662083333333, "rental_uris": {"ios": "https://dc.lft.to/lastmile_qr_scan", "android": "https://dc.lft.to/lastmile_qr_scan"}, "is_reserved": 0, "fusion_lon": 0.0, "fusion_lat": 0.0, "lon": -77.024032, "name": "cee3928927600dfb764b486f4dbd889b"}, {"bike_id": "899b74a02372453953ce095820dbb2d3", "type": "electric_scooter", "is_disabled": 0, "lat": 38.900626333333335, "rental_uris": {"ios": "https://dc.lft.to/lastmile_qr_scan", "android": "https://dc.lft.to/lastmile_qr_scan"}, "is_reserved": 0, "fusion_lon": 0.0, "fusion_lat": 0.0, "lon": -77.0133935, "name": "899b74a02372453953ce095820dbb2d3"}, {"bike_id": "5285a9dbbbd402c62a1683cd29b1d6bb", "type": "electric_scooter", "is_disabled": 0, "lat": 38.898421, "rental_uris": {"ios": "https://dc.lft.to/lastmile_qr_scan", "android": "https://dc.lft.to/lastmile_qr_scan"}, "is_reserved": 0, "fusion_lon": 0.0, "fusion_lat": 0.0, "lon": -76.94634966666666, "name": "5285a9dbbbd402c62a1683cd29b1d6bb"}, {"bike_id": "99287445b0f78caef1ccf68548d95731", "type": "electric_scooter", "is_disabled": 0, "lat": 38.901975166666666, "rental_uris": {"ios": "https://dc.lft.to/lastmile_qr_scan", "android": "https://dc.lft.to/lastmile_qr_scan"}, "is_reserved": 0, "fusion_lon": 0.0, "fusion_lat": 0.0, "lon": -76.98843516666666, "name": "99287445b0f78caef1ccf68548d95731"}, {"bike_id": "c4126851c26dc7dd7cc2ba709800331d", "type": "electric_scooter", "is_disabled": 0, "lat": 38.91057083333333, "rental_uris": {"ios": "https://dc.lft.to/lastmile_qr_scan", "android": "https://dc.lft.to/lastmile_qr_scan"}, "is_reserved": 0, "fusion_lon": 0.0, "fusion_lat": 0.0, "lon": -77.04349333333333, "name": "c4126851c26dc7dd7cc2ba709800331d"}, {"bike_id": "fc4849f254a91824b9fe90d81efee2f6", "type": "electric_scooter", "is_disabled": 0, "lat": 38.892522, "rental_uris": {"ios": "https://dc.lft.to/lastmile_qr_scan", "android": "https://dc.lft.to/lastmile_qr_scan"}, "is_reserved": 0, "fusion_lon": 0.0, "fusion_lat": 0.0, "lon": -77.0335875, "name": "fc4849f254a91824b9fe90d81efee2f6"}, {"bike_id": "b7b032b8ad317b0e095deb45b94e4341", "type": "electric_scooter", "is_disabled": 0, "lat": 38.875803166666664, "rental_uris": {"ios": "https://dc.lft.to/lastmile_qr_scan", "android": "https://dc.lft.to/lastmile_qr_scan"}, "is_reserved": 0, "fusion_lon": 0.0, "fusion_lat": 0.0, "lon": -77.01275, "name": "b7b032b8ad317b0e095deb45b94e4341"}, {"bike_id": "bfbfef7dae717795a00e6fb146d6d8ca", "type": "electric_scooter", "is_disabled": 0, "lat": 38.91365, "rental_uris": {"ios": "https://dc.lft.to/lastmile_qr_scan", "android": "https://dc.lft.to/lastmile_qr_scan"}, "is_reserved": 0, "fusion_lon": 0.0, "fusion_lat": 0.0, "lon": -77.045656, "name": "bfbfef7dae717795a00e6fb146d6d8ca"}, {"bike_id": "5df89fdde670d9efdc35a0b48ebbec5a", "type": "electric_scooter", "is_disabled": 0, "lat": 38.910300666666664, "rental_uris": {"ios": "https://dc.lft.to/lastmile_qr_scan", "android": "https://dc.lft.to/lastmile_qr_scan"}, "is_reserved": 0, "fusion_lon": 0.0, "fusion_lat": 0.0, "lon": -77.04264533333334, "name": "5df89fdde670d9efdc35a0b48ebbec5a"}, {"bike_id": "f2bb445017b744bd69a47d013375317d", "type": "electric_scooter", "is_disabled": 0, "lat": 38.895287333333336, "rental_uris": {"ios": "https://dc.lft.to/lastmile_qr_scan", "android": "https://dc.lft.to/lastmile_qr_scan"}, "is_reserved": 0, "fusion_lon": 0.0, "fusion_lat": 0.0, "lon": -77.00206783333333, "name": "f2bb445017b744bd69a47d013375317d"}, {"bike_id": "87f320443ed2ce8132f7e4d5d79156e5", "type": "electric_scooter", "is_disabled": 0, "lat": 38.9067185, "rental_uris": {"ios": "https://dc.lft.to/lastmile_qr_scan", "android": "https://dc.lft.to/lastmile_qr_scan"}, "is_reserved": 0, "fusion_lon": 0.0, "fusion_lat": 0.0, "lon": -77.072047, "name": "87f320443ed2ce8132f7e4d5d79156e5"}, {"bike_id": "576ffd66361425e016cd008a66c3c564", "type": "electric_scooter", "is_disabled": 0, "lat": 38.923252, "rental_uris": {"ios": "https://dc.lft.to/lastmile_qr_scan", "android": "https://dc.lft.to/lastmile_qr_scan"}, "is_reserved": 0, "fusion_lon": 0.0, "fusion_lat": 0.0, "lon": -77.0380265, "name": "576ffd66361425e016cd008a66c3c564"}, {"bike_id": "033146a0543f55a61f0b761ac0bde1a7", "type": "electric_scooter", "is_disabled": 0, "lat": 38.905674, "rental_uris": {"ios": "https://dc.lft.to/lastmile_qr_scan", "android": "https://dc.lft.to/lastmile_qr_scan"}, "is_reserved": 0, "fusion_lon": 0.0, "fusion_lat": 0.0, "lon": -77.005878, "name": "033146a0543f55a61f0b761ac0bde1a7"}, {"bike_id": "7d497ccb78de2c91d6bd2a203952e2e5", "type": "electric_scooter", "is_disabled": 0, "lat": 38.94213166666667, "rental_uris": {"ios": "https://dc.lft.to/lastmile_qr_scan", "android": "https://dc.lft.to/lastmile_qr_scan"}, "is_reserved": 0, "fusion_lon": 0.0, "fusion_lat": 0.0, "lon": -77.025829, "name": "7d497ccb78de2c91d6bd2a203952e2e5"}, {"bike_id": "b111116cf3753be88016a3071be57772", "type": "electric_scooter", "is_disabled": 0, "lat": 38.94760516666667, "rental_uris": {"ios": "https://dc.lft.to/lastmile_qr_scan", "android": "https://dc.lft.to/lastmile_qr_scan"}, "is_reserved": 0, "fusion_lon": 0.0, "fusion_lat": 0.0, "lon": -77.07945816666667, "name": "b111116cf3753be88016a3071be57772"}, {"bike_id": "abd2aaf3d4fc1b21911f8b039942f6da", "type": "electric_scooter", "is_disabled": 0, "lat": 38.92991883333333, "rental_uris": {"ios": "https://dc.lft.to/lastmile_qr_scan", "android": "https://dc.lft.to/lastmile_qr_scan"}, "is_reserved": 0, "fusion_lon": 0.0, "fusion_lat": 0.0, "lon": -77.034698, "name": "abd2aaf3d4fc1b21911f8b039942f6da"}, {"bike_id": "d12ed26c8e590f5f6a0459022edf0f7f", "type": "electric_scooter", "is_disabled": 0, "lat": 38.9004165, "rental_uris": {"ios": "https://dc.lft.to/lastmile_qr_scan", "android": "https://dc.lft.to/lastmile_qr_scan"}, "is_reserved": 0, "fusion_lon": 0.0, "fusion_lat": 0.0, "lon": -77.02397583333334, "name": "d12ed26c8e590f5f6a0459022edf0f7f"}, {"bike_id": "08762a0e54c39cb41a79f4e7b783776d", "type": "electric_scooter", "is_disabled": 0, "lat": 38.9068465, "rental_uris": {"ios": "https://dc.lft.to/lastmile_qr_scan", "android": "https://dc.lft.to/lastmile_qr_scan"}, "is_reserved": 0, "fusion_lon": 0.0, "fusion_lat": 0.0, "lon": -77.06340566666667, "name": "08762a0e54c39cb41a79f4e7b783776d"}, {"bike_id": "da1e60630b9691a05d609cdb4c74b13f", "type": "electric_scooter", "is_disabled": 0, "lat": 38.92975466666667, "rental_uris": {"ios": "https://dc.lft.to/lastmile_qr_scan", "android": "https://dc.lft.to/lastmile_qr_scan"}, "is_reserved": 0, "fusion_lon": 0.0, "fusion_lat": 0.0, "lon": -77.039454, "name": "da1e60630b9691a05d609cdb4c74b13f"}, {"bike_id": "010dfed514b36d533aa29187d4d1bea3", "type": "electric_scooter", "is_disabled": 0, "lat": 38.907281166666664, "rental_uris": {"ios": "https://dc.lft.to/lastmile_qr_scan", "android": "https://dc.lft.to/lastmile_qr_scan"}, "is_reserved": 0, "fusion_lon": 0.0, "fusion_lat": 0.0, "lon": -77.0148465, "name": "010dfed514b36d533aa29187d4d1bea3"}, {"bike_id": "41cb887d2520d3dc82e2d74b2398f9ae", "type": "electric_bike", "is_disabled": 0, "lat": 39.056379666666665, "rental_uris": {"ios": "https://dc.lft.to/lastmile_qr_scan", "android": "https://dc.lft.to/lastmile_qr_scan"}, "is_reserved": 0, "fusion_lon": 0.0, "fusion_lat": 0.0, "lon": -77.1252835, "name": "41cb887d2520d3dc82e2d74b2398f9ae"}, {"bike_id": "db2b63ada5f545ec7e5d9b859e356b58", "type": "electric_scooter", "is_disabled": 0, "lat": 38.89785883333333, "rental_uris": {"ios": "https://dc.lft.to/lastmile_qr_scan", "android": "https://dc.lft.to/lastmile_qr_scan"}, "is_reserved": 0, "fusion_lon": 0.0, "fusion_lat": 0.0, "lon": -77.02224433333333, "name": "db2b63ada5f545ec7e5d9b859e356b58"}, {"bike_id": "c086f2251083b06cc8c74de0bdb266e4", "type": "electric_scooter", "is_disabled": 0, "lat": 38.902204833333336, "rental_uris": {"ios": "https://dc.lft.to/lastmile_qr_scan", "android": "https://dc.lft.to/lastmile_qr_scan"}, "is_reserved": 0, "fusion_lon": 0.0, "fusion_lat": 0.0, "lon": -77.04575216666667, "name": "c086f2251083b06cc8c74de0bdb266e4"}, {"bike_id": "0c33392915e2230f12300ba1dc8f6eb2", "type": "electric_scooter", "is_disabled": 0, "lat": 38.896082666666665, "rental_uris": {"ios": "https://dc.lft.to/lastmile_qr_scan", "android": "https://dc.lft.to/lastmile_qr_scan"}, "is_reserved": 0, "fusion_lon": 0.0, "fusion_lat": 0.0, "lon": -77.05436966666667, "name": "0c33392915e2230f12300ba1dc8f6eb2"}, {"bike_id": "1757f10a394d709984dd03cefb5302d0", "type": "electric_scooter", "is_disabled": 0, "lat": 38.927918166666664, "rental_uris": {"ios": "https://dc.lft.to/lastmile_qr_scan", "android": "https://dc.lft.to/lastmile_qr_scan"}, "is_reserved": 0, "fusion_lon": 0.0, "fusion_lat": 0.0, "lon": -77.03197, "name": "1757f10a394d709984dd03cefb5302d0"}, {"bike_id": "8af909f58886d6eab659fcc8e4aead6e", "type": "electric_scooter", "is_disabled": 0, "lat": 38.92007916666667, "rental_uris": {"ios": "https://dc.lft.to/lastmile_qr_scan", "android": "https://dc.lft.to/lastmile_qr_scan"}, "is_reserved": 0, "fusion_lon": 0.0, "fusion_lat": 0.0, "lon": -77.0417955, "name": "8af909f58886d6eab659fcc8e4aead6e"}, {"bike_id": "b99a2896f6a6ac395fe12e633b843b32", "type": "electric_bike", "is_disabled": 0, "lat": 38.90965, "rental_uris": {"ios": "https://dc.lft.to/lastmile_qr_scan", "android": "https://dc.lft.to/lastmile_qr_scan"}, "is_reserved": 0, "fusion_lon": 0.0, "fusion_lat": 0.0, "lon": -77.027373, "name": "b99a2896f6a6ac395fe12e633b843b32"}, {"bike_id": "51ee4db1fe7b3263d21267e590d3785b", "type": "electric_scooter", "is_disabled": 0, "lat": 38.903667166666665, "rental_uris": {"ios": "https://dc.lft.to/lastmile_qr_scan", "android": "https://dc.lft.to/lastmile_qr_scan"}, "is_reserved": 0, "fusion_lon": 0.0, "fusion_lat": 0.0, "lon": -76.99947133333333, "name": "51ee4db1fe7b3263d21267e590d3785b"}, {"bike_id": "4169923598c9130c57337b7ab732cec3", "type": "electric_scooter", "is_disabled": 0, "lat": 38.915752166666664, "rental_uris": {"ios": "https://dc.lft.to/lastmile_qr_scan", "android": "https://dc.lft.to/lastmile_qr_scan"}, "is_reserved": 0, "fusion_lon": 0.0, "fusion_lat": 0.0, "lon": -77.05009283333334, "name": "4169923598c9130c57337b7ab732cec3"}, {"bike_id": "f5ca3d08276d5dcf6632d8b2b95f766c", "type": "electric_scooter", "is_disabled": 0, "lat": 38.923572, "rental_uris": {"ios": "https://dc.lft.to/lastmile_qr_scan", "android": "https://dc.lft.to/lastmile_qr_scan"}, "is_reserved": 0, "fusion_lon": 0.0, "fusion_lat": 0.0, "lon": -77.05277766666667, "name": "f5ca3d08276d5dcf6632d8b2b95f766c"}, {"bike_id": "e7800d10fabd361c125f894989247f00", "type": "electric_scooter", "is_disabled": 0, "lat": 38.914045, "rental_uris": {"ios": "https://dc.lft.to/lastmile_qr_scan", "android": "https://dc.lft.to/lastmile_qr_scan"}, "is_reserved": 0, "fusion_lon": 0.0, "fusion_lat": 0.0, "lon": -77.03173416666667, "name": "e7800d10fabd361c125f894989247f00"}, {"bike_id": "0c8e0830edd6f5f0a0ae68559b1480cc", "type": "electric_scooter", "is_disabled": 0, "lat": 38.88934866666666, "rental_uris": {"ios": "https://dc.lft.to/lastmile_qr_scan", "android": "https://dc.lft.to/lastmile_qr_scan"}, "is_reserved": 0, "fusion_lon": 0.0, "fusion_lat": 0.0, "lon": -76.93587016666666, "name": "0c8e0830edd6f5f0a0ae68559b1480cc"}, {"bike_id": "ad63832b41ca9baf90f9399c28a47379", "type": "electric_scooter", "is_disabled": 0, "lat": 38.910683666666664, "rental_uris": {"ios": "https://dc.lft.to/lastmile_qr_scan", "android": "https://dc.lft.to/lastmile_qr_scan"}, "is_reserved": 0, "fusion_lon": 0.0, "fusion_lat": 0.0, "lon": -77.04169616666667, "name": "ad63832b41ca9baf90f9399c28a47379"}, {"bike_id": "e117711cf12230b9efe90f5c01b07f0a", "type": "electric_scooter", "is_disabled": 0, "lat": 38.888561333333335, "rental_uris": {"ios": "https://dc.lft.to/lastmile_qr_scan", "android": "https://dc.lft.to/lastmile_qr_scan"}, "is_reserved": 0, "fusion_lon": 0.0, "fusion_lat": 0.0, "lon": -77.0005375, "name": "e117711cf12230b9efe90f5c01b07f0a"}, {"bike_id": "bd7c18de0b101259760017f6ded191f5", "type": "electric_scooter", "is_disabled": 0, "lat": 38.8443575, "rental_uris": {"ios": "https://dc.lft.to/lastmile_qr_scan", "android": "https://dc.lft.to/lastmile_qr_scan"}, "is_reserved": 0, "fusion_lon": 0.0, "fusion_lat": 0.0, "lon": -76.997828, "name": "bd7c18de0b101259760017f6ded191f5"}, {"bike_id": "010f363047dcb07e53277a470f11a62c", "type": "electric_scooter", "is_disabled": 0, "lat": 38.905901166666666, "rental_uris": {"ios": "https://dc.lft.to/lastmile_qr_scan", "android": "https://dc.lft.to/lastmile_qr_scan"}, "is_reserved": 0, "fusion_lon": 0.0, "fusion_lat": 0.0, "lon": -77.0348425, "name": "010f363047dcb07e53277a470f11a62c"}, {"bike_id": "ae35ce0196d2e4923903222b2d97a7bb", "type": "electric_scooter", "is_disabled": 0, "lat": 38.932883333333336, "rental_uris": {"ios": "https://dc.lft.to/lastmile_qr_scan", "android": "https://dc.lft.to/lastmile_qr_scan"}, "is_reserved": 0, "fusion_lon": 0.0, "fusion_lat": 0.0, "lon": -77.03539633333334, "name": "ae35ce0196d2e4923903222b2d97a7bb"}, {"bike_id": "8510d39bbdef71deff67229e1a5167fc", "type": "electric_bike", "is_disabled": 0, "lat": 39.043045166666666, "rental_uris": {"ios": "https://dc.lft.to/lastmile_qr_scan", "android": "https://dc.lft.to/lastmile_qr_scan"}, "is_reserved": 0, "fusion_lon": 0.0, "fusion_lat": 0.0, "lon": -77.05161383333333, "name": "8510d39bbdef71deff67229e1a5167fc"}, {"bike_id": "5a579a5d5b3bfe5476a8886fe7615080", "type": "electric_scooter", "is_disabled": 0, "lat": 38.8715815, "rental_uris": {"ios": "https://dc.lft.to/lastmile_qr_scan", "android": "https://dc.lft.to/lastmile_qr_scan"}, "is_reserved": 0, "fusion_lon": 0.0, "fusion_lat": 0.0, "lon": -77.013548, "name": "5a579a5d5b3bfe5476a8886fe7615080"}, {"bike_id": "cb28852a494f732a6c027b64bff676d8", "type": "electric_bike", "is_disabled": 0, "lat": 38.823797, "rental_uris": {"ios": "https://dc.lft.to/lastmile_qr_scan", "android": "https://dc.lft.to/lastmile_qr_scan"}, "is_reserved": 0, "fusion_lon": 0.0, "fusion_lat": 0.0, "lon": -77.002237, "name": "cb28852a494f732a6c027b64bff676d8"}, {"bike_id": "f0ceaa9c86bb3898ed1be2ae29128ce1", "type": "electric_scooter", "is_disabled": 0, "lat": 38.89357666666667, "rental_uris": {"ios": "https://dc.lft.to/lastmile_qr_scan", "android": "https://dc.lft.to/lastmile_qr_scan"}, "is_reserved": 0, "fusion_lon": 0.0, "fusion_lat": 0.0, "lon": -76.94934733333334, "name": "f0ceaa9c86bb3898ed1be2ae29128ce1"}, {"bike_id": "08b2a1a8b8754681a12f8b463384d9c4", "type": "electric_scooter", "is_disabled": 0, "lat": 38.92904516666667, "rental_uris": {"ios": "https://dc.lft.to/lastmile_qr_scan", "android": "https://dc.lft.to/lastmile_qr_scan"}, "is_reserved": 0, "fusion_lon": 0.0, "fusion_lat": 0.0, "lon": -77.03261766666667, "name": "08b2a1a8b8754681a12f8b463384d9c4"}, {"bike_id": "a2bbfa55ff7159f6a03a4d85c7c3df2e", "type": "electric_scooter", "is_disabled": 0, "lat": 38.9191595, "rental_uris": {"ios": "https://dc.lft.to/lastmile_qr_scan", "android": "https://dc.lft.to/lastmile_qr_scan"}, "is_reserved": 0, "fusion_lon": 0.0, "fusion_lat": 0.0, "lon": -77.0341095, "name": "a2bbfa55ff7159f6a03a4d85c7c3df2e"}, {"bike_id": "195bd06f943546fcab9a274faf19668c", "type": "electric_scooter", "is_disabled": 0, "lat": 38.90882083333333, "rental_uris": {"ios": "https://dc.lft.to/lastmile_qr_scan", "android": "https://dc.lft.to/lastmile_qr_scan"}, "is_reserved": 0, "fusion_lon": 0.0, "fusion_lat": 0.0, "lon": -77.04323616666667, "name": "195bd06f943546fcab9a274faf19668c"}, {"bike_id": "568b5372b6a440a29a01bbfd225bb0e5", "type": "electric_scooter", "is_disabled": 0, "lat": 38.90518133333333, "rental_uris": {"ios": "https://dc.lft.to/lastmile_qr_scan", "android": "https://dc.lft.to/lastmile_qr_scan"}, "is_reserved": 0, "fusion_lon": 0.0, "fusion_lat": 0.0, "lon": -77.06379566666666, "name": "568b5372b6a440a29a01bbfd225bb0e5"}, {"bike_id": "f094c87d623c819200debb6b44fa4494", "type": "electric_scooter", "is_disabled": 0, "lat": 38.882735, "rental_uris": {"ios": "https://dc.lft.to/lastmile_qr_scan", "android": "https://dc.lft.to/lastmile_qr_scan"}, "is_reserved": 0, "fusion_lon": 0.0, "fusion_lat": 0.0, "lon": -76.99252016666667, "name": "f094c87d623c819200debb6b44fa4494"}, {"bike_id": "3f02ccc617aa02d983440e75a6e2605e", "type": "electric_scooter", "is_disabled": 0, "lat": 38.906844166666666, "rental_uris": {"ios": "https://dc.lft.to/lastmile_qr_scan", "android": "https://dc.lft.to/lastmile_qr_scan"}, "is_reserved": 0, "fusion_lon": 0.0, "fusion_lat": 0.0, "lon": -77.06337116666667, "name": "3f02ccc617aa02d983440e75a6e2605e"}, {"bike_id": "a1c2a646851dff7bfbbbf96c536a1ad2", "type": "electric_scooter", "is_disabled": 0, "lat": 38.90853416666667, "rental_uris": {"ios": "https://dc.lft.to/lastmile_qr_scan", "android": "https://dc.lft.to/lastmile_qr_scan"}, "is_reserved": 0, "fusion_lon": 0.0, "fusion_lat": 0.0, "lon": -77.05568016666666, "name": "a1c2a646851dff7bfbbbf96c536a1ad2"}, {"bike_id": "01ce8b611a6c2e8ba218b1b2bbae1978", "type": "electric_scooter", "is_disabled": 0, "lat": 38.915352, "rental_uris": {"ios": "https://dc.lft.to/lastmile_qr_scan", "android": "https://dc.lft.to/lastmile_qr_scan"}, "is_reserved": 0, "fusion_lon": 0.0, "fusion_lat": 0.0, "lon": -77.02008583333334, "name": "01ce8b611a6c2e8ba218b1b2bbae1978"}, {"bike_id": "9e02deaafaaa64297f4d7688b5a0cc36", "type": "electric_scooter", "is_disabled": 0, "lat": 38.90830833333333, "rental_uris": {"ios": "https://dc.lft.to/lastmile_qr_scan", "android": "https://dc.lft.to/lastmile_qr_scan"}, "is_reserved": 0, "fusion_lon": 0.0, "fusion_lat": 0.0, "lon": -77.02393266666667, "name": "9e02deaafaaa64297f4d7688b5a0cc36"}, {"bike_id": "6c3bd50d846362422620ea2dc54a8159", "type": "electric_scooter", "is_disabled": 0, "lat": 38.94329916666667, "rental_uris": {"ios": "https://dc.lft.to/lastmile_qr_scan", "android": "https://dc.lft.to/lastmile_qr_scan"}, "is_reserved": 0, "fusion_lon": 0.0, "fusion_lat": 0.0, "lon": -77.01484233333333, "name": "6c3bd50d846362422620ea2dc54a8159"}, {"bike_id": "16d63fbd6a545eadefa29cfd0f4fc5e4", "type": "electric_scooter", "is_disabled": 0, "lat": 38.923844, "rental_uris": {"ios": "https://dc.lft.to/lastmile_qr_scan", "android": "https://dc.lft.to/lastmile_qr_scan"}, "is_reserved": 0, "fusion_lon": 0.0, "fusion_lat": 0.0, "lon": -77.040764, "name": "16d63fbd6a545eadefa29cfd0f4fc5e4"}, {"bike_id": "e010aa3b08f429fdb1e425b4e074a0ba", "type": "electric_scooter", "is_disabled": 0, "lat": 38.921462166666664, "rental_uris": {"ios": "https://dc.lft.to/lastmile_qr_scan", "android": "https://dc.lft.to/lastmile_qr_scan"}, "is_reserved": 0, "fusion_lon": 0.0, "fusion_lat": 0.0, "lon": -77.04337866666667, "name": "e010aa3b08f429fdb1e425b4e074a0ba"}, {"bike_id": "066df84ffdfaea79ceeab61afe9e7c50", "type": "electric_scooter", "is_disabled": 0, "lat": 38.90485433333333, "rental_uris": {"ios": "https://dc.lft.to/lastmile_qr_scan", "android": "https://dc.lft.to/lastmile_qr_scan"}, "is_reserved": 0, "fusion_lon": 0.0, "fusion_lat": 0.0, "lon": -76.98980066666667, "name": "066df84ffdfaea79ceeab61afe9e7c50"}, {"bike_id": "eb2cd487ab8d919cb8e7428cb59f68e8", "type": "electric_bike", "is_disabled": 0, "lat": 38.957890666666664, "rental_uris": {"ios": "https://dc.lft.to/lastmile_qr_scan", "android": "https://dc.lft.to/lastmile_qr_scan"}, "is_reserved": 0, "fusion_lon": 0.0, "fusion_lat": 0.0, "lon": -77.01999283333333, "name": "eb2cd487ab8d919cb8e7428cb59f68e8"}, {"bike_id": "bd0698f15870da4474e3d00c4360426b", "type": "electric_scooter", "is_disabled": 0, "lat": 38.89966783333333, "rental_uris": {"ios": "https://dc.lft.to/lastmile_qr_scan", "android": "https://dc.lft.to/lastmile_qr_scan"}, "is_reserved": 0, "fusion_lon": 0.0, "fusion_lat": 0.0, "lon": -76.98301033333334, "name": "bd0698f15870da4474e3d00c4360426b"}, {"bike_id": "a76969a9e2a83af97a0e05fdef14b8b1", "type": "electric_scooter", "is_disabled": 0, "lat": 38.902369666666665, "rental_uris": {"ios": "https://dc.lft.to/lastmile_qr_scan", "android": "https://dc.lft.to/lastmile_qr_scan"}, "is_reserved": 0, "fusion_lon": 0.0, "fusion_lat": 0.0, "lon": -77.00194866666666, "name": "a76969a9e2a83af97a0e05fdef14b8b1"}, {"bike_id": "e521e689fbea0c551d6bdd0a4dc83c08", "type": "electric_scooter", "is_disabled": 0, "lat": 38.932020333333334, "rental_uris": {"ios": "https://dc.lft.to/lastmile_qr_scan", "android": "https://dc.lft.to/lastmile_qr_scan"}, "is_reserved": 0, "fusion_lon": 0.0, "fusion_lat": 0.0, "lon": -77.03876483333333, "name": "e521e689fbea0c551d6bdd0a4dc83c08"}, {"bike_id": "583734fb9686980dcf250aee40ca6018", "type": "electric_scooter", "is_disabled": 0, "lat": 38.90411316666667, "rental_uris": {"ios": "https://dc.lft.to/lastmile_qr_scan", "android": "https://dc.lft.to/lastmile_qr_scan"}, "is_reserved": 0, "fusion_lon": 0.0, "fusion_lat": 0.0, "lon": -76.97331616666666, "name": "583734fb9686980dcf250aee40ca6018"}, {"bike_id": "c194d5907de11e64ab8b9a71bf3bef17", "type": "electric_bike", "is_disabled": 0, "lat": 38.87100316666667, "rental_uris": {"ios": "https://dc.lft.to/lastmile_qr_scan", "android": "https://dc.lft.to/lastmile_qr_scan"}, "is_reserved": 0, "fusion_lon": 0.0, "fusion_lat": 0.0, "lon": -77.01202483333333, "name": "c194d5907de11e64ab8b9a71bf3bef17"}, {"bike_id": "2a7ee44210a2ffee51af72b39be88c9a", "type": "electric_scooter", "is_disabled": 0, "lat": 38.94560633333333, "rental_uris": {"ios": "https://dc.lft.to/lastmile_qr_scan", "android": "https://dc.lft.to/lastmile_qr_scan"}, "is_reserved": 0, "fusion_lon": 0.0, "fusion_lat": 0.0, "lon": -77.071261, "name": "2a7ee44210a2ffee51af72b39be88c9a"}, {"bike_id": "ea8e38e98b66a2d3ff2f1a09f6f0fe80", "type": "electric_scooter", "is_disabled": 0, "lat": 38.88451416666667, "rental_uris": {"ios": "https://dc.lft.to/lastmile_qr_scan", "android": "https://dc.lft.to/lastmile_qr_scan"}, "is_reserved": 0, "fusion_lon": 0.0, "fusion_lat": 0.0, "lon": -76.95103233333333, "name": "ea8e38e98b66a2d3ff2f1a09f6f0fe80"}, {"bike_id": "bd5cbf92b744fbc521bd011342395ace", "type": "electric_scooter", "is_disabled": 0, "lat": 38.915417833333336, "rental_uris": {"ios": "https://dc.lft.to/lastmile_qr_scan", "android": "https://dc.lft.to/lastmile_qr_scan"}, "is_reserved": 0, "fusion_lon": 0.0, "fusion_lat": 0.0, "lon": -77.03791366666667, "name": "bd5cbf92b744fbc521bd011342395ace"}, {"bike_id": "efbaea751990ee0f0690eb06c33eae5c", "type": "electric_scooter", "is_disabled": 0, "lat": 38.90578683333333, "rental_uris": {"ios": "https://dc.lft.to/lastmile_qr_scan", "android": "https://dc.lft.to/lastmile_qr_scan"}, "is_reserved": 0, "fusion_lon": 0.0, "fusion_lat": 0.0, "lon": -77.00625383333333, "name": "efbaea751990ee0f0690eb06c33eae5c"}, {"bike_id": "c21e69f7a5bb53e2a700b8137c05df59", "type": "electric_bike", "is_disabled": 0, "lat": 38.858952333333335, "rental_uris": {"ios": "https://dc.lft.to/lastmile_qr_scan", "android": "https://dc.lft.to/lastmile_qr_scan"}, "is_reserved": 0, "fusion_lon": 0.0, "fusion_lat": 0.0, "lon": -77.11867216666667, "name": "c21e69f7a5bb53e2a700b8137c05df59"}, {"bike_id": "342a76640c6bd991e548b13f9385aa23", "type": "electric_scooter", "is_disabled": 0, "lat": 38.906615333333335, "rental_uris": {"ios": "https://dc.lft.to/lastmile_qr_scan", "android": "https://dc.lft.to/lastmile_qr_scan"}, "is_reserved": 0, "fusion_lon": 0.0, "fusion_lat": 0.0, "lon": -77.03800916666667, "name": "342a76640c6bd991e548b13f9385aa23"}, {"bike_id": "c702b0ac4f09fedee7aa7107c24d62c7", "type": "electric_scooter", "is_disabled": 0, "lat": 38.8791515, "rental_uris": {"ios": "https://dc.lft.to/lastmile_qr_scan", "android": "https://dc.lft.to/lastmile_qr_scan"}, "is_reserved": 0, "fusion_lon": 0.0, "fusion_lat": 0.0, "lon": -77.00780366666666, "name": "c702b0ac4f09fedee7aa7107c24d62c7"}, {"bike_id": "288b24423a74d08fbf49e1f21d735448", "type": "electric_scooter", "is_disabled": 0, "lat": 38.910621166666665, "rental_uris": {"ios": "https://dc.lft.to/lastmile_qr_scan", "android": "https://dc.lft.to/lastmile_qr_scan"}, "is_reserved": 0, "fusion_lon": 0.0, "fusion_lat": 0.0, "lon": -77.0309025, "name": "288b24423a74d08fbf49e1f21d735448"}, {"bike_id": "0c88526322cfd7eccaa2e7dc06590c91", "type": "electric_scooter", "is_disabled": 0, "lat": 38.886156166666666, "rental_uris": {"ios": "https://dc.lft.to/lastmile_qr_scan", "android": "https://dc.lft.to/lastmile_qr_scan"}, "is_reserved": 0, "fusion_lon": 0.0, "fusion_lat": 0.0, "lon": -77.01904733333333, "name": "0c88526322cfd7eccaa2e7dc06590c91"}, {"bike_id": "1b5e86d5f855b99ba43985c0955e68a0", "type": "electric_scooter", "is_disabled": 0, "lat": 38.9199115, "rental_uris": {"ios": "https://dc.lft.to/lastmile_qr_scan", "android": "https://dc.lft.to/lastmile_qr_scan"}, "is_reserved": 0, "fusion_lon": 0.0, "fusion_lat": 0.0, "lon": -76.973026, "name": "1b5e86d5f855b99ba43985c0955e68a0"}, {"bike_id": "b6d6aed80be064ce9a4629d4418c2212", "type": "electric_scooter", "is_disabled": 0, "lat": 38.907325166666666, "rental_uris": {"ios": "https://dc.lft.to/lastmile_qr_scan", "android": "https://dc.lft.to/lastmile_qr_scan"}, "is_reserved": 0, "fusion_lon": 0.0, "fusion_lat": 0.0, "lon": -77.03865116666667, "name": "b6d6aed80be064ce9a4629d4418c2212"}, {"bike_id": "b50286289601dbb87e35a2896f950805", "type": "electric_scooter", "is_disabled": 0, "lat": 38.923392, "rental_uris": {"ios": "https://dc.lft.to/lastmile_qr_scan", "android": "https://dc.lft.to/lastmile_qr_scan"}, "is_reserved": 0, "fusion_lon": 0.0, "fusion_lat": 0.0, "lon": -77.03540166666667, "name": "b50286289601dbb87e35a2896f950805"}, {"bike_id": "8b57645fd58c405a9b3cd8015cd62363", "type": "electric_scooter", "is_disabled": 0, "lat": 38.904119, "rental_uris": {"ios": "https://dc.lft.to/lastmile_qr_scan", "android": "https://dc.lft.to/lastmile_qr_scan"}, "is_reserved": 0, "fusion_lon": 0.0, "fusion_lat": 0.0, "lon": -76.97335966666667, "name": "8b57645fd58c405a9b3cd8015cd62363"}, {"bike_id": "08ebd92c53ffd33d6f0431a442a86bc4", "type": "electric_scooter", "is_disabled": 0, "lat": 38.917077166666665, "rental_uris": {"ios": "https://dc.lft.to/lastmile_qr_scan", "android": "https://dc.lft.to/lastmile_qr_scan"}, "is_reserved": 0, "fusion_lon": 0.0, "fusion_lat": 0.0, "lon": -77.0246425, "name": "08ebd92c53ffd33d6f0431a442a86bc4"}, {"bike_id": "339ccf2035ab9c534cb792cf3d8c427b", "type": "electric_scooter", "is_disabled": 0, "lat": 38.94783783333333, "rental_uris": {"ios": "https://dc.lft.to/lastmile_qr_scan", "android": "https://dc.lft.to/lastmile_qr_scan"}, "is_reserved": 0, "fusion_lon": 0.0, "fusion_lat": 0.0, "lon": -77.0793795, "name": "339ccf2035ab9c534cb792cf3d8c427b"}, {"bike_id": "dd85b3cde68b536c975c8e6c6e32d19a", "type": "electric_scooter", "is_disabled": 0, "lat": 38.906513, "rental_uris": {"ios": "https://dc.lft.to/lastmile_qr_scan", "android": "https://dc.lft.to/lastmile_qr_scan"}, "is_reserved": 0, "fusion_lon": 0.0, "fusion_lat": 0.0, "lon": -77.05331733333334, "name": "dd85b3cde68b536c975c8e6c6e32d19a"}, {"bike_id": "21503c27a34628e3e83a6cd9c4e5f105", "type": "electric_scooter", "is_disabled": 0, "lat": 38.91556833333333, "rental_uris": {"ios": "https://dc.lft.to/lastmile_qr_scan", "android": "https://dc.lft.to/lastmile_qr_scan"}, "is_reserved": 0, "fusion_lon": 0.0, "fusion_lat": 0.0, "lon": -77.0215265, "name": "21503c27a34628e3e83a6cd9c4e5f105"}, {"bike_id": "339cb1045ef12f15e108d4d57005c6da", "type": "electric_scooter", "is_disabled": 0, "lat": 38.949936, "rental_uris": {"ios": "https://dc.lft.to/lastmile_qr_scan", "android": "https://dc.lft.to/lastmile_qr_scan"}, "is_reserved": 0, "fusion_lon": 0.0, "fusion_lat": 0.0, "lon": -77.02701583333334, "name": "339cb1045ef12f15e108d4d57005c6da"}, {"bike_id": "50aa15d42cc32b68723cfe4d36807ad1", "type": "electric_bike", "is_disabled": 0, "lat": 38.87298116666667, "rental_uris": {"ios": "https://dc.lft.to/lastmile_qr_scan", "android": "https://dc.lft.to/lastmile_qr_scan"}, "is_reserved": 0, "fusion_lon": 0.0, "fusion_lat": 0.0, "lon": -76.9698015, "name": "50aa15d42cc32b68723cfe4d36807ad1"}, {"bike_id": "6a2276490c551b9d792a929beca0cd78", "type": "electric_scooter", "is_disabled": 0, "lat": 38.865050333333336, "rental_uris": {"ios": "https://dc.lft.to/lastmile_qr_scan", "android": "https://dc.lft.to/lastmile_qr_scan"}, "is_reserved": 0, "fusion_lon": 0.0, "fusion_lat": 0.0, "lon": -76.99002283333333, "name": "6a2276490c551b9d792a929beca0cd78"}, {"bike_id": "29431b97c8e62f3604bddc0a3b84b969", "type": "electric_scooter", "is_disabled": 0, "lat": 38.89869183333333, "rental_uris": {"ios": "https://dc.lft.to/lastmile_qr_scan", "android": "https://dc.lft.to/lastmile_qr_scan"}, "is_reserved": 0, "fusion_lon": 0.0, "fusion_lat": 0.0, "lon": -76.94665216666667, "name": "29431b97c8e62f3604bddc0a3b84b969"}, {"bike_id": "5997071af4c3b2edbca9c443307f7f6e", "type": "electric_scooter", "is_disabled": 0, "lat": 38.91783366666667, "rental_uris": {"ios": "https://dc.lft.to/lastmile_qr_scan", "android": "https://dc.lft.to/lastmile_qr_scan"}, "is_reserved": 0, "fusion_lon": 0.0, "fusion_lat": 0.0, "lon": -77.03661183333334, "name": "5997071af4c3b2edbca9c443307f7f6e"}, {"bike_id": "6068079521b2f5f2e0c97bbf7e01e33f", "type": "electric_scooter", "is_disabled": 0, "lat": 38.91658783333333, "rental_uris": {"ios": "https://dc.lft.to/lastmile_qr_scan", "android": "https://dc.lft.to/lastmile_qr_scan"}, "is_reserved": 0, "fusion_lon": 0.0, "fusion_lat": 0.0, "lon": -77.02393216666667, "name": "6068079521b2f5f2e0c97bbf7e01e33f"}, {"bike_id": "ecc765a0cc8fc2f20632bdfdeabcedbf", "type": "electric_scooter", "is_disabled": 0, "lat": 38.919165666666665, "rental_uris": {"ios": "https://dc.lft.to/lastmile_qr_scan", "android": "https://dc.lft.to/lastmile_qr_scan"}, "is_reserved": 0, "fusion_lon": 0.0, "fusion_lat": 0.0, "lon": -77.03417133333333, "name": "ecc765a0cc8fc2f20632bdfdeabcedbf"}, {"bike_id": "94b1b019044e2a71ea52f63f83f2a2fc", "type": "electric_scooter", "is_disabled": 0, "lat": 38.885359666666666, "rental_uris": {"ios": "https://dc.lft.to/lastmile_qr_scan", "android": "https://dc.lft.to/lastmile_qr_scan"}, "is_reserved": 0, "fusion_lon": 0.0, "fusion_lat": 0.0, "lon": -76.98060583333333, "name": "94b1b019044e2a71ea52f63f83f2a2fc"}, {"bike_id": "9530e510a99abb126fa54f8cb4e024e9", "type": "electric_scooter", "is_disabled": 0, "lat": 38.9367465, "rental_uris": {"ios": "https://dc.lft.to/lastmile_qr_scan", "android": "https://dc.lft.to/lastmile_qr_scan"}, "is_reserved": 0, "fusion_lon": 0.0, "fusion_lat": 0.0, "lon": -77.0359395, "name": "9530e510a99abb126fa54f8cb4e024e9"}, {"bike_id": "f5832364bfd227cc276ab8e564d8ce56", "type": "electric_bike", "is_disabled": 0, "lat": 38.85356683333333, "rental_uris": {"ios": "https://dc.lft.to/lastmile_qr_scan", "android": "https://dc.lft.to/lastmile_qr_scan"}, "is_reserved": 0, "fusion_lon": 0.0, "fusion_lat": 0.0, "lon": -77.086873, "name": "f5832364bfd227cc276ab8e564d8ce56"}, {"bike_id": "c4039c57d7f5f3adae3013246e231e7e", "type": "electric_scooter", "is_disabled": 0, "lat": 38.9053595, "rental_uris": {"ios": "https://dc.lft.to/lastmile_qr_scan", "android": "https://dc.lft.to/lastmile_qr_scan"}, "is_reserved": 0, "fusion_lon": 0.0, "fusion_lat": 0.0, "lon": -77.057097, "name": "c4039c57d7f5f3adae3013246e231e7e"}, {"bike_id": "aa7147f935ce7be407efbf0a4c61c5eb", "type": "electric_scooter", "is_disabled": 0, "lat": 38.9217955, "rental_uris": {"ios": "https://dc.lft.to/lastmile_qr_scan", "android": "https://dc.lft.to/lastmile_qr_scan"}, "is_reserved": 0, "fusion_lon": 0.0, "fusion_lat": 0.0, "lon": -76.997964, "name": "aa7147f935ce7be407efbf0a4c61c5eb"}, {"bike_id": "64a379f77a68867ba62655e5e94d4cab", "type": "electric_scooter", "is_disabled": 0, "lat": 38.937727, "rental_uris": {"ios": "https://dc.lft.to/lastmile_qr_scan", "android": "https://dc.lft.to/lastmile_qr_scan"}, "is_reserved": 0, "fusion_lon": 0.0, "fusion_lat": 0.0, "lon": -77.01966733333333, "name": "64a379f77a68867ba62655e5e94d4cab"}, {"bike_id": "1811c7ab8b8ceffbc80d34741a1f8d64", "type": "electric_scooter", "is_disabled": 0, "lat": 38.9163185, "rental_uris": {"ios": "https://dc.lft.to/lastmile_qr_scan", "android": "https://dc.lft.to/lastmile_qr_scan"}, "is_reserved": 0, "fusion_lon": 0.0, "fusion_lat": 0.0, "lon": -77.029482, "name": "1811c7ab8b8ceffbc80d34741a1f8d64"}, {"bike_id": "5dd93b356dfa7cf347f75cab87eeeedc", "type": "electric_bike", "is_disabled": 0, "lat": 38.86336416666666, "rental_uris": {"ios": "https://dc.lft.to/lastmile_qr_scan", "android": "https://dc.lft.to/lastmile_qr_scan"}, "is_reserved": 0, "fusion_lon": 0.0, "fusion_lat": 0.0, "lon": -76.98727716666667, "name": "5dd93b356dfa7cf347f75cab87eeeedc"}, {"bike_id": "6dd57b3cd15a9e92d3e1e66fdba31261", "type": "electric_scooter", "is_disabled": 0, "lat": 38.902882166666664, "rental_uris": {"ios": "https://dc.lft.to/lastmile_qr_scan", "android": "https://dc.lft.to/lastmile_qr_scan"}, "is_reserved": 0, "fusion_lon": 0.0, "fusion_lat": 0.0, "lon": -77.00350033333333, "name": "6dd57b3cd15a9e92d3e1e66fdba31261"}, {"bike_id": "e60df254534f1f9a9a4c39d75211fd9c", "type": "electric_scooter", "is_disabled": 0, "lat": 38.858943333333336, "rental_uris": {"ios": "https://dc.lft.to/lastmile_qr_scan", "android": "https://dc.lft.to/lastmile_qr_scan"}, "is_reserved": 0, "fusion_lon": 0.0, "fusion_lat": 0.0, "lon": -76.99724633333334, "name": "e60df254534f1f9a9a4c39d75211fd9c"}, {"bike_id": "0bc8c7950bebd7f73fc1de07edef30af", "type": "electric_scooter", "is_disabled": 0, "lat": 38.893459, "rental_uris": {"ios": "https://dc.lft.to/lastmile_qr_scan", "android": "https://dc.lft.to/lastmile_qr_scan"}, "is_reserved": 0, "fusion_lon": 0.0, "fusion_lat": 0.0, "lon": -76.993818, "name": "0bc8c7950bebd7f73fc1de07edef30af"}, {"bike_id": "6f471325bf281167b45049778deaa771", "type": "electric_scooter", "is_disabled": 0, "lat": 38.899873, "rental_uris": {"ios": "https://dc.lft.to/lastmile_qr_scan", "android": "https://dc.lft.to/lastmile_qr_scan"}, "is_reserved": 0, "fusion_lon": 0.0, "fusion_lat": 0.0, "lon": -76.9499575, "name": "6f471325bf281167b45049778deaa771"}, {"bike_id": "72b426f0d04af0328438f73999ae8ca4", "type": "electric_scooter", "is_disabled": 0, "lat": 38.885160666666664, "rental_uris": {"ios": "https://dc.lft.to/lastmile_qr_scan", "android": "https://dc.lft.to/lastmile_qr_scan"}, "is_reserved": 0, "fusion_lon": 0.0, "fusion_lat": 0.0, "lon": -77.01739866666667, "name": "72b426f0d04af0328438f73999ae8ca4"}, {"bike_id": "6c99b1f7e51f1d00bbf519276f615020", "type": "electric_scooter", "is_disabled": 0, "lat": 38.86688016666667, "rental_uris": {"ios": "https://dc.lft.to/lastmile_qr_scan", "android": "https://dc.lft.to/lastmile_qr_scan"}, "is_reserved": 0, "fusion_lon": 0.0, "fusion_lat": 0.0, "lon": -76.98577233333333, "name": "6c99b1f7e51f1d00bbf519276f615020"}, {"bike_id": "d48834e4076993f9f653d69db264213a", "type": "electric_scooter", "is_disabled": 0, "lat": 38.9096275, "rental_uris": {"ios": "https://dc.lft.to/lastmile_qr_scan", "android": "https://dc.lft.to/lastmile_qr_scan"}, "is_reserved": 0, "fusion_lon": 0.0, "fusion_lat": 0.0, "lon": -77.02741183333333, "name": "d48834e4076993f9f653d69db264213a"}, {"bike_id": "03f24882b297fe22fdf8836ce3dba5f7", "type": "electric_scooter", "is_disabled": 0, "lat": 38.910789666666666, "rental_uris": {"ios": "https://dc.lft.to/lastmile_qr_scan", "android": "https://dc.lft.to/lastmile_qr_scan"}, "is_reserved": 0, "fusion_lon": 0.0, "fusion_lat": 0.0, "lon": -77.03852333333333, "name": "03f24882b297fe22fdf8836ce3dba5f7"}, {"bike_id": "29e6cb4155a4652300488eaa9893d94c", "type": "electric_scooter", "is_disabled": 0, "lat": 38.87383633333334, "rental_uris": {"ios": "https://dc.lft.to/lastmile_qr_scan", "android": "https://dc.lft.to/lastmile_qr_scan"}, "is_reserved": 0, "fusion_lon": 0.0, "fusion_lat": 0.0, "lon": -77.043382, "name": "29e6cb4155a4652300488eaa9893d94c"}, {"bike_id": "b0fbfe83fa894509b501efb607af2775", "type": "electric_scooter", "is_disabled": 0, "lat": 38.924691333333335, "rental_uris": {"ios": "https://dc.lft.to/lastmile_qr_scan", "android": "https://dc.lft.to/lastmile_qr_scan"}, "is_reserved": 0, "fusion_lon": 0.0, "fusion_lat": 0.0, "lon": -77.05203566666667, "name": "b0fbfe83fa894509b501efb607af2775"}, {"bike_id": "f29332133d02265fbd44ee028e76fa53", "type": "electric_scooter", "is_disabled": 0, "lat": 38.90037866666667, "rental_uris": {"ios": "https://dc.lft.to/lastmile_qr_scan", "android": "https://dc.lft.to/lastmile_qr_scan"}, "is_reserved": 0, "fusion_lon": 0.0, "fusion_lat": 0.0, "lon": -77.03658516666667, "name": "f29332133d02265fbd44ee028e76fa53"}, {"bike_id": "de75a3aab0bb85b106f0e43453f36e6d", "type": "electric_scooter", "is_disabled": 0, "lat": 38.90867816666667, "rental_uris": {"ios": "https://dc.lft.to/lastmile_qr_scan", "android": "https://dc.lft.to/lastmile_qr_scan"}, "is_reserved": 0, "fusion_lon": 0.0, "fusion_lat": 0.0, "lon": -77.04483316666666, "name": "de75a3aab0bb85b106f0e43453f36e6d"}, {"bike_id": "01a8cbc488b6a7505757b99d362f7717", "type": "electric_bike", "is_disabled": 0, "lat": 38.897352166666664, "rental_uris": {"ios": "https://dc.lft.to/lastmile_qr_scan", "android": "https://dc.lft.to/lastmile_qr_scan"}, "is_reserved": 0, "fusion_lon": 0.0, "fusion_lat": 0.0, "lon": -77.02704133333333, "name": "01a8cbc488b6a7505757b99d362f7717"}, {"bike_id": "49504ba215deecce169151bc131f940e", "type": "electric_scooter", "is_disabled": 0, "lat": 38.86374566666667, "rental_uris": {"ios": "https://dc.lft.to/lastmile_qr_scan", "android": "https://dc.lft.to/lastmile_qr_scan"}, "is_reserved": 0, "fusion_lon": 0.0, "fusion_lat": 0.0, "lon": -76.99058366666667, "name": "49504ba215deecce169151bc131f940e"}, {"bike_id": "bb73672087f4b9c9617f7676214ffddd", "type": "electric_scooter", "is_disabled": 0, "lat": 38.8984445, "rental_uris": {"ios": "https://dc.lft.to/lastmile_qr_scan", "android": "https://dc.lft.to/lastmile_qr_scan"}, "is_reserved": 0, "fusion_lon": 0.0, "fusion_lat": 0.0, "lon": -76.94635483333333, "name": "bb73672087f4b9c9617f7676214ffddd"}, {"bike_id": "3268d2ae2d9c17d724e58c96dead8ec4", "type": "electric_scooter", "is_disabled": 0, "lat": 38.90355616666667, "rental_uris": {"ios": "https://dc.lft.to/lastmile_qr_scan", "android": "https://dc.lft.to/lastmile_qr_scan"}, "is_reserved": 0, "fusion_lon": 0.0, "fusion_lat": 0.0, "lon": -77.06016766666667, "name": "3268d2ae2d9c17d724e58c96dead8ec4"}, {"bike_id": "49a73332d62c9dddda9026463cdbaa83", "type": "electric_scooter", "is_disabled": 0, "lat": 38.88660866666667, "rental_uris": {"ios": "https://dc.lft.to/lastmile_qr_scan", "android": "https://dc.lft.to/lastmile_qr_scan"}, "is_reserved": 0, "fusion_lon": 0.0, "fusion_lat": 0.0, "lon": -77.03384483333333, "name": "49a73332d62c9dddda9026463cdbaa83"}, {"bike_id": "d384b2ea8d3df775d1ebe15d3fd43dd1", "type": "electric_scooter", "is_disabled": 0, "lat": 38.866831833333336, "rental_uris": {"ios": "https://dc.lft.to/lastmile_qr_scan", "android": "https://dc.lft.to/lastmile_qr_scan"}, "is_reserved": 0, "fusion_lon": 0.0, "fusion_lat": 0.0, "lon": -76.9855785, "name": "d384b2ea8d3df775d1ebe15d3fd43dd1"}, {"bike_id": "fcee2ed3be0aab2bc80db411c106f280", "type": "electric_scooter", "is_disabled": 0, "lat": 38.878613333333334, "rental_uris": {"ios": "https://dc.lft.to/lastmile_qr_scan", "android": "https://dc.lft.to/lastmile_qr_scan"}, "is_reserved": 0, "fusion_lon": 0.0, "fusion_lat": 0.0, "lon": -77.005922, "name": "fcee2ed3be0aab2bc80db411c106f280"}, {"bike_id": "1edfe9d01b6723ef37ba546ebbbc1af4", "type": "electric_scooter", "is_disabled": 0, "lat": 38.90527616666667, "rental_uris": {"ios": "https://dc.lft.to/lastmile_qr_scan", "android": "https://dc.lft.to/lastmile_qr_scan"}, "is_reserved": 0, "fusion_lon": 0.0, "fusion_lat": 0.0, "lon": -77.05935366666667, "name": "1edfe9d01b6723ef37ba546ebbbc1af4"}, {"bike_id": "6f0657e676294be2dabd9578c0afa53a", "type": "electric_scooter", "is_disabled": 0, "lat": 38.9201565, "rental_uris": {"ios": "https://dc.lft.to/lastmile_qr_scan", "android": "https://dc.lft.to/lastmile_qr_scan"}, "is_reserved": 0, "fusion_lon": 0.0, "fusion_lat": 0.0, "lon": -77.0312225, "name": "6f0657e676294be2dabd9578c0afa53a"}, {"bike_id": "e69f081b126c6be88737016864c6c868", "type": "electric_scooter", "is_disabled": 0, "lat": 38.876281666666664, "rental_uris": {"ios": "https://dc.lft.to/lastmile_qr_scan", "android": "https://dc.lft.to/lastmile_qr_scan"}, "is_reserved": 0, "fusion_lon": 0.0, "fusion_lat": 0.0, "lon": -76.9652545, "name": "e69f081b126c6be88737016864c6c868"}, {"bike_id": "27a69838d3e59f7f9605dc92ab71ce9c", "type": "electric_scooter", "is_disabled": 0, "lat": 38.90264883333333, "rental_uris": {"ios": "https://dc.lft.to/lastmile_qr_scan", "android": "https://dc.lft.to/lastmile_qr_scan"}, "is_reserved": 0, "fusion_lon": 0.0, "fusion_lat": 0.0, "lon": -77.04477466666667, "name": "27a69838d3e59f7f9605dc92ab71ce9c"}, {"bike_id": "dfb213d57c2d9ba28da1f3daed52e3d2", "type": "electric_scooter", "is_disabled": 0, "lat": 38.911544666666664, "rental_uris": {"ios": "https://dc.lft.to/lastmile_qr_scan", "android": "https://dc.lft.to/lastmile_qr_scan"}, "is_reserved": 0, "fusion_lon": 0.0, "fusion_lat": 0.0, "lon": -77.022768, "name": "dfb213d57c2d9ba28da1f3daed52e3d2"}, {"bike_id": "35aeb06fffc398c81d62f46c39fe38bf", "type": "electric_scooter", "is_disabled": 0, "lat": 38.96407816666667, "rental_uris": {"ios": "https://dc.lft.to/lastmile_qr_scan", "android": "https://dc.lft.to/lastmile_qr_scan"}, "is_reserved": 0, "fusion_lon": 0.0, "fusion_lat": 0.0, "lon": -77.02763466666667, "name": "35aeb06fffc398c81d62f46c39fe38bf"}, {"bike_id": "7d80e45007ab9e79bb47600f9d1e92da", "type": "electric_scooter", "is_disabled": 0, "lat": 38.90502166666667, "rental_uris": {"ios": "https://dc.lft.to/lastmile_qr_scan", "android": "https://dc.lft.to/lastmile_qr_scan"}, "is_reserved": 0, "fusion_lon": 0.0, "fusion_lat": 0.0, "lon": -77.06884016666666, "name": "7d80e45007ab9e79bb47600f9d1e92da"}, {"bike_id": "1f0486101277d6bd71a38860ec9a01ab", "type": "electric_scooter", "is_disabled": 0, "lat": 38.90066566666667, "rental_uris": {"ios": "https://dc.lft.to/lastmile_qr_scan", "android": "https://dc.lft.to/lastmile_qr_scan"}, "is_reserved": 0, "fusion_lon": 0.0, "fusion_lat": 0.0, "lon": -76.92743366666667, "name": "1f0486101277d6bd71a38860ec9a01ab"}, {"bike_id": "e98a83fecd88813e65ce00d3a9c5bec4", "type": "electric_scooter", "is_disabled": 0, "lat": 38.91223933333333, "rental_uris": {"ios": "https://dc.lft.to/lastmile_qr_scan", "android": "https://dc.lft.to/lastmile_qr_scan"}, "is_reserved": 0, "fusion_lon": 0.0, "fusion_lat": 0.0, "lon": -77.06577866666667, "name": "e98a83fecd88813e65ce00d3a9c5bec4"}, {"bike_id": "2c6b1f31e68962261cea76cdd1cca373", "type": "electric_scooter", "is_disabled": 0, "lat": 38.9213355, "rental_uris": {"ios": "https://dc.lft.to/lastmile_qr_scan", "android": "https://dc.lft.to/lastmile_qr_scan"}, "is_reserved": 0, "fusion_lon": 0.0, "fusion_lat": 0.0, "lon": -77.0413095, "name": "2c6b1f31e68962261cea76cdd1cca373"}, {"bike_id": "6353cbca4be4cea0caa920a673558aac", "type": "electric_scooter", "is_disabled": 0, "lat": 38.92051933333333, "rental_uris": {"ios": "https://dc.lft.to/lastmile_qr_scan", "android": "https://dc.lft.to/lastmile_qr_scan"}, "is_reserved": 0, "fusion_lon": 0.0, "fusion_lat": 0.0, "lon": -77.03389216666666, "name": "6353cbca4be4cea0caa920a673558aac"}, {"bike_id": "f6d2efc2661c06f343fc8b52bd925e99", "type": "electric_scooter", "is_disabled": 0, "lat": 38.923150166666666, "rental_uris": {"ios": "https://dc.lft.to/lastmile_qr_scan", "android": "https://dc.lft.to/lastmile_qr_scan"}, "is_reserved": 0, "fusion_lon": 0.0, "fusion_lat": 0.0, "lon": -77.03909883333333, "name": "f6d2efc2661c06f343fc8b52bd925e99"}, {"bike_id": "2b15c008a7bce15a658c35a7d5937dbf", "type": "electric_bike", "is_disabled": 0, "lat": 38.908622333333334, "rental_uris": {"ios": "https://dc.lft.to/lastmile_qr_scan", "android": "https://dc.lft.to/lastmile_qr_scan"}, "is_reserved": 0, "fusion_lon": 0.0, "fusion_lat": 0.0, "lon": -76.99139383333333, "name": "2b15c008a7bce15a658c35a7d5937dbf"}, {"bike_id": "99a263684aa663a30569a1931e349de7", "type": "electric_scooter", "is_disabled": 0, "lat": 38.892397, "rental_uris": {"ios": "https://dc.lft.to/lastmile_qr_scan", "android": "https://dc.lft.to/lastmile_qr_scan"}, "is_reserved": 0, "fusion_lon": 0.0, "fusion_lat": 0.0, "lon": -77.02209466666666, "name": "99a263684aa663a30569a1931e349de7"}, {"bike_id": "63290659e2c4d58d5597211e83e97807", "type": "electric_scooter", "is_disabled": 0, "lat": 38.893243, "rental_uris": {"ios": "https://dc.lft.to/lastmile_qr_scan", "android": "https://dc.lft.to/lastmile_qr_scan"}, "is_reserved": 0, "fusion_lon": 0.0, "fusion_lat": 0.0, "lon": -77.03196783333334, "name": "63290659e2c4d58d5597211e83e97807"}, {"bike_id": "75860fe3267c79614f1f4e33f6f62d15", "type": "electric_scooter", "is_disabled": 0, "lat": 38.91816433333334, "rental_uris": {"ios": "https://dc.lft.to/lastmile_qr_scan", "android": "https://dc.lft.to/lastmile_qr_scan"}, "is_reserved": 0, "fusion_lon": 0.0, "fusion_lat": 0.0, "lon": -77.03664283333333, "name": "75860fe3267c79614f1f4e33f6f62d15"}, {"bike_id": "8206c2cfef5a527b59539d4d90ff1e58", "type": "electric_scooter", "is_disabled": 0, "lat": 38.87650566666667, "rental_uris": {"ios": "https://dc.lft.to/lastmile_qr_scan", "android": "https://dc.lft.to/lastmile_qr_scan"}, "is_reserved": 0, "fusion_lon": 0.0, "fusion_lat": 0.0, "lon": -76.965025, "name": "8206c2cfef5a527b59539d4d90ff1e58"}, {"bike_id": "d35eb708a2f2021f7db53da849fefbdc", "type": "electric_scooter", "is_disabled": 0, "lat": 38.902814666666664, "rental_uris": {"ios": "https://dc.lft.to/lastmile_qr_scan", "android": "https://dc.lft.to/lastmile_qr_scan"}, "is_reserved": 0, "fusion_lon": 0.0, "fusion_lat": 0.0, "lon": -77.02314966666667, "name": "d35eb708a2f2021f7db53da849fefbdc"}, {"bike_id": "a0cc0a8b39ae8c72c6e33106c290254b", "type": "electric_scooter", "is_disabled": 0, "lat": 38.900332, "rental_uris": {"ios": "https://dc.lft.to/lastmile_qr_scan", "android": "https://dc.lft.to/lastmile_qr_scan"}, "is_reserved": 0, "fusion_lon": 0.0, "fusion_lat": 0.0, "lon": -77.00214116666666, "name": "a0cc0a8b39ae8c72c6e33106c290254b"}, {"bike_id": "2f719e39604a068c0a1deb732ca4a9d2", "type": "electric_scooter", "is_disabled": 0, "lat": 38.92334433333333, "rental_uris": {"ios": "https://dc.lft.to/lastmile_qr_scan", "android": "https://dc.lft.to/lastmile_qr_scan"}, "is_reserved": 0, "fusion_lon": 0.0, "fusion_lat": 0.0, "lon": -77.03615583333334, "name": "2f719e39604a068c0a1deb732ca4a9d2"}, {"bike_id": "db39d199fb68d30c36ea3b7bcd79b6d0", "type": "electric_scooter", "is_disabled": 0, "lat": 38.9135815, "rental_uris": {"ios": "https://dc.lft.to/lastmile_qr_scan", "android": "https://dc.lft.to/lastmile_qr_scan"}, "is_reserved": 0, "fusion_lon": 0.0, "fusion_lat": 0.0, "lon": -77.04583716666667, "name": "db39d199fb68d30c36ea3b7bcd79b6d0"}, {"bike_id": "2e18750b317a81b165aea8d56d30ea27", "type": "electric_scooter", "is_disabled": 0, "lat": 38.866586, "rental_uris": {"ios": "https://dc.lft.to/lastmile_qr_scan", "android": "https://dc.lft.to/lastmile_qr_scan"}, "is_reserved": 0, "fusion_lon": 0.0, "fusion_lat": 0.0, "lon": -76.98886433333334, "name": "2e18750b317a81b165aea8d56d30ea27"}, {"bike_id": "8b170a7229f4b87a19fe60312fc233d7", "type": "electric_scooter", "is_disabled": 0, "lat": 38.9041235, "rental_uris": {"ios": "https://dc.lft.to/lastmile_qr_scan", "android": "https://dc.lft.to/lastmile_qr_scan"}, "is_reserved": 0, "fusion_lon": 0.0, "fusion_lat": 0.0, "lon": -76.97332366666667, "name": "8b170a7229f4b87a19fe60312fc233d7"}, {"bike_id": "df310d17954d59b9d8a5d11906dfb86d", "type": "electric_scooter", "is_disabled": 0, "lat": 38.92907183333333, "rental_uris": {"ios": "https://dc.lft.to/lastmile_qr_scan", "android": "https://dc.lft.to/lastmile_qr_scan"}, "is_reserved": 0, "fusion_lon": 0.0, "fusion_lat": 0.0, "lon": -77.02269316666667, "name": "df310d17954d59b9d8a5d11906dfb86d"}, {"bike_id": "8a0922ffd39749c3798181630adc9c65", "type": "electric_bike", "is_disabled": 0, "lat": 38.944749333333334, "rental_uris": {"ios": "https://dc.lft.to/lastmile_qr_scan", "android": "https://dc.lft.to/lastmile_qr_scan"}, "is_reserved": 0, "fusion_lon": 0.0, "fusion_lat": 0.0, "lon": -76.98686683333334, "name": "8a0922ffd39749c3798181630adc9c65"}, {"bike_id": "de7e27a9beabda1311b86a2d7dcce5f0", "type": "electric_scooter", "is_disabled": 0, "lat": 38.9042565, "rental_uris": {"ios": "https://dc.lft.to/lastmile_qr_scan", "android": "https://dc.lft.to/lastmile_qr_scan"}, "is_reserved": 0, "fusion_lon": 0.0, "fusion_lat": 0.0, "lon": -77.06892366666666, "name": "de7e27a9beabda1311b86a2d7dcce5f0"}, {"bike_id": "4e6af2fe4d7e09cc842187bdd5426648", "type": "electric_scooter", "is_disabled": 0, "lat": 38.910312833333336, "rental_uris": {"ios": "https://dc.lft.to/lastmile_qr_scan", "android": "https://dc.lft.to/lastmile_qr_scan"}, "is_reserved": 0, "fusion_lon": 0.0, "fusion_lat": 0.0, "lon": -76.98671633333333, "name": "4e6af2fe4d7e09cc842187bdd5426648"}, {"bike_id": "f41bef2773fa2ecb90bd8520a11ec16e", "type": "electric_scooter", "is_disabled": 0, "lat": 38.9095695, "rental_uris": {"ios": "https://dc.lft.to/lastmile_qr_scan", "android": "https://dc.lft.to/lastmile_qr_scan"}, "is_reserved": 0, "fusion_lon": 0.0, "fusion_lat": 0.0, "lon": -77.04477, "name": "f41bef2773fa2ecb90bd8520a11ec16e"}, {"bike_id": "86e14c2a5c12b1c6e688c1910076122a", "type": "electric_scooter", "is_disabled": 0, "lat": 38.93436616666666, "rental_uris": {"ios": "https://dc.lft.to/lastmile_qr_scan", "android": "https://dc.lft.to/lastmile_qr_scan"}, "is_reserved": 0, "fusion_lon": 0.0, "fusion_lat": 0.0, "lon": -77.0725725, "name": "86e14c2a5c12b1c6e688c1910076122a"}, {"bike_id": "1537058d8d28d8058e6f186a88235c17", "type": "electric_scooter", "is_disabled": 0, "lat": 38.925289, "rental_uris": {"ios": "https://dc.lft.to/lastmile_qr_scan", "android": "https://dc.lft.to/lastmile_qr_scan"}, "is_reserved": 0, "fusion_lon": 0.0, "fusion_lat": 0.0, "lon": -77.04121983333333, "name": "1537058d8d28d8058e6f186a88235c17"}, {"bike_id": "5955bfe415178711010da9aafd941ba0", "type": "electric_scooter", "is_disabled": 0, "lat": 38.91104933333333, "rental_uris": {"ios": "https://dc.lft.to/lastmile_qr_scan", "android": "https://dc.lft.to/lastmile_qr_scan"}, "is_reserved": 0, "fusion_lon": 0.0, "fusion_lat": 0.0, "lon": -77.02447483333333, "name": "5955bfe415178711010da9aafd941ba0"}, {"bike_id": "7cfa960b943ce5cdd97fd9a798698358", "type": "electric_scooter", "is_disabled": 0, "lat": 38.9277915, "rental_uris": {"ios": "https://dc.lft.to/lastmile_qr_scan", "android": "https://dc.lft.to/lastmile_qr_scan"}, "is_reserved": 0, "fusion_lon": 0.0, "fusion_lat": 0.0, "lon": -77.05272016666666, "name": "7cfa960b943ce5cdd97fd9a798698358"}, {"bike_id": "0f84c3c464979a0dad5acf41f00c1b9a", "type": "electric_scooter", "is_disabled": 0, "lat": 38.94715133333333, "rental_uris": {"ios": "https://dc.lft.to/lastmile_qr_scan", "android": "https://dc.lft.to/lastmile_qr_scan"}, "is_reserved": 0, "fusion_lon": 0.0, "fusion_lat": 0.0, "lon": -77.02783683333334, "name": "0f84c3c464979a0dad5acf41f00c1b9a"}, {"bike_id": "bb424859fe2a84cda0564a293b40fb50", "type": "electric_scooter", "is_disabled": 0, "lat": 38.9038095, "rental_uris": {"ios": "https://dc.lft.to/lastmile_qr_scan", "android": "https://dc.lft.to/lastmile_qr_scan"}, "is_reserved": 0, "fusion_lon": 0.0, "fusion_lat": 0.0, "lon": -77.00878333333333, "name": "bb424859fe2a84cda0564a293b40fb50"}, {"bike_id": "b5e9511a8fa040e44d43ce6a983913e3", "type": "electric_scooter", "is_disabled": 0, "lat": 38.862071, "rental_uris": {"ios": "https://dc.lft.to/lastmile_qr_scan", "android": "https://dc.lft.to/lastmile_qr_scan"}, "is_reserved": 0, "fusion_lon": 0.0, "fusion_lat": 0.0, "lon": -76.99466466666667, "name": "b5e9511a8fa040e44d43ce6a983913e3"}, {"bike_id": "858d4f79626ae573e3f19cd2b412c0be", "type": "electric_scooter", "is_disabled": 0, "lat": 38.86699, "rental_uris": {"ios": "https://dc.lft.to/lastmile_qr_scan", "android": "https://dc.lft.to/lastmile_qr_scan"}, "is_reserved": 0, "fusion_lon": 0.0, "fusion_lat": 0.0, "lon": -76.98713916666667, "name": "858d4f79626ae573e3f19cd2b412c0be"}, {"bike_id": "f4021e88277b4f0de45fb8ef4531463c", "type": "electric_scooter", "is_disabled": 0, "lat": 38.918308333333336, "rental_uris": {"ios": "https://dc.lft.to/lastmile_qr_scan", "android": "https://dc.lft.to/lastmile_qr_scan"}, "is_reserved": 0, "fusion_lon": 0.0, "fusion_lat": 0.0, "lon": -77.04562133333333, "name": "f4021e88277b4f0de45fb8ef4531463c"}, {"bike_id": "732f4a37e983727a4864c7d3ee9e5b3f", "type": "electric_scooter", "is_disabled": 0, "lat": 38.9251025, "rental_uris": {"ios": "https://dc.lft.to/lastmile_qr_scan", "android": "https://dc.lft.to/lastmile_qr_scan"}, "is_reserved": 0, "fusion_lon": 0.0, "fusion_lat": 0.0, "lon": -77.0088385, "name": "732f4a37e983727a4864c7d3ee9e5b3f"}, {"bike_id": "35c483d14eda51bd51f0fc2a1d479967", "type": "electric_scooter", "is_disabled": 0, "lat": 38.913333, "rental_uris": {"ios": "https://dc.lft.to/lastmile_qr_scan", "android": "https://dc.lft.to/lastmile_qr_scan"}, "is_reserved": 0, "fusion_lon": 0.0, "fusion_lat": 0.0, "lon": -77.03169133333333, "name": "35c483d14eda51bd51f0fc2a1d479967"}, {"bike_id": "711bbf9b8dc9a8bcee982ec29b5c36f3", "type": "electric_scooter", "is_disabled": 0, "lat": 38.90844333333333, "rental_uris": {"ios": "https://dc.lft.to/lastmile_qr_scan", "android": "https://dc.lft.to/lastmile_qr_scan"}, "is_reserved": 0, "fusion_lon": 0.0, "fusion_lat": 0.0, "lon": -76.999502, "name": "711bbf9b8dc9a8bcee982ec29b5c36f3"}, {"bike_id": "43b7b53e5c0b51956319e1685f034efa", "type": "electric_scooter", "is_disabled": 0, "lat": 38.90667966666667, "rental_uris": {"ios": "https://dc.lft.to/lastmile_qr_scan", "android": "https://dc.lft.to/lastmile_qr_scan"}, "is_reserved": 0, "fusion_lon": 0.0, "fusion_lat": 0.0, "lon": -77.037943, "name": "43b7b53e5c0b51956319e1685f034efa"}, {"bike_id": "5d13dfb3bdf86ddc470ff0cf4aa0e928", "type": "electric_scooter", "is_disabled": 0, "lat": 38.90652133333333, "rental_uris": {"ios": "https://dc.lft.to/lastmile_qr_scan", "android": "https://dc.lft.to/lastmile_qr_scan"}, "is_reserved": 0, "fusion_lon": 0.0, "fusion_lat": 0.0, "lon": -77.00571466666666, "name": "5d13dfb3bdf86ddc470ff0cf4aa0e928"}, {"bike_id": "bc0b8df7446d6671467e45d2d8888d02", "type": "electric_scooter", "is_disabled": 0, "lat": 38.86681933333333, "rental_uris": {"ios": "https://dc.lft.to/lastmile_qr_scan", "android": "https://dc.lft.to/lastmile_qr_scan"}, "is_reserved": 0, "fusion_lon": 0.0, "fusion_lat": 0.0, "lon": -76.98525566666666, "name": "bc0b8df7446d6671467e45d2d8888d02"}, {"bike_id": "0901de0d4a17ad46e53549703db4a956", "type": "electric_scooter", "is_disabled": 0, "lat": 38.92399666666667, "rental_uris": {"ios": "https://dc.lft.to/lastmile_qr_scan", "android": "https://dc.lft.to/lastmile_qr_scan"}, "is_reserved": 0, "fusion_lon": 0.0, "fusion_lat": 0.0, "lon": -77.05054633333333, "name": "0901de0d4a17ad46e53549703db4a956"}, {"bike_id": "1f8ab7261699bdada077e0cd1b4f355a", "type": "electric_scooter", "is_disabled": 0, "lat": 38.882651, "rental_uris": {"ios": "https://dc.lft.to/lastmile_qr_scan", "android": "https://dc.lft.to/lastmile_qr_scan"}, "is_reserved": 0, "fusion_lon": 0.0, "fusion_lat": 0.0, "lon": -76.995047, "name": "1f8ab7261699bdada077e0cd1b4f355a"}, {"bike_id": "abbee7c18d8d01c755ce784e6368da66", "type": "electric_scooter", "is_disabled": 0, "lat": 38.917705833333336, "rental_uris": {"ios": "https://dc.lft.to/lastmile_qr_scan", "android": "https://dc.lft.to/lastmile_qr_scan"}, "is_reserved": 0, "fusion_lon": 0.0, "fusion_lat": 0.0, "lon": -77.04061166666666, "name": "abbee7c18d8d01c755ce784e6368da66"}, {"bike_id": "d632bdb8833bacc83b10fea834b1ee8a", "type": "electric_scooter", "is_disabled": 0, "lat": 38.885997, "rental_uris": {"ios": "https://dc.lft.to/lastmile_qr_scan", "android": "https://dc.lft.to/lastmile_qr_scan"}, "is_reserved": 0, "fusion_lon": 0.0, "fusion_lat": 0.0, "lon": -77.02843283333333, "name": "d632bdb8833bacc83b10fea834b1ee8a"}, {"bike_id": "ca7fb4b1bfa2562c1072aa4b958cb8d4", "type": "electric_scooter", "is_disabled": 0, "lat": 38.91483766666666, "rental_uris": {"ios": "https://dc.lft.to/lastmile_qr_scan", "android": "https://dc.lft.to/lastmile_qr_scan"}, "is_reserved": 0, "fusion_lon": 0.0, "fusion_lat": 0.0, "lon": -76.98581683333333, "name": "ca7fb4b1bfa2562c1072aa4b958cb8d4"}, {"bike_id": "79b4fd2414b394f60be946356c244823", "type": "electric_scooter", "is_disabled": 0, "lat": 38.92270216666667, "rental_uris": {"ios": "https://dc.lft.to/lastmile_qr_scan", "android": "https://dc.lft.to/lastmile_qr_scan"}, "is_reserved": 0, "fusion_lon": 0.0, "fusion_lat": 0.0, "lon": -77.03666516666667, "name": "79b4fd2414b394f60be946356c244823"}, {"bike_id": "914ef675de0eac20de0d53fb1ed8ff73", "type": "electric_scooter", "is_disabled": 0, "lat": 38.90736716666667, "rental_uris": {"ios": "https://dc.lft.to/lastmile_qr_scan", "android": "https://dc.lft.to/lastmile_qr_scan"}, "is_reserved": 0, "fusion_lon": 0.0, "fusion_lat": 0.0, "lon": -77.0633965, "name": "914ef675de0eac20de0d53fb1ed8ff73"}, {"bike_id": "ea5a81afe5c5786e8a04d2bdcaebdaf8", "type": "electric_scooter", "is_disabled": 0, "lat": 38.8874555, "rental_uris": {"ios": "https://dc.lft.to/lastmile_qr_scan", "android": "https://dc.lft.to/lastmile_qr_scan"}, "is_reserved": 0, "fusion_lon": 0.0, "fusion_lat": 0.0, "lon": -77.01396566666666, "name": "ea5a81afe5c5786e8a04d2bdcaebdaf8"}, {"bike_id": "9b8ba63f8fb17b0bb59bb3fcb39ad1bb", "type": "electric_scooter", "is_disabled": 0, "lat": 38.844368333333335, "rental_uris": {"ios": "https://dc.lft.to/lastmile_qr_scan", "android": "https://dc.lft.to/lastmile_qr_scan"}, "is_reserved": 0, "fusion_lon": 0.0, "fusion_lat": 0.0, "lon": -76.99779416666667, "name": "9b8ba63f8fb17b0bb59bb3fcb39ad1bb"}, {"bike_id": "339949dab64599603f284485c3f2a89b", "type": "electric_scooter", "is_disabled": 0, "lat": 38.911202, "rental_uris": {"ios": "https://dc.lft.to/lastmile_qr_scan", "android": "https://dc.lft.to/lastmile_qr_scan"}, "is_reserved": 0, "fusion_lon": 0.0, "fusion_lat": 0.0, "lon": -77.04656733333333, "name": "339949dab64599603f284485c3f2a89b"}, {"bike_id": "268be5ce4fbdc029299c42ebac8d3aa7", "type": "electric_scooter", "is_disabled": 0, "lat": 38.90042833333333, "rental_uris": {"ios": "https://dc.lft.to/lastmile_qr_scan", "android": "https://dc.lft.to/lastmile_qr_scan"}, "is_reserved": 0, "fusion_lon": 0.0, "fusion_lat": 0.0, "lon": -76.98051816666667, "name": "268be5ce4fbdc029299c42ebac8d3aa7"}, {"bike_id": "ffb793191d8e2570f138e0c16bbb3969", "type": "electric_scooter", "is_disabled": 0, "lat": 38.931812666666666, "rental_uris": {"ios": "https://dc.lft.to/lastmile_qr_scan", "android": "https://dc.lft.to/lastmile_qr_scan"}, "is_reserved": 0, "fusion_lon": 0.0, "fusion_lat": 0.0, "lon": -77.0430055, "name": "ffb793191d8e2570f138e0c16bbb3969"}, {"bike_id": "6392cd768371c957ab8380435595a59a", "type": "electric_scooter", "is_disabled": 0, "lat": 38.917511, "rental_uris": {"ios": "https://dc.lft.to/lastmile_qr_scan", "android": "https://dc.lft.to/lastmile_qr_scan"}, "is_reserved": 0, "fusion_lon": 0.0, "fusion_lat": 0.0, "lon": -77.0283215, "name": "6392cd768371c957ab8380435595a59a"}, {"bike_id": "2875debc959372132c9112d505c38d6e", "type": "electric_scooter", "is_disabled": 0, "lat": 38.93427066666667, "rental_uris": {"ios": "https://dc.lft.to/lastmile_qr_scan", "android": "https://dc.lft.to/lastmile_qr_scan"}, "is_reserved": 0, "fusion_lon": 0.0, "fusion_lat": 0.0, "lon": -77.04001633333333, "name": "2875debc959372132c9112d505c38d6e"}, {"bike_id": "05d7db7eb0f566e6ead483b4cd0e232d", "type": "electric_scooter", "is_disabled": 0, "lat": 38.915318, "rental_uris": {"ios": "https://dc.lft.to/lastmile_qr_scan", "android": "https://dc.lft.to/lastmile_qr_scan"}, "is_reserved": 0, "fusion_lon": 0.0, "fusion_lat": 0.0, "lon": -77.04621583333333, "name": "05d7db7eb0f566e6ead483b4cd0e232d"}, {"bike_id": "0754dd0ba37b0e55dd17ebd35b21cab8", "type": "electric_bike", "is_disabled": 0, "lat": 38.87889116666667, "rental_uris": {"ios": "https://dc.lft.to/lastmile_qr_scan", "android": "https://dc.lft.to/lastmile_qr_scan"}, "is_reserved": 0, "fusion_lon": 0.0, "fusion_lat": 0.0, "lon": -77.09613566666667, "name": "0754dd0ba37b0e55dd17ebd35b21cab8"}, {"bike_id": "dde2178f533a9aa807cb96c4230629e3", "type": "electric_scooter", "is_disabled": 0, "lat": 38.900377666666664, "rental_uris": {"ios": "https://dc.lft.to/lastmile_qr_scan", "android": "https://dc.lft.to/lastmile_qr_scan"}, "is_reserved": 0, "fusion_lon": 0.0, "fusion_lat": 0.0, "lon": -77.0330795, "name": "dde2178f533a9aa807cb96c4230629e3"}, {"bike_id": "a3b37ef9efe969286e54838b189d03a0", "type": "electric_scooter", "is_disabled": 0, "lat": 38.897240333333336, "rental_uris": {"ios": "https://dc.lft.to/lastmile_qr_scan", "android": "https://dc.lft.to/lastmile_qr_scan"}, "is_reserved": 0, "fusion_lon": 0.0, "fusion_lat": 0.0, "lon": -77.00922816666667, "name": "a3b37ef9efe969286e54838b189d03a0"}, {"bike_id": "7ce59ecdf64d18ee4d6355197dcee566", "type": "electric_scooter", "is_disabled": 0, "lat": 38.93091833333333, "rental_uris": {"ios": "https://dc.lft.to/lastmile_qr_scan", "android": "https://dc.lft.to/lastmile_qr_scan"}, "is_reserved": 0, "fusion_lon": 0.0, "fusion_lat": 0.0, "lon": -77.03440083333334, "name": "7ce59ecdf64d18ee4d6355197dcee566"}, {"bike_id": "54f3b7c0cc2fa1c41c86fbf21efca6ff", "type": "electric_scooter", "is_disabled": 0, "lat": 38.9177725, "rental_uris": {"ios": "https://dc.lft.to/lastmile_qr_scan", "android": "https://dc.lft.to/lastmile_qr_scan"}, "is_reserved": 0, "fusion_lon": 0.0, "fusion_lat": 0.0, "lon": -77.04099533333333, "name": "54f3b7c0cc2fa1c41c86fbf21efca6ff"}, {"bike_id": "72012cfdfae9bbc08bdc0829a4e1025f", "type": "electric_scooter", "is_disabled": 0, "lat": 38.9039645, "rental_uris": {"ios": "https://dc.lft.to/lastmile_qr_scan", "android": "https://dc.lft.to/lastmile_qr_scan"}, "is_reserved": 0, "fusion_lon": 0.0, "fusion_lat": 0.0, "lon": -77.04679266666666, "name": "72012cfdfae9bbc08bdc0829a4e1025f"}, {"bike_id": "ff84a0fc580b757c89f8f93b90abdc85", "type": "electric_scooter", "is_disabled": 0, "lat": 38.905078333333336, "rental_uris": {"ios": "https://dc.lft.to/lastmile_qr_scan", "android": "https://dc.lft.to/lastmile_qr_scan"}, "is_reserved": 0, "fusion_lon": 0.0, "fusion_lat": 0.0, "lon": -77.01967633333334, "name": "ff84a0fc580b757c89f8f93b90abdc85"}, {"bike_id": "7cb69cfb626358cff944d64b3dff2d1d", "type": "electric_scooter", "is_disabled": 0, "lat": 38.91579316666667, "rental_uris": {"ios": "https://dc.lft.to/lastmile_qr_scan", "android": "https://dc.lft.to/lastmile_qr_scan"}, "is_reserved": 0, "fusion_lon": 0.0, "fusion_lat": 0.0, "lon": -77.01996, "name": "7cb69cfb626358cff944d64b3dff2d1d"}, {"bike_id": "ce9db738d8949c390831c117bdcf9cb5", "type": "electric_scooter", "is_disabled": 0, "lat": 38.91031316666667, "rental_uris": {"ios": "https://dc.lft.to/lastmile_qr_scan", "android": "https://dc.lft.to/lastmile_qr_scan"}, "is_reserved": 0, "fusion_lon": 0.0, "fusion_lat": 0.0, "lon": -77.0384025, "name": "ce9db738d8949c390831c117bdcf9cb5"}, {"bike_id": "3e2df4bb2082d55e05278b0b00146793", "type": "electric_scooter", "is_disabled": 0, "lat": 38.91683916666667, "rental_uris": {"ios": "https://dc.lft.to/lastmile_qr_scan", "android": "https://dc.lft.to/lastmile_qr_scan"}, "is_reserved": 0, "fusion_lon": 0.0, "fusion_lat": 0.0, "lon": -77.02968983333334, "name": "3e2df4bb2082d55e05278b0b00146793"}, {"bike_id": "541e945acd14ff2ee57e79d55b9c087b", "type": "electric_scooter", "is_disabled": 0, "lat": 38.91927333333334, "rental_uris": {"ios": "https://dc.lft.to/lastmile_qr_scan", "android": "https://dc.lft.to/lastmile_qr_scan"}, "is_reserved": 0, "fusion_lon": 0.0, "fusion_lat": 0.0, "lon": -77.04156116666667, "name": "541e945acd14ff2ee57e79d55b9c087b"}, {"bike_id": "5ed76193790a174dc571fa34581e5f17", "type": "electric_scooter", "is_disabled": 0, "lat": 38.91730966666667, "rental_uris": {"ios": "https://dc.lft.to/lastmile_qr_scan", "android": "https://dc.lft.to/lastmile_qr_scan"}, "is_reserved": 0, "fusion_lon": 0.0, "fusion_lat": 0.0, "lon": -77.01890866666666, "name": "5ed76193790a174dc571fa34581e5f17"}, {"bike_id": "ca38ee5f6d6979e2d4e86f647b0cc671", "type": "electric_scooter", "is_disabled": 0, "lat": 38.900002666666666, "rental_uris": {"ios": "https://dc.lft.to/lastmile_qr_scan", "android": "https://dc.lft.to/lastmile_qr_scan"}, "is_reserved": 0, "fusion_lon": 0.0, "fusion_lat": 0.0, "lon": -76.99615316666667, "name": "ca38ee5f6d6979e2d4e86f647b0cc671"}, {"bike_id": "644480e5b4a49575532f6db4d6737b8a", "type": "electric_bike", "is_disabled": 0, "lat": 38.85545116666667, "rental_uris": {"ios": "https://dc.lft.to/lastmile_qr_scan", "android": "https://dc.lft.to/lastmile_qr_scan"}, "is_reserved": 0, "fusion_lon": 0.0, "fusion_lat": 0.0, "lon": -77.12037416666666, "name": "644480e5b4a49575532f6db4d6737b8a"}, {"bike_id": "ee7e36bb857f6893e5f4e8bb3ca643f0", "type": "electric_scooter", "is_disabled": 0, "lat": 38.923666, "rental_uris": {"ios": "https://dc.lft.to/lastmile_qr_scan", "android": "https://dc.lft.to/lastmile_qr_scan"}, "is_reserved": 0, "fusion_lon": 0.0, "fusion_lat": 0.0, "lon": -77.04138466666667, "name": "ee7e36bb857f6893e5f4e8bb3ca643f0"}, {"bike_id": "24803c4bd8ffad2c03e145a82da920e3", "type": "electric_scooter", "is_disabled": 0, "lat": 38.914002333333336, "rental_uris": {"ios": "https://dc.lft.to/lastmile_qr_scan", "android": "https://dc.lft.to/lastmile_qr_scan"}, "is_reserved": 0, "fusion_lon": 0.0, "fusion_lat": 0.0, "lon": -76.98191466666667, "name": "24803c4bd8ffad2c03e145a82da920e3"}, {"bike_id": "91fe100b7f41ec3f62c532a81bb21a7b", "type": "electric_scooter", "is_disabled": 0, "lat": 38.911685166666665, "rental_uris": {"ios": "https://dc.lft.to/lastmile_qr_scan", "android": "https://dc.lft.to/lastmile_qr_scan"}, "is_reserved": 0, "fusion_lon": 0.0, "fusion_lat": 0.0, "lon": -77.068672, "name": "91fe100b7f41ec3f62c532a81bb21a7b"}, {"bike_id": "8386dc72903f53eaa4299519bd2b5573", "type": "electric_scooter", "is_disabled": 0, "lat": 38.89007683333333, "rental_uris": {"ios": "https://dc.lft.to/lastmile_qr_scan", "android": "https://dc.lft.to/lastmile_qr_scan"}, "is_reserved": 0, "fusion_lon": 0.0, "fusion_lat": 0.0, "lon": -76.93743716666667, "name": "8386dc72903f53eaa4299519bd2b5573"}, {"bike_id": "6b115b920b3d2443744186ece7776e39", "type": "electric_scooter", "is_disabled": 0, "lat": 38.91707366666667, "rental_uris": {"ios": "https://dc.lft.to/lastmile_qr_scan", "android": "https://dc.lft.to/lastmile_qr_scan"}, "is_reserved": 0, "fusion_lon": 0.0, "fusion_lat": 0.0, "lon": -77.02876883333333, "name": "6b115b920b3d2443744186ece7776e39"}, {"bike_id": "9eb983cedec6867b59b129daf26b752b", "type": "electric_scooter", "is_disabled": 0, "lat": 38.86377683333333, "rental_uris": {"ios": "https://dc.lft.to/lastmile_qr_scan", "android": "https://dc.lft.to/lastmile_qr_scan"}, "is_reserved": 0, "fusion_lon": 0.0, "fusion_lat": 0.0, "lon": -76.990576, "name": "9eb983cedec6867b59b129daf26b752b"}, {"bike_id": "71eea44c306ca6c1f4c6bbfdd717908d", "type": "electric_scooter", "is_disabled": 0, "lat": 38.8742325, "rental_uris": {"ios": "https://dc.lft.to/lastmile_qr_scan", "android": "https://dc.lft.to/lastmile_qr_scan"}, "is_reserved": 0, "fusion_lon": 0.0, "fusion_lat": 0.0, "lon": -76.969077, "name": "71eea44c306ca6c1f4c6bbfdd717908d"}, {"bike_id": "bc2a753b92e6be394495dfa84e0ca208", "type": "electric_scooter", "is_disabled": 0, "lat": 38.90786766666667, "rental_uris": {"ios": "https://dc.lft.to/lastmile_qr_scan", "android": "https://dc.lft.to/lastmile_qr_scan"}, "is_reserved": 0, "fusion_lon": 0.0, "fusion_lat": 0.0, "lon": -77.04501066666667, "name": "bc2a753b92e6be394495dfa84e0ca208"}, {"bike_id": "4f69374e311f0f839d91f43673ca4ac8", "type": "electric_scooter", "is_disabled": 0, "lat": 38.915723166666666, "rental_uris": {"ios": "https://dc.lft.to/lastmile_qr_scan", "android": "https://dc.lft.to/lastmile_qr_scan"}, "is_reserved": 0, "fusion_lon": 0.0, "fusion_lat": 0.0, "lon": -77.02056383333333, "name": "4f69374e311f0f839d91f43673ca4ac8"}, {"bike_id": "e6a2483203d2db3c5306b6388a0c4521", "type": "electric_scooter", "is_disabled": 0, "lat": 38.94271366666667, "rental_uris": {"ios": "https://dc.lft.to/lastmile_qr_scan", "android": "https://dc.lft.to/lastmile_qr_scan"}, "is_reserved": 0, "fusion_lon": 0.0, "fusion_lat": 0.0, "lon": -77.03261166666667, "name": "e6a2483203d2db3c5306b6388a0c4521"}, {"bike_id": "343a615be608ab5d29994ea64b36c9f9", "type": "electric_scooter", "is_disabled": 0, "lat": 38.878696833333336, "rental_uris": {"ios": "https://dc.lft.to/lastmile_qr_scan", "android": "https://dc.lft.to/lastmile_qr_scan"}, "is_reserved": 0, "fusion_lon": 0.0, "fusion_lat": 0.0, "lon": -76.96976816666667, "name": "343a615be608ab5d29994ea64b36c9f9"}, {"bike_id": "bc064c8dd1c290ef21f1a30237017108", "type": "electric_scooter", "is_disabled": 0, "lat": 38.95476983333333, "rental_uris": {"ios": "https://dc.lft.to/lastmile_qr_scan", "android": "https://dc.lft.to/lastmile_qr_scan"}, "is_reserved": 0, "fusion_lon": 0.0, "fusion_lat": 0.0, "lon": -77.082179, "name": "bc064c8dd1c290ef21f1a30237017108"}, {"bike_id": "cc94b09d360c393fe82a13a7b05bffae", "type": "electric_scooter", "is_disabled": 0, "lat": 38.906098, "rental_uris": {"ios": "https://dc.lft.to/lastmile_qr_scan", "android": "https://dc.lft.to/lastmile_qr_scan"}, "is_reserved": 0, "fusion_lon": 0.0, "fusion_lat": 0.0, "lon": -77.06299666666666, "name": "cc94b09d360c393fe82a13a7b05bffae"}, {"bike_id": "6dc96120fe63188841d4848c35ff0000", "type": "electric_scooter", "is_disabled": 0, "lat": 38.92598133333333, "rental_uris": {"ios": "https://dc.lft.to/lastmile_qr_scan", "android": "https://dc.lft.to/lastmile_qr_scan"}, "is_reserved": 0, "fusion_lon": 0.0, "fusion_lat": 0.0, "lon": -77.037517, "name": "6dc96120fe63188841d4848c35ff0000"}, {"bike_id": "18b14407c8355d8b92ee8005e64f651f", "type": "electric_scooter", "is_disabled": 0, "lat": 38.914739, "rental_uris": {"ios": "https://dc.lft.to/lastmile_qr_scan", "android": "https://dc.lft.to/lastmile_qr_scan"}, "is_reserved": 0, "fusion_lon": 0.0, "fusion_lat": 0.0, "lon": -77.0318205, "name": "18b14407c8355d8b92ee8005e64f651f"}, {"bike_id": "1ba574eb48562301d3db42b0e590f104", "type": "electric_scooter", "is_disabled": 0, "lat": 38.92807666666667, "rental_uris": {"ios": "https://dc.lft.to/lastmile_qr_scan", "android": "https://dc.lft.to/lastmile_qr_scan"}, "is_reserved": 0, "fusion_lon": 0.0, "fusion_lat": 0.0, "lon": -77.0268925, "name": "1ba574eb48562301d3db42b0e590f104"}, {"bike_id": "55fb85aa017dd09cd19fe7d4094e8e92", "type": "electric_scooter", "is_disabled": 0, "lat": 38.914156166666665, "rental_uris": {"ios": "https://dc.lft.to/lastmile_qr_scan", "android": "https://dc.lft.to/lastmile_qr_scan"}, "is_reserved": 0, "fusion_lon": 0.0, "fusion_lat": 0.0, "lon": -77.022529, "name": "55fb85aa017dd09cd19fe7d4094e8e92"}, {"bike_id": "765660deca81766ca1635846699fb6f2", "type": "electric_scooter", "is_disabled": 0, "lat": 38.91774383333333, "rental_uris": {"ios": "https://dc.lft.to/lastmile_qr_scan", "android": "https://dc.lft.to/lastmile_qr_scan"}, "is_reserved": 0, "fusion_lon": 0.0, "fusion_lat": 0.0, "lon": -77.0144675, "name": "765660deca81766ca1635846699fb6f2"}, {"bike_id": "31f857e8a7f3c105e55d587d28d77344", "type": "electric_bike", "is_disabled": 0, "lat": 38.87302066666667, "rental_uris": {"ios": "https://dc.lft.to/lastmile_qr_scan", "android": "https://dc.lft.to/lastmile_qr_scan"}, "is_reserved": 0, "fusion_lon": 0.0, "fusion_lat": 0.0, "lon": -77.13927016666666, "name": "31f857e8a7f3c105e55d587d28d77344"},