{"data": {"bikes": [{"name": "dfa5716274ab4379953082e2878ea3e2", "fusion_lon": 0.0, "lat": 38.932157833333335, "is_reserved": 0, "type": "electric_scooter", "bike_id": "dfa5716274ab4379953082e2878ea3e2", "is_disabled": 0, "rental_uris": {"android": "https://dc.lft.to/lastmile_qr_scan", "ios": "https://dc.lft.to/lastmile_qr_scan"}, "lon": -77.03345283333333, "fusion_lat": 0.0}, {"name": "63f6cf4f2aa1942d52f066942dd8d519", "fusion_lon": 0.0, "lat": 38.9063135, "is_reserved": 0, "type": "electric_scooter", "bike_id": "63f6cf4f2aa1942d52f066942dd8d519", "is_disabled": 0, "rental_uris": {"android": "https://dc.lft.to/lastmile_qr_scan", "ios": "https://dc.lft.to/lastmile_qr_scan"}, "lon": -77.03421983333334, "fusion_lat": 0.0}, {"name": "46ad5258d03392d570795b0b2fa0f809", "fusion_lon": 0.0, "lat": 38.867050166666665, "is_reserved": 0, "type": "electric_scooter", "bike_id": "46ad5258d03392d570795b0b2fa0f809", "is_disabled": 0, "rental_uris": {"android": "https://dc.lft.to/lastmile_qr_scan", "ios": "https://dc.lft.to/lastmile_qr_scan"}, "lon": -76.98734216666666, "fusion_lat": 0.0}, {"name": "5a47878f51fd74fa07793f360e45833b", "fusion_lon": 0.0, "lat": 38.8984095, "is_reserved": 0, "type": "electric_scooter", "bike_id": "5a47878f51fd74fa07793f360e45833b", "is_disabled": 0, "rental_uris": {"android": "https://dc.lft.to/lastmile_qr_scan", "ios": "https://dc.lft.to/lastmile_qr_scan"}, "lon": -77.03340616666667, "fusion_lat": 0.0}, {"name": "8db0af78cd9e8e790991be367e65cb0f", "fusion_lon": 0.0, "lat": 38.897255, "is_reserved": 0, "type": "electric_scooter", "bike_id": "8db0af78cd9e8e790991be367e65cb0f", "is_disabled": 0, "rental_uris": {"android": "https://dc.lft.to/lastmile_qr_scan", "ios": "https://dc.lft.to/lastmile_qr_scan"}, "lon": -76.9968555, "fusion_lat": 0.0}, {"name": "2bd9b5621690b7eb5b56ab5525632a28", "fusion_lon": 0.0, "lat": 38.95707383333333, "is_reserved": 0, "type": "electric_scooter", "bike_id": "2bd9b5621690b7eb5b56ab5525632a28", "is_disabled": 0, "rental_uris": {"android": "https://dc.lft.to/lastmile_qr_scan", "ios": "https://dc.lft.to/lastmile_qr_scan"}, "lon": -77.0240945, "fusion_lat": 0.0}, {"name": "1ecf5f20226695a5de727128c41535c4", "fusion_lon": 0.0, "lat": 38.9020925, "is_reserved": 0, "type": "electric_scooter", "bike_id": "1ecf5f20226695a5de727128c41535c4", "is_disabled": 0, "rental_uris": {"android": "https://dc.lft.to/lastmile_qr_scan", "ios": "https://dc.lft.to/lastmile_qr_scan"}, "lon": -77.02433966666666, "fusion_lat": 0.0}, {"name": "461d721ea3853c6ffcea1fef545d2663", "fusion_lon": 0.0, "lat": 38.90174566666666, "is_reserved": 0, "type": "electric_scooter", "bike_id": "461d721ea3853c6ffcea1fef545d2663", "is_disabled": 0, "rental_uris": {"android": "https://dc.lft.to/lastmile_qr_scan", "ios": "https://dc.lft.to/lastmile_qr_scan"}, "lon": -77.050939, "fusion_lat": 0.0}, {"name": "68aeca3220c21e03eb54af3423d77920", "fusion_lon": 0.0, "lat": 38.914823166666665, "is_reserved": 0, "type": "electric_scooter", "bike_id": "68aeca3220c21e03eb54af3423d77920", "is_disabled": 0, "rental_uris": {"android": "https://dc.lft.to/lastmile_qr_scan", "ios": "https://dc.lft.to/lastmile_qr_scan"}, "lon": -77.02544083333333, "fusion_lat": 0.0}, {"name": "57a4487a3eaef356a1a70ebc86ac940e", "fusion_lon": 0.0, "lat": 38.93074166666667, "is_reserved": 0, "type": "electric_scooter", "bike_id": "57a4487a3eaef356a1a70ebc86ac940e", "is_disabled": 0, "rental_uris": {"android": "https://dc.lft.to/lastmile_qr_scan", "ios": "https://dc.lft.to/lastmile_qr_scan"}, "lon": -77.02167683333333, "fusion_lat": 0.0}, {"name": "37f2d29b70a39f6dc202eb077c21271a", "fusion_lon": 0.0, "lat": 38.92066716666667, "is_reserved": 0, "type": "electric_scooter", "bike_id": "37f2d29b70a39f6dc202eb077c21271a", "is_disabled": 0, "rental_uris": {"android": "https://dc.lft.to/lastmile_qr_scan", "ios": "https://dc.lft.to/lastmile_qr_scan"}, "lon": -77.02413266666667, "fusion_lat": 0.0}, {"name": "a6a8872cb8fafd7240b9ed8b7a5e15f7", "fusion_lon": 0.0, "lat": 38.90835883333333, "is_reserved": 0, "type": "electric_scooter", "bike_id": "a6a8872cb8fafd7240b9ed8b7a5e15f7", "is_disabled": 0, "rental_uris": {"android": "https://dc.lft.to/lastmile_qr_scan", "ios": "https://dc.lft.to/lastmile_qr_scan"}, "lon": -77.00928516666667, "fusion_lat": 0.0}, {"name": "c9ef0c91e106ec873e32aa95e3b135cf", "fusion_lon": 0.0, "lat": 38.8787525, "is_reserved": 0, "type": "electric_scooter", "bike_id": "c9ef0c91e106ec873e32aa95e3b135cf", "is_disabled": 0, "rental_uris": {"android": "https://dc.lft.to/lastmile_qr_scan", "ios": "https://dc.lft.to/lastmile_qr_scan"}, "lon": -77.017619, "fusion_lat": 0.0}, {"name": "cbef01ff60306c74bc14d4a83e568621", "fusion_lon": 0.0, "lat": 38.9168615, "is_reserved": 0, "type": "electric_scooter", "bike_id": "cbef01ff60306c74bc14d4a83e568621", "is_disabled": 0, "rental_uris": {"android": "https://dc.lft.to/lastmile_qr_scan", "ios": "https://dc.lft.to/lastmile_qr_scan"}, "lon": -77.02894983333333, "fusion_lat": 0.0}, {"name": "7dbf2482659295d8e69d54cff5262baa", "fusion_lon": 0.0, "lat": 38.887202, "is_reserved": 0, "type": "electric_scooter", "bike_id": "7dbf2482659295d8e69d54cff5262baa", "is_disabled": 0, "rental_uris": {"android": "https://dc.lft.to/lastmile_qr_scan", "ios": "https://dc.lft.to/lastmile_qr_scan"}, "lon": -77.01776616666666, "fusion_lat": 0.0}, {"name": "2dfb9c6ba49f029c7ac776276a6b0593", "fusion_lon": 0.0, "lat": 38.919205833333336, "is_reserved": 0, "type": "electric_scooter", "bike_id": "2dfb9c6ba49f029c7ac776276a6b0593", "is_disabled": 0, "rental_uris": {"android": "https://dc.lft.to/lastmile_qr_scan", "ios": "https://dc.lft.to/lastmile_qr_scan"}, "lon": -77.02501216666667, "fusion_lat": 0.0}, {"name": "6909bb23ba42eb56186d22f56bd2823b", "fusion_lon": 0.0, "lat": 38.87420183333333, "is_reserved": 0, "type": "electric_scooter", "bike_id": "6909bb23ba42eb56186d22f56bd2823b", "is_disabled": 0, "rental_uris": {"android": "https://dc.lft.to/lastmile_qr_scan", "ios": "https://dc.lft.to/lastmile_qr_scan"}, "lon": -76.96775966666667, "fusion_lat": 0.0}, {"name": "96ac40c7c7f20cdd09a0439563fbc8c1", "fusion_lon": 0.0, "lat": 38.923644833333334, "is_reserved": 0, "type": "electric_scooter", "bike_id": "96ac40c7c7f20cdd09a0439563fbc8c1", "is_disabled": 0, "rental_uris": {"android": "https://dc.lft.to/lastmile_qr_scan", "ios": "https://dc.lft.to/lastmile_qr_scan"}, "lon": -77.029818, "fusion_lat": 0.0}, {"name": "ea2d6fa8cca154d5a1d0bed8973b11cb", "fusion_lon": 0.0, "lat": 38.92670366666667, "is_reserved": 0, "type": "electric_scooter", "bike_id": "ea2d6fa8cca154d5a1d0bed8973b11cb", "is_disabled": 0, "rental_uris": {"android": "https://dc.lft.to/lastmile_qr_scan", "ios": "https://dc.lft.to/lastmile_qr_scan"}, "lon": -77.0230895, "fusion_lat": 0.0}, {"name": "1bef69da90ffc75f9c00b6ce1ff7c0c1", "fusion_lon": 0.0, "lat": 38.917260166666665, "is_reserved": 0, "type": "electric_scooter", "bike_id": "1bef69da90ffc75f9c00b6ce1ff7c0c1", "is_disabled": 0, "rental_uris": {"android": "https://dc.lft.to/lastmile_qr_scan", "ios": "https://dc.lft.to/lastmile_qr_scan"}, "lon": -77.036618, "fusion_lat": 0.0}, {"name": "8119b8ec87f9f7c9a8754e899b3e75bd", "fusion_lon": 0.0, "lat": 38.92767533333333, "is_reserved": 0, "type": "electric_scooter", "bike_id": "8119b8ec87f9f7c9a8754e899b3e75bd", "is_disabled": 0, "rental_uris": {"android": "https://dc.lft.to/lastmile_qr_scan", "ios": "https://dc.lft.to/lastmile_qr_scan"}, "lon": -77.04067283333333, "fusion_lat": 0.0}, {"name": "1d8bfea5663b84c546938f0e150be1ab", "fusion_lon": 0.0, "lat": 38.915472333333334, "is_reserved": 0, "type": "electric_scooter", "bike_id": "1d8bfea5663b84c546938f0e150be1ab", "is_disabled": 0, "rental_uris": {"android": "https://dc.lft.to/lastmile_qr_scan", "ios": "https://dc.lft.to/lastmile_qr_scan"}, "lon": -77.053179, "fusion_lat": 0.0}, {"name": "c263448d0d675e5ca33d14d41447f376", "fusion_lon": 0.0, "lat": 38.917749666666666, "is_reserved": 0, "type": "electric_scooter", "bike_id": "c263448d0d675e5ca33d14d41447f376", "is_disabled": 0, "rental_uris": {"android": "https://dc.lft.to/lastmile_qr_scan", "ios": "https://dc.lft.to/lastmile_qr_scan"}, "lon": -77.0477735, "fusion_lat": 0.0}, {"name": "e2cba3a0d3176ff88701755d439310b6", "fusion_lon": 0.0, "lat": 38.901452166666665, "is_reserved": 0, "type": "electric_scooter", "bike_id": "e2cba3a0d3176ff88701755d439310b6", "is_disabled": 0, "rental_uris": {"android": "https://dc.lft.to/lastmile_qr_scan", "ios": "https://dc.lft.to/lastmile_qr_scan"}, "lon": -76.92983233333334, "fusion_lat": 0.0}, {"name": "481b763063c4148a59f086517da8fec0", "fusion_lon": 0.0, "lat": 38.902012, "is_reserved": 0, "type": "electric_scooter", "bike_id": "481b763063c4148a59f086517da8fec0", "is_disabled": 0, "rental_uris": {"android": "https://dc.lft.to/lastmile_qr_scan", "ios": "https://dc.lft.to/lastmile_qr_scan"}, "lon": -77.02371516666666, "fusion_lat": 0.0}, {"name": "c7df011981084d8e8e39061ec5db9099", "fusion_lon": 0.0, "lat": 38.892236833333335, "is_reserved": 0, "type": "electric_scooter", "bike_id": "c7df011981084d8e8e39061ec5db9099", "is_disabled": 0, "rental_uris": {"android": "https://dc.lft.to/lastmile_qr_scan", "ios": "https://dc.lft.to/lastmile_qr_scan"}, "lon": -77.04866433333333, "fusion_lat": 0.0}, {"name": "8d98255fd046a1b549c6fc609666548b", "fusion_lon": 0.0, "lat": 38.921055333333335, "is_reserved": 0, "type": "electric_scooter", "bike_id": "8d98255fd046a1b549c6fc609666548b", "is_disabled": 0, "rental_uris": {"android": "https://dc.lft.to/lastmile_qr_scan", "ios": "https://dc.lft.to/lastmile_qr_scan"}, "lon": -77.03930233333334, "fusion_lat": 0.0}, {"name": "426b6a049cc98ee08564ec0d51023a7c", "fusion_lon": 0.0, "lat": 38.87473633333333, "is_reserved": 0, "type": "electric_scooter", "bike_id": "426b6a049cc98ee08564ec0d51023a7c", "is_disabled": 0, "rental_uris": {"android": "https://dc.lft.to/lastmile_qr_scan", "ios": "https://dc.lft.to/lastmile_qr_scan"}, "lon": -76.99990883333334, "fusion_lat": 0.0}, {"name": "44b9b72a6c0cac887929efda6cabaa48", "fusion_lon": 0.0, "lat": 38.901029333333334, "is_reserved": 0, "type": "electric_scooter", "bike_id": "44b9b72a6c0cac887929efda6cabaa48", "is_disabled": 0, "rental_uris": {"android": "https://dc.lft.to/lastmile_qr_scan", "ios": "https://dc.lft.to/lastmile_qr_scan"}, "lon": -77.031814, "fusion_lat": 0.0}, {"name": "a330205844a5390c37ca31a9ec8feb2d", "fusion_lon": 0.0, "lat": 38.9739875, "is_reserved": 0, "type": "electric_bike", "bike_id": "a330205844a5390c37ca31a9ec8feb2d", "is_disabled": 0, "rental_uris": {"android": "https://dc.lft.to/lastmile_qr_scan", "ios": "https://dc.lft.to/lastmile_qr_scan"}, "lon": -77.06450633333333, "fusion_lat": 0.0}, {"name": "85b01d8afe6d0b60d1fe2f322454150a", "fusion_lon": 0.0, "lat": 38.90779, "is_reserved": 0, "type": "electric_scooter", "bike_id": "85b01d8afe6d0b60d1fe2f322454150a", "is_disabled": 0, "rental_uris": {"android": "https://dc.lft.to/lastmile_qr_scan", "ios": "https://dc.lft.to/lastmile_qr_scan"}, "lon": -77.03831483333333, "fusion_lat": 0.0}, {"name": "a9bc23e380dd15b212d63fdff4998a92", "fusion_lon": 0.0, "lat": 38.87277, "is_reserved": 0, "type": "electric_bike", "bike_id": "a9bc23e380dd15b212d63fdff4998a92", "is_disabled": 0, "rental_uris": {"android": "https://dc.lft.to/lastmile_qr_scan", "ios": "https://dc.lft.to/lastmile_qr_scan"}, "lon": -77.23327766666667, "fusion_lat": 0.0}, {"name": "1bd29933ec0abd111f3013a67346ae86", "fusion_lon": 0.0, "lat": 38.92900183333333, "is_reserved": 0, "type": "electric_scooter", "bike_id": "1bd29933ec0abd111f3013a67346ae86", "is_disabled": 0, "rental_uris": {"android": "https://dc.lft.to/lastmile_qr_scan", "ios": "https://dc.lft.to/lastmile_qr_scan"}, "lon": -77.016436, "fusion_lat": 0.0}, {"name": "7b78a2243e2afdee6a541dd2f71ad6c0", "fusion_lon": 0.0, "lat": 38.91378783333333, "is_reserved": 0, "type": "electric_scooter", "bike_id": "7b78a2243e2afdee6a541dd2f71ad6c0", "is_disabled": 0, "rental_uris": {"android": "https://dc.lft.to/lastmile_qr_scan", "ios": "https://dc.lft.to/lastmile_qr_scan"}, "lon": -77.04135916666667, "fusion_lat": 0.0}, {"name": "bb41d2767977405efb7e168df8f0f876", "fusion_lon": 0.0, "lat": 38.908254, "is_reserved": 0, "type": "electric_scooter", "bike_id": "bb41d2767977405efb7e168df8f0f876", "is_disabled": 0, "rental_uris": {"android": "https://dc.lft.to/lastmile_qr_scan", "ios": "https://dc.lft.to/lastmile_qr_scan"}, "lon": -76.94158916666666, "fusion_lat": 0.0}, {"name": "84078010b1875d522349a1c7fe138b46", "fusion_lon": 0.0, "lat": 38.964741833333335, "is_reserved": 0, "type": "electric_bike", "bike_id": "84078010b1875d522349a1c7fe138b46", "is_disabled": 0, "rental_uris": {"android": "https://dc.lft.to/lastmile_qr_scan", "ios": "https://dc.lft.to/lastmile_qr_scan"}, "lon": -77.035645, "fusion_lat": 0.0}, {"name": "4ec78f585b693233974032d678c4819d", "fusion_lon": 0.0, "lat": 38.90156283333334, "is_reserved": 0, "type": "electric_scooter", "bike_id": "4ec78f585b693233974032d678c4819d", "is_disabled": 0, "rental_uris": {"android": "https://dc.lft.to/lastmile_qr_scan", "ios": "https://dc.lft.to/lastmile_qr_scan"}, "lon": -77.06010733333333, "fusion_lat": 0.0}, {"name": "aff6ddd017b83049d0dd49392e9e2b3f", "fusion_lon": 0.0, "lat": 38.90418783333333, "is_reserved": 0, "type": "electric_scooter", "bike_id": "aff6ddd017b83049d0dd49392e9e2b3f", "is_disabled": 0, "rental_uris": {"android": "https://dc.lft.to/lastmile_qr_scan", "ios": "https://dc.lft.to/lastmile_qr_scan"}, "lon": -77.03845216666667, "fusion_lat": 0.0}, {"name": "ce7a3a645e9b66f6abbea5de13c1d7e8", "fusion_lon": 0.0, "lat": 38.8999915, "is_reserved": 0, "type": "electric_scooter", "bike_id": "ce7a3a645e9b66f6abbea5de13c1d7e8", "is_disabled": 0, "rental_uris": {"android": "https://dc.lft.to/lastmile_qr_scan", "ios": "https://dc.lft.to/lastmile_qr_scan"}, "lon": -77.006657, "fusion_lat": 0.0}, {"name": "2436eedc7481da87d809128f2aa0a654", "fusion_lon": 0.0, "lat": 38.905607833333335, "is_reserved": 0, "type": "electric_scooter", "bike_id": "2436eedc7481da87d809128f2aa0a654", "is_disabled": 0, "rental_uris": {"android": "https://dc.lft.to/lastmile_qr_scan", "ios": "https://dc.lft.to/lastmile_qr_scan"}, "lon": -77.007435, "fusion_lat": 0.0}, {"name": "8d6995195fc1aca75b802e93637f5c96", "fusion_lon": 0.0, "lat": 38.92720833333333, "is_reserved": 0, "type": "electric_scooter", "bike_id": "8d6995195fc1aca75b802e93637f5c96", "is_disabled": 0, "rental_uris": {"android": "https://dc.lft.to/lastmile_qr_scan", "ios": "https://dc.lft.to/lastmile_qr_scan"}, "lon": -77.03992683333334, "fusion_lat": 0.0}, {"name": "85940399b9f1698245e50da1de32b8f8", "fusion_lon": 0.0, "lat": 38.900876, "is_reserved": 0, "type": "electric_scooter", "bike_id": "85940399b9f1698245e50da1de32b8f8", "is_disabled": 0, "rental_uris": {"android": "https://dc.lft.to/lastmile_qr_scan", "ios": "https://dc.lft.to/lastmile_qr_scan"}, "lon": -77.04751366666666, "fusion_lat": 0.0}, {"name": "3798e92d08185a092b0ca7fc43b57784", "fusion_lon": 0.0, "lat": 38.923152, "is_reserved": 0, "type": "electric_scooter", "bike_id": "3798e92d08185a092b0ca7fc43b57784", "is_disabled": 0, "rental_uris": {"android": "https://dc.lft.to/lastmile_qr_scan", "ios": "https://dc.lft.to/lastmile_qr_scan"}, "lon": -77.04170933333333, "fusion_lat": 0.0}, {"name": "aaaaef842a7ca83a5b4205d16ef7afac", "fusion_lon": 0.0, "lat": 38.899254, "is_reserved": 0, "type": "electric_scooter", "bike_id": "aaaaef842a7ca83a5b4205d16ef7afac", "is_disabled": 0, "rental_uris": {"android": "https://dc.lft.to/lastmile_qr_scan", "ios": "https://dc.lft.to/lastmile_qr_scan"}, "lon": -77.00355, "fusion_lat": 0.0}, {"name": "ceaa49db4291b4c3cf29f747acdea895", "fusion_lon": 0.0, "lat": 38.907874666666665, "is_reserved": 0, "type": "electric_scooter", "bike_id": "ceaa49db4291b4c3cf29f747acdea895", "is_disabled": 0, "rental_uris": {"android": "https://dc.lft.to/lastmile_qr_scan", "ios": "https://dc.lft.to/lastmile_qr_scan"}, "lon": -77.0386535, "fusion_lat": 0.0}, {"name": "9511ca638ad49608ca93c8b643e0091f", "fusion_lon": 0.0, "lat": 38.90002233333333, "is_reserved": 0, "type": "electric_scooter", "bike_id": "9511ca638ad49608ca93c8b643e0091f", "is_disabled": 0, "rental_uris": {"android": "https://dc.lft.to/lastmile_qr_scan", "ios": "https://dc.lft.to/lastmile_qr_scan"}, "lon": -77.02597816666666, "fusion_lat": 0.0}, {"name": "4999702e1d3d9a03505d50659dd878e9", "fusion_lon": 0.0, "lat": 38.89542816666667, "is_reserved": 0, "type": "electric_scooter", "bike_id": "4999702e1d3d9a03505d50659dd878e9", "is_disabled": 0, "rental_uris": {"android": "https://dc.lft.to/lastmile_qr_scan", "ios": "https://dc.lft.to/lastmile_qr_scan"}, "lon": -76.92951716666667, "fusion_lat": 0.0}, {"name": "6dc41d2c67ea9de7e112f1b167268a58", "fusion_lon": 0.0, "lat": 38.91672766666667, "is_reserved": 0, "type": "electric_scooter", "bike_id": "6dc41d2c67ea9de7e112f1b167268a58", "is_disabled": 0, "rental_uris": {"android": "https://dc.lft.to/lastmile_qr_scan", "ios": "https://dc.lft.to/lastmile_qr_scan"}, "lon": -77.023309, "fusion_lat": 0.0}, {"name": "c9d5e7614245936644637b09b4fd20dd", "fusion_lon": 0.0, "lat": 38.90936683333334, "is_reserved": 0, "type": "electric_scooter", "bike_id": "c9d5e7614245936644637b09b4fd20dd", "is_disabled": 0, "rental_uris": {"android": "https://dc.lft.to/lastmile_qr_scan", "ios": "https://dc.lft.to/lastmile_qr_scan"}, "lon": -77.0269125, "fusion_lat": 0.0}, {"name": "25174d175c14606b3c122afd1c6f6e38", "fusion_lon": 0.0, "lat": 38.90532283333334, "is_reserved": 0, "type": "electric_scooter", "bike_id": "25174d175c14606b3c122afd1c6f6e38", "is_disabled": 0, "rental_uris": {"android": "https://dc.lft.to/lastmile_qr_scan", "ios": "https://dc.lft.to/lastmile_qr_scan"}, "lon": -76.9809925, "fusion_lat": 0.0}, {"name": "ba05299c9a58a743e27b2fe7daf4ed9a", "fusion_lon": 0.0, "lat": 38.9351615, "is_reserved": 0, "type": "electric_scooter", "bike_id": "ba05299c9a58a743e27b2fe7daf4ed9a", "is_disabled": 0, "rental_uris": {"android": "https://dc.lft.to/lastmile_qr_scan", "ios": "https://dc.lft.to/lastmile_qr_scan"}, "lon": -77.0328585, "fusion_lat": 0.0}, {"name": "89d83ad4cfced2938021b2bc81fa9c6c", "fusion_lon": 0.0, "lat": 38.857897, "is_reserved": 0, "type": "electric_bike", "bike_id": "89d83ad4cfced2938021b2bc81fa9c6c", "is_disabled": 0, "rental_uris": {"android": "https://dc.lft.to/lastmile_qr_scan", "ios": "https://dc.lft.to/lastmile_qr_scan"}, "lon": -77.12018133333333, "fusion_lat": 0.0}, {"name": "11606cae2239cc213f9f579f98483a36", "fusion_lon": 0.0, "lat": 38.86267083333333, "is_reserved": 0, "type": "electric_bike", "bike_id": "11606cae2239cc213f9f579f98483a36", "is_disabled": 0, "rental_uris": {"android": "https://dc.lft.to/lastmile_qr_scan", "ios": "https://dc.lft.to/lastmile_qr_scan"}, "lon": -76.9834585, "fusion_lat": 0.0}, {"name": "a6a0aaa9e3949cfad66370d17df5783b", "fusion_lon": 0.0, "lat": 38.921260833333335, "is_reserved": 0, "type": "electric_scooter", "bike_id": "a6a0aaa9e3949cfad66370d17df5783b", "is_disabled": 0, "rental_uris": {"android": "https://dc.lft.to/lastmile_qr_scan", "ios": "https://dc.lft.to/lastmile_qr_scan"}, "lon": -77.04417766666667, "fusion_lat": 0.0}, {"name": "2195ba88749d38b6cf0a1563502032bf", "fusion_lon": 0.0, "lat": 38.923258833333335, "is_reserved": 0, "type": "electric_scooter", "bike_id": "2195ba88749d38b6cf0a1563502032bf", "is_disabled": 0, "rental_uris": {"android": "https://dc.lft.to/lastmile_qr_scan", "ios": "https://dc.lft.to/lastmile_qr_scan"}, "lon": -77.02126733333333, "fusion_lat": 0.0}, {"name": "25efee2b1d10da8375f66332a76c609b", "fusion_lon": 0.0, "lat": 38.9005875, "is_reserved": 0, "type": "electric_scooter", "bike_id": "25efee2b1d10da8375f66332a76c609b", "is_disabled": 0, "rental_uris": {"android": "https://dc.lft.to/lastmile_qr_scan", "ios": "https://dc.lft.to/lastmile_qr_scan"}, "lon": -76.9346955, "fusion_lat": 0.0}, {"name": "84eb876c75904eb68f7bb8d28455e276", "fusion_lon": 0.0, "lat": 38.9300965, "is_reserved": 0, "type": "electric_scooter", "bike_id": "84eb876c75904eb68f7bb8d28455e276", "is_disabled": 0, "rental_uris": {"android": "https://dc.lft.to/lastmile_qr_scan", "ios": "https://dc.lft.to/lastmile_qr_scan"}, "lon": -77.01431, "fusion_lat": 0.0}, {"name": "d1d8e2e5c1d6693c47bee3142dfdd306", "fusion_lon": 0.0, "lat": 38.856967833333336, "is_reserved": 0, "type": "electric_scooter", "bike_id": "d1d8e2e5c1d6693c47bee3142dfdd306", "is_disabled": 0, "rental_uris": {"android": "https://dc.lft.to/lastmile_qr_scan", "ios": "https://dc.lft.to/lastmile_qr_scan"}, "lon": -76.9895975, "fusion_lat": 0.0}, {"name": "675476fd2c29798f7f32bd3ae3e53126", "fusion_lon": 0.0, "lat": 38.84425383333333, "is_reserved": 0, "type": "electric_scooter", "bike_id": "675476fd2c29798f7f32bd3ae3e53126", "is_disabled": 0, "rental_uris": {"android": "https://dc.lft.to/lastmile_qr_scan", "ios": "https://dc.lft.to/lastmile_qr_scan"}, "lon": -76.99782566666667, "fusion_lat": 0.0}, {"name": "0169000a5401c73f81546cbfb6677f03", "fusion_lon": 0.0, "lat": 38.908792166666665, "is_reserved": 0, "type": "electric_scooter", "bike_id": "0169000a5401c73f81546cbfb6677f03", "is_disabled": 0, "rental_uris": {"android": "https://dc.lft.to/lastmile_qr_scan", "ios": "https://dc.lft.to/lastmile_qr_scan"}, "lon": -77.07277716666667, "fusion_lat": 0.0}, {"name": "db0cee36eaf63e5e6c479d644d365ecb", "fusion_lon": 0.0, "lat": 39.05782333333333, "is_reserved": 0, "type": "electric_bike", "bike_id": "db0cee36eaf63e5e6c479d644d365ecb", "is_disabled": 0, "rental_uris": {"android": "https://dc.lft.to/lastmile_qr_scan", "ios": "https://dc.lft.to/lastmile_qr_scan"}, "lon": -77.15015766666667, "fusion_lat": 0.0}, {"name": "e6712df1424b13284c5a2109f343ab18", "fusion_lon": 0.0, "lat": 38.9027505, "is_reserved": 0, "type": "electric_scooter", "bike_id": "e6712df1424b13284c5a2109f343ab18", "is_disabled": 0, "rental_uris": {"android": "https://dc.lft.to/lastmile_qr_scan", "ios": "https://dc.lft.to/lastmile_qr_scan"}, "lon": -77.0580835, "fusion_lat": 0.0}, {"name": "1d12ff24219caa29e5439a912c6665d9", "fusion_lon": 0.0, "lat": 38.918149, "is_reserved": 0, "type": "electric_scooter", "bike_id": "1d12ff24219caa29e5439a912c6665d9", "is_disabled": 0, "rental_uris": {"android": "https://dc.lft.to/lastmile_qr_scan", "ios": "https://dc.lft.to/lastmile_qr_scan"}, "lon": -77.08959583333333, "fusion_lat": 0.0}, {"name": "bb7c0ae6c76d2175ef64287beef172a0", "fusion_lon": 0.0, "lat": 38.89603283333334, "is_reserved": 0, "type": "electric_scooter", "bike_id": "bb7c0ae6c76d2175ef64287beef172a0", "is_disabled": 0, "rental_uris": {"android": "https://dc.lft.to/lastmile_qr_scan", "ios": "https://dc.lft.to/lastmile_qr_scan"}, "lon": -77.022148, "fusion_lat": 0.0}, {"name": "a9927d540432cb102ea7391ab331e9e5", "fusion_lon": 0.0, "lat": 38.904753666666664, "is_reserved": 0, "type": "electric_scooter", "bike_id": "a9927d540432cb102ea7391ab331e9e5", "is_disabled": 0, "rental_uris": {"android": "https://dc.lft.to/lastmile_qr_scan", "ios": "https://dc.lft.to/lastmile_qr_scan"}, "lon": -77.04186666666666, "fusion_lat": 0.0}, {"name": "33d636b310cfce26870c93f9c1982de3", "fusion_lon": 0.0, "lat": 38.93858183333333, "is_reserved": 0, "type": "electric_scooter", "bike_id": "33d636b310cfce26870c93f9c1982de3", "is_disabled": 0, "rental_uris": {"android": "https://dc.lft.to/lastmile_qr_scan", "ios": "https://dc.lft.to/lastmile_qr_scan"}, "lon": -77.025927, "fusion_lat": 0.0}, {"name": "278a5f98317eca993222cd028fb8990f", "fusion_lon": 0.0, "lat": 38.91720466666666, "is_reserved": 0, "type": "electric_scooter", "bike_id": "278a5f98317eca993222cd028fb8990f", "is_disabled": 0, "rental_uris": {"android": "https://dc.lft.to/lastmile_qr_scan", "ios": "https://dc.lft.to/lastmile_qr_scan"}, "lon": -77.0344145, "fusion_lat": 0.0}, {"name": "0705a42969d52c0efe7a1f780aad7e2a", "fusion_lon": 0.0, "lat": 38.91473033333333, "is_reserved": 0, "type": "electric_scooter", "bike_id": "0705a42969d52c0efe7a1f780aad7e2a", "is_disabled": 0, "rental_uris": {"android": "https://dc.lft.to/lastmile_qr_scan", "ios": "https://dc.lft.to/lastmile_qr_scan"}, "lon": -77.03197333333334, "fusion_lat": 0.0}, {"name": "eacdde03712203513f981a0f8e5d6bac", "fusion_lon": 0.0, "lat": 38.962987166666665, "is_reserved": 0, "type": "electric_bike", "bike_id": "eacdde03712203513f981a0f8e5d6bac", "is_disabled": 0, "rental_uris": {"android": "https://dc.lft.to/lastmile_qr_scan", "ios": "https://dc.lft.to/lastmile_qr_scan"}, "lon": -77.01103316666666, "fusion_lat": 0.0}, {"name": "59fb2937a3117e6baa303e06b540b3a2", "fusion_lon": 0.0, "lat": 38.96321983333333, "is_reserved": 0, "type": "electric_bike", "bike_id": "59fb2937a3117e6baa303e06b540b3a2", "is_disabled": 0, "rental_uris": {"android": "https://dc.lft.to/lastmile_qr_scan", "ios": "https://dc.lft.to/lastmile_qr_scan"}, "lon": -76.97358933333334, "fusion_lat": 0.0}, {"name": "773d7967a414304de806353be3334699", "fusion_lon": 0.0, "lat": 38.9127155, "is_reserved": 0, "type": "electric_scooter", "bike_id": "773d7967a414304de806353be3334699", "is_disabled": 0, "rental_uris": {"android": "https://dc.lft.to/lastmile_qr_scan", "ios": "https://dc.lft.to/lastmile_qr_scan"}, "lon": -77.02224616666666, "fusion_lat": 0.0}, {"name": "c61351c86b1dfaeb76da9db82404a69e", "fusion_lon": 0.0, "lat": 38.929701333333334, "is_reserved": 0, "type": "electric_scooter", "bike_id": "c61351c86b1dfaeb76da9db82404a69e", "is_disabled": 0, "rental_uris": {"android": "https://dc.lft.to/lastmile_qr_scan", "ios": "https://dc.lft.to/lastmile_qr_scan"}, "lon": -77.0168865, "fusion_lat": 0.0}, {"name": "b1ed2fc8c6946929c8ce3e7b9bc6a900", "fusion_lon": 0.0, "lat": 38.9190735, "is_reserved": 0, "type": "electric_scooter", "bike_id": "b1ed2fc8c6946929c8ce3e7b9bc6a900", "is_disabled": 0, "rental_uris": {"android": "https://dc.lft.to/lastmile_qr_scan", "ios": "https://dc.lft.to/lastmile_qr_scan"}, "lon": -77.01537866666666, "fusion_lat": 0.0}, {"name": "c9d936c10dff36610f3feda7ab7aa4ea", "fusion_lon": 0.0, "lat": 38.9237915, "is_reserved": 0, "type": "electric_scooter", "bike_id": "c9d936c10dff36610f3feda7ab7aa4ea", "is_disabled": 0, "rental_uris": {"android": "https://dc.lft.to/lastmile_qr_scan", "ios": "https://dc.lft.to/lastmile_qr_scan"}, "lon": -77.0352805, "fusion_lat": 0.0}, {"name": "df643947446697cbef62ce24de889992", "fusion_lon": 0.0, "lat": 38.953563833333334, "is_reserved": 0, "type": "electric_bike", "bike_id": "df643947446697cbef62ce24de889992", "is_disabled": 0, "rental_uris": {"android": "https://dc.lft.to/lastmile_qr_scan", "ios": "https://dc.lft.to/lastmile_qr_scan"}, "lon": -76.98089766666666, "fusion_lat": 0.0}, {"name": "5c7e2e881a2a0a5f4fb77c3840b94b90", "fusion_lon": 0.0, "lat": 38.905118, "is_reserved": 0, "type": "electric_scooter", "bike_id": "5c7e2e881a2a0a5f4fb77c3840b94b90", "is_disabled": 0, "rental_uris": {"android": "https://dc.lft.to/lastmile_qr_scan", "ios": "https://dc.lft.to/lastmile_qr_scan"}, "lon": -77.07015183333333, "fusion_lat": 0.0}, {"name": "c867f149b094208dfc6a66e2bea42b71", "fusion_lon": 0.0, "lat": 38.9074, "is_reserved": 0, "type": "electric_scooter", "bike_id": "c867f149b094208dfc6a66e2bea42b71", "is_disabled": 0, "rental_uris": {"android": "https://dc.lft.to/lastmile_qr_scan", "ios": "https://dc.lft.to/lastmile_qr_scan"}, "lon": -77.04347816666667, "fusion_lat": 0.0}, {"name": "dbb6a5b7e3e77f0353b597980cf75fae", "fusion_lon": 0.0, "lat": 38.93070683333333, "is_reserved": 0, "type": "electric_scooter", "bike_id": "dbb6a5b7e3e77f0353b597980cf75fae", "is_disabled": 0, "rental_uris": {"android": "https://dc.lft.to/lastmile_qr_scan", "ios": "https://dc.lft.to/lastmile_qr_scan"}, "lon": -77.021889, "fusion_lat": 0.0}, {"name": "bcc3f3dce5f4f209b794016462f97b6c", "fusion_lon": 0.0, "lat": 38.897391, "is_reserved": 0, "type": "electric_scooter", "bike_id": "bcc3f3dce5f4f209b794016462f97b6c", "is_disabled": 0, "rental_uris": {"android": "https://dc.lft.to/lastmile_qr_scan", "ios": "https://dc.lft.to/lastmile_qr_scan"}, "lon": -77.00771016666667, "fusion_lat": 0.0}, {"name": "182309e1a20878bfe6b38a67092b6538", "fusion_lon": 0.0, "lat": 38.907605, "is_reserved": 0, "type": "electric_scooter", "bike_id": "182309e1a20878bfe6b38a67092b6538", "is_disabled": 0, "rental_uris": {"android": "https://dc.lft.to/lastmile_qr_scan", "ios": "https://dc.lft.to/lastmile_qr_scan"}, "lon": -77.04359016666666, "fusion_lat": 0.0}, {"name": "d3102eb837edeac94921d8695add4ddc", "fusion_lon": 0.0, "lat": 38.86952333333333, "is_reserved": 0, "type": "electric_scooter", "bike_id": "d3102eb837edeac94921d8695add4ddc", "is_disabled": 0, "rental_uris": {"android": "https://dc.lft.to/lastmile_qr_scan", "ios": "https://dc.lft.to/lastmile_qr_scan"}, "lon": -76.98170283333333, "fusion_lat": 0.0}, {"name": "ab2b3318a47078a97d5c5f974b9f6b13", "fusion_lon": 0.0, "lat": 38.90654633333333, "is_reserved": 0, "type": "electric_scooter", "bike_id": "ab2b3318a47078a97d5c5f974b9f6b13", "is_disabled": 0, "rental_uris": {"android": "https://dc.lft.to/lastmile_qr_scan", "ios": "https://dc.lft.to/lastmile_qr_scan"}, "lon": -77.03847366666666, "fusion_lat": 0.0}, {"name": "58b24b636f8f0e7febb8ae11485fefd2", "fusion_lon": 0.0, "lat": 38.900005166666666, "is_reserved": 0, "type": "electric_scooter", "bike_id": "58b24b636f8f0e7febb8ae11485fefd2", "is_disabled": 0, "rental_uris": {"android": "https://dc.lft.to/lastmile_qr_scan", "ios": "https://dc.lft.to/lastmile_qr_scan"}, "lon": -77.00134366666667, "fusion_lat": 0.0}, {"name": "fd1e7e844b7419896badc044329da2f4", "fusion_lon": 0.0, "lat": 38.8970305, "is_reserved": 0, "type": "electric_scooter", "bike_id": "fd1e7e844b7419896badc044329da2f4", "is_disabled": 0, "rental_uris": {"android": "https://dc.lft.to/lastmile_qr_scan", "ios": "https://dc.lft.to/lastmile_qr_scan"}, "lon": -77.02145716666666, "fusion_lat": 0.0}, {"name": "8444bbb3c829e3a8aeeff4c93583465c", "fusion_lon": 0.0, "lat": 38.9041065, "is_reserved": 0, "type": "electric_scooter", "bike_id": "8444bbb3c829e3a8aeeff4c93583465c", "is_disabled": 0, "rental_uris": {"android": "https://dc.lft.to/lastmile_qr_scan", "ios": "https://dc.lft.to/lastmile_qr_scan"}, "lon": -77.04342716666666, "fusion_lat": 0.0}, {"name": "0e34d8ae0f693328c919bc01bbeb1c97", "fusion_lon": 0.0, "lat": 38.89960833333333, "is_reserved": 0, "type": "electric_scooter", "bike_id": "0e34d8ae0f693328c919bc01bbeb1c97", "is_disabled": 0, "rental_uris": {"android": "https://dc.lft.to/lastmile_qr_scan", "ios": "https://dc.lft.to/lastmile_qr_scan"}, "lon": -77.0478995, "fusion_lat": 0.0}, {"name": "38e5ba1c271f04e6630612914f32d36e", "fusion_lon": 0.0, "lat": 38.90139083333333, "is_reserved": 0, "type": "electric_scooter", "bike_id": "38e5ba1c271f04e6630612914f32d36e", "is_disabled": 0, "rental_uris": {"android": "https://dc.lft.to/lastmile_qr_scan", "ios": "https://dc.lft.to/lastmile_qr_scan"}, "lon": -77.0197945, "fusion_lat": 0.0}, {"name": "75fa512afe276133728020f10e411cdf", "fusion_lon": 0.0, "lat": 38.9463265, "is_reserved": 0, "type": "electric_scooter", "bike_id": "75fa512afe276133728020f10e411cdf", "is_disabled": 0, "rental_uris": {"android": "https://dc.lft.to/lastmile_qr_scan", "ios": "https://dc.lft.to/lastmile_qr_scan"}, "lon": -77.01843716666667, "fusion_lat": 0.0}, {"name": "c777c27d53240adbb72b8f148378594c", "fusion_lon": 0.0, "lat": 38.903842833333336, "is_reserved": 0, "type": "electric_scooter", "bike_id": "c777c27d53240adbb72b8f148378594c", "is_disabled": 0, "rental_uris": {"android": "https://dc.lft.to/lastmile_qr_scan", "ios": "https://dc.lft.to/lastmile_qr_scan"}, "lon": -77.02503533333334, "fusion_lat": 0.0}, {"name": "d69c4a98cb26c7bb7ddc43f1eea48f27", "fusion_lon": 0.0, "lat": 38.916975, "is_reserved": 0, "type": "electric_scooter", "bike_id": "d69c4a98cb26c7bb7ddc43f1eea48f27", "is_disabled": 0, "rental_uris": {"android": "https://dc.lft.to/lastmile_qr_scan", "ios": "https://dc.lft.to/lastmile_qr_scan"}, "lon": -77.03124566666666, "fusion_lat": 0.0}, {"name": "dd07af803102c78b64daa21099d6def2", "fusion_lon": 0.0, "lat": 38.900784, "is_reserved": 0, "type": "electric_scooter", "bike_id": "dd07af803102c78b64daa21099d6def2", "is_disabled": 0, "rental_uris": {"android": "https://dc.lft.to/lastmile_qr_scan", "ios": "https://dc.lft.to/lastmile_qr_scan"}, "lon": -77.04687816666667, "fusion_lat": 0.0}, {"name": "535bd63c44ac77e187d466f0155810b2", "fusion_lon": 0.0, "lat": 38.898684833333334, "is_reserved": 0, "type": "electric_scooter", "bike_id": "535bd63c44ac77e187d466f0155810b2", "is_disabled": 0, "rental_uris": {"android": "https://dc.lft.to/lastmile_qr_scan", "ios": "https://dc.lft.to/lastmile_qr_scan"}, "lon": -76.94663283333334, "fusion_lat": 0.0}, {"name": "39e32ac82bf8c2e6b0a73c3876ea4d52", "fusion_lon": 0.0, "lat": 38.919003333333336, "is_reserved": 0, "type": "electric_scooter", "bike_id": "39e32ac82bf8c2e6b0a73c3876ea4d52", "is_disabled": 0, "rental_uris": {"android": "https://dc.lft.to/lastmile_qr_scan", "ios": "https://dc.lft.to/lastmile_qr_scan"}, "lon": -76.9874085, "fusion_lat": 0.0}, {"name": "5368ed400898de23c910a9409c085f79", "fusion_lon": 0.0, "lat": 38.89225116666667, "is_reserved": 0, "type": "electric_scooter", "bike_id": "5368ed400898de23c910a9409c085f79", "is_disabled": 0, "rental_uris": {"android": "https://dc.lft.to/lastmile_qr_scan", "ios": "https://dc.lft.to/lastmile_qr_scan"}, "lon": -77.02365983333334, "fusion_lat": 0.0}, {"name": "a0d3ab9c3d7540bd9f546e7a49d8d179", "fusion_lon": 0.0, "lat": 38.918948666666665, "is_reserved": 0, "type": "electric_scooter", "bike_id": "a0d3ab9c3d7540bd9f546e7a49d8d179", "is_disabled": 0, "rental_uris": {"android": "https://dc.lft.to/lastmile_qr_scan", "ios": "https://dc.lft.to/lastmile_qr_scan"}, "lon": -77.02299816666667, "fusion_lat": 0.0}, {"name": "436d3a3ad7c1402a43ccddfedb8ba247", "fusion_lon": 0.0, "lat": 38.913133333333334, "is_reserved": 0, "type": "electric_scooter", "bike_id": "436d3a3ad7c1402a43ccddfedb8ba247", "is_disabled": 0, "rental_uris": {"android": "https://dc.lft.to/lastmile_qr_scan", "ios": "https://dc.lft.to/lastmile_qr_scan"}, "lon": -77.0143435, "fusion_lat": 0.0}, {"name": "ee23ce7a5adc2b1bd4206e291c8381fc", "fusion_lon": 0.0, "lat": 38.90772583333333, "is_reserved": 0, "type": "electric_scooter", "bike_id": "ee23ce7a5adc2b1bd4206e291c8381fc", "is_disabled": 0, "rental_uris": {"android": "https://dc.lft.to/lastmile_qr_scan", "ios": "https://dc.lft.to/lastmile_qr_scan"}, "lon": -76.9783195, "fusion_lat": 0.0}, {"name": "0b9f5ace1917f7a182afee3a3d3ce58f", "fusion_lon": 0.0, "lat": 38.901946833333334, "is_reserved": 0, "type": "electric_scooter", "bike_id": "0b9f5ace1917f7a182afee3a3d3ce58f", "is_disabled": 0, "rental_uris": {"android": "https://dc.lft.to/lastmile_qr_scan", "ios": "https://dc.lft.to/lastmile_qr_scan"}, "lon": -77.01306016666666, "fusion_lat": 0.0}, {"name": "9a9f1a56d761404f0f02d48fda3a218a", "fusion_lon": 0.0, "lat": 38.86935733333333, "is_reserved": 0, "type": "electric_bike", "bike_id": "9a9f1a56d761404f0f02d48fda3a218a", "is_disabled": 0, "rental_uris": {"android": "https://dc.lft.to/lastmile_qr_scan", "ios": "https://dc.lft.to/lastmile_qr_scan"}, "lon": -77.09466166666667, "fusion_lat": 0.0}, {"name": "36337549371d2e9ea97284fd6ad6066f", "fusion_lon": 0.0, "lat": 38.916061, "is_reserved": 0, "type": "electric_bike", "bike_id": "36337549371d2e9ea97284fd6ad6066f", "is_disabled": 0, "rental_uris": {"android": "https://dc.lft.to/lastmile_qr_scan", "ios": "https://dc.lft.to/lastmile_qr_scan"}, "lon": -77.041668, "fusion_lat": 0.0}, {"name": "f667baa6030c957e2216dab5be3e900e", "fusion_lon": 0.0, "lat": 38.905431666666665, "is_reserved": 0, "type": "electric_scooter", "bike_id": "f667baa6030c957e2216dab5be3e900e", "is_disabled": 0, "rental_uris": {"android": "https://dc.lft.to/lastmile_qr_scan", "ios": "https://dc.lft.to/lastmile_qr_scan"}, "lon": -77.0514365, "fusion_lat": 0.0}, {"name": "99968648b886271f132104bcdfd8851c", "fusion_lon": 0.0, "lat": 38.887371, "is_reserved": 0, "type": "electric_scooter", "bike_id": "99968648b886271f132104bcdfd8851c", "is_disabled": 0, "rental_uris": {"android": "https://dc.lft.to/lastmile_qr_scan", "ios": "https://dc.lft.to/lastmile_qr_scan"}, "lon": -77.02845833333333, "fusion_lat": 0.0}, {"name": "ed3569950c125899b295dd5e97cfc6c1", "fusion_lon": 0.0, "lat": 38.88372366666667, "is_reserved": 0, "type": "electric_scooter", "bike_id": "ed3569950c125899b295dd5e97cfc6c1", "is_disabled": 0, "rental_uris": {"android": "https://dc.lft.to/lastmile_qr_scan", "ios": "https://dc.lft.to/lastmile_qr_scan"}, "lon": -76.99515583333333, "fusion_lat": 0.0}, {"name": "759b0ee12da5c422ef6603077262ee22", "fusion_lon": 0.0, "lat": 38.925149166666664, "is_reserved": 0, "type": "electric_scooter", "bike_id": "759b0ee12da5c422ef6603077262ee22", "is_disabled": 0, "rental_uris": {"android": "https://dc.lft.to/lastmile_qr_scan", "ios": "https://dc.lft.to/lastmile_qr_scan"}, "lon": -77.02358316666667, "fusion_lat": 0.0}, {"name": "95ec7331991143b80340f2cfdd571e83", "fusion_lon": 0.0, "lat": 38.893113666666665, "is_reserved": 0, "type": "electric_scooter", "bike_id": "95ec7331991143b80340f2cfdd571e83", "is_disabled": 0, "rental_uris": {"android": "https://dc.lft.to/lastmile_qr_scan", "ios": "https://dc.lft.to/lastmile_qr_scan"}, "lon": -77.050095, "fusion_lat": 0.0}, {"name": "88149f18092b31b7f987e1bf070098f9", "fusion_lon": 0.0, "lat": 38.87090933333333, "is_reserved": 0, "type": "electric_scooter", "bike_id": "88149f18092b31b7f987e1bf070098f9", "is_disabled": 0, "rental_uris": {"android": "https://dc.lft.to/lastmile_qr_scan", "ios": "https://dc.lft.to/lastmile_qr_scan"}, "lon": -77.00743083333333, "fusion_lat": 0.0}, {"name": "3e68c377b2f932fd09eb0b4d2fac1af3", "fusion_lon": 0.0, "lat": 38.898338, "is_reserved": 0, "type": "electric_scooter", "bike_id": "3e68c377b2f932fd09eb0b4d2fac1af3", "is_disabled": 0, "rental_uris": {"android": "https://dc.lft.to/lastmile_qr_scan", "ios": "https://dc.lft.to/lastmile_qr_scan"}, "lon": -77.02867016666667, "fusion_lat": 0.0}, {"name": "ff1073692c348dafde8fdf25cc88525d", "fusion_lon": 0.0, "lat": 38.928678833333336, "is_reserved": 0, "type": "electric_scooter", "bike_id": "ff1073692c348dafde8fdf25cc88525d", "is_disabled": 0, "rental_uris": {"android": "https://dc.lft.to/lastmile_qr_scan", "ios": "https://dc.lft.to/lastmile_qr_scan"}, "lon": -77.02851233333334, "fusion_lat": 0.0}, {"name": "37c8a89e741ac1934232ceba8717a7d8", "fusion_lon": 0.0, "lat": 38.884338166666666, "is_reserved": 0, "type": "electric_scooter", "bike_id": "37c8a89e741ac1934232ceba8717a7d8", "is_disabled": 0, "rental_uris": {"android": "https://dc.lft.to/lastmile_qr_scan", "ios": "https://dc.lft.to/lastmile_qr_scan"}, "lon": -76.9574495, "fusion_lat": 0.0}, {"name": "efaa52f1e84458d11323f836cf6f43e3", "fusion_lon": 0.0, "lat": 38.9357835, "is_reserved": 0, "type": "electric_scooter", "bike_id": "efaa52f1e84458d11323f836cf6f43e3", "is_disabled": 0, "rental_uris": {"android": "https://dc.lft.to/lastmile_qr_scan", "ios": "https://dc.lft.to/lastmile_qr_scan"}, "lon": -77.02124233333333, "fusion_lat": 0.0}, {"name": "183c0d9b41b2a5f306646790b83c12e1", "fusion_lon": 0.0, "lat": 38.93655616666667, "is_reserved": 0, "type": "electric_scooter", "bike_id": "183c0d9b41b2a5f306646790b83c12e1", "is_disabled": 0, "rental_uris": {"android": "https://dc.lft.to/lastmile_qr_scan", "ios": "https://dc.lft.to/lastmile_qr_scan"}, "lon": -77.026375, "fusion_lat": 0.0}, {"name": "50099e8599c1766587b40248b7c92c8c", "fusion_lon": 0.0, "lat": 38.8885225, "is_reserved": 0, "type": "electric_scooter", "bike_id": "50099e8599c1766587b40248b7c92c8c", "is_disabled": 0, "rental_uris": {"android": "https://dc.lft.to/lastmile_qr_scan", "ios": "https://dc.lft.to/lastmile_qr_scan"}, "lon": -76.92681966666666, "fusion_lat": 0.0}, {"name": "18554de55779d0495aeafa4f1bf616c4", "fusion_lon": 0.0, "lat": 38.909011166666666, "is_reserved": 0, "type": "electric_scooter", "bike_id": "18554de55779d0495aeafa4f1bf616c4", "is_disabled": 0, "rental_uris": {"android": "https://dc.lft.to/lastmile_qr_scan", "ios": "https://dc.lft.to/lastmile_qr_scan"}, "lon": -77.02701716666667, "fusion_lat": 0.0}, {"name": "24738f44f7faa59ded030b8eb356fbdc", "fusion_lon": 0.0, "lat": 38.919801666666665, "is_reserved": 0, "type": "electric_scooter", "bike_id": "24738f44f7faa59ded030b8eb356fbdc", "is_disabled": 0, "rental_uris": {"android": "https://dc.lft.to/lastmile_qr_scan", "ios": "https://dc.lft.to/lastmile_qr_scan"}, "lon": -77.01916083333333, "fusion_lat": 0.0}, {"name": "e6f8949006d3e81c319d9c6eb70a5982", "fusion_lon": 0.0, "lat": 38.927838666666666, "is_reserved": 0, "type": "electric_scooter", "bike_id": "e6f8949006d3e81c319d9c6eb70a5982", "is_disabled": 0, "rental_uris": {"android": "https://dc.lft.to/lastmile_qr_scan", "ios": "https://dc.lft.to/lastmile_qr_scan"}, "lon": -77.03153016666667, "fusion_lat": 0.0}, {"name": "98bd97b2b9c974eab5d032c2ffc915b9", "fusion_lon": 0.0, "lat": 38.87179283333333, "is_reserved": 0, "type": "electric_scooter", "bike_id": "98bd97b2b9c974eab5d032c2ffc915b9", "is_disabled": 0, "rental_uris": {"android": "https://dc.lft.to/lastmile_qr_scan", "ios": "https://dc.lft.to/lastmile_qr_scan"}, "lon": -77.0061155, "fusion_lat": 0.0}, {"name": "7ac889e6962c4b11eed0195b710e3f67", "fusion_lon": 0.0, "lat": 38.85775, "is_reserved": 0, "type": "electric_bike", "bike_id": "7ac889e6962c4b11eed0195b710e3f67", "is_disabled": 0, "rental_uris": {"android": "https://dc.lft.to/lastmile_qr_scan", "ios": "https://dc.lft.to/lastmile_qr_scan"}, "lon": -76.9876995, "fusion_lat": 0.0}, {"name": "786ed9bf12d159953eda04db925e2575", "fusion_lon": 0.0, "lat": 38.83810316666667, "is_reserved": 0, "type": "electric_bike", "bike_id": "786ed9bf12d159953eda04db925e2575", "is_disabled": 0, "rental_uris": {"android": "https://dc.lft.to/lastmile_qr_scan", "ios": "https://dc.lft.to/lastmile_qr_scan"}, "lon": -77.09521666666667, "fusion_lat": 0.0}, {"name": "2b417da014c24c1888257a00db3d63c4", "fusion_lon": 0.0, "lat": 38.93015316666666, "is_reserved": 0, "type": "electric_scooter", "bike_id": "2b417da014c24c1888257a00db3d63c4", "is_disabled": 0, "rental_uris": {"android": "https://dc.lft.to/lastmile_qr_scan", "ios": "https://dc.lft.to/lastmile_qr_scan"}, "lon": -77.06091416666666, "fusion_lat": 0.0}, {"name": "9ffbc6f54de91f14ec1b7ec06fae3c9d", "fusion_lon": 0.0, "lat": 38.927727, "is_reserved": 0, "type": "electric_scooter", "bike_id": "9ffbc6f54de91f14ec1b7ec06fae3c9d", "is_disabled": 0, "rental_uris": {"android": "https://dc.lft.to/lastmile_qr_scan", "ios": "https://dc.lft.to/lastmile_qr_scan"}, "lon": -77.03060516666666, "fusion_lat": 0.0}, {"name": "26fa826a3111e159bdca487f2bcb2615", "fusion_lon": 0.0, "lat": 38.893420166666665, "is_reserved": 0, "type": "electric_scooter", "bike_id": "26fa826a3111e159bdca487f2bcb2615", "is_disabled": 0, "rental_uris": {"android": "https://dc.lft.to/lastmile_qr_scan", "ios": "https://dc.lft.to/lastmile_qr_scan"}, "lon": -77.01719066666666, "fusion_lat": 0.0}, {"name": "0de73b950e2fee53843c7ceb5b20d204", "fusion_lon": 0.0, "lat": 38.89894833333334, "is_reserved": 0, "type": "electric_scooter", "bike_id": "0de73b950e2fee53843c7ceb5b20d204", "is_disabled": 0, "rental_uris": {"android": "https://dc.lft.to/lastmile_qr_scan", "ios": "https://dc.lft.to/lastmile_qr_scan"}, "lon": -76.97711933333333, "fusion_lat": 0.0}, {"name": "2fddbf1e77225a65e69a892393a0253e", "fusion_lon": 0.0, "lat": 38.955284, "is_reserved": 0, "type": "electric_scooter", "bike_id": "2fddbf1e77225a65e69a892393a0253e", "is_disabled": 0, "rental_uris": {"android": "https://dc.lft.to/lastmile_qr_scan", "ios": "https://dc.lft.to/lastmile_qr_scan"}, "lon": -77.0278045, "fusion_lat": 0.0}, {"name": "36d17a24abeca2a59cab728c9ecbd29f", "fusion_lon": 0.0, "lat": 38.91929416666667, "is_reserved": 0, "type": "electric_scooter", "bike_id": "36d17a24abeca2a59cab728c9ecbd29f", "is_disabled": 0, "rental_uris": {"android": "https://dc.lft.to/lastmile_qr_scan", "ios": "https://dc.lft.to/lastmile_qr_scan"}, "lon": -77.02485, "fusion_lat": 0.0}, {"name": "da98e8dfd086a16b722e80cb275015a8", "fusion_lon": 0.0, "lat": 38.90807916666667, "is_reserved": 0, "type": "electric_scooter", "bike_id": "da98e8dfd086a16b722e80cb275015a8", "is_disabled": 0, "rental_uris": {"android": "https://dc.lft.to/lastmile_qr_scan", "ios": "https://dc.lft.to/lastmile_qr_scan"}, "lon": -77.03653216666666, "fusion_lat": 0.0}, {"name": "c4fd50ddf8d8e27780cbdba7dbee43ff", "fusion_lon": 0.0, "lat": 38.92970483333333, "is_reserved": 0, "type": "electric_scooter", "bike_id": "c4fd50ddf8d8e27780cbdba7dbee43ff", "is_disabled": 0, "rental_uris": {"android": "https://dc.lft.to/lastmile_qr_scan", "ios": "https://dc.lft.to/lastmile_qr_scan"}, "lon": -77.02951333333333, "fusion_lat": 0.0}, {"name": "0a07a74b82189593288166e684d71adb", "fusion_lon": 0.0, "lat": 38.871771833333334, "is_reserved": 0, "type": "electric_scooter", "bike_id": "0a07a74b82189593288166e684d71adb", "is_disabled": 0, "rental_uris": {"android": "https://dc.lft.to/lastmile_qr_scan", "ios": "https://dc.lft.to/lastmile_qr_scan"}, "lon": -77.00612383333333, "fusion_lat": 0.0}, {"name": "7af8b1b8026ca9d13e96006442e0fa93", "fusion_lon": 0.0, "lat": 38.921178, "is_reserved": 0, "type": "electric_scooter", "bike_id": "7af8b1b8026ca9d13e96006442e0fa93", "is_disabled": 0, "rental_uris": {"android": "https://dc.lft.to/lastmile_qr_scan", "ios": "https://dc.lft.to/lastmile_qr_scan"}, "lon": -77.04378033333333, "fusion_lat": 0.0}, {"name": "a260f5783a230d45d58e92aad2743ec0", "fusion_lon": 0.0, "lat": 38.95851733333333, "is_reserved": 0, "type": "electric_scooter", "bike_id": "a260f5783a230d45d58e92aad2743ec0", "is_disabled": 0, "rental_uris": {"android": "https://dc.lft.to/lastmile_qr_scan", "ios": "https://dc.lft.to/lastmile_qr_scan"}, "lon": -77.0700565, "fusion_lat": 0.0}, {"name": "a2e6fbfbbce80cddac6988695078b9a7", "fusion_lon": 0.0, "lat": 38.904787, "is_reserved": 0, "type": "electric_scooter", "bike_id": "a2e6fbfbbce80cddac6988695078b9a7", "is_disabled": 0, "rental_uris": {"android": "https://dc.lft.to/lastmile_qr_scan", "ios": "https://dc.lft.to/lastmile_qr_scan"}, "lon": -77.04836466666667, "fusion_lat": 0.0}, {"name": "45aabeca53e535b013285b953dcf7922", "fusion_lon": 0.0, "lat": 38.844281333333335, "is_reserved": 0, "type": "electric_scooter", "bike_id": "45aabeca53e535b013285b953dcf7922", "is_disabled": 0, "rental_uris": {"android": "https://dc.lft.to/lastmile_qr_scan", "ios": "https://dc.lft.to/lastmile_qr_scan"}, "lon": -76.99780533333333, "fusion_lat": 0.0}, {"name": "c96cf77450aae81c097910f991785f89", "fusion_lon": 0.0, "lat": 38.92251916666667, "is_reserved": 0, "type": "electric_bike", "bike_id": "c96cf77450aae81c097910f991785f89", "is_disabled": 0, "rental_uris": {"android": "https://dc.lft.to/lastmile_qr_scan", "ios": "https://dc.lft.to/lastmile_qr_scan"}, "lon": -77.01950483333333, "fusion_lat": 0.0}, {"name": "712154c148dbaf9715f36aa116f771f5", "fusion_lon": 0.0, "lat": 38.90824416666667, "is_reserved": 0, "type": "electric_scooter", "bike_id": "712154c148dbaf9715f36aa116f771f5", "is_disabled": 0, "rental_uris": {"android": "https://dc.lft.to/lastmile_qr_scan", "ios": "https://dc.lft.to/lastmile_qr_scan"}, "lon": -77.033109, "fusion_lat": 0.0}, {"name": "138ba7527907053b65d31004d37b419e", "fusion_lon": 0.0, "lat": 38.8911095, "is_reserved": 0, "type": "electric_scooter", "bike_id": "138ba7527907053b65d31004d37b419e", "is_disabled": 0, "rental_uris": {"android": "https://dc.lft.to/lastmile_qr_scan", "ios": "https://dc.lft.to/lastmile_qr_scan"}, "lon": -76.99163366666667, "fusion_lat": 0.0}, {"name": "f0cbc4b428f884c08155aa252288c2dd", "fusion_lon": 0.0, "lat": 38.92278833333334, "is_reserved": 0, "type": "electric_scooter", "bike_id": "f0cbc4b428f884c08155aa252288c2dd", "is_disabled": 0, "rental_uris": {"android": "https://dc.lft.to/lastmile_qr_scan", "ios": "https://dc.lft.to/lastmile_qr_scan"}, "lon": -77.0446105, "fusion_lat": 0.0}, {"name": "6213ddbc813ef8cf43edc416dbd05361", "fusion_lon": 0.0, "lat": 38.916941, "is_reserved": 0, "type": "electric_scooter", "bike_id": "6213ddbc813ef8cf43edc416dbd05361", "is_disabled": 0, "rental_uris": {"android": "https://dc.lft.to/lastmile_qr_scan", "ios": "https://dc.lft.to/lastmile_qr_scan"}, "lon": -77.03393366666667, "fusion_lat": 0.0}, {"name": "98612b70df9f9401fda02ef06fd5dd1f", "fusion_lon": 0.0, "lat": 38.887472, "is_reserved": 0, "type": "electric_scooter", "bike_id": "98612b70df9f9401fda02ef06fd5dd1f", "is_disabled": 0, "rental_uris": {"android": "https://dc.lft.to/lastmile_qr_scan", "ios": "https://dc.lft.to/lastmile_qr_scan"}, "lon": -77.02577183333334, "fusion_lat": 0.0}, {"name": "2bb4afb5cd60cb9f9b9bac1405d68f68", "fusion_lon": 0.0, "lat": 38.93692383333333, "is_reserved": 0, "type": "electric_bike", "bike_id": "2bb4afb5cd60cb9f9b9bac1405d68f68", "is_disabled": 0, "rental_uris": {"android": "https://dc.lft.to/lastmile_qr_scan", "ios": "https://dc.lft.to/lastmile_qr_scan"}, "lon": -76.99057883333333, "fusion_lat": 0.0}, {"name": "ac7756f1131a39d73571800105b10922", "fusion_lon": 0.0, "lat": 38.895432666666665, "is_reserved": 0, "type": "electric_scooter", "bike_id": "ac7756f1131a39d73571800105b10922", "is_disabled": 0, "rental_uris": {"android": "https://dc.lft.to/lastmile_qr_scan", "ios": "https://dc.lft.to/lastmile_qr_scan"}, "lon": -76.94915633333333, "fusion_lat": 0.0}, {"name": "e9598d5f6407748a86fdbf53af628534", "fusion_lon": 0.0, "lat": 38.90263266666667, "is_reserved": 0, "type": "electric_scooter", "bike_id": "e9598d5f6407748a86fdbf53af628534", "is_disabled": 0, "rental_uris": {"android": "https://dc.lft.to/lastmile_qr_scan", "ios": "https://dc.lft.to/lastmile_qr_scan"}, "lon": -77.0032585, "fusion_lat": 0.0}, {"name": "c487f24bec6612a8f38a445ef5d29975", "fusion_lon": 0.0, "lat": 38.89221216666667, "is_reserved": 0, "type": "electric_scooter", "bike_id": "c487f24bec6612a8f38a445ef5d29975", "is_disabled": 0, "rental_uris": {"android": "https://dc.lft.to/lastmile_qr_scan", "ios": "https://dc.lft.to/lastmile_qr_scan"}, "lon": -77.04797283333333, "fusion_lat": 0.0}, {"name": "79f6dc7b06d366509cea8e8b4d4f594a", "fusion_lon": 0.0, "lat": 38.90057183333333, "is_reserved": 0, "type": "electric_scooter", "bike_id": "79f6dc7b06d366509cea8e8b4d4f594a", "is_disabled": 0, "rental_uris": {"android": "https://dc.lft.to/lastmile_qr_scan", "ios": "https://dc.lft.to/lastmile_qr_scan"}, "lon": -77.049008, "fusion_lat": 0.0}, {"name": "826fdcb65e0c1d7b6f6e232462832660", "fusion_lon": 0.0, "lat": 38.900402666666665, "is_reserved": 0, "type": "electric_scooter", "bike_id": "826fdcb65e0c1d7b6f6e232462832660", "is_disabled": 0, "rental_uris": {"android": "https://dc.lft.to/lastmile_qr_scan", "ios": "https://dc.lft.to/lastmile_qr_scan"}, "lon": -77.01776783333334, "fusion_lat": 0.0}, {"name": "6c2b3fc3f0ace1ee77779b03bd052ccc", "fusion_lon": 0.0, "lat": 38.834557333333336, "is_reserved": 0, "type": "electric_scooter", "bike_id": "6c2b3fc3f0ace1ee77779b03bd052ccc", "is_disabled": 0, "rental_uris": {"android": "https://dc.lft.to/lastmile_qr_scan", "ios": "https://dc.lft.to/lastmile_qr_scan"}, "lon": -76.99075516666667, "fusion_lat": 0.0}, {"name": "08248bf019afb402759bdfc563be42ca", "fusion_lon": 0.0, "lat": 38.896369166666666, "is_reserved": 0, "type": "electric_scooter", "bike_id": "08248bf019afb402759bdfc563be42ca", "is_disabled": 0, "rental_uris": {"android": "https://dc.lft.to/lastmile_qr_scan", "ios": "https://dc.lft.to/lastmile_qr_scan"}, "lon": -77.029765, "fusion_lat": 0.0}, {"name": "d32e6e5c0abfad6fbdaae36cfc884786", "fusion_lon": 0.0, "lat": 38.904422, "is_reserved": 0, "type": "electric_scooter", "bike_id": "d32e6e5c0abfad6fbdaae36cfc884786", "is_disabled": 0, "rental_uris": {"android": "https://dc.lft.to/lastmile_qr_scan", "ios": "https://dc.lft.to/lastmile_qr_scan"}, "lon": -76.98493, "fusion_lat": 0.0}, {"name": "7a79d4c0169511758ed6d222fc698797", "fusion_lon": 0.0, "lat": 38.9118905, "is_reserved": 0, "type": "electric_scooter", "bike_id": "7a79d4c0169511758ed6d222fc698797", "is_disabled": 0, "rental_uris": {"android": "https://dc.lft.to/lastmile_qr_scan", "ios": "https://dc.lft.to/lastmile_qr_scan"}, "lon": -77.017836, "fusion_lat": 0.0}, {"name": "641046ac96e059a59fdb988ab93eecd2", "fusion_lon": 0.0, "lat": 38.9000445, "is_reserved": 0, "type": "electric_scooter", "bike_id": "641046ac96e059a59fdb988ab93eecd2", "is_disabled": 0, "rental_uris": {"android": "https://dc.lft.to/lastmile_qr_scan", "ios": "https://dc.lft.to/lastmile_qr_scan"}, "lon": -76.996818, "fusion_lat": 0.0}, {"name": "e5efbd28572a66989fa5612ace87b400", "fusion_lon": 0.0, "lat": 38.9002985, "is_reserved": 0, "type": "electric_scooter", "bike_id": "e5efbd28572a66989fa5612ace87b400", "is_disabled": 0, "rental_uris": {"android": "https://dc.lft.to/lastmile_qr_scan", "ios": "https://dc.lft.to/lastmile_qr_scan"}, "lon": -76.98042516666666, "fusion_lat": 0.0}, {"name": "6ad1287f7a154502a65ccd02c3b8d1a7", "fusion_lon": 0.0, "lat": 38.910347, "is_reserved": 0, "type": "electric_scooter", "bike_id": "6ad1287f7a154502a65ccd02c3b8d1a7", "is_disabled": 0, "rental_uris": {"android": "https://dc.lft.to/lastmile_qr_scan", "ios": "https://dc.lft.to/lastmile_qr_scan"}, "lon": -77.02924416666667, "fusion_lat": 0.0}, {"name": "4f0d5aeb87571c537e4ee56ce19bf052", "fusion_lon": 0.0, "lat": 38.9518385, "is_reserved": 0, "type": "electric_scooter", "bike_id": "4f0d5aeb87571c537e4ee56ce19bf052", "is_disabled": 0, "rental_uris": {"android": "https://dc.lft.to/lastmile_qr_scan", "ios": "https://dc.lft.to/lastmile_qr_scan"}, "lon": -77.02724433333333, "fusion_lat": 0.0}, {"name": "7d2588d0ca6c83a55802810d6b3fb036", "fusion_lon": 0.0, "lat": 38.927895, "is_reserved": 0, "type": "electric_scooter", "bike_id": "7d2588d0ca6c83a55802810d6b3fb036", "is_disabled": 0, "rental_uris": {"android": "https://dc.lft.to/lastmile_qr_scan", "ios": "https://dc.lft.to/lastmile_qr_scan"}, "lon": -77.03020533333333, "fusion_lat": 0.0}, {"name": "8b4389b9992dc9b2e467afd676f6c762", "fusion_lon": 0.0, "lat": 38.901736666666665, "is_reserved": 0, "type": "electric_scooter", "bike_id": "8b4389b9992dc9b2e467afd676f6c762", "is_disabled": 0, "rental_uris": {"android": "https://dc.lft.to/lastmile_qr_scan", "ios": "https://dc.lft.to/lastmile_qr_scan"}, "lon": -77.02469566666667, "fusion_lat": 0.0}, {"name": "4395870adc3fbf8c11a231dd75be9558", "fusion_lon": 0.0, "lat": 38.95756633333333, "is_reserved": 0, "type": "electric_scooter", "bike_id": "4395870adc3fbf8c11a231dd75be9558", "is_disabled": 0, "rental_uris": {"android": "https://dc.lft.to/lastmile_qr_scan", "ios": "https://dc.lft.to/lastmile_qr_scan"}, "lon": -77.02099116666666, "fusion_lat": 0.0}, {"name": "8553db13e420cbbb782eda652af2ba54", "fusion_lon": 0.0, "lat": 38.88814766666667, "is_reserved": 0, "type": "electric_scooter", "bike_id": "8553db13e420cbbb782eda652af2ba54", "is_disabled": 0, "rental_uris": {"android": "https://dc.lft.to/lastmile_qr_scan", "ios": "https://dc.lft.to/lastmile_qr_scan"}, "lon": -76.933437, "fusion_lat": 0.0}, {"name": "f3140d59b742cc5de4fecb574976a206", "fusion_lon": 0.0, "lat": 38.91816133333333, "is_reserved": 0, "type": "electric_scooter", "bike_id": "f3140d59b742cc5de4fecb574976a206", "is_disabled": 0, "rental_uris": {"android": "https://dc.lft.to/lastmile_qr_scan", "ios": "https://dc.lft.to/lastmile_qr_scan"}, "lon": -77.03188416666667, "fusion_lat": 0.0}, {"name": "a120ea7c791c83932205e7bcbbdc08b3", "fusion_lon": 0.0, "lat": 38.89723433333333, "is_reserved": 0, "type": "electric_scooter", "bike_id": "a120ea7c791c83932205e7bcbbdc08b3", "is_disabled": 0, "rental_uris": {"android": "https://dc.lft.to/lastmile_qr_scan", "ios": "https://dc.lft.to/lastmile_qr_scan"}, "lon": -77.04281816666666, "fusion_lat": 0.0}, {"name": "d8d9aa045706dd3f362b4eaf35927402", "fusion_lon": 0.0, "lat": 38.8850805, "is_reserved": 0, "type": "electric_scooter", "bike_id": "d8d9aa045706dd3f362b4eaf35927402", "is_disabled": 0, "rental_uris": {"android": "https://dc.lft.to/lastmile_qr_scan", "ios": "https://dc.lft.to/lastmile_qr_scan"}, "lon": -77.02095783333333, "fusion_lat": 0.0}, {"name": "bf815b68d65b18898c70d9cfd8c51266", "fusion_lon": 0.0, "lat": 38.924646333333335, "is_reserved": 0, "type": "electric_scooter", "bike_id": "bf815b68d65b18898c70d9cfd8c51266", "is_disabled": 0, "rental_uris": {"android": "https://dc.lft.to/lastmile_qr_scan", "ios": "https://dc.lft.to/lastmile_qr_scan"}, "lon": -77.0220535, "fusion_lat": 0.0}, {"name": "10343c401154efcb55124f960fa892e5", "fusion_lon": 0.0, "lat": 38.8964175, "is_reserved": 0, "type": "electric_scooter", "bike_id": "10343c401154efcb55124f960fa892e5", "is_disabled": 0, "rental_uris": {"android": "https://dc.lft.to/lastmile_qr_scan", "ios": "https://dc.lft.to/lastmile_qr_scan"}, "lon": -77.0283345, "fusion_lat": 0.0}, {"name": "7c184674e8a60cc1e379c8dce75dbdcb", "fusion_lon": 0.0, "lat": 38.92093933333334, "is_reserved": 0, "type": "electric_scooter", "bike_id": "7c184674e8a60cc1e379c8dce75dbdcb", "is_disabled": 0, "rental_uris": {"android": "https://dc.lft.to/lastmile_qr_scan", "ios": "https://dc.lft.to/lastmile_qr_scan"}, "lon": -77.00436333333333, "fusion_lat": 0.0}, {"name": "a06c3a72a6caf09bff0d44851f33048b", "fusion_lon": 0.0, "lat": 38.92210983333333, "is_reserved": 0, "type": "electric_bike", "bike_id": "a06c3a72a6caf09bff0d44851f33048b", "is_disabled": 0, "rental_uris": {"android": "https://dc.lft.to/lastmile_qr_scan", "ios": "https://dc.lft.to/lastmile_qr_scan"}, "lon": -76.98798966666666, "fusion_lat": 0.0}, {"name": "2e082e8350a3ea5c8515d0e7ad02cead", "fusion_lon": 0.0, "lat": 38.911975166666664, "is_reserved": 0, "type": "electric_scooter", "bike_id": "2e082e8350a3ea5c8515d0e7ad02cead", "is_disabled": 0, "rental_uris": {"android": "https://dc.lft.to/lastmile_qr_scan", "ios": "https://dc.lft.to/lastmile_qr_scan"}, "lon": -77.03838983333333, "fusion_lat": 0.0}, {"name": "84253744aa24f0656132ab51832f7cab", "fusion_lon": 0.0, "lat": 38.92030966666667, "is_reserved": 0, "type": "electric_scooter", "bike_id": "84253744aa24f0656132ab51832f7cab", "is_disabled": 0, "rental_uris": {"android": "https://dc.lft.to/lastmile_qr_scan", "ios": "https://dc.lft.to/lastmile_qr_scan"}, "lon": -77.010073, "fusion_lat": 0.0}, {"name": "fe535525886ee094e977afa5ae70bcc7", "fusion_lon": 0.0, "lat": 38.86090266666667, "is_reserved": 0, "type": "electric_bike", "bike_id": "fe535525886ee094e977afa5ae70bcc7", "is_disabled": 0, "rental_uris": {"android": "https://dc.lft.to/lastmile_qr_scan", "ios": "https://dc.lft.to/lastmile_qr_scan"}, "lon": -77.095924, "fusion_lat": 0.0}, {"name": "61d2873404da18c551bd4c1863a97979", "fusion_lon": 0.0, "lat": 38.8860645, "is_reserved": 0, "type": "electric_scooter", "bike_id": "61d2873404da18c551bd4c1863a97979", "is_disabled": 0, "rental_uris": {"android": "https://dc.lft.to/lastmile_qr_scan", "ios": "https://dc.lft.to/lastmile_qr_scan"}, "lon": -76.99510783333334, "fusion_lat": 0.0}, {"name": "42572a346adafa0429ff2ed407d193ef", "fusion_lon": 0.0, "lat": 38.88458166666667, "is_reserved": 0, "type": "electric_scooter", "bike_id": "42572a346adafa0429ff2ed407d193ef", "is_disabled": 0, "rental_uris": {"android": "https://dc.lft.to/lastmile_qr_scan", "ios": "https://dc.lft.to/lastmile_qr_scan"}, "lon": -76.92622583333333, "fusion_lat": 0.0}, {"name": "d61a16c6464816d989b825a33cd6a8c8", "fusion_lon": 0.0, "lat": 38.906577, "is_reserved": 0, "type": "electric_scooter", "bike_id": "d61a16c6464816d989b825a33cd6a8c8", "is_disabled": 0, "rental_uris": {"android": "https://dc.lft.to/lastmile_qr_scan", "ios": "https://dc.lft.to/lastmile_qr_scan"}, "lon": -77.03850166666666, "fusion_lat": 0.0}, {"name": "00467860510ece0ad3ae7603370ec06e", "fusion_lon": 0.0, "lat": 38.962246, "is_reserved": 0, "type": "electric_bike", "bike_id": "00467860510ece0ad3ae7603370ec06e", "is_disabled": 0, "rental_uris": {"android": "https://dc.lft.to/lastmile_qr_scan", "ios": "https://dc.lft.to/lastmile_qr_scan"}, "lon": -77.02620683333333, "fusion_lat": 0.0}, {"name": "1c090d69c8765fd05ea8d6a12f21aac7", "fusion_lon": 0.0, "lat": 38.92471783333333, "is_reserved": 0, "type": "electric_scooter", "bike_id": "1c090d69c8765fd05ea8d6a12f21aac7", "is_disabled": 0, "rental_uris": {"android": "https://dc.lft.to/lastmile_qr_scan", "ios": "https://dc.lft.to/lastmile_qr_scan"}, "lon": -77.03898633333333, "fusion_lat": 0.0}, {"name": "363c1beaf383052cd5722185e5eca921", "fusion_lon": 0.0, "lat": 38.91337016666667, "is_reserved": 0, "type": "electric_scooter", "bike_id": "363c1beaf383052cd5722185e5eca921", "is_disabled": 0, "rental_uris": {"android": "https://dc.lft.to/lastmile_qr_scan", "ios": "https://dc.lft.to/lastmile_qr_scan"}, "lon": -77.03674783333334, "fusion_lat": 0.0}, {"name": "fcdc8ce7fbccfac7e61867556a12caa3", "fusion_lon": 0.0, "lat": 38.87080816666667, "is_reserved": 0, "type": "electric_scooter", "bike_id": "fcdc8ce7fbccfac7e61867556a12caa3", "is_disabled": 0, "rental_uris": {"android": "https://dc.lft.to/lastmile_qr_scan", "ios": "https://dc.lft.to/lastmile_qr_scan"}, "lon": -77.01351933333333, "fusion_lat": 0.0}, {"name": "4f6354dcfe195d03e5bbd2813e48cbf6", "fusion_lon": 0.0, "lat": 38.905373833333336, "is_reserved": 0, "type": "electric_scooter", "bike_id": "4f6354dcfe195d03e5bbd2813e48cbf6", "is_disabled": 0, "rental_uris": {"android": "https://dc.lft.to/lastmile_qr_scan", "ios": "https://dc.lft.to/lastmile_qr_scan"}, "lon": -77.04142916666666, "fusion_lat": 0.0}, {"name": "65696b08b094747723e99ee8f3b0f97d", "fusion_lon": 0.0, "lat": 38.91408533333333, "is_reserved": 0, "type": "electric_scooter", "bike_id": "65696b08b094747723e99ee8f3b0f97d", "is_disabled": 0, "rental_uris": {"android": "https://dc.lft.to/lastmile_qr_scan", "ios": "https://dc.lft.to/lastmile_qr_scan"}, "lon": -77.04176983333333, "fusion_lat": 0.0}, {"name": "517e9392c3c5eda5aabbd1b8a9119f8d", "fusion_lon": 0.0, "lat": 38.89235166666667, "is_reserved": 0, "type": "electric_scooter", "bike_id": "517e9392c3c5eda5aabbd1b8a9119f8d", "is_disabled": 0, "rental_uris": {"android": "https://dc.lft.to/lastmile_qr_scan", "ios": "https://dc.lft.to/lastmile_qr_scan"}, "lon": -77.03209933333333, "fusion_lat": 0.0}, {"name": "f4dcc259a3cb347ce3cddd80d7131bfc", "fusion_lon": 0.0, "lat": 38.90239733333333, "is_reserved": 0, "type": "electric_scooter", "bike_id": "f4dcc259a3cb347ce3cddd80d7131bfc", "is_disabled": 0, "rental_uris": {"android": "https://dc.lft.to/lastmile_qr_scan", "ios": "https://dc.lft.to/lastmile_qr_scan"}, "lon": -77.00195, "fusion_lat": 0.0}, {"name": "1408fff28a937abfdc6dcaa3c8cc57f3", "fusion_lon": 0.0, "lat": 38.921557, "is_reserved": 0, "type": "electric_scooter", "bike_id": "1408fff28a937abfdc6dcaa3c8cc57f3", "is_disabled": 0, "rental_uris": {"android": "https://dc.lft.to/lastmile_qr_scan", "ios": "https://dc.lft.to/lastmile_qr_scan"}, "lon": -77.03467516666667, "fusion_lat": 0.0}, {"name": "84305870a7f1e885262a3bcc6a5d2918", "fusion_lon": 0.0, "lat": 38.93448933333333, "is_reserved": 0, "type": "electric_scooter", "bike_id": "84305870a7f1e885262a3bcc6a5d2918", "is_disabled": 0, "rental_uris": {"android": "https://dc.lft.to/lastmile_qr_scan", "ios": "https://dc.lft.to/lastmile_qr_scan"}, "lon": -77.02728716666667, "fusion_lat": 0.0}, {"name": "9f79033b33c076a9c6f48c244e4f4f40", "fusion_lon": 0.0, "lat": 38.905985666666666, "is_reserved": 0, "type": "electric_scooter", "bike_id": "9f79033b33c076a9c6f48c244e4f4f40", "is_disabled": 0, "rental_uris": {"android": "https://dc.lft.to/lastmile_qr_scan", "ios": "https://dc.lft.to/lastmile_qr_scan"}, "lon": -77.02112166666667, "fusion_lat": 0.0}, {"name": "2ae16df66ccaa5919323e86213e3f7c4", "fusion_lon": 0.0, "lat": 38.905466833333335, "is_reserved": 0, "type": "electric_scooter", "bike_id": "2ae16df66ccaa5919323e86213e3f7c4", "is_disabled": 0, "rental_uris": {"android": "https://dc.lft.to/lastmile_qr_scan", "ios": "https://dc.lft.to/lastmile_qr_scan"}, "lon": -77.02972533333333, "fusion_lat": 0.0}, {"name": "4746046eaae11e3eaf8b9df5398c932d", "fusion_lon": 0.0, "lat": 38.9254095, "is_reserved": 0, "type": "electric_scooter", "bike_id": "4746046eaae11e3eaf8b9df5398c932d", "is_disabled": 0, "rental_uris": {"android": "https://dc.lft.to/lastmile_qr_scan", "ios": "https://dc.lft.to/lastmile_qr_scan"}, "lon": -76.99558566666667, "fusion_lat": 0.0}, {"name": "5eb48efa95a59348b8156489d7b89638", "fusion_lon": 0.0, "lat": 38.91813466666667, "is_reserved": 0, "type": "electric_scooter", "bike_id": "5eb48efa95a59348b8156489d7b89638", "is_disabled": 0, "rental_uris": {"android": "https://dc.lft.to/lastmile_qr_scan", "ios": "https://dc.lft.to/lastmile_qr_scan"}, "lon": -77.03661116666666, "fusion_lat": 0.0}, {"name": "170763effe19459c9f659269e120e8b0", "fusion_lon": 0.0, "lat": 38.8986755, "is_reserved": 0, "type": "electric_scooter", "bike_id": "170763effe19459c9f659269e120e8b0", "is_disabled": 0, "rental_uris": {"android": "https://dc.lft.to/lastmile_qr_scan", "ios": "https://dc.lft.to/lastmile_qr_scan"}, "lon": -76.9275095, "fusion_lat": 0.0}, {"name": "56a44c2e98abbdf7f7baf37e959d6a95", "fusion_lon": 0.0, "lat": 38.91108283333333, "is_reserved": 0, "type": "electric_scooter", "bike_id": "56a44c2e98abbdf7f7baf37e959d6a95", "is_disabled": 0, "rental_uris": {"android": "https://dc.lft.to/lastmile_qr_scan", "ios": "https://dc.lft.to/lastmile_qr_scan"}, "lon": -77.00363166666666, "fusion_lat": 0.0}, {"name": "0e29b79581dac59558528decc52056a5", "fusion_lon": 0.0, "lat": 38.90528116666667, "is_reserved": 0, "type": "electric_scooter", "bike_id": "0e29b79581dac59558528decc52056a5", "is_disabled": 0, "rental_uris": {"android": "https://dc.lft.to/lastmile_qr_scan", "ios": "https://dc.lft.to/lastmile_qr_scan"}, "lon": -77.0308425, "fusion_lat": 0.0}, {"name": "0e4b7d0754cfbed63c817bd50c93507e", "fusion_lon": 0.0, "lat": 38.855382166666665, "is_reserved": 0, "type": "electric_scooter", "bike_id": "0e4b7d0754cfbed63c817bd50c93507e", "is_disabled": 0, "rental_uris": {"android": "https://dc.lft.to/lastmile_qr_scan", "ios": "https://dc.lft.to/lastmile_qr_scan"}, "lon": -76.98415216666666, "fusion_lat": 0.0}, {"name": "73d29780582f07c1996c1504f14e61ee", "fusion_lon": 0.0, "lat": 38.880158, "is_reserved": 0, "type": "electric_scooter", "bike_id": "73d29780582f07c1996c1504f14e61ee", "is_disabled": 0, "rental_uris": {"android": "https://dc.lft.to/lastmile_qr_scan", "ios": "https://dc.lft.to/lastmile_qr_scan"}, "lon": -76.93113616666666, "fusion_lat": 0.0}, {"name": "4c4de85b970fcfe887597a1a3ee4d6ab", "fusion_lon": 0.0, "lat": 38.95943716666667, "is_reserved": 0, "type": "electric_scooter", "bike_id": "4c4de85b970fcfe887597a1a3ee4d6ab", "is_disabled": 0, "rental_uris": {"android": "https://dc.lft.to/lastmile_qr_scan", "ios": "https://dc.lft.to/lastmile_qr_scan"}, "lon": -77.0305795, "fusion_lat": 0.0}, {"name": "675c1994f920c12c98cb04c770b2b564", "fusion_lon": 0.0, "lat": 38.929717333333336, "is_reserved": 0, "type": "electric_scooter", "bike_id": "675c1994f920c12c98cb04c770b2b564", "is_disabled": 0, "rental_uris": {"android": "https://dc.lft.to/lastmile_qr_scan", "ios": "https://dc.lft.to/lastmile_qr_scan"}, "lon": -77.01686633333334, "fusion_lat": 0.0}, {"name": "46cf4f01898773a1530b7e9edbca8f6a", "fusion_lon": 0.0, "lat": 38.90787483333333, "is_reserved": 0, "type": "electric_scooter", "bike_id": "46cf4f01898773a1530b7e9edbca8f6a", "is_disabled": 0, "rental_uris": {"android": "https://dc.lft.to/lastmile_qr_scan", "ios": "https://dc.lft.to/lastmile_qr_scan"}, "lon": -77.00231016666666, "fusion_lat": 0.0}, {"name": "9be2fdc51b165b16486127d81db8a6bb", "fusion_lon": 0.0, "lat": 38.90087033333333, "is_reserved": 0, "type": "electric_scooter", "bike_id": "9be2fdc51b165b16486127d81db8a6bb", "is_disabled": 0, "rental_uris": {"android": "https://dc.lft.to/lastmile_qr_scan", "ios": "https://dc.lft.to/lastmile_qr_scan"}, "lon": -76.93020833333334, "fusion_lat": 0.0}, {"name": "14d0857a753d0584ddc4e5e3cd51d828", "fusion_lon": 0.0, "lat": 38.92651883333333, "is_reserved": 0, "type": "electric_scooter", "bike_id": "14d0857a753d0584ddc4e5e3cd51d828", "is_disabled": 0, "rental_uris": {"android": "https://dc.lft.to/lastmile_qr_scan", "ios": "https://dc.lft.to/lastmile_qr_scan"}, "lon": -77.037047, "fusion_lat": 0.0}, {"name": "5b0a57420ce024403d0433d47ecd53ee", "fusion_lon": 0.0, "lat": 38.95652166666667, "is_reserved": 0, "type": "electric_bike", "bike_id": "5b0a57420ce024403d0433d47ecd53ee", "is_disabled": 0, "rental_uris": {"android": "https://dc.lft.to/lastmile_qr_scan", "ios": "https://dc.lft.to/lastmile_qr_scan"}, "lon": -77.01279033333333, "fusion_lat": 0.0}, {"name": "8f8487c51cd9544b3f24efe0f38aa108", "fusion_lon": 0.0, "lat": 38.872302833333336, "is_reserved": 0, "type": "electric_scooter", "bike_id": "8f8487c51cd9544b3f24efe0f38aa108", "is_disabled": 0, "rental_uris": {"android": "https://dc.lft.to/lastmile_qr_scan", "ios": "https://dc.lft.to/lastmile_qr_scan"}, "lon": -77.017594, "fusion_lat": 0.0}, {"name": "dc0cb1bf4bb441a96566b4f59af10a18", "fusion_lon": 0.0, "lat": 38.873466666666666, "is_reserved": 0, "type": "electric_scooter", "bike_id": "dc0cb1bf4bb441a96566b4f59af10a18", "is_disabled": 0, "rental_uris": {"android": "https://dc.lft.to/lastmile_qr_scan", "ios": "https://dc.lft.to/lastmile_qr_scan"}, "lon": -77.00266466666666, "fusion_lat": 0.0}, {"name": "1f4b54d0ef8a728683c65a281c0b3010", "fusion_lon": 0.0, "lat": 38.96226516666667, "is_reserved": 0, "type": "electric_bike", "bike_id": "1f4b54d0ef8a728683c65a281c0b3010", "is_disabled": 0, "rental_uris": {"android": "https://dc.lft.to/lastmile_qr_scan", "ios": "https://dc.lft.to/lastmile_qr_scan"}, "lon": -77.02625033333334, "fusion_lat": 0.0}, {"name": "5fb5d4e0fbfc92116833960787b09c07", "fusion_lon": 0.0, "lat": 38.906849333333334, "is_reserved": 0, "type": "electric_scooter", "bike_id": "5fb5d4e0fbfc92116833960787b09c07", "is_disabled": 0, "rental_uris": {"android": "https://dc.lft.to/lastmile_qr_scan", "ios": "https://dc.lft.to/lastmile_qr_scan"}, "lon": -77.0716795, "fusion_lat": 0.0}, {"name": "96f1ec4c99e4290c72854b88fbf2dbe6", "fusion_lon": 0.0, "lat": 38.900223, "is_reserved": 0, "type": "electric_scooter", "bike_id": "96f1ec4c99e4290c72854b88fbf2dbe6", "is_disabled": 0, "rental_uris": {"android": "https://dc.lft.to/lastmile_qr_scan", "ios": "https://dc.lft.to/lastmile_qr_scan"}, "lon": -77.0069235, "fusion_lat": 0.0}, {"name": "a86adb0efa557dd3f916b56e908233d1", "fusion_lon": 0.0, "lat": 38.920345166666664, "is_reserved": 0, "type": "electric_scooter", "bike_id": "a86adb0efa557dd3f916b56e908233d1", "is_disabled": 0, "rental_uris": {"android": "https://dc.lft.to/lastmile_qr_scan", "ios": "https://dc.lft.to/lastmile_qr_scan"}, "lon": -77.02584383333334, "fusion_lat": 0.0}, {"name": "b78129863375765bc76347b207147e0f", "fusion_lon": 0.0, "lat": 38.907120166666665, "is_reserved": 0, "type": "electric_scooter", "bike_id": "b78129863375765bc76347b207147e0f", "is_disabled": 0, "rental_uris": {"android": "https://dc.lft.to/lastmile_qr_scan", "ios": "https://dc.lft.to/lastmile_qr_scan"}, "lon": -77.01010233333334, "fusion_lat": 0.0}, {"name": "69b36048e809e80bc50cefd98df79c34", "fusion_lon": 0.0, "lat": 38.9192075, "is_reserved": 0, "type": "electric_scooter", "bike_id": "69b36048e809e80bc50cefd98df79c34", "is_disabled": 0, "rental_uris": {"android": "https://dc.lft.to/lastmile_qr_scan", "ios": "https://dc.lft.to/lastmile_qr_scan"}, "lon": -77.02508333333333, "fusion_lat": 0.0}, {"name": "60998b5868d28af77c61c9f170eaf15e", "fusion_lon": 0.0, "lat": 38.90556133333333, "is_reserved": 0, "type": "electric_scooter", "bike_id": "60998b5868d28af77c61c9f170eaf15e", "is_disabled": 0, "rental_uris": {"android": "https://dc.lft.to/lastmile_qr_scan", "ios": "https://dc.lft.to/lastmile_qr_scan"}, "lon": -77.04329116666666, "fusion_lat": 0.0}, {"name": "023b7048034ff15eea7546b838822f1d", "fusion_lon": 0.0, "lat": 38.927989833333335, "is_reserved": 0, "type": "electric_scooter", "bike_id": "023b7048034ff15eea7546b838822f1d", "is_disabled": 0, "rental_uris": {"android": "https://dc.lft.to/lastmile_qr_scan", "ios": "https://dc.lft.to/lastmile_qr_scan"}, "lon": -77.01414283333334, "fusion_lat": 0.0}, {"name": "e5ab4f9d489343db97792a9d0d3c264e", "fusion_lon": 0.0, "lat": 38.900471, "is_reserved": 0, "type": "electric_scooter", "bike_id": "e5ab4f9d489343db97792a9d0d3c264e", "is_disabled": 0, "rental_uris": {"android": "https://dc.lft.to/lastmile_qr_scan", "ios": "https://dc.lft.to/lastmile_qr_scan"}, "lon": -76.9882605, "fusion_lat": 0.0}, {"name": "9e45183317e60996c517223796748384", "fusion_lon": 0.0, "lat": 38.903504166666664, "is_reserved": 0, "type": "electric_scooter", "bike_id": "9e45183317e60996c517223796748384", "is_disabled": 0, "rental_uris": {"android": "https://dc.lft.to/lastmile_qr_scan", "ios": "https://dc.lft.to/lastmile_qr_scan"}, "lon": -76.97478716666667, "fusion_lat": 0.0}, {"name": "e73506901fe52f238fd2344ed966716e", "fusion_lon": 0.0, "lat": 38.92122416666667, "is_reserved": 0, "type": "electric_scooter", "bike_id": "e73506901fe52f238fd2344ed966716e", "is_disabled": 0, "rental_uris": {"android": "https://dc.lft.to/lastmile_qr_scan", "ios": "https://dc.lft.to/lastmile_qr_scan"}, "lon": -77.04578, "fusion_lat": 0.0}, {"name": "d7ce04af4f14e44ebd436c134b483257", "fusion_lon": 0.0, "lat": 38.90054383333333, "is_reserved": 0, "type": "electric_scooter", "bike_id": "d7ce04af4f14e44ebd436c134b483257", "is_disabled": 0, "rental_uris": {"android": "https://dc.lft.to/lastmile_qr_scan", "ios": "https://dc.lft.to/lastmile_qr_scan"}, "lon": -77.029115, "fusion_lat": 0.0}, {"name": "4edd905031d6c4e2079b2b8fb405c217", "fusion_lon": 0.0, "lat": 38.925118499999996, "is_reserved": 0, "type": "electric_scooter", "bike_id": "4edd905031d6c4e2079b2b8fb405c217", "is_disabled": 0, "rental_uris": {"android": "https://dc.lft.to/lastmile_qr_scan", "ios": "https://dc.lft.to/lastmile_qr_scan"}, "lon": -77.05257083333333, "fusion_lat": 0.0}, {"name": "e6e96b98c31d8a5a81a80fe34fe24186", "fusion_lon": 0.0, "lat": 38.9071595, "is_reserved": 0, "type": "electric_scooter", "bike_id": "e6e96b98c31d8a5a81a80fe34fe24186", "is_disabled": 0, "rental_uris": {"android": "https://dc.lft.to/lastmile_qr_scan", "ios": "https://dc.lft.to/lastmile_qr_scan"}, "lon": -77.034447, "fusion_lat": 0.0}, {"name": "d52f09e3e38b2b0d7c27788135697986", "fusion_lon": 0.0, "lat": 38.9182115, "is_reserved": 0, "type": "electric_scooter", "bike_id": "d52f09e3e38b2b0d7c27788135697986", "is_disabled": 0, "rental_uris": {"android": "https://dc.lft.to/lastmile_qr_scan", "ios": "https://dc.lft.to/lastmile_qr_scan"}, "lon": -77.0248885, "fusion_lat": 0.0}, {"name": "172cdeb82060efeb5245f38d66ecc95f", "fusion_lon": 0.0, "lat": 38.88618916666667, "is_reserved": 0, "type": "electric_scooter", "bike_id": "172cdeb82060efeb5245f38d66ecc95f", "is_disabled": 0, "rental_uris": {"android": "https://dc.lft.to/lastmile_qr_scan", "ios": "https://dc.lft.to/lastmile_qr_scan"}, "lon": -77.0217245, "fusion_lat": 0.0}, {"name": "7925ce73566e609b2e5b0fd7d1f24cd5", "fusion_lon": 0.0, "lat": 38.884763666666665, "is_reserved": 0, "type": "electric_scooter", "bike_id": "7925ce73566e609b2e5b0fd7d1f24cd5", "is_disabled": 0, "rental_uris": {"android": "https://dc.lft.to/lastmile_qr_scan", "ios": "https://dc.lft.to/lastmile_qr_scan"}, "lon": -77.0265605, "fusion_lat": 0.0}, {"name": "7016b133052631aa839cb9e7c6d1a757", "fusion_lon": 0.0, "lat": 38.905558166666665, "is_reserved": 0, "type": "electric_scooter", "bike_id": "7016b133052631aa839cb9e7c6d1a757", "is_disabled": 0, "rental_uris": {"android": "https://dc.lft.to/lastmile_qr_scan", "ios": "https://dc.lft.to/lastmile_qr_scan"}, "lon": -77.03459216666667, "fusion_lat": 0.0}, {"name": "78094585a9170dd6de3ccaf6aa841c91", "fusion_lon": 0.0, "lat": 38.92503216666667, "is_reserved": 0, "type": "electric_scooter", "bike_id": "78094585a9170dd6de3ccaf6aa841c91", "is_disabled": 0, "rental_uris": {"android": "https://dc.lft.to/lastmile_qr_scan", "ios": "https://dc.lft.to/lastmile_qr_scan"}, "lon": -77.02349716666667, "fusion_lat": 0.0}, {"name": "07b529ebf98b81bdc7e12fab27c63c1c", "fusion_lon": 0.0, "lat": 38.9349005, "is_reserved": 0, "type": "electric_scooter", "bike_id": "07b529ebf98b81bdc7e12fab27c63c1c", "is_disabled": 0, "rental_uris": {"android": "https://dc.lft.to/lastmile_qr_scan", "ios": "https://dc.lft.to/lastmile_qr_scan"}, "lon": -77.03604366666667, "fusion_lat": 0.0}, {"name": "051db0a57d71a167435e9cb2f4b32bec", "fusion_lon": 0.0, "lat": 38.951853166666666, "is_reserved": 0, "type": "electric_scooter", "bike_id": "051db0a57d71a167435e9cb2f4b32bec", "is_disabled": 0, "rental_uris": {"android": "https://dc.lft.to/lastmile_qr_scan", "ios": "https://dc.lft.to/lastmile_qr_scan"}, "lon": -77.02608816666667, "fusion_lat": 0.0}, {"name": "1aa271b6e70c4743a93ef70e1ed92542", "fusion_lon": 0.0, "lat": 38.91265666666666, "is_reserved": 0, "type": "electric_scooter", "bike_id": "1aa271b6e70c4743a93ef70e1ed92542", "is_disabled": 0, "rental_uris": {"android": "https://dc.lft.to/lastmile_qr_scan", "ios": "https://dc.lft.to/lastmile_qr_scan"}, "lon": -77.0184735, "fusion_lat": 0.0}, {"name": "841009e96bccf299d799a83b9c660e85", "fusion_lon": 0.0, "lat": 38.914771333333334, "is_reserved": 0, "type": "electric_scooter", "bike_id": "841009e96bccf299d799a83b9c660e85", "is_disabled": 0, "rental_uris": {"android": "https://dc.lft.to/lastmile_qr_scan", "ios": "https://dc.lft.to/lastmile_qr_scan"}, "lon": -77.031854, "fusion_lat": 0.0}, {"name": "26aef20464ad78d5918ca7b2a9aa58f7", "fusion_lon": 0.0, "lat": 38.91813533333333, "is_reserved": 0, "type": "electric_scooter", "bike_id": "26aef20464ad78d5918ca7b2a9aa58f7", "is_disabled": 0, "rental_uris": {"android": "https://dc.lft.to/lastmile_qr_scan", "ios": "https://dc.lft.to/lastmile_qr_scan"}, "lon": -77.036645, "fusion_lat": 0.0}, {"name": "8c76309ff2b3a20087c1538e8af022f3", "fusion_lon": 0.0, "lat": 38.89616433333333, "is_reserved": 0, "type": "electric_scooter", "bike_id": "8c76309ff2b3a20087c1538e8af022f3", "is_disabled": 0, "rental_uris": {"android": "https://dc.lft.to/lastmile_qr_scan", "ios": "https://dc.lft.to/lastmile_qr_scan"}, "lon": -76.981676, "fusion_lat": 0.0}, {"name": "0bf01551aa59e530cae7e7a9d8144e25", "fusion_lon": 0.0, "lat": 38.90331183333333, "is_reserved": 0, "type": "electric_scooter", "bike_id": "0bf01551aa59e530cae7e7a9d8144e25", "is_disabled": 0, "rental_uris": {"android": "https://dc.lft.to/lastmile_qr_scan", "ios": "https://dc.lft.to/lastmile_qr_scan"}, "lon": -77.01109116666667, "fusion_lat": 0.0}, {"name": "5bd02ced40dfe72032ff884f8a045f2d", "fusion_lon": 0.0, "lat": 38.90084133333333, "is_reserved": 0, "type": "electric_scooter", "bike_id": "5bd02ced40dfe72032ff884f8a045f2d", "is_disabled": 0, "rental_uris": {"android": "https://dc.lft.to/lastmile_qr_scan", "ios": "https://dc.lft.to/lastmile_qr_scan"}, "lon": -77.05062416666667, "fusion_lat": 0.0}, {"name": "c0ececbe75e18dc72b6ddfcabf45be1a", "fusion_lon": 0.0, "lat": 38.907812, "is_reserved": 0, "type": "electric_scooter", "bike_id": "c0ececbe75e18dc72b6ddfcabf45be1a", "is_disabled": 0, "rental_uris": {"android": "https://dc.lft.to/lastmile_qr_scan", "ios": "https://dc.lft.to/lastmile_qr_scan"}, "lon": -77.03828333333334, "fusion_lat": 0.0}, {"name": "3e32dd599bb3decf674b05bca84842a5", "fusion_lon": 0.0, "lat": 38.9087185, "is_reserved": 0, "type": "electric_scooter", "bike_id": "3e32dd599bb3decf674b05bca84842a5", "is_disabled": 0, "rental_uris": {"android": "https://dc.lft.to/lastmile_qr_scan", "ios": "https://dc.lft.to/lastmile_qr_scan"}, "lon": -76.99958466666666, "fusion_lat": 0.0}, {"name": "412bbfb83c4590bfecac71188f5fb858", "fusion_lon": 0.0, "lat": 38.90320966666667, "is_reserved": 0, "type": "electric_scooter", "bike_id": "412bbfb83c4590bfecac71188f5fb858", "is_disabled": 0, "rental_uris": {"android": "https://dc.lft.to/lastmile_qr_scan", "ios": "https://dc.lft.to/lastmile_qr_scan"}, "lon": -77.01903033333333, "fusion_lat": 0.0}, {"name": "f76bcc180983f48f9b776d75a2ac8b0a", "fusion_lon": 0.0, "lat": 38.88389316666667, "is_reserved": 0, "type": "electric_scooter", "bike_id": "f76bcc180983f48f9b776d75a2ac8b0a", "is_disabled": 0, "rental_uris": {"android": "https://dc.lft.to/lastmile_qr_scan", "ios": "https://dc.lft.to/lastmile_qr_scan"}, "lon": -76.95445466666666, "fusion_lat": 0.0}, {"name": "87490693a2c0ec50c1ef7750ac44307e", "fusion_lon": 0.0, "lat": 38.903712, "is_reserved": 0, "type": "electric_scooter", "bike_id": "87490693a2c0ec50c1ef7750ac44307e", "is_disabled": 0, "rental_uris": {"android": "https://dc.lft.to/lastmile_qr_scan", "ios": "https://dc.lft.to/lastmile_qr_scan"}, "lon": -77.042071, "fusion_lat": 0.0}, {"name": "81f8681710dcbcdcc7375530dcaeb4b2", "fusion_lon": 0.0, "lat": 38.92581216666667, "is_reserved": 0, "type": "electric_scooter", "bike_id": "81f8681710dcbcdcc7375530dcaeb4b2", "is_disabled": 0, "rental_uris": {"android": "https://dc.lft.to/lastmile_qr_scan", "ios": "https://dc.lft.to/lastmile_qr_scan"}, "lon": -77.02607533333334, "fusion_lat": 0.0}, {"name": "5bd7a60eafc221d9eb9cb44e5f4b5f2e", "fusion_lon": 0.0, "lat": 38.92488766666666, "is_reserved": 0, "type": "electric_scooter", "bike_id": "5bd7a60eafc221d9eb9cb44e5f4b5f2e", "is_disabled": 0, "rental_uris": {"android": "https://dc.lft.to/lastmile_qr_scan", "ios": "https://dc.lft.to/lastmile_qr_scan"}, "lon": -77.021357, "fusion_lat": 0.0}, {"name": "2a2dbda3e4aaef917c0038a4ab1be2fb", "fusion_lon": 0.0, "lat": 38.898372333333334, "is_reserved": 0, "type": "electric_scooter", "bike_id": "2a2dbda3e4aaef917c0038a4ab1be2fb", "is_disabled": 0, "rental_uris": {"android": "https://dc.lft.to/lastmile_qr_scan", "ios": "https://dc.lft.to/lastmile_qr_scan"}, "lon": -77.03335966666667, "fusion_lat": 0.0}, {"name": "e5d8775a41f8c1d17eda624c3004f300", "fusion_lon": 0.0, "lat": 38.9238425, "is_reserved": 0, "type": "electric_scooter", "bike_id": "e5d8775a41f8c1d17eda624c3004f300", "is_disabled": 0, "rental_uris": {"android": "https://dc.lft.to/lastmile_qr_scan", "ios": "https://dc.lft.to/lastmile_qr_scan"}, "lon": -77.03658583333333, "fusion_lat": 0.0}, {"name": "203e531e8f70031382c349c8e32a5ba0", "fusion_lon": 0.0, "lat": 38.8982745, "is_reserved": 0, "type": "electric_scooter", "bike_id": "203e531e8f70031382c349c8e32a5ba0", "is_disabled": 0, "rental_uris": {"android": "https://dc.lft.to/lastmile_qr_scan", "ios": "https://dc.lft.to/lastmile_qr_scan"}, "lon": -77.04357316666666, "fusion_lat": 0.0}, {"name": "ba1156fdd05bf3732383e857dbdd7a24", "fusion_lon": 0.0, "lat": 38.92339166666667, "is_reserved": 0, "type": "electric_scooter", "bike_id": "ba1156fdd05bf3732383e857dbdd7a24", "is_disabled": 0, "rental_uris": {"android": "https://dc.lft.to/lastmile_qr_scan", "ios": "https://dc.lft.to/lastmile_qr_scan"}, "lon": -77.05245966666666, "fusion_lat": 0.0}, {"name": "51493daa1f5d87747c82a6b141ee1098", "fusion_lon": 0.0, "lat": 38.915970333333334, "is_reserved": 0, "type": "electric_scooter", "bike_id": "51493daa1f5d87747c82a6b141ee1098", "is_disabled": 0, "rental_uris": {"android": "https://dc.lft.to/lastmile_qr_scan", "ios": "https://dc.lft.to/lastmile_qr_scan"}, "lon": -76.98377916666666, "fusion_lat": 0.0}, {"name": "e5b7607e2646df8759d94f5ee27ceab7", "fusion_lon": 0.0, "lat": 38.914147, "is_reserved": 0, "type": "electric_scooter", "bike_id": "e5b7607e2646df8759d94f5ee27ceab7", "is_disabled": 0, "rental_uris": {"android": "https://dc.lft.to/lastmile_qr_scan", "ios": "https://dc.lft.to/lastmile_qr_scan"}, "lon": -77.03170316666667, "fusion_lat": 0.0}, {"name": "d34d03e428fa889ffadbb23a949d67ee", "fusion_lon": 0.0, "lat": 38.996255, "is_reserved": 0, "type": "electric_scooter", "bike_id": "d34d03e428fa889ffadbb23a949d67ee", "is_disabled": 0, "rental_uris": {"android": "https://dc.lft.to/lastmile_qr_scan", "ios": "https://dc.lft.to/lastmile_qr_scan"}, "lon": -77.031422, "fusion_lat": 0.0}, {"name": "2729edcc5a0b3a869dfcd140f2fe896e", "fusion_lon": 0.0, "lat": 38.8716985, "is_reserved": 0, "type": "electric_scooter", "bike_id": "2729edcc5a0b3a869dfcd140f2fe896e", "is_disabled": 0, "rental_uris": {"android": "https://dc.lft.to/lastmile_qr_scan", "ios": "https://dc.lft.to/lastmile_qr_scan"}, "lon": -76.977438, "fusion_lat": 0.0}, {"name": "1687277768532e65dc9da60bdf436517", "fusion_lon": 0.0, "lat": 38.936788, "is_reserved": 0, "type": "electric_scooter", "bike_id": "1687277768532e65dc9da60bdf436517", "is_disabled": 0, "rental_uris": {"android": "https://dc.lft.to/lastmile_qr_scan", "ios": "https://dc.lft.to/lastmile_qr_scan"}, "lon": -77.03628633333334, "fusion_lat": 0.0}, {"name": "0cc915b9d85d9c465a54882cf158e983", "fusion_lon": 0.0, "lat": 38.8959655, "is_reserved": 0, "type": "electric_scooter", "bike_id": "0cc915b9d85d9c465a54882cf158e983", "is_disabled": 0, "rental_uris": {"android": "https://dc.lft.to/lastmile_qr_scan", "ios": "https://dc.lft.to/lastmile_qr_scan"}, "lon": -77.025741, "fusion_lat": 0.0}, {"name": "f92474f4b623f1a6f37ea380164eed73", "fusion_lon": 0.0, "lat": 38.9160935, "is_reserved": 0, "type": "electric_scooter", "bike_id": "f92474f4b623f1a6f37ea380164eed73", "is_disabled": 0, "rental_uris": {"android": "https://dc.lft.to/lastmile_qr_scan", "ios": "https://dc.lft.to/lastmile_qr_scan"}, "lon": -77.02176166666666, "fusion_lat": 0.0}, {"name": "23f841391a1dc5175847f3c13711edda", "fusion_lon": 0.0, "lat": 38.931638166666666, "is_reserved": 0, "type": "electric_bike", "bike_id": "23f841391a1dc5175847f3c13711edda", "is_disabled": 0, "rental_uris": {"android": "https://dc.lft.to/lastmile_qr_scan", "ios": "https://dc.lft.to/lastmile_qr_scan"}, "lon": -76.976288, "fusion_lat": 0.0}, {"name": "412c2cfca82e96999d183e277adeac51", "fusion_lon": 0.0, "lat": 38.935428333333334, "is_reserved": 0, "type": "electric_scooter", "bike_id": "412c2cfca82e96999d183e277adeac51", "is_disabled": 0, "rental_uris": {"android": "https://dc.lft.to/lastmile_qr_scan", "ios": "https://dc.lft.to/lastmile_qr_scan"}, "lon": -77.05859583333333, "fusion_lat": 0.0}, {"name": "52fcd3a5b3ab46dcd4b4d7e58dcf37bb", "fusion_lon": 0.0, "lat": 38.91568433333333, "is_reserved": 0, "type": "electric_scooter", "bike_id": "52fcd3a5b3ab46dcd4b4d7e58dcf37bb", "is_disabled": 0, "rental_uris": {"android": "https://dc.lft.to/lastmile_qr_scan", "ios": "https://dc.lft.to/lastmile_qr_scan"}, "lon": -77.022888, "fusion_lat": 0.0}, {"name": "2cadb49c686a98ed71b0d8c1754685f3", "fusion_lon": 0.0, "lat": 38.916900166666665, "is_reserved": 0, "type": "electric_scooter", "bike_id": "2cadb49c686a98ed71b0d8c1754685f3", "is_disabled": 0, "rental_uris": {"android": "https://dc.lft.to/lastmile_qr_scan", "ios": "https://dc.lft.to/lastmile_qr_scan"}, "lon": -77.03152516666667, "fusion_lat": 0.0}, {"name": "74310a66857dc685924a4f7e81974ffa", "fusion_lon": 0.0, "lat": 38.864745666666664, "is_reserved": 0, "type": "electric_scooter", "bike_id": "74310a66857dc685924a4f7e81974ffa", "is_disabled": 0, "rental_uris": {"android": "https://dc.lft.to/lastmile_qr_scan", "ios": "https://dc.lft.to/lastmile_qr_scan"}, "lon": -76.97746116666667, "fusion_lat": 0.0}, {"name": "7e66c6179ee4b20e0982e5442fb98b2b", "fusion_lon": 0.0, "lat": 38.8956465, "is_reserved": 0, "type": "electric_scooter", "bike_id": "7e66c6179ee4b20e0982e5442fb98b2b", "is_disabled": 0, "rental_uris": {"android": "https://dc.lft.to/lastmile_qr_scan", "ios": "https://dc.lft.to/lastmile_qr_scan"}, "lon": -77.04675383333333, "fusion_lat": 0.0}, {"name": "ac1eb5373a200b335f968479560673fd", "fusion_lon": 0.0, "lat": 38.923193166666664, "is_reserved": 0, "type": "electric_scooter", "bike_id": "ac1eb5373a200b335f968479560673fd", "is_disabled": 0, "rental_uris": {"android": "https://dc.lft.to/lastmile_qr_scan", "ios": "https://dc.lft.to/lastmile_qr_scan"}, "lon": -77.04107933333333, "fusion_lat": 0.0}, {"name": "c55a29cbc15d295f85598f18edff8665", "fusion_lon": 0.0, "lat": 38.930867166666665, "is_reserved": 0, "type": "electric_scooter", "bike_id": "c55a29cbc15d295f85598f18edff8665", "is_disabled": 0, "rental_uris": {"android": "https://dc.lft.to/lastmile_qr_scan", "ios": "https://dc.lft.to/lastmile_qr_scan"}, "lon": -76.99618983333333, "fusion_lat": 0.0}, {"name": "7b3af5b22ad00fad092a301aeca15c9f", "fusion_lon": 0.0, "lat": 38.911866, "is_reserved": 0, "type": "electric_scooter", "bike_id": "7b3af5b22ad00fad092a301aeca15c9f", "is_disabled": 0, "rental_uris": {"android": "https://dc.lft.to/lastmile_qr_scan", "ios": "https://dc.lft.to/lastmile_qr_scan"}, "lon": -77.01019616666666, "fusion_lat": 0.0}, {"name": "a2470dff05b3226714508dceb2a2521d", "fusion_lon": 0.0, "lat": 38.89359683333333, "is_reserved": 0, "type": "electric_scooter", "bike_id": "a2470dff05b3226714508dceb2a2521d", "is_disabled": 0, "rental_uris": {"android": "https://dc.lft.to/lastmile_qr_scan", "ios": "https://dc.lft.to/lastmile_qr_scan"}, "lon": -76.94935716666667, "fusion_lat": 0.0}, {"name": "526692037c2228241a891c211ec5630b", "fusion_lon": 0.0, "lat": 38.96960416666667, "is_reserved": 0, "type": "electric_bike", "bike_id": "526692037c2228241a891c211ec5630b", "is_disabled": 0, "rental_uris": {"android": "https://dc.lft.to/lastmile_qr_scan", "ios": "https://dc.lft.to/lastmile_qr_scan"}, "lon": -76.95751416666667, "fusion_lat": 0.0}, {"name": "42743f7672d2e3647938dc4e86e34c3d", "fusion_lon": 0.0, "lat": 38.92862616666667, "is_reserved": 0, "type": "electric_scooter", "bike_id": "42743f7672d2e3647938dc4e86e34c3d", "is_disabled": 0, "rental_uris": {"android": "https://dc.lft.to/lastmile_qr_scan", "ios": "https://dc.lft.to/lastmile_qr_scan"}, "lon": -77.02800683333334, "fusion_lat": 0.0}, {"name": "5000ab4a0be4e0340f1df4b5304a4d14", "fusion_lon": 0.0, "lat": 38.911099, "is_reserved": 0, "type": "electric_bike", "bike_id": "5000ab4a0be4e0340f1df4b5304a4d14", "is_disabled": 0, "rental_uris": {"android": "https://dc.lft.to/lastmile_qr_scan", "ios": "https://dc.lft.to/lastmile_qr_scan"}, "lon": -77.01501266666666, "fusion_lat": 0.0}, {"name": "1e1261cec123c6bc300bd85235edfefd", "fusion_lon": 0.0, "lat": 38.93537116666667, "is_reserved": 0, "type": "electric_scooter", "bike_id": "1e1261cec123c6bc300bd85235edfefd", "is_disabled": 0, "rental_uris": {"android": "https://dc.lft.to/lastmile_qr_scan", "ios": "https://dc.lft.to/lastmile_qr_scan"}, "lon": -77.02347083333333, "fusion_lat": 0.0}, {"name": "2f9b3b358f3d604cad53abdcee6c71ed", "fusion_lon": 0.0, "lat": 38.921730833333335, "is_reserved": 0, "type": "electric_scooter", "bike_id": "2f9b3b358f3d604cad53abdcee6c71ed", "is_disabled": 0, "rental_uris": {"android": "https://dc.lft.to/lastmile_qr_scan", "ios": "https://dc.lft.to/lastmile_qr_scan"}, "lon": -77.026632, "fusion_lat": 0.0}, {"name": "3cf5bced896a4b2ba050d935a21197a8", "fusion_lon": 0.0, "lat": 38.91687, "is_reserved": 0, "type": "electric_scooter", "bike_id": "3cf5bced896a4b2ba050d935a21197a8", "is_disabled": 0, "rental_uris": {"android": "https://dc.lft.to/lastmile_qr_scan", "ios": "https://dc.lft.to/lastmile_qr_scan"}, "lon": -77.0270105, "fusion_lat": 0.0}, {"name": "f9853a4625e96035c72168f0e2ef1707", "fusion_lon": 0.0, "lat": 38.9248655, "is_reserved": 0, "type": "electric_scooter", "bike_id": "f9853a4625e96035c72168f0e2ef1707", "is_disabled": 0, "rental_uris": {"android": "https://dc.lft.to/lastmile_qr_scan", "ios": "https://dc.lft.to/lastmile_qr_scan"}, "lon": -77.0318295, "fusion_lat": 0.0}, {"name": "087c761e3b8e449b7ab9bf3edeed9215", "fusion_lon": 0.0, "lat": 38.87660483333333, "is_reserved": 0, "type": "electric_scooter", "bike_id": "087c761e3b8e449b7ab9bf3edeed9215", "is_disabled": 0, "rental_uris": {"android": "https://dc.lft.to/lastmile_qr_scan", "ios": "https://dc.lft.to/lastmile_qr_scan"}, "lon": -77.00314683333333, "fusion_lat": 0.0}, {"name": "d1ac04ffe3594a1efab3b6b00b238a26", "fusion_lon": 0.0, "lat": 38.909933, "is_reserved": 0, "type": "electric_scooter", "bike_id": "d1ac04ffe3594a1efab3b6b00b238a26", "is_disabled": 0, "rental_uris": {"android": "https://dc.lft.to/lastmile_qr_scan", "ios": "https://dc.lft.to/lastmile_qr_scan"}, "lon": -77.0383605, "fusion_lat": 0.0}, {"name": "67411bbf941ab7d9453a6091a210b3ce", "fusion_lon": 0.0, "lat": 38.870080333333334, "is_reserved": 0, "type": "electric_scooter", "bike_id": "67411bbf941ab7d9453a6091a210b3ce", "is_disabled": 0, "rental_uris": {"android": "https://dc.lft.to/lastmile_qr_scan", "ios": "https://dc.lft.to/lastmile_qr_scan"}, "lon": -76.98082133333334, "fusion_lat": 0.0}, {"name": "e466469fb1ddae282389e2f2bb3cf553", "fusion_lon": 0.0, "lat": 38.924643, "is_reserved": 0, "type": "electric_scooter", "bike_id": "e466469fb1ddae282389e2f2bb3cf553", "is_disabled": 0, "rental_uris": {"android": "https://dc.lft.to/lastmile_qr_scan", "ios": "https://dc.lft.to/lastmile_qr_scan"}, "lon": -77.027121, "fusion_lat": 0.0}, {"name": "93805e3d3283f7165e7dc8a28a934907", "fusion_lon": 0.0, "lat": 38.89225783333333, "is_reserved": 0, "type": "electric_scooter", "bike_id": "93805e3d3283f7165e7dc8a28a934907", "is_disabled": 0, "rental_uris": {"android": "https://dc.lft.to/lastmile_qr_scan", "ios": "https://dc.lft.to/lastmile_qr_scan"}, "lon": -77.0486005, "fusion_lat": 0.0}, {"name": "2ac0acc32dccb2db042ef97b0c927afb", "fusion_lon": 0.0, "lat": 38.92215866666667, "is_reserved": 0, "type": "electric_scooter", "bike_id": "2ac0acc32dccb2db042ef97b0c927afb", "is_disabled": 0, "rental_uris": {"android": "https://dc.lft.to/lastmile_qr_scan", "ios": "https://dc.lft.to/lastmile_qr_scan"}, "lon": -76.98743866666666, "fusion_lat": 0.0}, {"name": "fdf76ad1e8650ccc571a96bb701761ff", "fusion_lon": 0.0, "lat": 38.9182965, "is_reserved": 0, "type": "electric_scooter", "bike_id": "fdf76ad1e8650ccc571a96bb701761ff", "is_disabled": 0, "rental_uris": {"android": "https://dc.lft.to/lastmile_qr_scan", "ios": "https://dc.lft.to/lastmile_qr_scan"}, "lon": -77.0228165, "fusion_lat": 0.0}, {"name": "67a36ed995d6ac33ce9dcac8e903a010", "fusion_lon": 0.0, "lat": 38.945131833333335, "is_reserved": 0, "type": "electric_scooter", "bike_id": "67a36ed995d6ac33ce9dcac8e903a010", "is_disabled": 0, "rental_uris": {"android": "https://dc.lft.to/lastmile_qr_scan", "ios": "https://dc.lft.to/lastmile_qr_scan"}, "lon": -77.03364316666666, "fusion_lat": 0.0}, {"name": "42e7e4bc87a3559529c5a9f5f6e3946c", "fusion_lon": 0.0, "lat": 38.90371866666667, "is_reserved": 0, "type": "electric_scooter", "bike_id": "42e7e4bc87a3559529c5a9f5f6e3946c", "is_disabled": 0, "rental_uris": {"android": "https://dc.lft.to/lastmile_qr_scan", "ios": "https://dc.lft.to/lastmile_qr_scan"}, "lon": -77.02945483333333, "fusion_lat": 0.0}, {"name": "c39de3301eebe1aa36ed099e0c70514e", "fusion_lon": 0.0, "lat": 38.9114485, "is_reserved": 0, "type": "electric_scooter", "bike_id": "c39de3301eebe1aa36ed099e0c70514e", "is_disabled": 0, "rental_uris": {"android": "https://dc.lft.to/lastmile_qr_scan", "ios": "https://dc.lft.to/lastmile_qr_scan"}, "lon": -77.023936, "fusion_lat": 0.0}, {"name": "efa491a71c1019a9885c39e3d0a3d788", "fusion_lon": 0.0, "lat": 38.920011333333335, "is_reserved": 0, "type": "electric_scooter", "bike_id": "efa491a71c1019a9885c39e3d0a3d788", "is_disabled": 0, "rental_uris": {"android": "https://dc.lft.to/lastmile_qr_scan", "ios": "https://dc.lft.to/lastmile_qr_scan"}, "lon": -77.02356683333333, "fusion_lat": 0.0}, {"name": "ddef99fa951eda3229027f933c2c6b63", "fusion_lon": 0.0, "lat": 38.91743316666667, "is_reserved": 0, "type": "electric_scooter", "bike_id": "ddef99fa951eda3229027f933c2c6b63", "is_disabled": 0, "rental_uris": {"android": "https://dc.lft.to/lastmile_qr_scan", "ios": "https://dc.lft.to/lastmile_qr_scan"}, "lon": -77.03637683333334, "fusion_lat": 0.0}, {"name": "6c92f4d8cab98015ced583e52392546a", "fusion_lon": 0.0, "lat": 38.906721166666664, "is_reserved": 0, "type": "electric_scooter", "bike_id": "6c92f4d8cab98015ced583e52392546a", "is_disabled": 0, "rental_uris": {"android": "https://dc.lft.to/lastmile_qr_scan", "ios": "https://dc.lft.to/lastmile_qr_scan"}, "lon": -77.035166, "fusion_lat": 0.0}, {"name": "f9ad510a84df8b8daa97fc039c59ce1f", "fusion_lon": 0.0, "lat": 38.88746183333333, "is_reserved": 0, "type": "electric_scooter", "bike_id": "f9ad510a84df8b8daa97fc039c59ce1f", "is_disabled": 0, "rental_uris": {"android": "https://dc.lft.to/lastmile_qr_scan", "ios": "https://dc.lft.to/lastmile_qr_scan"}, "lon": -77.02726483333333, "fusion_lat": 0.0}, {"name": "e7dce822f42978db3068bf6a52296a25", "fusion_lon": 0.0, "lat": 38.89840183333333, "is_reserved": 0, "type": "electric_scooter", "bike_id": "e7dce822f42978db3068bf6a52296a25", "is_disabled": 0, "rental_uris": {"android": "https://dc.lft.to/lastmile_qr_scan", "ios": "https://dc.lft.to/lastmile_qr_scan"}, "lon": -77.02382183333333, "fusion_lat": 0.0}, {"name": "a3134b1ea4121f58ab54cfdaaddbbcfb", "fusion_lon": 0.0, "lat": 38.901744666666666, "is_reserved": 0, "type": "electric_scooter", "bike_id": "a3134b1ea4121f58ab54cfdaaddbbcfb", "is_disabled": 0, "rental_uris": {"android": "https://dc.lft.to/lastmile_qr_scan", "ios": "https://dc.lft.to/lastmile_qr_scan"}, "lon": -76.98301766666667, "fusion_lat": 0.0}, {"name": "ab55b75214edcb4836eef030fcbf06fc", "fusion_lon": 0.0, "lat": 38.86515966666666, "is_reserved": 0, "type": "electric_bike", "bike_id": "ab55b75214edcb4836eef030fcbf06fc", "is_disabled": 0, "rental_uris": {"android": "https://dc.lft.to/lastmile_qr_scan", "ios": "https://dc.lft.to/lastmile_qr_scan"}, "lon": -76.97333133333333, "fusion_lat": 0.0}, {"name": "171bd555278e3b9247a961648ef7f599", "fusion_lon": 0.0, "lat": 38.898165, "is_reserved": 0, "type": "electric_scooter", "bike_id": "171bd555278e3b9247a961648ef7f599", "is_disabled": 0, "rental_uris": {"android": "https://dc.lft.to/lastmile_qr_scan", "ios": "https://dc.lft.to/lastmile_qr_scan"}, "lon": -77.029592, "fusion_lat": 0.0}, {"name": "f85da4a1e5f818a7865bc227b0a91439", "fusion_lon": 0.0, "lat": 38.91717533333333, "is_reserved": 0, "type": "electric_scooter", "bike_id": "f85da4a1e5f818a7865bc227b0a91439", "is_disabled": 0, "rental_uris": {"android": "https://dc.lft.to/lastmile_qr_scan", "ios": "https://dc.lft.to/lastmile_qr_scan"}, "lon": -77.012056, "fusion_lat": 0.0}, {"name": "83db605f104f906b048688ff4a9ee879", "fusion_lon": 0.0, "lat": 38.920032, "is_reserved": 0, "type": "electric_scooter", "bike_id": "83db605f104f906b048688ff4a9ee879", "is_disabled": 0, "rental_uris": {"android": "https://dc.lft.to/lastmile_qr_scan", "ios": "https://dc.lft.to/lastmile_qr_scan"}, "lon": -77.02357016666667, "fusion_lat": 0.0}, {"name": "f4cfff2c47fbdf42e8c88d654ba2281f", "fusion_lon": 0.0, "lat": 38.92161216666667, "is_reserved": 0, "type": "electric_scooter", "bike_id": "f4cfff2c47fbdf42e8c88d654ba2281f", "is_disabled": 0, "rental_uris": {"android": "https://dc.lft.to/lastmile_qr_scan", "ios": "https://dc.lft.to/lastmile_qr_scan"}, "lon": -77.03513116666667, "fusion_lat": 0.0}, {"name": "9e5d52795b55408b7d4077a99c305d16", "fusion_lon": 0.0, "lat": 38.8972195, "is_reserved": 0, "type": "electric_scooter", "bike_id": "9e5d52795b55408b7d4077a99c305d16", "is_disabled": 0, "rental_uris": {"android": "https://dc.lft.to/lastmile_qr_scan", "ios": "https://dc.lft.to/lastmile_qr_scan"}, "lon": -77.00788066666667, "fusion_lat": 0.0}, {"name": "54962c68dede8eb969a30b21698c992f", "fusion_lon": 0.0, "lat": 38.87604533333333, "is_reserved": 0, "type": "electric_scooter", "bike_id": "54962c68dede8eb969a30b21698c992f", "is_disabled": 0, "rental_uris": {"android": "https://dc.lft.to/lastmile_qr_scan", "ios": "https://dc.lft.to/lastmile_qr_scan"}, "lon": -77.000833, "fusion_lat": 0.0}, {"name": "4375b800f2252c431ed41e6f9fc27db8", "fusion_lon": 0.0, "lat": 38.90124433333333, "is_reserved": 0, "type": "electric_scooter", "bike_id": "4375b800f2252c431ed41e6f9fc27db8", "is_disabled": 0, "rental_uris": {"android": "https://dc.lft.to/lastmile_qr_scan", "ios": "https://dc.lft.to/lastmile_qr_scan"}, "lon": -77.04410016666667, "fusion_lat": 0.0}, {"name": "41d8a4dcfa174f1bda823a4effec5369", "fusion_lon": 0.0, "lat": 38.91815616666667, "is_reserved": 0, "type": "electric_scooter", "bike_id": "41d8a4dcfa174f1bda823a4effec5369", "is_disabled": 0, "rental_uris": {"android": "https://dc.lft.to/lastmile_qr_scan", "ios": "https://dc.lft.to/lastmile_qr_scan"}, "lon": -77.03196616666666, "fusion_lat": 0.0},