{"data": {"bikes": [{"name": "220c12ccc0b241df31378907cb9d7535", "fusion_lat": 0.0, "type": "electric_scooter", "lat": 38.90904416666667, "is_reserved": 0, "is_disabled": 0, "fusion_lon": 0.0, "bike_id": "220c12ccc0b241df31378907cb9d7535", "lon": -77.02724066666667, "rental_uris": {"ios": "https://dc.lft.to/lastmile_qr_scan", "android": "https://dc.lft.to/lastmile_qr_scan"}}, {"name": "81858208c89c2150537db146dfa217da", "fusion_lat": 0.0, "type": "electric_scooter", "lat": 38.922274333333334, "is_reserved": 0, "is_disabled": 0, "fusion_lon": 0.0, "bike_id": "81858208c89c2150537db146dfa217da", "lon": -77.04727216666667, "rental_uris": {"ios": "https://dc.lft.to/lastmile_qr_scan", "android": "https://dc.lft.to/lastmile_qr_scan"}}, {"name": "c292c50c43746f2700e95025b07a32c8", "fusion_lat": 0.0, "type": "electric_scooter", "lat": 38.896265, "is_reserved": 0, "is_disabled": 0, "fusion_lon": 0.0, "bike_id": "c292c50c43746f2700e95025b07a32c8", "lon": -77.02730033333333, "rental_uris": {"ios": "https://dc.lft.to/lastmile_qr_scan", "android": "https://dc.lft.to/lastmile_qr_scan"}}, {"name": "49778fbe5cabd3e701027dbaf2ac8679", "fusion_lat": 0.0, "type": "electric_scooter", "lat": 38.93391716666667, "is_reserved": 0, "is_disabled": 0, "fusion_lon": 0.0, "bike_id": "49778fbe5cabd3e701027dbaf2ac8679", "lon": -77.03587483333334, "rental_uris": {"ios": "https://dc.lft.to/lastmile_qr_scan", "android": "https://dc.lft.to/lastmile_qr_scan"}}, {"name": "2468806d254a30e696bf63f077e165fc", "fusion_lat": 0.0, "type": "electric_scooter", "lat": 38.91423266666666, "is_reserved": 0, "is_disabled": 0, "fusion_lon": 0.0, "bike_id": "2468806d254a30e696bf63f077e165fc", "lon": -77.022069, "rental_uris": {"ios": "https://dc.lft.to/lastmile_qr_scan", "android": "https://dc.lft.to/lastmile_qr_scan"}}, {"name": "5f8969da634efe9f4ffb5a0d2b86e915", "fusion_lat": 0.0, "type": "electric_scooter", "lat": 38.876703166666665, "is_reserved": 0, "is_disabled": 0, "fusion_lon": 0.0, "bike_id": "5f8969da634efe9f4ffb5a0d2b86e915", "lon": -77.0041465, "rental_uris": {"ios": "https://dc.lft.to/lastmile_qr_scan", "android": "https://dc.lft.to/lastmile_qr_scan"}}, {"name": "1ebfed6e665f00b86746a1cf942459d1", "fusion_lat": 0.0, "type": "electric_scooter", "lat": 38.937048833333336, "is_reserved": 0, "is_disabled": 0, "fusion_lon": 0.0, "bike_id": "1ebfed6e665f00b86746a1cf942459d1", "lon": -77.061058, "rental_uris": {"ios": "https://dc.lft.to/lastmile_qr_scan", "android": "https://dc.lft.to/lastmile_qr_scan"}}, {"name": "2c63f54b5cb9ae32aa6317b86ed3345a", "fusion_lat": 0.0, "type": "electric_bike", "lat": 38.9990945, "is_reserved": 0, "is_disabled": 0, "fusion_lon": 0.0, "bike_id": "2c63f54b5cb9ae32aa6317b86ed3345a", "lon": -77.046165, "rental_uris": {"ios": "https://dc.lft.to/lastmile_qr_scan", "android": "https://dc.lft.to/lastmile_qr_scan"}}, {"name": "a42863968a262bd0dc21e6816c7194c2", "fusion_lat": 0.0, "type": "electric_bike", "lat": 38.97384, "is_reserved": 0, "is_disabled": 0, "fusion_lon": 0.0, "bike_id": "a42863968a262bd0dc21e6816c7194c2", "lon": -77.06478866666667, "rental_uris": {"ios": "https://dc.lft.to/lastmile_qr_scan", "android": "https://dc.lft.to/lastmile_qr_scan"}}, {"name": "4f6c2041037a76fd56694ddd925c1685", "fusion_lat": 0.0, "type": "electric_bike", "lat": 38.845728, "is_reserved": 0, "is_disabled": 0, "fusion_lon": 0.0, "bike_id": "4f6c2041037a76fd56694ddd925c1685", "lon": -77.09626966666667, "rental_uris": {"ios": "https://dc.lft.to/lastmile_qr_scan", "android": "https://dc.lft.to/lastmile_qr_scan"}}, {"name": "9206b0b2dd17e8b2335688aaa9d865f3", "fusion_lat": 0.0, "type": "electric_scooter", "lat": 38.87886066666667, "is_reserved": 0, "is_disabled": 0, "fusion_lon": 0.0, "bike_id": "9206b0b2dd17e8b2335688aaa9d865f3", "lon": -77.00546483333333, "rental_uris": {"ios": "https://dc.lft.to/lastmile_qr_scan", "android": "https://dc.lft.to/lastmile_qr_scan"}}, {"name": "750f89cd54bbc3fcdec13ed0c100a175", "fusion_lat": 0.0, "type": "electric_scooter", "lat": 38.876571166666665, "is_reserved": 0, "is_disabled": 0, "fusion_lon": 0.0, "bike_id": "750f89cd54bbc3fcdec13ed0c100a175", "lon": -77.000721, "rental_uris": {"ios": "https://dc.lft.to/lastmile_qr_scan", "android": "https://dc.lft.to/lastmile_qr_scan"}}, {"name": "93adbfca7e581aa9ce3625a1b7f63235", "fusion_lat": 0.0, "type": "electric_scooter", "lat": 38.87806666666667, "is_reserved": 0, "is_disabled": 0, "fusion_lon": 0.0, "bike_id": "93adbfca7e581aa9ce3625a1b7f63235", "lon": -77.00582366666667, "rental_uris": {"ios": "https://dc.lft.to/lastmile_qr_scan", "android": "https://dc.lft.to/lastmile_qr_scan"}}, {"name": "817bae49fa24ccc0ed7f5e17e18d584e", "fusion_lat": 0.0, "type": "electric_scooter", "lat": 38.92006333333333, "is_reserved": 0, "is_disabled": 0, "fusion_lon": 0.0, "bike_id": "817bae49fa24ccc0ed7f5e17e18d584e", "lon": -77.08193433333334, "rental_uris": {"ios": "https://dc.lft.to/lastmile_qr_scan", "android": "https://dc.lft.to/lastmile_qr_scan"}}, {"name": "8979e69982656f9f09a323ca26f78958", "fusion_lat": 0.0, "type": "electric_scooter", "lat": 38.913960333333335, "is_reserved": 0, "is_disabled": 0, "fusion_lon": 0.0, "bike_id": "8979e69982656f9f09a323ca26f78958", "lon": -77.041777, "rental_uris": {"ios": "https://dc.lft.to/lastmile_qr_scan", "android": "https://dc.lft.to/lastmile_qr_scan"}}, {"name": "785084370c3da507f4e0772f0e913d27", "fusion_lat": 0.0, "type": "electric_scooter", "lat": 38.8937395, "is_reserved": 0, "is_disabled": 0, "fusion_lon": 0.0, "bike_id": "785084370c3da507f4e0772f0e913d27", "lon": -76.9499925, "rental_uris": {"ios": "https://dc.lft.to/lastmile_qr_scan", "android": "https://dc.lft.to/lastmile_qr_scan"}}, {"name": "0b5dd0a00f05c0011fe1b293d6c6626e", "fusion_lat": 0.0, "type": "electric_bike", "lat": 38.89724616666667, "is_reserved": 0, "is_disabled": 0, "fusion_lon": 0.0, "bike_id": "0b5dd0a00f05c0011fe1b293d6c6626e", "lon": -77.0191115, "rental_uris": {"ios": "https://dc.lft.to/lastmile_qr_scan", "android": "https://dc.lft.to/lastmile_qr_scan"}}, {"name": "4d7b6e25e163a6bcf73d9d0bd455b81c", "fusion_lat": 0.0, "type": "electric_scooter", "lat": 38.8859535, "is_reserved": 0, "is_disabled": 0, "fusion_lon": 0.0, "bike_id": "4d7b6e25e163a6bcf73d9d0bd455b81c", "lon": -77.0220935, "rental_uris": {"ios": "https://dc.lft.to/lastmile_qr_scan", "android": "https://dc.lft.to/lastmile_qr_scan"}}, {"name": "86ef25890b4d2ab4d8bec9c31eaba0c7", "fusion_lat": 0.0, "type": "electric_scooter", "lat": 38.928920166666664, "is_reserved": 0, "is_disabled": 0, "fusion_lon": 0.0, "bike_id": "86ef25890b4d2ab4d8bec9c31eaba0c7", "lon": -77.05448433333333, "rental_uris": {"ios": "https://dc.lft.to/lastmile_qr_scan", "android": "https://dc.lft.to/lastmile_qr_scan"}}, {"name": "26c98027f8dac7d1a24a89fd92c863c7", "fusion_lat": 0.0, "type": "electric_scooter", "lat": 38.92727433333334, "is_reserved": 0, "is_disabled": 0, "fusion_lon": 0.0, "bike_id": "26c98027f8dac7d1a24a89fd92c863c7", "lon": -77.07147933333333, "rental_uris": {"ios": "https://dc.lft.to/lastmile_qr_scan", "android": "https://dc.lft.to/lastmile_qr_scan"}}, {"name": "4e615f82f0f43f008c544cdb57f4f32f", "fusion_lat": 0.0, "type": "electric_bike", "lat": 38.88348166666667, "is_reserved": 0, "is_disabled": 0, "fusion_lon": 0.0, "bike_id": "4e615f82f0f43f008c544cdb57f4f32f", "lon": -77.18301, "rental_uris": {"ios": "https://dc.lft.to/lastmile_qr_scan", "android": "https://dc.lft.to/lastmile_qr_scan"}}, {"name": "3896909cb564388a2de850b043540685", "fusion_lat": 0.0, "type": "electric_scooter", "lat": 38.904304833333335, "is_reserved": 0, "is_disabled": 0, "fusion_lon": 0.0, "bike_id": "3896909cb564388a2de850b043540685", "lon": -77.02594716666667, "rental_uris": {"ios": "https://dc.lft.to/lastmile_qr_scan", "android": "https://dc.lft.to/lastmile_qr_scan"}}, {"name": "bdde55f80ba1cfb7ceaa81fcec302b84", "fusion_lat": 0.0, "type": "electric_bike", "lat": 38.92453116666667, "is_reserved": 0, "is_disabled": 0, "fusion_lon": 0.0, "bike_id": "bdde55f80ba1cfb7ceaa81fcec302b84", "lon": -76.99045116666667, "rental_uris": {"ios": "https://dc.lft.to/lastmile_qr_scan", "android": "https://dc.lft.to/lastmile_qr_scan"}}, {"name": "165554091eeedab1768aa6f35c7f7b18", "fusion_lat": 0.0, "type": "electric_scooter", "lat": 38.910563833333335, "is_reserved": 0, "is_disabled": 0, "fusion_lon": 0.0, "bike_id": "165554091eeedab1768aa6f35c7f7b18", "lon": -77.04277516666667, "rental_uris": {"ios": "https://dc.lft.to/lastmile_qr_scan", "android": "https://dc.lft.to/lastmile_qr_scan"}}, {"name": "82afef2bc72784a447a733f5072b68c9", "fusion_lat": 0.0, "type": "electric_scooter", "lat": 38.90069033333333, "is_reserved": 0, "is_disabled": 0, "fusion_lon": 0.0, "bike_id": "82afef2bc72784a447a733f5072b68c9", "lon": -77.033522, "rental_uris": {"ios": "https://dc.lft.to/lastmile_qr_scan", "android": "https://dc.lft.to/lastmile_qr_scan"}}, {"name": "7906fcf73075840c2c8d2e65a5c92778", "fusion_lat": 0.0, "type": "electric_scooter", "lat": 38.844334333333336, "is_reserved": 0, "is_disabled": 0, "fusion_lon": 0.0, "bike_id": "7906fcf73075840c2c8d2e65a5c92778", "lon": -76.9972165, "rental_uris": {"ios": "https://dc.lft.to/lastmile_qr_scan", "android": "https://dc.lft.to/lastmile_qr_scan"}}, {"name": "59b5d3ee615edbdc84f0bca6c2e05d41", "fusion_lat": 0.0, "type": "electric_scooter", "lat": 38.9070025, "is_reserved": 0, "is_disabled": 0, "fusion_lon": 0.0, "bike_id": "59b5d3ee615edbdc84f0bca6c2e05d41", "lon": -77.02383616666667, "rental_uris": {"ios": "https://dc.lft.to/lastmile_qr_scan", "android": "https://dc.lft.to/lastmile_qr_scan"}}, {"name": "11f5f0a1962b45d6e154fdf60d78bf26", "fusion_lat": 0.0, "type": "electric_scooter", "lat": 38.909697, "is_reserved": 0, "is_disabled": 0, "fusion_lon": 0.0, "bike_id": "11f5f0a1962b45d6e154fdf60d78bf26", "lon": -77.02178983333333, "rental_uris": {"ios": "https://dc.lft.to/lastmile_qr_scan", "android": "https://dc.lft.to/lastmile_qr_scan"}}, {"name": "99471bb9ceea5ac55177b88716394566", "fusion_lat": 0.0, "type": "electric_scooter", "lat": 38.91709616666667, "is_reserved": 0, "is_disabled": 0, "fusion_lon": 0.0, "bike_id": "99471bb9ceea5ac55177b88716394566", "lon": -77.032175, "rental_uris": {"ios": "https://dc.lft.to/lastmile_qr_scan", "android": "https://dc.lft.to/lastmile_qr_scan"}}, {"name": "d54a347e887e12d5aeb3cfddb3474aa6", "fusion_lat": 0.0, "type": "electric_scooter", "lat": 38.9020615, "is_reserved": 0, "is_disabled": 0, "fusion_lon": 0.0, "bike_id": "d54a347e887e12d5aeb3cfddb3474aa6", "lon": -77.051196, "rental_uris": {"ios": "https://dc.lft.to/lastmile_qr_scan", "android": "https://dc.lft.to/lastmile_qr_scan"}}, {"name": "b41ad63ed5cf7c60328eb7e19d56226d", "fusion_lat": 0.0, "type": "electric_scooter", "lat": 38.917001, "is_reserved": 0, "is_disabled": 0, "fusion_lon": 0.0, "bike_id": "b41ad63ed5cf7c60328eb7e19d56226d", "lon": -77.03152483333334, "rental_uris": {"ios": "https://dc.lft.to/lastmile_qr_scan", "android": "https://dc.lft.to/lastmile_qr_scan"}}, {"name": "f88b35c4a7f2ebd3bf1ab60da215f6ed", "fusion_lat": 0.0, "type": "electric_scooter", "lat": 38.91135, "is_reserved": 0, "is_disabled": 0, "fusion_lon": 0.0, "bike_id": "f88b35c4a7f2ebd3bf1ab60da215f6ed", "lon": -77.01991066666666, "rental_uris": {"ios": "https://dc.lft.to/lastmile_qr_scan", "android": "https://dc.lft.to/lastmile_qr_scan"}}, {"name": "24594ecd6de5282f187ee837bcbf0995", "fusion_lat": 0.0, "type": "electric_scooter", "lat": 38.941114666666664, "is_reserved": 0, "is_disabled": 0, "fusion_lon": 0.0, "bike_id": "24594ecd6de5282f187ee837bcbf0995", "lon": -77.0179185, "rental_uris": {"ios": "https://dc.lft.to/lastmile_qr_scan", "android": "https://dc.lft.to/lastmile_qr_scan"}}, {"name": "32a2362409d8f2edc1bd5887f143fcb8", "fusion_lat": 0.0, "type": "electric_scooter", "lat": 38.893615, "is_reserved": 0, "is_disabled": 0, "fusion_lon": 0.0, "bike_id": "32a2362409d8f2edc1bd5887f143fcb8", "lon": -76.94985533333333, "rental_uris": {"ios": "https://dc.lft.to/lastmile_qr_scan", "android": "https://dc.lft.to/lastmile_qr_scan"}}, {"name": "1b5d0f79e1b45cd58bc4f0701068352f", "fusion_lat": 0.0, "type": "electric_bike", "lat": 38.83436283333333, "is_reserved": 0, "is_disabled": 0, "fusion_lon": 0.0, "bike_id": "1b5d0f79e1b45cd58bc4f0701068352f", "lon": -77.0083095, "rental_uris": {"ios": "https://dc.lft.to/lastmile_qr_scan", "android": "https://dc.lft.to/lastmile_qr_scan"}}, {"name": "4c1642352ba2b88ae406b3e2feb27867", "fusion_lat": 0.0, "type": "electric_scooter", "lat": 38.9006565, "is_reserved": 0, "is_disabled": 0, "fusion_lon": 0.0, "bike_id": "4c1642352ba2b88ae406b3e2feb27867", "lon": -77.029477, "rental_uris": {"ios": "https://dc.lft.to/lastmile_qr_scan", "android": "https://dc.lft.to/lastmile_qr_scan"}}, {"name": "84ac2424abc65f8897facc6d810fef0e", "fusion_lat": 0.0, "type": "electric_scooter", "lat": 38.876553333333334, "is_reserved": 0, "is_disabled": 0, "fusion_lon": 0.0, "bike_id": "84ac2424abc65f8897facc6d810fef0e", "lon": -77.00785566666667, "rental_uris": {"ios": "https://dc.lft.to/lastmile_qr_scan", "android": "https://dc.lft.to/lastmile_qr_scan"}}, {"name": "6045b5747f3fdaeb6f94fc8b95d2e62f", "fusion_lat": 0.0, "type": "electric_scooter", "lat": 38.93153516666667, "is_reserved": 0, "is_disabled": 0, "fusion_lon": 0.0, "bike_id": "6045b5747f3fdaeb6f94fc8b95d2e62f", "lon": -77.02971816666667, "rental_uris": {"ios": "https://dc.lft.to/lastmile_qr_scan", "android": "https://dc.lft.to/lastmile_qr_scan"}}, {"name": "b97db4c8a2274bcd90682160ddbf6ee9", "fusion_lat": 0.0, "type": "electric_bike", "lat": 38.869105, "is_reserved": 0, "is_disabled": 0, "fusion_lon": 0.0, "bike_id": "b97db4c8a2274bcd90682160ddbf6ee9", "lon": -77.1318185, "rental_uris": {"ios": "https://dc.lft.to/lastmile_qr_scan", "android": "https://dc.lft.to/lastmile_qr_scan"}}, {"name": "e06e9c3f52e26c7b368a221f8e812df4", "fusion_lat": 0.0, "type": "electric_scooter", "lat": 38.9181915, "is_reserved": 0, "is_disabled": 0, "fusion_lon": 0.0, "bike_id": "e06e9c3f52e26c7b368a221f8e812df4", "lon": -77.02798683333333, "rental_uris": {"ios": "https://dc.lft.to/lastmile_qr_scan", "android": "https://dc.lft.to/lastmile_qr_scan"}}, {"name": "06c9e067195736e9e241ed03c69ff8fc", "fusion_lat": 0.0, "type": "electric_bike", "lat": 38.919267166666664, "is_reserved": 0, "is_disabled": 0, "fusion_lon": 0.0, "bike_id": "06c9e067195736e9e241ed03c69ff8fc", "lon": -77.04590166666667, "rental_uris": {"ios": "https://dc.lft.to/lastmile_qr_scan", "android": "https://dc.lft.to/lastmile_qr_scan"}}, {"name": "3239fa2793cdf75e3f04c00e95770bea", "fusion_lat": 0.0, "type": "electric_scooter", "lat": 38.877940333333335, "is_reserved": 0, "is_disabled": 0, "fusion_lon": 0.0, "bike_id": "3239fa2793cdf75e3f04c00e95770bea", "lon": -77.00569683333333, "rental_uris": {"ios": "https://dc.lft.to/lastmile_qr_scan", "android": "https://dc.lft.to/lastmile_qr_scan"}}, {"name": "ca36967b5ca1dc150fa040f157266b2f", "fusion_lat": 0.0, "type": "electric_bike", "lat": 38.95711383333333, "is_reserved": 0, "is_disabled": 0, "fusion_lon": 0.0, "bike_id": "ca36967b5ca1dc150fa040f157266b2f", "lon": -77.01472733333334, "rental_uris": {"ios": "https://dc.lft.to/lastmile_qr_scan", "android": "https://dc.lft.to/lastmile_qr_scan"}}, {"name": "3a2e3bbdf120d156ef988ffdd67c6750", "fusion_lat": 0.0, "type": "electric_bike", "lat": 39.0037865, "is_reserved": 0, "is_disabled": 0, "fusion_lon": 0.0, "bike_id": "3a2e3bbdf120d156ef988ffdd67c6750", "lon": -77.01295383333333, "rental_uris": {"ios": "https://dc.lft.to/lastmile_qr_scan", "android": "https://dc.lft.to/lastmile_qr_scan"}}, {"name": "621d6920bf3c70e41434ca8a415c5ffd", "fusion_lat": 0.0, "type": "electric_scooter", "lat": 38.927701166666665, "is_reserved": 0, "is_disabled": 0, "fusion_lon": 0.0, "bike_id": "621d6920bf3c70e41434ca8a415c5ffd", "lon": -77.02779433333333, "rental_uris": {"ios": "https://dc.lft.to/lastmile_qr_scan", "android": "https://dc.lft.to/lastmile_qr_scan"}}, {"name": "cc0bdbeb3d2487e2342f8895ec5103af", "fusion_lat": 0.0, "type": "electric_scooter", "lat": 38.947022833333335, "is_reserved": 0, "is_disabled": 0, "fusion_lon": 0.0, "bike_id": "cc0bdbeb3d2487e2342f8895ec5103af", "lon": -77.01935116666667, "rental_uris": {"ios": "https://dc.lft.to/lastmile_qr_scan", "android": "https://dc.lft.to/lastmile_qr_scan"}}, {"name": "25025ca698eff11d348b4c02b83e0e51", "fusion_lat": 0.0, "type": "electric_scooter", "lat": 38.9306025, "is_reserved": 0, "is_disabled": 0, "fusion_lon": 0.0, "bike_id": "25025ca698eff11d348b4c02b83e0e51", "lon": -77.02323166666666, "rental_uris": {"ios": "https://dc.lft.to/lastmile_qr_scan", "android": "https://dc.lft.to/lastmile_qr_scan"}}, {"name": "23c37c9dcb52ef0075e0f167753b61ad", "fusion_lat": 0.0, "type": "electric_scooter", "lat": 38.923709, "is_reserved": 0, "is_disabled": 0, "fusion_lon": 0.0, "bike_id": "23c37c9dcb52ef0075e0f167753b61ad", "lon": -77.03163316666667, "rental_uris": {"ios": "https://dc.lft.to/lastmile_qr_scan", "android": "https://dc.lft.to/lastmile_qr_scan"}}, {"name": "aa09ebe006cf3c80a93db797e92c16a7", "fusion_lat": 0.0, "type": "electric_bike", "lat": 38.8079275, "is_reserved": 0, "is_disabled": 0, "fusion_lon": 0.0, "bike_id": "aa09ebe006cf3c80a93db797e92c16a7", "lon": -77.129682, "rental_uris": {"ios": "https://dc.lft.to/lastmile_qr_scan", "android": "https://dc.lft.to/lastmile_qr_scan"}}, {"name": "8003c43c6118cb71b642d125deab5cf8", "fusion_lat": 0.0, "type": "electric_bike", "lat": 38.852114, "is_reserved": 0, "is_disabled": 0, "fusion_lon": 0.0, "bike_id": "8003c43c6118cb71b642d125deab5cf8", "lon": -77.04645516666666, "rental_uris": {"ios": "https://dc.lft.to/lastmile_qr_scan", "android": "https://dc.lft.to/lastmile_qr_scan"}}, {"name": "5f9e0b57de6563b251aac3579c58b877", "fusion_lat": 0.0, "type": "electric_scooter", "lat": 38.92348766666667, "is_reserved": 0, "is_disabled": 0, "fusion_lon": 0.0, "bike_id": "5f9e0b57de6563b251aac3579c58b877", "lon": -77.0543625, "rental_uris": {"ios": "https://dc.lft.to/lastmile_qr_scan", "android": "https://dc.lft.to/lastmile_qr_scan"}}, {"name": "80645fcc3931c48ded4170573a887455", "fusion_lat": 0.0, "type": "electric_scooter", "lat": 38.959114166666666, "is_reserved": 0, "is_disabled": 0, "fusion_lon": 0.0, "bike_id": "80645fcc3931c48ded4170573a887455", "lon": -77.08081033333333, "rental_uris": {"ios": "https://dc.lft.to/lastmile_qr_scan", "android": "https://dc.lft.to/lastmile_qr_scan"}}, {"name": "a99c6ca765605f88ef17b38da132cdee", "fusion_lat": 0.0, "type": "electric_bike", "lat": 38.9312735, "is_reserved": 0, "is_disabled": 0, "fusion_lon": 0.0, "bike_id": "a99c6ca765605f88ef17b38da132cdee", "lon": -77.02026783333334, "rental_uris": {"ios": "https://dc.lft.to/lastmile_qr_scan", "android": "https://dc.lft.to/lastmile_qr_scan"}}, {"name": "861030fed732579bcba4e2cf305ecdee", "fusion_lat": 0.0, "type": "electric_scooter", "lat": 38.894087166666665, "is_reserved": 0, "is_disabled": 0, "fusion_lon": 0.0, "bike_id": "861030fed732579bcba4e2cf305ecdee", "lon": -76.93239133333333, "rental_uris": {"ios": "https://dc.lft.to/lastmile_qr_scan", "android": "https://dc.lft.to/lastmile_qr_scan"}}, {"name": "1e059bea62169e838f7ba98d0136a697", "fusion_lat": 0.0, "type": "electric_scooter", "lat": 38.932048333333334, "is_reserved": 0, "is_disabled": 0, "fusion_lon": 0.0, "bike_id": "1e059bea62169e838f7ba98d0136a697", "lon": -77.03663933333333, "rental_uris": {"ios": "https://dc.lft.to/lastmile_qr_scan", "android": "https://dc.lft.to/lastmile_qr_scan"}}, {"name": "f922e927b5696137f2feeb2d373335d0", "fusion_lat": 0.0, "type": "electric_scooter", "lat": 38.905884666666665, "is_reserved": 0, "is_disabled": 0, "fusion_lon": 0.0, "bike_id": "f922e927b5696137f2feeb2d373335d0", "lon": -77.00586183333333, "rental_uris": {"ios": "https://dc.lft.to/lastmile_qr_scan", "android": "https://dc.lft.to/lastmile_qr_scan"}}, {"name": "74f10f479fc63a5bfafdb593f6671b7c", "fusion_lat": 0.0, "type": "electric_scooter", "lat": 38.9041925, "is_reserved": 0, "is_disabled": 0, "fusion_lon": 0.0, "bike_id": "74f10f479fc63a5bfafdb593f6671b7c", "lon": -76.990737, "rental_uris": {"ios": "https://dc.lft.to/lastmile_qr_scan", "android": "https://dc.lft.to/lastmile_qr_scan"}}, {"name": "7131146c434e566a9f44444af9735fd9", "fusion_lat": 0.0, "type": "electric_scooter", "lat": 38.85806, "is_reserved": 0, "is_disabled": 0, "fusion_lon": 0.0, "bike_id": "7131146c434e566a9f44444af9735fd9", "lon": -76.99095116666666, "rental_uris": {"ios": "https://dc.lft.to/lastmile_qr_scan", "android": "https://dc.lft.to/lastmile_qr_scan"}}, {"name": "65c8464b77bcdaf92ba8d7b53040937f", "fusion_lat": 0.0, "type": "electric_scooter", "lat": 38.91604516666666, "is_reserved": 0, "is_disabled": 0, "fusion_lon": 0.0, "bike_id": "65c8464b77bcdaf92ba8d7b53040937f", "lon": -77.03203, "rental_uris": {"ios": "https://dc.lft.to/lastmile_qr_scan", "android": "https://dc.lft.to/lastmile_qr_scan"}}, {"name": "b7057c50cf7868ddb102a9976ceaa423", "fusion_lat": 0.0, "type": "electric_scooter", "lat": 38.904237, "is_reserved": 0, "is_disabled": 0, "fusion_lon": 0.0, "bike_id": "b7057c50cf7868ddb102a9976ceaa423", "lon": -77.0340745, "rental_uris": {"ios": "https://dc.lft.to/lastmile_qr_scan", "android": "https://dc.lft.to/lastmile_qr_scan"}}, {"name": "4d2d04b577df672826dda578771feff1", "fusion_lat": 0.0, "type": "electric_scooter", "lat": 38.90948366666667, "is_reserved": 0, "is_disabled": 0, "fusion_lon": 0.0, "bike_id": "4d2d04b577df672826dda578771feff1", "lon": -77.027693, "rental_uris": {"ios": "https://dc.lft.to/lastmile_qr_scan", "android": "https://dc.lft.to/lastmile_qr_scan"}}, {"name": "74d81689a5b77a4e08af9a3b5ec06bb4", "fusion_lat": 0.0, "type": "electric_scooter", "lat": 38.905781, "is_reserved": 0, "is_disabled": 0, "fusion_lon": 0.0, "bike_id": "74d81689a5b77a4e08af9a3b5ec06bb4", "lon": -77.02606033333333, "rental_uris": {"ios": "https://dc.lft.to/lastmile_qr_scan", "android": "https://dc.lft.to/lastmile_qr_scan"}}, {"name": "900563845d9ff6728d1bfa1d354d7ef1", "fusion_lat": 0.0, "type": "electric_bike", "lat": 39.038635666666664, "is_reserved": 0, "is_disabled": 0, "fusion_lon": 0.0, "bike_id": "900563845d9ff6728d1bfa1d354d7ef1", "lon": -76.99034666666667, "rental_uris": {"ios": "https://dc.lft.to/lastmile_qr_scan", "android": "https://dc.lft.to/lastmile_qr_scan"}}, {"name": "be59e374017ab9bd1119763d79e6f418", "fusion_lat": 0.0, "type": "electric_scooter", "lat": 38.903526, "is_reserved": 0, "is_disabled": 0, "fusion_lon": 0.0, "bike_id": "be59e374017ab9bd1119763d79e6f418", "lon": -77.0534065, "rental_uris": {"ios": "https://dc.lft.to/lastmile_qr_scan", "android": "https://dc.lft.to/lastmile_qr_scan"}}, {"name": "b4572d9023c08b5e275a8b16d15527bb", "fusion_lat": 0.0, "type": "electric_scooter", "lat": 38.91823733333333, "is_reserved": 0, "is_disabled": 0, "fusion_lon": 0.0, "bike_id": "b4572d9023c08b5e275a8b16d15527bb", "lon": -77.02795416666666, "rental_uris": {"ios": "https://dc.lft.to/lastmile_qr_scan", "android": "https://dc.lft.to/lastmile_qr_scan"}}, {"name": "1b93d33619a0e8712f553a74b689b24c", "fusion_lat": 0.0, "type": "electric_scooter", "lat": 38.89912916666667, "is_reserved": 0, "is_disabled": 0, "fusion_lon": 0.0, "bike_id": "1b93d33619a0e8712f553a74b689b24c", "lon": -76.93366916666666, "rental_uris": {"ios": "https://dc.lft.to/lastmile_qr_scan", "android": "https://dc.lft.to/lastmile_qr_scan"}}, {"name": "aa2a8328e05d279497a21113e4a6c27f", "fusion_lat": 0.0, "type": "electric_bike", "lat": 38.875296666666664, "is_reserved": 0, "is_disabled": 0, "fusion_lon": 0.0, "bike_id": "aa2a8328e05d279497a21113e4a6c27f", "lon": -77.19909616666666, "rental_uris": {"ios": "https://dc.lft.to/lastmile_qr_scan", "android": "https://dc.lft.to/lastmile_qr_scan"}}, {"name": "dd6a96ebce9a285beb7af824173aad01", "fusion_lat": 0.0, "type": "electric_bike", "lat": 38.85794283333333, "is_reserved": 0, "is_disabled": 0, "fusion_lon": 0.0, "bike_id": "dd6a96ebce9a285beb7af824173aad01", "lon": -77.09963133333333, "rental_uris": {"ios": "https://dc.lft.to/lastmile_qr_scan", "android": "https://dc.lft.to/lastmile_qr_scan"}}, {"name": "4ffbe774dd9b97ed74272090e2b76e08", "fusion_lat": 0.0, "type": "electric_scooter", "lat": 38.92102166666667, "is_reserved": 0, "is_disabled": 0, "fusion_lon": 0.0, "bike_id": "4ffbe774dd9b97ed74272090e2b76e08", "lon": -77.0318985, "rental_uris": {"ios": "https://dc.lft.to/lastmile_qr_scan", "android": "https://dc.lft.to/lastmile_qr_scan"}}, {"name": "7d762dcd460520df08f8d89344171b44", "fusion_lat": 0.0, "type": "electric_scooter", "lat": 38.876551, "is_reserved": 0, "is_disabled": 0, "fusion_lon": 0.0, "bike_id": "7d762dcd460520df08f8d89344171b44", "lon": -77.00782933333333, "rental_uris": {"ios": "https://dc.lft.to/lastmile_qr_scan", "android": "https://dc.lft.to/lastmile_qr_scan"}}, {"name": "50da5610f9279828bdd3cdc09178ce5c", "fusion_lat": 0.0, "type": "electric_scooter", "lat": 38.879263, "is_reserved": 0, "is_disabled": 0, "fusion_lon": 0.0, "bike_id": "50da5610f9279828bdd3cdc09178ce5c", "lon": -77.02105266666666, "rental_uris": {"ios": "https://dc.lft.to/lastmile_qr_scan", "android": "https://dc.lft.to/lastmile_qr_scan"}}, {"name": "acb718438a1d970a7a658b3b9268ce18", "fusion_lat": 0.0, "type": "electric_scooter", "lat": 38.88459966666667, "is_reserved": 0, "is_disabled": 0, "fusion_lon": 0.0, "bike_id": "acb718438a1d970a7a658b3b9268ce18", "lon": -76.92469883333334, "rental_uris": {"ios": "https://dc.lft.to/lastmile_qr_scan", "android": "https://dc.lft.to/lastmile_qr_scan"}}, {"name": "ab0d6f2dd39f71b5d7b8d0577e76ff62", "fusion_lat": 0.0, "type": "electric_scooter", "lat": 38.927224833333334, "is_reserved": 0, "is_disabled": 0, "fusion_lon": 0.0, "bike_id": "ab0d6f2dd39f71b5d7b8d0577e76ff62", "lon": -77.00572216666667, "rental_uris": {"ios": "https://dc.lft.to/lastmile_qr_scan", "android": "https://dc.lft.to/lastmile_qr_scan"}}, {"name": "d5b2244b624d3788946cc9fa5aebaf69", "fusion_lat": 0.0, "type": "electric_scooter", "lat": 38.91632933333333, "is_reserved": 0, "is_disabled": 0, "fusion_lon": 0.0, "bike_id": "d5b2244b624d3788946cc9fa5aebaf69", "lon": -77.04820366666667, "rental_uris": {"ios": "https://dc.lft.to/lastmile_qr_scan", "android": "https://dc.lft.to/lastmile_qr_scan"}}, {"name": "e2cd4411c7700d32e45a7cc8e23fba87", "fusion_lat": 0.0, "type": "electric_scooter", "lat": 38.90076366666667, "is_reserved": 0, "is_disabled": 0, "fusion_lon": 0.0, "bike_id": "e2cd4411c7700d32e45a7cc8e23fba87", "lon": -77.048902, "rental_uris": {"ios": "https://dc.lft.to/lastmile_qr_scan", "android": "https://dc.lft.to/lastmile_qr_scan"}}, {"name": "517f87bc618696e8abbca5ef77a86265", "fusion_lat": 0.0, "type": "electric_bike", "lat": 39.09460083333333, "is_reserved": 0, "is_disabled": 0, "fusion_lon": 0.0, "bike_id": "517f87bc618696e8abbca5ef77a86265", "lon": -77.14995316666666, "rental_uris": {"ios": "https://dc.lft.to/lastmile_qr_scan", "android": "https://dc.lft.to/lastmile_qr_scan"}}, {"name": "5b5074086dac797289e418b94afd7839", "fusion_lat": 0.0, "type": "electric_scooter", "lat": 38.879290833333336, "is_reserved": 0, "is_disabled": 0, "fusion_lon": 0.0, "bike_id": "5b5074086dac797289e418b94afd7839", "lon": -77.0076395, "rental_uris": {"ios": "https://dc.lft.to/lastmile_qr_scan", "android": "https://dc.lft.to/lastmile_qr_scan"}}, {"name": "ed780447977585ce353c971e0e208049", "fusion_lat": 0.0, "type": "electric_scooter", "lat": 38.9188275, "is_reserved": 0, "is_disabled": 0, "fusion_lon": 0.0, "bike_id": "ed780447977585ce353c971e0e208049", "lon": -77.03511383333333, "rental_uris": {"ios": "https://dc.lft.to/lastmile_qr_scan", "android": "https://dc.lft.to/lastmile_qr_scan"}}, {"name": "52ded4239e05fd3de1eb445cfec0c7f3", "fusion_lat": 0.0, "type": "electric_scooter", "lat": 38.90862883333333, "is_reserved": 0, "is_disabled": 0, "fusion_lon": 0.0, "bike_id": "52ded4239e05fd3de1eb445cfec0c7f3", "lon": -77.0237525, "rental_uris": {"ios": "https://dc.lft.to/lastmile_qr_scan", "android": "https://dc.lft.to/lastmile_qr_scan"}}, {"name": "9c18ee89a4a8b889726e9fbe0ca284b9", "fusion_lat": 0.0, "type": "electric_scooter", "lat": 38.93127666666667, "is_reserved": 0, "is_disabled": 0, "fusion_lon": 0.0, "bike_id": "9c18ee89a4a8b889726e9fbe0ca284b9", "lon": -77.02823583333333, "rental_uris": {"ios": "https://dc.lft.to/lastmile_qr_scan", "android": "https://dc.lft.to/lastmile_qr_scan"}}, {"name": "c0112ca0d2063a5dd8d0b7685621edf7", "fusion_lat": 0.0, "type": "electric_bike", "lat": 38.942057, "is_reserved": 0, "is_disabled": 0, "fusion_lon": 0.0, "bike_id": "c0112ca0d2063a5dd8d0b7685621edf7", "lon": -76.96623933333333, "rental_uris": {"ios": "https://dc.lft.to/lastmile_qr_scan", "android": "https://dc.lft.to/lastmile_qr_scan"}}, {"name": "ff67549cd801c63b18a1f4fae7492ae3", "fusion_lat": 0.0, "type": "electric_scooter", "lat": 38.89332133333333, "is_reserved": 0, "is_disabled": 0, "fusion_lon": 0.0, "bike_id": "ff67549cd801c63b18a1f4fae7492ae3", "lon": -76.92894266666667, "rental_uris": {"ios": "https://dc.lft.to/lastmile_qr_scan", "android": "https://dc.lft.to/lastmile_qr_scan"}}, {"name": "0735ec92633acda9ede91d4622c70fce", "fusion_lat": 0.0, "type": "electric_scooter", "lat": 38.914265666666665, "is_reserved": 0, "is_disabled": 0, "fusion_lon": 0.0, "bike_id": "0735ec92633acda9ede91d4622c70fce", "lon": -77.03187566666666, "rental_uris": {"ios": "https://dc.lft.to/lastmile_qr_scan", "android": "https://dc.lft.to/lastmile_qr_scan"}}, {"name": "ffabafcebcf98f87c5f3922fc4e8c6c0", "fusion_lat": 0.0, "type": "electric_scooter", "lat": 38.874240666666665, "is_reserved": 0, "is_disabled": 0, "fusion_lon": 0.0, "bike_id": "ffabafcebcf98f87c5f3922fc4e8c6c0", "lon": -77.0205985, "rental_uris": {"ios": "https://dc.lft.to/lastmile_qr_scan", "android": "https://dc.lft.to/lastmile_qr_scan"}}, {"name": "219558dd2decaea4aa07cb4e3170b56f", "fusion_lat": 0.0, "type": "electric_scooter", "lat": 38.918672666666666, "is_reserved": 0, "is_disabled": 0, "fusion_lon": 0.0, "bike_id": "219558dd2decaea4aa07cb4e3170b56f", "lon": -77.04598633333333, "rental_uris": {"ios": "https://dc.lft.to/lastmile_qr_scan", "android": "https://dc.lft.to/lastmile_qr_scan"}}, {"name": "a26c5ebbe2c90e10ea6af0d1a54fabde", "fusion_lat": 0.0, "type": "electric_scooter", "lat": 38.86371533333333, "is_reserved": 0, "is_disabled": 0, "fusion_lon": 0.0, "bike_id": "a26c5ebbe2c90e10ea6af0d1a54fabde", "lon": -77.01360416666667, "rental_uris": {"ios": "https://dc.lft.to/lastmile_qr_scan", "android": "https://dc.lft.to/lastmile_qr_scan"}}, {"name": "3bb3a134d47e52da8cefcbd897116471", "fusion_lat": 0.0, "type": "electric_scooter", "lat": 38.885317, "is_reserved": 0, "is_disabled": 0, "fusion_lon": 0.0, "bike_id": "3bb3a134d47e52da8cefcbd897116471", "lon": -77.0334375, "rental_uris": {"ios": "https://dc.lft.to/lastmile_qr_scan", "android": "https://dc.lft.to/lastmile_qr_scan"}}, {"name": "99e2cadedeb0fe9b9227f2fa40e608ce", "fusion_lat": 0.0, "type": "electric_scooter", "lat": 38.900429833333334, "is_reserved": 0, "is_disabled": 0, "fusion_lon": 0.0, "bike_id": "99e2cadedeb0fe9b9227f2fa40e608ce", "lon": -76.996951, "rental_uris": {"ios": "https://dc.lft.to/lastmile_qr_scan", "android": "https://dc.lft.to/lastmile_qr_scan"}}, {"name": "ac6435b3f096355c5ccda97ec2632848", "fusion_lat": 0.0, "type": "electric_scooter", "lat": 38.898863666666664, "is_reserved": 0, "is_disabled": 0, "fusion_lon": 0.0, "bike_id": "ac6435b3f096355c5ccda97ec2632848", "lon": -76.931781, "rental_uris": {"ios": "https://dc.lft.to/lastmile_qr_scan", "android": "https://dc.lft.to/lastmile_qr_scan"}}, {"name": "00df913f43c55743be1ce215dbb5b0b2", "fusion_lat": 0.0, "type": "electric_scooter", "lat": 38.9203535, "is_reserved": 0, "is_disabled": 0, "fusion_lon": 0.0, "bike_id": "00df913f43c55743be1ce215dbb5b0b2", "lon": -77.0259175, "rental_uris": {"ios": "https://dc.lft.to/lastmile_qr_scan", "android": "https://dc.lft.to/lastmile_qr_scan"}}, {"name": "69b0de34fd709a4c1423bf9ba418371c", "fusion_lat": 0.0, "type": "electric_scooter", "lat": 38.90578333333333, "is_reserved": 0, "is_disabled": 0, "fusion_lon": 0.0, "bike_id": "69b0de34fd709a4c1423bf9ba418371c", "lon": -77.02208366666666, "rental_uris": {"ios": "https://dc.lft.to/lastmile_qr_scan", "android": "https://dc.lft.to/lastmile_qr_scan"}}, {"name": "594c1faa41774c861d8d817df658b6e9", "fusion_lat": 0.0, "type": "electric_scooter", "lat": 38.91541433333333, "is_reserved": 0, "is_disabled": 0, "fusion_lon": 0.0, "bike_id": "594c1faa41774c861d8d817df658b6e9", "lon": -77.01974183333333, "rental_uris": {"ios": "https://dc.lft.to/lastmile_qr_scan", "android": "https://dc.lft.to/lastmile_qr_scan"}}, {"name": "0fdac9d5f413afdb708c4322deb60001", "fusion_lat": 0.0, "type": "electric_scooter", "lat": 38.918065, "is_reserved": 0, "is_disabled": 0, "fusion_lon": 0.0, "bike_id": "0fdac9d5f413afdb708c4322deb60001", "lon": -77.02816216666666, "rental_uris": {"ios": "https://dc.lft.to/lastmile_qr_scan", "android": "https://dc.lft.to/lastmile_qr_scan"}}, {"name": "142ffe251a725bac15ed5e25273a0a63", "fusion_lat": 0.0, "type": "electric_scooter", "lat": 38.90527983333333, "is_reserved": 0, "is_disabled": 0, "fusion_lon": 0.0, "bike_id": "142ffe251a725bac15ed5e25273a0a63", "lon": -77.050111, "rental_uris": {"ios": "https://dc.lft.to/lastmile_qr_scan", "android": "https://dc.lft.to/lastmile_qr_scan"}}, {"name": "7cd5ca46576cc55c25bc5b933ce3b1fd", "fusion_lat": 0.0, "type": "electric_scooter", "lat": 38.876456166666664, "is_reserved": 0, "is_disabled": 0, "fusion_lon": 0.0, "bike_id": "7cd5ca46576cc55c25bc5b933ce3b1fd", "lon": -76.9650655, "rental_uris": {"ios": "https://dc.lft.to/lastmile_qr_scan", "android": "https://dc.lft.to/lastmile_qr_scan"}}, {"name": "28ff27a52b25035143943a4c1719e74d", "fusion_lat": 0.0, "type": "electric_scooter", "lat": 38.9339425, "is_reserved": 0, "is_disabled": 0, "fusion_lon": 0.0, "bike_id": "28ff27a52b25035143943a4c1719e74d", "lon": -77.03155216666667, "rental_uris": {"ios": "https://dc.lft.to/lastmile_qr_scan", "android": "https://dc.lft.to/lastmile_qr_scan"}}, {"name": "e87907f8465c8b6be45c76e63a16349a", "fusion_lat": 0.0, "type": "electric_scooter", "lat": 38.9004135, "is_reserved": 0, "is_disabled": 0, "fusion_lon": 0.0, "bike_id": "e87907f8465c8b6be45c76e63a16349a", "lon": -76.91918183333334, "rental_uris": {"ios": "https://dc.lft.to/lastmile_qr_scan", "android": "https://dc.lft.to/lastmile_qr_scan"}}, {"name": "ec339beb015c4c151b479b2ff27aea73", "fusion_lat": 0.0, "type": "electric_scooter", "lat": 38.860723666666665, "is_reserved": 0, "is_disabled": 0, "fusion_lon": 0.0, "bike_id": "ec339beb015c4c151b479b2ff27aea73", "lon": -76.96754783333333, "rental_uris": {"ios": "https://dc.lft.to/lastmile_qr_scan", "android": "https://dc.lft.to/lastmile_qr_scan"}}, {"name": "c4c423033936fe490a2354b004afe5aa", "fusion_lat": 0.0, "type": "electric_scooter", "lat": 38.9220855, "is_reserved": 0, "is_disabled": 0, "fusion_lon": 0.0, "bike_id": "c4c423033936fe490a2354b004afe5aa", "lon": -77.04319183333334, "rental_uris": {"ios": "https://dc.lft.to/lastmile_qr_scan", "android": "https://dc.lft.to/lastmile_qr_scan"}}, {"name": "e5e4380f89d4efdead7c198c29876ac3", "fusion_lat": 0.0, "type": "electric_scooter", "lat": 38.914047333333336, "is_reserved": 0, "is_disabled": 0, "fusion_lon": 0.0, "bike_id": "e5e4380f89d4efdead7c198c29876ac3", "lon": -77.0131995, "rental_uris": {"ios": "https://dc.lft.to/lastmile_qr_scan", "android": "https://dc.lft.to/lastmile_qr_scan"}}, {"name": "f24aa6fda284f090e86ab7e2e2803ac6", "fusion_lat": 0.0, "type": "electric_scooter", "lat": 38.93249733333333, "is_reserved": 0, "is_disabled": 0, "fusion_lon": 0.0, "bike_id": "f24aa6fda284f090e86ab7e2e2803ac6", "lon": -77.02029483333334, "rental_uris": {"ios": "https://dc.lft.to/lastmile_qr_scan", "android": "https://dc.lft.to/lastmile_qr_scan"}}, {"name": "4974cde9775b61a9e635160618a587a4", "fusion_lat": 0.0, "type": "electric_scooter", "lat": 38.91708666666667, "is_reserved": 0, "is_disabled": 0, "fusion_lon": 0.0, "bike_id": "4974cde9775b61a9e635160618a587a4", "lon": -77.03144066666667, "rental_uris": {"ios": "https://dc.lft.to/lastmile_qr_scan", "android": "https://dc.lft.to/lastmile_qr_scan"}}, {"name": "4432bc49fdeb3a1b5797eeade0206924", "fusion_lat": 0.0, "type": "electric_scooter", "lat": 38.885987666666665, "is_reserved": 0, "is_disabled": 0, "fusion_lon": 0.0, "bike_id": "4432bc49fdeb3a1b5797eeade0206924", "lon": -77.02207016666667, "rental_uris": {"ios": "https://dc.lft.to/lastmile_qr_scan", "android": "https://dc.lft.to/lastmile_qr_scan"}}, {"name": "fddb202cd3b7f3402a3d80af3ea914ed", "fusion_lat": 0.0, "type": "electric_scooter", "lat": 38.9345575, "is_reserved": 0, "is_disabled": 0, "fusion_lon": 0.0, "bike_id": "fddb202cd3b7f3402a3d80af3ea914ed", "lon": -77.02921766666667, "rental_uris": {"ios": "https://dc.lft.to/lastmile_qr_scan", "android": "https://dc.lft.to/lastmile_qr_scan"}}, {"name": "44217d2cfadd6ce6aefdd2a01f52cd89", "fusion_lat": 0.0, "type": "electric_scooter", "lat": 38.90250733333333, "is_reserved": 0, "is_disabled": 0, "fusion_lon": 0.0, "bike_id": "44217d2cfadd6ce6aefdd2a01f52cd89", "lon": -77.04375333333333, "rental_uris": {"ios": "https://dc.lft.to/lastmile_qr_scan", "android": "https://dc.lft.to/lastmile_qr_scan"}}, {"name": "0f19efff69fd3484040f6a5c059181cc", "fusion_lat": 0.0, "type": "electric_scooter", "lat": 38.923703833333335, "is_reserved": 0, "is_disabled": 0, "fusion_lon": 0.0, "bike_id": "0f19efff69fd3484040f6a5c059181cc", "lon": -77.05136533333334, "rental_uris": {"ios": "https://dc.lft.to/lastmile_qr_scan", "android": "https://dc.lft.to/lastmile_qr_scan"}}, {"name": "a9ab231cabe4c04210b51212d19a712e", "fusion_lat": 0.0, "type": "electric_scooter", "lat": 38.900355166666664, "is_reserved": 0, "is_disabled": 0, "fusion_lon": 0.0, "bike_id": "a9ab231cabe4c04210b51212d19a712e", "lon": -77.00192983333334, "rental_uris": {"ios": "https://dc.lft.to/lastmile_qr_scan", "android": "https://dc.lft.to/lastmile_qr_scan"}}, {"name": "aaa17b2e351c81c3e0fe953831de8013", "fusion_lat": 0.0, "type": "electric_scooter", "lat": 38.908639, "is_reserved": 0, "is_disabled": 0, "fusion_lon": 0.0, "bike_id": "aaa17b2e351c81c3e0fe953831de8013", "lon": -76.9995595, "rental_uris": {"ios": "https://dc.lft.to/lastmile_qr_scan", "android": "https://dc.lft.to/lastmile_qr_scan"}}, {"name": "3e4fb6b61dbca1fbcd0a8c5d71dce801", "fusion_lat": 0.0, "type": "electric_bike", "lat": 38.994547833333336, "is_reserved": 0, "is_disabled": 0, "fusion_lon": 0.0, "bike_id": "3e4fb6b61dbca1fbcd0a8c5d71dce801", "lon": -76.90816983333333, "rental_uris": {"ios": "https://dc.lft.to/lastmile_qr_scan", "android": "https://dc.lft.to/lastmile_qr_scan"}}, {"name": "dfe05ee5306951b5afeeb1fb937dd7ee", "fusion_lat": 0.0, "type": "electric_scooter", "lat": 38.904333, "is_reserved": 0, "is_disabled": 0, "fusion_lon": 0.0, "bike_id": "dfe05ee5306951b5afeeb1fb937dd7ee", "lon": -77.02593516666667, "rental_uris": {"ios": "https://dc.lft.to/lastmile_qr_scan", "android": "https://dc.lft.to/lastmile_qr_scan"}}, {"name": "a20087c714174fe0bcaa8f1172d20556", "fusion_lat": 0.0, "type": "electric_scooter", "lat": 38.904227166666665, "is_reserved": 0, "is_disabled": 0, "fusion_lon": 0.0, "bike_id": "a20087c714174fe0bcaa8f1172d20556", "lon": -77.02875, "rental_uris": {"ios": "https://dc.lft.to/lastmile_qr_scan", "android": "https://dc.lft.to/lastmile_qr_scan"}}, {"name": "2af0be6da894dd94211bea9a4efee0c3", "fusion_lat": 0.0, "type": "electric_bike", "lat": 38.872384, "is_reserved": 0, "is_disabled": 0, "fusion_lon": 0.0, "bike_id": "2af0be6da894dd94211bea9a4efee0c3", "lon": -77.0116465, "rental_uris": {"ios": "https://dc.lft.to/lastmile_qr_scan", "android": "https://dc.lft.to/lastmile_qr_scan"}}, {"name": "eaf2eeff46bc522f0ac86a54288d470d", "fusion_lat": 0.0, "type": "electric_scooter", "lat": 38.924118166666666, "is_reserved": 0, "is_disabled": 0, "fusion_lon": 0.0, "bike_id": "eaf2eeff46bc522f0ac86a54288d470d", "lon": -77.02275783333333, "rental_uris": {"ios": "https://dc.lft.to/lastmile_qr_scan", "android": "https://dc.lft.to/lastmile_qr_scan"}}, {"name": "066e293860baa9895987995cb04c4fe8", "fusion_lat": 0.0, "type": "electric_scooter", "lat": 38.9050455, "is_reserved": 0, "is_disabled": 0, "fusion_lon": 0.0, "bike_id": "066e293860baa9895987995cb04c4fe8", "lon": -77.02730583333333, "rental_uris": {"ios": "https://dc.lft.to/lastmile_qr_scan", "android": "https://dc.lft.to/lastmile_qr_scan"}}, {"name": "bd4a83040c0392bc5958ccb8fe645b94", "fusion_lat": 0.0, "type": "electric_scooter", "lat": 38.9051095, "is_reserved": 0, "is_disabled": 0, "fusion_lon": 0.0, "bike_id": "bd4a83040c0392bc5958ccb8fe645b94", "lon": -77.05148216666667, "rental_uris": {"ios": "https://dc.lft.to/lastmile_qr_scan", "android": "https://dc.lft.to/lastmile_qr_scan"}}, {"name": "244829a8d96137dcb07b9d9583b579da", "fusion_lat": 0.0, "type": "electric_scooter", "lat": 38.89983516666667, "is_reserved": 0, "is_disabled": 0, "fusion_lon": 0.0, "bike_id": "244829a8d96137dcb07b9d9583b579da", "lon": -77.0179995, "rental_uris": {"ios": "https://dc.lft.to/lastmile_qr_scan", "android": "https://dc.lft.to/lastmile_qr_scan"}}, {"name": "6bc8748a79e1c6cce51b2422ba8af898", "fusion_lat": 0.0, "type": "electric_bike", "lat": 38.9097155, "is_reserved": 0, "is_disabled": 0, "fusion_lon": 0.0, "bike_id": "6bc8748a79e1c6cce51b2422ba8af898", "lon": -77.088241, "rental_uris": {"ios": "https://dc.lft.to/lastmile_qr_scan", "android": "https://dc.lft.to/lastmile_qr_scan"}}, {"name": "de50b90eff48cf9f96f3aa019c68dadb", "fusion_lat": 0.0, "type": "electric_scooter", "lat": 38.911942333333336, "is_reserved": 0, "is_disabled": 0, "fusion_lon": 0.0, "bike_id": "de50b90eff48cf9f96f3aa019c68dadb", "lon": -77.059631, "rental_uris": {"ios": "https://dc.lft.to/lastmile_qr_scan", "android": "https://dc.lft.to/lastmile_qr_scan"}}, {"name": "0360728371eb8faa275eec540c854df8", "fusion_lat": 0.0, "type": "electric_scooter", "lat": 38.90023333333333, "is_reserved": 0, "is_disabled": 0, "fusion_lon": 0.0, "bike_id": "0360728371eb8faa275eec540c854df8", "lon": -77.01166233333333, "rental_uris": {"ios": "https://dc.lft.to/lastmile_qr_scan", "android": "https://dc.lft.to/lastmile_qr_scan"}}, {"name": "f571de96d352d65e3ab9588eb79e4017", "fusion_lat": 0.0, "type": "electric_scooter", "lat": 38.8762735, "is_reserved": 0, "is_disabled": 0, "fusion_lon": 0.0, "bike_id": "f571de96d352d65e3ab9588eb79e4017", "lon": -76.96529116666666, "rental_uris": {"ios": "https://dc.lft.to/lastmile_qr_scan", "android": "https://dc.lft.to/lastmile_qr_scan"}}, {"name": "a7ddd8c0534745d70663aaa9f8a13e31", "fusion_lat": 0.0, "type": "electric_scooter", "lat": 38.915647, "is_reserved": 0, "is_disabled": 0, "fusion_lon": 0.0, "bike_id": "a7ddd8c0534745d70663aaa9f8a13e31", "lon": -77.04887133333334, "rental_uris": {"ios": "https://dc.lft.to/lastmile_qr_scan", "android": "https://dc.lft.to/lastmile_qr_scan"}}, {"name": "76d74abba6ed916dcc82350c1437a0cf", "fusion_lat": 0.0, "type": "electric_scooter", "lat": 38.9183985, "is_reserved": 0, "is_disabled": 0, "fusion_lon": 0.0, "bike_id": "76d74abba6ed916dcc82350c1437a0cf", "lon": -77.02693016666667, "rental_uris": {"ios": "https://dc.lft.to/lastmile_qr_scan", "android": "https://dc.lft.to/lastmile_qr_scan"}}, {"name": "5ffa18ce5289d59f90c320cd5028e780", "fusion_lat": 0.0, "type": "electric_scooter", "lat": 38.91691633333333, "is_reserved": 0, "is_disabled": 0, "fusion_lon": 0.0, "bike_id": "5ffa18ce5289d59f90c320cd5028e780", "lon": -77.02600666666666, "rental_uris": {"ios": "https://dc.lft.to/lastmile_qr_scan", "android": "https://dc.lft.to/lastmile_qr_scan"}}, {"name": "c20a99f550152d405ef71e4f3d137ca7", "fusion_lat": 0.0, "type": "electric_scooter", "lat": 38.94561516666667, "is_reserved": 0, "is_disabled": 0, "fusion_lon": 0.0, "bike_id": "c20a99f550152d405ef71e4f3d137ca7", "lon": -77.07774383333333, "rental_uris": {"ios": "https://dc.lft.to/lastmile_qr_scan", "android": "https://dc.lft.to/lastmile_qr_scan"}}, {"name": "57a180c7605580451d0145ba155e99a0", "fusion_lat": 0.0, "type": "electric_scooter", "lat": 38.892263, "is_reserved": 0, "is_disabled": 0, "fusion_lon": 0.0, "bike_id": "57a180c7605580451d0145ba155e99a0", "lon": -77.0500665, "rental_uris": {"ios": "https://dc.lft.to/lastmile_qr_scan", "android": "https://dc.lft.to/lastmile_qr_scan"}}, {"name": "7f60ee2518887a3126a4366cbdcbc42e", "fusion_lat": 0.0, "type": "electric_scooter", "lat": 38.90135083333333, "is_reserved": 0, "is_disabled": 0, "fusion_lon": 0.0, "bike_id": "7f60ee2518887a3126a4366cbdcbc42e", "lon": -76.98954683333334, "rental_uris": {"ios": "https://dc.lft.to/lastmile_qr_scan", "android": "https://dc.lft.to/lastmile_qr_scan"}}, {"name": "22c53906d6452aa73017b8de8d61a02c", "fusion_lat": 0.0, "type": "electric_scooter", "lat": 38.90634166666667, "is_reserved": 0, "is_disabled": 0, "fusion_lon": 0.0, "bike_id": "22c53906d6452aa73017b8de8d61a02c", "lon": -77.04144433333333, "rental_uris": {"ios": "https://dc.lft.to/lastmile_qr_scan", "android": "https://dc.lft.to/lastmile_qr_scan"}}, {"name": "2e3af4685d3f910ca00fbce6f59d1e4f", "fusion_lat": 0.0, "type": "electric_scooter", "lat": 38.87756816666667, "is_reserved": 0, "is_disabled": 0, "fusion_lon": 0.0, "bike_id": "2e3af4685d3f910ca00fbce6f59d1e4f", "lon": -77.020018, "rental_uris": {"ios": "https://dc.lft.to/lastmile_qr_scan", "android": "https://dc.lft.to/lastmile_qr_scan"}}, {"name": "04ef6a75fb93f656aae0c57293dcfe93", "fusion_lat": 0.0, "type": "electric_scooter", "lat": 38.913950666666665, "is_reserved": 0, "is_disabled": 0, "fusion_lon": 0.0, "bike_id": "04ef6a75fb93f656aae0c57293dcfe93", "lon": -77.04179283333333, "rental_uris": {"ios": "https://dc.lft.to/lastmile_qr_scan", "android": "https://dc.lft.to/lastmile_qr_scan"}}, {"name": "838cd73dfbe1b16d94e5df1f33a12153", "fusion_lat": 0.0, "type": "electric_scooter", "lat": 38.90273033333333, "is_reserved": 0, "is_disabled": 0, "fusion_lon": 0.0, "bike_id": "838cd73dfbe1b16d94e5df1f33a12153", "lon": -77.06280116666667, "rental_uris": {"ios": "https://dc.lft.to/lastmile_qr_scan", "android": "https://dc.lft.to/lastmile_qr_scan"}}, {"name": "b990a43dd386ee95fac7fdec6317a572", "fusion_lat": 0.0, "type": "electric_scooter", "lat": 38.9058515, "is_reserved": 0, "is_disabled": 0, "fusion_lon": 0.0, "bike_id": "b990a43dd386ee95fac7fdec6317a572", "lon": -77.00714466666666, "rental_uris": {"ios": "https://dc.lft.to/lastmile_qr_scan", "android": "https://dc.lft.to/lastmile_qr_scan"}}, {"name": "4c05fd247c87ff1637ec3f87be00cec7", "fusion_lat": 0.0, "type": "electric_bike", "lat": 38.842727833333335, "is_reserved": 0, "is_disabled": 0, "fusion_lon": 0.0, "bike_id": "4c05fd247c87ff1637ec3f87be00cec7", "lon": -76.9884385, "rental_uris": {"ios": "https://dc.lft.to/lastmile_qr_scan", "android": "https://dc.lft.to/lastmile_qr_scan"}}, {"name": "15b89f9f1cf7f184cb681c8d0775d330", "fusion_lat": 0.0, "type": "electric_scooter", "lat": 38.9169815, "is_reserved": 0, "is_disabled": 0, "fusion_lon": 0.0, "bike_id": "15b89f9f1cf7f184cb681c8d0775d330", "lon": -77.012634, "rental_uris": {"ios": "https://dc.lft.to/lastmile_qr_scan", "android": "https://dc.lft.to/lastmile_qr_scan"}}, {"name": "89533f86d99ba129be55436ec1e13ae6", "fusion_lat": 0.0, "type": "electric_scooter", "lat": 38.9121655, "is_reserved": 0, "is_disabled": 0, "fusion_lon": 0.0, "bike_id": "89533f86d99ba129be55436ec1e13ae6", "lon": -77.0384595, "rental_uris": {"ios": "https://dc.lft.to/lastmile_qr_scan", "android": "https://dc.lft.to/lastmile_qr_scan"}}, {"name": "636e9a9168fdbae58b1ac54f1fec0023", "fusion_lat": 0.0, "type": "electric_scooter", "lat": 38.91816516666667, "is_reserved": 0, "is_disabled": 0, "fusion_lon": 0.0, "bike_id": "636e9a9168fdbae58b1ac54f1fec0023", "lon": -77.04002566666666, "rental_uris": {"ios": "https://dc.lft.to/lastmile_qr_scan", "android": "https://dc.lft.to/lastmile_qr_scan"}}, {"name": "45cb83e19869c74288d48387260f70b8", "fusion_lat": 0.0, "type": "electric_scooter", "lat": 38.914232, "is_reserved": 0, "is_disabled": 0, "fusion_lon": 0.0, "bike_id": "45cb83e19869c74288d48387260f70b8", "lon": -77.02207916666667, "rental_uris": {"ios": "https://dc.lft.to/lastmile_qr_scan", "android": "https://dc.lft.to/lastmile_qr_scan"}}, {"name": "6b528f86726c454cc157ac4ee46b2199", "fusion_lat": 0.0, "type": "electric_scooter", "lat": 38.9037995, "is_reserved": 0, "is_disabled": 0, "fusion_lon": 0.0, "bike_id": "6b528f86726c454cc157ac4ee46b2199", "lon": -77.04905583333333, "rental_uris": {"ios": "https://dc.lft.to/lastmile_qr_scan", "android": "https://dc.lft.to/lastmile_qr_scan"}}, {"name": "1c2184502143723b2b9118a06acfdbc6", "fusion_lat": 0.0, "type": "electric_scooter", "lat": 38.916801166666666, "is_reserved": 0, "is_disabled": 0, "fusion_lon": 0.0, "bike_id": "1c2184502143723b2b9118a06acfdbc6", "lon": -77.02974466666667, "rental_uris": {"ios": "https://dc.lft.to/lastmile_qr_scan", "android": "https://dc.lft.to/lastmile_qr_scan"}}, {"name": "99684fbf0d7854096a39170d71582585", "fusion_lat": 0.0, "type": "electric_scooter", "lat": 38.8788355, "is_reserved": 0, "is_disabled": 0, "fusion_lon": 0.0, "bike_id": "99684fbf0d7854096a39170d71582585", "lon": -77.00548283333333, "rental_uris": {"ios": "https://dc.lft.to/lastmile_qr_scan", "android": "https://dc.lft.to/lastmile_qr_scan"}}, {"name": "f07ec0426f0510888e270638ade7a261", "fusion_lat": 0.0, "type": "electric_scooter", "lat": 38.8960515, "is_reserved": 0, "is_disabled": 0, "fusion_lon": 0.0, "bike_id": "f07ec0426f0510888e270638ade7a261", "lon": -77.04122483333333, "rental_uris": {"ios": "https://dc.lft.to/lastmile_qr_scan", "android": "https://dc.lft.to/lastmile_qr_scan"}}, {"name": "160b4aff49ad546a6ce28b6f9070eb47", "fusion_lat": 0.0, "type": "electric_bike", "lat": 38.895604, "is_reserved": 0, "is_disabled": 0, "fusion_lon": 0.0, "bike_id": "160b4aff49ad546a6ce28b6f9070eb47", "lon": -77.12735483333333, "rental_uris": {"ios": "https://dc.lft.to/lastmile_qr_scan", "android": "https://dc.lft.to/lastmile_qr_scan"}}, {"name": "ec80cc7f55306ea689c88d8c6e1b52df", "fusion_lat": 0.0, "type": "electric_bike", "lat": 39.105655666666664, "is_reserved": 0, "is_disabled": 0, "fusion_lon": 0.0, "bike_id": "ec80cc7f55306ea689c88d8c6e1b52df", "lon": -77.15268166666667, "rental_uris": {"ios": "https://dc.lft.to/lastmile_qr_scan", "android": "https://dc.lft.to/lastmile_qr_scan"}}, {"name": "8919111508f7c8654be4075a62a61323", "fusion_lat": 0.0, "type": "electric_scooter", "lat": 38.90668, "is_reserved": 0, "is_disabled": 0, "fusion_lon": 0.0, "bike_id": "8919111508f7c8654be4075a62a61323", "lon": -77.02712366666667, "rental_uris": {"ios": "https://dc.lft.to/lastmile_qr_scan", "android": "https://dc.lft.to/lastmile_qr_scan"}}, {"name": "263e5e72c31997a83f506b438eeb6797", "fusion_lat": 0.0, "type": "electric_scooter", "lat": 38.91818816666667, "is_reserved": 0, "is_disabled": 0, "fusion_lon": 0.0, "bike_id": "263e5e72c31997a83f506b438eeb6797", "lon": -77.04173133333333, "rental_uris": {"ios": "https://dc.lft.to/lastmile_qr_scan", "android": "https://dc.lft.to/lastmile_qr_scan"}}, {"name": "f228182637e78ea38e324c822b14f7b6", "fusion_lat": 0.0, "type": "electric_scooter", "lat": 38.91679766666667, "is_reserved": 0, "is_disabled": 0, "fusion_lon": 0.0, "bike_id": "f228182637e78ea38e324c822b14f7b6", "lon": -77.03210166666666, "rental_uris": {"ios": "https://dc.lft.to/lastmile_qr_scan", "android": "https://dc.lft.to/lastmile_qr_scan"}}, {"name": "a4db98cb7a8598b674b055274bd1a225", "fusion_lat": 0.0, "type": "electric_scooter", "lat": 38.91675033333333, "is_reserved": 0, "is_disabled": 0, "fusion_lon": 0.0, "bike_id": "a4db98cb7a8598b674b055274bd1a225", "lon": -77.02980166666667, "rental_uris": {"ios": "https://dc.lft.to/lastmile_qr_scan", "android": "https://dc.lft.to/lastmile_qr_scan"}}, {"name": "be023a4ad12e39410717d19e3edb76b8", "fusion_lat": 0.0, "type": "electric_scooter", "lat": 38.89614, "is_reserved": 0, "is_disabled": 0, "fusion_lon": 0.0, "bike_id": "be023a4ad12e39410717d19e3edb76b8", "lon": -77.0238095, "rental_uris": {"ios": "https://dc.lft.to/lastmile_qr_scan", "android": "https://dc.lft.to/lastmile_qr_scan"}}, {"name": "b2d13ab3a28340371f28e755b68b8d5d", "fusion_lat": 0.0, "type": "electric_bike", "lat": 38.922963333333335, "is_reserved": 0, "is_disabled": 0, "fusion_lon": 0.0, "bike_id": "b2d13ab3a28340371f28e755b68b8d5d", "lon": -76.993829, "rental_uris": {"ios": "https://dc.lft.to/lastmile_qr_scan", "android": "https://dc.lft.to/lastmile_qr_scan"}}, {"name": "2fe748f395536873146da9c47c24c94f", "fusion_lat": 0.0, "type": "electric_scooter", "lat": 38.89536283333333, "is_reserved": 0, "is_disabled": 0, "fusion_lon": 0.0, "bike_id": "2fe748f395536873146da9c47c24c94f", "lon": -76.94933866666666, "rental_uris": {"ios": "https://dc.lft.to/lastmile_qr_scan", "android": "https://dc.lft.to/lastmile_qr_scan"}}, {"name": "85bc34c2a98bcf38828fee52e007810f", "fusion_lat": 0.0, "type": "electric_scooter", "lat": 38.8764465, "is_reserved": 0, "is_disabled": 0, "fusion_lon": 0.0, "bike_id": "85bc34c2a98bcf38828fee52e007810f", "lon": -76.96505083333334, "rental_uris": {"ios": "https://dc.lft.to/lastmile_qr_scan", "android": "https://dc.lft.to/lastmile_qr_scan"}}, {"name": "87786404613f17e4337fdbf97f3451b5", "fusion_lat": 0.0, "type": "electric_scooter", "lat": 38.91200466666667, "is_reserved": 0, "is_disabled": 0, "fusion_lon": 0.0, "bike_id": "87786404613f17e4337fdbf97f3451b5", "lon": -77.01889616666666, "rental_uris": {"ios": "https://dc.lft.to/lastmile_qr_scan", "android": "https://dc.lft.to/lastmile_qr_scan"}}, {"name": "5447eb35bbab88e301eeb0b8f7fe1897", "fusion_lat": 0.0, "type": "electric_scooter", "lat": 38.893436666666666, "is_reserved": 0, "is_disabled": 0, "fusion_lon": 0.0, "bike_id": "5447eb35bbab88e301eeb0b8f7fe1897", "lon": -77.04675166666667, "rental_uris": {"ios": "https://dc.lft.to/lastmile_qr_scan", "android": "https://dc.lft.to/lastmile_qr_scan"}}, {"name": "e1e3ad13969de6e0d860e495d1d38a46", "fusion_lat": 0.0, "type": "electric_scooter", "lat": 38.91062216666667, "is_reserved": 0, "is_disabled": 0, "fusion_lon": 0.0, "bike_id": "e1e3ad13969de6e0d860e495d1d38a46", "lon": -77.0458245, "rental_uris": {"ios": "https://dc.lft.to/lastmile_qr_scan", "android": "https://dc.lft.to/lastmile_qr_scan"}}, {"name": "62948c3b0c1e6339e1a43a1eb3b243f1", "fusion_lat": 0.0, "type": "electric_scooter", "lat": 38.9170635, "is_reserved": 0, "is_disabled": 0, "fusion_lon": 0.0, "bike_id": "62948c3b0c1e6339e1a43a1eb3b243f1", "lon": -77.03144466666667, "rental_uris": {"ios": "https://dc.lft.to/lastmile_qr_scan", "android": "https://dc.lft.to/lastmile_qr_scan"}}, {"name": "d1be1ab957eb6b5ae864573b2c1ccff6", "fusion_lat": 0.0, "type": "electric_scooter", "lat": 38.91884683333333, "is_reserved": 0, "is_disabled": 0, "fusion_lon": 0.0, "bike_id": "d1be1ab957eb6b5ae864573b2c1ccff6", "lon": -77.04321316666666, "rental_uris": {"ios": "https://dc.lft.to/lastmile_qr_scan", "android": "https://dc.lft.to/lastmile_qr_scan"}}, {"name": "90c3074707ba32f0a224f36edaf9b486", "fusion_lat": 0.0, "type": "electric_scooter", "lat": 38.91275616666667, "is_reserved": 0, "is_disabled": 0, "fusion_lon": 0.0, "bike_id": "90c3074707ba32f0a224f36edaf9b486", "lon": -77.02951216666666, "rental_uris": {"ios": "https://dc.lft.to/lastmile_qr_scan", "android": "https://dc.lft.to/lastmile_qr_scan"}}, {"name": "8f15b399421ecd47a21c1d1cf646063b", "fusion_lat": 0.0, "type": "electric_scooter", "lat": 38.9067975, "is_reserved": 0, "is_disabled": 0, "fusion_lon": 0.0, "bike_id": "8f15b399421ecd47a21c1d1cf646063b", "lon": -77.034884, "rental_uris": {"ios": "https://dc.lft.to/lastmile_qr_scan", "android": "https://dc.lft.to/lastmile_qr_scan"}}, {"name": "2655056288b911bad16d94f89db20172", "fusion_lat": 0.0, "type": "electric_scooter", "lat": 38.873809, "is_reserved": 0, "is_disabled": 0, "fusion_lon": 0.0, "bike_id": "2655056288b911bad16d94f89db20172", "lon": -77.00039233333334, "rental_uris": {"ios": "https://dc.lft.to/lastmile_qr_scan", "android": "https://dc.lft.to/lastmile_qr_scan"}}, {"name": "f937137b9d6a922dedce8bf7d93075c2", "fusion_lat": 0.0, "type": "electric_scooter", "lat": 38.880548166666664, "is_reserved": 0, "is_disabled": 0, "fusion_lon": 0.0, "bike_id": "f937137b9d6a922dedce8bf7d93075c2", "lon": -77.02489066666666, "rental_uris": {"ios": "https://dc.lft.to/lastmile_qr_scan", "android": "https://dc.lft.to/lastmile_qr_scan"}}, {"name": "48a1ff9a245ba79f7f32b822636c68e5", "fusion_lat": 0.0, "type": "electric_bike", "lat": 38.923305, "is_reserved": 0, "is_disabled": 0, "fusion_lon": 0.0, "bike_id": "48a1ff9a245ba79f7f32b822636c68e5", "lon": -77.02294266666667, "rental_uris": {"ios": "https://dc.lft.to/lastmile_qr_scan", "android": "https://dc.lft.to/lastmile_qr_scan"}}, {"name": "6af1c22a74b6605cfc2865a03ac306f4", "fusion_lat": 0.0, "type": "electric_scooter", "lat": 38.93719766666667, "is_reserved": 0, "is_disabled": 0, "fusion_lon": 0.0, "bike_id": "6af1c22a74b6605cfc2865a03ac306f4", "lon": -77.03636266666666, "rental_uris": {"ios": "https://dc.lft.to/lastmile_qr_scan", "android": "https://dc.lft.to/lastmile_qr_scan"}}, {"name": "d1faaf7b20f9c4c7287237ed0fb7a82d", "fusion_lat": 0.0, "type": "electric_scooter", "lat": 38.917212666666664, "is_reserved": 0, "is_disabled": 0, "fusion_lon": 0.0, "bike_id": "d1faaf7b20f9c4c7287237ed0fb7a82d", "lon": -77.01865266666667, "rental_uris": {"ios": "https://dc.lft.to/lastmile_qr_scan", "android": "https://dc.lft.to/lastmile_qr_scan"}}, {"name": "16e53b62a97047ad431a6765ffb36fd0", "fusion_lat": 0.0, "type": "electric_scooter", "lat": 38.89730983333333, "is_reserved": 0, "is_disabled": 0, "fusion_lon": 0.0, "bike_id": "16e53b62a97047ad431a6765ffb36fd0", "lon": -77.04658216666667, "rental_uris": {"ios": "https://dc.lft.to/lastmile_qr_scan", "android": "https://dc.lft.to/lastmile_qr_scan"}}, {"name": "1c239dbe9aef96275ee84371f9eb52a7", "fusion_lat": 0.0, "type": "electric_scooter", "lat": 38.90196316666667, "is_reserved": 0, "is_disabled": 0, "fusion_lon": 0.0, "bike_id": "1c239dbe9aef96275ee84371f9eb52a7", "lon": -77.0505985, "rental_uris": {"ios": "https://dc.lft.to/lastmile_qr_scan", "android": "https://dc.lft.to/lastmile_qr_scan"}}, {"name": "a6316e4fc4111bba3e5470e7bd8ec1a1", "fusion_lat": 0.0, "type": "electric_scooter", "lat": 38.956423, "is_reserved": 0, "is_disabled": 0, "fusion_lon": 0.0, "bike_id": "a6316e4fc4111bba3e5470e7bd8ec1a1", "lon": -77.02277166666667, "rental_uris": {"ios": "https://dc.lft.to/lastmile_qr_scan", "android": "https://dc.lft.to/lastmile_qr_scan"}}, {"name": "a4d162c03114ad1a7419b3be1a4d764d", "fusion_lat": 0.0, "type": "electric_bike", "lat": 38.946282333333336, "is_reserved": 0, "is_disabled": 0, "fusion_lon": 0.0, "bike_id": "a4d162c03114ad1a7419b3be1a4d764d", "lon": -77.080497, "rental_uris": {"ios": "https://dc.lft.to/lastmile_qr_scan", "android": "https://dc.lft.to/lastmile_qr_scan"}}, {"name": "0e776f38e65b1f46cb06d629a882e421", "fusion_lat": 0.0, "type": "electric_scooter", "lat": 38.90167866666667, "is_reserved": 0, "is_disabled": 0, "fusion_lon": 0.0, "bike_id": "0e776f38e65b1f46cb06d629a882e421", "lon": -77.01892733333334, "rental_uris": {"ios": "https://dc.lft.to/lastmile_qr_scan", "android": "https://dc.lft.to/lastmile_qr_scan"}}, {"name": "130282020fddfb8310b0c4aaec316556", "fusion_lat": 0.0, "type": "electric_scooter", "lat": 38.9125215, "is_reserved": 0, "is_disabled": 0, "fusion_lon": 0.0, "bike_id": "130282020fddfb8310b0c4aaec316556", "lon": -77.038467, "rental_uris": {"ios": "https://dc.lft.to/lastmile_qr_scan", "android": "https://dc.lft.to/lastmile_qr_scan"}}, {"name": "778a781aa665a4317d54cf6f0f5afb59", "fusion_lat": 0.0, "type": "electric_scooter", "lat": 38.90380233333333, "is_reserved": 0, "is_disabled": 0, "fusion_lon": 0.0, "bike_id": "778a781aa665a4317d54cf6f0f5afb59", "lon": -77.04836766666666, "rental_uris": {"ios": "https://dc.lft.to/lastmile_qr_scan", "android": "https://dc.lft.to/lastmile_qr_scan"}}, {"name": "31ce739952332d762c5ee496beed78f6", "fusion_lat": 0.0, "type": "electric_bike", "lat": 38.84481983333333, "is_reserved": 0, "is_disabled": 0, "fusion_lon": 0.0, "bike_id": "31ce739952332d762c5ee496beed78f6", "lon": -76.97230833333333, "rental_uris": {"ios": "https://dc.lft.to/lastmile_qr_scan", "android": "https://dc.lft.to/lastmile_qr_scan"}}, {"name": "5f27eaae6eeeae5502d4f264f78b1d4f", "fusion_lat": 0.0, "type": "electric_scooter", "lat": 38.91760033333333, "is_reserved": 0, "is_disabled": 0, "fusion_lon": 0.0, "bike_id": "5f27eaae6eeeae5502d4f264f78b1d4f", "lon": -77.02513716666667, "rental_uris": {"ios": "https://dc.lft.to/lastmile_qr_scan", "android": "https://dc.lft.to/lastmile_qr_scan"}}, {"name": "3ee3cb66cccf1d8c9a038286301b8552", "fusion_lat": 0.0, "type": "electric_scooter", "lat": 38.898361, "is_reserved": 0, "is_disabled": 0, "fusion_lon": 0.0, "bike_id": "3ee3cb66cccf1d8c9a038286301b8552", "lon": -77.03311883333333, "rental_uris": {"ios": "https://dc.lft.to/lastmile_qr_scan", "android": "https://dc.lft.to/lastmile_qr_scan"}}, {"name": "a9d97e76f90244ab506f1872bed3b0d4", "fusion_lat": 0.0, "type": "electric_bike", "lat": 38.9354515, "is_reserved": 0, "is_disabled": 0, "fusion_lon": 0.0, "bike_id": "a9d97e76f90244ab506f1872bed3b0d4", "lon": -77.08241316666667, "rental_uris": {"ios": "https://dc.lft.to/lastmile_qr_scan", "android": "https://dc.lft.to/lastmile_qr_scan"}}, {"name": "6a1c730cac5f5b9414c476020d60b0b2", "fusion_lat": 0.0, "type": "electric_scooter", "lat": 38.93108516666667, "is_reserved": 0, "is_disabled": 0, "fusion_lon": 0.0, "bike_id": "6a1c730cac5f5b9414c476020d60b0b2", "lon": -77.03839983333333, "rental_uris": {"ios": "https://dc.lft.to/lastmile_qr_scan", "android": "https://dc.lft.to/lastmile_qr_scan"}}, {"name": "3c8053c29af6e5f996e582a55a0ca668", "fusion_lat": 0.0, "type": "electric_scooter", "lat": 38.91788116666667, "is_reserved": 0, "is_disabled": 0, "fusion_lon": 0.0, "bike_id": "3c8053c29af6e5f996e582a55a0ca668", "lon": -77.02345216666667, "rental_uris": {"ios": "https://dc.lft.to/lastmile_qr_scan", "android": "https://dc.lft.to/lastmile_qr_scan"}}, {"name": "fff75f53f9d9cc4f4c9f3f136e788212", "fusion_lat": 0.0, "type": "electric_scooter", "lat": 38.905210333333336, "is_reserved": 0, "is_disabled": 0, "fusion_lon": 0.0, "bike_id": "fff75f53f9d9cc4f4c9f3f136e788212", "lon": -77.02973166666666, "rental_uris": {"ios": "https://dc.lft.to/lastmile_qr_scan", "android": "https://dc.lft.to/lastmile_qr_scan"}}, {"name": "fc9f9bd9a74f8542d544c72848b513e5", "fusion_lat": 0.0, "type": "electric_scooter", "lat": 38.9394325, "is_reserved": 0, "is_disabled": 0, "fusion_lon": 0.0, "bike_id": "fc9f9bd9a74f8542d544c72848b513e5", "lon": -77.03622366666667, "rental_uris": {"ios": "https://dc.lft.to/lastmile_qr_scan", "android": "https://dc.lft.to/lastmile_qr_scan"}}, {"name": "3efba58ab45e65d1f714e8a6dee8142f", "fusion_lat": 0.0, "type": "electric_bike", "lat": 38.8859, "is_reserved": 0, "is_disabled": 0, "fusion_lon": 0.0, "bike_id": "3efba58ab45e65d1f714e8a6dee8142f", "lon": -77.00067966666667, "rental_uris": {"ios": "https://dc.lft.to/lastmile_qr_scan", "android": "https://dc.lft.to/lastmile_qr_scan"}}, {"name": "e51d2d6279027259e8482028f9201a3d", "fusion_lat": 0.0, "type": "electric_scooter", "lat": 38.9068195, "is_reserved": 0, "is_disabled": 0, "fusion_lon": 0.0, "bike_id": "e51d2d6279027259e8482028f9201a3d", "lon": -76.9800275, "rental_uris": {"ios": "https://dc.lft.to/lastmile_qr_scan", "android": "https://dc.lft.to/lastmile_qr_scan"}}, {"name": "29e5207b6c32887207e25c5c7837049b", "fusion_lat": 0.0, "type": "electric_scooter", "lat": 38.91187333333333, "is_reserved": 0, "is_disabled": 0, "fusion_lon": 0.0, "bike_id": "29e5207b6c32887207e25c5c7837049b", "lon": -77.007308, "rental_uris": {"ios": "https://dc.lft.to/lastmile_qr_scan", "android": "https://dc.lft.to/lastmile_qr_scan"}}, {"name": "9e541b504d9de2f8b0da9b713fcd1b3f", "fusion_lat": 0.0, "type": "electric_scooter", "lat": 38.910457, "is_reserved": 0, "is_disabled": 0, "fusion_lon": 0.0, "bike_id": "9e541b504d9de2f8b0da9b713fcd1b3f", "lon": -77.04132, "rental_uris": {"ios": "https://dc.lft.to/lastmile_qr_scan", "android": "https://dc.lft.to/lastmile_qr_scan"}}, {"name": "bdbae98ce3bf23be6d7e5e88f16660fb", "fusion_lat": 0.0, "type": "electric_scooter", "lat": 38.911568833333334, "is_reserved": 0, "is_disabled": 0, "fusion_lon": 0.0, "bike_id": "bdbae98ce3bf23be6d7e5e88f16660fb", "lon": -77.02006933333334, "rental_uris": {"ios": "https://dc.lft.to/lastmile_qr_scan", "android": "https://dc.lft.to/lastmile_qr_scan"}}, {"name": "b020b1b9dcc769eda7e80e2a4349a6f9", "fusion_lat": 0.0, "type": "electric_scooter", "lat": 38.911066, "is_reserved": 0, "is_disabled": 0, "fusion_lon": 0.0, "bike_id": "b020b1b9dcc769eda7e80e2a4349a6f9", "lon": -77.0106315, "rental_uris": {"ios": "https://dc.lft.to/lastmile_qr_scan", "android": "https://dc.lft.to/lastmile_qr_scan"}}, {"name": "023219109ba8a0af8d116838bc2a1412", "fusion_lat": 0.0, "type": "electric_scooter", "lat": 38.905166, "is_reserved": 0, "is_disabled": 0, "fusion_lon": 0.0, "bike_id": "023219109ba8a0af8d116838bc2a1412", "lon": -77.06937283333333, "rental_uris": {"ios": "https://dc.lft.to/lastmile_qr_scan", "android": "https://dc.lft.to/lastmile_qr_scan"}}, {"name": "a16efd535a7f4a1355b606572560b4cd", "fusion_lat": 0.0, "type": "electric_scooter", "lat": 38.905432833333336, "is_reserved": 0, "is_disabled": 0, "fusion_lon": 0.0, "bike_id": "a16efd535a7f4a1355b606572560b4cd", "lon": -77.06272933333334, "rental_uris": {"ios": "https://dc.lft.to/lastmile_qr_scan", "android": "https://dc.lft.to/lastmile_qr_scan"}}, {"name": "6fe6c2a25dac9d8910927fabd26c4039", "fusion_lat": 0.0, "type": "electric_scooter", "lat": 38.930773, "is_reserved": 0, "is_disabled": 0, "fusion_lon": 0.0, "bike_id": "6fe6c2a25dac9d8910927fabd26c4039", "lon": -77.0279625, "rental_uris": {"ios": "https://dc.lft.to/lastmile_qr_scan", "android": "https://dc.lft.to/lastmile_qr_scan"}}, {"name": "4abdcb1a604ebad531ee0ab1cd5f76fe", "fusion_lat": 0.0, "type": "electric_scooter", "lat": 38.90520433333333, "is_reserved": 0, "is_disabled": 0, "fusion_lon": 0.0, "bike_id": "4abdcb1a604ebad531ee0ab1cd5f76fe", "lon": -77.0296695, "rental_uris": {"ios": "https://dc.lft.to/lastmile_qr_scan", "android": "https://dc.lft.to/lastmile_qr_scan"}}, {"name": "f26ccbddef6a0fe81ff4a75417b0984b", "fusion_lat": 0.0, "type": "electric_scooter", "lat": 38.90328616666667, "is_reserved": 0, "is_disabled": 0, "fusion_lon": 0.0, "bike_id": "f26ccbddef6a0fe81ff4a75417b0984b", "lon": -77.0363815, "rental_uris": {"ios": "https://dc.lft.to/lastmile_qr_scan", "android": "https://dc.lft.to/lastmile_qr_scan"}}, {"name": "d38116c024d615b39079d1c90122266b", "fusion_lat": 0.0, "type": "electric_scooter", "lat": 38.892305666666665, "is_reserved": 0, "is_disabled": 0, "fusion_lon": 0.0, "bike_id": "d38116c024d615b39079d1c90122266b", "lon": -77.04656516666667, "rental_uris": {"ios": "https://dc.lft.to/lastmile_qr_scan", "android": "https://dc.lft.to/lastmile_qr_scan"}}, {"name": "6972613ba171510938151273b5d36a66", "fusion_lat": 0.0, "type": "electric_bike", "lat": 38.9396745, "is_reserved": 0, "is_disabled": 0, "fusion_lon": 0.0, "bike_id": "6972613ba171510938151273b5d36a66", "lon": -77.02771933333334, "rental_uris": {"ios": "https://dc.lft.to/lastmile_qr_scan", "android": "https://dc.lft.to/lastmile_qr_scan"}}, {"name": "ef485f11b14f456a94a22945cd62a106", "fusion_lat": 0.0, "type": "electric_scooter", "lat": 38.89367766666667, "is_reserved": 0, "is_disabled": 0, "fusion_lon": 0.0, "bike_id": "ef485f11b14f456a94a22945cd62a106", "lon": -77.011835, "rental_uris": {"ios": "https://dc.lft.to/lastmile_qr_scan", "android": "https://dc.lft.to/lastmile_qr_scan"}}, {"name": "cfdbcb709d827ced841d8ceebebc030c", "fusion_lat": 0.0, "type": "electric_scooter", "lat": 38.90041216666667, "is_reserved": 0, "is_disabled": 0, "fusion_lon": 0.0, "bike_id": "cfdbcb709d827ced841d8ceebebc030c", "lon": -77.01217483333333, "rental_uris": {"ios": "https://dc.lft.to/lastmile_qr_scan", "android": "https://dc.lft.to/lastmile_qr_scan"}}, {"name": "cb1ed74569daf55de2f6b7ba06ed877e", "fusion_lat": 0.0, "type": "electric_scooter", "lat": 38.866597666666664, "is_reserved": 0, "is_disabled": 0, "fusion_lon": 0.0, "bike_id": "cb1ed74569daf55de2f6b7ba06ed877e", "lon": -76.988844, "rental_uris": {"ios": "https://dc.lft.to/lastmile_qr_scan", "android": "https://dc.lft.to/lastmile_qr_scan"}}, {"name": "5ce4dc2927393eca1fbb251af0c9aecb", "fusion_lat": 0.0, "type": "electric_bike", "lat": 38.85623066666667, "is_reserved": 0, "is_disabled": 0, "fusion_lon": 0.0, "bike_id": "5ce4dc2927393eca1fbb251af0c9aecb", "lon": -77.08544433333333, "rental_uris": {"ios": "https://dc.lft.to/lastmile_qr_scan", "android": "https://dc.lft.to/lastmile_qr_scan"}}, {"name": "c9e610cb063ed2ee8a5bb0aa01414215", "fusion_lat": 0.0, "type": "electric_bike", "lat": 38.90504266666667, "is_reserved": 0, "is_disabled": 0, "fusion_lon": 0.0, "bike_id": "c9e610cb063ed2ee8a5bb0aa01414215", "lon": -77.02953, "rental_uris": {"ios": "https://dc.lft.to/lastmile_qr_scan", "android": "https://dc.lft.to/lastmile_qr_scan"}}, {"name": "c9dbc0c8a904e678b3e40bef255c1604", "fusion_lat": 0.0, "type": "electric_scooter", "lat": 38.9125935, "is_reserved": 0, "is_disabled": 0, "fusion_lon": 0.0, "bike_id": "c9dbc0c8a904e678b3e40bef255c1604", "lon": -77.0387355, "rental_uris": {"ios": "https://dc.lft.to/lastmile_qr_scan", "android": "https://dc.lft.to/lastmile_qr_scan"}}, {"name": "3d17d8de35040b86bc90a286c5ca439c", "fusion_lat": 0.0, "type": "electric_scooter", "lat": 38.9029195, "is_reserved": 0, "is_disabled": 0, "fusion_lon": 0.0, "bike_id": "3d17d8de35040b86bc90a286c5ca439c", "lon": -77.03956683333334, "rental_uris": {"ios": "https://dc.lft.to/lastmile_qr_scan", "android": "https://dc.lft.to/lastmile_qr_scan"}}, {"name": "47d27340bf100b7b287dad481f84e60e", "fusion_lat": 0.0, "type": "electric_scooter", "lat": 38.91855433333333, "is_reserved": 0, "is_disabled": 0, "fusion_lon": 0.0, "bike_id": "47d27340bf100b7b287dad481f84e60e", "lon": -77.04501683333334, "rental_uris": {"ios": "https://dc.lft.to/lastmile_qr_scan", "android": "https://dc.lft.to/lastmile_qr_scan"}}, {"name": "04e13ccc925fd8c6cea262d1840deeb8", "fusion_lat": 0.0, "type": "electric_scooter", "lat": 38.90726516666667, "is_reserved": 0, "is_disabled": 0, "fusion_lon": 0.0, "bike_id": "04e13ccc925fd8c6cea262d1840deeb8", "lon": -77.008014, "rental_uris": {"ios": "https://dc.lft.to/lastmile_qr_scan", "android": "https://dc.lft.to/lastmile_qr_scan"}}, {"name": "52ca5275776251dbcd4bb7c59301274b", "fusion_lat": 0.0, "type": "electric_scooter", "lat": 38.902718666666665, "is_reserved": 0, "is_disabled": 0, "fusion_lon": 0.0, "bike_id": "52ca5275776251dbcd4bb7c59301274b", "lon": -77.02999583333333, "rental_uris": {"ios": "https://dc.lft.to/lastmile_qr_scan", "android": "https://dc.lft.to/lastmile_qr_scan"}}, {"name": "4fe69848893c2a4a6dce5a48a3497917", "fusion_lat": 0.0, "type": "electric_scooter", "lat": 38.902694833333335, "is_reserved": 0, "is_disabled": 0, "fusion_lon": 0.0, "bike_id": "4fe69848893c2a4a6dce5a48a3497917", "lon": -77.053865, "rental_uris": {"ios": "https://dc.lft.to/lastmile_qr_scan", "android": "https://dc.lft.to/lastmile_qr_scan"}}, {"name": "ee26a6bcd1c3bf1a6a2e60d0f20592e5", "fusion_lat": 0.0, "type": "electric_scooter", "lat": 38.9246765, "is_reserved": 0, "is_disabled": 0, "fusion_lon": 0.0, "bike_id": "ee26a6bcd1c3bf1a6a2e60d0f20592e5", "lon": -77.02712816666667, "rental_uris": {"ios": "https://dc.lft.to/lastmile_qr_scan", "android": "https://dc.lft.to/lastmile_qr_scan"}}, {"name": "6f541ba802a702c371241a4a3add37a7", "fusion_lat": 0.0, "type": "electric_bike", "lat": 38.843485333333334, "is_reserved": 0, "is_disabled": 0, "fusion_lon": 0.0, "bike_id": "6f541ba802a702c371241a4a3add37a7", "lon": -77.064045, "rental_uris": {"ios": "https://dc.lft.to/lastmile_qr_scan", "android": "https://dc.lft.to/lastmile_qr_scan"}}, {"name": "7cdd28b9581e2c779ff8f1aed3151472", "fusion_lat": 0.0, "type": "electric_bike", "lat": 38.975187166666664, "is_reserved": 0, "is_disabled": 0, "fusion_lon": 0.0, "bike_id": "7cdd28b9581e2c779ff8f1aed3151472", "lon": -77.01688683333333, "rental_uris": {"ios": "https://dc.lft.to/lastmile_qr_scan", "android": "https://dc.lft.to/lastmile_qr_scan"}}, {"name": "f8b3f5390f14695398c9827e5f85427a", "fusion_lat": 0.0, "type": "electric_scooter", "lat": 38.895882666666665, "is_reserved": 0, "is_disabled": 0, "fusion_lon": 0.0, "bike_id": "f8b3f5390f14695398c9827e5f85427a", "lon": -77.042675, "rental_uris": {"ios": "https://dc.lft.to/lastmile_qr_scan", "android": "https://dc.lft.to/lastmile_qr_scan"}}, {"name": "ee8091798bb1d1ab1ea01a2422c16589", "fusion_lat": 0.0, "type": "electric_scooter", "lat": 38.83232533333333, "is_reserved": 0, "is_disabled": 0, "fusion_lon": 0.0, "bike_id": "ee8091798bb1d1ab1ea01a2422c16589", "lon": -76.988885, "rental_uris": {"ios": "https://dc.lft.to/lastmile_qr_scan", "android": "https://dc.lft.to/lastmile_qr_scan"}}, {"name": "fc2cefd900d494dc1d88dd7d64ede188", "fusion_lat": 0.0, "type": "electric_scooter", "lat": 38.927532666666664, "is_reserved": 0, "is_disabled": 0, "fusion_lon": 0.0, "bike_id": "fc2cefd900d494dc1d88dd7d64ede188", "lon": -77.0242865, "rental_uris": {"ios": "https://dc.lft.to/lastmile_qr_scan", "android": "https://dc.lft.to/lastmile_qr_scan"}}, {"name": "ede1f00d0c68676aa2db5c400e63a3c6", "fusion_lat": 0.0, "type": "electric_scooter", "lat": 38.902398, "is_reserved": 0, "is_disabled": 0, "fusion_lon": 0.0, "bike_id": "ede1f00d0c68676aa2db5c400e63a3c6", "lon": -77.002045, "rental_uris": {"ios": "https://dc.lft.to/lastmile_qr_scan", "android": "https://dc.lft.to/lastmile_qr_scan"}}, {"name": "dac95223da834c686f9b6a5a954887b7", "fusion_lat": 0.0, "type": "electric_scooter", "lat": 38.88618566666667, "is_reserved": 0, "is_disabled": 0, "fusion_lon": 0.0, "bike_id": "dac95223da834c686f9b6a5a954887b7", "lon": -77.025299, "rental_uris": {"ios": "https://dc.lft.to/lastmile_qr_scan", "android": "https://dc.lft.to/lastmile_qr_scan"}}, {"name": "36f989f549a5d7afe4d77ba7674f52f7", "fusion_lat": 0.0, "type": "electric_scooter", "lat": 38.93316883333333, "is_reserved": 0, "is_disabled": 0, "fusion_lon": 0.0, "bike_id": "36f989f549a5d7afe4d77ba7674f52f7", "lon": -77.050985, "rental_uris": {"ios": "https://dc.lft.to/lastmile_qr_scan", "android": "https://dc.lft.to/lastmile_qr_scan"}}, {"name": "aaef6f72468fb41536dbb6fd5b13137f", "fusion_lat": 0.0, "type": "electric_scooter", "lat": 38.8741815, "is_reserved": 0, "is_disabled": 0, "fusion_lon": 0.0, "bike_id": "aaef6f72468fb41536dbb6fd5b13137f", "lon": -76.960911, "rental_uris": {"ios": "https://dc.lft.to/lastmile_qr_scan", "android": "https://dc.lft.to/lastmile_qr_scan"}}, {"name": "d9a82181e4e1a3c5b5ad3b63ec8a2f43", "fusion_lat": 0.0, "type": "electric_scooter", "lat": 38.85835216666667, "is_reserved": 0, "is_disabled": 0, "fusion_lon": 0.0, "bike_id": "d9a82181e4e1a3c5b5ad3b63ec8a2f43", "lon": -76.98893533333333, "rental_uris": {"ios": "https://dc.lft.to/lastmile_qr_scan", "android": "https://dc.lft.to/lastmile_qr_scan"}}, {"name": "9a4693c22548c495421e440be65dc47d", "fusion_lat": 0.0, "type": "electric_scooter", "lat": 38.90160516666667, "is_reserved": 0, "is_disabled": 0, "fusion_lon": 0.0, "bike_id": "9a4693c22548c495421e440be65dc47d", "lon": -77.01603516666667, "rental_uris": {"ios": "https://dc.lft.to/lastmile_qr_scan", "android": "https://dc.lft.to/lastmile_qr_scan"}}, {"name": "5ec27198390131ded9b55de78ea39eca", "fusion_lat": 0.0, "type": "electric_scooter", "lat": 38.91931266666667, "is_reserved": 0, "is_disabled": 0, "fusion_lon": 0.0, "bike_id": "5ec27198390131ded9b55de78ea39eca", "lon": -77.03186416666667, "rental_uris": {"ios": "https://dc.lft.to/lastmile_qr_scan", "android": "https://dc.lft.to/lastmile_qr_scan"}}, {"name": "9003226c84a3de2d4104e6bb4414fd46", "fusion_lat": 0.0, "type": "electric_scooter", "lat": 38.93730716666666, "is_reserved": 0, "is_disabled": 0, "fusion_lon": 0.0, "bike_id": "9003226c84a3de2d4104e6bb4414fd46", "lon": -77.0201795, "rental_uris": {"ios": "https://dc.lft.to/lastmile_qr_scan", "android": "https://dc.lft.to/lastmile_qr_scan"}}, {"name": "402db204dd7af1d4fe9c419e070ee975", "fusion_lat": 0.0, "type": "electric_scooter", "lat": 38.893708333333336, "is_reserved": 0, "is_disabled": 0, "fusion_lon": 0.0, "bike_id": "402db204dd7af1d4fe9c419e070ee975", "lon": -76.94996916666666, "rental_uris": {"ios": "https://dc.lft.to/lastmile_qr_scan", "android": "https://dc.lft.to/lastmile_qr_scan"}}, {"name": "32449670c16e11fff81a946364df4f1f", "fusion_lat": 0.0, "type": "electric_scooter", "lat": 38.909795333333335, "is_reserved": 0, "is_disabled": 0, "fusion_lon": 0.0, "bike_id": "32449670c16e11fff81a946364df4f1f", "lon": -77.067139, "rental_uris": {"ios": "https://dc.lft.to/lastmile_qr_scan", "android": "https://dc.lft.to/lastmile_qr_scan"}}, {"name": "2faf5536c6b9a4c2a2b89b4fb8b8be6d", "fusion_lat": 0.0, "type": "electric_scooter", "lat": 38.94292133333333, "is_reserved": 0, "is_disabled": 0, "fusion_lon": 0.0, "bike_id": "2faf5536c6b9a4c2a2b89b4fb8b8be6d", "lon": -77.02173633333334, "rental_uris": {"ios": "https://dc.lft.to/lastmile_qr_scan", "android": "https://dc.lft.to/lastmile_qr_scan"}}, {"name": "8c6168a7878175a4917063f2f5911041", "fusion_lat": 0.0, "type": "electric_bike", "lat": 38.92782783333333, "is_reserved": 0, "is_disabled": 0, "fusion_lon": 0.0, "bike_id": "8c6168a7878175a4917063f2f5911041", "lon": -77.05258466666666, "rental_uris": {"ios": "https://dc.lft.to/lastmile_qr_scan", "android": "https://dc.lft.to/lastmile_qr_scan"}}, {"name": "faaab01bcc394e66f39f30e7989f2541", "fusion_lat": 0.0, "type": "electric_scooter", "lat": 38.912717666666666, "is_reserved": 0, "is_disabled": 0, "fusion_lon": 0.0, "bike_id": "faaab01bcc394e66f39f30e7989f2541", "lon": -77.02694583333333, "rental_uris": {"ios": "https://dc.lft.to/lastmile_qr_scan", "android": "https://dc.lft.to/lastmile_qr_scan"}}, {"name": "ff414361c146e24f376f1aa89e33fc73", "fusion_lat": 0.0, "type": "electric_scooter", "lat": 38.87920166666667, "is_reserved": 0, "is_disabled": 0, "fusion_lon": 0.0, "bike_id": "ff414361c146e24f376f1aa89e33fc73", "lon": -76.99255933333333, "rental_uris": {"ios": "https://dc.lft.to/lastmile_qr_scan", "android": "https://dc.lft.to/lastmile_qr_scan"}}, {"name": "1a6929806eb3cdeeb514007d9a7fb082", "fusion_lat": 0.0, "type": "electric_scooter", "lat": 38.91814133333333, "is_reserved": 0, "is_disabled": 0, "fusion_lon": 0.0, "bike_id": "1a6929806eb3cdeeb514007d9a7fb082", "lon": -77.0400205, "rental_uris": {"ios": "https://dc.lft.to/lastmile_qr_scan", "android": "https://dc.lft.to/lastmile_qr_scan"}}, {"name": "1bfc0aec2a1c5e0b3f0cbbee7afd22fb", "fusion_lat": 0.0, "type": "electric_scooter", "lat": 38.909052833333334, "is_reserved": 0, "is_disabled": 0, "fusion_lon": 0.0, "bike_id": "1bfc0aec2a1c5e0b3f0cbbee7afd22fb", "lon": -77.0272125, "rental_uris": {"ios": "https://dc.lft.to/lastmile_qr_scan", "android": "https://dc.lft.to/lastmile_qr_scan"}}, {"name": "72f89ccf13f147cb85729d3a389fdf15", "fusion_lat": 0.0, "type": "electric_scooter", "lat": 38.8973245, "is_reserved": 0, "is_disabled": 0, "fusion_lon": 0.0, "bike_id": "72f89ccf13f147cb85729d3a389fdf15", "lon": -77.04657016666667, "rental_uris": {"ios": "https://dc.lft.to/lastmile_qr_scan", "android": "https://dc.lft.to/lastmile_qr_scan"}}, {"name": "f21f2c6e8d114ebee8fa943ec38680ea", "fusion_lat": 0.0, "type": "electric_scooter", "lat": 38.8837005, "is_reserved": 0, "is_disabled": 0, "fusion_lon": 0.0, "bike_id": "f21f2c6e8d114ebee8fa943ec38680ea", "lon": -77.02614966666667, "rental_uris": {"ios": "https://dc.lft.to/lastmile_qr_scan", "android": "https://dc.lft.to/lastmile_qr_scan"}}, {"name": "bb1f8485e53703c665e91e5aac139871", "fusion_lat": 0.0, "type": "electric_scooter", "lat": 38.87576766666667, "is_reserved": 0, "is_disabled": 0, "fusion_lon": 0.0, "bike_id": "bb1f8485e53703c665e91e5aac139871", "lon": -77.010694, "rental_uris": {"ios": "https://dc.lft.to/lastmile_qr_scan", "android": "https://dc.lft.to/lastmile_qr_scan"}}, {"name": "6e18165a072cc1a7dd5e20955de56f6d", "fusion_lat": 0.0, "type": "electric_scooter", "lat": 38.918073666666665, "is_reserved": 0, "is_disabled": 0, "fusion_lon": 0.0, "bike_id": "6e18165a072cc1a7dd5e20955de56f6d", "lon": -77.02816033333333, "rental_uris": {"ios": "https://dc.lft.to/lastmile_qr_scan", "android": "https://dc.lft.to/lastmile_qr_scan"}}, {"name": "61a0753caabb1dda961b2844fcf109e5", "fusion_lat": 0.0, "type": "electric_bike", "lat": 38.807568333333336, "is_reserved": 0, "is_disabled": 0, "fusion_lon": 0.0, "bike_id": "61a0753caabb1dda961b2844fcf109e5", "lon": -77.09453266666667, "rental_uris": {"ios": "https://dc.lft.to/lastmile_qr_scan", "android": "https://dc.lft.to/lastmile_qr_scan"}}, {"name": "dba804309687bd4d2bae6fa05c68b1ad", "fusion_lat": 0.0, "type": "electric_scooter", "lat": 38.907006333333335, "is_reserved": 0, "is_disabled": 0, "fusion_lon": 0.0, "bike_id": "dba804309687bd4d2bae6fa05c68b1ad", "lon": -77.0239175, "rental_uris": {"ios": "https://dc.lft.to/lastmile_qr_scan", "android": "https://dc.lft.to/lastmile_qr_scan"}}, {"name": "00518d0a7d08465cb8bd614726e33242", "fusion_lat": 0.0, "type": "electric_scooter", "lat": 38.92063683333333, "is_reserved": 0, "is_disabled": 0, "fusion_lon": 0.0, "bike_id": "00518d0a7d08465cb8bd614726e33242", "lon": -77.0425005, "rental_uris": {"ios": "https://dc.lft.to/lastmile_qr_scan", "android": "https://dc.lft.to/lastmile_qr_scan"}}, {"name": "effbc043ff309caa0be4d87343e56e5d", "fusion_lat": 0.0, "type": "electric_scooter", "lat": 38.90714166666667, "is_reserved": 0, "is_disabled": 0, "fusion_lon": 0.0, "bike_id": "effbc043ff309caa0be4d87343e56e5d", "lon": -77.03452683333333, "rental_uris": {"ios": "https://dc.lft.to/lastmile_qr_scan", "android": "https://dc.lft.to/lastmile_qr_scan"}}, {"name": "bebdd9707445f6e77ef733fca14a0b98", "fusion_lat": 0.0, "type": "electric_scooter", "lat": 38.9274585, "is_reserved": 0, "is_disabled": 0, "fusion_lon": 0.0, "bike_id": "bebdd9707445f6e77ef733fca14a0b98", "lon": -77.0347475, "rental_uris": {"ios": "https://dc.lft.to/lastmile_qr_scan", "android": "https://dc.lft.to/lastmile_qr_scan"}}, {"name": "83421b1625976a3fd4864b7431f59860", "fusion_lat": 0.0, "type": "electric_scooter", "lat": 38.92053833333333, "is_reserved": 0, "is_disabled": 0, "fusion_lon": 0.0, "bike_id": "83421b1625976a3fd4864b7431f59860", "lon": -76.99882233333334, "rental_uris": {"ios": "https://dc.lft.to/lastmile_qr_scan", "android": "https://dc.lft.to/lastmile_qr_scan"}}, {"name": "e459b1eec2527133bda8431d06e6f338", "fusion_lat": 0.0, "type": "electric_scooter", "lat": 38.8665805, "is_reserved": 0, "is_disabled": 0, "fusion_lon": 0.0, "bike_id": "e459b1eec2527133bda8431d06e6f338", "lon": -76.9888725, "rental_uris": {"ios": "https://dc.lft.to/lastmile_qr_scan", "android": "https://dc.lft.to/lastmile_qr_scan"}}, {"name": "cc4aeb3fab3197b9fc8b5f99b6b5cb1a", "fusion_lat": 0.0, "type": "electric_scooter", "lat": 38.92243066666666, "is_reserved": 0, "is_disabled": 0, "fusion_lon": 0.0, "bike_id": "cc4aeb3fab3197b9fc8b5f99b6b5cb1a", "lon": -77.03665883333333, "rental_uris": {"ios": "https://dc.lft.to/lastmile_qr_scan", "android": "https://dc.lft.to/lastmile_qr_scan"}}, {"name": "9e7dc09a453b2d9228aca211871aca99", "fusion_lat": 0.0, "type": "electric_scooter", "lat": 38.90576033333333, "is_reserved": 0, "is_disabled": 0, "fusion_lon": 0.0, "bike_id": "9e7dc09a453b2d9228aca211871aca99", "lon": -77.02208333333333, "rental_uris": {"ios": "https://dc.lft.to/lastmile_qr_scan", "android": "https://dc.lft.to/lastmile_qr_scan"}}, {"name": "043c51a817a3fcc6ccf23f9599492427", "fusion_lat": 0.0, "type": "electric_bike", "lat": 38.955582666666665, "is_reserved": 0, "is_disabled": 0, "fusion_lon": 0.0, "bike_id": "043c51a817a3fcc6ccf23f9599492427", "lon": -77.07087033333333, "rental_uris": {"ios": "https://dc.lft.to/lastmile_qr_scan", "android": "https://dc.lft.to/lastmile_qr_scan"}}, {"name": "b654f76d88a515eec996ef683e8f9062", "fusion_lat": 0.0, "type": "electric_scooter", "lat": 38.88613083333333, "is_reserved": 0, "is_disabled": 0, "fusion_lon": 0.0, "bike_id": "b654f76d88a515eec996ef683e8f9062", "lon": -77.02005616666666, "rental_uris": {"ios": "https://dc.lft.to/lastmile_qr_scan", "android": "https://dc.lft.to/lastmile_qr_scan"}}, {"name": "726bc0d547d45d7baabafb55bb7c83df", "fusion_lat": 0.0, "type": "electric_scooter", "lat": 38.902341166666666, "is_reserved": 0, "is_disabled": 0, "fusion_lon": 0.0, "bike_id": "726bc0d547d45d7baabafb55bb7c83df", "lon": -77.01545966666667, "rental_uris": {"ios": "https://dc.lft.to/lastmile_qr_scan", "android": "https://dc.lft.to/lastmile_qr_scan"}}, {"name": "d8f67fd654a78a8a1f2b83a4b671fcb5", "fusion_lat": 0.0, "type": "electric_bike", "lat": 38.942732166666666, "is_reserved": 0, "is_disabled": 0, "fusion_lon": 0.0, "bike_id": "d8f67fd654a78a8a1f2b83a4b671fcb5", "lon": -76.98071516666667, "rental_uris": {"ios": "https://dc.lft.to/lastmile_qr_scan", "android": "https://dc.lft.to/lastmile_qr_scan"}}, {"name": "e4ba59a8eafee0f3f002e2f004bfb983", "fusion_lat": 0.0, "type": "electric_scooter", "lat": 38.942279, "is_reserved": 0, "is_disabled": 0, "fusion_lon": 0.0, "bike_id": "e4ba59a8eafee0f3f002e2f004bfb983", "lon": -77.02162133333333, "rental_uris": {"ios": "https://dc.lft.to/lastmile_qr_scan", "android": "https://dc.lft.to/lastmile_qr_scan"}}, {"name": "0464d2ecabdd05399524e172a9708e69", "fusion_lat": 0.0, "type": "electric_scooter", "lat": 38.921816166666666, "is_reserved": 0, "is_disabled": 0, "fusion_lon": 0.0, "bike_id": "0464d2ecabdd05399524e172a9708e69", "lon": -77.0266865, "rental_uris": {"ios": "https://dc.lft.to/lastmile_qr_scan", "android": "https://dc.lft.to/lastmile_qr_scan"}}, {"name": "fe96ff5ca7dc8fde3b649f65dec3e3f6", "fusion_lat": 0.0, "type": "electric_bike", "lat": 38.8747535, "is_reserved": 0, "is_disabled": 0, "fusion_lon": 0.0, "bike_id": "fe96ff5ca7dc8fde3b649f65dec3e3f6", "lon": -76.96534333333334, "rental_uris": {"ios": "https://dc.lft.to/lastmile_qr_scan", "android": "https://dc.lft.to/lastmile_qr_scan"}}, {"name": "7eb1b635d94beddacb297106b34ffc99", "fusion_lat": 0.0, "type": "electric_scooter", "lat": 38.931498166666664, "is_reserved": 0, "is_disabled": 0, "fusion_lon": 0.0, "bike_id": "7eb1b635d94beddacb297106b34ffc99", "lon": -77.03878883333333, "rental_uris": {"ios": "https://dc.lft.to/lastmile_qr_scan", "android": "https://dc.lft.to/lastmile_qr_scan"}}, {"name": "666ad7b65840afde87d03ae7326fe6e3", "fusion_lat": 0.0, "type": "electric_scooter", "lat": 38.917855833333334, "is_reserved": 0, "is_disabled": 0, "fusion_lon": 0.0, "bike_id": "666ad7b65840afde87d03ae7326fe6e3", "lon": -77.02342566666667, "rental_uris": {"ios": "https://dc.lft.to/lastmile_qr_scan", "android": "https://dc.lft.to/lastmile_qr_scan"}}, {"name": "04447149160f31505e735b191ad94da9", "fusion_lat": 0.0, "type": "electric_scooter", "lat": 38.89221516666667, "is_reserved": 0, "is_disabled": 0, "fusion_lon": 0.0, "bike_id": "04447149160f31505e735b191ad94da9", "lon": -77.0223155, "rental_uris": {"ios": "https://dc.lft.to/lastmile_qr_scan", "android": "https://dc.lft.to/lastmile_qr_scan"}}, {"name": "5cf9eca7c606d342dd2db6a6637bbae3", "fusion_lat": 0.0, "type": "electric_scooter", "lat": 38.932318, "is_reserved": 0, "is_disabled": 0, "fusion_lon": 0.0, "bike_id": "5cf9eca7c606d342dd2db6a6637bbae3", "lon": -77.03591383333334, "rental_uris": {"ios": "https://dc.lft.to/lastmile_qr_scan", "android": "https://dc.lft.to/lastmile_qr_scan"}}, {"name": "de50148c709b0869b6024f438a562b9c", "fusion_lat": 0.0, "type": "electric_scooter", "lat": 38.863724166666664, "is_reserved": 0, "is_disabled": 0, "fusion_lon": 0.0, "bike_id": "de50148c709b0869b6024f438a562b9c", "lon": -77.01369383333333, "rental_uris": {"ios": "https://dc.lft.to/lastmile_qr_scan", "android": "https://dc.lft.to/lastmile_qr_scan"}}, {"name": "445c11b3bba8bcceb84fe1baea69c805", "fusion_lat": 0.0, "type": "electric_bike", "lat": 38.932511, "is_reserved": 0, "is_disabled": 0, "fusion_lon": 0.0, "bike_id": "445c11b3bba8bcceb84fe1baea69c805", "lon": -77.06657283333334, "rental_uris": {"ios": "https://dc.lft.to/lastmile_qr_scan", "android": "https://dc.lft.to/lastmile_qr_scan"}}, {"name": "b591a38e4fd8f96aa2ea2a339e61a9e8", "fusion_lat": 0.0, "type": "electric_scooter", "lat": 38.94293233333333, "is_reserved": 0, "is_disabled": 0, "fusion_lon": 0.0, "bike_id": "b591a38e4fd8f96aa2ea2a339e61a9e8", "lon": -77.0217695, "rental_uris": {"ios": "https://dc.lft.to/lastmile_qr_scan", "android": "https://dc.lft.to/lastmile_qr_scan"}}, {"name": "4f0491e50366976a175fedde7c1ce2ef", "fusion_lat": 0.0, "type": "electric_bike", "lat": 38.921090666666665, "is_reserved": 0, "is_disabled": 0, "fusion_lon": 0.0, "bike_id": "4f0491e50366976a175fedde7c1ce2ef", "lon": -77.06333033333334, "rental_uris": {"ios": "https://dc.lft.to/lastmile_qr_scan", "android": "https://dc.lft.to/lastmile_qr_scan"}}, {"name": "2c1319fd1cedbc223b89f88b881f5f97", "fusion_lat": 0.0, "type": "electric_scooter", "lat": 38.93006366666667, "is_reserved": 0, "is_disabled": 0, "fusion_lon": 0.0, "bike_id": "2c1319fd1cedbc223b89f88b881f5f97", "lon": -77.02305766666667, "rental_uris": {"ios": "https://dc.lft.to/lastmile_qr_scan", "android": "https://dc.lft.to/lastmile_qr_scan"}}, {"name": "62eef656b10e6a8ec4f385623a56693e", "fusion_lat": 0.0, "type": "electric_scooter", "lat": 38.907952, "is_reserved": 0, "is_disabled": 0, "fusion_lon": 0.0, "bike_id": "62eef656b10e6a8ec4f385623a56693e", "lon": -77.04822516666667, "rental_uris": {"ios": "https://dc.lft.to/lastmile_qr_scan", "android": "https://dc.lft.to/lastmile_qr_scan"}}, {"name": "dfa033d69d3aef0ac03750ec2a8baf21", "fusion_lat": 0.0, "type": "electric_scooter", "lat": 38.921119833333336, "is_reserved": 0, "is_disabled": 0, "fusion_lon": 0.0, "bike_id": "dfa033d69d3aef0ac03750ec2a8baf21", "lon": -77.03196766666667, "rental_uris": {"ios": "https://dc.lft.to/lastmile_qr_scan", "android": "https://dc.lft.to/lastmile_qr_scan"}}, {"name": "4f7fe3a5359d3c07cf09cfa8b150f272", "fusion_lat": 0.0, "type": "electric_scooter", "lat": 38.87812866666667, "is_reserved": 0, "is_disabled": 0, "fusion_lon": 0.0, "bike_id": "4f7fe3a5359d3c07cf09cfa8b150f272", "lon": -77.00556966666667, "rental_uris": {"ios": "https://dc.lft.to/lastmile_qr_scan", "android": "https://dc.lft.to/lastmile_qr_scan"}}, {"name": "da6a79a5e995eae47cc2a78280d00b60", "fusion_lat": 0.0, "type": "electric_scooter", "lat": 38.917009, "is_reserved": 0, "is_disabled": 0, "fusion_lon": 0.0, "bike_id": "da6a79a5e995eae47cc2a78280d00b60", "lon": -77.02901216666666, "rental_uris": {"ios": "https://dc.lft.to/lastmile_qr_scan", "android": "https://dc.lft.to/lastmile_qr_scan"}}, {"name": "4a1ea09d3c85c8766bc4daad1de5d074", "fusion_lat": 0.0, "type": "electric_scooter", "lat": 38.89733116666667, "is_reserved": 0, "is_disabled": 0, "fusion_lon": 0.0, "bike_id": "4a1ea09d3c85c8766bc4daad1de5d074", "lon": -76.94261566666667, "rental_uris": {"ios": "https://dc.lft.to/lastmile_qr_scan", "android": "https://dc.lft.to/lastmile_qr_scan"}}, {"name": "44404593ac5c94927974c1861f730aa2", "fusion_lat": 0.0, "type": "electric_scooter", "lat": 38.91991183333333, "is_reserved": 0, "is_disabled": 0, "fusion_lon": 0.0, "bike_id": "44404593ac5c94927974c1861f730aa2", "lon": -76.97308283333334, "rental_uris": {"ios": "https://dc.lft.to/lastmile_qr_scan", "android": "https://dc.lft.to/lastmile_qr_scan"}}, {"name": "29e27d7dd8a4eb6341afb5ddffc4fa68", "fusion_lat": 0.0, "type": "electric_scooter", "lat": 38.86657483333333, "is_reserved": 0, "is_disabled": 0, "fusion_lon": 0.0, "bike_id": "29e27d7dd8a4eb6341afb5ddffc4fa68", "lon": -76.98889583333333, "rental_uris": {"ios": "https://dc.lft.to/lastmile_qr_scan", "android": "https://dc.lft.to/lastmile_qr_scan"}}, {"name": "609fb29f4570adadf14131c2f955937c", "fusion_lat": 0.0, "type": "electric_scooter", "lat": 38.924230666666666, "is_reserved": 0, "is_disabled": 0, "fusion_lon": 0.0, "bike_id": "609fb29f4570adadf14131c2f955937c", "lon": -77.04247383333333, "rental_uris": {"ios": "https://dc.lft.to/lastmile_qr_scan", "android": "https://dc.lft.to/lastmile_qr_scan"}}, {"name": "2213c43306ac3a24901a14c785998764", "fusion_lat": 0.0, "type": "electric_scooter", "lat": 38.91707516666666, "is_reserved": 0, "is_disabled": 0, "fusion_lon": 0.0, "bike_id": "2213c43306ac3a24901a14c785998764", "lon": -77.03084, "rental_uris": {"ios": "https://dc.lft.to/lastmile_qr_scan", "android": "https://dc.lft.to/lastmile_qr_scan"}}, {"name": "0875210d97fbfe14415dd2e241440717", "fusion_lat": 0.0, "type": "electric_scooter", "lat": 38.919015333333334, "is_reserved": 0, "is_disabled": 0, "fusion_lon": 0.0, "bike_id": "0875210d97fbfe14415dd2e241440717", "lon": -77.00047516666666, "rental_uris": {"ios": "https://dc.lft.to/lastmile_qr_scan", "android": "https://dc.lft.to/lastmile_qr_scan"}}, {"name": "8abf8430f79c31a991dae78f05af8180", "fusion_lat": 0.0, "type": "electric_scooter", "lat": 38.91067966666667, "is_reserved": 0, "is_disabled": 0, "fusion_lon": 0.0, "bike_id": "8abf8430f79c31a991dae78f05af8180", "lon": -77.0176955, "rental_uris": {"ios": "https://dc.lft.to/lastmile_qr_scan", "android": "https://dc.lft.to/lastmile_qr_scan"}}, {"name": "5c74f67c1ecb11871fa2ccd803b7ad73", "fusion_lat": 0.0, "type": "electric_scooter", "lat": 38.924373333333335, "is_reserved": 0, "is_disabled": 0, "fusion_lon": 0.0, "bike_id": "5c74f67c1ecb11871fa2ccd803b7ad73", "lon": -77.042189, "rental_uris": {"ios": "https://dc.lft.to/lastmile_qr_scan", "android": "https://dc.lft.to/lastmile_qr_scan"}}, {"name": "57214178d4db99d4a38031e73cba2767", "fusion_lat": 0.0, "type": "electric_bike", "lat": 38.911825666666665, "is_reserved": 0, "is_disabled": 0, "fusion_lon": 0.0, "bike_id": "57214178d4db99d4a38031e73cba2767", "lon": -77.01151233333333, "rental_uris": {"ios": "https://dc.lft.to/lastmile_qr_scan", "android": "https://dc.lft.to/lastmile_qr_scan"}}, {"name": "04aaaa311e1e1f85dc9d78adc33d4b23", "fusion_lat": 0.0, "type": "electric_scooter", "lat": 38.90027833333333, "is_reserved": 0, "is_disabled": 0, "fusion_lon": 0.0, "bike_id": "04aaaa311e1e1f85dc9d78adc33d4b23", "lon": -77.0018755, "rental_uris": {"ios": "https://dc.lft.to/lastmile_qr_scan", "android": "https://dc.lft.to/lastmile_qr_scan"}}, {"name": "9cc3aba173007ea1dea03da99d1a3e74", "fusion_lat": 0.0, "type": "electric_scooter", "lat": 38.921820333333336, "is_reserved": 0, "is_disabled": 0, "fusion_lon": 0.0, "bike_id": "9cc3aba173007ea1dea03da99d1a3e74", "lon": -77.0241705, "rental_uris": {"ios": "https://dc.lft.to/lastmile_qr_scan", "android": "https://dc.lft.to/lastmile_qr_scan"}}, {"name": "02e35078eccf3224abbefb13b744498a", "fusion_lat": 0.0, "type": "electric_scooter", "lat": 38.9083855, "is_reserved": 0, "is_disabled": 0, "fusion_lon": 0.0, "bike_id": "02e35078eccf3224abbefb13b744498a", "lon": -77.04335683333333, "rental_uris": {"ios": "https://dc.lft.to/lastmile_qr_scan", "android": "https://dc.lft.to/lastmile_qr_scan"}}, {"name": "5f3f13318dbee0ba2110b8a68858832e", "fusion_lat": 0.0, "type": "electric_scooter", "lat": 38.908522, "is_reserved": 0, "is_disabled": 0, "fusion_lon": 0.0, "bike_id": "5f3f13318dbee0ba2110b8a68858832e", "lon": -77.0209285, "rental_uris": {"ios": "https://dc.lft.to/lastmile_qr_scan", "android": "https://dc.lft.to/lastmile_qr_scan"}}, {"name": "1a097b654662aa88b4bcc1dcd8b2c077", "fusion_lat": 0.0, "type": "electric_scooter", "lat": 38.899146, "is_reserved": 0, "is_disabled": 0, "fusion_lon": 0.0, "bike_id": "1a097b654662aa88b4bcc1dcd8b2c077", "lon": -77.07096566666667, "rental_uris": {"ios": "https://dc.lft.to/lastmile_qr_scan", "android": "https://dc.lft.to/lastmile_qr_scan"}}, {"name": "4a0eb916c36179f930861596a702bea6", "fusion_lat": 0.0, "type": "electric_scooter", "lat": 38.9324675, "is_reserved": 0, "is_disabled": 0, "fusion_lon": 0.0, "bike_id": "4a0eb916c36179f930861596a702bea6", "lon": -77.032951, "rental_uris": {"ios": "https://dc.lft.to/lastmile_qr_scan", "android": "https://dc.lft.to/lastmile_qr_scan"}}, {"name": "2f61f16a488969b7c9b38d92413140ce", "fusion_lat": 0.0, "type": "electric_scooter", "lat": 38.90630083333333, "is_reserved": 0, "is_disabled": 0, "fusion_lon": 0.0, "bike_id": "2f61f16a488969b7c9b38d92413140ce", "lon": -77.05136266666666, "rental_uris": {"ios": "https://dc.lft.to/lastmile_qr_scan", "android": "https://dc.lft.to/lastmile_qr_scan"}}, {"name": "981b9354604c6b02fc56db584e9b61df", "fusion_lat": 0.0, "type": "electric_scooter", "lat": 38.90733216666667, "is_reserved": 0, "is_disabled": 0, "fusion_lon": 0.0, "bike_id": "981b9354604c6b02fc56db584e9b61df", "lon": -77.03454883333333, "rental_uris": {"ios": "https://dc.lft.to/lastmile_qr_scan", "android": "https://dc.lft.to/lastmile_qr_scan"}}, {"name": "8bd7f65661d0ed51b6bf2b86100a8e52", "fusion_lat": 0.0, "type": "electric_scooter", "lat": 38.90460916666667, "is_reserved": 0, "is_disabled": 0, "fusion_lon": 0.0, "bike_id": "8bd7f65661d0ed51b6bf2b86100a8e52", "lon": -76.98536683333333, "rental_uris": {"ios": "https://dc.lft.to/lastmile_qr_scan", "android": "https://dc.lft.to/lastmile_qr_scan"}}, {"name": "2ffcd956fdd37cee926974219e3733c6", "fusion_lat": 0.0, "type": "electric_scooter", "lat": 38.94175966666667, "is_reserved": 0, "is_disabled": 0, "fusion_lon": 0.0, "bike_id": "2ffcd956fdd37cee926974219e3733c6", "lon": -77.02511933333334, "rental_uris": {"ios": "https://dc.lft.to/lastmile_qr_scan", "android": "https://dc.lft.to/lastmile_qr_scan"}}, {"name": "698e9283c239fa9d12a755c909d683f8", "fusion_lat": 0.0, "type": "electric_scooter", "lat": 38.89723266666667, "is_reserved": 0, "is_disabled": 0, "fusion_lon": 0.0, "bike_id": "698e9283c239fa9d12a755c909d683f8", "lon": -77.00211983333334, "rental_uris": {"ios": "https://dc.lft.to/lastmile_qr_scan", "android": "https://dc.lft.to/lastmile_qr_scan"}}, {"name": "b5a898329a230caa357c8753386a1964", "fusion_lat": 0.0, "type": "electric_bike", "lat": 38.854892666666665, "is_reserved": 0, "is_disabled": 0, "fusion_lon": 0.0, "bike_id": "b5a898329a230caa357c8753386a1964", "lon": -77.11525166666667, "rental_uris": {"ios": "https://dc.lft.to/lastmile_qr_scan", "android": "https://dc.lft.to/lastmile_qr_scan"}}, {"name": "55f292879a880bc77cd12236e6340c90", "fusion_lat": 0.0, "type": "electric_scooter", "lat": 38.876668333333335, "is_reserved": 0, "is_disabled": 0, "fusion_lon": 0.0, "bike_id": "55f292879a880bc77cd12236e6340c90", "lon": -77.00730666666666, "rental_uris": {"ios": "https://dc.lft.to/lastmile_qr_scan", "android": "https://dc.lft.to/lastmile_qr_scan"}}, {"name": "b27cb264b3afca4b52d83ac4c4da9b3b", "fusion_lat": 0.0, "type": "electric_scooter", "lat": 38.90386183333333, "is_reserved": 0, "is_disabled": 0, "fusion_lon": 0.0, "bike_id": "b27cb264b3afca4b52d83ac4c4da9b3b", "lon": -77.0176655, "rental_uris": {"ios": "https://dc.lft.to/lastmile_qr_scan", "android": "https://dc.lft.to/lastmile_qr_scan"}}, {"name": "039dd060f7453d59ff9f017a924b9755", "fusion_lat": 0.0, "type": "electric_bike", "lat": 38.856269166666664, "is_reserved": 0, "is_disabled": 0, "fusion_lon": 0.0, "bike_id": "039dd060f7453d59ff9f017a924b9755", "lon": -77.11295066666666, "rental_uris": {"ios": "https://dc.lft.to/lastmile_qr_scan", "android": "https://dc.lft.to/lastmile_qr_scan"}}, {"name": "1890debc891ac272b903a327b893c732", "fusion_lat": 0.0, "type": "electric_scooter", "lat": 38.9125595, "is_reserved": 0, "is_disabled": 0, "fusion_lon": 0.0, "bike_id": "1890debc891ac272b903a327b893c732", "lon": -77.00934666666667, "rental_uris": {"ios": "https://dc.lft.to/lastmile_qr_scan", "android": "https://dc.lft.to/lastmile_qr_scan"}}, {"name": "6fc72152a0b4d76e7fcbc8e81339c675", "fusion_lat": 0.0, "type": "electric_scooter", "lat": 38.92598783333333, "is_reserved": 0, "is_disabled": 0, "fusion_lon": 0.0, "bike_id": "6fc72152a0b4d76e7fcbc8e81339c675", "lon": -77.02155833333333, "rental_uris": {"ios": "https://dc.lft.to/lastmile_qr_scan", "android": "https://dc.lft.to/lastmile_qr_scan"}},