{"data": {"bikes": [{"fusion_lon": 0.0, "bike_id": "a548b37383760617f47c578d92405a66", "is_disabled": 0, "is_reserved": 0, "lat": 38.920119, "name": "a548b37383760617f47c578d92405a66", "rental_uris": {"ios": "https://dc.lft.to/lastmile_qr_scan", "android": "https://dc.lft.to/lastmile_qr_scan"}, "type": "electric_scooter", "fusion_lat": 0.0, "lon": -76.97303733333334}, {"fusion_lon": 0.0, "bike_id": "1f9989f30f615bd467525456c9b0dcea", "is_disabled": 0, "is_reserved": 0, "lat": 38.9160175, "name": "1f9989f30f615bd467525456c9b0dcea", "rental_uris": {"ios": "https://dc.lft.to/lastmile_qr_scan", "android": "https://dc.lft.to/lastmile_qr_scan"}, "type": "electric_scooter", "fusion_lat": 0.0, "lon": -77.02975366666666}, {"fusion_lon": 0.0, "bike_id": "baa813c973c72f814b25beeee90d51b8", "is_disabled": 0, "is_reserved": 0, "lat": 38.902758, "name": "baa813c973c72f814b25beeee90d51b8", "rental_uris": {"ios": "https://dc.lft.to/lastmile_qr_scan", "android": "https://dc.lft.to/lastmile_qr_scan"}, "type": "electric_scooter", "fusion_lat": 0.0, "lon": -77.02783816666667}, {"fusion_lon": 0.0, "bike_id": "e66ae828a7df5b426f958ee442f7a227", "is_disabled": 0, "is_reserved": 0, "lat": 38.937002166666666, "name": "e66ae828a7df5b426f958ee442f7a227", "rental_uris": {"ios": "https://dc.lft.to/lastmile_qr_scan", "android": "https://dc.lft.to/lastmile_qr_scan"}, "type": "electric_scooter", "fusion_lat": 0.0, "lon": -77.05599433333333}, {"fusion_lon": 0.0, "bike_id": "a38ddc30969aabab58c204dd7931ea6b", "is_disabled": 0, "is_reserved": 0, "lat": 38.8866835, "name": "a38ddc30969aabab58c204dd7931ea6b", "rental_uris": {"ios": "https://dc.lft.to/lastmile_qr_scan", "android": "https://dc.lft.to/lastmile_qr_scan"}, "type": "electric_scooter", "fusion_lat": 0.0, "lon": -76.99145}, {"fusion_lon": 0.0, "bike_id": "baedb24989272baaea39a72a927ddf5d", "is_disabled": 0, "is_reserved": 0, "lat": 38.89910616666667, "name": "baedb24989272baaea39a72a927ddf5d", "rental_uris": {"ios": "https://dc.lft.to/lastmile_qr_scan", "android": "https://dc.lft.to/lastmile_qr_scan"}, "type": "electric_scooter", "fusion_lat": 0.0, "lon": -77.0330715}, {"fusion_lon": 0.0, "bike_id": "91c3a523ff519f9129d2a614c5254e54", "is_disabled": 0, "is_reserved": 0, "lat": 38.99094933333333, "name": "91c3a523ff519f9129d2a614c5254e54", "rental_uris": {"ios": "https://dc.lft.to/lastmile_qr_scan", "android": "https://dc.lft.to/lastmile_qr_scan"}, "type": "electric_bike", "fusion_lat": 0.0, "lon": -76.99371866666667}, {"fusion_lon": 0.0, "bike_id": "aaff339617f47bb3858227b4dc459a35", "is_disabled": 0, "is_reserved": 0, "lat": 38.892303, "name": "aaff339617f47bb3858227b4dc459a35", "rental_uris": {"ios": "https://dc.lft.to/lastmile_qr_scan", "android": "https://dc.lft.to/lastmile_qr_scan"}, "type": "electric_scooter", "fusion_lat": 0.0, "lon": -77.04991866666667}, {"fusion_lon": 0.0, "bike_id": "7661804d903bc036f07a58749e5fe092", "is_disabled": 0, "is_reserved": 0, "lat": 38.866337, "name": "7661804d903bc036f07a58749e5fe092", "rental_uris": {"ios": "https://dc.lft.to/lastmile_qr_scan", "android": "https://dc.lft.to/lastmile_qr_scan"}, "type": "electric_bike", "fusion_lat": 0.0, "lon": -76.9900835}, {"fusion_lon": 0.0, "bike_id": "5e69d720922701b922fa08bdfe04786a", "is_disabled": 0, "is_reserved": 0, "lat": 38.91810783333333, "name": "5e69d720922701b922fa08bdfe04786a", "rental_uris": {"ios": "https://dc.lft.to/lastmile_qr_scan", "android": "https://dc.lft.to/lastmile_qr_scan"}, "type": "electric_scooter", "fusion_lat": 0.0, "lon": -77.03437933333333}, {"fusion_lon": 0.0, "bike_id": "8242b88a4a7dcfbfd640296d6399cbb7", "is_disabled": 0, "is_reserved": 0, "lat": 38.912768, "name": "8242b88a4a7dcfbfd640296d6399cbb7", "rental_uris": {"ios": "https://dc.lft.to/lastmile_qr_scan", "android": "https://dc.lft.to/lastmile_qr_scan"}, "type": "electric_scooter", "fusion_lat": 0.0, "lon": -77.04507233333334}, {"fusion_lon": 0.0, "bike_id": "8ff4694818899febc7fd8c6f801ad4e7", "is_disabled": 0, "is_reserved": 0, "lat": 38.8790385, "name": "8ff4694818899febc7fd8c6f801ad4e7", "rental_uris": {"ios": "https://dc.lft.to/lastmile_qr_scan", "android": "https://dc.lft.to/lastmile_qr_scan"}, "type": "electric_scooter", "fusion_lat": 0.0, "lon": -76.9447325}, {"fusion_lon": 0.0, "bike_id": "07f4c88c6f97913313d30afb08e1feb8", "is_disabled": 0, "is_reserved": 0, "lat": 38.91723416666667, "name": "07f4c88c6f97913313d30afb08e1feb8", "rental_uris": {"ios": "https://dc.lft.to/lastmile_qr_scan", "android": "https://dc.lft.to/lastmile_qr_scan"}, "type": "electric_scooter", "fusion_lat": 0.0, "lon": -77.029457}, {"fusion_lon": 0.0, "bike_id": "cc395e5f56e4b5be302a10bc56c22708", "is_disabled": 0, "is_reserved": 0, "lat": 38.923603666666665, "name": "cc395e5f56e4b5be302a10bc56c22708", "rental_uris": {"ios": "https://dc.lft.to/lastmile_qr_scan", "android": "https://dc.lft.to/lastmile_qr_scan"}, "type": "electric_scooter", "fusion_lat": 0.0, "lon": -77.02813033333334}, {"fusion_lon": 0.0, "bike_id": "27c2ef3f7b86bd3f1d52660b62c0a42b", "is_disabled": 0, "is_reserved": 0, "lat": 38.919659833333334, "name": "27c2ef3f7b86bd3f1d52660b62c0a42b", "rental_uris": {"ios": "https://dc.lft.to/lastmile_qr_scan", "android": "https://dc.lft.to/lastmile_qr_scan"}, "type": "electric_scooter", "fusion_lat": 0.0, "lon": -77.042257}, {"fusion_lon": 0.0, "bike_id": "4dfc785860d9d229bf1ddc19cc51b155", "is_disabled": 0, "is_reserved": 0, "lat": 38.92480716666667, "name": "4dfc785860d9d229bf1ddc19cc51b155", "rental_uris": {"ios": "https://dc.lft.to/lastmile_qr_scan", "android": "https://dc.lft.to/lastmile_qr_scan"}, "type": "electric_scooter", "fusion_lat": 0.0, "lon": -77.02239016666667}, {"fusion_lon": 0.0, "bike_id": "4af5fb0f3a6f7de0d5df4412603e1864", "is_disabled": 0, "is_reserved": 0, "lat": 38.92414133333333, "name": "4af5fb0f3a6f7de0d5df4412603e1864", "rental_uris": {"ios": "https://dc.lft.to/lastmile_qr_scan", "android": "https://dc.lft.to/lastmile_qr_scan"}, "type": "electric_scooter", "fusion_lat": 0.0, "lon": -77.021295}, {"fusion_lon": 0.0, "bike_id": "3a106b6680aa5989ffcab979d5fec542", "is_disabled": 0, "is_reserved": 0, "lat": 38.91001033333333, "name": "3a106b6680aa5989ffcab979d5fec542", "rental_uris": {"ios": "https://dc.lft.to/lastmile_qr_scan", "android": "https://dc.lft.to/lastmile_qr_scan"}, "type": "electric_bike", "fusion_lat": 0.0, "lon": -76.98421916666666}, {"fusion_lon": 0.0, "bike_id": "14e29f55a6cb498382df112945a8a267", "is_disabled": 0, "is_reserved": 0, "lat": 38.89959733333333, "name": "14e29f55a6cb498382df112945a8a267", "rental_uris": {"ios": "https://dc.lft.to/lastmile_qr_scan", "android": "https://dc.lft.to/lastmile_qr_scan"}, "type": "electric_scooter", "fusion_lat": 0.0, "lon": -77.04499733333333}, {"fusion_lon": 0.0, "bike_id": "d418dec424a2423994f921b4e3c6c84d", "is_disabled": 0, "is_reserved": 0, "lat": 38.900507833333336, "name": "d418dec424a2423994f921b4e3c6c84d", "rental_uris": {"ios": "https://dc.lft.to/lastmile_qr_scan", "android": "https://dc.lft.to/lastmile_qr_scan"}, "type": "electric_scooter", "fusion_lat": 0.0, "lon": -77.05136783333333}, {"fusion_lon": 0.0, "bike_id": "7602d2093ba0353e59a1d8b0fbb82324", "is_disabled": 0, "is_reserved": 0, "lat": 38.93877166666667, "name": "7602d2093ba0353e59a1d8b0fbb82324", "rental_uris": {"ios": "https://dc.lft.to/lastmile_qr_scan", "android": "https://dc.lft.to/lastmile_qr_scan"}, "type": "electric_scooter", "fusion_lat": 0.0, "lon": -77.0246325}, {"fusion_lon": 0.0, "bike_id": "228b804965ce1e44684352712bb6eab3", "is_disabled": 0, "is_reserved": 0, "lat": 38.9204825, "name": "228b804965ce1e44684352712bb6eab3", "rental_uris": {"ios": "https://dc.lft.to/lastmile_qr_scan", "android": "https://dc.lft.to/lastmile_qr_scan"}, "type": "electric_scooter", "fusion_lat": 0.0, "lon": -77.0339835}, {"fusion_lon": 0.0, "bike_id": "06de37391217706909573b75393c04c4", "is_disabled": 0, "is_reserved": 0, "lat": 38.893557, "name": "06de37391217706909573b75393c04c4", "rental_uris": {"ios": "https://dc.lft.to/lastmile_qr_scan", "android": "https://dc.lft.to/lastmile_qr_scan"}, "type": "electric_scooter", "fusion_lat": 0.0, "lon": -77.03190366666666}, {"fusion_lon": 0.0, "bike_id": "1e0af936f2b5d54376d1be53b4c5550b", "is_disabled": 0, "is_reserved": 0, "lat": 38.921693166666664, "name": "1e0af936f2b5d54376d1be53b4c5550b", "rental_uris": {"ios": "https://dc.lft.to/lastmile_qr_scan", "android": "https://dc.lft.to/lastmile_qr_scan"}, "type": "electric_scooter", "fusion_lat": 0.0, "lon": -77.0351485}, {"fusion_lon": 0.0, "bike_id": "14417510afd73ecdd54fe902af18e54a", "is_disabled": 0, "is_reserved": 0, "lat": 38.8980435, "name": "14417510afd73ecdd54fe902af18e54a", "rental_uris": {"ios": "https://dc.lft.to/lastmile_qr_scan", "android": "https://dc.lft.to/lastmile_qr_scan"}, "type": "electric_bike", "fusion_lat": 0.0, "lon": -76.99031983333333}, {"fusion_lon": 0.0, "bike_id": "f183d2593c8e77f4a324ad7a399efb8f", "is_disabled": 0, "is_reserved": 0, "lat": 38.9127965, "name": "f183d2593c8e77f4a324ad7a399efb8f", "rental_uris": {"ios": "https://dc.lft.to/lastmile_qr_scan", "android": "https://dc.lft.to/lastmile_qr_scan"}, "type": "electric_scooter", "fusion_lat": 0.0, "lon": -77.03855483333334}, {"fusion_lon": 0.0, "bike_id": "8cd726e238b0690b95a13c096448a9e8", "is_disabled": 0, "is_reserved": 0, "lat": 38.90570683333333, "name": "8cd726e238b0690b95a13c096448a9e8", "rental_uris": {"ios": "https://dc.lft.to/lastmile_qr_scan", "android": "https://dc.lft.to/lastmile_qr_scan"}, "type": "electric_scooter", "fusion_lat": 0.0, "lon": -77.00492166666666}, {"fusion_lon": 0.0, "bike_id": "caebd86dc791e8eec42e7e9d5d541016", "is_disabled": 0, "is_reserved": 0, "lat": 38.91267283333333, "name": "caebd86dc791e8eec42e7e9d5d541016", "rental_uris": {"ios": "https://dc.lft.to/lastmile_qr_scan", "android": "https://dc.lft.to/lastmile_qr_scan"}, "type": "electric_scooter", "fusion_lat": 0.0, "lon": -77.03872666666666}, {"fusion_lon": 0.0, "bike_id": "4b36d512e5b39afba4a779675eac71f0", "is_disabled": 0, "is_reserved": 0, "lat": 38.888540666666664, "name": "4b36d512e5b39afba4a779675eac71f0", "rental_uris": {"ios": "https://dc.lft.to/lastmile_qr_scan", "android": "https://dc.lft.to/lastmile_qr_scan"}, "type": "electric_scooter", "fusion_lat": 0.0, "lon": -77.0017965}, {"fusion_lon": 0.0, "bike_id": "7c8e666960b2d6a5522d25a8ddcefe20", "is_disabled": 0, "is_reserved": 0, "lat": 38.89739383333333, "name": "7c8e666960b2d6a5522d25a8ddcefe20", "rental_uris": {"ios": "https://dc.lft.to/lastmile_qr_scan", "android": "https://dc.lft.to/lastmile_qr_scan"}, "type": "electric_scooter", "fusion_lat": 0.0, "lon": -77.04943633333333}, {"fusion_lon": 0.0, "bike_id": "b412b93f2fa2dd39dc77edc905713d80", "is_disabled": 0, "is_reserved": 0, "lat": 38.9118295, "name": "b412b93f2fa2dd39dc77edc905713d80", "rental_uris": {"ios": "https://dc.lft.to/lastmile_qr_scan", "android": "https://dc.lft.to/lastmile_qr_scan"}, "type": "electric_scooter", "fusion_lat": 0.0, "lon": -77.0296245}, {"fusion_lon": 0.0, "bike_id": "ff949a335871505108829468216d2d6c", "is_disabled": 0, "is_reserved": 0, "lat": 38.91034466666667, "name": "ff949a335871505108829468216d2d6c", "rental_uris": {"ios": "https://dc.lft.to/lastmile_qr_scan", "android": "https://dc.lft.to/lastmile_qr_scan"}, "type": "electric_scooter", "fusion_lat": 0.0, "lon": -77.013815}, {"fusion_lon": 0.0, "bike_id": "ae4ab9bd5df9d8cf0b8c6ee966f9932b", "is_disabled": 0, "is_reserved": 0, "lat": 38.919363833333335, "name": "ae4ab9bd5df9d8cf0b8c6ee966f9932b", "rental_uris": {"ios": "https://dc.lft.to/lastmile_qr_scan", "android": "https://dc.lft.to/lastmile_qr_scan"}, "type": "electric_scooter", "fusion_lat": 0.0, "lon": -77.04795216666666}, {"fusion_lon": 0.0, "bike_id": "b6787662b4bbb81f0aed1e48ca8f25a5", "is_disabled": 0, "is_reserved": 0, "lat": 38.83809216666667, "name": "b6787662b4bbb81f0aed1e48ca8f25a5", "rental_uris": {"ios": "https://dc.lft.to/lastmile_qr_scan", "android": "https://dc.lft.to/lastmile_qr_scan"}, "type": "electric_bike", "fusion_lat": 0.0, "lon": -77.09523383333334}, {"fusion_lon": 0.0, "bike_id": "37cb06d7771210c39b7a4fed39932725", "is_disabled": 0, "is_reserved": 0, "lat": 38.90261316666667, "name": "37cb06d7771210c39b7a4fed39932725", "rental_uris": {"ios": "https://dc.lft.to/lastmile_qr_scan", "android": "https://dc.lft.to/lastmile_qr_scan"}, "type": "electric_scooter", "fusion_lat": 0.0, "lon": -77.017657}, {"fusion_lon": 0.0, "bike_id": "1b9bb9e6eac8f5ce35cbb061dd0bdde2", "is_disabled": 0, "is_reserved": 0, "lat": 38.9095095, "name": "1b9bb9e6eac8f5ce35cbb061dd0bdde2", "rental_uris": {"ios": "https://dc.lft.to/lastmile_qr_scan", "android": "https://dc.lft.to/lastmile_qr_scan"}, "type": "electric_scooter", "fusion_lat": 0.0, "lon": -77.0127635}, {"fusion_lon": 0.0, "bike_id": "5cc3368eaadc409fc26e09e4969bf368", "is_disabled": 0, "is_reserved": 0, "lat": 38.911086833333336, "name": "5cc3368eaadc409fc26e09e4969bf368", "rental_uris": {"ios": "https://dc.lft.to/lastmile_qr_scan", "android": "https://dc.lft.to/lastmile_qr_scan"}, "type": "electric_scooter", "fusion_lat": 0.0, "lon": -77.021007}, {"fusion_lon": 0.0, "bike_id": "d0f06c5437f3a23cf068a9bc56b359e1", "is_disabled": 0, "is_reserved": 0, "lat": 38.931022, "name": "d0f06c5437f3a23cf068a9bc56b359e1", "rental_uris": {"ios": "https://dc.lft.to/lastmile_qr_scan", "android": "https://dc.lft.to/lastmile_qr_scan"}, "type": "electric_scooter", "fusion_lat": 0.0, "lon": -77.02664483333334}, {"fusion_lon": 0.0, "bike_id": "3509c6fb20ceedf53a411099d7d62930", "is_disabled": 0, "is_reserved": 0, "lat": 38.924269, "name": "3509c6fb20ceedf53a411099d7d62930", "rental_uris": {"ios": "https://dc.lft.to/lastmile_qr_scan", "android": "https://dc.lft.to/lastmile_qr_scan"}, "type": "electric_scooter", "fusion_lat": 0.0, "lon": -77.04043416666667}, {"fusion_lon": 0.0, "bike_id": "3e021639fbeb1c299e8566a46fc2f4b7", "is_disabled": 0, "is_reserved": 0, "lat": 38.91978266666667, "name": "3e021639fbeb1c299e8566a46fc2f4b7", "rental_uris": {"ios": "https://dc.lft.to/lastmile_qr_scan", "android": "https://dc.lft.to/lastmile_qr_scan"}, "type": "electric_scooter", "fusion_lat": 0.0, "lon": -77.02371933333333}, {"fusion_lon": 0.0, "bike_id": "5d0e82d030e8c44c93f27d4622955745", "is_disabled": 0, "is_reserved": 0, "lat": 38.89625433333333, "name": "5d0e82d030e8c44c93f27d4622955745", "rental_uris": {"ios": "https://dc.lft.to/lastmile_qr_scan", "android": "https://dc.lft.to/lastmile_qr_scan"}, "type": "electric_scooter", "fusion_lat": 0.0, "lon": -77.02205116666667}, {"fusion_lon": 0.0, "bike_id": "352180791a5a2ab676b8127675861ea6", "is_disabled": 0, "is_reserved": 0, "lat": 38.906036666666665, "name": "352180791a5a2ab676b8127675861ea6", "rental_uris": {"ios": "https://dc.lft.to/lastmile_qr_scan", "android": "https://dc.lft.to/lastmile_qr_scan"}, "type": "electric_scooter", "fusion_lat": 0.0, "lon": -77.07383083333333}, {"fusion_lon": 0.0, "bike_id": "00dc7749e38e64ae644cf7079221cd74", "is_disabled": 0, "is_reserved": 0, "lat": 38.91651133333333, "name": "00dc7749e38e64ae644cf7079221cd74", "rental_uris": {"ios": "https://dc.lft.to/lastmile_qr_scan", "android": "https://dc.lft.to/lastmile_qr_scan"}, "type": "electric_scooter", "fusion_lat": 0.0, "lon": -77.01026}, {"fusion_lon": 0.0, "bike_id": "ab8c043e0597a71842db439669a14d2c", "is_disabled": 0, "is_reserved": 0, "lat": 38.923683, "name": "ab8c043e0597a71842db439669a14d2c", "rental_uris": {"ios": "https://dc.lft.to/lastmile_qr_scan", "android": "https://dc.lft.to/lastmile_qr_scan"}, "type": "electric_scooter", "fusion_lat": 0.0, "lon": -77.01953466666667}, {"fusion_lon": 0.0, "bike_id": "9814361b6f8c953470873381311d3d89", "is_disabled": 0, "is_reserved": 0, "lat": 38.903416, "name": "9814361b6f8c953470873381311d3d89", "rental_uris": {"ios": "https://dc.lft.to/lastmile_qr_scan", "android": "https://dc.lft.to/lastmile_qr_scan"}, "type": "electric_scooter", "fusion_lat": 0.0, "lon": -77.04947383333334}, {"fusion_lon": 0.0, "bike_id": "835f961c251d369cfdefdb4deebb2938", "is_disabled": 0, "is_reserved": 0, "lat": 38.9192095, "name": "835f961c251d369cfdefdb4deebb2938", "rental_uris": {"ios": "https://dc.lft.to/lastmile_qr_scan", "android": "https://dc.lft.to/lastmile_qr_scan"}, "type": "electric_scooter", "fusion_lat": 0.0, "lon": -77.03427333333333}, {"fusion_lon": 0.0, "bike_id": "31603bca97cdc920b56f54f54f0c23b2", "is_disabled": 0, "is_reserved": 0, "lat": 38.923362, "name": "31603bca97cdc920b56f54f54f0c23b2", "rental_uris": {"ios": "https://dc.lft.to/lastmile_qr_scan", "android": "https://dc.lft.to/lastmile_qr_scan"}, "type": "electric_scooter", "fusion_lat": 0.0, "lon": -77.021288}, {"fusion_lon": 0.0, "bike_id": "c3978cde4cb00a52f210680d525fc76a", "is_disabled": 0, "is_reserved": 0, "lat": 38.922842833333334, "name": "c3978cde4cb00a52f210680d525fc76a", "rental_uris": {"ios": "https://dc.lft.to/lastmile_qr_scan", "android": "https://dc.lft.to/lastmile_qr_scan"}, "type": "electric_scooter", "fusion_lat": 0.0, "lon": -77.03661916666667}, {"fusion_lon": 0.0, "bike_id": "753e2e901b13d6238e16af7d01da2ac5", "is_disabled": 0, "is_reserved": 0, "lat": 38.931107833333336, "name": "753e2e901b13d6238e16af7d01da2ac5", "rental_uris": {"ios": "https://dc.lft.to/lastmile_qr_scan", "android": "https://dc.lft.to/lastmile_qr_scan"}, "type": "electric_scooter", "fusion_lat": 0.0, "lon": -77.02125966666667}, {"fusion_lon": 0.0, "bike_id": "31c1376c61546e3d35369b8d9f722323", "is_disabled": 0, "is_reserved": 0, "lat": 38.89254616666667, "name": "31c1376c61546e3d35369b8d9f722323", "rental_uris": {"ios": "https://dc.lft.to/lastmile_qr_scan", "android": "https://dc.lft.to/lastmile_qr_scan"}, "type": "electric_scooter", "fusion_lat": 0.0, "lon": -77.045004}, {"fusion_lon": 0.0, "bike_id": "0e1e9ad5527ec4fb408a769b1b885e7d", "is_disabled": 0, "is_reserved": 0, "lat": 38.9136455, "name": "0e1e9ad5527ec4fb408a769b1b885e7d", "rental_uris": {"ios": "https://dc.lft.to/lastmile_qr_scan", "android": "https://dc.lft.to/lastmile_qr_scan"}, "type": "electric_scooter", "fusion_lat": 0.0, "lon": -77.02045833333334}, {"fusion_lon": 0.0, "bike_id": "2fd0ef748ab855e299204df787393e7f", "is_disabled": 0, "is_reserved": 0, "lat": 38.804375, "name": "2fd0ef748ab855e299204df787393e7f", "rental_uris": {"ios": "https://dc.lft.to/lastmile_qr_scan", "android": "https://dc.lft.to/lastmile_qr_scan"}, "type": "electric_bike", "fusion_lat": 0.0, "lon": -77.06082816666667}, {"fusion_lon": 0.0, "bike_id": "be125aaeac452b3eb835f69b4b110523", "is_disabled": 0, "is_reserved": 0, "lat": 38.946377, "name": "be125aaeac452b3eb835f69b4b110523", "rental_uris": {"ios": "https://dc.lft.to/lastmile_qr_scan", "android": "https://dc.lft.to/lastmile_qr_scan"}, "type": "electric_bike", "fusion_lat": 0.0, "lon": -76.99313816666667}, {"fusion_lon": 0.0, "bike_id": "86328fb2afa618af12a3316ff59e7fa0", "is_disabled": 0, "is_reserved": 0, "lat": 38.9648775, "name": "86328fb2afa618af12a3316ff59e7fa0", "rental_uris": {"ios": "https://dc.lft.to/lastmile_qr_scan", "android": "https://dc.lft.to/lastmile_qr_scan"}, "type": "electric_bike", "fusion_lat": 0.0, "lon": -77.02858016666667}, {"fusion_lon": 0.0, "bike_id": "98a0481cb1999c6224d11557e2ed996e", "is_disabled": 0, "is_reserved": 0, "lat": 38.9177325, "name": "98a0481cb1999c6224d11557e2ed996e", "rental_uris": {"ios": "https://dc.lft.to/lastmile_qr_scan", "android": "https://dc.lft.to/lastmile_qr_scan"}, "type": "electric_scooter", "fusion_lat": 0.0, "lon": -77.04753783333334}, {"fusion_lon": 0.0, "bike_id": "741a101991b497c6834d3ecf7c963197", "is_disabled": 0, "is_reserved": 0, "lat": 38.89959983333333, "name": "741a101991b497c6834d3ecf7c963197", "rental_uris": {"ios": "https://dc.lft.to/lastmile_qr_scan", "android": "https://dc.lft.to/lastmile_qr_scan"}, "type": "electric_scooter", "fusion_lat": 0.0, "lon": -77.04499816666667}, {"fusion_lon": 0.0, "bike_id": "9ccdfe88dbaa90adc1be67f12fe0d060", "is_disabled": 0, "is_reserved": 0, "lat": 38.91764916666666, "name": "9ccdfe88dbaa90adc1be67f12fe0d060", "rental_uris": {"ios": "https://dc.lft.to/lastmile_qr_scan", "android": "https://dc.lft.to/lastmile_qr_scan"}, "type": "electric_bike", "fusion_lat": 0.0, "lon": -76.884461}, {"fusion_lon": 0.0, "bike_id": "d4540aa51043cc1d0113d41552418129", "is_disabled": 0, "is_reserved": 0, "lat": 38.918163166666666, "name": "d4540aa51043cc1d0113d41552418129", "rental_uris": {"ios": "https://dc.lft.to/lastmile_qr_scan", "android": "https://dc.lft.to/lastmile_qr_scan"}, "type": "electric_scooter", "fusion_lat": 0.0, "lon": -77.02931}, {"fusion_lon": 0.0, "bike_id": "f17fd36e6e90e7187ca4840e9aefb040", "is_disabled": 0, "is_reserved": 0, "lat": 38.9169985, "name": "f17fd36e6e90e7187ca4840e9aefb040", "rental_uris": {"ios": "https://dc.lft.to/lastmile_qr_scan", "android": "https://dc.lft.to/lastmile_qr_scan"}, "type": "electric_scooter", "fusion_lat": 0.0, "lon": -77.010345}, {"fusion_lon": 0.0, "bike_id": "1c1a808981f3d6fa6e9537f5f75de8b8", "is_disabled": 0, "is_reserved": 0, "lat": 38.91349533333333, "name": "1c1a808981f3d6fa6e9537f5f75de8b8", "rental_uris": {"ios": "https://dc.lft.to/lastmile_qr_scan", "android": "https://dc.lft.to/lastmile_qr_scan"}, "type": "electric_scooter", "fusion_lat": 0.0, "lon": -76.97137933333333}, {"fusion_lon": 0.0, "bike_id": "7466808d07995ab8d9eb9040cb737586", "is_disabled": 0, "is_reserved": 0, "lat": 38.86934266666667, "name": "7466808d07995ab8d9eb9040cb737586", "rental_uris": {"ios": "https://dc.lft.to/lastmile_qr_scan", "android": "https://dc.lft.to/lastmile_qr_scan"}, "type": "electric_scooter", "fusion_lat": 0.0, "lon": -76.97741933333333}, {"fusion_lon": 0.0, "bike_id": "8a0f3ce4ebe46aefe14a8235789b11b5", "is_disabled": 0, "is_reserved": 0, "lat": 38.906099, "name": "8a0f3ce4ebe46aefe14a8235789b11b5", "rental_uris": {"ios": "https://dc.lft.to/lastmile_qr_scan", "android": "https://dc.lft.to/lastmile_qr_scan"}, "type": "electric_scooter", "fusion_lat": 0.0, "lon": -77.0564975}, {"fusion_lon": 0.0, "bike_id": "7d63e83437833b3b09475b31743b115f", "is_disabled": 0, "is_reserved": 0, "lat": 38.87798133333333, "name": "7d63e83437833b3b09475b31743b115f", "rental_uris": {"ios": "https://dc.lft.to/lastmile_qr_scan", "android": "https://dc.lft.to/lastmile_qr_scan"}, "type": "electric_scooter", "fusion_lat": 0.0, "lon": -77.00129633333333}, {"fusion_lon": 0.0, "bike_id": "c08d62bc99984bc3e67cf46f5f779e4e", "is_disabled": 0, "is_reserved": 0, "lat": 38.924596666666666, "name": "c08d62bc99984bc3e67cf46f5f779e4e", "rental_uris": {"ios": "https://dc.lft.to/lastmile_qr_scan", "android": "https://dc.lft.to/lastmile_qr_scan"}, "type": "electric_scooter", "fusion_lat": 0.0, "lon": -77.03292766666667}, {"fusion_lon": 0.0, "bike_id": "b282b92ffd0571047cef39ddd0741c40", "is_disabled": 0, "is_reserved": 0, "lat": 38.914773833333335, "name": "b282b92ffd0571047cef39ddd0741c40", "rental_uris": {"ios": "https://dc.lft.to/lastmile_qr_scan", "android": "https://dc.lft.to/lastmile_qr_scan"}, "type": "electric_scooter", "fusion_lat": 0.0, "lon": -77.03661016666666}, {"fusion_lon": 0.0, "bike_id": "7ecc67c1a97ca88f2e51db5fef8b2bdd", "is_disabled": 0, "is_reserved": 0, "lat": 38.91176566666667, "name": "7ecc67c1a97ca88f2e51db5fef8b2bdd", "rental_uris": {"ios": "https://dc.lft.to/lastmile_qr_scan", "android": "https://dc.lft.to/lastmile_qr_scan"}, "type": "electric_scooter", "fusion_lat": 0.0, "lon": -77.04031033333334}, {"fusion_lon": 0.0, "bike_id": "f18f939ce0273c0375c6db3ea9a3b7d3", "is_disabled": 0, "is_reserved": 0, "lat": 38.924082166666665, "name": "f18f939ce0273c0375c6db3ea9a3b7d3", "rental_uris": {"ios": "https://dc.lft.to/lastmile_qr_scan", "android": "https://dc.lft.to/lastmile_qr_scan"}, "type": "electric_scooter", "fusion_lat": 0.0, "lon": -77.020121}, {"fusion_lon": 0.0, "bike_id": "a5df98dca1c2bdead8f034352b5a7869", "is_disabled": 0, "is_reserved": 0, "lat": 38.89767883333333, "name": "a5df98dca1c2bdead8f034352b5a7869", "rental_uris": {"ios": "https://dc.lft.to/lastmile_qr_scan", "android": "https://dc.lft.to/lastmile_qr_scan"}, "type": "electric_scooter", "fusion_lat": 0.0, "lon": -77.0267765}, {"fusion_lon": 0.0, "bike_id": "47d73a435b8d1a0958aa67de489ab0b1", "is_disabled": 0, "is_reserved": 0, "lat": 38.921541833333336, "name": "47d73a435b8d1a0958aa67de489ab0b1", "rental_uris": {"ios": "https://dc.lft.to/lastmile_qr_scan", "android": "https://dc.lft.to/lastmile_qr_scan"}, "type": "electric_scooter", "fusion_lat": 0.0, "lon": -77.043513}, {"fusion_lon": 0.0, "bike_id": "ce44004371f7a71a940640a4e5a93117", "is_disabled": 0, "is_reserved": 0, "lat": 38.934087166666664, "name": "ce44004371f7a71a940640a4e5a93117", "rental_uris": {"ios": "https://dc.lft.to/lastmile_qr_scan", "android": "https://dc.lft.to/lastmile_qr_scan"}, "type": "electric_scooter", "fusion_lat": 0.0, "lon": -77.04555166666667}, {"fusion_lon": 0.0, "bike_id": "a514828254555a8c5a67ad073d81045a", "is_disabled": 0, "is_reserved": 0, "lat": 38.90782816666667, "name": "a514828254555a8c5a67ad073d81045a", "rental_uris": {"ios": "https://dc.lft.to/lastmile_qr_scan", "android": "https://dc.lft.to/lastmile_qr_scan"}, "type": "electric_scooter", "fusion_lat": 0.0, "lon": -76.99860033333333}, {"fusion_lon": 0.0, "bike_id": "a06fc072c64b279b2c96daf76a09d2d4", "is_disabled": 0, "is_reserved": 0, "lat": 38.920507666666666, "name": "a06fc072c64b279b2c96daf76a09d2d4", "rental_uris": {"ios": "https://dc.lft.to/lastmile_qr_scan", "android": "https://dc.lft.to/lastmile_qr_scan"}, "type": "electric_scooter", "fusion_lat": 0.0, "lon": -77.041854}, {"fusion_lon": 0.0, "bike_id": "18248c78fb5b5a0e91db7372e0f2e6f0", "is_disabled": 0, "is_reserved": 0, "lat": 38.921071166666664, "name": "18248c78fb5b5a0e91db7372e0f2e6f0", "rental_uris": {"ios": "https://dc.lft.to/lastmile_qr_scan", "android": "https://dc.lft.to/lastmile_qr_scan"}, "type": "electric_scooter", "fusion_lat": 0.0, "lon": -77.04203633333333}, {"fusion_lon": 0.0, "bike_id": "5dfb7752cf347e28ab161fb0a815bf64", "is_disabled": 0, "is_reserved": 0, "lat": 38.965255166666665, "name": "5dfb7752cf347e28ab161fb0a815bf64", "rental_uris": {"ios": "https://dc.lft.to/lastmile_qr_scan", "android": "https://dc.lft.to/lastmile_qr_scan"}, "type": "electric_bike", "fusion_lat": 0.0, "lon": -77.0342625}, {"fusion_lon": 0.0, "bike_id": "a735f4533fdd0c2db6ddb38bbb32f612", "is_disabled": 0, "is_reserved": 0, "lat": 38.90559433333333, "name": "a735f4533fdd0c2db6ddb38bbb32f612", "rental_uris": {"ios": "https://dc.lft.to/lastmile_qr_scan", "android": "https://dc.lft.to/lastmile_qr_scan"}, "type": "electric_scooter", "fusion_lat": 0.0, "lon": -77.03455383333333}, {"fusion_lon": 0.0, "bike_id": "89481ff9ae10f34a3007890f1ed6786f", "is_disabled": 0, "is_reserved": 0, "lat": 38.91372066666667, "name": "89481ff9ae10f34a3007890f1ed6786f", "rental_uris": {"ios": "https://dc.lft.to/lastmile_qr_scan", "android": "https://dc.lft.to/lastmile_qr_scan"}, "type": "electric_scooter", "fusion_lat": 0.0, "lon": -77.02191816666667}, {"fusion_lon": 0.0, "bike_id": "28cdc4882737d773af5afc61e3c5289d", "is_disabled": 0, "is_reserved": 0, "lat": 38.93607816666667, "name": "28cdc4882737d773af5afc61e3c5289d", "rental_uris": {"ios": "https://dc.lft.to/lastmile_qr_scan", "android": "https://dc.lft.to/lastmile_qr_scan"}, "type": "electric_bike", "fusion_lat": 0.0, "lon": -77.00216633333334}, {"fusion_lon": 0.0, "bike_id": "cef6b377ef46635ee9733aed60ab401c", "is_disabled": 0, "is_reserved": 0, "lat": 38.95249366666667, "name": "cef6b377ef46635ee9733aed60ab401c", "rental_uris": {"ios": "https://dc.lft.to/lastmile_qr_scan", "android": "https://dc.lft.to/lastmile_qr_scan"}, "type": "electric_bike", "fusion_lat": 0.0, "lon": -77.09626116666666}, {"fusion_lon": 0.0, "bike_id": "6321a1d3543b88f841bf15962d44d105", "is_disabled": 0, "is_reserved": 0, "lat": 38.9203325, "name": "6321a1d3543b88f841bf15962d44d105", "rental_uris": {"ios": "https://dc.lft.to/lastmile_qr_scan", "android": "https://dc.lft.to/lastmile_qr_scan"}, "type": "electric_bike", "fusion_lat": 0.0, "lon": -76.979556}, {"fusion_lon": 0.0, "bike_id": "bfe9a9a536676f754c5d33f76360e8d2", "is_disabled": 0, "is_reserved": 0, "lat": 38.84285583333333, "name": "bfe9a9a536676f754c5d33f76360e8d2", "rental_uris": {"ios": "https://dc.lft.to/lastmile_qr_scan", "android": "https://dc.lft.to/lastmile_qr_scan"}, "type": "electric_bike", "fusion_lat": 0.0, "lon": -77.0635805}, {"fusion_lon": 0.0, "bike_id": "2931b4c1b2b4ce518bea54801c3236e2", "is_disabled": 0, "is_reserved": 0, "lat": 38.91811833333333, "name": "2931b4c1b2b4ce518bea54801c3236e2", "rental_uris": {"ios": "https://dc.lft.to/lastmile_qr_scan", "android": "https://dc.lft.to/lastmile_qr_scan"}, "type": "electric_scooter", "fusion_lat": 0.0, "lon": -77.0247225}, {"fusion_lon": 0.0, "bike_id": "3a92ad1e66449c5144ed173c14832caf", "is_disabled": 0, "is_reserved": 0, "lat": 38.904334166666665, "name": "3a92ad1e66449c5144ed173c14832caf", "rental_uris": {"ios": "https://dc.lft.to/lastmile_qr_scan", "android": "https://dc.lft.to/lastmile_qr_scan"}, "type": "electric_bike", "fusion_lat": 0.0, "lon": -76.97223966666667}, {"fusion_lon": 0.0, "bike_id": "1b272e3e95c2bf29b8d2859e846da1c3", "is_disabled": 0, "is_reserved": 0, "lat": 38.921522833333334, "name": "1b272e3e95c2bf29b8d2859e846da1c3", "rental_uris": {"ios": "https://dc.lft.to/lastmile_qr_scan", "android": "https://dc.lft.to/lastmile_qr_scan"}, "type": "electric_scooter", "fusion_lat": 0.0, "lon": -77.042347}, {"fusion_lon": 0.0, "bike_id": "79343d2c7cc561df29719bbb10187a86", "is_disabled": 0, "is_reserved": 0, "lat": 38.83299816666667, "name": "79343d2c7cc561df29719bbb10187a86", "rental_uris": {"ios": "https://dc.lft.to/lastmile_qr_scan", "android": "https://dc.lft.to/lastmile_qr_scan"}, "type": "electric_bike", "fusion_lat": 0.0, "lon": -77.08412016666666}, {"fusion_lon": 0.0, "bike_id": "1223176632ed5e327be5dc1df04e08f0", "is_disabled": 0, "is_reserved": 0, "lat": 38.911195666666664, "name": "1223176632ed5e327be5dc1df04e08f0", "rental_uris": {"ios": "https://dc.lft.to/lastmile_qr_scan", "android": "https://dc.lft.to/lastmile_qr_scan"}, "type": "electric_scooter", "fusion_lat": 0.0, "lon": -77.00438}, {"fusion_lon": 0.0, "bike_id": "c8ae73e1852dc2b4ae90b52256711590", "is_disabled": 0, "is_reserved": 0, "lat": 38.922499333333334, "name": "c8ae73e1852dc2b4ae90b52256711590", "rental_uris": {"ios": "https://dc.lft.to/lastmile_qr_scan", "android": "https://dc.lft.to/lastmile_qr_scan"}, "type": "electric_scooter", "fusion_lat": 0.0, "lon": -77.01970933333334}, {"fusion_lon": 0.0, "bike_id": "7edb2c11e1e2e96480ca84f1a3a3dd97", "is_disabled": 0, "is_reserved": 0, "lat": 38.912865, "name": "7edb2c11e1e2e96480ca84f1a3a3dd97", "rental_uris": {"ios": "https://dc.lft.to/lastmile_qr_scan", "android": "https://dc.lft.to/lastmile_qr_scan"}, "type": "electric_scooter", "fusion_lat": 0.0, "lon": -77.0344585}, {"fusion_lon": 0.0, "bike_id": "bdcf0f7f707a695b093547bd722aef34", "is_disabled": 0, "is_reserved": 0, "lat": 38.91569166666667, "name": "bdcf0f7f707a695b093547bd722aef34", "rental_uris": {"ios": "https://dc.lft.to/lastmile_qr_scan", "android": "https://dc.lft.to/lastmile_qr_scan"}, "type": "electric_scooter", "fusion_lat": 0.0, "lon": -77.032003}, {"fusion_lon": 0.0, "bike_id": "742fd804175c7455c6237d49f9f30cbc", "is_disabled": 0, "is_reserved": 0, "lat": 38.900631833333335, "name": "742fd804175c7455c6237d49f9f30cbc", "rental_uris": {"ios": "https://dc.lft.to/lastmile_qr_scan", "android": "https://dc.lft.to/lastmile_qr_scan"}, "type": "electric_scooter", "fusion_lat": 0.0, "lon": -77.04547166666667}, {"fusion_lon": 0.0, "bike_id": "bf83fff72f3375040bb78e5789264527", "is_disabled": 0, "is_reserved": 0, "lat": 38.92960733333334, "name": "bf83fff72f3375040bb78e5789264527", "rental_uris": {"ios": "https://dc.lft.to/lastmile_qr_scan", "android": "https://dc.lft.to/lastmile_qr_scan"}, "type": "electric_scooter", "fusion_lat": 0.0, "lon": -77.0314955}, {"fusion_lon": 0.0, "bike_id": "4b8e7d938e3a91b2f895885afb00f034", "is_disabled": 0, "is_reserved": 0, "lat": 38.921588666666665, "name": "4b8e7d938e3a91b2f895885afb00f034", "rental_uris": {"ios": "https://dc.lft.to/lastmile_qr_scan", "android": "https://dc.lft.to/lastmile_qr_scan"}, "type": "electric_bike", "fusion_lat": 0.0, "lon": -77.0788895}, {"fusion_lon": 0.0, "bike_id": "7811b59f5a85d136d9f06ef60f6b82a9", "is_disabled": 0, "is_reserved": 0, "lat": 38.89690133333333, "name": "7811b59f5a85d136d9f06ef60f6b82a9", "rental_uris": {"ios": "https://dc.lft.to/lastmile_qr_scan", "android": "https://dc.lft.to/lastmile_qr_scan"}, "type": "electric_scooter", "fusion_lat": 0.0, "lon": -77.04872983333334}, {"fusion_lon": 0.0, "bike_id": "08efc29be292704eb2e2ef80a44f6356", "is_disabled": 0, "is_reserved": 0, "lat": 38.89850366666667, "name": "08efc29be292704eb2e2ef80a44f6356", "rental_uris": {"ios": "https://dc.lft.to/lastmile_qr_scan", "android": "https://dc.lft.to/lastmile_qr_scan"}, "type": "electric_scooter", "fusion_lat": 0.0, "lon": -76.92752816666666}, {"fusion_lon": 0.0, "bike_id": "3fd0e23047ebd0868f7dabd5719bce54", "is_disabled": 0, "is_reserved": 0, "lat": 38.90120816666666, "name": "3fd0e23047ebd0868f7dabd5719bce54", "rental_uris": {"ios": "https://dc.lft.to/lastmile_qr_scan", "android": "https://dc.lft.to/lastmile_qr_scan"}, "type": "electric_scooter", "fusion_lat": 0.0, "lon": -77.049814}, {"fusion_lon": 0.0, "bike_id": "316859598429c85738dd3310a837dd69", "is_disabled": 0, "is_reserved": 0, "lat": 38.83692966666667, "name": "316859598429c85738dd3310a837dd69", "rental_uris": {"ios": "https://dc.lft.to/lastmile_qr_scan", "android": "https://dc.lft.to/lastmile_qr_scan"}, "type": "electric_bike", "fusion_lat": 0.0, "lon": -77.0572235}, {"fusion_lon": 0.0, "bike_id": "6b1eefcd3451133b18f7a8d8193128c1", "is_disabled": 0, "is_reserved": 0, "lat": 38.92055333333333, "name": "6b1eefcd3451133b18f7a8d8193128c1", "rental_uris": {"ios": "https://dc.lft.to/lastmile_qr_scan", "android": "https://dc.lft.to/lastmile_qr_scan"}, "type": "electric_scooter", "fusion_lat": 0.0, "lon": -76.99871333333333}, {"fusion_lon": 0.0, "bike_id": "d0efbb980fffac721d9febe829ccc3ad", "is_disabled": 0, "is_reserved": 0, "lat": 38.924400166666665, "name": "d0efbb980fffac721d9febe829ccc3ad", "rental_uris": {"ios": "https://dc.lft.to/lastmile_qr_scan", "android": "https://dc.lft.to/lastmile_qr_scan"}, "type": "electric_scooter", "fusion_lat": 0.0, "lon": -77.02156983333333}, {"fusion_lon": 0.0, "bike_id": "8dcf83df7c4b8903b8402f42515b2d51", "is_disabled": 0, "is_reserved": 0, "lat": 38.896058333333336, "name": "8dcf83df7c4b8903b8402f42515b2d51", "rental_uris": {"ios": "https://dc.lft.to/lastmile_qr_scan", "android": "https://dc.lft.to/lastmile_qr_scan"}, "type": "electric_scooter", "fusion_lat": 0.0, "lon": -77.02560933333334}, {"fusion_lon": 0.0, "bike_id": "d8f5ecf0a894c6c294bfcbdc8673c024", "is_disabled": 0, "is_reserved": 0, "lat": 38.9006815, "name": "d8f5ecf0a894c6c294bfcbdc8673c024", "rental_uris": {"ios": "https://dc.lft.to/lastmile_qr_scan", "android": "https://dc.lft.to/lastmile_qr_scan"}, "type": "electric_scooter", "fusion_lat": 0.0, "lon": -77.0266335}, {"fusion_lon": 0.0, "bike_id": "395b856c9f04106a9601231b16935503", "is_disabled": 0, "is_reserved": 0, "lat": 38.912684666666664, "name": "395b856c9f04106a9601231b16935503", "rental_uris": {"ios": "https://dc.lft.to/lastmile_qr_scan", "android": "https://dc.lft.to/lastmile_qr_scan"}, "type": "electric_scooter", "fusion_lat": 0.0, "lon": -77.02228833333334}, {"fusion_lon": 0.0, "bike_id": "8d41d781437c609ed9198de469dbde3d", "is_disabled": 0, "is_reserved": 0, "lat": 38.901914166666664, "name": "8d41d781437c609ed9198de469dbde3d", "rental_uris": {"ios": "https://dc.lft.to/lastmile_qr_scan", "android": "https://dc.lft.to/lastmile_qr_scan"}, "type": "electric_scooter", "fusion_lat": 0.0, "lon": -77.02189216666666}, {"fusion_lon": 0.0, "bike_id": "b94804cb82d46715d1d9d7901d730ecf", "is_disabled": 0, "is_reserved": 0, "lat": 38.924106333333334, "name": "b94804cb82d46715d1d9d7901d730ecf", "rental_uris": {"ios": "https://dc.lft.to/lastmile_qr_scan", "android": "https://dc.lft.to/lastmile_qr_scan"}, "type": "electric_scooter", "fusion_lat": 0.0, "lon": -77.02716066666666}, {"fusion_lon": 0.0, "bike_id": "a306dabfbb8a1ba302b1886c35f6af6a", "is_disabled": 0, "is_reserved": 0, "lat": 38.914043666666664, "name": "a306dabfbb8a1ba302b1886c35f6af6a", "rental_uris": {"ios": "https://dc.lft.to/lastmile_qr_scan", "android": "https://dc.lft.to/lastmile_qr_scan"}, "type": "electric_scooter", "fusion_lat": 0.0, "lon": -77.03219183333333}, {"fusion_lon": 0.0, "bike_id": "16b33c1fee2914ba88c9dd27d5cad27e", "is_disabled": 0, "is_reserved": 0, "lat": 38.920845666666665, "name": "16b33c1fee2914ba88c9dd27d5cad27e", "rental_uris": {"ios": "https://dc.lft.to/lastmile_qr_scan", "android": "https://dc.lft.to/lastmile_qr_scan"}, "type": "electric_scooter", "fusion_lat": 0.0, "lon": -77.02295183333334}, {"fusion_lon": 0.0, "bike_id": "4505c80fc75761041e72ecd4f1164c13", "is_disabled": 0, "is_reserved": 0, "lat": 38.90026816666666, "name": "4505c80fc75761041e72ecd4f1164c13", "rental_uris": {"ios": "https://dc.lft.to/lastmile_qr_scan", "android": "https://dc.lft.to/lastmile_qr_scan"}, "type": "electric_scooter", "fusion_lat": 0.0, "lon": -76.98846183333333}, {"fusion_lon": 0.0, "bike_id": "da07cdab61cd59752e3af846982a706f", "is_disabled": 0, "is_reserved": 0, "lat": 38.91706533333333, "name": "da07cdab61cd59752e3af846982a706f", "rental_uris": {"ios": "https://dc.lft.to/lastmile_qr_scan", "android": "https://dc.lft.to/lastmile_qr_scan"}, "type": "electric_scooter", "fusion_lat": 0.0, "lon": -77.03862516666666}, {"fusion_lon": 0.0, "bike_id": "c827d7b531b093ca0add4f030c4899ec", "is_disabled": 0, "is_reserved": 0, "lat": 38.92472383333333, "name": "c827d7b531b093ca0add4f030c4899ec", "rental_uris": {"ios": "https://dc.lft.to/lastmile_qr_scan", "android": "https://dc.lft.to/lastmile_qr_scan"}, "type": "electric_scooter", "fusion_lat": 0.0, "lon": -77.022131}, {"fusion_lon": 0.0, "bike_id": "1ba2674fb79f6faec353b80d28923dab", "is_disabled": 0, "is_reserved": 0, "lat": 38.913681, "name": "1ba2674fb79f6faec353b80d28923dab", "rental_uris": {"ios": "https://dc.lft.to/lastmile_qr_scan", "android": "https://dc.lft.to/lastmile_qr_scan"}, "type": "electric_scooter", "fusion_lat": 0.0, "lon": -77.04481983333334}, {"fusion_lon": 0.0, "bike_id": "a6d0450ebb30260383339b57f4134e0b", "is_disabled": 0, "is_reserved": 0, "lat": 38.913473, "name": "a6d0450ebb30260383339b57f4134e0b", "rental_uris": {"ios": "https://dc.lft.to/lastmile_qr_scan", "android": "https://dc.lft.to/lastmile_qr_scan"}, "type": "electric_scooter", "fusion_lat": 0.0, "lon": -77.0318465}, {"fusion_lon": 0.0, "bike_id": "f945f6a1daf8366228d34c8f3fd7a125", "is_disabled": 0, "is_reserved": 0, "lat": 38.903635333333334, "name": "f945f6a1daf8366228d34c8f3fd7a125", "rental_uris": {"ios": "https://dc.lft.to/lastmile_qr_scan", "android": "https://dc.lft.to/lastmile_qr_scan"}, "type": "electric_scooter", "fusion_lat": 0.0, "lon": -77.01769683333333}, {"fusion_lon": 0.0, "bike_id": "dc64d44a144da40cfae9aa8a8d31cadf", "is_disabled": 0, "is_reserved": 0, "lat": 38.92410516666666, "name": "dc64d44a144da40cfae9aa8a8d31cadf", "rental_uris": {"ios": "https://dc.lft.to/lastmile_qr_scan", "android": "https://dc.lft.to/lastmile_qr_scan"}, "type": "electric_scooter", "fusion_lat": 0.0, "lon": -77.02049316666667}, {"fusion_lon": 0.0, "bike_id": "7705d3ca8c211be7dc8602c92af17c6b", "is_disabled": 0, "is_reserved": 0, "lat": 38.9192255, "name": "7705d3ca8c211be7dc8602c92af17c6b", "rental_uris": {"ios": "https://dc.lft.to/lastmile_qr_scan", "android": "https://dc.lft.to/lastmile_qr_scan"}, "type": "electric_scooter", "fusion_lat": 0.0, "lon": -77.01789216666667}, {"fusion_lon": 0.0, "bike_id": "7ead3de202e5a5c5657b4ec561af1194", "is_disabled": 0, "is_reserved": 0, "lat": 38.9194625, "name": "7ead3de202e5a5c5657b4ec561af1194", "rental_uris": {"ios": "https://dc.lft.to/lastmile_qr_scan", "android": "https://dc.lft.to/lastmile_qr_scan"}, "type": "electric_scooter", "fusion_lat": 0.0, "lon": -77.0179965}, {"fusion_lon": 0.0, "bike_id": "800fed561de30e9d0388be6466fbb65d", "is_disabled": 0, "is_reserved": 0, "lat": 38.9228915, "name": "800fed561de30e9d0388be6466fbb65d", "rental_uris": {"ios": "https://dc.lft.to/lastmile_qr_scan", "android": "https://dc.lft.to/lastmile_qr_scan"}, "type": "electric_scooter", "fusion_lat": 0.0, "lon": -77.02244933333333}, {"fusion_lon": 0.0, "bike_id": "640ef78418b128bcb07d81600859d8fb", "is_disabled": 0, "is_reserved": 0, "lat": 38.887103, "name": "640ef78418b128bcb07d81600859d8fb", "rental_uris": {"ios": "https://dc.lft.to/lastmile_qr_scan", "android": "https://dc.lft.to/lastmile_qr_scan"}, "type": "electric_scooter", "fusion_lat": 0.0, "lon": -76.98380383333334}, {"fusion_lon": 0.0, "bike_id": "f855a760cdf982318f525e4c272dd933", "is_disabled": 0, "is_reserved": 0, "lat": 38.87533466666667, "name": "f855a760cdf982318f525e4c272dd933", "rental_uris": {"ios": "https://dc.lft.to/lastmile_qr_scan", "android": "https://dc.lft.to/lastmile_qr_scan"}, "type": "electric_scooter", "fusion_lat": 0.0, "lon": -77.005076}, {"fusion_lon": 0.0, "bike_id": "863760a2aa0dc1640250413cc689fa5b", "is_disabled": 0, "is_reserved": 0, "lat": 38.930890166666664, "name": "863760a2aa0dc1640250413cc689fa5b", "rental_uris": {"ios": "https://dc.lft.to/lastmile_qr_scan", "android": "https://dc.lft.to/lastmile_qr_scan"}, "type": "electric_scooter", "fusion_lat": 0.0, "lon": -77.03445466666666}, {"fusion_lon": 0.0, "bike_id": "e3909ccac207e7a5fadeef0180dd05e0", "is_disabled": 0, "is_reserved": 0, "lat": 38.916798, "name": "e3909ccac207e7a5fadeef0180dd05e0", "rental_uris": {"ios": "https://dc.lft.to/lastmile_qr_scan", "android": "https://dc.lft.to/lastmile_qr_scan"}, "type": "electric_scooter", "fusion_lat": 0.0, "lon": -77.01580733333333}, {"fusion_lon": 0.0, "bike_id": "cb6f3ee5073ea898b3d8092ef3d428fa", "is_disabled": 0, "is_reserved": 0, "lat": 38.92192583333333, "name": "cb6f3ee5073ea898b3d8092ef3d428fa", "rental_uris": {"ios": "https://dc.lft.to/lastmile_qr_scan", "android": "https://dc.lft.to/lastmile_qr_scan"}, "type": "electric_scooter", "fusion_lat": 0.0, "lon": -77.09945233333333}, {"fusion_lon": 0.0, "bike_id": "98766a26d340cb065071005cf92fe43a", "is_disabled": 0, "is_reserved": 0, "lat": 38.842774166666665, "name": "98766a26d340cb065071005cf92fe43a", "rental_uris": {"ios": "https://dc.lft.to/lastmile_qr_scan", "android": "https://dc.lft.to/lastmile_qr_scan"}, "type": "electric_bike", "fusion_lat": 0.0, "lon": -76.98838583333334}, {"fusion_lon": 0.0, "bike_id": "b2d4978cdcebf1fd4041738495ad9573", "is_disabled": 0, "is_reserved": 0, "lat": 38.9004905, "name": "b2d4978cdcebf1fd4041738495ad9573", "rental_uris": {"ios": "https://dc.lft.to/lastmile_qr_scan", "android": "https://dc.lft.to/lastmile_qr_scan"}, "type": "electric_scooter", "fusion_lat": 0.0, "lon": -77.04464566666667}, {"fusion_lon": 0.0, "bike_id": "dd67785543d13c4e9974b49eb7c180d3", "is_disabled": 0, "is_reserved": 0, "lat": 38.899745, "name": "dd67785543d13c4e9974b49eb7c180d3", "rental_uris": {"ios": "https://dc.lft.to/lastmile_qr_scan", "android": "https://dc.lft.to/lastmile_qr_scan"}, "type": "electric_scooter", "fusion_lat": 0.0, "lon": -77.033419}, {"fusion_lon": 0.0, "bike_id": "f05404f9c2e7b42da785ec2d25594568", "is_disabled": 0, "is_reserved": 0, "lat": 38.9258615, "name": "f05404f9c2e7b42da785ec2d25594568", "rental_uris": {"ios": "https://dc.lft.to/lastmile_qr_scan", "android": "https://dc.lft.to/lastmile_qr_scan"}, "type": "electric_scooter", "fusion_lat": 0.0, "lon": -77.02495883333333}, {"fusion_lon": 0.0, "bike_id": "5bc30d1d20e72f03a8c558ede66fbf16", "is_disabled": 0, "is_reserved": 0, "lat": 38.8947445, "name": "5bc30d1d20e72f03a8c558ede66fbf16", "rental_uris": {"ios": "https://dc.lft.to/lastmile_qr_scan", "android": "https://dc.lft.to/lastmile_qr_scan"}, "type": "electric_scooter", "fusion_lat": 0.0, "lon": -76.985937}, {"fusion_lon": 0.0, "bike_id": "591d8e5679fcfac514752861cd6b87fa", "is_disabled": 0, "is_reserved": 0, "lat": 38.916909, "name": "591d8e5679fcfac514752861cd6b87fa", "rental_uris": {"ios": "https://dc.lft.to/lastmile_qr_scan", "android": "https://dc.lft.to/lastmile_qr_scan"}, "type": "electric_scooter", "fusion_lat": 0.0, "lon": -77.03631533333333}, {"fusion_lon": 0.0, "bike_id": "e5096ec2269335b8fd62b8c096395d70", "is_disabled": 0, "is_reserved": 0, "lat": 38.92470383333333, "name": "e5096ec2269335b8fd62b8c096395d70", "rental_uris": {"ios": "https://dc.lft.to/lastmile_qr_scan", "android": "https://dc.lft.to/lastmile_qr_scan"}, "type": "electric_scooter", "fusion_lat": 0.0, "lon": -77.022209}, {"fusion_lon": 0.0, "bike_id": "186332464563a80a0f6255b2ea079a6b", "is_disabled": 0, "is_reserved": 0, "lat": 38.919252, "name": "186332464563a80a0f6255b2ea079a6b", "rental_uris": {"ios": "https://dc.lft.to/lastmile_qr_scan", "android": "https://dc.lft.to/lastmile_qr_scan"}, "type": "electric_scooter", "fusion_lat": 0.0, "lon": -77.03428983333333}, {"fusion_lon": 0.0, "bike_id": "30603901be127f9c2730cd61e046e2ea", "is_disabled": 0, "is_reserved": 0, "lat": 38.854455333333334, "name": "30603901be127f9c2730cd61e046e2ea", "rental_uris": {"ios": "https://dc.lft.to/lastmile_qr_scan", "android": "https://dc.lft.to/lastmile_qr_scan"}, "type": "electric_scooter", "fusion_lat": 0.0, "lon": -76.98609616666667}, {"fusion_lon": 0.0, "bike_id": "68c07391da8644f2ff55aa7c8d6f1f25", "is_disabled": 0, "is_reserved": 0, "lat": 38.92413333333333, "name": "68c07391da8644f2ff55aa7c8d6f1f25", "rental_uris": {"ios": "https://dc.lft.to/lastmile_qr_scan", "android": "https://dc.lft.to/lastmile_qr_scan"}, "type": "electric_scooter", "fusion_lat": 0.0, "lon": -77.0200905}, {"fusion_lon": 0.0, "bike_id": "a24c7d0e4a4a57349d1364fb85dd584c", "is_disabled": 0, "is_reserved": 0, "lat": 38.974401666666665, "name": "a24c7d0e4a4a57349d1364fb85dd584c", "rental_uris": {"ios": "https://dc.lft.to/lastmile_qr_scan", "android": "https://dc.lft.to/lastmile_qr_scan"}, "type": "electric_bike", "fusion_lat": 0.0, "lon": -77.0961435}, {"fusion_lon": 0.0, "bike_id": "9129e104476795f836a3795f5a44c5e4", "is_disabled": 0, "is_reserved": 0, "lat": 38.93289516666667, "name": "9129e104476795f836a3795f5a44c5e4", "rental_uris": {"ios": "https://dc.lft.to/lastmile_qr_scan", "android": "https://dc.lft.to/lastmile_qr_scan"}, "type": "electric_scooter", "fusion_lat": 0.0, "lon": -76.98648166666666}, {"fusion_lon": 0.0, "bike_id": "437bd62f541fc8fd73c5f9743ae02a31", "is_disabled": 0, "is_reserved": 0, "lat": 38.880069666666664, "name": "437bd62f541fc8fd73c5f9743ae02a31", "rental_uris": {"ios": "https://dc.lft.to/lastmile_qr_scan", "android": "https://dc.lft.to/lastmile_qr_scan"}, "type": "electric_scooter", "fusion_lat": 0.0, "lon": -76.99835783333333}, {"fusion_lon": 0.0, "bike_id": "d50e2fa33a6debb03f33d43a560d6508", "is_disabled": 0, "is_reserved": 0, "lat": 38.899331333333336, "name": "d50e2fa33a6debb03f33d43a560d6508", "rental_uris": {"ios": "https://dc.lft.to/lastmile_qr_scan", "android": "https://dc.lft.to/lastmile_qr_scan"}, "type": "electric_scooter", "fusion_lat": 0.0, "lon": -76.93766233333334}, {"fusion_lon": 0.0, "bike_id": "d267df971d323f34db3d3f15171e4cb5", "is_disabled": 0, "is_reserved": 0, "lat": 38.89331166666667, "name": "d267df971d323f34db3d3f15171e4cb5", "rental_uris": {"ios": "https://dc.lft.to/lastmile_qr_scan", "android": "https://dc.lft.to/lastmile_qr_scan"}, "type": "electric_scooter", "fusion_lat": 0.0, "lon": -76.99381666666666}, {"fusion_lon": 0.0, "bike_id": "a976d68db9b90598469c48ea376fd2c0", "is_disabled": 0, "is_reserved": 0, "lat": 38.93207866666667, "name": "a976d68db9b90598469c48ea376fd2c0", "rental_uris": {"ios": "https://dc.lft.to/lastmile_qr_scan", "android": "https://dc.lft.to/lastmile_qr_scan"}, "type": "electric_scooter", "fusion_lat": 0.0, "lon": -77.02664016666667}, {"fusion_lon": 0.0, "bike_id": "84c857e0c5fbafa79add7ce7ece1e4b3", "is_disabled": 0, "is_reserved": 0, "lat": 38.89509183333333, "name": "84c857e0c5fbafa79add7ce7ece1e4b3", "rental_uris": {"ios": "https://dc.lft.to/lastmile_qr_scan", "android": "https://dc.lft.to/lastmile_qr_scan"}, "type": "electric_scooter", "fusion_lat": 0.0, "lon": -76.94892883333333}, {"fusion_lon": 0.0, "bike_id": "5f40764cf2edfd7885f61a1eb32e8224", "is_disabled": 0, "is_reserved": 0, "lat": 38.9231545, "name": "5f40764cf2edfd7885f61a1eb32e8224", "rental_uris": {"ios": "https://dc.lft.to/lastmile_qr_scan", "android": "https://dc.lft.to/lastmile_qr_scan"}, "type": "electric_scooter", "fusion_lat": 0.0, "lon": -77.02893983333334}, {"fusion_lon": 0.0, "bike_id": "772b8f2e25637c6b3dd7ce14c73c5950", "is_disabled": 0, "is_reserved": 0, "lat": 38.9318855, "name": "772b8f2e25637c6b3dd7ce14c73c5950", "rental_uris": {"ios": "https://dc.lft.to/lastmile_qr_scan", "android": "https://dc.lft.to/lastmile_qr_scan"}, "type": "electric_scooter", "fusion_lat": 0.0, "lon": -77.03873866666666}, {"fusion_lon": 0.0, "bike_id": "08962cd02920e1fb6868817c3400d024", "is_disabled": 0, "is_reserved": 0, "lat": 38.902212666666664, "name": "08962cd02920e1fb6868817c3400d024", "rental_uris": {"ios": "https://dc.lft.to/lastmile_qr_scan", "android": "https://dc.lft.to/lastmile_qr_scan"}, "type": "electric_scooter", "fusion_lat": 0.0, "lon": -77.0512065}, {"fusion_lon": 0.0, "bike_id": "eb6c7f9895aa9d098b05fca6ad2c8b77", "is_disabled": 0, "is_reserved": 0, "lat": 39.03472433333334, "name": "eb6c7f9895aa9d098b05fca6ad2c8b77", "rental_uris": {"ios": "https://dc.lft.to/lastmile_qr_scan", "android": "https://dc.lft.to/lastmile_qr_scan"}, "type": "electric_bike", "fusion_lat": 0.0, "lon": -77.04100616666666}, {"fusion_lon": 0.0, "bike_id": "ca965c5859c6c2049e24b6c67aa9b7bc", "is_disabled": 0, "is_reserved": 0, "lat": 38.905602, "name": "ca965c5859c6c2049e24b6c67aa9b7bc", "rental_uris": {"ios": "https://dc.lft.to/lastmile_qr_scan", "android": "https://dc.lft.to/lastmile_qr_scan"}, "type": "electric_scooter", "fusion_lat": 0.0, "lon": -77.02993216666667}, {"fusion_lon": 0.0, "bike_id": "ba3e35b27d072a9af2837e1a55fa7ad8", "is_disabled": 0, "is_reserved": 0, "lat": 38.90186033333333, "name": "ba3e35b27d072a9af2837e1a55fa7ad8", "rental_uris": {"ios": "https://dc.lft.to/lastmile_qr_scan", "android": "https://dc.lft.to/lastmile_qr_scan"}, "type": "electric_scooter", "fusion_lat": 0.0, "lon": -76.97673216666666}, {"fusion_lon": 0.0, "bike_id": "6e876956e4597368589c9f5661e0952e", "is_disabled": 0, "is_reserved": 0, "lat": 38.930899833333335, "name": "6e876956e4597368589c9f5661e0952e", "rental_uris": {"ios": "https://dc.lft.to/lastmile_qr_scan", "android": "https://dc.lft.to/lastmile_qr_scan"}, "type": "electric_scooter", "fusion_lat": 0.0, "lon": -77.02550133333334}, {"fusion_lon": 0.0, "bike_id": "6e6f6e70c8ab7bc16202d105427563ed", "is_disabled": 0, "is_reserved": 0, "lat": 38.9142875, "name": "6e6f6e70c8ab7bc16202d105427563ed", "rental_uris": {"ios": "https://dc.lft.to/lastmile_qr_scan", "android": "https://dc.lft.to/lastmile_qr_scan"}, "type": "electric_scooter", "fusion_lat": 0.0, "lon": -77.0320935}, {"fusion_lon": 0.0, "bike_id": "cc8261e3d66857dc929fc33d280b2aa7", "is_disabled": 0, "is_reserved": 0, "lat": 38.9273865, "name": "cc8261e3d66857dc929fc33d280b2aa7", "rental_uris": {"ios": "https://dc.lft.to/lastmile_qr_scan", "android": "https://dc.lft.to/lastmile_qr_scan"}, "type": "electric_scooter", "fusion_lat": 0.0, "lon": -77.035586}, {"fusion_lon": 0.0, "bike_id": "74ccdf8c82bd68cd6f869c7dca5f92e6", "is_disabled": 0, "is_reserved": 0, "lat": 38.933347, "name": "74ccdf8c82bd68cd6f869c7dca5f92e6", "rental_uris": {"ios": "https://dc.lft.to/lastmile_qr_scan", "android": "https://dc.lft.to/lastmile_qr_scan"}, "type": "electric_scooter", "fusion_lat": 0.0, "lon": -77.05708983333334}, {"fusion_lon": 0.0, "bike_id": "aa48616f6caf3740daacbebcb16c1214", "is_disabled": 0, "is_reserved": 0, "lat": 38.92366616666666, "name": "aa48616f6caf3740daacbebcb16c1214", "rental_uris": {"ios": "https://dc.lft.to/lastmile_qr_scan", "android": "https://dc.lft.to/lastmile_qr_scan"}, "type": "electric_scooter", "fusion_lat": 0.0, "lon": -77.021377}, {"fusion_lon": 0.0, "bike_id": "af4a6a9fa4813d1fa951e576099197fd", "is_disabled": 0, "is_reserved": 0, "lat": 38.91267666666667, "name": "af4a6a9fa4813d1fa951e576099197fd", "rental_uris": {"ios": "https://dc.lft.to/lastmile_qr_scan", "android": "https://dc.lft.to/lastmile_qr_scan"}, "type": "electric_scooter", "fusion_lat": 0.0, "lon": -77.022289}, {"fusion_lon": 0.0, "bike_id": "5c99d9f09f3863e515dac9b56b0f6634", "is_disabled": 0, "is_reserved": 0, "lat": 38.90025, "name": "5c99d9f09f3863e515dac9b56b0f6634", "rental_uris": {"ios": "https://dc.lft.to/lastmile_qr_scan", "android": "https://dc.lft.to/lastmile_qr_scan"}, "type": "electric_scooter", "fusion_lat": 0.0, "lon": -76.98848916666667}, {"fusion_lon": 0.0, "bike_id": "0839a5576697cba6f5c190950af93e9a", "is_disabled": 0, "is_reserved": 0, "lat": 38.90028216666666, "name": "0839a5576697cba6f5c190950af93e9a", "rental_uris": {"ios": "https://dc.lft.to/lastmile_qr_scan", "android": "https://dc.lft.to/lastmile_qr_scan"}, "type": "electric_scooter", "fusion_lat": 0.0, "lon": -76.98846166666667}, {"fusion_lon": 0.0, "bike_id": "8514023e708ebcf602ee7e3a00807410", "is_disabled": 0, "is_reserved": 0, "lat": 38.872899, "name": "8514023e708ebcf602ee7e3a00807410", "rental_uris": {"ios": "https://dc.lft.to/lastmile_qr_scan", "android": "https://dc.lft.to/lastmile_qr_scan"}, "type": "electric_scooter", "fusion_lat": 0.0, "lon": -77.009872}, {"fusion_lon": 0.0, "bike_id": "6f1fde9276d2bdc05a34513b5ee6fa3d", "is_disabled": 0, "is_reserved": 0, "lat": 38.920806666666664, "name": "6f1fde9276d2bdc05a34513b5ee6fa3d", "rental_uris": {"ios": "https://dc.lft.to/lastmile_qr_scan", "android": "https://dc.lft.to/lastmile_qr_scan"}, "type": "electric_scooter", "fusion_lat": 0.0, "lon": -77.023981}, {"fusion_lon": 0.0, "bike_id": "d3da0dce8a5f46abb34bba9c2605515c", "is_disabled": 0, "is_reserved": 0, "lat": 38.9129765, "name": "d3da0dce8a5f46abb34bba9c2605515c", "rental_uris": {"ios": "https://dc.lft.to/lastmile_qr_scan", "android": "https://dc.lft.to/lastmile_qr_scan"}, "type": "electric_scooter", "fusion_lat": 0.0, "lon": -76.98692233333334}, {"fusion_lon": 0.0, "bike_id": "f42c30fa3803a4ed88746023ccd7e8af", "is_disabled": 0, "is_reserved": 0, "lat": 38.91026266666667, "name": "f42c30fa3803a4ed88746023ccd7e8af", "rental_uris": {"ios": "https://dc.lft.to/lastmile_qr_scan", "android": "https://dc.lft.to/lastmile_qr_scan"}, "type": "electric_scooter", "fusion_lat": 0.0, "lon": -77.02947533333334}, {"fusion_lon": 0.0, "bike_id": "619e23fea9154169b5fc890e69fd7739", "is_disabled": 0, "is_reserved": 0, "lat": 38.8461085, "name": "619e23fea9154169b5fc890e69fd7739", "rental_uris": {"ios": "https://dc.lft.to/lastmile_qr_scan", "android": "https://dc.lft.to/lastmile_qr_scan"}, "type": "electric_bike", "fusion_lat": 0.0, "lon": -76.9782015}, {"fusion_lon": 0.0, "bike_id": "4d284871d4e6d160e4f05b5fe8e9e957", "is_disabled": 0, "is_reserved": 0, "lat": 38.88105183333333, "name": "4d284871d4e6d160e4f05b5fe8e9e957", "rental_uris": {"ios": "https://dc.lft.to/lastmile_qr_scan", "android": "https://dc.lft.to/lastmile_qr_scan"}, "type": "electric_scooter", "fusion_lat": 0.0, "lon": -77.01664166666667}, {"fusion_lon": 0.0, "bike_id": "974d50074ba9cebffc9f00927d056d38", "is_disabled": 0, "is_reserved": 0, "lat": 38.916916, "name": "974d50074ba9cebffc9f00927d056d38", "rental_uris": {"ios": "https://dc.lft.to/lastmile_qr_scan", "android": "https://dc.lft.to/lastmile_qr_scan"}, "type": "electric_scooter", "fusion_lat": 0.0, "lon": -77.02722316666667}, {"fusion_lon": 0.0, "bike_id": "a0552b66090fc947f2bb639f3a1c8f3e", "is_disabled": 0, "is_reserved": 0, "lat": 38.909103, "name": "a0552b66090fc947f2bb639f3a1c8f3e", "rental_uris": {"ios": "https://dc.lft.to/lastmile_qr_scan", "android": "https://dc.lft.to/lastmile_qr_scan"}, "type": "electric_scooter", "fusion_lat": 0.0, "lon": -76.99774866666667}, {"fusion_lon": 0.0, "bike_id": "18b5b94922da8eeb77a43fade0773df3", "is_disabled": 0, "is_reserved": 0, "lat": 38.90681583333333, "name": "18b5b94922da8eeb77a43fade0773df3", "rental_uris": {"ios": "https://dc.lft.to/lastmile_qr_scan", "android": "https://dc.lft.to/lastmile_qr_scan"}, "type": "electric_scooter", "fusion_lat": 0.0, "lon": -77.0718185}, {"fusion_lon": 0.0, "bike_id": "9f6ef76e0fc9ff955965b6c71d06ce47", "is_disabled": 0, "is_reserved": 0, "lat": 38.9140865, "name": "9f6ef76e0fc9ff955965b6c71d06ce47", "rental_uris": {"ios": "https://dc.lft.to/lastmile_qr_scan", "android": "https://dc.lft.to/lastmile_qr_scan"}, "type": "electric_scooter", "fusion_lat": 0.0, "lon": -77.01075416666667}, {"fusion_lon": 0.0, "bike_id": "a8b8c57dc2f0c71c9e26c7204b22d460", "is_disabled": 0, "is_reserved": 0, "lat": 38.906784, "name": "a8b8c57dc2f0c71c9e26c7204b22d460", "rental_uris": {"ios": "https://dc.lft.to/lastmile_qr_scan", "android": "https://dc.lft.to/lastmile_qr_scan"}, "type": "electric_scooter", "fusion_lat": 0.0, "lon": -77.06263033333333}, {"fusion_lon": 0.0, "bike_id": "7b174919cb254c9bc3b677737e1b416d", "is_disabled": 0, "is_reserved": 0, "lat": 38.892230166666664, "name": "7b174919cb254c9bc3b677737e1b416d", "rental_uris": {"ios": "https://dc.lft.to/lastmile_qr_scan", "android": "https://dc.lft.to/lastmile_qr_scan"}, "type": "electric_scooter", "fusion_lat": 0.0, "lon": -77.04872816666666}, {"fusion_lon": 0.0, "bike_id": "2333ed9c58d34121fc9ff39dbe2e1fff", "is_disabled": 0, "is_reserved": 0, "lat": 38.920109833333335, "name": "2333ed9c58d34121fc9ff39dbe2e1fff", "rental_uris": {"ios": "https://dc.lft.to/lastmile_qr_scan", "android": "https://dc.lft.to/lastmile_qr_scan"}, "type": "electric_scooter", "fusion_lat": 0.0, "lon": -77.0239725}, {"fusion_lon": 0.0, "bike_id": "e02330950c16a4ea342c75a13b312569", "is_disabled": 0, "is_reserved": 0, "lat": 38.90163866666666, "name": "e02330950c16a4ea342c75a13b312569", "rental_uris": {"ios": "https://dc.lft.to/lastmile_qr_scan", "android": "https://dc.lft.to/lastmile_qr_scan"}, "type": "electric_scooter", "fusion_lat": 0.0, "lon": -77.034302}, {"fusion_lon": 0.0, "bike_id": "655ce734047dd0bc6660fc87043d2c3f", "is_disabled": 0, "is_reserved": 0, "lat": 38.920178666666665, "name": "655ce734047dd0bc6660fc87043d2c3f", "rental_uris": {"ios": "https://dc.lft.to/lastmile_qr_scan", "android": "https://dc.lft.to/lastmile_qr_scan"}, "type": "electric_scooter", "fusion_lat": 0.0, "lon": -77.0440385}, {"fusion_lon": 0.0, "bike_id": "b0802b3ebb0694a554c9fd1c97fdeec4", "is_disabled": 0, "is_reserved": 0, "lat": 38.9562225, "name": "b0802b3ebb0694a554c9fd1c97fdeec4", "rental_uris": {"ios": "https://dc.lft.to/lastmile_qr_scan", "android": "https://dc.lft.to/lastmile_qr_scan"}, "type": "electric_scooter", "fusion_lat": 0.0, "lon": -77.02432266666666}, {"fusion_lon": 0.0, "bike_id": "bd5ed8b2d427488e8ff35fcaa918b76e", "is_disabled": 0, "is_reserved": 0, "lat": 38.8337985, "name": "bd5ed8b2d427488e8ff35fcaa918b76e", "rental_uris": {"ios": "https://dc.lft.to/lastmile_qr_scan", "android": "https://dc.lft.to/lastmile_qr_scan"}, "type": "electric_scooter", "fusion_lat": 0.0, "lon": -77.00298416666666}, {"fusion_lon": 0.0, "bike_id": "db42cfa6945ab2459542b04d3cedb7cf", "is_disabled": 0, "is_reserved": 0, "lat": 38.909687166666664, "name": "db42cfa6945ab2459542b04d3cedb7cf", "rental_uris": {"ios": "https://dc.lft.to/lastmile_qr_scan", "android": "https://dc.lft.to/lastmile_qr_scan"}, "type": "electric_scooter", "fusion_lat": 0.0, "lon": -77.04826833333334}, {"fusion_lon": 0.0, "bike_id": "a3caae1c4116c63167fe906e58cb887a", "is_disabled": 0, "is_reserved": 0, "lat": 38.899655333333335, "name": "a3caae1c4116c63167fe906e58cb887a", "rental_uris": {"ios": "https://dc.lft.to/lastmile_qr_scan", "android": "https://dc.lft.to/lastmile_qr_scan"}, "type": "electric_scooter", "fusion_lat": 0.0, "lon": -77.04717116666667}, {"fusion_lon": 0.0, "bike_id": "2077c60e4b481d6328c2c5995c6b5143", "is_disabled": 0, "is_reserved": 0, "lat": 38.8360585, "name": "2077c60e4b481d6328c2c5995c6b5143", "rental_uris": {"ios": "https://dc.lft.to/lastmile_qr_scan", "android": "https://dc.lft.to/lastmile_qr_scan"}, "type": "electric_bike", "fusion_lat": 0.0, "lon": -77.00378316666666}, {"fusion_lon": 0.0, "bike_id": "82c88dc347674ae99a5b3782ff8c98a4", "is_disabled": 0, "is_reserved": 0, "lat": 38.909225666666664, "name": "82c88dc347674ae99a5b3782ff8c98a4", "rental_uris": {"ios": "https://dc.lft.to/lastmile_qr_scan", "android": "https://dc.lft.to/lastmile_qr_scan"}, "type": "electric_scooter", "fusion_lat": 0.0, "lon": -77.03464333333334}, {"fusion_lon": 0.0, "bike_id": "5d12069df781529f59a58537243e4973", "is_disabled": 0, "is_reserved": 0, "lat": 38.901697666666664, "name": "5d12069df781529f59a58537243e4973", "rental_uris": {"ios": "https://dc.lft.to/lastmile_qr_scan", "android": "https://dc.lft.to/lastmile_qr_scan"}, "type": "electric_bike", "fusion_lat": 0.0, "lon": -77.05105616666667}, {"fusion_lon": 0.0, "bike_id": "9f8ab253a8d74ddd00c5bfd100b4481e", "is_disabled": 0, "is_reserved": 0, "lat": 38.90785066666667, "name": "9f8ab253a8d74ddd00c5bfd100b4481e", "rental_uris": {"ios": "https://dc.lft.to/lastmile_qr_scan", "android": "https://dc.lft.to/lastmile_qr_scan"}, "type": "electric_scooter", "fusion_lat": 0.0, "lon": -77.01082166666667}, {"fusion_lon": 0.0, "bike_id": "04c315d98879d89697c61c8e051aea66", "is_disabled": 0, "is_reserved": 0, "lat": 38.91488416666667, "name": "04c315d98879d89697c61c8e051aea66", "rental_uris": {"ios": "https://dc.lft.to/lastmile_qr_scan", "android": "https://dc.lft.to/lastmile_qr_scan"}, "type": "electric_scooter", "fusion_lat": 0.0, "lon": -77.0218845}, {"fusion_lon": 0.0, "bike_id": "8c37175a04ebdf17d5c48b94e05bde8c", "is_disabled": 0, "is_reserved": 0, "lat": 38.911939333333336, "name": "8c37175a04ebdf17d5c48b94e05bde8c", "rental_uris": {"ios": "https://dc.lft.to/lastmile_qr_scan", "android": "https://dc.lft.to/lastmile_qr_scan"}, "type": "electric_scooter", "fusion_lat": 0.0, "lon": -77.01812683333333}, {"fusion_lon": 0.0, "bike_id": "16c71e375217ca28c9e505202f15a952", "is_disabled": 0, "is_reserved": 0, "lat": 38.96384483333333, "name": "16c71e375217ca28c9e505202f15a952", "rental_uris": {"ios": "https://dc.lft.to/lastmile_qr_scan", "android": "https://dc.lft.to/lastmile_qr_scan"}, "type": "electric_scooter", "fusion_lat": 0.0, "lon": -77.0276605}, {"fusion_lon": 0.0, "bike_id": "83a50fa2461b6c8053819afe339a1e1e", "is_disabled": 0, "is_reserved": 0, "lat": 38.9160035, "name": "83a50fa2461b6c8053819afe339a1e1e", "rental_uris": {"ios": "https://dc.lft.to/lastmile_qr_scan", "android": "https://dc.lft.to/lastmile_qr_scan"}, "type": "electric_scooter", "fusion_lat": 0.0, "lon": -77.02960166666666}, {"fusion_lon": 0.0, "bike_id": "e2e63472aba17276c4474f00fdc2eefe", "is_disabled": 0, "is_reserved": 0, "lat": 38.966303833333335, "name": "e2e63472aba17276c4474f00fdc2eefe", "rental_uris": {"ios": "https://dc.lft.to/lastmile_qr_scan", "android": "https://dc.lft.to/lastmile_qr_scan"}, "type": "electric_scooter", "fusion_lat": 0.0, "lon": -77.027478}, {"fusion_lon": 0.0, "bike_id": "763a8bb22303aa4c1022e26bb5040c84", "is_disabled": 0, "is_reserved": 0, "lat": 38.8979025, "name": "763a8bb22303aa4c1022e26bb5040c84", "rental_uris": {"ios": "https://dc.lft.to/lastmile_qr_scan", "android": "https://dc.lft.to/lastmile_qr_scan"}, "type": "electric_scooter", "fusion_lat": 0.0, "lon": -77.04965233333333}, {"fusion_lon": 0.0, "bike_id": "c09f23e966d8fae8b0fecbe7bb3931dd", "is_disabled": 0, "is_reserved": 0, "lat": 38.9194915, "name": "c09f23e966d8fae8b0fecbe7bb3931dd", "rental_uris": {"ios": "https://dc.lft.to/lastmile_qr_scan", "android": "https://dc.lft.to/lastmile_qr_scan"}, "type": "electric_scooter", "fusion_lat": 0.0, "lon": -77.01380316666666}, {"fusion_lon": 0.0, "bike_id": "0b3e0d2cb690532e2c21c4a27d90ce9b", "is_disabled": 0, "is_reserved": 0, "lat": 38.920775166666665, "name": "0b3e0d2cb690532e2c21c4a27d90ce9b", "rental_uris": {"ios": "https://dc.lft.to/lastmile_qr_scan", "android": "https://dc.lft.to/lastmile_qr_scan"}, "type": "electric_scooter", "fusion_lat": 0.0, "lon": -77.038722}, {"fusion_lon": 0.0, "bike_id": "8f643c98c9dd50e6c136b037aedcfc3d", "is_disabled": 0, "is_reserved": 0, "lat": 38.909723166666666, "name": "8f643c98c9dd50e6c136b037aedcfc3d", "rental_uris": {"ios": "https://dc.lft.to/lastmile_qr_scan", "android": "https://dc.lft.to/lastmile_qr_scan"}, "type": "electric_scooter", "fusion_lat": 0.0, "lon": -77.032177}, {"fusion_lon": 0.0, "bike_id": "c871974842c89584108a8bef785e2293", "is_disabled": 0, "is_reserved": 0, "lat": 38.92711416666667, "name": "c871974842c89584108a8bef785e2293", "rental_uris": {"ios": "https://dc.lft.to/lastmile_qr_scan", "android": "https://dc.lft.to/lastmile_qr_scan"}, "type": "electric_scooter", "fusion_lat": 0.0, "lon": -77.06003233333334}, {"fusion_lon": 0.0, "bike_id": "01ac231a3cd543d5e323790a250f337b", "is_disabled": 0, "is_reserved": 0, "lat": 38.925334166666666, "name": "01ac231a3cd543d5e323790a250f337b", "rental_uris": {"ios": "https://dc.lft.to/lastmile_qr_scan", "android": "https://dc.lft.to/lastmile_qr_scan"}, "type": "electric_bike", "fusion_lat": 0.0, "lon": -77.07328566666666}, {"fusion_lon": 0.0, "bike_id": "1f15bece1f2ff54bdf1ee8fd4982d753", "is_disabled": 0, "is_reserved": 0, "lat": 38.90417633333333, "name": "1f15bece1f2ff54bdf1ee8fd4982d753", "rental_uris": {"ios": "https://dc.lft.to/lastmile_qr_scan", "android": "https://dc.lft.to/lastmile_qr_scan"}, "type": "electric_scooter", "fusion_lat": 0.0, "lon": -77.020625}, {"fusion_lon": 0.0, "bike_id": "555162b1da1725f12ed0b0c7b852054e", "is_disabled": 0, "is_reserved": 0, "lat": 38.917100833333336, "name": "555162b1da1725f12ed0b0c7b852054e", "rental_uris": {"ios": "https://dc.lft.to/lastmile_qr_scan", "android": "https://dc.lft.to/lastmile_qr_scan"}, "type": "electric_scooter", "fusion_lat": 0.0, "lon": -77.02302933333333}, {"fusion_lon": 0.0, "bike_id": "8483b9cafea196bdf63b0fed6b4e6171", "is_disabled": 0, "is_reserved": 0, "lat": 38.907583, "name": "8483b9cafea196bdf63b0fed6b4e6171", "rental_uris": {"ios": "https://dc.lft.to/lastmile_qr_scan", "android": "https://dc.lft.to/lastmile_qr_scan"}, "type": "electric_scooter", "fusion_lat": 0.0, "lon": -77.01698}, {"fusion_lon": 0.0, "bike_id": "079af02318ae137754e3e3b678313ac9", "is_disabled": 0, "is_reserved": 0, "lat": 38.92317833333333, "name": "079af02318ae137754e3e3b678313ac9", "rental_uris": {"ios": "https://dc.lft.to/lastmile_qr_scan", "android": "https://dc.lft.to/lastmile_qr_scan"}, "type": "electric_scooter", "fusion_lat": 0.0, "lon": -77.056281}, {"fusion_lon": 0.0, "bike_id": "e5c58fbc9b01be1a816a05ae5cdb723e", "is_disabled": 0, "is_reserved": 0, "lat": 38.9374865, "name": "e5c58fbc9b01be1a816a05ae5cdb723e", "rental_uris": {"ios": "https://dc.lft.to/lastmile_qr_scan", "android": "https://dc.lft.to/lastmile_qr_scan"}, "type": "electric_scooter", "fusion_lat": 0.0, "lon": -77.03432983333333}, {"fusion_lon": 0.0, "bike_id": "18d62f94ce411ea65c199c1fb4683345", "is_disabled": 0, "is_reserved": 0, "lat": 38.92038466666666, "name": "18d62f94ce411ea65c199c1fb4683345", "rental_uris": {"ios": "https://dc.lft.to/lastmile_qr_scan", "android": "https://dc.lft.to/lastmile_qr_scan"}, "type": "electric_scooter", "fusion_lat": 0.0, "lon": -77.01218533333333}, {"fusion_lon": 0.0, "bike_id": "96bc8aa1b8000dce9bc1a2bb3fca33e4", "is_disabled": 0, "is_reserved": 0, "lat": 38.93979216666666, "name": "96bc8aa1b8000dce9bc1a2bb3fca33e4", "rental_uris": {"ios": "https://dc.lft.to/lastmile_qr_scan", "android": "https://dc.lft.to/lastmile_qr_scan"}, "type": "electric_scooter", "fusion_lat": 0.0, "lon": -77.029559}, {"fusion_lon": 0.0, "bike_id": "e2e61cfe6695fbe03764f8656647f29a", "is_disabled": 0, "is_reserved": 0, "lat": 39.0053415, "name": "e2e61cfe6695fbe03764f8656647f29a", "rental_uris": {"ios": "https://dc.lft.to/lastmile_qr_scan", "android": "https://dc.lft.to/lastmile_qr_scan"}, "type": "electric_bike", "fusion_lat": 0.0, "lon": -77.1040345}, {"fusion_lon": 0.0, "bike_id": "8e4533bd37e4a635af3cebd50e5e7ded", "is_disabled": 0, "is_reserved": 0, "lat": 38.9507455, "name": "8e4533bd37e4a635af3cebd50e5e7ded", "rental_uris": {"ios": "https://dc.lft.to/lastmile_qr_scan", "android": "https://dc.lft.to/lastmile_qr_scan"}, "type": "electric_bike", "fusion_lat": 0.0, "lon": -77.01203766666667}, {"fusion_lon": 0.0, "bike_id": "227f423ce1699ff010df43aecbc07875", "is_disabled": 0, "is_reserved": 0, "lat": 38.877394, "name": "227f423ce1699ff010df43aecbc07875", "rental_uris": {"ios": "https://dc.lft.to/lastmile_qr_scan", "android": "https://dc.lft.to/lastmile_qr_scan"}, "type": "electric_bike", "fusion_lat": 0.0, "lon": -77.14869816666666}, {"fusion_lon": 0.0, "bike_id": "21ac5f51200e65576c34e06afc21a09d", "is_disabled": 0, "is_reserved": 0, "lat": 38.878491, "name": "21ac5f51200e65576c34e06afc21a09d", "rental_uris": {"ios": "https://dc.lft.to/lastmile_qr_scan", "android": "https://dc.lft.to/lastmile_qr_scan"}, "type": "electric_scooter", "fusion_lat": 0.0, "lon": -77.0196815}, {"fusion_lon": 0.0, "bike_id": "00f4549bed7e267b4fe8a729f0a18a44", "is_disabled": 0, "is_reserved": 0, "lat": 38.923492833333334, "name": "00f4549bed7e267b4fe8a729f0a18a44", "rental_uris": {"ios": "https://dc.lft.to/lastmile_qr_scan", "android": "https://dc.lft.to/lastmile_qr_scan"}, "type": "electric_scooter", "fusion_lat": 0.0, "lon": -77.0353495}, {"fusion_lon": 0.0, "bike_id": "0da1e8b32150074abfa431c1bbe59b63", "is_disabled": 0, "is_reserved": 0, "lat": 38.895539166666666, "name": "0da1e8b32150074abfa431c1bbe59b63", "rental_uris": {"ios": "https://dc.lft.to/lastmile_qr_scan", "android": "https://dc.lft.to/lastmile_qr_scan"}, "type": "electric_scooter", "fusion_lat": 0.0, "lon": -77.00917566666666}, {"fusion_lon": 0.0, "bike_id": "03f14181bbb00e5bce618175be323d01", "is_disabled": 0, "is_reserved": 0, "lat": 38.905886833333334, "name": "03f14181bbb00e5bce618175be323d01", "rental_uris": {"ios": "https://dc.lft.to/lastmile_qr_scan", "android": "https://dc.lft.to/lastmile_qr_scan"}, "type": "electric_scooter", "fusion_lat": 0.0, "lon": -77.03354683333333}, {"fusion_lon": 0.0, "bike_id": "6b6e5a294e1b3d8966eac396f4e097ff", "is_disabled": 0, "is_reserved": 0, "lat": 38.865053333333336, "name": "6b6e5a294e1b3d8966eac396f4e097ff", "rental_uris": {"ios": "https://dc.lft.to/lastmile_qr_scan", "android": "https://dc.lft.to/lastmile_qr_scan"}, "type": "electric_bike", "fusion_lat": 0.0, "lon": -76.9729745}, {"fusion_lon": 0.0, "bike_id": "919b7e8215523d07322ae77fbf94ee94", "is_disabled": 0, "is_reserved": 0, "lat": 38.918060833333335, "name": "919b7e8215523d07322ae77fbf94ee94", "rental_uris": {"ios": "https://dc.lft.to/lastmile_qr_scan", "android": "https://dc.lft.to/lastmile_qr_scan"}, "type": "electric_scooter", "fusion_lat": 0.0, "lon": -77.01155916666667}, {"fusion_lon": 0.0, "bike_id": "2256921db4d01d44087abedd6048f243", "is_disabled": 0, "is_reserved": 0, "lat": 38.913135833333335, "name": "2256921db4d01d44087abedd6048f243", "rental_uris": {"ios": "https://dc.lft.to/lastmile_qr_scan", "android": "https://dc.lft.to/lastmile_qr_scan"}, "type": "electric_scooter", "fusion_lat": 0.0, "lon": -77.03644766666666}, {"fusion_lon": 0.0, "bike_id": "d521949f3429622770d5f16b0710099b", "is_disabled": 0, "is_reserved": 0, "lat": 38.91923033333333, "name": "d521949f3429622770d5f16b0710099b", "rental_uris": {"ios": "https://dc.lft.to/lastmile_qr_scan", "android": "https://dc.lft.to/lastmile_qr_scan"}, "type": "electric_scooter", "fusion_lat": 0.0, "lon": -77.01781566666666}, {"fusion_lon": 0.0, "bike_id": "98bd003f8e8e324ded87c830c6271843", "is_disabled": 0, "is_reserved": 0, "lat": 38.91905883333333, "name": "98bd003f8e8e324ded87c830c6271843", "rental_uris": {"ios": "https://dc.lft.to/lastmile_qr_scan", "android": "https://dc.lft.to/lastmile_qr_scan"}, "type": "electric_scooter", "fusion_lat": 0.0, "lon": -77.044667}, {"fusion_lon": 0.0, "bike_id": "2319babd6cf64ac2d1a5e43829fc74c9", "is_disabled": 0, "is_reserved": 0, "lat": 38.900728666666666, "name": "2319babd6cf64ac2d1a5e43829fc74c9", "rental_uris": {"ios": "https://dc.lft.to/lastmile_qr_scan", "android": "https://dc.lft.to/lastmile_qr_scan"}, "type": "electric_scooter", "fusion_lat": 0.0, "lon": -77.02691583333333}, {"fusion_lon": 0.0, "bike_id": "46c0007ab92d6bf9dd697f5536291107", "is_disabled": 0, "is_reserved": 0, "lat": 38.898297166666666, "name": "46c0007ab92d6bf9dd697f5536291107", "rental_uris": {"ios": "https://dc.lft.to/lastmile_qr_scan", "android": "https://dc.lft.to/lastmile_qr_scan"}, "type": "electric_scooter", "fusion_lat": 0.0, "lon": -77.049467}, {"fusion_lon": 0.0, "bike_id": "e075c54dad2bc30d8e0fb938e579e496", "is_disabled": 0, "is_reserved": 0, "lat": 38.920608666666666, "name": "e075c54dad2bc30d8e0fb938e579e496", "rental_uris": {"ios": "https://dc.lft.to/lastmile_qr_scan", "android": "https://dc.lft.to/lastmile_qr_scan"}, "type": "electric_scooter", "fusion_lat": 0.0, "lon": -77.0418995}, {"fusion_lon": 0.0, "bike_id": "4011978fdbbdf6d7c4a935034b362d82", "is_disabled": 0, "is_reserved": 0, "lat": 38.9278275, "name": "4011978fdbbdf6d7c4a935034b362d82", "rental_uris": {"ios": "https://dc.lft.to/lastmile_qr_scan", "android": "https://dc.lft.to/lastmile_qr_scan"}, "type": "electric_scooter", "fusion_lat": 0.0, "lon": -77.02721533333333}, {"fusion_lon": 0.0, "bike_id": "63fa3636f510204ebda3cab6c4e34531", "is_disabled": 0, "is_reserved": 0, "lat": 38.868204, "name": "63fa3636f510204ebda3cab6c4e34531", "rental_uris": {"ios": "https://dc.lft.to/lastmile_qr_scan", "android": "https://dc.lft.to/lastmile_qr_scan"}, "type": "electric_bike", "fusion_lat": 0.0, "lon": -76.980242}, {"fusion_lon": 0.0, "bike_id": "d3dfcf0f0b314fa50b306550bdac500d", "is_disabled": 0, "is_reserved": 0, "lat": 38.91100816666667, "name": "d3dfcf0f0b314fa50b306550bdac500d", "rental_uris": {"ios": "https://dc.lft.to/lastmile_qr_scan", "android": "https://dc.lft.to/lastmile_qr_scan"}, "type": "electric_scooter", "fusion_lat": 0.0, "lon": -77.01162233333334}, {"fusion_lon": 0.0, "bike_id": "5ddd0990f37bcf13517f6b5eabf0f2b5", "is_disabled": 0, "is_reserved": 0, "lat": 38.98530916666667, "name": "5ddd0990f37bcf13517f6b5eabf0f2b5", "rental_uris": {"ios": "https://dc.lft.to/lastmile_qr_scan", "android": "https://dc.lft.to/lastmile_qr_scan"}, "type": "electric_bike", "fusion_lat": 0.0, "lon": -77.0041605}, {"fusion_lon": 0.0, "bike_id": "631387c147fe65abbe5fea221444e24a", "is_disabled": 0, "is_reserved": 0, "lat": 38.929653, "name": "631387c147fe65abbe5fea221444e24a", "rental_uris": {"ios": "https://dc.lft.to/lastmile_qr_scan", "android": "https://dc.lft.to/lastmile_qr_scan"}, "type": "electric_scooter", "fusion_lat": 0.0, "lon": -77.04030283333333}, {"fusion_lon": 0.0, "bike_id": "5747148c280a9a1e375ce410ade3f1fa", "is_disabled": 0, "is_reserved": 0, "lat": 38.93043816666667, "name": "5747148c280a9a1e375ce410ade3f1fa", "rental_uris": {"ios": "https://dc.lft.to/lastmile_qr_scan", "android": "https://dc.lft.to/lastmile_qr_scan"}, "type": "electric_scooter", "fusion_lat": 0.0, "lon": -77.05569383333334}, {"fusion_lon": 0.0, "bike_id": "d76d0f65dcc4fef525862a14097ba9cf", "is_disabled": 0, "is_reserved": 0, "lat": 38.914128166666664, "name": "d76d0f65dcc4fef525862a14097ba9cf", "rental_uris": {"ios": "https://dc.lft.to/lastmile_qr_scan", "android": "https://dc.lft.to/lastmile_qr_scan"}, "type": "electric_scooter", "fusion_lat": 0.0, "lon": -77.02225316666667}, {"fusion_lon": 0.0, "bike_id": "7878f412308c43ec9e734a3d70f31138", "is_disabled": 0, "is_reserved": 0, "lat": 38.9043115, "name": "7878f412308c43ec9e734a3d70f31138", "rental_uris": {"ios": "https://dc.lft.to/lastmile_qr_scan", "android": "https://dc.lft.to/lastmile_qr_scan"}, "type": "electric_scooter", "fusion_lat": 0.0, "lon": -77.028892}, {"fusion_lon": 0.0, "bike_id": "c4eed8e3c5048158304e744949afafe7", "is_disabled": 0, "is_reserved": 0, "lat": 38.91623216666667, "name": "c4eed8e3c5048158304e744949afafe7", "rental_uris": {"ios": "https://dc.lft.to/lastmile_qr_scan", "android": "https://dc.lft.to/lastmile_qr_scan"}, "type": "electric_scooter", "fusion_lat": 0.0, "lon": -77.03748}, {"fusion_lon": 0.0, "bike_id": "b218f538b7e2b47dffd918dedeca0e5c", "is_disabled": 0, "is_reserved": 0, "lat": 38.8966855, "name": "b218f538b7e2b47dffd918dedeca0e5c", "rental_uris": {"ios": "https://dc.lft.to/lastmile_qr_scan", "android": "https://dc.lft.to/lastmile_qr_scan"}, "type": "electric_scooter", "fusion_lat": 0.0, "lon": -76.93212233333334}, {"fusion_lon": 0.0, "bike_id": "36a7f77208c2c00a41216b485347d8f4", "is_disabled": 0, "is_reserved": 0, "lat": 38.8995465, "name": "36a7f77208c2c00a41216b485347d8f4", "rental_uris": {"ios": "https://dc.lft.to/lastmile_qr_scan", "android": "https://dc.lft.to/lastmile_qr_scan"}, "type": "electric_scooter", "fusion_lat": 0.0, "lon": -77.0452195}, {"fusion_lon": 0.0, "bike_id": "85b42e69caa6dca6d4f7750ad1942f13", "is_disabled": 0, "is_reserved": 0, "lat": 38.91839383333333, "name": "85b42e69caa6dca6d4f7750ad1942f13", "rental_uris": {"ios": "https://dc.lft.to/lastmile_qr_scan", "android": "https://dc.lft.to/lastmile_qr_scan"}, "type": "electric_scooter", "fusion_lat": 0.0, "lon": -77.04176016666666}, {"fusion_lon": 0.0, "bike_id": "c06e347b2374f93c04709a5560e746f5", "is_disabled": 0, "is_reserved": 0, "lat": 38.89079533333334, "name": "c06e347b2374f93c04709a5560e746f5", "rental_uris": {"ios": "https://dc.lft.to/lastmile_qr_scan", "android": "https://dc.lft.to/lastmile_qr_scan"}, "type": "electric_scooter", "fusion_lat": 0.0, "lon": -76.9882035}, {"fusion_lon": 0.0, "bike_id": "5dd0b2710ad672312ff8929e8b7bc847", "is_disabled": 0, "is_reserved": 0, "lat": 38.914891833333336, "name": "5dd0b2710ad672312ff8929e8b7bc847", "rental_uris": {"ios": "https://dc.lft.to/lastmile_qr_scan", "android": "https://dc.lft.to/lastmile_qr_scan"}, "type": "electric_scooter", "fusion_lat": 0.0, "lon": -77.02289533333334}, {"fusion_lon": 0.0, "bike_id": "f198f4fe24df5f71c52dace6f09d32da", "is_disabled": 0, "is_reserved": 0, "lat": 38.943114333333334, "name": "f198f4fe24df5f71c52dace6f09d32da", "rental_uris": {"ios": "https://dc.lft.to/lastmile_qr_scan", "android": "https://dc.lft.to/lastmile_qr_scan"}, "type": "electric_scooter", "fusion_lat": 0.0, "lon": -77.02517216666666}, {"fusion_lon": 0.0, "bike_id": "3dff3266ade4ea78891164152bd4b1b1", "is_disabled": 0, "is_reserved": 0, "lat": 38.918791666666664, "name": "3dff3266ade4ea78891164152bd4b1b1", "rental_uris": {"ios": "https://dc.lft.to/lastmile_qr_scan", "android": "https://dc.lft.to/lastmile_qr_scan"}, "type": "electric_scooter", "fusion_lat": 0.0, "lon": -77.04177066666666}, {"fusion_lon": 0.0, "bike_id": "67b89fbb1e1430b798711a793c213ede", "is_disabled": 0, "is_reserved": 0, "lat": 38.90564416666667, "name": "67b89fbb1e1430b798711a793c213ede", "rental_uris": {"ios": "https://dc.lft.to/lastmile_qr_scan", "android": "https://dc.lft.to/lastmile_qr_scan"}, "type": "electric_scooter", "fusion_lat": 0.0, "lon": -77.0419955}, {"fusion_lon": 0.0, "bike_id": "2f68dee571e2171e0642aeab0070f38d", "is_disabled": 0, "is_reserved": 0, "lat": 38.90538016666667, "name": "2f68dee571e2171e0642aeab0070f38d", "rental_uris": {"ios": "https://dc.lft.to/lastmile_qr_scan", "android": "https://dc.lft.to/lastmile_qr_scan"}, "type": "electric_scooter", "fusion_lat": 0.0, "lon": -77.0070535}, {"fusion_lon": 0.0, "bike_id": "d4b57b50655b068c1e46599159001587", "is_disabled": 0, "is_reserved": 0, "lat": 38.87666266666667, "name": "d4b57b50655b068c1e46599159001587", "rental_uris": {"ios": "https://dc.lft.to/lastmile_qr_scan", "android": "https://dc.lft.to/lastmile_qr_scan"}, "type": "electric_scooter", "fusion_lat": 0.0, "lon": -77.00722383333333}, {"fusion_lon": 0.0, "bike_id": "6934d344eebe5d7cecaacb0ba426454d", "is_disabled": 0, "is_reserved": 0, "lat": 38.92661283333333, "name": "6934d344eebe5d7cecaacb0ba426454d", "rental_uris": {"ios": "https://dc.lft.to/lastmile_qr_scan", "android": "https://dc.lft.to/lastmile_qr_scan"}, "type": "electric_scooter", "fusion_lat": 0.0, "lon": -77.0227665}, {"fusion_lon": 0.0, "bike_id": "959671fdf2653be6679585c99e643270", "is_disabled": 0, "is_reserved": 0, "lat": 38.926388833333334, "name": "959671fdf2653be6679585c99e643270", "rental_uris": {"ios": "https://dc.lft.to/lastmile_qr_scan", "android": "https://dc.lft.to/lastmile_qr_scan"}, "type": "electric_scooter", "fusion_lat": 0.0, "lon": -77.0271585}, {"fusion_lon": 0.0, "bike_id": "aba10b989be29c4202c92b122b710409", "is_disabled": 0, "is_reserved": 0, "lat": 38.83691733333333, "name": "aba10b989be29c4202c92b122b710409", "rental_uris": {"ios": "https://dc.lft.to/lastmile_qr_scan", "android": "https://dc.lft.to/lastmile_qr_scan"}, "type": "electric_bike", "fusion_lat": 0.0, "lon": -77.1030705}, {"fusion_lon": 0.0, "bike_id": "d65f4f557ed3f37d9885c0e3828e88f3", "is_disabled": 0, "is_reserved": 0, "lat": 38.88987566666667, "name": "d65f4f557ed3f37d9885c0e3828e88f3", "rental_uris": {"ios": "https://dc.lft.to/lastmile_qr_scan", "android": "https://dc.lft.to/lastmile_qr_scan"}, "type": "electric_scooter", "fusion_lat": 0.0, "lon": -76.988112}, {"fusion_lon": 0.0, "bike_id": "10955950b675c3c41b6879463c138f50", "is_disabled": 0, "is_reserved": 0, "lat": 38.91998366666667, "name": "10955950b675c3c41b6879463c138f50", "rental_uris": {"ios": "https://dc.lft.to/lastmile_qr_scan", "android": "https://dc.lft.to/lastmile_qr_scan"}, "type": "electric_scooter", "fusion_lat": 0.0, "lon": -77.03276716666667}, {"fusion_lon": 0.0, "bike_id": "91afeba151adfed8cf2aad531b1f433a", "is_disabled": 0, "is_reserved": 0, "lat": 38.98007583333333, "name": "91afeba151adfed8cf2aad531b1f433a", "rental_uris": {"ios": "https://dc.lft.to/lastmile_qr_scan", "android": "https://dc.lft.to/lastmile_qr_scan"}, "type": "electric_bike", "fusion_lat": 0.0, "lon": -77.06409766666667}, {"fusion_lon": 0.0, "bike_id": "47c963ec7cda414d44eb050f8ba5cbf2", "is_disabled": 0, "is_reserved": 0, "lat": 38.857842, "name": "47c963ec7cda414d44eb050f8ba5cbf2", "rental_uris": {"ios": "https://dc.lft.to/lastmile_qr_scan", "android": "https://dc.lft.to/lastmile_qr_scan"}, "type": "electric_bike", "fusion_lat": 0.0, "lon": -76.98757583333334}, {"fusion_lon": 0.0, "bike_id": "cc7304f696ca9cfbe60d81970f8b36e8", "is_disabled": 0, "is_reserved": 0, "lat": 38.9472045, "name": "cc7304f696ca9cfbe60d81970f8b36e8", "rental_uris": {"ios": "https://dc.lft.to/lastmile_qr_scan", "android": "https://dc.lft.to/lastmile_qr_scan"}, "type": "electric_bike", "fusion_lat": 0.0, "lon": -77.09880166666666}, {"fusion_lon": 0.0, "bike_id": "c449d2823705ef9f3ee6a1cd6f8752ab", "is_disabled": 0, "is_reserved": 0, "lat": 38.92755833333333, "name": "c449d2823705ef9f3ee6a1cd6f8752ab", "rental_uris": {"ios": "https://dc.lft.to/lastmile_qr_scan", "android": "https://dc.lft.to/lastmile_qr_scan"}, "type": "electric_scooter", "fusion_lat": 0.0, "lon": -77.03363466666667}, {"fusion_lon": 0.0, "bike_id": "2414f68cb77776738fc826a58386ea79", "is_disabled": 0, "is_reserved": 0, "lat": 38.903643833333334, "name": "2414f68cb77776738fc826a58386ea79", "rental_uris": {"ios": "https://dc.lft.to/lastmile_qr_scan", "android": "https://dc.lft.to/lastmile_qr_scan"}, "type": "electric_scooter", "fusion_lat": 0.0, "lon": -77.0073285}, {"fusion_lon": 0.0, "bike_id": "96b294bceea91ca9d8cb547b473410e7", "is_disabled": 0, "is_reserved": 0, "lat": 38.91036733333333, "name": "96b294bceea91ca9d8cb547b473410e7", "rental_uris": {"ios": "https://dc.lft.to/lastmile_qr_scan", "android": "https://dc.lft.to/lastmile_qr_scan"}, "type": "electric_scooter", "fusion_lat": 0.0, "lon": -76.9905235}, {"fusion_lon": 0.0, "bike_id": "edad273a42c6fe838e657073e0ad468c", "is_disabled": 0, "is_reserved": 0, "lat": 38.93487866666667, "name": "edad273a42c6fe838e657073e0ad468c", "rental_uris": {"ios": "https://dc.lft.to/lastmile_qr_scan", "android": "https://dc.lft.to/lastmile_qr_scan"}, "type": "electric_scooter", "fusion_lat": 0.0, "lon": -77.032782}, {"fusion_lon": 0.0, "bike_id": "0eaf1b57342d87ad515e29f86c9efb7a", "is_disabled": 0, "is_reserved": 0, "lat": 38.92368483333333, "name": "0eaf1b57342d87ad515e29f86c9efb7a", "rental_uris": {"ios": "https://dc.lft.to/lastmile_qr_scan", "android": "https://dc.lft.to/lastmile_qr_scan"}, "type": "electric_scooter", "fusion_lat": 0.0, "lon": -77.019548}, {"fusion_lon": 0.0, "bike_id": "97b8626e9d3ccb58d112da743a81b734", "is_disabled": 0, "is_reserved": 0, "lat": 38.90552566666667, "name": "97b8626e9d3ccb58d112da743a81b734", "rental_uris": {"ios": "https://dc.lft.to/lastmile_qr_scan", "android": "https://dc.lft.to/lastmile_qr_scan"}, "type": "electric_scooter", "fusion_lat": 0.0, "lon": -77.04993233333333}, {"fusion_lon": 0.0, "bike_id": "4cb73bf90a9e57b24ee1ea9dba968dc5", "is_disabled": 0, "is_reserved": 0, "lat": 38.910713, "name": "4cb73bf90a9e57b24ee1ea9dba968dc5", "rental_uris": {"ios": "https://dc.lft.to/lastmile_qr_scan", "android": "https://dc.lft.to/lastmile_qr_scan"}, "type": "electric_scooter", "fusion_lat": 0.0, "lon": -77.01614883333333}, {"fusion_lon": 0.0, "bike_id": "8b1c20ba4f9c118dee27b0394fd77664", "is_disabled": 0, "is_reserved": 0, "lat": 38.905115, "name": "8b1c20ba4f9c118dee27b0394fd77664", "rental_uris": {"ios": "https://dc.lft.to/lastmile_qr_scan", "android": "https://dc.lft.to/lastmile_qr_scan"}, "type": "electric_scooter", "fusion_lat": 0.0, "lon": -76.98485666666667}, {"fusion_lon": 0.0, "bike_id": "cf236d047d141c18ce08febe701512b5", "is_disabled": 0, "is_reserved": 0, "lat": 38.878597666666664, "name": "cf236d047d141c18ce08febe701512b5", "rental_uris": {"ios": "https://dc.lft.to/lastmile_qr_scan", "android": "https://dc.lft.to/lastmile_qr_scan"}, "type": "electric_scooter", "fusion_lat": 0.0, "lon": -77.00703083333333}, {"fusion_lon": 0.0, "bike_id": "7ea8a49495313be6cf9b446c0feab3be", "is_disabled": 0, "is_reserved": 0, "lat": 38.927437, "name": "7ea8a49495313be6cf9b446c0feab3be", "rental_uris": {"ios": "https://dc.lft.to/lastmile_qr_scan", "android": "https://dc.lft.to/lastmile_qr_scan"}, "type": "electric_scooter", "fusion_lat": 0.0, "lon": -77.03564266666666}, {"fusion_lon": 0.0, "bike_id": "12c1838c210566042f406bcd7395daca", "is_disabled": 0, "is_reserved": 0, "lat": 38.918218, "name": "12c1838c210566042f406bcd7395daca", "rental_uris": {"ios": "https://dc.lft.to/lastmile_qr_scan", "android": "https://dc.lft.to/lastmile_qr_scan"}, "type": "electric_scooter", "fusion_lat": 0.0, "lon": -77.04518066666667}, {"fusion_lon": 0.0, "bike_id": "133ad81404caa333e9e8d0218a399da4", "is_disabled": 0, "is_reserved": 0, "lat": 38.921038, "name": "133ad81404caa333e9e8d0218a399da4", "rental_uris": {"ios": "https://dc.lft.to/lastmile_qr_scan", "android": "https://dc.lft.to/lastmile_qr_scan"}, "type": "electric_scooter", "fusion_lat": 0.0, "lon": -77.04702633333333}, {"fusion_lon": 0.0, "bike_id": "251f84bb94ea4946415af9a9a29439b8", "is_disabled": 0, "is_reserved": 0, "lat": 38.8974165, "name": "251f84bb94ea4946415af9a9a29439b8", "rental_uris": {"ios": "https://dc.lft.to/lastmile_qr_scan", "android": "https://dc.lft.to/lastmile_qr_scan"}, "type": "electric_scooter", "fusion_lat": 0.0, "lon": -77.04862333333334}, {"fusion_lon": 0.0, "bike_id": "1fd8c42ea215a533f1456dd4215d2180", "is_disabled": 0, "is_reserved": 0, "lat": 38.9232555, "name": "1fd8c42ea215a533f1456dd4215d2180", "rental_uris": {"ios": "https://dc.lft.to/lastmile_qr_scan", "android": "https://dc.lft.to/lastmile_qr_scan"}, "type": "electric_scooter", "fusion_lat": 0.0, "lon": -77.02112}, {"fusion_lon": 0.0, "bike_id": "5fdb760cf9bd30a81a6f3665d13c15c5", "is_disabled": 0, "is_reserved": 0, "lat": 38.860811166666664, "name": "5fdb760cf9bd30a81a6f3665d13c15c5", "rental_uris": {"ios": "https://dc.lft.to/lastmile_qr_scan", "android": "https://dc.lft.to/lastmile_qr_scan"}, "type": "electric_scooter", "fusion_lat": 0.0, "lon": -76.98376783333333}, {"fusion_lon": 0.0, "bike_id": "0a5d6976dc3543d937dfe22fda492eee", "is_disabled": 0, "is_reserved": 0, "lat": 38.905141666666665, "name": "0a5d6976dc3543d937dfe22fda492eee", "rental_uris": {"ios": "https://dc.lft.to/lastmile_qr_scan", "android": "https://dc.lft.to/lastmile_qr_scan"}, "type": "electric_scooter", "fusion_lat": 0.0, "lon": -77.05006483333334}, {"fusion_lon": 0.0, "bike_id": "b1d5b73f0badb44cfd87e4f656f3b0fc", "is_disabled": 0, "is_reserved": 0, "lat": 38.89487366666667, "name": "b1d5b73f0badb44cfd87e4f656f3b0fc", "rental_uris": {"ios": "https://dc.lft.to/lastmile_qr_scan", "android": "https://dc.lft.to/lastmile_qr_scan"}, "type": "electric_scooter", "fusion_lat": 0.0, "lon": -77.02182133333334}, {"fusion_lon": 0.0, "bike_id": "463de08215bb1909b7c71f4b39778af4", "is_disabled": 0, "is_reserved": 0, "lat": 38.878683333333335, "name": "463de08215bb1909b7c71f4b39778af4", "rental_uris": {"ios": "https://dc.lft.to/lastmile_qr_scan", "android": "https://dc.lft.to/lastmile_qr_scan"}, "type": "electric_scooter", "fusion_lat": 0.0, "lon": -77.001363}, {"fusion_lon": 0.0, "bike_id": "e75c6d02132f116bed28559e9717466e", "is_disabled": 0, "is_reserved": 0, "lat": 38.914439, "name": "e75c6d02132f116bed28559e9717466e", "rental_uris": {"ios": "https://dc.lft.to/lastmile_qr_scan", "android": "https://dc.lft.to/lastmile_qr_scan"}, "type": "electric_scooter", "fusion_lat": 0.0, "lon": -77.0228625}, {"fusion_lon": 0.0, "bike_id": "8609a54f49bb68a63a127636062625d8", "is_disabled": 0, "is_reserved": 0, "lat": 38.916273, "name": "8609a54f49bb68a63a127636062625d8", "rental_uris": {"ios": "https://dc.lft.to/lastmile_qr_scan", "android": "https://dc.lft.to/lastmile_qr_scan"}, "type": "electric_scooter", "fusion_lat": 0.0, "lon": -77.03963733333333}, {"fusion_lon": 0.0, "bike_id": "3fedf1742e21261a989e2dce92886b9f", "is_disabled": 0, "is_reserved": 0, "lat": 38.92095333333333, "name": "3fedf1742e21261a989e2dce92886b9f", "rental_uris": {"ios": "https://dc.lft.to/lastmile_qr_scan", "android": "https://dc.lft.to/lastmile_qr_scan"}, "type": "electric_scooter", "fusion_lat": 0.0, "lon": -77.02400216666666}, {"fusion_lon": 0.0, "bike_id": "d0b2b66d1469465cd6e1b8ff68bddb97", "is_disabled": 0, "is_reserved": 0, "lat": 38.906699333333336, "name": "d0b2b66d1469465cd6e1b8ff68bddb97", "rental_uris": {"ios": "https://dc.lft.to/lastmile_qr_scan", "android": "https://dc.lft.to/lastmile_qr_scan"}, "type": "electric_scooter", "fusion_lat": 0.0, "lon": -76.9996235}, {"fusion_lon": 0.0, "bike_id": "d8bd0bb307cb7029dd28797d3e56f685", "is_disabled": 0, "is_reserved": 0, "lat": 38.90567716666666, "name": "d8bd0bb307cb7029dd28797d3e56f685", "rental_uris": {"ios": "https://dc.lft.to/lastmile_qr_scan", "android": "https://dc.lft.to/lastmile_qr_scan"}, "type": "electric_scooter", "fusion_lat": 0.0, "lon": -77.034408}, {"fusion_lon": 0.0, "bike_id": "a7c277bc53134b1a24112c6db14e7798", "is_disabled": 0, "is_reserved": 0, "lat": 38.92412016666667, "name": "a7c277bc53134b1a24112c6db14e7798", "rental_uris": {"ios": "https://dc.lft.to/lastmile_qr_scan", "android": "https://dc.lft.to/lastmile_qr_scan"}, "type": "electric_scooter", "fusion_lat": 0.0, "lon": -77.021323}, {"fusion_lon": 0.0, "bike_id": "859a771fe3255f9ee947a90bf7e3ca58", "is_disabled": 0, "is_reserved": 0, "lat": 38.9396055, "name": "859a771fe3255f9ee947a90bf7e3ca58", "rental_uris": {"ios": "https://dc.lft.to/lastmile_qr_scan", "android": "https://dc.lft.to/lastmile_qr_scan"}, "type": "electric_bike", "fusion_lat": 0.0, "lon": -76.99132716666666}, {"fusion_lon": 0.0, "bike_id": "7b0bc2bbc3cb2e2a2d8b43bb645ba13b", "is_disabled": 0, "is_reserved": 0, "lat": 38.92647516666667, "name": "7b0bc2bbc3cb2e2a2d8b43bb645ba13b", "rental_uris": {"ios": "https://dc.lft.to/lastmile_qr_scan", "android": "https://dc.lft.to/lastmile_qr_scan"}, "type": "electric_scooter", "fusion_lat": 0.0, "lon": -77.03840583333333}, {"fusion_lon": 0.0, "bike_id": "b062a1ae04d6e2c5e519ae6821b2bb06", "is_disabled": 0, "is_reserved": 0, "lat": 38.898193, "name": "b062a1ae04d6e2c5e519ae6821b2bb06", "rental_uris": {"ios": "https://dc.lft.to/lastmile_qr_scan", "android": "https://dc.lft.to/lastmile_qr_scan"}, "type": "electric_scooter", "fusion_lat": 0.0, "lon": -77.01271033333333}, {"fusion_lon": 0.0, "bike_id": "29d01a85e333c7c37e57e5ef480fa981", "is_disabled": 0, "is_reserved": 0, "lat": 38.9199005, "name": "29d01a85e333c7c37e57e5ef480fa981", "rental_uris": {"ios": "https://dc.lft.to/lastmile_qr_scan", "android": "https://dc.lft.to/lastmile_qr_scan"}, "type": "electric_scooter", "fusion_lat": 0.0, "lon": -77.032428}, {"fusion_lon": 0.0, "bike_id": "13a7ce01874a6e11948281fcd4a6ea29", "is_disabled": 0, "is_reserved": 0, "lat": 38.90359333333333, "name": "13a7ce01874a6e11948281fcd4a6ea29", "rental_uris": {"ios": "https://dc.lft.to/lastmile_qr_scan", "android": "https://dc.lft.to/lastmile_qr_scan"}, "type": "electric_scooter", "fusion_lat": 0.0, "lon": -77.05983183333333}, {"fusion_lon": 0.0, "bike_id": "ff3b7c1a7069f253124ee3c4a61f29cf", "is_disabled": 0, "is_reserved": 0, "lat": 38.90057083333333, "name": "ff3b7c1a7069f253124ee3c4a61f29cf", "rental_uris": {"ios": "https://dc.lft.to/lastmile_qr_scan", "android": "https://dc.lft.to/lastmile_qr_scan"}, "type": "electric_scooter", "fusion_lat": 0.0, "lon": -76.98711666666667}, {"fusion_lon": 0.0, "bike_id": "e3842e1cbf8630961917658502969b7c", "is_disabled": 0, "is_reserved": 0, "lat": 38.93206133333333, "name": "e3842e1cbf8630961917658502969b7c", "rental_uris": {"ios": "https://dc.lft.to/lastmile_qr_scan", "android": "https://dc.lft.to/lastmile_qr_scan"}, "type": "electric_bike", "fusion_lat": 0.0, "lon": -76.974222}, {"fusion_lon": 0.0, "bike_id": "05c93f9245ef150466edf936215bb0fd", "is_disabled": 0, "is_reserved": 0, "lat": 38.92465, "name": "05c93f9245ef150466edf936215bb0fd", "rental_uris": {"ios": "https://dc.lft.to/lastmile_qr_scan", "android": "https://dc.lft.to/lastmile_qr_scan"}, "type": "electric_scooter", "fusion_lat": 0.0, "lon": -77.02245083333334}, {"fusion_lon": 0.0, "bike_id": "7861fea70985c410752e53b4addbb2cc", "is_disabled": 0, "is_reserved": 0, "lat": 38.89399083333333, "name": "7861fea70985c410752e53b4addbb2cc", "rental_uris": {"ios": "https://dc.lft.to/lastmile_qr_scan", "android": "https://dc.lft.to/lastmile_qr_scan"}, "type": "electric_scooter", "fusion_lat": 0.0, "lon": -76.97825366666666}, {"fusion_lon": 0.0, "bike_id": "647c37bd93b333222ee99c0a89de7d70", "is_disabled": 0, "is_reserved": 0, "lat": 38.87638, "name": "647c37bd93b333222ee99c0a89de7d70", "rental_uris": {"ios": "https://dc.lft.to/lastmile_qr_scan", "android": "https://dc.lft.to/lastmile_qr_scan"}, "type": "electric_scooter", "fusion_lat": 0.0, "lon": -77.00592266666666}, {"fusion_lon": 0.0, "bike_id": "4065d085ba09a3e8689494978c47833d", "is_disabled": 0, "is_reserved": 0, "lat": 38.896333, "name": "4065d085ba09a3e8689494978c47833d", "rental_uris": {"ios": "https://dc.lft.to/lastmile_qr_scan", "android": "https://dc.lft.to/lastmile_qr_scan"}, "type": "electric_scooter", "fusion_lat": 0.0, "lon": -77.0286215}, {"fusion_lon": 0.0, "bike_id": "3044f88279182dd4168536c0f515ed5f", "is_disabled": 0, "is_reserved": 0, "lat": 38.876866166666666, "name": "3044f88279182dd4168536c0f515ed5f", "rental_uris": {"ios": "https://dc.lft.to/lastmile_qr_scan", "android": "https://dc.lft.to/lastmile_qr_scan"}, "type": "electric_scooter", "fusion_lat": 0.0, "lon": -77.001817}, {"fusion_lon": 0.0, "bike_id": "d4b72828fc6a90c87d3e39f1faee9d4e", "is_disabled": 0, "is_reserved": 0, "lat": 38.80977716666666, "name": "d4b72828fc6a90c87d3e39f1faee9d4e", "rental_uris": {"ios": "https://dc.lft.to/lastmile_qr_scan", "android": "https://dc.lft.to/lastmile_qr_scan"}, "type": "electric_bike", "fusion_lat": 0.0, "lon": -77.0765775}, {"fusion_lon": 0.0, "bike_id": "f3ea0e3c6c9af7917a78f4dec240bf86", "is_disabled": 0, "is_reserved": 0, "lat": 38.90589033333333, "name": "f3ea0e3c6c9af7917a78f4dec240bf86", "rental_uris": {"ios": "https://dc.lft.to/lastmile_qr_scan", "android": "https://dc.lft.to/lastmile_qr_scan"}, "type": "electric_scooter", "fusion_lat": 0.0, "lon": -77.0661125}, {"fusion_lon": 0.0, "bike_id": "c42a8c305de9815c6f7143199ccda4ef", "is_disabled": 0, "is_reserved": 0, "lat": 38.899693666666664, "name": "c42a8c305de9815c6f7143199ccda4ef", "rental_uris": {"ios": "https://dc.lft.to/lastmile_qr_scan", "android": "https://dc.lft.to/lastmile_qr_scan"}, "type": "electric_scooter", "fusion_lat": 0.0, "lon": -77.02652083333334}, {"fusion_lon": 0.0, "bike_id": "1fc2ac01436e2e5969a9e70aab945f55", "is_disabled": 0, "is_reserved": 0, "lat": 38.9211605, "name": "1fc2ac01436e2e5969a9e70aab945f55", "rental_uris": {"ios": "https://dc.lft.to/lastmile_qr_scan", "android": "https://dc.lft.to/lastmile_qr_scan"}, "type": "electric_scooter", "fusion_lat": 0.0, "lon": -77.03928583333334}, {"fusion_lon": 0.0, "bike_id": "1e21baac971b52429f59a4c31071ef7b", "is_disabled": 0, "is_reserved": 0, "lat": 38.91126416666667, "name": "1e21baac971b52429f59a4c31071ef7b", "rental_uris": {"ios": "https://dc.lft.to/lastmile_qr_scan", "android": "https://dc.lft.to/lastmile_qr_scan"}, "type": "electric_scooter", "fusion_lat": 0.0, "lon": -77.021977}, {"fusion_lon": 0.0, "bike_id": "bf277e5912246ab7861e15617447b3b6", "is_disabled": 0, "is_reserved": 0, "lat": 38.924719833333334, "name": "bf277e5912246ab7861e15617447b3b6", "rental_uris": {"ios": "https://dc.lft.to/lastmile_qr_scan", "android": "https://dc.lft.to/lastmile_qr_scan"}, "type": "electric_scooter", "fusion_lat": 0.0, "lon": -77.0219925}, {"fusion_lon": 0.0, "bike_id": "aa3866ef35d7f558d57d0290df742709", "is_disabled": 0, "is_reserved": 0, "lat": 38.91565933333333, "name": "aa3866ef35d7f558d57d0290df742709", "rental_uris": {"ios": "https://dc.lft.to/lastmile_qr_scan", "android": "https://dc.lft.to/lastmile_qr_scan"}, "type": "electric_scooter", "fusion_lat": 0.0, "lon": -77.00703466666667}, {"fusion_lon": 0.0, "bike_id": "b6e37b69ac2464e346e6fcd011f43249", "is_disabled": 0, "is_reserved": 0, "lat": 38.940834833333334, "name": "b6e37b69ac2464e346e6fcd011f43249", "rental_uris": {"ios": "https://dc.lft.to/lastmile_qr_scan", "android": "https://dc.lft.to/lastmile_qr_scan"}, "type": "electric_scooter", "fusion_lat": 0.0, "lon": -77.07802983333333}, {"fusion_lon": 0.0, "bike_id": "1021075bb3e8b5ac32a7a0ca9fe4f14f", "is_disabled": 0, "is_reserved": 0, "lat": 38.915561, "name": "1021075bb3e8b5ac32a7a0ca9fe4f14f", "rental_uris": {"ios": "https://dc.lft.to/lastmile_qr_scan", "android": "https://dc.lft.to/lastmile_qr_scan"}, "type": "electric_scooter", "fusion_lat": 0.0, "lon": -77.033491}, {"fusion_lon": 0.0, "bike_id": "b6b3c8ad8eafea2f83bfbdcdd98ee096", "is_disabled": 0, "is_reserved": 0, "lat": 38.9204735, "name": "b6b3c8ad8eafea2f83bfbdcdd98ee096", "rental_uris": {"ios": "https://dc.lft.to/lastmile_qr_scan", "android": "https://dc.lft.to/lastmile_qr_scan"}, "type": "electric_scooter", "fusion_lat": 0.0, "lon": -77.01676633333334}, {"fusion_lon": 0.0, "bike_id": "5f03fbd10ffab381f28e9cd232aa5f64", "is_disabled": 0, "is_reserved": 0, "lat": 38.871662, "name": "5f03fbd10ffab381f28e9cd232aa5f64", "rental_uris": {"ios": "https://dc.lft.to/lastmile_qr_scan", "android": "https://dc.lft.to/lastmile_qr_scan"}, "type": "electric_scooter", "fusion_lat": 0.0, "lon": -77.00634266666667}, {"fusion_lon": 0.0, "bike_id": "e64329e07be59fbc302354766f523230", "is_disabled": 0, "is_reserved": 0, "lat": 38.920867666666666, "name": "e64329e07be59fbc302354766f523230", "rental_uris": {"ios": "https://dc.lft.to/lastmile_qr_scan", "android": "https://dc.lft.to/lastmile_qr_scan"}, "type": "electric_scooter", "fusion_lat": 0.0, "lon": -77.03164516666666}, {"fusion_lon": 0.0, "bike_id": "c8e9831fd84d21d4067b7f37d13863af", "is_disabled": 0, "is_reserved": 0, "lat": 38.832706333333334, "name": "c8e9831fd84d21d4067b7f37d13863af", "rental_uris": {"ios": "https://dc.lft.to/lastmile_qr_scan", "android": "https://dc.lft.to/lastmile_qr_scan"}, "type": "electric_bike", "fusion_lat": 0.0, "lon": -77.08370333333333}, {"fusion_lon": 0.0, "bike_id": "2a8d3d9fd3320e479294356d8cdf8df0", "is_disabled": 0, "is_reserved": 0, "lat": 38.93029766666667, "name": "2a8d3d9fd3320e479294356d8cdf8df0", "rental_uris": {"ios": "https://dc.lft.to/lastmile_qr_scan", "android": "https://dc.lft.to/lastmile_qr_scan"},