{"data": {"bikes": [{"is_disabled": 0, "is_reserved": 0, "fusion_lat": 0.0, "lat": 38.908424, "fusion_lon": 0.0, "rental_uris": {"ios": "https://dc.lft.to/lastmile_qr_scan", "android": "https://dc.lft.to/lastmile_qr_scan"}, "lon": -76.99967883333333, "bike_id": "68c9784ca4e900def5f35f9c267d7118", "type": "electric_scooter", "name": "68c9784ca4e900def5f35f9c267d7118"}, {"is_disabled": 0, "is_reserved": 0, "fusion_lat": 0.0, "lat": 38.92852383333334, "fusion_lon": 0.0, "rental_uris": {"ios": "https://dc.lft.to/lastmile_qr_scan", "android": "https://dc.lft.to/lastmile_qr_scan"}, "lon": -77.01411966666667, "bike_id": "df9f734ac0f14bff00305e365e83ce84", "type": "electric_scooter", "name": "df9f734ac0f14bff00305e365e83ce84"}, {"is_disabled": 0, "is_reserved": 0, "fusion_lat": 0.0, "lat": 38.916165, "fusion_lon": 0.0, "rental_uris": {"ios": "https://dc.lft.to/lastmile_qr_scan", "android": "https://dc.lft.to/lastmile_qr_scan"}, "lon": -77.00296783333333, "bike_id": "760da47820933ad29902e62037857f3b", "type": "electric_bike", "name": "760da47820933ad29902e62037857f3b"}, {"is_disabled": 0, "is_reserved": 0, "fusion_lat": 0.0, "lat": 38.905263, "fusion_lon": 0.0, "rental_uris": {"ios": "https://dc.lft.to/lastmile_qr_scan", "android": "https://dc.lft.to/lastmile_qr_scan"}, "lon": -77.06598266666667, "bike_id": "4f0a558a4dfbf43be1cbe03e1ec5f82c", "type": "electric_scooter", "name": "4f0a558a4dfbf43be1cbe03e1ec5f82c"}, {"is_disabled": 0, "is_reserved": 0, "fusion_lat": 0.0, "lat": 38.9011265, "fusion_lon": 0.0, "rental_uris": {"ios": "https://dc.lft.to/lastmile_qr_scan", "android": "https://dc.lft.to/lastmile_qr_scan"}, "lon": -77.01819133333333, "bike_id": "94f728d1bf6b43823f4077da540629e0", "type": "electric_scooter", "name": "94f728d1bf6b43823f4077da540629e0"}, {"is_disabled": 0, "is_reserved": 0, "fusion_lat": 0.0, "lat": 38.90914516666667, "fusion_lon": 0.0, "rental_uris": {"ios": "https://dc.lft.to/lastmile_qr_scan", "android": "https://dc.lft.to/lastmile_qr_scan"}, "lon": -77.02310266666667, "bike_id": "a8c87064bf00ecdbb636b6677b34131d", "type": "electric_scooter", "name": "a8c87064bf00ecdbb636b6677b34131d"}, {"is_disabled": 0, "is_reserved": 0, "fusion_lat": 0.0, "lat": 38.93305683333333, "fusion_lon": 0.0, "rental_uris": {"ios": "https://dc.lft.to/lastmile_qr_scan", "android": "https://dc.lft.to/lastmile_qr_scan"}, "lon": -77.02180233333333, "bike_id": "7b41d155dfaacdf26724f140a7251321", "type": "electric_scooter", "name": "7b41d155dfaacdf26724f140a7251321"}, {"is_disabled": 0, "is_reserved": 0, "fusion_lat": 0.0, "lat": 38.88137783333333, "fusion_lon": 0.0, "rental_uris": {"ios": "https://dc.lft.to/lastmile_qr_scan", "android": "https://dc.lft.to/lastmile_qr_scan"}, "lon": -77.02269783333334, "bike_id": "19d2fffd6965e404975ff72aa119d073", "type": "electric_scooter", "name": "19d2fffd6965e404975ff72aa119d073"}, {"is_disabled": 0, "is_reserved": 0, "fusion_lat": 0.0, "lat": 38.98163866666667, "fusion_lon": 0.0, "rental_uris": {"ios": "https://dc.lft.to/lastmile_qr_scan", "android": "https://dc.lft.to/lastmile_qr_scan"}, "lon": -77.00737866666667, "bike_id": "47a6df3ad59a33037df5db2e0b695a27", "type": "electric_bike", "name": "47a6df3ad59a33037df5db2e0b695a27"}, {"is_disabled": 0, "is_reserved": 0, "fusion_lat": 0.0, "lat": 38.91681483333333, "fusion_lon": 0.0, "rental_uris": {"ios": "https://dc.lft.to/lastmile_qr_scan", "android": "https://dc.lft.to/lastmile_qr_scan"}, "lon": -77.02327016666666, "bike_id": "fe15732d9c3e8ea76969d14866e0db3b", "type": "electric_scooter", "name": "fe15732d9c3e8ea76969d14866e0db3b"}, {"is_disabled": 0, "is_reserved": 0, "fusion_lat": 0.0, "lat": 38.883031333333335, "fusion_lon": 0.0, "rental_uris": {"ios": "https://dc.lft.to/lastmile_qr_scan", "android": "https://dc.lft.to/lastmile_qr_scan"}, "lon": -76.9485785, "bike_id": "77e2e9b1ff9d70691f395d9a6ec11b89", "type": "electric_scooter", "name": "77e2e9b1ff9d70691f395d9a6ec11b89"}, {"is_disabled": 0, "is_reserved": 0, "fusion_lat": 0.0, "lat": 38.88062133333333, "fusion_lon": 0.0, "rental_uris": {"ios": "https://dc.lft.to/lastmile_qr_scan", "android": "https://dc.lft.to/lastmile_qr_scan"}, "lon": -77.02551383333333, "bike_id": "d46b3d02eb2ff784eaba87106b3ed7c5", "type": "electric_bike", "name": "d46b3d02eb2ff784eaba87106b3ed7c5"}, {"is_disabled": 0, "is_reserved": 0, "fusion_lat": 0.0, "lat": 38.987173, "fusion_lon": 0.0, "rental_uris": {"ios": "https://dc.lft.to/lastmile_qr_scan", "android": "https://dc.lft.to/lastmile_qr_scan"}, "lon": -77.03763866666667, "bike_id": "35a071be4a91412a84c7e453228eac5d", "type": "electric_bike", "name": "35a071be4a91412a84c7e453228eac5d"}, {"is_disabled": 0, "is_reserved": 0, "fusion_lat": 0.0, "lat": 38.89733483333333, "fusion_lon": 0.0, "rental_uris": {"ios": "https://dc.lft.to/lastmile_qr_scan", "android": "https://dc.lft.to/lastmile_qr_scan"}, "lon": -77.045451, "bike_id": "5282272f5316f615b2453aff9e5a2193", "type": "electric_scooter", "name": "5282272f5316f615b2453aff9e5a2193"}, {"is_disabled": 0, "is_reserved": 0, "fusion_lat": 0.0, "lat": 38.950836333333335, "fusion_lon": 0.0, "rental_uris": {"ios": "https://dc.lft.to/lastmile_qr_scan", "android": "https://dc.lft.to/lastmile_qr_scan"}, "lon": -77.01252783333334, "bike_id": "8d88035fa6c3082b82d9c550c0d1c76c", "type": "electric_bike", "name": "8d88035fa6c3082b82d9c550c0d1c76c"}, {"is_disabled": 0, "is_reserved": 0, "fusion_lat": 0.0, "lat": 38.84297883333333, "fusion_lon": 0.0, "rental_uris": {"ios": "https://dc.lft.to/lastmile_qr_scan", "android": "https://dc.lft.to/lastmile_qr_scan"}, "lon": -77.06381633333334, "bike_id": "884e41e2c736a891487f71a80a4e5d45", "type": "electric_bike", "name": "884e41e2c736a891487f71a80a4e5d45"}, {"is_disabled": 0, "is_reserved": 0, "fusion_lat": 0.0, "lat": 38.910656333333336, "fusion_lon": 0.0, "rental_uris": {"ios": "https://dc.lft.to/lastmile_qr_scan", "android": "https://dc.lft.to/lastmile_qr_scan"}, "lon": -77.01997983333334, "bike_id": "bfe201c00a8300e0ba0ea8d30a12c5eb", "type": "electric_scooter", "name": "bfe201c00a8300e0ba0ea8d30a12c5eb"}, {"is_disabled": 0, "is_reserved": 0, "fusion_lat": 0.0, "lat": 38.975973333333336, "fusion_lon": 0.0, "rental_uris": {"ios": "https://dc.lft.to/lastmile_qr_scan", "android": "https://dc.lft.to/lastmile_qr_scan"}, "lon": -77.018682, "bike_id": "c3124c89d7376aaba9b0fde3761c57ca", "type": "electric_scooter", "name": "c3124c89d7376aaba9b0fde3761c57ca"}, {"is_disabled": 0, "is_reserved": 0, "fusion_lat": 0.0, "lat": 38.908583666666665, "fusion_lon": 0.0, "rental_uris": {"ios": "https://dc.lft.to/lastmile_qr_scan", "android": "https://dc.lft.to/lastmile_qr_scan"}, "lon": -77.05481533333334, "bike_id": "097d4da313ede4ce52abf73dc68a2e4e", "type": "electric_bike", "name": "097d4da313ede4ce52abf73dc68a2e4e"}, {"is_disabled": 0, "is_reserved": 0, "fusion_lat": 0.0, "lat": 38.8924285, "fusion_lon": 0.0, "rental_uris": {"ios": "https://dc.lft.to/lastmile_qr_scan", "android": "https://dc.lft.to/lastmile_qr_scan"}, "lon": -77.03187, "bike_id": "5708c46f1d03a04eac138e41453d68fd", "type": "electric_scooter", "name": "5708c46f1d03a04eac138e41453d68fd"}, {"is_disabled": 0, "is_reserved": 0, "fusion_lat": 0.0, "lat": 38.895010666666664, "fusion_lon": 0.0, "rental_uris": {"ios": "https://dc.lft.to/lastmile_qr_scan", "android": "https://dc.lft.to/lastmile_qr_scan"}, "lon": -76.974124, "bike_id": "747bede6a69e4612111937ab678dc034", "type": "electric_scooter", "name": "747bede6a69e4612111937ab678dc034"}, {"is_disabled": 0, "is_reserved": 0, "fusion_lat": 0.0, "lat": 38.89988433333333, "fusion_lon": 0.0, "rental_uris": {"ios": "https://dc.lft.to/lastmile_qr_scan", "android": "https://dc.lft.to/lastmile_qr_scan"}, "lon": -77.02209766666667, "bike_id": "8deea3976eebf1dec54ce910fca8b2a9", "type": "electric_bike", "name": "8deea3976eebf1dec54ce910fca8b2a9"}, {"is_disabled": 0, "is_reserved": 0, "fusion_lat": 0.0, "lat": 38.84028566666667, "fusion_lon": 0.0, "rental_uris": {"ios": "https://dc.lft.to/lastmile_qr_scan", "android": "https://dc.lft.to/lastmile_qr_scan"}, "lon": -76.98861533333333, "bike_id": "071d967d96d6e065ed6e0fb25915e0b4", "type": "electric_bike", "name": "071d967d96d6e065ed6e0fb25915e0b4"}, {"is_disabled": 0, "is_reserved": 0, "fusion_lat": 0.0, "lat": 38.88549166666667, "fusion_lon": 0.0, "rental_uris": {"ios": "https://dc.lft.to/lastmile_qr_scan", "android": "https://dc.lft.to/lastmile_qr_scan"}, "lon": -77.11694916666667, "bike_id": "467272965923181e3b42dcbdb8c23805", "type": "electric_bike", "name": "467272965923181e3b42dcbdb8c23805"}, {"is_disabled": 0, "is_reserved": 0, "fusion_lat": 0.0, "lat": 38.921363666666664, "fusion_lon": 0.0, "rental_uris": {"ios": "https://dc.lft.to/lastmile_qr_scan", "android": "https://dc.lft.to/lastmile_qr_scan"}, "lon": -77.0179685, "bike_id": "322b7f0cfc97fca792d1cbf317e0428a", "type": "electric_scooter", "name": "322b7f0cfc97fca792d1cbf317e0428a"}, {"is_disabled": 0, "is_reserved": 0, "fusion_lat": 0.0, "lat": 38.900650166666665, "fusion_lon": 0.0, "rental_uris": {"ios": "https://dc.lft.to/lastmile_qr_scan", "android": "https://dc.lft.to/lastmile_qr_scan"}, "lon": -77.002087, "bike_id": "359ed2b8b0c70977e26b0d3f0c9dc213", "type": "electric_scooter", "name": "359ed2b8b0c70977e26b0d3f0c9dc213"}, {"is_disabled": 0, "is_reserved": 0, "fusion_lat": 0.0, "lat": 38.89223416666667, "fusion_lon": 0.0, "rental_uris": {"ios": "https://dc.lft.to/lastmile_qr_scan", "android": "https://dc.lft.to/lastmile_qr_scan"}, "lon": -77.04505783333333, "bike_id": "f21e314b4057b34f3168f7c5a8191e44", "type": "electric_scooter", "name": "f21e314b4057b34f3168f7c5a8191e44"}, {"is_disabled": 0, "is_reserved": 0, "fusion_lat": 0.0, "lat": 38.912588, "fusion_lon": 0.0, "rental_uris": {"ios": "https://dc.lft.to/lastmile_qr_scan", "android": "https://dc.lft.to/lastmile_qr_scan"}, "lon": -77.03353916666667, "bike_id": "8b07b4a30575b848907b881bf8bd450e", "type": "electric_bike", "name": "8b07b4a30575b848907b881bf8bd450e"}, {"is_disabled": 0, "is_reserved": 0, "fusion_lat": 0.0, "lat": 38.89637233333333, "fusion_lon": 0.0, "rental_uris": {"ios": "https://dc.lft.to/lastmile_qr_scan", "android": "https://dc.lft.to/lastmile_qr_scan"}, "lon": -77.04058233333333, "bike_id": "1cf53fc388d26e1b77bb94ccebeb8beb", "type": "electric_scooter", "name": "1cf53fc388d26e1b77bb94ccebeb8beb"}, {"is_disabled": 0, "is_reserved": 0, "fusion_lat": 0.0, "lat": 38.91816466666667, "fusion_lon": 0.0, "rental_uris": {"ios": "https://dc.lft.to/lastmile_qr_scan", "android": "https://dc.lft.to/lastmile_qr_scan"}, "lon": -77.0400685, "bike_id": "e2404d987964249535598be1bf0d9722", "type": "electric_scooter", "name": "e2404d987964249535598be1bf0d9722"}, {"is_disabled": 0, "is_reserved": 0, "fusion_lat": 0.0, "lat": 38.9219125, "fusion_lon": 0.0, "rental_uris": {"ios": "https://dc.lft.to/lastmile_qr_scan", "android": "https://dc.lft.to/lastmile_qr_scan"}, "lon": -76.99421516666666, "bike_id": "1c8c62f913e6ce7362cecfefa2f816bc", "type": "electric_scooter", "name": "1c8c62f913e6ce7362cecfefa2f816bc"}, {"is_disabled": 0, "is_reserved": 0, "fusion_lat": 0.0, "lat": 38.942893, "fusion_lon": 0.0, "rental_uris": {"ios": "https://dc.lft.to/lastmile_qr_scan", "android": "https://dc.lft.to/lastmile_qr_scan"}, "lon": -77.02167166666666, "bike_id": "26b657a33f186d67a5b248f3d078ded8", "type": "electric_scooter", "name": "26b657a33f186d67a5b248f3d078ded8"}, {"is_disabled": 0, "is_reserved": 0, "fusion_lat": 0.0, "lat": 38.927505333333336, "fusion_lon": 0.0, "rental_uris": {"ios": "https://dc.lft.to/lastmile_qr_scan", "android": "https://dc.lft.to/lastmile_qr_scan"}, "lon": -77.02160933333333, "bike_id": "14609e483aa371cface6ccf1244a5e38", "type": "electric_scooter", "name": "14609e483aa371cface6ccf1244a5e38"}, {"is_disabled": 0, "is_reserved": 0, "fusion_lat": 0.0, "lat": 38.921673166666665, "fusion_lon": 0.0, "rental_uris": {"ios": "https://dc.lft.to/lastmile_qr_scan", "android": "https://dc.lft.to/lastmile_qr_scan"}, "lon": -77.04226916666667, "bike_id": "80e9713927eb08fed29a6ba846ed32fc", "type": "electric_scooter", "name": "80e9713927eb08fed29a6ba846ed32fc"}, {"is_disabled": 0, "is_reserved": 0, "fusion_lat": 0.0, "lat": 38.896669, "fusion_lon": 0.0, "rental_uris": {"ios": "https://dc.lft.to/lastmile_qr_scan", "android": "https://dc.lft.to/lastmile_qr_scan"}, "lon": -76.94907183333333, "bike_id": "a9d592aa575f70b4135fa439d5959693", "type": "electric_scooter", "name": "a9d592aa575f70b4135fa439d5959693"}, {"is_disabled": 0, "is_reserved": 0, "fusion_lat": 0.0, "lat": 38.8984345, "fusion_lon": 0.0, "rental_uris": {"ios": "https://dc.lft.to/lastmile_qr_scan", "android": "https://dc.lft.to/lastmile_qr_scan"}, "lon": -77.02857866666666, "bike_id": "e620c27ffecd4ad4912a0f97a60dca8c", "type": "electric_scooter", "name": "e620c27ffecd4ad4912a0f97a60dca8c"}, {"is_disabled": 0, "is_reserved": 0, "fusion_lat": 0.0, "lat": 38.941788, "fusion_lon": 0.0, "rental_uris": {"ios": "https://dc.lft.to/lastmile_qr_scan", "android": "https://dc.lft.to/lastmile_qr_scan"}, "lon": -77.0153295, "bike_id": "5c6dbcf9d2ef34cc58fb7427b2e42abc", "type": "electric_scooter", "name": "5c6dbcf9d2ef34cc58fb7427b2e42abc"}, {"is_disabled": 0, "is_reserved": 0, "fusion_lat": 0.0, "lat": 38.895126, "fusion_lon": 0.0, "rental_uris": {"ios": "https://dc.lft.to/lastmile_qr_scan", "android": "https://dc.lft.to/lastmile_qr_scan"}, "lon": -77.02286416666666, "bike_id": "6ff335e47192cc8c0ea87d2001d1f771", "type": "electric_scooter", "name": "6ff335e47192cc8c0ea87d2001d1f771"}, {"is_disabled": 0, "is_reserved": 0, "fusion_lat": 0.0, "lat": 38.920692333333335, "fusion_lon": 0.0, "rental_uris": {"ios": "https://dc.lft.to/lastmile_qr_scan", "android": "https://dc.lft.to/lastmile_qr_scan"}, "lon": -77.0437905, "bike_id": "3c940775c31ec95fffd1da17353f5066", "type": "electric_scooter", "name": "3c940775c31ec95fffd1da17353f5066"}, {"is_disabled": 0, "is_reserved": 0, "fusion_lat": 0.0, "lat": 38.91110616666667, "fusion_lon": 0.0, "rental_uris": {"ios": "https://dc.lft.to/lastmile_qr_scan", "android": "https://dc.lft.to/lastmile_qr_scan"}, "lon": -77.01165283333333, "bike_id": "b3536473ee4ef35dd77420dcf32bc5a9", "type": "electric_scooter", "name": "b3536473ee4ef35dd77420dcf32bc5a9"}, {"is_disabled": 0, "is_reserved": 0, "fusion_lat": 0.0, "lat": 38.923449833333336, "fusion_lon": 0.0, "rental_uris": {"ios": "https://dc.lft.to/lastmile_qr_scan", "android": "https://dc.lft.to/lastmile_qr_scan"}, "lon": -77.019087, "bike_id": "a52cf30eec82f5fb6e3025df17c2d3e2", "type": "electric_scooter", "name": "a52cf30eec82f5fb6e3025df17c2d3e2"}, {"is_disabled": 0, "is_reserved": 0, "fusion_lat": 0.0, "lat": 38.919877166666666, "fusion_lon": 0.0, "rental_uris": {"ios": "https://dc.lft.to/lastmile_qr_scan", "android": "https://dc.lft.to/lastmile_qr_scan"}, "lon": -77.02511116666666, "bike_id": "439af81b3bee4c9129550bb7cf8e9e29", "type": "electric_scooter", "name": "439af81b3bee4c9129550bb7cf8e9e29"}, {"is_disabled": 0, "is_reserved": 0, "fusion_lat": 0.0, "lat": 38.8972415, "fusion_lon": 0.0, "rental_uris": {"ios": "https://dc.lft.to/lastmile_qr_scan", "android": "https://dc.lft.to/lastmile_qr_scan"}, "lon": -77.02620733333333, "bike_id": "27904df0a2c71fce49af5aac1a6b1342", "type": "electric_scooter", "name": "27904df0a2c71fce49af5aac1a6b1342"}, {"is_disabled": 0, "is_reserved": 0, "fusion_lat": 0.0, "lat": 38.90729283333334, "fusion_lon": 0.0, "rental_uris": {"ios": "https://dc.lft.to/lastmile_qr_scan", "android": "https://dc.lft.to/lastmile_qr_scan"}, "lon": -77.07155783333333, "bike_id": "6bc60e92c8171bdf3db6ad87af3aa94b", "type": "electric_scooter", "name": "6bc60e92c8171bdf3db6ad87af3aa94b"}, {"is_disabled": 0, "is_reserved": 0, "fusion_lat": 0.0, "lat": 38.89608616666666, "fusion_lon": 0.0, "rental_uris": {"ios": "https://dc.lft.to/lastmile_qr_scan", "android": "https://dc.lft.to/lastmile_qr_scan"}, "lon": -76.99806833333334, "bike_id": "6d53a6806d69661a7b0c536659f55df5", "type": "electric_scooter", "name": "6d53a6806d69661a7b0c536659f55df5"}, {"is_disabled": 0, "is_reserved": 0, "fusion_lat": 0.0, "lat": 38.90993533333334, "fusion_lon": 0.0, "rental_uris": {"ios": "https://dc.lft.to/lastmile_qr_scan", "android": "https://dc.lft.to/lastmile_qr_scan"}, "lon": -77.0319615, "bike_id": "bb4f4b8eaf4e9a00070d4a03d633948d", "type": "electric_scooter", "name": "bb4f4b8eaf4e9a00070d4a03d633948d"}, {"is_disabled": 0, "is_reserved": 0, "fusion_lat": 0.0, "lat": 38.9067905, "fusion_lon": 0.0, "rental_uris": {"ios": "https://dc.lft.to/lastmile_qr_scan", "android": "https://dc.lft.to/lastmile_qr_scan"}, "lon": -77.025095, "bike_id": "5a3b3e719e4d0281e1bf6b63357f6e9e", "type": "electric_scooter", "name": "5a3b3e719e4d0281e1bf6b63357f6e9e"}, {"is_disabled": 0, "is_reserved": 0, "fusion_lat": 0.0, "lat": 38.90776916666667, "fusion_lon": 0.0, "rental_uris": {"ios": "https://dc.lft.to/lastmile_qr_scan", "android": "https://dc.lft.to/lastmile_qr_scan"}, "lon": -77.04533883333333, "bike_id": "b3b472e56667ee80073d4c1a1b6e6882", "type": "electric_scooter", "name": "b3b472e56667ee80073d4c1a1b6e6882"}, {"is_disabled": 0, "is_reserved": 0, "fusion_lat": 0.0, "lat": 38.88755716666667, "fusion_lon": 0.0, "rental_uris": {"ios": "https://dc.lft.to/lastmile_qr_scan", "android": "https://dc.lft.to/lastmile_qr_scan"}, "lon": -77.03220683333333, "bike_id": "638c4fb0c9b9b3a355a723235d3c75af", "type": "electric_scooter", "name": "638c4fb0c9b9b3a355a723235d3c75af"}, {"is_disabled": 0, "is_reserved": 0, "fusion_lat": 0.0, "lat": 38.92499333333333, "fusion_lon": 0.0, "rental_uris": {"ios": "https://dc.lft.to/lastmile_qr_scan", "android": "https://dc.lft.to/lastmile_qr_scan"}, "lon": -77.02177483333334, "bike_id": "6ea327e41bd7328d8bbc4d7a8f056b56", "type": "electric_scooter", "name": "6ea327e41bd7328d8bbc4d7a8f056b56"}, {"is_disabled": 0, "is_reserved": 0, "fusion_lat": 0.0, "lat": 38.92388733333333, "fusion_lon": 0.0, "rental_uris": {"ios": "https://dc.lft.to/lastmile_qr_scan", "android": "https://dc.lft.to/lastmile_qr_scan"}, "lon": -77.0403735, "bike_id": "de664c05e1e43379a3b5e2e718abe007", "type": "electric_scooter", "name": "de664c05e1e43379a3b5e2e718abe007"}, {"is_disabled": 0, "is_reserved": 0, "fusion_lat": 0.0, "lat": 38.910558, "fusion_lon": 0.0, "rental_uris": {"ios": "https://dc.lft.to/lastmile_qr_scan", "android": "https://dc.lft.to/lastmile_qr_scan"}, "lon": -77.04349433333333, "bike_id": "553e279fe85f90c09d9f6a4909f50644", "type": "electric_scooter", "name": "553e279fe85f90c09d9f6a4909f50644"}, {"is_disabled": 0, "is_reserved": 0, "fusion_lat": 0.0, "lat": 38.96585833333334, "fusion_lon": 0.0, "rental_uris": {"ios": "https://dc.lft.to/lastmile_qr_scan", "android": "https://dc.lft.to/lastmile_qr_scan"}, "lon": -77.027546, "bike_id": "3ac6cfe3007b3242199e2c53346f19ad", "type": "electric_scooter", "name": "3ac6cfe3007b3242199e2c53346f19ad"}, {"is_disabled": 0, "is_reserved": 0, "fusion_lat": 0.0, "lat": 38.919830166666664, "fusion_lon": 0.0, "rental_uris": {"ios": "https://dc.lft.to/lastmile_qr_scan", "android": "https://dc.lft.to/lastmile_qr_scan"}, "lon": -77.04773983333334, "bike_id": "ef93d5f744d4e00d303a02be40b1d387", "type": "electric_scooter", "name": "ef93d5f744d4e00d303a02be40b1d387"}, {"is_disabled": 0, "is_reserved": 0, "fusion_lat": 0.0, "lat": 38.90458783333333, "fusion_lon": 0.0, "rental_uris": {"ios": "https://dc.lft.to/lastmile_qr_scan", "android": "https://dc.lft.to/lastmile_qr_scan"}, "lon": -76.93273516666666, "bike_id": "818b39ffe021f2c788c650b851e6f483", "type": "electric_scooter", "name": "818b39ffe021f2c788c650b851e6f483"}, {"is_disabled": 0, "is_reserved": 0, "fusion_lat": 0.0, "lat": 38.932936166666664, "fusion_lon": 0.0, "rental_uris": {"ios": "https://dc.lft.to/lastmile_qr_scan", "android": "https://dc.lft.to/lastmile_qr_scan"}, "lon": -77.02315083333333, "bike_id": "42d685b83eef2bd5dee7db24907689e1", "type": "electric_scooter", "name": "42d685b83eef2bd5dee7db24907689e1"}, {"is_disabled": 0, "is_reserved": 0, "fusion_lat": 0.0, "lat": 38.90073, "fusion_lon": 0.0, "rental_uris": {"ios": "https://dc.lft.to/lastmile_qr_scan", "android": "https://dc.lft.to/lastmile_qr_scan"}, "lon": -77.04898616666667, "bike_id": "b43637c7c199c8b7678c81e981765535", "type": "electric_scooter", "name": "b43637c7c199c8b7678c81e981765535"}, {"is_disabled": 0, "is_reserved": 0, "fusion_lat": 0.0, "lat": 38.9265405, "fusion_lon": 0.0, "rental_uris": {"ios": "https://dc.lft.to/lastmile_qr_scan", "android": "https://dc.lft.to/lastmile_qr_scan"}, "lon": -77.0243395, "bike_id": "2d8a21355128c28e72e3f6ffe9e4f0cb", "type": "electric_scooter", "name": "2d8a21355128c28e72e3f6ffe9e4f0cb"}, {"is_disabled": 0, "is_reserved": 0, "fusion_lat": 0.0, "lat": 38.901824833333336, "fusion_lon": 0.0, "rental_uris": {"ios": "https://dc.lft.to/lastmile_qr_scan", "android": "https://dc.lft.to/lastmile_qr_scan"}, "lon": -77.0507935, "bike_id": "9416278501769827c36d16685ee1e0c4", "type": "electric_scooter", "name": "9416278501769827c36d16685ee1e0c4"}, {"is_disabled": 0, "is_reserved": 0, "fusion_lat": 0.0, "lat": 38.915744333333336, "fusion_lon": 0.0, "rental_uris": {"ios": "https://dc.lft.to/lastmile_qr_scan", "android": "https://dc.lft.to/lastmile_qr_scan"}, "lon": -77.06776116666667, "bike_id": "721bbf60c024f0ac2f54cfaf2708ddec", "type": "electric_scooter", "name": "721bbf60c024f0ac2f54cfaf2708ddec"}, {"is_disabled": 0, "is_reserved": 0, "fusion_lat": 0.0, "lat": 38.94723233333333, "fusion_lon": 0.0, "rental_uris": {"ios": "https://dc.lft.to/lastmile_qr_scan", "android": "https://dc.lft.to/lastmile_qr_scan"}, "lon": -77.0235485, "bike_id": "b3f73b1230f79f124d1454520fa4879a", "type": "electric_scooter", "name": "b3f73b1230f79f124d1454520fa4879a"}, {"is_disabled": 0, "is_reserved": 0, "fusion_lat": 0.0, "lat": 38.92550933333333, "fusion_lon": 0.0, "rental_uris": {"ios": "https://dc.lft.to/lastmile_qr_scan", "android": "https://dc.lft.to/lastmile_qr_scan"}, "lon": -77.02280566666667, "bike_id": "73006556052cafdc2151e89b20e296b8", "type": "electric_scooter", "name": "73006556052cafdc2151e89b20e296b8"}, {"is_disabled": 0, "is_reserved": 0, "fusion_lat": 0.0, "lat": 38.917832833333335, "fusion_lon": 0.0, "rental_uris": {"ios": "https://dc.lft.to/lastmile_qr_scan", "android": "https://dc.lft.to/lastmile_qr_scan"}, "lon": -77.02472783333333, "bike_id": "bff14476c49e12d4e0f095b9df93762a", "type": "electric_scooter", "name": "bff14476c49e12d4e0f095b9df93762a"}, {"is_disabled": 0, "is_reserved": 0, "fusion_lat": 0.0, "lat": 38.90218333333333, "fusion_lon": 0.0, "rental_uris": {"ios": "https://dc.lft.to/lastmile_qr_scan", "android": "https://dc.lft.to/lastmile_qr_scan"}, "lon": -77.02372633333333, "bike_id": "c1389fdda988712f64f5ed7f87acdd84", "type": "electric_scooter", "name": "c1389fdda988712f64f5ed7f87acdd84"}, {"is_disabled": 0, "is_reserved": 0, "fusion_lat": 0.0, "lat": 38.9160675, "fusion_lon": 0.0, "rental_uris": {"ios": "https://dc.lft.to/lastmile_qr_scan", "android": "https://dc.lft.to/lastmile_qr_scan"}, "lon": -77.03209533333333, "bike_id": "d6935206da7e1835d252846b4b6d69c9", "type": "electric_scooter", "name": "d6935206da7e1835d252846b4b6d69c9"}, {"is_disabled": 0, "is_reserved": 0, "fusion_lat": 0.0, "lat": 38.960471, "fusion_lon": 0.0, "rental_uris": {"ios": "https://dc.lft.to/lastmile_qr_scan", "android": "https://dc.lft.to/lastmile_qr_scan"}, "lon": -77.00508216666667, "bike_id": "190a713888b79b9e7021d96bb57f3c62", "type": "electric_scooter", "name": "190a713888b79b9e7021d96bb57f3c62"}, {"is_disabled": 0, "is_reserved": 0, "fusion_lat": 0.0, "lat": 38.915692666666665, "fusion_lon": 0.0, "rental_uris": {"ios": "https://dc.lft.to/lastmile_qr_scan", "android": "https://dc.lft.to/lastmile_qr_scan"}, "lon": -77.04283983333333, "bike_id": "43d2e8a0439474afdc68a5b1f97bb87f", "type": "electric_scooter", "name": "43d2e8a0439474afdc68a5b1f97bb87f"}, {"is_disabled": 0, "is_reserved": 0, "fusion_lat": 0.0, "lat": 38.92678016666667, "fusion_lon": 0.0, "rental_uris": {"ios": "https://dc.lft.to/lastmile_qr_scan", "android": "https://dc.lft.to/lastmile_qr_scan"}, "lon": -77.01473183333333, "bike_id": "5b61cc4c5924e83f474ae17bbbb55285", "type": "electric_scooter", "name": "5b61cc4c5924e83f474ae17bbbb55285"}, {"is_disabled": 0, "is_reserved": 0, "fusion_lat": 0.0, "lat": 38.963842166666666, "fusion_lon": 0.0, "rental_uris": {"ios": "https://dc.lft.to/lastmile_qr_scan", "android": "https://dc.lft.to/lastmile_qr_scan"}, "lon": -77.019784, "bike_id": "0f8fa51ce06e61ae1553855e526a49a6", "type": "electric_bike", "name": "0f8fa51ce06e61ae1553855e526a49a6"}, {"is_disabled": 0, "is_reserved": 0, "fusion_lat": 0.0, "lat": 38.94791083333333, "fusion_lon": 0.0, "rental_uris": {"ios": "https://dc.lft.to/lastmile_qr_scan", "android": "https://dc.lft.to/lastmile_qr_scan"}, "lon": -77.078989, "bike_id": "67bb39a37637d14a940efb4bf0aeb3c0", "type": "electric_scooter", "name": "67bb39a37637d14a940efb4bf0aeb3c0"}, {"is_disabled": 0, "is_reserved": 0, "fusion_lat": 0.0, "lat": 38.922150333333335, "fusion_lon": 0.0, "rental_uris": {"ios": "https://dc.lft.to/lastmile_qr_scan", "android": "https://dc.lft.to/lastmile_qr_scan"}, "lon": -77.08198233333333, "bike_id": "87c5a3bec28239a5eb27e82d31316acd", "type": "electric_bike", "name": "87c5a3bec28239a5eb27e82d31316acd"}, {"is_disabled": 0, "is_reserved": 0, "fusion_lat": 0.0, "lat": 38.915780166666664, "fusion_lon": 0.0, "rental_uris": {"ios": "https://dc.lft.to/lastmile_qr_scan", "android": "https://dc.lft.to/lastmile_qr_scan"}, "lon": -77.021838, "bike_id": "0fdd329367e3b1ee667a6d03d49102dc", "type": "electric_scooter", "name": "0fdd329367e3b1ee667a6d03d49102dc"}, {"is_disabled": 0, "is_reserved": 0, "fusion_lat": 0.0, "lat": 38.880777, "fusion_lon": 0.0, "rental_uris": {"ios": "https://dc.lft.to/lastmile_qr_scan", "android": "https://dc.lft.to/lastmile_qr_scan"}, "lon": -77.03263433333333, "bike_id": "20973dee51137425c2f5c8ea4a458320", "type": "electric_bike", "name": "20973dee51137425c2f5c8ea4a458320"}, {"is_disabled": 0, "is_reserved": 0, "fusion_lat": 0.0, "lat": 38.91641416666667, "fusion_lon": 0.0, "rental_uris": {"ios": "https://dc.lft.to/lastmile_qr_scan", "android": "https://dc.lft.to/lastmile_qr_scan"}, "lon": -77.00511383333334, "bike_id": "e51260c20fc09ec2533d01323152ced5", "type": "electric_scooter", "name": "e51260c20fc09ec2533d01323152ced5"}, {"is_disabled": 0, "is_reserved": 0, "fusion_lat": 0.0, "lat": 38.927792333333336, "fusion_lon": 0.0, "rental_uris": {"ios": "https://dc.lft.to/lastmile_qr_scan", "android": "https://dc.lft.to/lastmile_qr_scan"}, "lon": -77.02741883333333, "bike_id": "dc877814fdd79dd283bd80bfed62adb0", "type": "electric_scooter", "name": "dc877814fdd79dd283bd80bfed62adb0"}, {"is_disabled": 0, "is_reserved": 0, "fusion_lat": 0.0, "lat": 38.9497075, "fusion_lon": 0.0, "rental_uris": {"ios": "https://dc.lft.to/lastmile_qr_scan", "android": "https://dc.lft.to/lastmile_qr_scan"}, "lon": -77.0662845, "bike_id": "9fed94a3199fbdfb1737dfe3ac959c25", "type": "electric_bike", "name": "9fed94a3199fbdfb1737dfe3ac959c25"}, {"is_disabled": 0, "is_reserved": 0, "fusion_lat": 0.0, "lat": 38.9005635, "fusion_lon": 0.0, "rental_uris": {"ios": "https://dc.lft.to/lastmile_qr_scan", "android": "https://dc.lft.to/lastmile_qr_scan"}, "lon": -77.00768416666666, "bike_id": "f90f2f999362f8ef96041513880042ec", "type": "electric_scooter", "name": "f90f2f999362f8ef96041513880042ec"}, {"is_disabled": 0, "is_reserved": 0, "fusion_lat": 0.0, "lat": 38.918741833333335, "fusion_lon": 0.0, "rental_uris": {"ios": "https://dc.lft.to/lastmile_qr_scan", "android": "https://dc.lft.to/lastmile_qr_scan"}, "lon": -77.04455466666667, "bike_id": "b2c91ebc796e4047f47de1f3bcb42c38", "type": "electric_scooter", "name": "b2c91ebc796e4047f47de1f3bcb42c38"}, {"is_disabled": 0, "is_reserved": 0, "fusion_lat": 0.0, "lat": 38.80558416666667, "fusion_lon": 0.0, "rental_uris": {"ios": "https://dc.lft.to/lastmile_qr_scan", "android": "https://dc.lft.to/lastmile_qr_scan"}, "lon": -77.13225, "bike_id": "233a86196faf878af2a5a142d8a5c839", "type": "electric_bike", "name": "233a86196faf878af2a5a142d8a5c839"}, {"is_disabled": 0, "is_reserved": 0, "fusion_lat": 0.0, "lat": 38.8824785, "fusion_lon": 0.0, "rental_uris": {"ios": "https://dc.lft.to/lastmile_qr_scan", "android": "https://dc.lft.to/lastmile_qr_scan"}, "lon": -76.9626125, "bike_id": "74e6d91b65e935784238c32d1f92bb4b", "type": "electric_bike", "name": "74e6d91b65e935784238c32d1f92bb4b"}, {"is_disabled": 0, "is_reserved": 0, "fusion_lat": 0.0, "lat": 38.934608833333336, "fusion_lon": 0.0, "rental_uris": {"ios": "https://dc.lft.to/lastmile_qr_scan", "android": "https://dc.lft.to/lastmile_qr_scan"}, "lon": -77.0240705, "bike_id": "154d6670ece80ddecd1afefbf1f2e419", "type": "electric_scooter", "name": "154d6670ece80ddecd1afefbf1f2e419"}, {"is_disabled": 0, "is_reserved": 0, "fusion_lat": 0.0, "lat": 38.9043865, "fusion_lon": 0.0, "rental_uris": {"ios": "https://dc.lft.to/lastmile_qr_scan", "android": "https://dc.lft.to/lastmile_qr_scan"}, "lon": -77.03058983333334, "bike_id": "ad74ef11afa558cd852a0a5bdc73e48f", "type": "electric_scooter", "name": "ad74ef11afa558cd852a0a5bdc73e48f"}, {"is_disabled": 0, "is_reserved": 0, "fusion_lat": 0.0, "lat": 38.882006833333335, "fusion_lon": 0.0, "rental_uris": {"ios": "https://dc.lft.to/lastmile_qr_scan", "android": "https://dc.lft.to/lastmile_qr_scan"}, "lon": -77.0285305, "bike_id": "b8088a277d0344e6b08ec302bfc6cdbd", "type": "electric_scooter", "name": "b8088a277d0344e6b08ec302bfc6cdbd"}, {"is_disabled": 0, "is_reserved": 0, "fusion_lat": 0.0, "lat": 38.917700333333336, "fusion_lon": 0.0, "rental_uris": {"ios": "https://dc.lft.to/lastmile_qr_scan", "android": "https://dc.lft.to/lastmile_qr_scan"}, "lon": -77.023458, "bike_id": "8a7129de6567680dd511eb3068f1afee", "type": "electric_scooter", "name": "8a7129de6567680dd511eb3068f1afee"}, {"is_disabled": 0, "is_reserved": 0, "fusion_lat": 0.0, "lat": 38.921294833333334, "fusion_lon": 0.0, "rental_uris": {"ios": "https://dc.lft.to/lastmile_qr_scan", "android": "https://dc.lft.to/lastmile_qr_scan"}, "lon": -77.045891, "bike_id": "30230185f84d880f3befc8fdf01dd687", "type": "electric_scooter", "name": "30230185f84d880f3befc8fdf01dd687"}, {"is_disabled": 0, "is_reserved": 0, "fusion_lat": 0.0, "lat": 38.960474833333336, "fusion_lon": 0.0, "rental_uris": {"ios": "https://dc.lft.to/lastmile_qr_scan", "android": "https://dc.lft.to/lastmile_qr_scan"}, "lon": -77.0050805, "bike_id": "58694c88886b48693cee04ed1723c1e4", "type": "electric_scooter", "name": "58694c88886b48693cee04ed1723c1e4"}, {"is_disabled": 0, "is_reserved": 0, "fusion_lat": 0.0, "lat": 38.9386015, "fusion_lon": 0.0, "rental_uris": {"ios": "https://dc.lft.to/lastmile_qr_scan", "android": "https://dc.lft.to/lastmile_qr_scan"}, "lon": -77.02464033333334, "bike_id": "b9604c5fd627c360ec5474d2c6a4778b", "type": "electric_scooter", "name": "b9604c5fd627c360ec5474d2c6a4778b"}, {"is_disabled": 0, "is_reserved": 0, "fusion_lat": 0.0, "lat": 38.938732, "fusion_lon": 0.0, "rental_uris": {"ios": "https://dc.lft.to/lastmile_qr_scan", "android": "https://dc.lft.to/lastmile_qr_scan"}, "lon": -77.06018283333333, "bike_id": "88712df568c8042ca54def79b69fb4dc", "type": "electric_scooter", "name": "88712df568c8042ca54def79b69fb4dc"}, {"is_disabled": 0, "is_reserved": 0, "fusion_lat": 0.0, "lat": 38.921755166666664, "fusion_lon": 0.0, "rental_uris": {"ios": "https://dc.lft.to/lastmile_qr_scan", "android": "https://dc.lft.to/lastmile_qr_scan"}, "lon": -77.04697416666667, "bike_id": "5a2970e609711b81b84dae825544427b", "type": "electric_scooter", "name": "5a2970e609711b81b84dae825544427b"}, {"is_disabled": 0, "is_reserved": 0, "fusion_lat": 0.0, "lat": 38.9066565, "fusion_lon": 0.0, "rental_uris": {"ios": "https://dc.lft.to/lastmile_qr_scan", "android": "https://dc.lft.to/lastmile_qr_scan"}, "lon": -76.98596233333333, "bike_id": "f42f32d180e3c74ed9270626b732eb8f", "type": "electric_scooter", "name": "f42f32d180e3c74ed9270626b732eb8f"}, {"is_disabled": 0, "is_reserved": 0, "fusion_lat": 0.0, "lat": 38.89227566666667, "fusion_lon": 0.0, "rental_uris": {"ios": "https://dc.lft.to/lastmile_qr_scan", "android": "https://dc.lft.to/lastmile_qr_scan"}, "lon": -77.02599933333333, "bike_id": "242f6b53593e3ae8abb3f4fbe2a71b79", "type": "electric_scooter", "name": "242f6b53593e3ae8abb3f4fbe2a71b79"}, {"is_disabled": 0, "is_reserved": 0, "fusion_lat": 0.0, "lat": 38.93060666666667, "fusion_lon": 0.0, "rental_uris": {"ios": "https://dc.lft.to/lastmile_qr_scan", "android": "https://dc.lft.to/lastmile_qr_scan"}, "lon": -77.0434045, "bike_id": "6d8242369d9187e370bd9ec021d62ce7", "type": "electric_scooter", "name": "6d8242369d9187e370bd9ec021d62ce7"}, {"is_disabled": 0, "is_reserved": 0, "fusion_lat": 0.0, "lat": 38.91418766666666, "fusion_lon": 0.0, "rental_uris": {"ios": "https://dc.lft.to/lastmile_qr_scan", "android": "https://dc.lft.to/lastmile_qr_scan"}, "lon": -77.04159666666666, "bike_id": "68d989a26d3d3655132b2fe05bdcf9df", "type": "electric_scooter", "name": "68d989a26d3d3655132b2fe05bdcf9df"}, {"is_disabled": 0, "is_reserved": 0, "fusion_lat": 0.0, "lat": 38.9297365, "fusion_lon": 0.0, "rental_uris": {"ios": "https://dc.lft.to/lastmile_qr_scan", "android": "https://dc.lft.to/lastmile_qr_scan"}, "lon": -77.02791666666667, "bike_id": "3312a86137b34b0a83f5fd84e543a671", "type": "electric_scooter", "name": "3312a86137b34b0a83f5fd84e543a671"}, {"is_disabled": 0, "is_reserved": 0, "fusion_lat": 0.0, "lat": 38.89747216666667, "fusion_lon": 0.0, "rental_uris": {"ios": "https://dc.lft.to/lastmile_qr_scan", "android": "https://dc.lft.to/lastmile_qr_scan"}, "lon": -77.04816333333333, "bike_id": "a9810a12f002f0243e9d5fc64ae863b3", "type": "electric_scooter", "name": "a9810a12f002f0243e9d5fc64ae863b3"}, {"is_disabled": 0, "is_reserved": 0, "fusion_lat": 0.0, "lat": 38.87474183333333, "fusion_lon": 0.0, "rental_uris": {"ios": "https://dc.lft.to/lastmile_qr_scan", "android": "https://dc.lft.to/lastmile_qr_scan"}, "lon": -77.00449016666667, "bike_id": "664dad2a9ebf941867e464b8b6c2f9f6", "type": "electric_scooter", "name": "664dad2a9ebf941867e464b8b6c2f9f6"}, {"is_disabled": 0, "is_reserved": 0, "fusion_lat": 0.0, "lat": 38.93557916666666, "fusion_lon": 0.0, "rental_uris": {"ios": "https://dc.lft.to/lastmile_qr_scan", "android": "https://dc.lft.to/lastmile_qr_scan"}, "lon": -77.07708016666666, "bike_id": "b724c9dd20b3eb816b44c4de5cfb7ccd", "type": "electric_scooter", "name": "b724c9dd20b3eb816b44c4de5cfb7ccd"}, {"is_disabled": 0, "is_reserved": 0, "fusion_lat": 0.0, "lat": 38.92447033333333, "fusion_lon": 0.0, "rental_uris": {"ios": "https://dc.lft.to/lastmile_qr_scan", "android": "https://dc.lft.to/lastmile_qr_scan"}, "lon": -77.04403983333333, "bike_id": "55b5f825215f99c9da97de2c9c8f9f9c", "type": "electric_scooter", "name": "55b5f825215f99c9da97de2c9c8f9f9c"}, {"is_disabled": 0, "is_reserved": 0, "fusion_lat": 0.0, "lat": 38.938589, "fusion_lon": 0.0, "rental_uris": {"ios": "https://dc.lft.to/lastmile_qr_scan", "android": "https://dc.lft.to/lastmile_qr_scan"}, "lon": -76.99436183333333, "bike_id": "f9b9bb6cff10228e42b04d924a58e726", "type": "electric_scooter", "name": "f9b9bb6cff10228e42b04d924a58e726"}, {"is_disabled": 0, "is_reserved": 0, "fusion_lat": 0.0, "lat": 38.89238183333333, "fusion_lon": 0.0, "rental_uris": {"ios": "https://dc.lft.to/lastmile_qr_scan", "android": "https://dc.lft.to/lastmile_qr_scan"}, "lon": -77.03185383333333, "bike_id": "fd652f2c739b5b0340f59a4aa7bc885f", "type": "electric_scooter", "name": "fd652f2c739b5b0340f59a4aa7bc885f"}, {"is_disabled": 0, "is_reserved": 0, "fusion_lat": 0.0, "lat": 38.89224083333333, "fusion_lon": 0.0, "rental_uris": {"ios": "https://dc.lft.to/lastmile_qr_scan", "android": "https://dc.lft.to/lastmile_qr_scan"}, "lon": -77.025977, "bike_id": "b825ff473de6ea6fee36fba8a293b976", "type": "electric_scooter", "name": "b825ff473de6ea6fee36fba8a293b976"}, {"is_disabled": 0, "is_reserved": 0, "fusion_lat": 0.0, "lat": 38.9170485, "fusion_lon": 0.0, "rental_uris": {"ios": "https://dc.lft.to/lastmile_qr_scan", "android": "https://dc.lft.to/lastmile_qr_scan"}, "lon": -77.0417465, "bike_id": "cef196b20ac60dedb5d1bcc1ca6cc447", "type": "electric_scooter", "name": "cef196b20ac60dedb5d1bcc1ca6cc447"}, {"is_disabled": 0, "is_reserved": 0, "fusion_lat": 0.0, "lat": 38.92710983333333, "fusion_lon": 0.0, "rental_uris": {"ios": "https://dc.lft.to/lastmile_qr_scan", "android": "https://dc.lft.to/lastmile_qr_scan"}, "lon": -77.03813966666667, "bike_id": "d467043c67bceb045db7fb69d820e71f", "type": "electric_scooter", "name": "d467043c67bceb045db7fb69d820e71f"}, {"is_disabled": 0, "is_reserved": 0, "fusion_lat": 0.0, "lat": 38.957474500000004, "fusion_lon": 0.0, "rental_uris": {"ios": "https://dc.lft.to/lastmile_qr_scan", "android": "https://dc.lft.to/lastmile_qr_scan"}, "lon": -77.02067483333333, "bike_id": "1341115c2b25c7e14e47d33a775ebdb7", "type": "electric_scooter", "name": "1341115c2b25c7e14e47d33a775ebdb7"}, {"is_disabled": 0, "is_reserved": 0, "fusion_lat": 0.0, "lat": 38.91357283333333, "fusion_lon": 0.0, "rental_uris": {"ios": "https://dc.lft.to/lastmile_qr_scan", "android": "https://dc.lft.to/lastmile_qr_scan"}, "lon": -77.02062183333334, "bike_id": "363a34abc971b3a446a20cf8295a4ed8", "type": "electric_scooter", "name": "363a34abc971b3a446a20cf8295a4ed8"}, {"is_disabled": 0, "is_reserved": 0, "fusion_lat": 0.0, "lat": 38.92146233333333, "fusion_lon": 0.0, "rental_uris": {"ios": "https://dc.lft.to/lastmile_qr_scan", "android": "https://dc.lft.to/lastmile_qr_scan"}, "lon": -77.03675816666667, "bike_id": "1d84342837708e7be2937f28bfd30418", "type": "electric_scooter", "name": "1d84342837708e7be2937f28bfd30418"}, {"is_disabled": 0, "is_reserved": 0, "fusion_lat": 0.0, "lat": 38.90269516666667, "fusion_lon": 0.0, "rental_uris": {"ios": "https://dc.lft.to/lastmile_qr_scan", "android": "https://dc.lft.to/lastmile_qr_scan"}, "lon": -77.01736583333333, "bike_id": "8fb36ef2ec024b57f1da9650241ad9e1", "type": "electric_scooter", "name": "8fb36ef2ec024b57f1da9650241ad9e1"}, {"is_disabled": 0, "is_reserved": 0, "fusion_lat": 0.0, "lat": 38.842295666666665, "fusion_lon": 0.0, "rental_uris": {"ios": "https://dc.lft.to/lastmile_qr_scan", "android": "https://dc.lft.to/lastmile_qr_scan"}, "lon": -76.94891016666666, "bike_id": "a6439d9f8399e940695d18b13a9940ae", "type": "electric_bike", "name": "a6439d9f8399e940695d18b13a9940ae"}, {"is_disabled": 0, "is_reserved": 0, "fusion_lat": 0.0, "lat": 38.85556866666667, "fusion_lon": 0.0, "rental_uris": {"ios": "https://dc.lft.to/lastmile_qr_scan", "android": "https://dc.lft.to/lastmile_qr_scan"}, "lon": -77.06405516666666, "bike_id": "52e5b13fe34979169f2fadfafcba2564", "type": "electric_bike", "name": "52e5b13fe34979169f2fadfafcba2564"}, {"is_disabled": 0, "is_reserved": 0, "fusion_lat": 0.0, "lat": 38.894832, "fusion_lon": 0.0, "rental_uris": {"ios": "https://dc.lft.to/lastmile_qr_scan", "android": "https://dc.lft.to/lastmile_qr_scan"}, "lon": -77.04172283333334, "bike_id": "369246bb6c7d3c44d52fc6bb9a81ccf4", "type": "electric_scooter", "name": "369246bb6c7d3c44d52fc6bb9a81ccf4"}, {"is_disabled": 0, "is_reserved": 0, "fusion_lat": 0.0, "lat": 38.88771766666667, "fusion_lon": 0.0, "rental_uris": {"ios": "https://dc.lft.to/lastmile_qr_scan", "android": "https://dc.lft.to/lastmile_qr_scan"}, "lon": -76.9326325, "bike_id": "0eb4e7f5f30dda37cfe31a8c95ee43ca", "type": "electric_scooter", "name": "0eb4e7f5f30dda37cfe31a8c95ee43ca"}, {"is_disabled": 0, "is_reserved": 0, "fusion_lat": 0.0, "lat": 38.92254366666667, "fusion_lon": 0.0, "rental_uris": {"ios": "https://dc.lft.to/lastmile_qr_scan", "android": "https://dc.lft.to/lastmile_qr_scan"}, "lon": -77.0365635, "bike_id": "89bea0e9d80934616dfef778b725a236", "type": "electric_scooter", "name": "89bea0e9d80934616dfef778b725a236"}, {"is_disabled": 0, "is_reserved": 0, "fusion_lat": 0.0, "lat": 38.983689166666665, "fusion_lon": 0.0, "rental_uris": {"ios": "https://dc.lft.to/lastmile_qr_scan", "android": "https://dc.lft.to/lastmile_qr_scan"}, "lon": -76.9885085, "bike_id": "d0099eb0d2eb115015811f91f88b3428", "type": "electric_bike", "name": "d0099eb0d2eb115015811f91f88b3428"}, {"is_disabled": 0, "is_reserved": 0, "fusion_lat": 0.0, "lat": 38.92329516666667, "fusion_lon": 0.0, "rental_uris": {"ios": "https://dc.lft.to/lastmile_qr_scan", "android": "https://dc.lft.to/lastmile_qr_scan"}, "lon": -77.056829, "bike_id": "5082dd6a98e8a73bf4fb96198f11294b", "type": "electric_scooter", "name": "5082dd6a98e8a73bf4fb96198f11294b"}, {"is_disabled": 0, "is_reserved": 0, "fusion_lat": 0.0, "lat": 38.8764855, "fusion_lon": 0.0, "rental_uris": {"ios": "https://dc.lft.to/lastmile_qr_scan", "android": "https://dc.lft.to/lastmile_qr_scan"}, "lon": -77.005907, "bike_id": "2f78aace3a51ee0c5ee4860eafac968b", "type": "electric_scooter", "name": "2f78aace3a51ee0c5ee4860eafac968b"}, {"is_disabled": 0, "is_reserved": 0, "fusion_lat": 0.0, "lat": 38.84231, "fusion_lon": 0.0, "rental_uris": {"ios": "https://dc.lft.to/lastmile_qr_scan", "android": "https://dc.lft.to/lastmile_qr_scan"}, "lon": -77.00171516666667, "bike_id": "6c35c71838454b145239f5da23cae8d5", "type": "electric_scooter", "name": "6c35c71838454b145239f5da23cae8d5"}, {"is_disabled": 0, "is_reserved": 0, "fusion_lat": 0.0, "lat": 38.9216375, "fusion_lon": 0.0, "rental_uris": {"ios": "https://dc.lft.to/lastmile_qr_scan", "android": "https://dc.lft.to/lastmile_qr_scan"}, "lon": -77.03667816666666, "bike_id": "cdabc4cd72a2bebe137ae3b4cbeb3c93", "type": "electric_scooter", "name": "cdabc4cd72a2bebe137ae3b4cbeb3c93"}, {"is_disabled": 0, "is_reserved": 0, "fusion_lat": 0.0, "lat": 38.893566666666665, "fusion_lon": 0.0, "rental_uris": {"ios": "https://dc.lft.to/lastmile_qr_scan", "android": "https://dc.lft.to/lastmile_qr_scan"}, "lon": -76.99212983333334, "bike_id": "db23dcefa8fd034d6ecbe0061cef5ad4", "type": "electric_scooter", "name": "db23dcefa8fd034d6ecbe0061cef5ad4"}, {"is_disabled": 0, "is_reserved": 0, "fusion_lat": 0.0, "lat": 38.90720983333333, "fusion_lon": 0.0, "rental_uris": {"ios": "https://dc.lft.to/lastmile_qr_scan", "android": "https://dc.lft.to/lastmile_qr_scan"}, "lon": -77.05308333333333, "bike_id": "66b8b9af64542eaa09b006c63a5f7a57", "type": "electric_scooter", "name": "66b8b9af64542eaa09b006c63a5f7a57"}, {"is_disabled": 0, "is_reserved": 0, "fusion_lat": 0.0, "lat": 38.893897333333335, "fusion_lon": 0.0, "rental_uris": {"ios": "https://dc.lft.to/lastmile_qr_scan", "android": "https://dc.lft.to/lastmile_qr_scan"}, "lon": -76.92304533333333, "bike_id": "01d3a3b5556d2f5b265f05b2f1ae925a", "type": "electric_scooter", "name": "01d3a3b5556d2f5b265f05b2f1ae925a"}, {"is_disabled": 0, "is_reserved": 0, "fusion_lat": 0.0, "lat": 38.88484233333333, "fusion_lon": 0.0, "rental_uris": {"ios": "https://dc.lft.to/lastmile_qr_scan", "android": "https://dc.lft.to/lastmile_qr_scan"}, "lon": -77.03352983333333, "bike_id": "e0be5820338459702aba1915af4d7661", "type": "electric_scooter", "name": "e0be5820338459702aba1915af4d7661"}, {"is_disabled": 0, "is_reserved": 0, "fusion_lat": 0.0, "lat": 38.93134583333333, "fusion_lon": 0.0, "rental_uris": {"ios": "https://dc.lft.to/lastmile_qr_scan", "android": "https://dc.lft.to/lastmile_qr_scan"}, "lon": -77.028101, "bike_id": "c7291f1177a293ab5efa5a493142c375", "type": "electric_scooter", "name": "c7291f1177a293ab5efa5a493142c375"}, {"is_disabled": 0, "is_reserved": 0, "fusion_lat": 0.0, "lat": 38.897507166666664, "fusion_lon": 0.0, "rental_uris": {"ios": "https://dc.lft.to/lastmile_qr_scan", "android": "https://dc.lft.to/lastmile_qr_scan"}, "lon": -77.0213, "bike_id": "9316aed57b61763069c2842d3fb9be7a", "type": "electric_scooter", "name": "9316aed57b61763069c2842d3fb9be7a"}, {"is_disabled": 0, "is_reserved": 0, "fusion_lat": 0.0, "lat": 38.90709966666667, "fusion_lon": 0.0, "rental_uris": {"ios": "https://dc.lft.to/lastmile_qr_scan", "android": "https://dc.lft.to/lastmile_qr_scan"}, "lon": -77.03217716666667, "bike_id": "72ddaa4b5bcb0b62700174d8a4e0da34", "type": "electric_scooter", "name": "72ddaa4b5bcb0b62700174d8a4e0da34"}, {"is_disabled": 0, "is_reserved": 0, "fusion_lat": 0.0, "lat": 38.933156833333335, "fusion_lon": 0.0, "rental_uris": {"ios": "https://dc.lft.to/lastmile_qr_scan", "android": "https://dc.lft.to/lastmile_qr_scan"}, "lon": -77.03182616666666, "bike_id": "ad7684119bd6318cac55797678aa90b6", "type": "electric_scooter", "name": "ad7684119bd6318cac55797678aa90b6"}, {"is_disabled": 0, "is_reserved": 0, "fusion_lat": 0.0, "lat": 38.93059983333333, "fusion_lon": 0.0, "rental_uris": {"ios": "https://dc.lft.to/lastmile_qr_scan", "android": "https://dc.lft.to/lastmile_qr_scan"}, "lon": -77.03186266666667, "bike_id": "86f61200129d4d03f6dede91b556eb98", "type": "electric_scooter", "name": "86f61200129d4d03f6dede91b556eb98"}, {"is_disabled": 0, "is_reserved": 0, "fusion_lat": 0.0, "lat": 38.91208666666667, "fusion_lon": 0.0, "rental_uris": {"ios": "https://dc.lft.to/lastmile_qr_scan", "android": "https://dc.lft.to/lastmile_qr_scan"}, "lon": -77.02104033333333, "bike_id": "febd6cbc440d0bd618377cfb14340cef", "type": "electric_scooter", "name": "febd6cbc440d0bd618377cfb14340cef"}, {"is_disabled": 0, "is_reserved": 0, "fusion_lat": 0.0, "lat": 38.933565, "fusion_lon": 0.0, "rental_uris": {"ios": "https://dc.lft.to/lastmile_qr_scan", "android": "https://dc.lft.to/lastmile_qr_scan"}, "lon": -77.0729115, "bike_id": "db2de549fcc4789df49194bf5e9d9ce9", "type": "electric_scooter", "name": "db2de549fcc4789df49194bf5e9d9ce9"}, {"is_disabled": 0, "is_reserved": 0, "fusion_lat": 0.0, "lat": 38.9111395, "fusion_lon": 0.0, "rental_uris": {"ios": "https://dc.lft.to/lastmile_qr_scan", "android": "https://dc.lft.to/lastmile_qr_scan"}, "lon": -77.01882383333333, "bike_id": "fcb4c3fe558ce33e7043759af72e1494", "type": "electric_scooter", "name": "fcb4c3fe558ce33e7043759af72e1494"}, {"is_disabled": 0, "is_reserved": 0, "fusion_lat": 0.0, "lat": 38.9089405, "fusion_lon": 0.0, "rental_uris": {"ios": "https://dc.lft.to/lastmile_qr_scan", "android": "https://dc.lft.to/lastmile_qr_scan"}, "lon": -77.04411966666666, "bike_id": "6faa87a2b091112442f5e332a51506c3", "type": "electric_scooter", "name": "6faa87a2b091112442f5e332a51506c3"}, {"is_disabled": 0, "is_reserved": 0, "fusion_lat": 0.0, "lat": 38.9127385, "fusion_lon": 0.0, "rental_uris": {"ios": "https://dc.lft.to/lastmile_qr_scan", "android": "https://dc.lft.to/lastmile_qr_scan"}, "lon": -77.02274933333334, "bike_id": "4ffde34b27f6c5b93b51b5d3c218a584", "type": "electric_scooter", "name": "4ffde34b27f6c5b93b51b5d3c218a584"}, {"is_disabled": 0, "is_reserved": 0, "fusion_lat": 0.0, "lat": 38.91033133333333, "fusion_lon": 0.0, "rental_uris": {"ios": "https://dc.lft.to/lastmile_qr_scan", "android": "https://dc.lft.to/lastmile_qr_scan"}, "lon": -76.92333733333334, "bike_id": "f897b73152125ad8a11c0c037366328c", "type": "electric_bike", "name": "f897b73152125ad8a11c0c037366328c"}, {"is_disabled": 0, "is_reserved": 0, "fusion_lat": 0.0, "lat": 38.922674666666666, "fusion_lon": 0.0, "rental_uris": {"ios": "https://dc.lft.to/lastmile_qr_scan", "android": "https://dc.lft.to/lastmile_qr_scan"}, "lon": -77.0364515, "bike_id": "c228f52055e418af00011b7c7ec1cedd", "type": "electric_scooter", "name": "c228f52055e418af00011b7c7ec1cedd"}, {"is_disabled": 0, "is_reserved": 0, "fusion_lat": 0.0, "lat": 38.90242766666667, "fusion_lon": 0.0, "rental_uris": {"ios": "https://dc.lft.to/lastmile_qr_scan", "android": "https://dc.lft.to/lastmile_qr_scan"}, "lon": -77.02649083333333, "bike_id": "fa936031c4cbe120c4cd1ffd8acf2e80", "type": "electric_scooter", "name": "fa936031c4cbe120c4cd1ffd8acf2e80"}, {"is_disabled": 0, "is_reserved": 0, "fusion_lat": 0.0, "lat": 38.89607016666667, "fusion_lon": 0.0, "rental_uris": {"ios": "https://dc.lft.to/lastmile_qr_scan", "android": "https://dc.lft.to/lastmile_qr_scan"}, "lon": -77.02663533333333, "bike_id": "77890d20ff718b4e3bf3092c0da1f807", "type": "electric_scooter", "name": "77890d20ff718b4e3bf3092c0da1f807"}, {"is_disabled": 0, "is_reserved": 0, "fusion_lat": 0.0, "lat": 38.936818333333335, "fusion_lon": 0.0, "rental_uris": {"ios": "https://dc.lft.to/lastmile_qr_scan", "android": "https://dc.lft.to/lastmile_qr_scan"}, "lon": -77.05852183333333, "bike_id": "669cf1543270773bb6e1231515649609", "type": "electric_scooter", "name": "669cf1543270773bb6e1231515649609"}, {"is_disabled": 0, "is_reserved": 0, "fusion_lat": 0.0, "lat": 38.90647466666667, "fusion_lon": 0.0, "rental_uris": {"ios": "https://dc.lft.to/lastmile_qr_scan", "android": "https://dc.lft.to/lastmile_qr_scan"}, "lon": -77.05320966666666, "bike_id": "4839a72ff56ff53161a82df29b945a9f", "type": "electric_scooter", "name": "4839a72ff56ff53161a82df29b945a9f"}, {"is_disabled": 0, "is_reserved": 0, "fusion_lat": 0.0, "lat": 38.913533666666666, "fusion_lon": 0.0, "rental_uris": {"ios": "https://dc.lft.to/lastmile_qr_scan", "android": "https://dc.lft.to/lastmile_qr_scan"}, "lon": -76.97141683333334, "bike_id": "79f3cb34c10c2894a2129a1a43d0a26a", "type": "electric_scooter", "name": "79f3cb34c10c2894a2129a1a43d0a26a"}, {"is_disabled": 0, "is_reserved": 0, "fusion_lat": 0.0, "lat": 38.911990833333334, "fusion_lon": 0.0, "rental_uris": {"ios": "https://dc.lft.to/lastmile_qr_scan", "android": "https://dc.lft.to/lastmile_qr_scan"}, "lon": -77.00883183333333, "bike_id": "0c10656da10998b60039f67eced5b8fa", "type": "electric_scooter", "name": "0c10656da10998b60039f67eced5b8fa"}, {"is_disabled": 0, "is_reserved": 0, "fusion_lat": 0.0, "lat": 38.92503683333333, "fusion_lon": 0.0, "rental_uris": {"ios": "https://dc.lft.to/lastmile_qr_scan", "android": "https://dc.lft.to/lastmile_qr_scan"}, "lon": -77.02354883333334, "bike_id": "01824fbfec85cef69f051a7706dd46e4", "type": "electric_scooter", "name": "01824fbfec85cef69f051a7706dd46e4"}, {"is_disabled": 0, "is_reserved": 0, "fusion_lat": 0.0, "lat": 38.9025055, "fusion_lon": 0.0, "rental_uris": {"ios": "https://dc.lft.to/lastmile_qr_scan", "android": "https://dc.lft.to/lastmile_qr_scan"}, "lon": -77.02646066666667, "bike_id": "f7aec75e09fed89474331f1d034fcfac", "type": "electric_scooter", "name": "f7aec75e09fed89474331f1d034fcfac"}, {"is_disabled": 0, "is_reserved": 0, "fusion_lat": 0.0, "lat": 38.89945216666667, "fusion_lon": 0.0, "rental_uris": {"ios": "https://dc.lft.to/lastmile_qr_scan", "android": "https://dc.lft.to/lastmile_qr_scan"}, "lon": -77.02207083333333, "bike_id": "8a34056ab7bb6499f256c69d77cbe267", "type": "electric_scooter", "name": "8a34056ab7bb6499f256c69d77cbe267"}, {"is_disabled": 0, "is_reserved": 0, "fusion_lat": 0.0, "lat": 38.9161355, "fusion_lon": 0.0, "rental_uris": {"ios": "https://dc.lft.to/lastmile_qr_scan", "android": "https://dc.lft.to/lastmile_qr_scan"}, "lon": -77.0215795, "bike_id": "5ce9927ac13d4ce64dfec3059efa26fd", "type": "electric_scooter", "name": "5ce9927ac13d4ce64dfec3059efa26fd"}, {"is_disabled": 0, "is_reserved": 0, "fusion_lat": 0.0, "lat": 38.87658283333333, "fusion_lon": 0.0, "rental_uris": {"ios": "https://dc.lft.to/lastmile_qr_scan", "android": "https://dc.lft.to/lastmile_qr_scan"}, "lon": -77.00882683333333, "bike_id": "51f9bfae918f5832a9e6be3b016264f0", "type": "electric_scooter", "name": "51f9bfae918f5832a9e6be3b016264f0"}, {"is_disabled": 0, "is_reserved": 0, "fusion_lat": 0.0, "lat": 38.9286245, "fusion_lon": 0.0, "rental_uris": {"ios": "https://dc.lft.to/lastmile_qr_scan", "android": "https://dc.lft.to/lastmile_qr_scan"}, "lon": -77.078832, "bike_id": "bcdcff0443a192ed499bb0a964680343", "type": "electric_scooter", "name": "bcdcff0443a192ed499bb0a964680343"}, {"is_disabled": 0, "is_reserved": 0, "fusion_lat": 0.0, "lat": 38.883623666666665, "fusion_lon": 0.0, "rental_uris": {"ios": "https://dc.lft.to/lastmile_qr_scan", "android": "https://dc.lft.to/lastmile_qr_scan"}, "lon": -76.92789283333333, "bike_id": "c8ae9e06359acdcb19f36135d7c27867", "type": "electric_scooter", "name": "c8ae9e06359acdcb19f36135d7c27867"}, {"is_disabled": 0, "is_reserved": 0, "fusion_lat": 0.0, "lat": 38.913104833333335, "fusion_lon": 0.0, "rental_uris": {"ios": "https://dc.lft.to/lastmile_qr_scan", "android": "https://dc.lft.to/lastmile_qr_scan"}, "lon": -77.03270616666667, "bike_id": "571263eff3c0c0b6bfa4cce73b66f468", "type": "electric_scooter", "name": "571263eff3c0c0b6bfa4cce73b66f468"}, {"is_disabled": 0, "is_reserved": 0, "fusion_lat": 0.0, "lat": 38.90474966666667, "fusion_lon": 0.0, "rental_uris": {"ios": "https://dc.lft.to/lastmile_qr_scan", "android": "https://dc.lft.to/lastmile_qr_scan"}, "lon": -77.04882666666667, "bike_id": "6a5a6229c47d5eb759951314f66e3a2f", "type": "electric_scooter", "name": "6a5a6229c47d5eb759951314f66e3a2f"}, {"is_disabled": 0, "is_reserved": 0, "fusion_lat": 0.0, "lat": 38.918380666666664, "fusion_lon": 0.0, "rental_uris": {"ios": "https://dc.lft.to/lastmile_qr_scan", "android": "https://dc.lft.to/lastmile_qr_scan"}, "lon": -77.04166966666666, "bike_id": "7553009fd3f4576c13dceb4c807fde34", "type": "electric_scooter", "name": "7553009fd3f4576c13dceb4c807fde34"}, {"is_disabled": 0, "is_reserved": 0, "fusion_lat": 0.0, "lat": 38.90543316666667, "fusion_lon": 0.0, "rental_uris": {"ios": "https://dc.lft.to/lastmile_qr_scan", "android": "https://dc.lft.to/lastmile_qr_scan"}, "lon": -77.02962466666666, "bike_id": "c5682428d982cdc06779220e8193d58d", "type": "electric_scooter", "name": "c5682428d982cdc06779220e8193d58d"}, {"is_disabled": 0, "is_reserved": 0, "fusion_lat": 0.0, "lat": 38.91825983333333, "fusion_lon": 0.0, "rental_uris": {"ios": "https://dc.lft.to/lastmile_qr_scan", "android": "https://dc.lft.to/lastmile_qr_scan"}, "lon": -77.02420616666667, "bike_id": "a3ec9c752d38a089b542f9772d89cd85", "type": "electric_scooter", "name": "a3ec9c752d38a089b542f9772d89cd85"}, {"is_disabled": 0, "is_reserved": 0, "fusion_lat": 0.0, "lat": 38.88976233333333, "fusion_lon": 0.0, "rental_uris": {"ios": "https://dc.lft.to/lastmile_qr_scan", "android": "https://dc.lft.to/lastmile_qr_scan"}, "lon": -76.98177166666666, "bike_id": "8f7ecdbd1ceadf90c189939fe5e39df1", "type": "electric_scooter", "name": "8f7ecdbd1ceadf90c189939fe5e39df1"}, {"is_disabled": 0, "is_reserved": 0, "fusion_lat": 0.0, "lat": 38.91675816666667, "fusion_lon": 0.0, "rental_uris": {"ios": "https://dc.lft.to/lastmile_qr_scan", "android": "https://dc.lft.to/lastmile_qr_scan"}, "lon": -77.01452616666667, "bike_id": "46c911ae74fce5ef31e5dffd0e91bf42", "type": "electric_scooter", "name": "46c911ae74fce5ef31e5dffd0e91bf42"}, {"is_disabled": 0, "is_reserved": 0, "fusion_lat": 0.0, "lat": 38.9345495, "fusion_lon": 0.0, "rental_uris": {"ios": "https://dc.lft.to/lastmile_qr_scan", "android": "https://dc.lft.to/lastmile_qr_scan"}, "lon": -77.02916633333334, "bike_id": "c6a588ffd27717d329ee43a6cd63b493", "type": "electric_scooter", "name": "c6a588ffd27717d329ee43a6cd63b493"}, {"is_disabled": 0, "is_reserved": 0, "fusion_lat": 0.0, "lat": 38.92822, "fusion_lon": 0.0, "rental_uris": {"ios": "https://dc.lft.to/lastmile_qr_scan", "android": "https://dc.lft.to/lastmile_qr_scan"}, "lon": -77.059732, "bike_id": "8fda25263f1e01348cb178f237cca1a7", "type": "electric_bike", "name": "8fda25263f1e01348cb178f237cca1a7"}, {"is_disabled": 0, "is_reserved": 0, "fusion_lat": 0.0, "lat": 38.916518333333336, "fusion_lon": 0.0, "rental_uris": {"ios": "https://dc.lft.to/lastmile_qr_scan", "android": "https://dc.lft.to/lastmile_qr_scan"}, "lon": -77.04669433333333, "bike_id": "cf945605dacbb55ddd755ba8def7e2cc", "type": "electric_scooter", "name": "cf945605dacbb55ddd755ba8def7e2cc"}, {"is_disabled": 0, "is_reserved": 0, "fusion_lat": 0.0, "lat": 38.899456666666666, "fusion_lon": 0.0, "rental_uris": {"ios": "https://dc.lft.to/lastmile_qr_scan", "android": "https://dc.lft.to/lastmile_qr_scan"}, "lon": -76.93761066666667, "bike_id": "e5bf1aa9d48ae4be3cdb9d94a054581a", "type": "electric_scooter", "name": "e5bf1aa9d48ae4be3cdb9d94a054581a"}, {"is_disabled": 0, "is_reserved": 0, "fusion_lat": 0.0, "lat": 38.89225783333333, "fusion_lon": 0.0, "rental_uris": {"ios": "https://dc.lft.to/lastmile_qr_scan", "android": "https://dc.lft.to/lastmile_qr_scan"}, "lon": -77.0314925, "bike_id": "f15e72c86985f6402520555f5bc6c17b", "type": "electric_scooter", "name": "f15e72c86985f6402520555f5bc6c17b"}, {"is_disabled": 0, "is_reserved": 0, "fusion_lat": 0.0, "lat": 38.90014433333333, "fusion_lon": 0.0, "rental_uris": {"ios": "https://dc.lft.to/lastmile_qr_scan", "android": "https://dc.lft.to/lastmile_qr_scan"}, "lon": -77.036327, "bike_id": "c30a51bd07dce93cc099dd724dc65f2d", "type": "electric_scooter", "name": "c30a51bd07dce93cc099dd724dc65f2d"}, {"is_disabled": 0, "is_reserved": 0, "fusion_lat": 0.0, "lat": 38.918099166666664, "fusion_lon": 0.0, "rental_uris": {"ios": "https://dc.lft.to/lastmile_qr_scan", "android": "https://dc.lft.to/lastmile_qr_scan"}, "lon": -77.0000635, "bike_id": "586cffa9805f64e09a9a346b2857b1f7", "type": "electric_scooter", "name": "586cffa9805f64e09a9a346b2857b1f7"}, {"is_disabled": 0, "is_reserved": 0, "fusion_lat": 0.0, "lat": 38.91180683333333, "fusion_lon": 0.0, "rental_uris": {"ios": "https://dc.lft.to/lastmile_qr_scan", "android": "https://dc.lft.to/lastmile_qr_scan"}, "lon": -77.01222116666666, "bike_id": "c466459c1e70f27d23d7b98de4cdff40", "type": "electric_scooter", "name": "c466459c1e70f27d23d7b98de4cdff40"}, {"is_disabled": 0, "is_reserved": 0, "fusion_lat": 0.0, "lat": 38.893289, "fusion_lon": 0.0, "rental_uris": {"ios": "https://dc.lft.to/lastmile_qr_scan", "android": "https://dc.lft.to/lastmile_qr_scan"}, "lon": -77.01207066666667, "bike_id": "2bf1c6c02f1e1f1c6bb8593d13ff37cb", "type": "electric_scooter", "name": "2bf1c6c02f1e1f1c6bb8593d13ff37cb"}, {"is_disabled": 0, "is_reserved": 0, "fusion_lat": 0.0, "lat": 38.902925833333335, "fusion_lon": 0.0, "rental_uris": {"ios": "https://dc.lft.to/lastmile_qr_scan", "android": "https://dc.lft.to/lastmile_qr_scan"}, "lon": -76.99036383333333, "bike_id": "b7953f148d26fe8a8194aa3f9d301446", "type": "electric_scooter", "name": "b7953f148d26fe8a8194aa3f9d301446"}, {"is_disabled": 0, "is_reserved": 0, "fusion_lat": 0.0, "lat": 38.879060333333335, "fusion_lon": 0.0, "rental_uris": {"ios": "https://dc.lft.to/lastmile_qr_scan", "android": "https://dc.lft.to/lastmile_qr_scan"}, "lon": -77.0078615, "bike_id": "538f16edf00e8cfbe6182992b825c8e6", "type": "electric_scooter", "name": "538f16edf00e8cfbe6182992b825c8e6"}, {"is_disabled": 0, "is_reserved": 0, "fusion_lat": 0.0, "lat": 38.9196005, "fusion_lon": 0.0, "rental_uris": {"ios": "https://dc.lft.to/lastmile_qr_scan", "android": "https://dc.lft.to/lastmile_qr_scan"}, "lon": -77.0787055, "bike_id": "4d94ec2f4daad8ccc4cd77d826dab743", "type": "electric_scooter", "name": "4d94ec2f4daad8ccc4cd77d826dab743"}, {"is_disabled": 0, "is_reserved": 0, "fusion_lat": 0.0, "lat": 38.90662283333333, "fusion_lon": 0.0, "rental_uris": {"ios": "https://dc.lft.to/lastmile_qr_scan", "android": "https://dc.lft.to/lastmile_qr_scan"}, "lon": -77.04626116666667, "bike_id": "b0251be3bb98ddea9395a0972634048c", "type": "electric_scooter", "name": "b0251be3bb98ddea9395a0972634048c"}, {"is_disabled": 0, "is_reserved": 0, "fusion_lat": 0.0, "lat": 38.956154166666664, "fusion_lon": 0.0, "rental_uris": {"ios": "https://dc.lft.to/lastmile_qr_scan", "android": "https://dc.lft.to/lastmile_qr_scan"}, "lon": -77.010199, "bike_id": "d61d3d624a6792a1c17097ee8aef4aed", "type": "electric_bike", "name": "d61d3d624a6792a1c17097ee8aef4aed"}, {"is_disabled": 0, "is_reserved": 0, "fusion_lat": 0.0, "lat": 38.913701333333336, "fusion_lon": 0.0, "rental_uris": {"ios": "https://dc.lft.to/lastmile_qr_scan", "android": "https://dc.lft.to/lastmile_qr_scan"}, "lon": -77.0297025, "bike_id": "92e7c11776f8f70e0fc49bfef3305c9e", "type": "electric_scooter", "name": "92e7c11776f8f70e0fc49bfef3305c9e"}, {"is_disabled": 0, "is_reserved": 0, "fusion_lat": 0.0, "lat": 38.848615, "fusion_lon": 0.0, "rental_uris": {"ios": "https://dc.lft.to/lastmile_qr_scan", "android": "https://dc.lft.to/lastmile_qr_scan"}, "lon": -77.06830416666666, "bike_id": "b96cf39a79641ad6cf6990e12bfab313", "type": "electric_bike", "name": "b96cf39a79641ad6cf6990e12bfab313"}, {"is_disabled": 0, "is_reserved": 0, "fusion_lat": 0.0, "lat": 38.91786, "fusion_lon": 0.0, "rental_uris": {"ios": "https://dc.lft.to/lastmile_qr_scan", "android": "https://dc.lft.to/lastmile_qr_scan"}, "lon": -77.04094416666666, "bike_id": "b60f806dbf95d524fcf140a7394f7f0c", "type": "electric_scooter", "name": "b60f806dbf95d524fcf140a7394f7f0c"}, {"is_disabled": 0, "is_reserved": 0, "fusion_lat": 0.0, "lat": 38.93590666666667, "fusion_lon": 0.0, "rental_uris": {"ios": "https://dc.lft.to/lastmile_qr_scan", "android": "https://dc.lft.to/lastmile_qr_scan"}, "lon": -77.02859116666667, "bike_id": "47c7b526ef2124d721018bd3ed4e2ccc", "type": "electric_scooter", "name": "47c7b526ef2124d721018bd3ed4e2ccc"}, {"is_disabled": 0, "is_reserved": 0, "fusion_lat": 0.0, "lat": 38.87976183333333, "fusion_lon": 0.0, "rental_uris": {"ios": "https://dc.lft.to/lastmile_qr_scan", "android": "https://dc.lft.to/lastmile_qr_scan"}, "lon": -77.00602883333333, "bike_id": "10c3ac5999bc666aa8a87ad99f89bd50", "type": "electric_scooter", "name": "10c3ac5999bc666aa8a87ad99f89bd50"}, {"is_disabled": 0, "is_reserved": 0, "fusion_lat": 0.0, "lat": 38.907177, "fusion_lon": 0.0, "rental_uris": {"ios": "https://dc.lft.to/lastmile_qr_scan", "android": "https://dc.lft.to/lastmile_qr_scan"}, "lon": -77.03213083333333, "bike_id": "b2e6f3c734573e04de661fabf1fbf9d5", "type": "electric_scooter", "name": "b2e6f3c734573e04de661fabf1fbf9d5"}, {"is_disabled": 0, "is_reserved": 0, "fusion_lat": 0.0, "lat": 38.92841166666667, "fusion_lon": 0.0, "rental_uris": {"ios": "https://dc.lft.to/lastmile_qr_scan", "android": "https://dc.lft.to/lastmile_qr_scan"}, "lon": -77.03732033333333, "bike_id": "5f897fef6c97d1571e99290e3865d98e", "type": "electric_scooter", "name": "5f897fef6c97d1571e99290e3865d98e"}, {"is_disabled": 0, "is_reserved": 0, "fusion_lat": 0.0, "lat": 38.896967833333335, "fusion_lon": 0.0, "rental_uris": {"ios": "https://dc.lft.to/lastmile_qr_scan", "android": "https://dc.lft.to/lastmile_qr_scan"}, "lon": -77.028057, "bike_id": "0422b993d0b5901c764a710bbda804cc", "type": "electric_scooter", "name": "0422b993d0b5901c764a710bbda804cc"}, {"is_disabled": 0, "is_reserved": 0, "fusion_lat": 0.0, "lat": 38.90408516666667, "fusion_lon": 0.0, "rental_uris": {"ios": "https://dc.lft.to/lastmile_qr_scan", "android": "https://dc.lft.to/lastmile_qr_scan"}, "lon": -77.06949883333333, "bike_id": "fb9de44f27e56ef62049a0502734776c", "type": "electric_scooter", "name": "fb9de44f27e56ef62049a0502734776c"}, {"is_disabled": 0, "is_reserved": 0, "fusion_lat": 0.0, "lat": 38.86703216666667, "fusion_lon": 0.0, "rental_uris": {"ios": "https://dc.lft.to/lastmile_qr_scan", "android": "https://dc.lft.to/lastmile_qr_scan"}, "lon": -76.98950116666667, "bike_id": "6a371b331febeec5059d7f53cd61303a", "type": "electric_bike", "name": "6a371b331febeec5059d7f53cd61303a"}, {"is_disabled": 0, "is_reserved": 0, "fusion_lat": 0.0, "lat": 38.921431166666665, "fusion_lon": 0.0, "rental_uris": {"ios": "https://dc.lft.to/lastmile_qr_scan", "android": "https://dc.lft.to/lastmile_qr_scan"}, "lon": -77.01834066666666, "bike_id": "71334c96cb1031aa245a3037afd3a86d", "type": "electric_scooter", "name": "71334c96cb1031aa245a3037afd3a86d"}, {"is_disabled": 0, "is_reserved": 0, "fusion_lat": 0.0, "lat": 38.89241533333333, "fusion_lon": 0.0, "rental_uris": {"ios": "https://dc.lft.to/lastmile_qr_scan", "android": "https://dc.lft.to/lastmile_qr_scan"}, "lon": -77.03187083333333, "bike_id": "255d81236ea8d7a0d177d5744c25a0d0", "type": "electric_scooter", "name": "255d81236ea8d7a0d177d5744c25a0d0"}, {"is_disabled": 0, "is_reserved": 0, "fusion_lat": 0.0, "lat": 38.904318333333336, "fusion_lon": 0.0, "rental_uris": {"ios": "https://dc.lft.to/lastmile_qr_scan", "android": "https://dc.lft.to/lastmile_qr_scan"}, "lon": -77.0611405, "bike_id": "a6ebaad079ffd09cc986b4cd9655d062", "type": "electric_scooter", "name": "a6ebaad079ffd09cc986b4cd9655d062"}, {"is_disabled": 0, "is_reserved": 0, "fusion_lat": 0.0, "lat": 38.90359266666667, "fusion_lon": 0.0, "rental_uris": {"ios": "https://dc.lft.to/lastmile_qr_scan", "android": "https://dc.lft.to/lastmile_qr_scan"}, "lon": -77.0482885, "bike_id": "bd206d4f380cacb14e375ae37562c608", "type": "electric_scooter", "name": "bd206d4f380cacb14e375ae37562c608"}, {"is_disabled": 0, "is_reserved": 0, "fusion_lat": 0.0, "lat": 38.9050855, "fusion_lon": 0.0, "rental_uris": {"ios": "https://dc.lft.to/lastmile_qr_scan", "android": "https://dc.lft.to/lastmile_qr_scan"}, "lon": -77.00910383333333, "bike_id": "2f1c0ec13550e33e68b48b78b2e52d66", "type": "electric_scooter", "name": "2f1c0ec13550e33e68b48b78b2e52d66"}, {"is_disabled": 0, "is_reserved": 0, "fusion_lat": 0.0, "lat": 38.94451883333333, "fusion_lon": 0.0, "rental_uris": {"ios": "https://dc.lft.to/lastmile_qr_scan", "android": "https://dc.lft.to/lastmile_qr_scan"}, "lon": -77.0328025, "bike_id": "292ed6743e4317e6c44c584e7d08caf5", "type": "electric_scooter", "name": "292ed6743e4317e6c44c584e7d08caf5"}, {"is_disabled": 0, "is_reserved": 0, "fusion_lat": 0.0, "lat": 38.9561915, "fusion_lon": 0.0, "rental_uris": {"ios": "https://dc.lft.to/lastmile_qr_scan", "android": "https://dc.lft.to/lastmile_qr_scan"}, "lon": -77.03311366666667, "bike_id": "283a6793cee26b70320231e829a0ad72", "type": "electric_scooter", "name": "283a6793cee26b70320231e829a0ad72"}, {"is_disabled": 0, "is_reserved": 0, "fusion_lat": 0.0, "lat": 38.8951825, "fusion_lon": 0.0, "rental_uris": {"ios": "https://dc.lft.to/lastmile_qr_scan", "android": "https://dc.lft.to/lastmile_qr_scan"}, "lon": -77.02200366666666, "bike_id": "08c97258952547bf190b9367f57e3e73", "type": "electric_scooter", "name": "08c97258952547bf190b9367f57e3e73"}, {"is_disabled": 0, "is_reserved": 0, "fusion_lat": 0.0, "lat": 38.894324166666664, "fusion_lon": 0.0, "rental_uris": {"ios": "https://dc.lft.to/lastmile_qr_scan", "android": "https://dc.lft.to/lastmile_qr_scan"}, "lon": -77.02406016666667, "bike_id": "1966128743dd13a8282eb9e7d77f5aa7", "type": "electric_scooter", "name": "1966128743dd13a8282eb9e7d77f5aa7"}, {"is_disabled": 0, "is_reserved": 0, "fusion_lat": 0.0, "lat": 38.91955183333334, "fusion_lon": 0.0, "rental_uris": {"ios": "https://dc.lft.to/lastmile_qr_scan", "android": "https://dc.lft.to/lastmile_qr_scan"}, "lon": -77.02310083333333, "bike_id": "24e449ac72f17c116c6b31b8350d6a5e", "type": "electric_scooter", "name": "24e449ac72f17c116c6b31b8350d6a5e"}, {"is_disabled": 0, "is_reserved": 0, "fusion_lat": 0.0, "lat": 38.90395316666667, "fusion_lon": 0.0, "rental_uris": {"ios": "https://dc.lft.to/lastmile_qr_scan", "android": "https://dc.lft.to/lastmile_qr_scan"}, "lon": -77.06295566666667, "bike_id": "e5c06d6e1a76f70c76deca4c043539f0", "type": "electric_scooter", "name": "e5c06d6e1a76f70c76deca4c043539f0"}, {"is_disabled": 0, "is_reserved": 0, "fusion_lat": 0.0, "lat": 38.928732833333335, "fusion_lon": 0.0, "rental_uris": {"ios": "https://dc.lft.to/lastmile_qr_scan", "android": "https://dc.lft.to/lastmile_qr_scan"}, "lon": -77.03995333333333, "bike_id": "467a30456c1cc3577e2ca60fcf097d98", "type": "electric_scooter", "name": "467a30456c1cc3577e2ca60fcf097d98"}, {"is_disabled": 0, "is_reserved": 0, "fusion_lat": 0.0, "lat": 38.9150045, "fusion_lon": 0.0, "rental_uris": {"ios": "https://dc.lft.to/lastmile_qr_scan", "android": "https://dc.lft.to/lastmile_qr_scan"}, "lon": -76.98365033333333, "bike_id": "b038930288fbd35e5e8a8ed66645152c", "type": "electric_scooter", "name": "b038930288fbd35e5e8a8ed66645152c"}, {"is_disabled": 0, "is_reserved": 0, "fusion_lat": 0.0, "lat": 38.90654033333333, "fusion_lon": 0.0, "rental_uris": {"ios": "https://dc.lft.to/lastmile_qr_scan", "android": "https://dc.lft.to/lastmile_qr_scan"}, "lon": -76.97940066666666, "bike_id": "07a3c774b3aaee02608e30ecb30560f6", "type": "electric_scooter", "name": "07a3c774b3aaee02608e30ecb30560f6"}, {"is_disabled": 0, "is_reserved": 0, "fusion_lat": 0.0, "lat": 38.914171833333334, "fusion_lon": 0.0, "rental_uris": {"ios": "https://dc.lft.to/lastmile_qr_scan", "android": "https://dc.lft.to/lastmile_qr_scan"}, "lon": -77.02949066666666, "bike_id": "e1a5a929b3f7d40e11ab56f80c6bfc5c", "type": "electric_scooter", "name": "e1a5a929b3f7d40e11ab56f80c6bfc5c"}, {"is_disabled": 0, "is_reserved": 0, "fusion_lat": 0.0, "lat": 38.92017333333333, "fusion_lon": 0.0, "rental_uris": {"ios": "https://dc.lft.to/lastmile_qr_scan", "android": "https://dc.lft.to/lastmile_qr_scan"}, "lon": -77.02175466666667, "bike_id": "32e5cd51bc444824edc4ca9022df1177", "type": "electric_scooter", "name": "32e5cd51bc444824edc4ca9022df1177"}, {"is_disabled": 0, "is_reserved": 0, "fusion_lat": 0.0, "lat": 38.909506, "fusion_lon": 0.0, "rental_uris": {"ios": "https://dc.lft.to/lastmile_qr_scan", "android": "https://dc.lft.to/lastmile_qr_scan"}, "lon": -77.031845, "bike_id": "f6206ff238412f7b9f79a04075f32dd3", "type": "electric_scooter", "name": "f6206ff238412f7b9f79a04075f32dd3"}, {"is_disabled": 0, "is_reserved": 0, "fusion_lat": 0.0, "lat": 38.918593, "fusion_lon": 0.0, "rental_uris": {"ios": "https://dc.lft.to/lastmile_qr_scan", "android": "https://dc.lft.to/lastmile_qr_scan"}, "lon": -76.9608975, "bike_id": "9dbafb8df8597861bb068f1d3eec0269", "type": "electric_scooter", "name": "9dbafb8df8597861bb068f1d3eec0269"}, {"is_disabled": 0, "is_reserved": 0, "fusion_lat": 0.0, "lat": 38.90969616666667, "fusion_lon": 0.0, "rental_uris": {"ios": "https://dc.lft.to/lastmile_qr_scan", "android": "https://dc.lft.to/lastmile_qr_scan"}, "lon": -77.04828933333333, "bike_id": "255d48eaa7c1ca168de17794751685ce", "type": "electric_scooter", "name": "255d48eaa7c1ca168de17794751685ce"}, {"is_disabled": 0, "is_reserved": 0, "fusion_lat": 0.0, "lat": 38.890132, "fusion_lon": 0.0, "rental_uris": {"ios": "https://dc.lft.to/lastmile_qr_scan", "android": "https://dc.lft.to/lastmile_qr_scan"}, "lon": -76.93741966666667, "bike_id": "c9ef1647544a3008b5c96f5414b211e4", "type": "electric_scooter", "name": "c9ef1647544a3008b5c96f5414b211e4"}, {"is_disabled": 0, "is_reserved": 0, "fusion_lat": 0.0, "lat": 38.902712, "fusion_lon": 0.0, "rental_uris": {"ios": "https://dc.lft.to/lastmile_qr_scan", "android": "https://dc.lft.to/lastmile_qr_scan"}, "lon": -77.03221516666666, "bike_id": "d64ff02eb1785108513e93e91be79f0d", "type": "electric_scooter", "name": "d64ff02eb1785108513e93e91be79f0d"}, {"is_disabled": 0, "is_reserved": 0, "fusion_lat": 0.0, "lat": 38.91487433333333, "fusion_lon": 0.0, "rental_uris": {"ios": "https://dc.lft.to/lastmile_qr_scan", "android": "https://dc.lft.to/lastmile_qr_scan"}, "lon": -77.0219605, "bike_id": "871201b4a8e1d9c54a5ab9a89d5cdf6a", "type": "electric_scooter", "name": "871201b4a8e1d9c54a5ab9a89d5cdf6a"}, {"is_disabled": 0, "is_reserved": 0, "fusion_lat": 0.0, "lat": 38.899934333333334, "fusion_lon": 0.0, "rental_uris": {"ios": "https://dc.lft.to/lastmile_qr_scan", "android": "https://dc.lft.to/lastmile_qr_scan"}, "lon": -77.026911, "bike_id": "bb024e51b61ff02ac61155433a0f6222", "type": "electric_scooter", "name": "bb024e51b61ff02ac61155433a0f6222"}, {"is_disabled": 0, "is_reserved": 0, "fusion_lat": 0.0, "lat": 38.90250966666667, "fusion_lon": 0.0, "rental_uris": {"ios": "https://dc.lft.to/lastmile_qr_scan", "android": "https://dc.lft.to/lastmile_qr_scan"}, "lon": -76.9770745, "bike_id": "32906369e26450cd324f76e36a4f4212", "type": "electric_scooter", "name": "32906369e26450cd324f76e36a4f4212"}, {"is_disabled": 0, "is_reserved": 0, "fusion_lat": 0.0, "lat": 38.93372216666667, "fusion_lon": 0.0, "rental_uris": {"ios": "https://dc.lft.to/lastmile_qr_scan", "android": "https://dc.lft.to/lastmile_qr_scan"}, "lon": -77.02401266666666, "bike_id": "ede299fb9949db9073f56f9a89eb61b8", "type": "electric_scooter", "name": "ede299fb9949db9073f56f9a89eb61b8"}, {"is_disabled": 0, "is_reserved": 0, "fusion_lat": 0.0, "lat": 38.909824, "fusion_lon": 0.0, "rental_uris": {"ios": "https://dc.lft.to/lastmile_qr_scan", "android": "https://dc.lft.to/lastmile_qr_scan"}, "lon": -77.03181183333334, "bike_id": "430c54b3329859fbc44871b615ec6c51", "type": "electric_scooter", "name": "430c54b3329859fbc44871b615ec6c51"}, {"is_disabled": 0, "is_reserved": 0, "fusion_lat": 0.0, "lat": 38.91553833333333, "fusion_lon": 0.0, "rental_uris": {"ios": "https://dc.lft.to/lastmile_qr_scan", "android": "https://dc.lft.to/lastmile_qr_scan"}, "lon": -77.031775, "bike_id": "9591c01ec700e15a876ce1c4b7821080", "type": "electric_scooter", "name": "9591c01ec700e15a876ce1c4b7821080"}, {"is_disabled": 0, "is_reserved": 0, "fusion_lat": 0.0, "lat": 38.92985733333333, "fusion_lon": 0.0, "rental_uris": {"ios": "https://dc.lft.to/lastmile_qr_scan", "android": "https://dc.lft.to/lastmile_qr_scan"}, "lon": -77.03474966666667, "bike_id": "440318e909a52ff50010e8c859da294e", "type": "electric_scooter", "name": "440318e909a52ff50010e8c859da294e"}, {"is_disabled": 0, "is_reserved": 0, "fusion_lat": 0.0, "lat": 38.8925475, "fusion_lon": 0.0, "rental_uris": {"ios": "https://dc.lft.to/lastmile_qr_scan", "android": "https://dc.lft.to/lastmile_qr_scan"}, "lon": -77.04656166666666, "bike_id": "dbdb4003cf341f4d557a4f22caa1b415", "type": "electric_scooter", "name": "dbdb4003cf341f4d557a4f22caa1b415"}, {"is_disabled": 0, "is_reserved": 0, "fusion_lat": 0.0, "lat": 38.91800516666667, "fusion_lon": 0.0, "rental_uris": {"ios": "https://dc.lft.to/lastmile_qr_scan", "android": "https://dc.lft.to/lastmile_qr_scan"}, "lon": -77.02711333333333, "bike_id": "b41947f59442a527cc6d230c0a54fb5b", "type": "electric_scooter", "name": "b41947f59442a527cc6d230c0a54fb5b"}, {"is_disabled": 0, "is_reserved": 0, "fusion_lat": 0.0, "lat": 38.922988833333335, "fusion_lon": 0.0, "rental_uris": {"ios": "https://dc.lft.to/lastmile_qr_scan", "android": "https://dc.lft.to/lastmile_qr_scan"}, "lon": -77.04143866666666, "bike_id": "9bdabe58d5f6549ff2a544d0a2527626", "type": "electric_scooter", "name": "9bdabe58d5f6549ff2a544d0a2527626"}, {"is_disabled": 0, "is_reserved": 0, "fusion_lat": 0.0, "lat": 38.917617, "fusion_lon": 0.0, "rental_uris": {"ios": "https://dc.lft.to/lastmile_qr_scan", "android": "https://dc.lft.to/lastmile_qr_scan"}, "lon": -77.02407966666667, "bike_id": "46b3c233e98cc4ebfe64c7c824d58ad4", "type": "electric_scooter", "name": "46b3c233e98cc4ebfe64c7c824d58ad4"}, {"is_disabled": 0, "is_reserved": 0, "fusion_lat": 0.0, "lat": 38.86375666666667, "fusion_lon": 0.0, "rental_uris": {"ios": "https://dc.lft.to/lastmile_qr_scan", "android": "https://dc.lft.to/lastmile_qr_scan"}, "lon": -77.01364083333333, "bike_id": "c82dea8937a861847bf44ed3efc7725e", "type": "electric_scooter", "name": "c82dea8937a861847bf44ed3efc7725e"}, {"is_disabled": 0, "is_reserved": 0, "fusion_lat": 0.0, "lat": 38.927375166666664, "fusion_lon": 0.0, "rental_uris": {"ios": "https://dc.lft.to/lastmile_qr_scan", "android": "https://dc.lft.to/lastmile_qr_scan"}, "lon": -77.02317916666667, "bike_id": "db2273984655125fa9a831eb8195c116", "type": "electric_scooter", "name": "db2273984655125fa9a831eb8195c116"}, {"is_disabled": 0, "is_reserved": 0, "fusion_lat": 0.0, "lat": 38.92725033333333, "fusion_lon": 0.0, "rental_uris": {"ios": "https://dc.lft.to/lastmile_qr_scan", "android": "https://dc.lft.to/lastmile_qr_scan"}, "lon": -77.05138966666667, "bike_id": "a67475723fca32ebdacc49cac4139a93", "type": "electric_scooter", "name": "a67475723fca32ebdacc49cac4139a93"}, {"is_disabled": 0, "is_reserved": 0, "fusion_lat": 0.0, "lat": 38.92095166666667, "fusion_lon": 0.0, "rental_uris": {"ios": "https://dc.lft.to/lastmile_qr_scan", "android": "https://dc.lft.to/lastmile_qr_scan"}, "lon": -77.02317133333334, "bike_id": "db3c7ff20b2fdd564ae14eea23d0e530", "type": "electric_scooter", "name": "db3c7ff20b2fdd564ae14eea23d0e530"}, {"is_disabled": 0, "is_reserved": 0, "fusion_lat": 0.0, "lat": 38.855137166666665, "fusion_lon": 0.0, "rental_uris": {"ios": "https://dc.lft.to/lastmile_qr_scan", "android": "https://dc.lft.to/lastmile_qr_scan"}, "lon": -77.101565, "bike_id": "8f1cd5a29489ad154544b93619901320", "type": "electric_bike", "name": "8f1cd5a29489ad154544b93619901320"}, {"is_disabled": 0, "is_reserved": 0, "fusion_lat": 0.0, "lat": 38.91059833333333, "fusion_lon": 0.0, "rental_uris": {"ios": "https://dc.lft.to/lastmile_qr_scan", "android": "https://dc.lft.to/lastmile_qr_scan"}, "lon": -77.05288916666667, "bike_id": "6c48dfbb909e89941bce8c6b893df85d", "type": "electric_bike", "name": "6c48dfbb909e89941bce8c6b893df85d"}, {"is_disabled": 0, "is_reserved": 0, "fusion_lat": 0.0, "lat": 38.898847833333335, "fusion_lon": 0.0, "rental_uris": {"ios": "https://dc.lft.to/lastmile_qr_scan", "android": "https://dc.lft.to/lastmile_qr_scan"}, "lon": -76.93179166666667, "bike_id": "209a3fe682818629fcd6a668b84bfcfb", "type": "electric_scooter", "name": "209a3fe682818629fcd6a668b84bfcfb"}, {"is_disabled": 0, "is_reserved": 0, "fusion_lat": 0.0, "lat": 38.892409, "fusion_lon": 0.0, "rental_uris": {"ios": "https://dc.lft.to/lastmile_qr_scan", "android": "https://dc.lft.to/lastmile_qr_scan"}, "lon": -77.03957866666667, "bike_id": "3539d66c58d81527392e240fc72e7607", "type": "electric_scooter", "name": "3539d66c58d81527392e240fc72e7607"}, {"is_disabled": 0, "is_reserved": 0, "fusion_lat": 0.0, "lat": 38.8927575, "fusion_lon": 0.0, "rental_uris": {"ios": "https://dc.lft.to/lastmile_qr_scan", "android": "https://dc.lft.to/lastmile_qr_scan"}, "lon": -77.04658983333333, "bike_id": "97829cbb32536f3e173db81e8bf305a3", "type": "electric_scooter", "name": "97829cbb32536f3e173db81e8bf305a3"}, {"is_disabled": 0, "is_reserved": 0, "fusion_lat": 0.0, "lat": 38.869672333333334, "fusion_lon": 0.0, "rental_uris": {"ios": "https://dc.lft.to/lastmile_qr_scan", "android": "https://dc.lft.to/lastmile_qr_scan"}, "lon": -77.013782, "bike_id": "4d41f858a745037ceef4387cd848a2e0", "type": "electric_scooter", "name": "4d41f858a745037ceef4387cd848a2e0"}, {"is_disabled": 0, "is_reserved": 0, "fusion_lat": 0.0, "lat": 38.959247, "fusion_lon": 0.0, "rental_uris": {"ios": "https://dc.lft.to/lastmile_qr_scan", "android": "https://dc.lft.to/lastmile_qr_scan"}, "lon": -76.9252295, "bike_id": "2c2b81c60146146569c9423c30242156", "type": "electric_bike", "name": "2c2b81c60146146569c9423c30242156"}, {"is_disabled": 0, "is_reserved": 0, "fusion_lat": 0.0, "lat": 38.99543666666667, "fusion_lon": 0.0, "rental_uris": {"ios": "https://dc.lft.to/lastmile_qr_scan", "android": "https://dc.lft.to/lastmile_qr_scan"}, "lon": -77.07452866666667, "bike_id": "b1c9b2d649d691aed97016158223d296", "type": "electric_bike", "name": "b1c9b2d649d691aed97016158223d296"}, {"is_disabled": 0, "is_reserved": 0, "fusion_lat": 0.0, "lat": 38.921522, "fusion_lon": 0.0, "rental_uris": {"ios": "https://dc.lft.to/lastmile_qr_scan", "android": "https://dc.lft.to/lastmile_qr_scan"}, "lon": -77.03658433333334, "bike_id": "e6d179f4f0582844f3f5f004f3cdf54a", "type": "electric_scooter", "name": "e6d179f4f0582844f3f5f004f3cdf54a"}, {"is_disabled": 0, "is_reserved": 0, "fusion_lat": 0.0, "lat": 38.893723666666666, "fusion_lon": 0.0, "rental_uris": {"ios": "https://dc.lft.to/lastmile_qr_scan", "android": "https://dc.lft.to/lastmile_qr_scan"}, "lon": -77.04293066666666, "bike_id": "7f91f4e5ff166b5651ac1f45780dd704", "type": "electric_scooter", "name": "7f91f4e5ff166b5651ac1f45780dd704"}, {"is_disabled": 0, "is_reserved": 0, "fusion_lat": 0.0, "lat": 38.95109166666667, "fusion_lon": 0.0, "rental_uris": {"ios": "https://dc.lft.to/lastmile_qr_scan", "android": "https://dc.lft.to/lastmile_qr_scan"}, "lon": -77.01891083333334, "bike_id": "bfee491c925526a61dcf01f7870c6351", "type": "electric_scooter", "name": "bfee491c925526a61dcf01f7870c6351"}, {"is_disabled": 0, "is_reserved": 0, "fusion_lat": 0.0, "lat": 38.90526966666667, "fusion_lon": 0.0, "rental_uris": {"ios": "https://dc.lft.to/lastmile_qr_scan", "android": "https://dc.lft.to/lastmile_qr_scan"}, "lon": -77.027062, "bike_id": "e82f27c6f72fb862aa07c0347583ef23", "type": "electric_scooter", "name": "e82f27c6f72fb862aa07c0347583ef23"}, {"is_disabled": 0, "is_reserved": 0, "fusion_lat": 0.0, "lat": 38.92610116666667, "fusion_lon": 0.0, "rental_uris": {"ios": "https://dc.lft.to/lastmile_qr_scan", "android": "https://dc.lft.to/lastmile_qr_scan"}, "lon": -77.00657483333333, "bike_id": "ddfb1167c2816902f8a35a9cff0dbd7b", "type": "electric_scooter", "name": "ddfb1167c2816902f8a35a9cff0dbd7b"}, {"is_disabled": 0, "is_reserved": 0, "fusion_lat": 0.0, "lat": 38.923200333333334, "fusion_lon": 0.0, "rental_uris": {"ios": "https://dc.lft.to/lastmile_qr_scan", "android": "https://dc.lft.to/lastmile_qr_scan"}, "lon": -77.04416766666667, "bike_id": "3da0cfc6bb83f6b38f7c0f2dd4570756", "type": "electric_scooter", "name": "3da0cfc6bb83f6b38f7c0f2dd4570756"}, {"is_disabled": 0, "is_reserved": 0, "fusion_lat": 0.0, "lat": 38.9230135, "fusion_lon": 0.0, "rental_uris": {"ios": "https://dc.lft.to/lastmile_qr_scan", "android": "https://dc.lft.to/lastmile_qr_scan"}, "lon": -77.0424055, "bike_id": "2110db0a168eebf65d16e9dfb182b6b8", "type": "electric_bike", "name": "2110db0a168eebf65d16e9dfb182b6b8"}, {"is_disabled": 0, "is_reserved": 0, "fusion_lat": 0.0, "lat": 38.982128833333334, "fusion_lon": 0.0, "rental_uris": {"ios": "https://dc.lft.to/lastmile_qr_scan", "android": "https://dc.lft.to/lastmile_qr_scan"}, "lon": -76.97811683333333, "bike_id": "99c0a0803d745871ca7b1131de7daa9d", "type": "electric_bike", "name": "99c0a0803d745871ca7b1131de7daa9d"}, {"is_disabled": 0, "is_reserved": 0, "fusion_lat": 0.0, "lat": 38.87107483333333, "fusion_lon": 0.0, "rental_uris": {"ios": "https://dc.lft.to/lastmile_qr_scan", "android": "https://dc.lft.to/lastmile_qr_scan"}, "lon": -77.00788433333334, "bike_id": "d3c712710388257185393b017673f78e", "type": "electric_scooter", "name": "d3c712710388257185393b017673f78e"}, {"is_disabled": 0, "is_reserved": 0, "fusion_lat": 0.0, "lat": 38.92779183333333, "fusion_lon": 0.0, "rental_uris": {"ios": "https://dc.lft.to/lastmile_qr_scan", "android": "https://dc.lft.to/lastmile_qr_scan"}, "lon": -77.05263483333333, "bike_id": "8bffba1ce30699e49a78d4daf4590b9e", "type": "electric_scooter", "name": "8bffba1ce30699e49a78d4daf4590b9e"}, {"is_disabled": 0, "is_reserved": 0, "fusion_lat": 0.0, "lat": 38.935917, "fusion_lon": 0.0, "rental_uris": {"ios": "https://dc.lft.to/lastmile_qr_scan", "android": "https://dc.lft.to/lastmile_qr_scan"}, "lon": -77.056008, "bike_id": "56737bc87e5df51628ed954da8b1ae62", "type": "electric_scooter", "name": "56737bc87e5df51628ed954da8b1ae62"}, {"is_disabled": 0, "is_reserved": 0, "fusion_lat": 0.0, "lat": 38.939726, "fusion_lon": 0.0, "rental_uris": {"ios": "https://dc.lft.to/lastmile_qr_scan", "android": "https://dc.lft.to/lastmile_qr_scan"}, "lon": -77.0343435, "bike_id": "911cd7e3f5199faef204680fc05f0d5e", "type": "electric_scooter", "name": "911cd7e3f5199faef204680fc05f0d5e"}, {"is_disabled": 0, "is_reserved": 0, "fusion_lat": 0.0, "lat": 38.90860266666667, "fusion_lon": 0.0, "rental_uris": {"ios": "https://dc.lft.to/lastmile_qr_scan", "android": "https://dc.lft.to/lastmile_qr_scan"}, "lon": -77.04690683333334, "bike_id": "718dcf33d9fb0841c2d202173d44a44f", "type": "electric_scooter", "name": "718dcf33d9fb0841c2d202173d44a44f"}, {"is_disabled": 0, "is_reserved": 0, "fusion_lat": 0.0, "lat": 38.89224883333333, "fusion_lon": 0.0, "rental_uris": {"ios": "https://dc.lft.to/lastmile_qr_scan", "android": "https://dc.lft.to/lastmile_qr_scan"}, "lon": -77.0468005, "bike_id": "ea7807c8246e7a9779567b0a4169bfe1", "type": "electric_scooter", "name": "ea7807c8246e7a9779567b0a4169bfe1"}, {"is_disabled": 0, "is_reserved": 0, "fusion_lat": 0.0, "lat": 38.918064666666666, "fusion_lon": 0.0, "rental_uris": {"ios": "https://dc.lft.to/lastmile_qr_scan", "android": "https://dc.lft.to/lastmile_qr_scan"}, "lon": -77.0343945, "bike_id": "aee2cdb16ece38f9077a6cb5a650b9b5", "type": "electric_scooter", "name": "aee2cdb16ece38f9077a6cb5a650b9b5"}, {"is_disabled": 0, "is_reserved": 0, "fusion_lat": 0.0, "lat": 38.89174766666667, "fusion_lon": 0.0, "rental_uris": {"ios": "https://dc.lft.to/lastmile_qr_scan", "android": "https://dc.lft.to/lastmile_qr_scan"}, "lon": -77.015648, "bike_id": "ed6e5c2a5e09f4385097ad854ccf34b4", "type": "electric_scooter", "name": "ed6e5c2a5e09f4385097ad854ccf34b4"}, {"is_disabled": 0, "is_reserved": 0, "fusion_lat": 0.0, "lat": 38.915578833333335, "fusion_lon": 0.0, "rental_uris": {"ios": "https://dc.lft.to/lastmile_qr_scan", "android": "https://dc.lft.to/lastmile_qr_scan"}, "lon": -77.03470933333334, "bike_id": "013a589c18c593a2e57b00d42574f1a3", "type": "electric_scooter", "name": "013a589c18c593a2e57b00d42574f1a3"}, {"is_disabled": 0, "is_reserved": 0, "fusion_lat": 0.0, "lat": 38.93564283333333, "fusion_lon": 0.0, "rental_uris": {"ios": "https://dc.lft.to/lastmile_qr_scan", "android": "https://dc.lft.to/lastmile_qr_scan"}, "lon": -76.9910105, "bike_id": "c7bda9058fa075e319cf99bc74070bbf", "type": "electric_scooter", "name": "c7bda9058fa075e319cf99bc74070bbf"}, {"is_disabled": 0, "is_reserved": 0, "fusion_lat": 0.0, "lat": 39.00380666666667, "fusion_lon": 0.0, "rental_uris": {"ios": "https://dc.lft.to/lastmile_qr_scan", "android": "https://dc.lft.to/lastmile_qr_scan"}, "lon": -77.01285066666667, "bike_id": "2fd3d06c208b969aecf95810f1bbb6af", "type": "electric_bike", "name": "2fd3d06c208b969aecf95810f1bbb6af"}, {"is_disabled": 0, "is_reserved": 0, "fusion_lat": 0.0, "lat": 38.900692, "fusion_lon": 0.0, "rental_uris": {"ios": "https://dc.lft.to/lastmile_qr_scan", "android": "https://dc.lft.to/lastmile_qr_scan"}, "lon": -77.05061383333333, "bike_id": "4c30222c9f020e930e3c6238f482050c", "type": "electric_scooter", "name": "4c30222c9f020e930e3c6238f482050c"}, {"is_disabled": 0, "is_reserved": 0, "fusion_lat": 0.0, "lat": 38.900359, "fusion_lon": 0.0, "rental_uris": {"ios": "https://dc.lft.to/lastmile_qr_scan", "android": "https://dc.lft.to/lastmile_qr_scan"}, "lon": -76.98835966666667, "bike_id": "9425dc591d20b0341338dc3ff13d8b7a", "type": "electric_scooter", "name": "9425dc591d20b0341338dc3ff13d8b7a"}, {"is_disabled": 0, "is_reserved": 0, "fusion_lat": 0.0, "lat": 38.93081083333333, "fusion_lon": 0.0, "rental_uris": {"ios": "https://dc.lft.to/lastmile_qr_scan", "android": "https://dc.lft.to/lastmile_qr_scan"}, "lon": -77.07765283333333, "bike_id": "f98952874815b32d3bfa7f9439a6f48a", "type": "electric_scooter", "name": "f98952874815b32d3bfa7f9439a6f48a"}, {"is_disabled": 0, "is_reserved": 0, "fusion_lat": 0.0, "lat": 38.953641, "fusion_lon": 0.0, "rental_uris": {"ios": "https://dc.lft.to/lastmile_qr_scan", "android": "https://dc.lft.to/lastmile_qr_scan"}, "lon": -76.94297033333334, "bike_id": "080421fb99688b73fdbf5acc0d071138", "type": "electric_bike", "name": "080421fb99688b73fdbf5acc0d071138"}, {"is_disabled": 0, "is_reserved": 0, "fusion_lat": 0.0, "lat": 38.9180665, "fusion_lon": 0.0, "rental_uris": {"ios": "https://dc.lft.to/lastmile_qr_scan", "android": "https://dc.lft.to/lastmile_qr_scan"}, "lon": -77.02495583333334, "bike_id": "de668b9fa1b843e9501aa61eb3b1a44f", "type": "electric_scooter", "name": "de668b9fa1b843e9501aa61eb3b1a44f"}, {"is_disabled": 0, "is_reserved": 0, "fusion_lat": 0.0, "lat": 38.8492305, "fusion_lon": 0.0, "rental_uris": {"ios": "https://dc.lft.to/lastmile_qr_scan", "android": "https://dc.lft.to/lastmile_qr_scan"}, "lon": -77.08371916666667, "bike_id": "ee5ce781c38308b0129b0ea49338988e", "type": "electric_bike", "name": "ee5ce781c38308b0129b0ea49338988e"}, {"is_disabled": 0, "is_reserved": 0, "fusion_lat": 0.0, "lat": 38.8966885, "fusion_lon": 0.0, "rental_uris": {"ios": "https://dc.lft.to/lastmile_qr_scan", "android": "https://dc.lft.to/lastmile_qr_scan"}, "lon": -76.93208883333334, "bike_id": "4b582ed1b5bf2f9c109b7b005bd2ca7a", "type": "electric_scooter", "name": "4b582ed1b5bf2f9c109b7b005bd2ca7a"}, {"is_disabled": 0, "is_reserved": 0, "fusion_lat": 0.0, "lat": 38.905115, "fusion_lon": 0.0, "rental_uris": {"ios": "https://dc.lft.to/lastmile_qr_scan", "android": "https://dc.lft.to/lastmile_qr_scan"}, "lon": -76.95201016666667, "bike_id": "edccb46f5bf2e34af58be587abaea2eb", "type": "electric_scooter", "name": "edccb46f5bf2e34af58be587abaea2eb"}, {"is_disabled": 0, "is_reserved": 0, "fusion_lat": 0.0, "lat": 38.896100833333335, "fusion_lon": 0.0, "rental_uris": {"ios": "https://dc.lft.to/lastmile_qr_scan", "android": "https://dc.lft.to/lastmile_qr_scan"}, "lon": -77.04506216666667, "bike_id": "869e5ca656a14c7bd2a6a191514c414e", "type": "electric_scooter", "name": "869e5ca656a14c7bd2a6a191514c414e"}, {"is_disabled": 0, "is_reserved": 0, "fusion_lat": 0.0, "lat": 38.892436333333336, "fusion_lon": 0.0, "rental_uris": {"ios": "https://dc.lft.to/lastmile_qr_scan", "android": "https://dc.lft.to/lastmile_qr_scan"}, "lon": -77.03958283333333, "bike_id": "97c4c93162affc03c1c22ce2c3374b29", "type": "electric_scooter", "name": "97c4c93162affc03c1c22ce2c3374b29"}, {"is_disabled": 0, "is_reserved": 0, "fusion_lat": 0.0, "lat": 38.900627166666666, "fusion_lon": 0.0, "rental_uris": {"ios": "https://dc.lft.to/lastmile_qr_scan", "android": "https://dc.lft.to/lastmile_qr_scan"}, "lon": -77.0171655, "bike_id": "6887e4949acddc9472fa774edd04a8bf", "type": "electric_scooter", "name": "6887e4949acddc9472fa774edd04a8bf"}, {"is_disabled": 0, "is_reserved": 0, "fusion_lat": 0.0, "lat": 38.8854475, "fusion_lon": 0.0, "rental_uris": {"ios": "https://dc.lft.to/lastmile_qr_scan", "android": "https://dc.lft.to/lastmile_qr_scan"}, "lon": -76.9598005, "bike_id": "ee1f5395caaecc5d303169bf7130c71a", "type": "electric_scooter", "name": "ee1f5395caaecc5d303169bf7130c71a"}, {"is_disabled": 0, "is_reserved": 0, "fusion_lat": 0.0, "lat": 38.88244566666667, "fusion_lon": 0.0, "rental_uris": {"ios": "https://dc.lft.to/lastmile_qr_scan", "android": "https://dc.lft.to/lastmile_qr_scan"}, "lon": -77.009231, "bike_id": "50aa22162871e60f11769bea12f8f41d", "type": "electric_scooter", "name": "50aa22162871e60f11769bea12f8f41d"}, {"is_disabled": 0, "is_reserved": 0, "fusion_lat": 0.0, "lat": 38.876379166666666, "fusion_lon": 0.0, "rental_uris": {"ios": "https://dc.lft.to/lastmile_qr_scan", "android": "https://dc.lft.to/lastmile_qr_scan"}, "lon": -77.01477, "bike_id": "fda0f80811de5d1a0c564c246ff32133", "type": "electric_scooter", "name": "fda0f80811de5d1a0c564c246ff32133"}, {"is_disabled": 0, "is_reserved": 0, "fusion_lat": 0.0, "lat": 38.92664116666667, "fusion_lon": 0.0, "rental_uris": {"ios": "https://dc.lft.to/lastmile_qr_scan", "android": "https://dc.lft.to/lastmile_qr_scan"}, "lon": -77.051939, "bike_id": "bcf757b486e0a512063270206e5cdc00", "type": "electric_scooter", "name": "bcf757b486e0a512063270206e5cdc00"}, {"is_disabled": 0, "is_reserved": 0, "fusion_lat": 0.0, "lat": 38.931176, "fusion_lon": 0.0, "rental_uris": {"ios": "https://dc.lft.to/lastmile_qr_scan", "android": "https://dc.lft.to/lastmile_qr_scan"}, "lon": -77.02344233333334, "bike_id": "ea9b40bd5f1e5073e7619589c2f0162b", "type": "electric_scooter", "name": "ea9b40bd5f1e5073e7619589c2f0162b"}, {"is_disabled": 0, "is_reserved": 0, "fusion_lat": 0.0, "lat": 38.87991183333333, "fusion_lon": 0.0, "rental_uris": {"ios": "https://dc.lft.to/lastmile_qr_scan", "android": "https://dc.lft.to/lastmile_qr_scan"}, "lon": -77.02414766666666, "bike_id": "d697a0daee1efc3249cff7ca82acf684", "type": "electric_scooter", "name": "d697a0daee1efc3249cff7ca82acf684"}, {"is_disabled": 0, "is_reserved": 0, "fusion_lat": 0.0, "lat": 38.916934, "fusion_lon": 0.0, "rental_uris": {"ios": "https://dc.lft.to/lastmile_qr_scan", "android": "https://dc.lft.to/lastmile_qr_scan"}, "lon": -77.02519983333333, "bike_id": "2b6092ceee033542e5e4a77cd66f6b9a", "type": "electric_scooter", "name": "2b6092ceee033542e5e4a77cd66f6b9a"}, {"is_disabled": 0, "is_reserved": 0, "fusion_lat": 0.0, "lat": 38.899325, "fusion_lon": 0.0, "rental_uris": {"ios": "https://dc.lft.to/lastmile_qr_scan", "android": "https://dc.lft.to/lastmile_qr_scan"}, "lon": -77.00160383333333, "bike_id": "98cc3a5dbe97f774eff0567c0fc6e3d1", "type": "electric_bike", "name": "98cc3a5dbe97f774eff0567c0fc6e3d1"}, {"is_disabled": 0, "is_reserved": 0, "fusion_lat": 0.0, "lat": 38.918374666666665, "fusion_lon": 0.0, "rental_uris": {"ios": "https://dc.lft.to/lastmile_qr_scan", "android": "https://dc.lft.to/lastmile_qr_scan"}, "lon": -77.0228095, "bike_id": "1e31b4fb906867622ec67d2b831192b4", "type": "electric_scooter", "name": "1e31b4fb906867622ec67d2b831192b4"}, {"is_disabled": 0, "is_reserved": 0, "fusion_lat": 0.0, "lat": 38.920394, "fusion_lon": 0.0, "rental_uris": {"ios": "https://dc.lft.to/lastmile_qr_scan", "android": "https://dc.lft.to/lastmile_qr_scan"}, "lon": -77.026052, "bike_id": "defcb8f2c80d6422a88408c86c97910d", "type": "electric_scooter", "name": "defcb8f2c80d6422a88408c86c97910d"}, {"is_disabled": 0, "is_reserved": 0, "fusion_lat": 0.0, "lat": 38.93635733333333, "fusion_lon": 0.0, "rental_uris": {"ios": "https://dc.lft.to/lastmile_qr_scan", "android": "https://dc.lft.to/lastmile_qr_scan"}, "lon": -77.03261766666667, "bike_id": "e46fd9317750e0ec7e29bce9e11c187e", "type": "electric_scooter", "name": "e46fd9317750e0ec7e29bce9e11c187e"}, {"is_disabled": 0, "is_reserved": 0, "fusion_lat": 0.0, "lat": 39.0106885, "fusion_lon": 0.0, "rental_uris": {"ios": "https://dc.lft.to/lastmile_qr_scan", "android": "https://dc.lft.to/lastmile_qr_scan"}, "lon": -76.92243216666667, "bike_id": "7253374ed1462598045bf51e6c3214db", "type": "electric_bike", "name": "7253374ed1462598045bf51e6c3214db"}, {"is_disabled": 0, "is_reserved": 0, "fusion_lat": 0.0, "lat": 38.8784325, "fusion_lon": 0.0, "rental_uris": {"ios": "https://dc.lft.to/lastmile_qr_scan", "android": "https://dc.lft.to/lastmile_qr_scan"}, "lon": -76.9313065, "bike_id": "4e764572b04d030f7de3ef8e7f52aab7", "type": "electric_scooter", "name": "4e764572b04d030f7de3ef8e7f52aab7"}, {"is_disabled": 0, "is_reserved": 0, "fusion_lat": 0.0, "lat": 38.88299416666667, "fusion_lon": 0.0, "rental_uris": {"ios": "https://dc.lft.to/lastmile_qr_scan", "android": "https://dc.lft.to/lastmile_qr_scan"}, "lon": -77.02558866666666, "bike_id": "ca39531d432320c7f54cb9e79de1a8c6", "type": "electric_scooter", "name": "ca39531d432320c7f54cb9e79de1a8c6"}, {"is_disabled": 0, "is_reserved": 0, "fusion_lat": 0.0, "lat": 38.89614066666667, "fusion_lon": 0.0, "rental_uris": {"ios": "https://dc.lft.to/lastmile_qr_scan", "android": "https://dc.lft.to/lastmile_qr_scan"}, "lon": -77.026675, "bike_id": "4636791c302cfdcc3ad2d8ff5efdf385", "type": "electric_scooter", "name": "4636791c302cfdcc3ad2d8ff5efdf385"}, {"is_disabled": 0, "is_reserved": 0, "fusion_lat": 0.0, "lat": 38.864930333333334, "fusion_lon": 0.0, "rental_uris": {"ios": "https://dc.lft.to/lastmile_qr_scan", "android": "https://dc.lft.to/lastmile_qr_scan"}, "lon": -76.96984166666667, "bike_id": "b5d7b0faf3ba80c4d538ae7908be19d2", "type": "electric_bike", "name": "b5d7b0faf3ba80c4d538ae7908be19d2"}, {"is_disabled": 0, "is_reserved": 0, "fusion_lat": 0.0, "lat": 38.91963483333333, "fusion_lon": 0.0, "rental_uris": {"ios": "https://dc.lft.to/lastmile_qr_scan", "android": "https://dc.lft.to/lastmile_qr_scan"}, "lon": -77.01900616666667, "bike_id": "70f4a940841427eec81801663253d27c", "type": "electric_scooter", "name": "70f4a940841427eec81801663253d27c"}, {"is_disabled": 0, "is_reserved": 0, "fusion_lat": 0.0, "lat": 38.92138, "fusion_lon": 0.0, "rental_uris": {"ios": "https://dc.lft.to/lastmile_qr_scan", "android": "https://dc.lft.to/lastmile_qr_scan"}, "lon": -77.017931, "bike_id": "fbffb4836bfc3461aa9786bf6e56db10", "type": "electric_scooter", "name": "fbffb4836bfc3461aa9786bf6e56db10"}, {"is_disabled": 0, "is_reserved": 0, "fusion_lat": 0.0, "lat": 38.92222483333333, "fusion_lon": 0.0, "rental_uris": {"ios": "https://dc.lft.to/lastmile_qr_scan", "android": "https://dc.lft.to/lastmile_qr_scan"}, "lon": -77.03900216666666, "bike_id": "4167aceb97d65c5486d730bc5247ab51", "type": "electric_scooter", "name": "4167aceb97d65c5486d730bc5247ab51"}, {"is_disabled": 0, "is_reserved": 0, "fusion_lat": 0.0, "lat": 38.91437033333333, "fusion_lon": 0.0, "rental_uris": {"ios": "https://dc.lft.to/lastmile_qr_scan", "android": "https://dc.lft.to/lastmile_qr_scan"}, "lon": -76.98438566666667, "bike_id": "23c1a89849afc965d4444305713febec", "type": "electric_scooter", "name": "23c1a89849afc965d4444305713febec"}, {"is_disabled": 0, "is_reserved": 0, "fusion_lat": 0.0, "lat": 38.87896416666667, "fusion_lon": 0.0, "rental_uris": {"ios": "https://dc.lft.to/lastmile_qr_scan", "android": "https://dc.lft.to/lastmile_qr_scan"}, "lon": -76.93532533333334, "bike_id": "4509087ad2a0411e852b06f5959865f3", "type": "electric_scooter", "name": "4509087ad2a0411e852b06f5959865f3"}, {"is_disabled": 0, "is_reserved": 0, "fusion_lat": 0.0, "lat": 38.91133633333333, "fusion_lon": 0.0, "rental_uris": {"ios": "https://dc.lft.to/lastmile_qr_scan", "android": "https://dc.lft.to/lastmile_qr_scan"}, "lon": -77.03199883333333, "bike_id": "d1d9d6218b62954d7020c5c30915a5d2", "type": "electric_scooter", "name": "d1d9d6218b62954d7020c5c30915a5d2"}, {"is_disabled": 0, "is_reserved": 0, "fusion_lat": 0.0, "lat": 38.91467933333333, "fusion_lon": 0.0, "rental_uris": {"ios": "https://dc.lft.to/lastmile_qr_scan", "android": "https://dc.lft.to/lastmile_qr_scan"}, "lon": -77.03207316666666, "bike_id": "d32cfc46221d9ad8f6965e096b2b5b46", "type": "electric_scooter", "name": "d32cfc46221d9ad8f6965e096b2b5b46"}, {"is_disabled": 0, "is_reserved": 0, "fusion_lat": 0.0, "lat": 38.895078833333336, "fusion_lon": 0.0, "rental_uris": {"ios": "https://dc.lft.to/lastmile_qr_scan", "android": "https://dc.lft.to/lastmile_qr_scan"}, "lon": -77.02288033333333, "bike_id": "2dd608a96e6cdb2fe6f8dfa452262c2b", "type": "electric_scooter", "name": "2dd608a96e6cdb2fe6f8dfa452262c2b"}, {"is_disabled": 0, "is_reserved": 0, "fusion_lat": 0.0, "lat": 38.89238483333333, "fusion_lon": 0.0, "rental_uris": {"ios": "https://dc.lft.to/lastmile_qr_scan", "android": "https://dc.lft.to/lastmile_qr_scan"}, "lon": -77.03177866666667, "bike_id": "3f91ab9536317f61780f79f5d1d4096a", "type": "electric_scooter", "name": "3f91ab9536317f61780f79f5d1d4096a"}, {"is_disabled": 0, "is_reserved": 0, "fusion_lat": 0.0, "lat": 38.91833466666667, "fusion_lon": 0.0, "rental_uris": {"ios": "https://dc.lft.to/lastmile_qr_scan", "android": "https://dc.lft.to/lastmile_qr_scan"}, "lon": -77.05319033333333, "bike_id": "3e3188fc7010f74959b4d80cc939c6bc", "type": "electric_scooter", "name": "3e3188fc7010f74959b4d80cc939c6bc"}, {"is_disabled": 0, "is_reserved": 0, "fusion_lat": 0.0, "lat": 38.90276566666667, "fusion_lon": 0.0, "rental_uris": {"ios": "https://dc.lft.to/lastmile_qr_scan", "android": "https://dc.lft.to/lastmile_qr_scan"}, "lon": -77.06002466666666, "bike_id": "d699991ea3c0506a2fce92ed0b4d8f36", "type": "electric_bike", "name": "d699991ea3c0506a2fce92ed0b4d8f36"}, {"is_disabled": 0, "is_reserved": 0, "fusion_lat": 0.0, "lat": 38.9141475, "fusion_lon": 0.0, "rental_uris": {"ios": "https://dc.lft.to/lastmile_qr_scan", "android": "https://dc.lft.to/lastmile_qr_scan"}, "lon": -77.02209766666667, "bike_id": "b0ced544026f9aafc4042d8c11887b8a", "type": "electric_scooter", "name": "b0ced544026f9aafc4042d8c11887b8a"}, {"is_disabled": 0, "is_reserved": 0, "fusion_lat": 0.0, "lat": 38.923339166666665, "fusion_lon": 0.0, "rental_uris": {"ios": "https://dc.lft.to/lastmile_qr_scan", "android": "https://dc.lft.to/lastmile_qr_scan"}, "lon": -77.046695, "bike_id": "22aa440976bbaffeb4e45b10b1644cb7", "type": "electric_scooter", "name": "22aa440976bbaffeb4e45b10b1644cb7"}, {"is_disabled": 0, "is_reserved": 0, "fusion_lat": 0.0, "lat": 38.850849, "fusion_lon": 0.0, "rental_uris": {"ios": "https://dc.lft.to/lastmile_qr_scan", "android": "https://dc.lft.to/lastmile_qr_scan"}, "lon": -76.98125966666667, "bike_id": "8993f32de2c8fe9f267ab0bce9965447", "type": "electric_bike", "name": "8993f32de2c8fe9f267ab0bce9965447"}, {"is_disabled": 0, "is_reserved": 0, "fusion_lat": 0.0, "lat": 38.905292333333335, "fusion_lon": 0.0, "rental_uris": {"ios": "https://dc.lft.to/lastmile_qr_scan", "android": "https://dc.lft.to/lastmile_qr_scan"}, "lon": -77.05160533333333, "bike_id": "4119de9b6ba1efad5228bd683293d8d2", "type": "electric_scooter", "name": "4119de9b6ba1efad5228bd683293d8d2"},