{"data": {"bikes": [{"rental_uris": {"ios": "https://dc.lft.to/lastmile_qr_scan", "android": "https://dc.lft.to/lastmile_qr_scan"}, "lon": -77.03339266666667, "type": "electric_scooter", "fusion_lat": 0.0, "lat": 38.892235166666666, "name": "d6fd46adab1a46c44a570065d9472095", "fusion_lon": 0.0, "bike_id": "d6fd46adab1a46c44a570065d9472095", "is_disabled": 0, "is_reserved": 0}, {"rental_uris": {"ios": "https://dc.lft.to/lastmile_qr_scan", "android": "https://dc.lft.to/lastmile_qr_scan"}, "lon": -76.98900716666667, "type": "electric_scooter", "fusion_lat": 0.0, "lat": 38.866964, "name": "b36cbe9ebb26435c94d7ee1c2f4011d4", "fusion_lon": 0.0, "bike_id": "b36cbe9ebb26435c94d7ee1c2f4011d4", "is_disabled": 0, "is_reserved": 0}, {"rental_uris": {"ios": "https://dc.lft.to/lastmile_qr_scan", "android": "https://dc.lft.to/lastmile_qr_scan"}, "lon": -76.9271735, "type": "electric_scooter", "fusion_lat": 0.0, "lat": 38.88775316666667, "name": "a9b41e41201da5bcdc1c0076a6c191c9", "fusion_lon": 0.0, "bike_id": "a9b41e41201da5bcdc1c0076a6c191c9", "is_disabled": 0, "is_reserved": 0}, {"rental_uris": {"ios": "https://dc.lft.to/lastmile_qr_scan", "android": "https://dc.lft.to/lastmile_qr_scan"}, "lon": -77.055224, "type": "electric_scooter", "fusion_lat": 0.0, "lat": 38.929641833333335, "name": "b7a1dd1fa98213af60712a7ddfc2814d", "fusion_lon": 0.0, "bike_id": "b7a1dd1fa98213af60712a7ddfc2814d", "is_disabled": 0, "is_reserved": 0}, {"rental_uris": {"ios": "https://dc.lft.to/lastmile_qr_scan", "android": "https://dc.lft.to/lastmile_qr_scan"}, "lon": -77.00087783333333, "type": "electric_bike", "fusion_lat": 0.0, "lat": 38.874942, "name": "8180beb4be658a34bbdce2a811c29e2a", "fusion_lon": 0.0, "bike_id": "8180beb4be658a34bbdce2a811c29e2a", "is_disabled": 0, "is_reserved": 0}, {"rental_uris": {"ios": "https://dc.lft.to/lastmile_qr_scan", "android": "https://dc.lft.to/lastmile_qr_scan"}, "lon": -77.0663105, "type": "electric_scooter", "fusion_lat": 0.0, "lat": 38.928014, "name": "e5360cb46582a925db0abd8a627852df", "fusion_lon": 0.0, "bike_id": "e5360cb46582a925db0abd8a627852df", "is_disabled": 0, "is_reserved": 0}, {"rental_uris": {"ios": "https://dc.lft.to/lastmile_qr_scan", "android": "https://dc.lft.to/lastmile_qr_scan"}, "lon": -77.00555383333334, "type": "electric_scooter", "fusion_lat": 0.0, "lat": 38.88076866666667, "name": "742c02e81c071d4a9fc56abab1b179d5", "fusion_lon": 0.0, "bike_id": "742c02e81c071d4a9fc56abab1b179d5", "is_disabled": 0, "is_reserved": 0}, {"rental_uris": {"ios": "https://dc.lft.to/lastmile_qr_scan", "android": "https://dc.lft.to/lastmile_qr_scan"}, "lon": -77.10780183333334, "type": "electric_bike", "fusion_lat": 0.0, "lat": 38.892255, "name": "aaaa888925de262798045558e972911f", "fusion_lon": 0.0, "bike_id": "aaaa888925de262798045558e972911f", "is_disabled": 0, "is_reserved": 0}, {"rental_uris": {"ios": "https://dc.lft.to/lastmile_qr_scan", "android": "https://dc.lft.to/lastmile_qr_scan"}, "lon": -77.02598566666667, "type": "electric_scooter", "fusion_lat": 0.0, "lat": 38.897543666666664, "name": "55a61b09fe24211d20aaad0fceab1e09", "fusion_lon": 0.0, "bike_id": "55a61b09fe24211d20aaad0fceab1e09", "is_disabled": 0, "is_reserved": 0}, {"rental_uris": {"ios": "https://dc.lft.to/lastmile_qr_scan", "android": "https://dc.lft.to/lastmile_qr_scan"}, "lon": -77.0326115, "type": "electric_scooter", "fusion_lat": 0.0, "lat": 38.9274555, "name": "f9246a63b8ca19934d425e5a41a89ff9", "fusion_lon": 0.0, "bike_id": "f9246a63b8ca19934d425e5a41a89ff9", "is_disabled": 0, "is_reserved": 0}, {"rental_uris": {"ios": "https://dc.lft.to/lastmile_qr_scan", "android": "https://dc.lft.to/lastmile_qr_scan"}, "lon": -76.95359866666666, "type": "electric_bike", "fusion_lat": 0.0, "lat": 38.939543666666665, "name": "8ffe31be9c2320baca772dcb48968f15", "fusion_lon": 0.0, "bike_id": "8ffe31be9c2320baca772dcb48968f15", "is_disabled": 0, "is_reserved": 0}, {"rental_uris": {"ios": "https://dc.lft.to/lastmile_qr_scan", "android": "https://dc.lft.to/lastmile_qr_scan"}, "lon": -77.1784505, "type": "electric_bike", "fusion_lat": 0.0, "lat": 39.0886, "name": "b41373b92e0ca43426ff36f844dbc3d1", "fusion_lon": 0.0, "bike_id": "b41373b92e0ca43426ff36f844dbc3d1", "is_disabled": 0, "is_reserved": 0}, {"rental_uris": {"ios": "https://dc.lft.to/lastmile_qr_scan", "android": "https://dc.lft.to/lastmile_qr_scan"}, "lon": -77.00216783333333, "type": "electric_scooter", "fusion_lat": 0.0, "lat": 38.90014, "name": "9b1c75706e4571016ed1509bf0a15a77", "fusion_lon": 0.0, "bike_id": "9b1c75706e4571016ed1509bf0a15a77", "is_disabled": 0, "is_reserved": 0}, {"rental_uris": {"ios": "https://dc.lft.to/lastmile_qr_scan", "android": "https://dc.lft.to/lastmile_qr_scan"}, "lon": -76.98901233333333, "type": "electric_scooter", "fusion_lat": 0.0, "lat": 38.8669735, "name": "847520398408a3be1ffe03dba4971706", "fusion_lon": 0.0, "bike_id": "847520398408a3be1ffe03dba4971706", "is_disabled": 0, "is_reserved": 0}, {"rental_uris": {"ios": "https://dc.lft.to/lastmile_qr_scan", "android": "https://dc.lft.to/lastmile_qr_scan"}, "lon": -77.02709016666667, "type": "electric_scooter", "fusion_lat": 0.0, "lat": 38.950008, "name": "d676d0b5947d6c227f0ec8c50b81fafd", "fusion_lon": 0.0, "bike_id": "d676d0b5947d6c227f0ec8c50b81fafd", "is_disabled": 0, "is_reserved": 0}, {"rental_uris": {"ios": "https://dc.lft.to/lastmile_qr_scan", "android": "https://dc.lft.to/lastmile_qr_scan"}, "lon": -77.051467, "type": "electric_scooter", "fusion_lat": 0.0, "lat": 38.92370783333333, "name": "2ffa4d99f02e050a4ad02f516d6ccf8e", "fusion_lon": 0.0, "bike_id": "2ffa4d99f02e050a4ad02f516d6ccf8e", "is_disabled": 0, "is_reserved": 0}, {"rental_uris": {"ios": "https://dc.lft.to/lastmile_qr_scan", "android": "https://dc.lft.to/lastmile_qr_scan"}, "lon": -77.03578066666667, "type": "electric_scooter", "fusion_lat": 0.0, "lat": 38.90767533333333, "name": "08693c91eab2436dc24314edd7dcae74", "fusion_lon": 0.0, "bike_id": "08693c91eab2436dc24314edd7dcae74", "is_disabled": 0, "is_reserved": 0}, {"rental_uris": {"ios": "https://dc.lft.to/lastmile_qr_scan", "android": "https://dc.lft.to/lastmile_qr_scan"}, "lon": -77.0430555, "type": "electric_bike", "fusion_lat": 0.0, "lat": 39.0545105, "name": "c69a2c85c41345dfb06cc5dc528abbc2", "fusion_lon": 0.0, "bike_id": "c69a2c85c41345dfb06cc5dc528abbc2", "is_disabled": 0, "is_reserved": 0}, {"rental_uris": {"ios": "https://dc.lft.to/lastmile_qr_scan", "android": "https://dc.lft.to/lastmile_qr_scan"}, "lon": -77.06695283333333, "type": "electric_scooter", "fusion_lat": 0.0, "lat": 38.90974716666667, "name": "1d9ff45c395458fcda27b8247b6c62b1", "fusion_lon": 0.0, "bike_id": "1d9ff45c395458fcda27b8247b6c62b1", "is_disabled": 0, "is_reserved": 0}, {"rental_uris": {"ios": "https://dc.lft.to/lastmile_qr_scan", "android": "https://dc.lft.to/lastmile_qr_scan"}, "lon": -77.03168516666666, "type": "electric_bike", "fusion_lat": 0.0, "lat": 38.94466283333333, "name": "10096749e897cafb96d8f5430f5ccc26", "fusion_lon": 0.0, "bike_id": "10096749e897cafb96d8f5430f5ccc26", "is_disabled": 0, "is_reserved": 0}, {"rental_uris": {"ios": "https://dc.lft.to/lastmile_qr_scan", "android": "https://dc.lft.to/lastmile_qr_scan"}, "lon": -77.03128966666667, "type": "electric_scooter", "fusion_lat": 0.0, "lat": 38.9112895, "name": "9cd56b5044bd45ca6d4ec04c6339a0bf", "fusion_lon": 0.0, "bike_id": "9cd56b5044bd45ca6d4ec04c6339a0bf", "is_disabled": 0, "is_reserved": 0}, {"rental_uris": {"ios": "https://dc.lft.to/lastmile_qr_scan", "android": "https://dc.lft.to/lastmile_qr_scan"}, "lon": -77.01818183333333, "type": "electric_scooter", "fusion_lat": 0.0, "lat": 38.90813933333333, "name": "5b21f5f5a826d98a95f0470a837695ad", "fusion_lon": 0.0, "bike_id": "5b21f5f5a826d98a95f0470a837695ad", "is_disabled": 0, "is_reserved": 0}, {"rental_uris": {"ios": "https://dc.lft.to/lastmile_qr_scan", "android": "https://dc.lft.to/lastmile_qr_scan"}, "lon": -77.02317233333333, "type": "electric_scooter", "fusion_lat": 0.0, "lat": 38.88733666666667, "name": "df79f3191001df2ee2d19e7add26d6e4", "fusion_lon": 0.0, "bike_id": "df79f3191001df2ee2d19e7add26d6e4", "is_disabled": 0, "is_reserved": 0}, {"rental_uris": {"ios": "https://dc.lft.to/lastmile_qr_scan", "android": "https://dc.lft.to/lastmile_qr_scan"}, "lon": -76.97190133333334, "type": "electric_scooter", "fusion_lat": 0.0, "lat": 38.9126605, "name": "8024483678f8817b3cb2d2022167b777", "fusion_lon": 0.0, "bike_id": "8024483678f8817b3cb2d2022167b777", "is_disabled": 0, "is_reserved": 0}, {"rental_uris": {"ios": "https://dc.lft.to/lastmile_qr_scan", "android": "https://dc.lft.to/lastmile_qr_scan"}, "lon": -76.981767, "type": "electric_scooter", "fusion_lat": 0.0, "lat": 38.87700266666667, "name": "13dea91268ae23ad85d58e1910a0496a", "fusion_lon": 0.0, "bike_id": "13dea91268ae23ad85d58e1910a0496a", "is_disabled": 0, "is_reserved": 0}, {"rental_uris": {"ios": "https://dc.lft.to/lastmile_qr_scan", "android": "https://dc.lft.to/lastmile_qr_scan"}, "lon": -77.0403845, "type": "electric_scooter", "fusion_lat": 0.0, "lat": 38.918004333333336, "name": "854694375a8f242c41276cb26c21c3f1", "fusion_lon": 0.0, "bike_id": "854694375a8f242c41276cb26c21c3f1", "is_disabled": 0, "is_reserved": 0}, {"rental_uris": {"ios": "https://dc.lft.to/lastmile_qr_scan", "android": "https://dc.lft.to/lastmile_qr_scan"}, "lon": -76.97613266666667, "type": "electric_bike", "fusion_lat": 0.0, "lat": 38.913127333333335, "name": "622a83c251875c39c7703c276a774a06", "fusion_lon": 0.0, "bike_id": "622a83c251875c39c7703c276a774a06", "is_disabled": 0, "is_reserved": 0}, {"rental_uris": {"ios": "https://dc.lft.to/lastmile_qr_scan", "android": "https://dc.lft.to/lastmile_qr_scan"}, "lon": -77.04394866666667, "type": "electric_scooter", "fusion_lat": 0.0, "lat": 38.92283466666667, "name": "a17f4b887b2467c22cf8e49dea04db1d", "fusion_lon": 0.0, "bike_id": "a17f4b887b2467c22cf8e49dea04db1d", "is_disabled": 0, "is_reserved": 0}, {"rental_uris": {"ios": "https://dc.lft.to/lastmile_qr_scan", "android": "https://dc.lft.to/lastmile_qr_scan"}, "lon": -77.00277883333334, "type": "electric_bike", "fusion_lat": 0.0, "lat": 38.91185633333333, "name": "f3024993b29aa1eb36324fecf1c106e9", "fusion_lon": 0.0, "bike_id": "f3024993b29aa1eb36324fecf1c106e9", "is_disabled": 0, "is_reserved": 0}, {"rental_uris": {"ios": "https://dc.lft.to/lastmile_qr_scan", "android": "https://dc.lft.to/lastmile_qr_scan"}, "lon": -76.99033216666666, "type": "electric_scooter", "fusion_lat": 0.0, "lat": 38.8587275, "name": "2d26bea6d7e8928aeead21d3c9ff37f9", "fusion_lon": 0.0, "bike_id": "2d26bea6d7e8928aeead21d3c9ff37f9", "is_disabled": 0, "is_reserved": 0}, {"rental_uris": {"ios": "https://dc.lft.to/lastmile_qr_scan", "android": "https://dc.lft.to/lastmile_qr_scan"}, "lon": -77.0152085, "type": "electric_scooter", "fusion_lat": 0.0, "lat": 38.91874633333333, "name": "39a93a683ecb375adb01a4f061701743", "fusion_lon": 0.0, "bike_id": "39a93a683ecb375adb01a4f061701743", "is_disabled": 0, "is_reserved": 0}, {"rental_uris": {"ios": "https://dc.lft.to/lastmile_qr_scan", "android": "https://dc.lft.to/lastmile_qr_scan"}, "lon": -77.06253416666667, "type": "electric_scooter", "fusion_lat": 0.0, "lat": 38.906809, "name": "164a2b9e522b0eec1d2fdffda6044760", "fusion_lon": 0.0, "bike_id": "164a2b9e522b0eec1d2fdffda6044760", "is_disabled": 0, "is_reserved": 0}, {"rental_uris": {"ios": "https://dc.lft.to/lastmile_qr_scan", "android": "https://dc.lft.to/lastmile_qr_scan"}, "lon": -77.039854, "type": "electric_scooter", "fusion_lat": 0.0, "lat": 38.899079666666665, "name": "50fe07e8ccf6dd19d2c0b45f0c20e52e", "fusion_lon": 0.0, "bike_id": "50fe07e8ccf6dd19d2c0b45f0c20e52e", "is_disabled": 0, "is_reserved": 0}, {"rental_uris": {"ios": "https://dc.lft.to/lastmile_qr_scan", "android": "https://dc.lft.to/lastmile_qr_scan"}, "lon": -77.02394483333333, "type": "electric_scooter", "fusion_lat": 0.0, "lat": 38.95294066666666, "name": "bf0f52889aefb129dcffaa6861368af3", "fusion_lon": 0.0, "bike_id": "bf0f52889aefb129dcffaa6861368af3", "is_disabled": 0, "is_reserved": 0}, {"rental_uris": {"ios": "https://dc.lft.to/lastmile_qr_scan", "android": "https://dc.lft.to/lastmile_qr_scan"}, "lon": -77.00980566666667, "type": "electric_scooter", "fusion_lat": 0.0, "lat": 38.9149085, "name": "76d8b2d0ffd9c3b00c7c994f514a8f07", "fusion_lon": 0.0, "bike_id": "76d8b2d0ffd9c3b00c7c994f514a8f07", "is_disabled": 0, "is_reserved": 0}, {"rental_uris": {"ios": "https://dc.lft.to/lastmile_qr_scan", "android": "https://dc.lft.to/lastmile_qr_scan"}, "lon": -77.01789883333333, "type": "electric_scooter", "fusion_lat": 0.0, "lat": 38.900375333333336, "name": "9e85bcea134e2e10037d5d35f043a0cd", "fusion_lon": 0.0, "bike_id": "9e85bcea134e2e10037d5d35f043a0cd", "is_disabled": 0, "is_reserved": 0}, {"rental_uris": {"ios": "https://dc.lft.to/lastmile_qr_scan", "android": "https://dc.lft.to/lastmile_qr_scan"}, "lon": -77.01061716666666, "type": "electric_scooter", "fusion_lat": 0.0, "lat": 38.879372000000004, "name": "52f2032a9f7d3f7b149ce8496cd31339", "fusion_lon": 0.0, "bike_id": "52f2032a9f7d3f7b149ce8496cd31339", "is_disabled": 0, "is_reserved": 0}, {"rental_uris": {"ios": "https://dc.lft.to/lastmile_qr_scan", "android": "https://dc.lft.to/lastmile_qr_scan"}, "lon": -77.05866666666667, "type": "electric_scooter", "fusion_lat": 0.0, "lat": 38.93611683333334, "name": "10a803e151b88ff2f89839b215c530c1", "fusion_lon": 0.0, "bike_id": "10a803e151b88ff2f89839b215c530c1", "is_disabled": 0, "is_reserved": 0}, {"rental_uris": {"ios": "https://dc.lft.to/lastmile_qr_scan", "android": "https://dc.lft.to/lastmile_qr_scan"}, "lon": -77.0258955, "type": "electric_scooter", "fusion_lat": 0.0, "lat": 38.8960765, "name": "cb6a96a7ff020265723d192d4a4e9aa4", "fusion_lon": 0.0, "bike_id": "cb6a96a7ff020265723d192d4a4e9aa4", "is_disabled": 0, "is_reserved": 0}, {"rental_uris": {"ios": "https://dc.lft.to/lastmile_qr_scan", "android": "https://dc.lft.to/lastmile_qr_scan"}, "lon": -76.966292, "type": "electric_bike", "fusion_lat": 0.0, "lat": 38.94211766666667, "name": "778bcac558f4ae3af629c90bb09a0bd6", "fusion_lon": 0.0, "bike_id": "778bcac558f4ae3af629c90bb09a0bd6", "is_disabled": 0, "is_reserved": 0}, {"rental_uris": {"ios": "https://dc.lft.to/lastmile_qr_scan", "android": "https://dc.lft.to/lastmile_qr_scan"}, "lon": -77.02105716666667, "type": "electric_scooter", "fusion_lat": 0.0, "lat": 38.91319933333333, "name": "a2a0216f8ee9e250ad0ce78a65fa9e4b", "fusion_lon": 0.0, "bike_id": "a2a0216f8ee9e250ad0ce78a65fa9e4b", "is_disabled": 0, "is_reserved": 0}, {"rental_uris": {"ios": "https://dc.lft.to/lastmile_qr_scan", "android": "https://dc.lft.to/lastmile_qr_scan"}, "lon": -77.039178, "type": "electric_scooter", "fusion_lat": 0.0, "lat": 38.90354816666667, "name": "3911a35242971fcfc49580cbe240e824", "fusion_lon": 0.0, "bike_id": "3911a35242971fcfc49580cbe240e824", "is_disabled": 0, "is_reserved": 0}, {"rental_uris": {"ios": "https://dc.lft.to/lastmile_qr_scan", "android": "https://dc.lft.to/lastmile_qr_scan"}, "lon": -77.02598733333333, "type": "electric_scooter", "fusion_lat": 0.0, "lat": 38.915078666666666, "name": "c9f5984a815dea2e87f6368620987d05", "fusion_lon": 0.0, "bike_id": "c9f5984a815dea2e87f6368620987d05", "is_disabled": 0, "is_reserved": 0}, {"rental_uris": {"ios": "https://dc.lft.to/lastmile_qr_scan", "android": "https://dc.lft.to/lastmile_qr_scan"}, "lon": -77.04684766666666, "type": "electric_scooter", "fusion_lat": 0.0, "lat": 38.8922875, "name": "0ce0ab9c24d8f6ecfe4699cfb75c5383", "fusion_lon": 0.0, "bike_id": "0ce0ab9c24d8f6ecfe4699cfb75c5383", "is_disabled": 0, "is_reserved": 0}, {"rental_uris": {"ios": "https://dc.lft.to/lastmile_qr_scan", "android": "https://dc.lft.to/lastmile_qr_scan"}, "lon": -77.02299283333333, "type": "electric_scooter", "fusion_lat": 0.0, "lat": 38.9329135, "name": "2611a7c6053c7e14fb447444c3e9e175", "fusion_lon": 0.0, "bike_id": "2611a7c6053c7e14fb447444c3e9e175", "is_disabled": 0, "is_reserved": 0}, {"rental_uris": {"ios": "https://dc.lft.to/lastmile_qr_scan", "android": "https://dc.lft.to/lastmile_qr_scan"}, "lon": -77.02967983333333, "type": "electric_scooter", "fusion_lat": 0.0, "lat": 38.916887333333335, "name": "f247bbbad6ff38d077231f47c2674f65", "fusion_lon": 0.0, "bike_id": "f247bbbad6ff38d077231f47c2674f65", "is_disabled": 0, "is_reserved": 0}, {"rental_uris": {"ios": "https://dc.lft.to/lastmile_qr_scan", "android": "https://dc.lft.to/lastmile_qr_scan"}, "lon": -77.03998583333333, "type": "electric_scooter", "fusion_lat": 0.0, "lat": 38.888753333333334, "name": "f8c4bcfd79e9fa041afb0ed57160db78", "fusion_lon": 0.0, "bike_id": "f8c4bcfd79e9fa041afb0ed57160db78", "is_disabled": 0, "is_reserved": 0}, {"rental_uris": {"ios": "https://dc.lft.to/lastmile_qr_scan", "android": "https://dc.lft.to/lastmile_qr_scan"}, "lon": -77.03641816666666, "type": "electric_scooter", "fusion_lat": 0.0, "lat": 38.9372335, "name": "68e42200893ed90fb82d5ffaa3a5a592", "fusion_lon": 0.0, "bike_id": "68e42200893ed90fb82d5ffaa3a5a592", "is_disabled": 0, "is_reserved": 0}, {"rental_uris": {"ios": "https://dc.lft.to/lastmile_qr_scan", "android": "https://dc.lft.to/lastmile_qr_scan"}, "lon": -77.0328725, "type": "electric_scooter", "fusion_lat": 0.0, "lat": 38.932067833333335, "name": "f4b2319a2adf34fd9dc102f0e8afc928", "fusion_lon": 0.0, "bike_id": "f4b2319a2adf34fd9dc102f0e8afc928", "is_disabled": 0, "is_reserved": 0}, {"rental_uris": {"ios": "https://dc.lft.to/lastmile_qr_scan", "android": "https://dc.lft.to/lastmile_qr_scan"}, "lon": -77.06296633333334, "type": "electric_scooter", "fusion_lat": 0.0, "lat": 38.90400533333333, "name": "e2f3f92e2d5ba9f389290dd1c061fb9e", "fusion_lon": 0.0, "bike_id": "e2f3f92e2d5ba9f389290dd1c061fb9e", "is_disabled": 0, "is_reserved": 0}, {"rental_uris": {"ios": "https://dc.lft.to/lastmile_qr_scan", "android": "https://dc.lft.to/lastmile_qr_scan"}, "lon": -77.0716775, "type": "electric_scooter", "fusion_lat": 0.0, "lat": 38.907529, "name": "781250cde2cdf43fda354aa142e33533", "fusion_lon": 0.0, "bike_id": "781250cde2cdf43fda354aa142e33533", "is_disabled": 0, "is_reserved": 0}, {"rental_uris": {"ios": "https://dc.lft.to/lastmile_qr_scan", "android": "https://dc.lft.to/lastmile_qr_scan"}, "lon": -77.02286416666666, "type": "electric_scooter", "fusion_lat": 0.0, "lat": 38.9014945, "name": "3efaa87bb2003557eb7e7dc85b13d07e", "fusion_lon": 0.0, "bike_id": "3efaa87bb2003557eb7e7dc85b13d07e", "is_disabled": 0, "is_reserved": 0}, {"rental_uris": {"ios": "https://dc.lft.to/lastmile_qr_scan", "android": "https://dc.lft.to/lastmile_qr_scan"}, "lon": -77.05169283333333, "type": "electric_scooter", "fusion_lat": 0.0, "lat": 38.9059855, "name": "12475cbb283954e6099843797bb69310", "fusion_lon": 0.0, "bike_id": "12475cbb283954e6099843797bb69310", "is_disabled": 0, "is_reserved": 0}, {"rental_uris": {"ios": "https://dc.lft.to/lastmile_qr_scan", "android": "https://dc.lft.to/lastmile_qr_scan"}, "lon": -77.023864, "type": "electric_scooter", "fusion_lat": 0.0, "lat": 38.932325666666664, "name": "34a00d8e7037765a919c0a3052feb5ab", "fusion_lon": 0.0, "bike_id": "34a00d8e7037765a919c0a3052feb5ab", "is_disabled": 0, "is_reserved": 0}, {"rental_uris": {"ios": "https://dc.lft.to/lastmile_qr_scan", "android": "https://dc.lft.to/lastmile_qr_scan"}, "lon": -77.03204916666667, "type": "electric_scooter", "fusion_lat": 0.0, "lat": 38.89397016666667, "name": "b2acda300451f470737d2d1f5c660f01", "fusion_lon": 0.0, "bike_id": "b2acda300451f470737d2d1f5c660f01", "is_disabled": 0, "is_reserved": 0}, {"rental_uris": {"ios": "https://dc.lft.to/lastmile_qr_scan", "android": "https://dc.lft.to/lastmile_qr_scan"}, "lon": -77.04268616666667, "type": "electric_scooter", "fusion_lat": 0.0, "lat": 38.93419883333333, "name": "8122644c3a971affbfdd66efbf1f4ffb", "fusion_lon": 0.0, "bike_id": "8122644c3a971affbfdd66efbf1f4ffb", "is_disabled": 0, "is_reserved": 0}, {"rental_uris": {"ios": "https://dc.lft.to/lastmile_qr_scan", "android": "https://dc.lft.to/lastmile_qr_scan"}, "lon": -77.003482, "type": "electric_scooter", "fusion_lat": 0.0, "lat": 38.89536316666667, "name": "97f067fa37ea70b604e9bdd2bf4ac845", "fusion_lon": 0.0, "bike_id": "97f067fa37ea70b604e9bdd2bf4ac845", "is_disabled": 0, "is_reserved": 0}, {"rental_uris": {"ios": "https://dc.lft.to/lastmile_qr_scan", "android": "https://dc.lft.to/lastmile_qr_scan"}, "lon": -76.99896266666667, "type": "electric_scooter", "fusion_lat": 0.0, "lat": 38.90755866666667, "name": "3e345a3e18e2d9b9debee4a31fead6ab", "fusion_lon": 0.0, "bike_id": "3e345a3e18e2d9b9debee4a31fead6ab", "is_disabled": 0, "is_reserved": 0}, {"rental_uris": {"ios": "https://dc.lft.to/lastmile_qr_scan", "android": "https://dc.lft.to/lastmile_qr_scan"}, "lon": -77.04632833333334, "type": "electric_scooter", "fusion_lat": 0.0, "lat": 38.91583933333333, "name": "d1203858ed9c6736272aed52e570f9ac", "fusion_lon": 0.0, "bike_id": "d1203858ed9c6736272aed52e570f9ac", "is_disabled": 0, "is_reserved": 0}, {"rental_uris": {"ios": "https://dc.lft.to/lastmile_qr_scan", "android": "https://dc.lft.to/lastmile_qr_scan"}, "lon": -76.94632133333333, "type": "electric_bike", "fusion_lat": 0.0, "lat": 38.94629533333333, "name": "822ae8c2b08bfd9fda1a4be28141f789", "fusion_lon": 0.0, "bike_id": "822ae8c2b08bfd9fda1a4be28141f789", "is_disabled": 0, "is_reserved": 0}, {"rental_uris": {"ios": "https://dc.lft.to/lastmile_qr_scan", "android": "https://dc.lft.to/lastmile_qr_scan"}, "lon": -77.0220105, "type": "electric_scooter", "fusion_lat": 0.0, "lat": 38.908335, "name": "b96a3632017d540dee790211061d47ca", "fusion_lon": 0.0, "bike_id": "b96a3632017d540dee790211061d47ca", "is_disabled": 0, "is_reserved": 0}, {"rental_uris": {"ios": "https://dc.lft.to/lastmile_qr_scan", "android": "https://dc.lft.to/lastmile_qr_scan"}, "lon": -76.97213316666667, "type": "electric_scooter", "fusion_lat": 0.0, "lat": 38.854967333333335, "name": "b8053f4b2e94c5d17173f1d4eaf7d765", "fusion_lon": 0.0, "bike_id": "b8053f4b2e94c5d17173f1d4eaf7d765", "is_disabled": 0, "is_reserved": 0}, {"rental_uris": {"ios": "https://dc.lft.to/lastmile_qr_scan", "android": "https://dc.lft.to/lastmile_qr_scan"}, "lon": -77.038532, "type": "electric_scooter", "fusion_lat": 0.0, "lat": 38.9155175, "name": "0b09d6e65b903dd589863e5c61cf0410", "fusion_lon": 0.0, "bike_id": "0b09d6e65b903dd589863e5c61cf0410", "is_disabled": 0, "is_reserved": 0}, {"rental_uris": {"ios": "https://dc.lft.to/lastmile_qr_scan", "android": "https://dc.lft.to/lastmile_qr_scan"}, "lon": -77.0707085, "type": "electric_scooter", "fusion_lat": 0.0, "lat": 38.952262833333336, "name": "6fe7fb0f81a8b1bb5a7a5678a7fe1cac", "fusion_lon": 0.0, "bike_id": "6fe7fb0f81a8b1bb5a7a5678a7fe1cac", "is_disabled": 0, "is_reserved": 0}, {"rental_uris": {"ios": "https://dc.lft.to/lastmile_qr_scan", "android": "https://dc.lft.to/lastmile_qr_scan"}, "lon": -77.0284695, "type": "electric_scooter", "fusion_lat": 0.0, "lat": 38.8953045, "name": "4858510f42956b9c4b7dd28beb8a1713", "fusion_lon": 0.0, "bike_id": "4858510f42956b9c4b7dd28beb8a1713", "is_disabled": 0, "is_reserved": 0}, {"rental_uris": {"ios": "https://dc.lft.to/lastmile_qr_scan", "android": "https://dc.lft.to/lastmile_qr_scan"}, "lon": -76.98565533333333, "type": "electric_scooter", "fusion_lat": 0.0, "lat": 38.85593766666667, "name": "fae459ccb2efcdde17ae6581e79871df", "fusion_lon": 0.0, "bike_id": "fae459ccb2efcdde17ae6581e79871df", "is_disabled": 0, "is_reserved": 0}, {"rental_uris": {"ios": "https://dc.lft.to/lastmile_qr_scan", "android": "https://dc.lft.to/lastmile_qr_scan"}, "lon": -77.04500433333334, "type": "electric_scooter", "fusion_lat": 0.0, "lat": 38.9195915, "name": "6a7474a4f3cd21f63164fc173e8f66d6", "fusion_lon": 0.0, "bike_id": "6a7474a4f3cd21f63164fc173e8f66d6", "is_disabled": 0, "is_reserved": 0}, {"rental_uris": {"ios": "https://dc.lft.to/lastmile_qr_scan", "android": "https://dc.lft.to/lastmile_qr_scan"}, "lon": -77.04193233333334, "type": "electric_scooter", "fusion_lat": 0.0, "lat": 38.903496, "name": "b556b0ada204bd31eceb84e115436bfa", "fusion_lon": 0.0, "bike_id": "b556b0ada204bd31eceb84e115436bfa", "is_disabled": 0, "is_reserved": 0}, {"rental_uris": {"ios": "https://dc.lft.to/lastmile_qr_scan", "android": "https://dc.lft.to/lastmile_qr_scan"}, "lon": -77.02386433333334, "type": "electric_scooter", "fusion_lat": 0.0, "lat": 38.93225416666667, "name": "8bafc930048c1d2813e6bd6aca2755a8", "fusion_lon": 0.0, "bike_id": "8bafc930048c1d2813e6bd6aca2755a8", "is_disabled": 0, "is_reserved": 0}, {"rental_uris": {"ios": "https://dc.lft.to/lastmile_qr_scan", "android": "https://dc.lft.to/lastmile_qr_scan"}, "lon": -77.00863316666667, "type": "electric_bike", "fusion_lat": 0.0, "lat": 38.827347333333336, "name": "589ab6a2e7e9a8d66d2fd26a0733dc28", "fusion_lon": 0.0, "bike_id": "589ab6a2e7e9a8d66d2fd26a0733dc28", "is_disabled": 0, "is_reserved": 0}, {"rental_uris": {"ios": "https://dc.lft.to/lastmile_qr_scan", "android": "https://dc.lft.to/lastmile_qr_scan"}, "lon": -77.02571133333333, "type": "electric_scooter", "fusion_lat": 0.0, "lat": 38.903465, "name": "65a14e22251a0d75eb20578e8592615c", "fusion_lon": 0.0, "bike_id": "65a14e22251a0d75eb20578e8592615c", "is_disabled": 0, "is_reserved": 0}, {"rental_uris": {"ios": "https://dc.lft.to/lastmile_qr_scan", "android": "https://dc.lft.to/lastmile_qr_scan"}, "lon": -77.04707016666667, "type": "electric_scooter", "fusion_lat": 0.0, "lat": 38.922438166666666, "name": "b325958483649d28f7d9b6b14cbdf0f6", "fusion_lon": 0.0, "bike_id": "b325958483649d28f7d9b6b14cbdf0f6", "is_disabled": 0, "is_reserved": 0}, {"rental_uris": {"ios": "https://dc.lft.to/lastmile_qr_scan", "android": "https://dc.lft.to/lastmile_qr_scan"}, "lon": -77.02587766666667, "type": "electric_scooter", "fusion_lat": 0.0, "lat": 38.892541666666666, "name": "80a397a0fe450b12486ba017f16e160b", "fusion_lon": 0.0, "bike_id": "80a397a0fe450b12486ba017f16e160b", "is_disabled": 0, "is_reserved": 0}, {"rental_uris": {"ios": "https://dc.lft.to/lastmile_qr_scan", "android": "https://dc.lft.to/lastmile_qr_scan"}, "lon": -77.067762, "type": "electric_scooter", "fusion_lat": 0.0, "lat": 38.90367, "name": "f2f014038be6b33c7168aca54dc45e34", "fusion_lon": 0.0, "bike_id": "f2f014038be6b33c7168aca54dc45e34", "is_disabled": 0, "is_reserved": 0}, {"rental_uris": {"ios": "https://dc.lft.to/lastmile_qr_scan", "android": "https://dc.lft.to/lastmile_qr_scan"}, "lon": -77.01948033333333, "type": "electric_scooter", "fusion_lat": 0.0, "lat": 38.924223833333336, "name": "f1199a2efb20d9c37776aada25b49b98", "fusion_lon": 0.0, "bike_id": "f1199a2efb20d9c37776aada25b49b98", "is_disabled": 0, "is_reserved": 0}, {"rental_uris": {"ios": "https://dc.lft.to/lastmile_qr_scan", "android": "https://dc.lft.to/lastmile_qr_scan"}, "lon": -77.03220066666667, "type": "electric_scooter", "fusion_lat": 0.0, "lat": 38.89225583333333, "name": "c50cf5db812f37b4a2bf945221126374", "fusion_lon": 0.0, "bike_id": "c50cf5db812f37b4a2bf945221126374", "is_disabled": 0, "is_reserved": 0}, {"rental_uris": {"ios": "https://dc.lft.to/lastmile_qr_scan", "android": "https://dc.lft.to/lastmile_qr_scan"}, "lon": -77.05006216666666, "type": "electric_scooter", "fusion_lat": 0.0, "lat": 38.901159166666666, "name": "ce3614095acb98c7b896237be776e654", "fusion_lon": 0.0, "bike_id": "ce3614095acb98c7b896237be776e654", "is_disabled": 0, "is_reserved": 0}, {"rental_uris": {"ios": "https://dc.lft.to/lastmile_qr_scan", "android": "https://dc.lft.to/lastmile_qr_scan"}, "lon": -77.03211666666667, "type": "electric_scooter", "fusion_lat": 0.0, "lat": 38.92584083333333, "name": "6c099a45532d2697af74455463abb58c", "fusion_lon": 0.0, "bike_id": "6c099a45532d2697af74455463abb58c", "is_disabled": 0, "is_reserved": 0}, {"rental_uris": {"ios": "https://dc.lft.to/lastmile_qr_scan", "android": "https://dc.lft.to/lastmile_qr_scan"}, "lon": -77.00372933333334, "type": "electric_scooter", "fusion_lat": 0.0, "lat": 38.87664816666667, "name": "f74e59cf07baa9f17b64d2268cd3bea2", "fusion_lon": 0.0, "bike_id": "f74e59cf07baa9f17b64d2268cd3bea2", "is_disabled": 0, "is_reserved": 0}, {"rental_uris": {"ios": "https://dc.lft.to/lastmile_qr_scan", "android": "https://dc.lft.to/lastmile_qr_scan"}, "lon": -76.94894516666666, "type": "electric_scooter", "fusion_lat": 0.0, "lat": 38.89532333333333, "name": "788ae54771ffa2f64f7ad12615673912", "fusion_lon": 0.0, "bike_id": "788ae54771ffa2f64f7ad12615673912", "is_disabled": 0, "is_reserved": 0}, {"rental_uris": {"ios": "https://dc.lft.to/lastmile_qr_scan", "android": "https://dc.lft.to/lastmile_qr_scan"}, "lon": -77.009811, "type": "electric_scooter", "fusion_lat": 0.0, "lat": 38.896055833333335, "name": "4147128c795c6217e4e27bc48920808c", "fusion_lon": 0.0, "bike_id": "4147128c795c6217e4e27bc48920808c", "is_disabled": 0, "is_reserved": 0}, {"rental_uris": {"ios": "https://dc.lft.to/lastmile_qr_scan", "android": "https://dc.lft.to/lastmile_qr_scan"}, "lon": -77.001924, "type": "electric_scooter", "fusion_lat": 0.0, "lat": 38.900627, "name": "cc18fe7fc59a2279e84f2f618c0cb3e8", "fusion_lon": 0.0, "bike_id": "cc18fe7fc59a2279e84f2f618c0cb3e8", "is_disabled": 0, "is_reserved": 0}, {"rental_uris": {"ios": "https://dc.lft.to/lastmile_qr_scan", "android": "https://dc.lft.to/lastmile_qr_scan"}, "lon": -77.03923016666667, "type": "electric_scooter", "fusion_lat": 0.0, "lat": 38.9184975, "name": "7f3f8e67ed9702c32014565382f5f445", "fusion_lon": 0.0, "bike_id": "7f3f8e67ed9702c32014565382f5f445", "is_disabled": 0, "is_reserved": 0}, {"rental_uris": {"ios": "https://dc.lft.to/lastmile_qr_scan", "android": "https://dc.lft.to/lastmile_qr_scan"}, "lon": -77.00673933333333, "type": "electric_bike", "fusion_lat": 0.0, "lat": 38.945049, "name": "948e32c7715a16bfd3bad21e47ec1e07", "fusion_lon": 0.0, "bike_id": "948e32c7715a16bfd3bad21e47ec1e07", "is_disabled": 0, "is_reserved": 0}, {"rental_uris": {"ios": "https://dc.lft.to/lastmile_qr_scan", "android": "https://dc.lft.to/lastmile_qr_scan"}, "lon": -77.03564366666667, "type": "electric_scooter", "fusion_lat": 0.0, "lat": 38.91813766666667, "name": "6fcf34c3452416c4684944a84236cbd0", "fusion_lon": 0.0, "bike_id": "6fcf34c3452416c4684944a84236cbd0", "is_disabled": 0, "is_reserved": 0}, {"rental_uris": {"ios": "https://dc.lft.to/lastmile_qr_scan", "android": "https://dc.lft.to/lastmile_qr_scan"}, "lon": -77.069495, "type": "electric_bike", "fusion_lat": 0.0, "lat": 38.99048583333333, "name": "9056ede838da520ad7cb5e2433bfe8db", "fusion_lon": 0.0, "bike_id": "9056ede838da520ad7cb5e2433bfe8db", "is_disabled": 0, "is_reserved": 0}, {"rental_uris": {"ios": "https://dc.lft.to/lastmile_qr_scan", "android": "https://dc.lft.to/lastmile_qr_scan"}, "lon": -77.03282116666666, "type": "electric_scooter", "fusion_lat": 0.0, "lat": 38.93775383333333, "name": "23b4a8388a96fe350ca4b71f390280e2", "fusion_lon": 0.0, "bike_id": "23b4a8388a96fe350ca4b71f390280e2", "is_disabled": 0, "is_reserved": 0}, {"rental_uris": {"ios": "https://dc.lft.to/lastmile_qr_scan", "android": "https://dc.lft.to/lastmile_qr_scan"}, "lon": -77.00711366666667, "type": "electric_scooter", "fusion_lat": 0.0, "lat": 38.884964833333335, "name": "23aa34c7a9d2925f5299e72c7800524b", "fusion_lon": 0.0, "bike_id": "23aa34c7a9d2925f5299e72c7800524b", "is_disabled": 0, "is_reserved": 0}, {"rental_uris": {"ios": "https://dc.lft.to/lastmile_qr_scan", "android": "https://dc.lft.to/lastmile_qr_scan"}, "lon": -77.03345933333334, "type": "electric_scooter", "fusion_lat": 0.0, "lat": 38.8973215, "name": "679f1833a7f8f3718caecdee53ae578c", "fusion_lon": 0.0, "bike_id": "679f1833a7f8f3718caecdee53ae578c", "is_disabled": 0, "is_reserved": 0}, {"rental_uris": {"ios": "https://dc.lft.to/lastmile_qr_scan", "android": "https://dc.lft.to/lastmile_qr_scan"}, "lon": -77.0588255, "type": "electric_scooter", "fusion_lat": 0.0, "lat": 38.936394, "name": "a1bb0d994d8936f8e5d3462a111c44b6", "fusion_lon": 0.0, "bike_id": "a1bb0d994d8936f8e5d3462a111c44b6", "is_disabled": 0, "is_reserved": 0}, {"rental_uris": {"ios": "https://dc.lft.to/lastmile_qr_scan", "android": "https://dc.lft.to/lastmile_qr_scan"}, "lon": -77.021567, "type": "electric_scooter", "fusion_lat": 0.0, "lat": 38.9260845, "name": "05aeb89530d289adfe197e3f0b456f82", "fusion_lon": 0.0, "bike_id": "05aeb89530d289adfe197e3f0b456f82", "is_disabled": 0, "is_reserved": 0}, {"rental_uris": {"ios": "https://dc.lft.to/lastmile_qr_scan", "android": "https://dc.lft.to/lastmile_qr_scan"}, "lon": -77.030808, "type": "electric_scooter", "fusion_lat": 0.0, "lat": 38.902845, "name": "f33155b1e9f769b0857cd4f85878ceff", "fusion_lon": 0.0, "bike_id": "f33155b1e9f769b0857cd4f85878ceff", "is_disabled": 0, "is_reserved": 0}, {"rental_uris": {"ios": "https://dc.lft.to/lastmile_qr_scan", "android": "https://dc.lft.to/lastmile_qr_scan"}, "lon": -77.02589183333333, "type": "electric_scooter", "fusion_lat": 0.0, "lat": 38.92040133333333, "name": "9f18b48f327992013b835dbdedca91c3", "fusion_lon": 0.0, "bike_id": "9f18b48f327992013b835dbdedca91c3", "is_disabled": 0, "is_reserved": 0}, {"rental_uris": {"ios": "https://dc.lft.to/lastmile_qr_scan", "android": "https://dc.lft.to/lastmile_qr_scan"}, "lon": -77.03833733333333, "type": "electric_scooter", "fusion_lat": 0.0, "lat": 38.921794, "name": "0cc2f224d46e99d8bb2297aaa17cc93b", "fusion_lon": 0.0, "bike_id": "0cc2f224d46e99d8bb2297aaa17cc93b", "is_disabled": 0, "is_reserved": 0}, {"rental_uris": {"ios": "https://dc.lft.to/lastmile_qr_scan", "android": "https://dc.lft.to/lastmile_qr_scan"}, "lon": -76.99022916666667, "type": "electric_bike", "fusion_lat": 0.0, "lat": 38.87873033333334, "name": "ab7e7d0d8b6ac07d2b2454eccb043812", "fusion_lon": 0.0, "bike_id": "ab7e7d0d8b6ac07d2b2454eccb043812", "is_disabled": 0, "is_reserved": 0}, {"rental_uris": {"ios": "https://dc.lft.to/lastmile_qr_scan", "android": "https://dc.lft.to/lastmile_qr_scan"}, "lon": -77.037903, "type": "electric_scooter", "fusion_lat": 0.0, "lat": 38.92631466666667, "name": "7270fa341831e5f5a99fc60b883d1c9a", "fusion_lon": 0.0, "bike_id": "7270fa341831e5f5a99fc60b883d1c9a", "is_disabled": 0, "is_reserved": 0}, {"rental_uris": {"ios": "https://dc.lft.to/lastmile_qr_scan", "android": "https://dc.lft.to/lastmile_qr_scan"}, "lon": -76.95764983333333, "type": "electric_bike", "fusion_lat": 0.0, "lat": 38.88420266666667, "name": "bbbafd32857789f3f11be4cc6980827b", "fusion_lon": 0.0, "bike_id": "bbbafd32857789f3f11be4cc6980827b", "is_disabled": 0, "is_reserved": 0}, {"rental_uris": {"ios": "https://dc.lft.to/lastmile_qr_scan", "android": "https://dc.lft.to/lastmile_qr_scan"}, "lon": -76.97749583333334, "type": "electric_scooter", "fusion_lat": 0.0, "lat": 38.900134666666666, "name": "5003192a5c0b53cd8db724ebe2d8b212", "fusion_lon": 0.0, "bike_id": "5003192a5c0b53cd8db724ebe2d8b212", "is_disabled": 0, "is_reserved": 0}, {"rental_uris": {"ios": "https://dc.lft.to/lastmile_qr_scan", "android": "https://dc.lft.to/lastmile_qr_scan"}, "lon": -76.87823866666666, "type": "electric_bike", "fusion_lat": 0.0, "lat": 38.992328, "name": "fe542b50e754dd2d2f58d5a3e4a985c1", "fusion_lon": 0.0, "bike_id": "fe542b50e754dd2d2f58d5a3e4a985c1", "is_disabled": 0, "is_reserved": 0}, {"rental_uris": {"ios": "https://dc.lft.to/lastmile_qr_scan", "android": "https://dc.lft.to/lastmile_qr_scan"}, "lon": -77.02043033333334, "type": "electric_scooter", "fusion_lat": 0.0, "lat": 38.901866, "name": "7763aabfd933f5534b83435ccd1999fe", "fusion_lon": 0.0, "bike_id": "7763aabfd933f5534b83435ccd1999fe", "is_disabled": 0, "is_reserved": 0}, {"rental_uris": {"ios": "https://dc.lft.to/lastmile_qr_scan", "android": "https://dc.lft.to/lastmile_qr_scan"}, "lon": -77.1072965, "type": "electric_bike", "fusion_lat": 0.0, "lat": 38.8555305, "name": "8d4dd9f55e36e2741472cd511b134715", "fusion_lon": 0.0, "bike_id": "8d4dd9f55e36e2741472cd511b134715", "is_disabled": 0, "is_reserved": 0}, {"rental_uris": {"ios": "https://dc.lft.to/lastmile_qr_scan", "android": "https://dc.lft.to/lastmile_qr_scan"}, "lon": -76.946382, "type": "electric_scooter", "fusion_lat": 0.0, "lat": 38.898391, "name": "25a6a0e9211c8857040644ae24c329fd", "fusion_lon": 0.0, "bike_id": "25a6a0e9211c8857040644ae24c329fd", "is_disabled": 0, "is_reserved": 0}, {"rental_uris": {"ios": "https://dc.lft.to/lastmile_qr_scan", "android": "https://dc.lft.to/lastmile_qr_scan"}, "lon": -76.97618733333333, "type": "electric_scooter", "fusion_lat": 0.0, "lat": 38.903865333333336, "name": "63aa912c4d9e3cb2b46b195d613693f7", "fusion_lon": 0.0, "bike_id": "63aa912c4d9e3cb2b46b195d613693f7", "is_disabled": 0, "is_reserved": 0}, {"rental_uris": {"ios": "https://dc.lft.to/lastmile_qr_scan", "android": "https://dc.lft.to/lastmile_qr_scan"}, "lon": -77.02606433333334, "type": "electric_scooter", "fusion_lat": 0.0, "lat": 38.907612, "name": "32a8ce1b039c2c943f1e1349d1d62ba6", "fusion_lon": 0.0, "bike_id": "32a8ce1b039c2c943f1e1349d1d62ba6", "is_disabled": 0, "is_reserved": 0}, {"rental_uris": {"ios": "https://dc.lft.to/lastmile_qr_scan", "android": "https://dc.lft.to/lastmile_qr_scan"}, "lon": -77.055192, "type": "electric_scooter", "fusion_lat": 0.0, "lat": 38.9284675, "name": "3548b43c93efba3a24be0ee5fc0e1dfe", "fusion_lon": 0.0, "bike_id": "3548b43c93efba3a24be0ee5fc0e1dfe", "is_disabled": 0, "is_reserved": 0}, {"rental_uris": {"ios": "https://dc.lft.to/lastmile_qr_scan", "android": "https://dc.lft.to/lastmile_qr_scan"}, "lon": -77.05919866666666, "type": "electric_scooter", "fusion_lat": 0.0, "lat": 38.9008685, "name": "91dbf1c44ac8fe5c34830146f5b626d7", "fusion_lon": 0.0, "bike_id": "91dbf1c44ac8fe5c34830146f5b626d7", "is_disabled": 0, "is_reserved": 0}, {"rental_uris": {"ios": "https://dc.lft.to/lastmile_qr_scan", "android": "https://dc.lft.to/lastmile_qr_scan"}, "lon": -77.0440245, "type": "electric_scooter", "fusion_lat": 0.0, "lat": 38.905932666666665, "name": "e74fe824cb858a6c437f2afc9787f9b3", "fusion_lon": 0.0, "bike_id": "e74fe824cb858a6c437f2afc9787f9b3", "is_disabled": 0, "is_reserved": 0}, {"rental_uris": {"ios": "https://dc.lft.to/lastmile_qr_scan", "android": "https://dc.lft.to/lastmile_qr_scan"}, "lon": -77.0326775, "type": "electric_scooter", "fusion_lat": 0.0, "lat": 38.9345215, "name": "689253f18d0efcc10478b104d3f18b5c", "fusion_lon": 0.0, "bike_id": "689253f18d0efcc10478b104d3f18b5c", "is_disabled": 0, "is_reserved": 0}, {"rental_uris": {"ios": "https://dc.lft.to/lastmile_qr_scan", "android": "https://dc.lft.to/lastmile_qr_scan"}, "lon": -77.02031116666667, "type": "electric_scooter", "fusion_lat": 0.0, "lat": 38.91552433333333, "name": "f9b4c0e3d64f1b16e8ed01ae88cab32c", "fusion_lon": 0.0, "bike_id": "f9b4c0e3d64f1b16e8ed01ae88cab32c", "is_disabled": 0, "is_reserved": 0}, {"rental_uris": {"ios": "https://dc.lft.to/lastmile_qr_scan", "android": "https://dc.lft.to/lastmile_qr_scan"}, "lon": -77.03208866666667, "type": "electric_scooter", "fusion_lat": 0.0, "lat": 38.91103583333334, "name": "fb60030a999f466fd05c552270ad8948", "fusion_lon": 0.0, "bike_id": "fb60030a999f466fd05c552270ad8948", "is_disabled": 0, "is_reserved": 0}, {"rental_uris": {"ios": "https://dc.lft.to/lastmile_qr_scan", "android": "https://dc.lft.to/lastmile_qr_scan"}, "lon": -77.03803083333334, "type": "electric_scooter", "fusion_lat": 0.0, "lat": 38.912261, "name": "77679bbf962d557c0e4837e3203ce468", "fusion_lon": 0.0, "bike_id": "77679bbf962d557c0e4837e3203ce468", "is_disabled": 0, "is_reserved": 0}, {"rental_uris": {"ios": "https://dc.lft.to/lastmile_qr_scan", "android": "https://dc.lft.to/lastmile_qr_scan"}, "lon": -77.043368, "type": "electric_scooter", "fusion_lat": 0.0, "lat": 38.89664583333333, "name": "d7b5c72d4d02256c731c46f31b191c74", "fusion_lon": 0.0, "bike_id": "d7b5c72d4d02256c731c46f31b191c74", "is_disabled": 0, "is_reserved": 0}, {"rental_uris": {"ios": "https://dc.lft.to/lastmile_qr_scan", "android": "https://dc.lft.to/lastmile_qr_scan"}, "lon": -77.02206816666667, "type": "electric_scooter", "fusion_lat": 0.0, "lat": 38.892549333333335, "name": "0e976ad40d323174e1ecc0f22889710b", "fusion_lon": 0.0, "bike_id": "0e976ad40d323174e1ecc0f22889710b", "is_disabled": 0, "is_reserved": 0}, {"rental_uris": {"ios": "https://dc.lft.to/lastmile_qr_scan", "android": "https://dc.lft.to/lastmile_qr_scan"}, "lon": -77.01224, "type": "electric_scooter", "fusion_lat": 0.0, "lat": 38.92039883333333, "name": "ca12c7806f7d0f165dae211207025d53", "fusion_lon": 0.0, "bike_id": "ca12c7806f7d0f165dae211207025d53", "is_disabled": 0, "is_reserved": 0}, {"rental_uris": {"ios": "https://dc.lft.to/lastmile_qr_scan", "android": "https://dc.lft.to/lastmile_qr_scan"}, "lon": -77.00203783333333, "type": "electric_scooter", "fusion_lat": 0.0, "lat": 38.900598333333335, "name": "0bbe205eb129cfac4e9afd5c6df3b28f", "fusion_lon": 0.0, "bike_id": "0bbe205eb129cfac4e9afd5c6df3b28f", "is_disabled": 0, "is_reserved": 0}, {"rental_uris": {"ios": "https://dc.lft.to/lastmile_qr_scan", "android": "https://dc.lft.to/lastmile_qr_scan"}, "lon": -77.04038116666666, "type": "electric_scooter", "fusion_lat": 0.0, "lat": 38.92432433333333, "name": "05929be5463de2ecdfd66d303b5716c0", "fusion_lon": 0.0, "bike_id": "05929be5463de2ecdfd66d303b5716c0", "is_disabled": 0, "is_reserved": 0}, {"rental_uris": {"ios": "https://dc.lft.to/lastmile_qr_scan", "android": "https://dc.lft.to/lastmile_qr_scan"}, "lon": -77.038393, "type": "electric_scooter", "fusion_lat": 0.0, "lat": 38.90678316666666, "name": "be14aa1482b521e089675081ad1f98fc", "fusion_lon": 0.0, "bike_id": "be14aa1482b521e089675081ad1f98fc", "is_disabled": 0, "is_reserved": 0}, {"rental_uris": {"ios": "https://dc.lft.to/lastmile_qr_scan", "android": "https://dc.lft.to/lastmile_qr_scan"}, "lon": -77.06379983333333, "type": "electric_scooter", "fusion_lat": 0.0, "lat": 38.90837766666667, "name": "78478186e90f80a40c14a51d09c423d3", "fusion_lon": 0.0, "bike_id": "78478186e90f80a40c14a51d09c423d3", "is_disabled": 0, "is_reserved": 0}, {"rental_uris": {"ios": "https://dc.lft.to/lastmile_qr_scan", "android": "https://dc.lft.to/lastmile_qr_scan"}, "lon": -77.02966016666667, "type": "electric_scooter", "fusion_lat": 0.0, "lat": 38.898425833333334, "name": "533548d3f3eb05875e49b5f26d90a3b9", "fusion_lon": 0.0, "bike_id": "533548d3f3eb05875e49b5f26d90a3b9", "is_disabled": 0, "is_reserved": 0}, {"rental_uris": {"ios": "https://dc.lft.to/lastmile_qr_scan", "android": "https://dc.lft.to/lastmile_qr_scan"}, "lon": -77.03958616666667, "type": "electric_scooter", "fusion_lat": 0.0, "lat": 38.892537, "name": "8e5c6ea79a259ce48546fbd150615c9d", "fusion_lon": 0.0, "bike_id": "8e5c6ea79a259ce48546fbd150615c9d", "is_disabled": 0, "is_reserved": 0}, {"rental_uris": {"ios": "https://dc.lft.to/lastmile_qr_scan", "android": "https://dc.lft.to/lastmile_qr_scan"}, "lon": -77.04023733333334, "type": "electric_scooter", "fusion_lat": 0.0, "lat": 38.92449283333333, "name": "3b4e6224d77b24b25a4909be700df87e", "fusion_lon": 0.0, "bike_id": "3b4e6224d77b24b25a4909be700df87e", "is_disabled": 0, "is_reserved": 0}, {"rental_uris": {"ios": "https://dc.lft.to/lastmile_qr_scan", "android": "https://dc.lft.to/lastmile_qr_scan"}, "lon": -77.01938266666667, "type": "electric_scooter", "fusion_lat": 0.0, "lat": 38.94935383333333, "name": "4e3fee1979563600c441509e0dea2b65", "fusion_lon": 0.0, "bike_id": "4e3fee1979563600c441509e0dea2b65", "is_disabled": 0, "is_reserved": 0}, {"rental_uris": {"ios": "https://dc.lft.to/lastmile_qr_scan", "android": "https://dc.lft.to/lastmile_qr_scan"}, "lon": -77.031425, "type": "electric_scooter", "fusion_lat": 0.0, "lat": 38.92476766666667, "name": "2b5e0bafff97d7c57b7a746b5928a619", "fusion_lon": 0.0, "bike_id": "2b5e0bafff97d7c57b7a746b5928a619", "is_disabled": 0, "is_reserved": 0}, {"rental_uris": {"ios": "https://dc.lft.to/lastmile_qr_scan", "android": "https://dc.lft.to/lastmile_qr_scan"}, "lon": -76.957629, "type": "electric_scooter", "fusion_lat": 0.0, "lat": 38.884323, "name": "98effec4a9b4bf3fbc108c37b4e46592", "fusion_lon": 0.0, "bike_id": "98effec4a9b4bf3fbc108c37b4e46592", "is_disabled": 0, "is_reserved": 0}, {"rental_uris": {"ios": "https://dc.lft.to/lastmile_qr_scan", "android": "https://dc.lft.to/lastmile_qr_scan"}, "lon": -76.98327583333334, "type": "electric_scooter", "fusion_lat": 0.0, "lat": 38.8616775, "name": "186242885c7c2393b6525778238f75b1", "fusion_lon": 0.0, "bike_id": "186242885c7c2393b6525778238f75b1", "is_disabled": 0, "is_reserved": 0}, {"rental_uris": {"ios": "https://dc.lft.to/lastmile_qr_scan", "android": "https://dc.lft.to/lastmile_qr_scan"}, "lon": -77.0351875, "type": "electric_scooter", "fusion_lat": 0.0, "lat": 38.91842283333333, "name": "79a04a1d486a93666412a27ef8cad235", "fusion_lon": 0.0, "bike_id": "79a04a1d486a93666412a27ef8cad235", "is_disabled": 0, "is_reserved": 0}, {"rental_uris": {"ios": "https://dc.lft.to/lastmile_qr_scan", "android": "https://dc.lft.to/lastmile_qr_scan"}, "lon": -77.04189283333334, "type": "electric_scooter", "fusion_lat": 0.0, "lat": 38.90355616666667, "name": "9d4096a40096ee5925a40e04a9cae9f6", "fusion_lon": 0.0, "bike_id": "9d4096a40096ee5925a40e04a9cae9f6", "is_disabled": 0, "is_reserved": 0}, {"rental_uris": {"ios": "https://dc.lft.to/lastmile_qr_scan", "android": "https://dc.lft.to/lastmile_qr_scan"}, "lon": -77.04208216666666, "type": "electric_scooter", "fusion_lat": 0.0, "lat": 38.905669333333336, "name": "0d806a105137f749425d40e7ce6fc2ef", "fusion_lon": 0.0, "bike_id": "0d806a105137f749425d40e7ce6fc2ef", "is_disabled": 0, "is_reserved": 0}, {"rental_uris": {"ios": "https://dc.lft.to/lastmile_qr_scan", "android": "https://dc.lft.to/lastmile_qr_scan"}, "lon": -76.99508283333333, "type": "electric_scooter", "fusion_lat": 0.0, "lat": 38.881833666666665, "name": "09d00d76cac016bd741a35a19858f662", "fusion_lon": 0.0, "bike_id": "09d00d76cac016bd741a35a19858f662", "is_disabled": 0, "is_reserved": 0}, {"rental_uris": {"ios": "https://dc.lft.to/lastmile_qr_scan", "android": "https://dc.lft.to/lastmile_qr_scan"}, "lon": -77.02999066666666, "type": "electric_scooter", "fusion_lat": 0.0, "lat": 38.910238666666665, "name": "3c9e27b7e77cc4c9894deb5ac9613546", "fusion_lon": 0.0, "bike_id": "3c9e27b7e77cc4c9894deb5ac9613546", "is_disabled": 0, "is_reserved": 0}, {"rental_uris": {"ios": "https://dc.lft.to/lastmile_qr_scan", "android": "https://dc.lft.to/lastmile_qr_scan"}, "lon": -77.0140835, "type": "electric_scooter", "fusion_lat": 0.0, "lat": 38.928450166666664, "name": "4d537a585ec5a56f996aa24ccf578a2f", "fusion_lon": 0.0, "bike_id": "4d537a585ec5a56f996aa24ccf578a2f", "is_disabled": 0, "is_reserved": 0}, {"rental_uris": {"ios": "https://dc.lft.to/lastmile_qr_scan", "android": "https://dc.lft.to/lastmile_qr_scan"}, "lon": -77.03189183333333, "type": "electric_scooter", "fusion_lat": 0.0, "lat": 38.910047, "name": "55a0b50abe4faf77e90db717f1275941", "fusion_lon": 0.0, "bike_id": "55a0b50abe4faf77e90db717f1275941", "is_disabled": 0, "is_reserved": 0}, {"rental_uris": {"ios": "https://dc.lft.to/lastmile_qr_scan", "android": "https://dc.lft.to/lastmile_qr_scan"}, "lon": -77.15271316666667, "type": "electric_bike", "fusion_lat": 0.0, "lat": 39.10569266666667, "name": "5676e2a27ecc26b5d2bcab55c666ffb7", "fusion_lon": 0.0, "bike_id": "5676e2a27ecc26b5d2bcab55c666ffb7", "is_disabled": 0, "is_reserved": 0}, {"rental_uris": {"ios": "https://dc.lft.to/lastmile_qr_scan", "android": "https://dc.lft.to/lastmile_qr_scan"}, "lon": -77.09208233333334, "type": "electric_scooter", "fusion_lat": 0.0, "lat": 38.917209, "name": "f408fbd967cc61b9c98e5cf51809c647", "fusion_lon": 0.0, "bike_id": "f408fbd967cc61b9c98e5cf51809c647", "is_disabled": 0, "is_reserved": 0}, {"rental_uris": {"ios": "https://dc.lft.to/lastmile_qr_scan", "android": "https://dc.lft.to/lastmile_qr_scan"}, "lon": -77.03832016666667, "type": "electric_scooter", "fusion_lat": 0.0, "lat": 38.90253283333333, "name": "c0a51d815e373535d7d8087b64bd5931", "fusion_lon": 0.0, "bike_id": "c0a51d815e373535d7d8087b64bd5931", "is_disabled": 0, "is_reserved": 0}, {"rental_uris": {"ios": "https://dc.lft.to/lastmile_qr_scan", "android": "https://dc.lft.to/lastmile_qr_scan"}, "lon": -77.01439966666666, "type": "electric_scooter", "fusion_lat": 0.0, "lat": 38.92993416666667, "name": "293840a0f956224528a97f5f68f78107", "fusion_lon": 0.0, "bike_id": "293840a0f956224528a97f5f68f78107", "is_disabled": 0, "is_reserved": 0}, {"rental_uris": {"ios": "https://dc.lft.to/lastmile_qr_scan", "android": "https://dc.lft.to/lastmile_qr_scan"}, "lon": -77.02694616666666, "type": "electric_scooter", "fusion_lat": 0.0, "lat": 38.906898, "name": "1610ab19f0e2901a136128baa5f48bcd", "fusion_lon": 0.0, "bike_id": "1610ab19f0e2901a136128baa5f48bcd", "is_disabled": 0, "is_reserved": 0}, {"rental_uris": {"ios": "https://dc.lft.to/lastmile_qr_scan", "android": "https://dc.lft.to/lastmile_qr_scan"}, "lon": -77.064627, "type": "electric_scooter", "fusion_lat": 0.0, "lat": 38.91051383333333, "name": "4286b6023154bae4938f6c4e0f0bc86d", "fusion_lon": 0.0, "bike_id": "4286b6023154bae4938f6c4e0f0bc86d", "is_disabled": 0, "is_reserved": 0}, {"rental_uris": {"ios": "https://dc.lft.to/lastmile_qr_scan", "android": "https://dc.lft.to/lastmile_qr_scan"}, "lon": -77.03463533333333, "type": "electric_scooter", "fusion_lat": 0.0, "lat": 38.91844833333333, "name": "3e02ad0696588f469e0b8ca1400c5d50", "fusion_lon": 0.0, "bike_id": "3e02ad0696588f469e0b8ca1400c5d50", "is_disabled": 0, "is_reserved": 0}, {"rental_uris": {"ios": "https://dc.lft.to/lastmile_qr_scan", "android": "https://dc.lft.to/lastmile_qr_scan"}, "lon": -77.01590233333333, "type": "electric_scooter", "fusion_lat": 0.0, "lat": 38.95713033333333, "name": "44487780f40833cbcb808c4715d784fd", "fusion_lon": 0.0, "bike_id": "44487780f40833cbcb808c4715d784fd", "is_disabled": 0, "is_reserved": 0}, {"rental_uris": {"ios": "https://dc.lft.to/lastmile_qr_scan", "android": "https://dc.lft.to/lastmile_qr_scan"}, "lon": -77.02838133333333, "type": "electric_scooter", "fusion_lat": 0.0, "lat": 38.88771366666667, "name": "97342f009355b4d685bbe7b4c0000821", "fusion_lon": 0.0, "bike_id": "97342f009355b4d685bbe7b4c0000821", "is_disabled": 0, "is_reserved": 0}, {"rental_uris": {"ios": "https://dc.lft.to/lastmile_qr_scan", "android": "https://dc.lft.to/lastmile_qr_scan"}, "lon": -77.03660316666667, "type": "electric_scooter", "fusion_lat": 0.0, "lat": 38.91731266666667, "name": "6710ff41dffdb82338ad80c83ffc9143", "fusion_lon": 0.0, "bike_id": "6710ff41dffdb82338ad80c83ffc9143", "is_disabled": 0, "is_reserved": 0}, {"rental_uris": {"ios": "https://dc.lft.to/lastmile_qr_scan", "android": "https://dc.lft.to/lastmile_qr_scan"}, "lon": -77.032675, "type": "electric_scooter", "fusion_lat": 0.0, "lat": 38.9382555, "name": "8cd64bf4770705ae9a7726201b1b4203", "fusion_lon": 0.0, "bike_id": "8cd64bf4770705ae9a7726201b1b4203", "is_disabled": 0, "is_reserved": 0}, {"rental_uris": {"ios": "https://dc.lft.to/lastmile_qr_scan", "android": "https://dc.lft.to/lastmile_qr_scan"}, "lon": -76.99855983333333, "type": "electric_scooter", "fusion_lat": 0.0, "lat": 38.8949875, "name": "206b6f14b63f987f30cc204e67504de4", "fusion_lon": 0.0, "bike_id": "206b6f14b63f987f30cc204e67504de4", "is_disabled": 0, "is_reserved": 0}, {"rental_uris": {"ios": "https://dc.lft.to/lastmile_qr_scan", "android": "https://dc.lft.to/lastmile_qr_scan"}, "lon": -77.00263183333334, "type": "electric_scooter", "fusion_lat": 0.0, "lat": 38.89898066666667, "name": "39f2bfd26b15937423df76516524d436", "fusion_lon": 0.0, "bike_id": "39f2bfd26b15937423df76516524d436", "is_disabled": 0, "is_reserved": 0}, {"rental_uris": {"ios": "https://dc.lft.to/lastmile_qr_scan", "android": "https://dc.lft.to/lastmile_qr_scan"}, "lon": -77.006728, "type": "electric_scooter", "fusion_lat": 0.0, "lat": 38.9072315, "name": "4ef47e7b128adfe61afbc44dd806f155", "fusion_lon": 0.0, "bike_id": "4ef47e7b128adfe61afbc44dd806f155", "is_disabled": 0, "is_reserved": 0}, {"rental_uris": {"ios": "https://dc.lft.to/lastmile_qr_scan", "android": "https://dc.lft.to/lastmile_qr_scan"}, "lon": -77.04488283333333, "type": "electric_scooter", "fusion_lat": 0.0, "lat": 38.90327666666666, "name": "09e45296dc96b40b78bef71e83b43f72", "fusion_lon": 0.0, "bike_id": "09e45296dc96b40b78bef71e83b43f72", "is_disabled": 0, "is_reserved": 0}, {"rental_uris": {"ios": "https://dc.lft.to/lastmile_qr_scan", "android": "https://dc.lft.to/lastmile_qr_scan"}, "lon": -77.02413883333334, "type": "electric_scooter", "fusion_lat": 0.0, "lat": 38.9171205, "name": "ee36e80edcf8d3fe5bde95a50b83297c", "fusion_lon": 0.0, "bike_id": "ee36e80edcf8d3fe5bde95a50b83297c", "is_disabled": 0, "is_reserved": 0}, {"rental_uris": {"ios": "https://dc.lft.to/lastmile_qr_scan", "android": "https://dc.lft.to/lastmile_qr_scan"}, "lon": -77.020738, "type": "electric_scooter", "fusion_lat": 0.0, "lat": 38.9353205, "name": "62bc36d7d371e53e5aaf7b6d05046215", "fusion_lon": 0.0, "bike_id": "62bc36d7d371e53e5aaf7b6d05046215", "is_disabled": 0, "is_reserved": 0}, {"rental_uris": {"ios": "https://dc.lft.to/lastmile_qr_scan", "android": "https://dc.lft.to/lastmile_qr_scan"}, "lon": -77.04494516666666, "type": "electric_scooter", "fusion_lat": 0.0, "lat": 38.913161, "name": "535adbad3b1783f62c86079f39a85ad0", "fusion_lon": 0.0, "bike_id": "535adbad3b1783f62c86079f39a85ad0", "is_disabled": 0, "is_reserved": 0}, {"rental_uris": {"ios": "https://dc.lft.to/lastmile_qr_scan", "android": "https://dc.lft.to/lastmile_qr_scan"}, "lon": -77.0070755, "type": "electric_scooter", "fusion_lat": 0.0, "lat": 38.905623166666665, "name": "39353222ddf63ec492e010fa04de01d6", "fusion_lon": 0.0, "bike_id": "39353222ddf63ec492e010fa04de01d6", "is_disabled": 0, "is_reserved": 0}, {"rental_uris": {"ios": "https://dc.lft.to/lastmile_qr_scan", "android": "https://dc.lft.to/lastmile_qr_scan"}, "lon": -77.0283275, "type": "electric_scooter", "fusion_lat": 0.0, "lat": 38.92470983333333, "name": "0af0572180979088003c21516511f6fc", "fusion_lon": 0.0, "bike_id": "0af0572180979088003c21516511f6fc", "is_disabled": 0, "is_reserved": 0}, {"rental_uris": {"ios": "https://dc.lft.to/lastmile_qr_scan", "android": "https://dc.lft.to/lastmile_qr_scan"}, "lon": -77.01078433333333, "type": "electric_bike", "fusion_lat": 0.0, "lat": 38.956584, "name": "3109c279d4739f869b90d452f9b971fe", "fusion_lon": 0.0, "bike_id": "3109c279d4739f869b90d452f9b971fe", "is_disabled": 0, "is_reserved": 0}, {"rental_uris": {"ios": "https://dc.lft.to/lastmile_qr_scan", "android": "https://dc.lft.to/lastmile_qr_scan"}, "lon": -77.03921683333333, "type": "electric_scooter", "fusion_lat": 0.0, "lat": 38.8984935, "name": "df16c82a877a3de3a7c42ea13c59a249", "fusion_lon": 0.0, "bike_id": "df16c82a877a3de3a7c42ea13c59a249", "is_disabled": 0, "is_reserved": 0}, {"rental_uris": {"ios": "https://dc.lft.to/lastmile_qr_scan", "android": "https://dc.lft.to/lastmile_qr_scan"}, "lon": -77.032938, "type": "electric_scooter", "fusion_lat": 0.0, "lat": 38.92222066666667, "name": "2f8043736509d2d2a73b90e2ef5399d1", "fusion_lon": 0.0, "bike_id": "2f8043736509d2d2a73b90e2ef5399d1", "is_disabled": 0, "is_reserved": 0}, {"rental_uris": {"ios": "https://dc.lft.to/lastmile_qr_scan", "android": "https://dc.lft.to/lastmile_qr_scan"}, "lon": -77.02152333333333, "type": "electric_scooter", "fusion_lat": 0.0, "lat": 38.897507, "name": "13c226153bcd675fad0864be776e96d5", "fusion_lon": 0.0, "bike_id": "13c226153bcd675fad0864be776e96d5", "is_disabled": 0, "is_reserved": 0}, {"rental_uris": {"ios": "https://dc.lft.to/lastmile_qr_scan", "android": "https://dc.lft.to/lastmile_qr_scan"}, "lon": -77.02091833333333, "type": "electric_scooter", "fusion_lat": 0.0, "lat": 38.91009966666667, "name": "6a2dbefe304d25eef219829b227b0c73", "fusion_lon": 0.0, "bike_id": "6a2dbefe304d25eef219829b227b0c73", "is_disabled": 0, "is_reserved": 0}, {"rental_uris": {"ios": "https://dc.lft.to/lastmile_qr_scan", "android": "https://dc.lft.to/lastmile_qr_scan"}, "lon": -77.0220965, "type": "electric_scooter", "fusion_lat": 0.0, "lat": 38.892694, "name": "e1f51a14990daa2b359dffdadfcc378f", "fusion_lon": 0.0, "bike_id": "e1f51a14990daa2b359dffdadfcc378f", "is_disabled": 0, "is_reserved": 0}, {"rental_uris": {"ios": "https://dc.lft.to/lastmile_qr_scan", "android": "https://dc.lft.to/lastmile_qr_scan"}, "lon": -77.02998866666667, "type": "electric_scooter", "fusion_lat": 0.0, "lat": 38.92484783333333, "name": "b4ad4cd148868eba91d2ac9a12ac734a", "fusion_lon": 0.0, "bike_id": "b4ad4cd148868eba91d2ac9a12ac734a", "is_disabled": 0, "is_reserved": 0}, {"rental_uris": {"ios": "https://dc.lft.to/lastmile_qr_scan", "android": "https://dc.lft.to/lastmile_qr_scan"}, "lon": -77.03499933333333, "type": "electric_scooter", "fusion_lat": 0.0, "lat": 38.928682333333334, "name": "44a11136c64147263e588a300466ca3e", "fusion_lon": 0.0, "bike_id": "44a11136c64147263e588a300466ca3e", "is_disabled": 0, "is_reserved": 0}, {"rental_uris": {"ios": "https://dc.lft.to/lastmile_qr_scan", "android": "https://dc.lft.to/lastmile_qr_scan"}, "lon": -77.36096866666666, "type": "electric_bike", "fusion_lat": 0.0, "lat": 38.939606166666664, "name": "ff67adcff6e6b7725382fa26cea8d78f", "fusion_lon": 0.0, "bike_id": "ff67adcff6e6b7725382fa26cea8d78f", "is_disabled": 0, "is_reserved": 0}, {"rental_uris": {"ios": "https://dc.lft.to/lastmile_qr_scan", "android": "https://dc.lft.to/lastmile_qr_scan"}, "lon": -77.03352783333334, "type": "electric_scooter", "fusion_lat": 0.0, "lat": 38.895329, "name": "7d21dac5c643665933dcf06f1607e132", "fusion_lon": 0.0, "bike_id": "7d21dac5c643665933dcf06f1607e132", "is_disabled": 0, "is_reserved": 0}, {"rental_uris": {"ios": "https://dc.lft.to/lastmile_qr_scan", "android": "https://dc.lft.to/lastmile_qr_scan"}, "lon": -77.04083933333334, "type": "electric_scooter", "fusion_lat": 0.0, "lat": 38.907261166666665, "name": "62141e0eb2b694ab496038a55cdd6b1b", "fusion_lon": 0.0, "bike_id": "62141e0eb2b694ab496038a55cdd6b1b", "is_disabled": 0, "is_reserved": 0}, {"rental_uris": {"ios": "https://dc.lft.to/lastmile_qr_scan", "android": "https://dc.lft.to/lastmile_qr_scan"}, "lon": -76.97982983333333, "type": "electric_bike", "fusion_lat": 0.0, "lat": 38.87761366666667, "name": "b108a7168e1d8174f2f6380af458b059", "fusion_lon": 0.0, "bike_id": "b108a7168e1d8174f2f6380af458b059", "is_disabled": 0, "is_reserved": 0}, {"rental_uris": {"ios": "https://dc.lft.to/lastmile_qr_scan", "android": "https://dc.lft.to/lastmile_qr_scan"}, "lon": -77.01087966666667, "type": "electric_scooter", "fusion_lat": 0.0, "lat": 38.918135666666664, "name": "6511cbe1ac91d58e6a576c678cef72fa", "fusion_lon": 0.0, "bike_id": "6511cbe1ac91d58e6a576c678cef72fa", "is_disabled": 0, "is_reserved": 0}, {"rental_uris": {"ios": "https://dc.lft.to/lastmile_qr_scan", "android": "https://dc.lft.to/lastmile_qr_scan"}, "lon": -77.03938033333333, "type": "electric_scooter", "fusion_lat": 0.0, "lat": 38.8985555, "name": "133511924def8bc0ad2c242bd78fe033", "fusion_lon": 0.0, "bike_id": "133511924def8bc0ad2c242bd78fe033", "is_disabled": 0, "is_reserved": 0}, {"rental_uris": {"ios": "https://dc.lft.to/lastmile_qr_scan", "android": "https://dc.lft.to/lastmile_qr_scan"}, "lon": -77.03984683333333, "type": "electric_scooter", "fusion_lat": 0.0, "lat": 38.898938666666666, "name": "f339aec1e0b683a239705d2c00f04588", "fusion_lon": 0.0, "bike_id": "f339aec1e0b683a239705d2c00f04588", "is_disabled": 0, "is_reserved": 0}, {"rental_uris": {"ios": "https://dc.lft.to/lastmile_qr_scan", "android": "https://dc.lft.to/lastmile_qr_scan"}, "lon": -77.05517216666667, "type": "electric_scooter", "fusion_lat": 0.0, "lat": 38.9300505, "name": "9ddf5ee40b5ff50ffe78049a9c776974", "fusion_lon": 0.0, "bike_id": "9ddf5ee40b5ff50ffe78049a9c776974", "is_disabled": 0, "is_reserved": 0}, {"rental_uris": {"ios": "https://dc.lft.to/lastmile_qr_scan", "android": "https://dc.lft.to/lastmile_qr_scan"}, "lon": -77.044772, "type": "electric_scooter", "fusion_lat": 0.0, "lat": 38.9094285, "name": "ab4896761be2e23bf7e049be106cad7d", "fusion_lon": 0.0, "bike_id": "ab4896761be2e23bf7e049be106cad7d", "is_disabled": 0, "is_reserved": 0}, {"rental_uris": {"ios": "https://dc.lft.to/lastmile_qr_scan", "android": "https://dc.lft.to/lastmile_qr_scan"}, "lon": -77.01969433333333, "type": "electric_scooter", "fusion_lat": 0.0, "lat": 38.95657083333333, "name": "d2392b719d0d615a056811766d9f0517", "fusion_lon": 0.0, "bike_id": "d2392b719d0d615a056811766d9f0517", "is_disabled": 0, "is_reserved": 0}, {"rental_uris": {"ios": "https://dc.lft.to/lastmile_qr_scan", "android": "https://dc.lft.to/lastmile_qr_scan"}, "lon": -76.996033, "type": "electric_scooter", "fusion_lat": 0.0, "lat": 38.885493, "name": "0ff48c4c994143edd00604c3892f7160", "fusion_lon": 0.0, "bike_id": "0ff48c4c994143edd00604c3892f7160", "is_disabled": 0, "is_reserved": 0}, {"rental_uris": {"ios": "https://dc.lft.to/lastmile_qr_scan", "android": "https://dc.lft.to/lastmile_qr_scan"}, "lon": -77.033511, "type": "electric_scooter", "fusion_lat": 0.0, "lat": 38.895356, "name": "e107499963c112a9cbbb99269b183bd1", "fusion_lon": 0.0, "bike_id": "e107499963c112a9cbbb99269b183bd1", "is_disabled": 0, "is_reserved": 0}, {"rental_uris": {"ios": "https://dc.lft.to/lastmile_qr_scan", "android": "https://dc.lft.to/lastmile_qr_scan"}, "lon": -77.0059255, "type": "electric_scooter", "fusion_lat": 0.0, "lat": 38.844998833333335, "name": "25bcb26511aa65873614d505661d9915", "fusion_lon": 0.0, "bike_id": "25bcb26511aa65873614d505661d9915", "is_disabled": 0, "is_reserved": 0}, {"rental_uris": {"ios": "https://dc.lft.to/lastmile_qr_scan", "android": "https://dc.lft.to/lastmile_qr_scan"}, "lon": -77.02969766666666, "type": "electric_scooter", "fusion_lat": 0.0, "lat": 38.91720766666667, "name": "227351616b2f72c7c4536d5fac2a38e8", "fusion_lon": 0.0, "bike_id": "227351616b2f72c7c4536d5fac2a38e8", "is_disabled": 0, "is_reserved": 0}, {"rental_uris": {"ios": "https://dc.lft.to/lastmile_qr_scan", "android": "https://dc.lft.to/lastmile_qr_scan"}, "lon": -77.0433475, "type": "electric_scooter", "fusion_lat": 0.0, "lat": 38.896562333333335, "name": "7ed7d06f32749d339edf158f4167c93a", "fusion_lon": 0.0, "bike_id": "7ed7d06f32749d339edf158f4167c93a", "is_disabled": 0, "is_reserved": 0}, {"rental_uris": {"ios": "https://dc.lft.to/lastmile_qr_scan", "android": "https://dc.lft.to/lastmile_qr_scan"}, "lon": -77.04375866666666, "type": "electric_scooter", "fusion_lat": 0.0, "lat": 38.91799366666667, "name": "d9b3a157b84cb76e4a8ad2f65a567942", "fusion_lon": 0.0, "bike_id": "d9b3a157b84cb76e4a8ad2f65a567942", "is_disabled": 0, "is_reserved": 0}, {"rental_uris": {"ios": "https://dc.lft.to/lastmile_qr_scan", "android": "https://dc.lft.to/lastmile_qr_scan"}, "lon": -77.04362883333333, "type": "electric_scooter", "fusion_lat": 0.0, "lat": 38.892228, "name": "cf1b804c692b4516744947427cd2829a", "fusion_lon": 0.0, "bike_id": "cf1b804c692b4516744947427cd2829a", "is_disabled": 0, "is_reserved": 0}, {"rental_uris": {"ios": "https://dc.lft.to/lastmile_qr_scan", "android": "https://dc.lft.to/lastmile_qr_scan"}, "lon": -77.03559783333333, "type": "electric_bike", "fusion_lat": 0.0, "lat": 38.964749166666664, "name": "fbb016f8c8a14dc33e7ff6190c43566e", "fusion_lon": 0.0, "bike_id": "fbb016f8c8a14dc33e7ff6190c43566e", "is_disabled": 0, "is_reserved": 0}, {"rental_uris": {"ios": "https://dc.lft.to/lastmile_qr_scan", "android": "https://dc.lft.to/lastmile_qr_scan"}, "lon": -76.98508616666666, "type": "electric_scooter", "fusion_lat": 0.0, "lat": 38.90610933333333, "name": "70ac6a27988dafe03566972c226146e6", "fusion_lon": 0.0, "bike_id": "70ac6a27988dafe03566972c226146e6", "is_disabled": 0, "is_reserved": 0}, {"rental_uris": {"ios": "https://dc.lft.to/lastmile_qr_scan", "android": "https://dc.lft.to/lastmile_qr_scan"}, "lon": -76.999584, "type": "electric_scooter", "fusion_lat": 0.0, "lat": 38.909257, "name": "8027b2b02bccd64ce30e032c192b3655", "fusion_lon": 0.0, "bike_id": "8027b2b02bccd64ce30e032c192b3655", "is_disabled": 0, "is_reserved": 0}, {"rental_uris": {"ios": "https://dc.lft.to/lastmile_qr_scan", "android": "https://dc.lft.to/lastmile_qr_scan"}, "lon": -77.02766683333333, "type": "electric_bike", "fusion_lat": 0.0, "lat": 38.9049065, "name": "5f9accc5958a8c6c14c6dcdf369950be", "fusion_lon": 0.0, "bike_id": "5f9accc5958a8c6c14c6dcdf369950be", "is_disabled": 0, "is_reserved": 0}, {"rental_uris": {"ios": "https://dc.lft.to/lastmile_qr_scan", "android": "https://dc.lft.to/lastmile_qr_scan"}, "lon": -77.04168766666666, "type": "electric_scooter", "fusion_lat": 0.0, "lat": 38.919426666666666, "name": "31c74844906ea4b25d64ff6121aff3a9", "fusion_lon": 0.0, "bike_id": "31c74844906ea4b25d64ff6121aff3a9", "is_disabled": 0, "is_reserved": 0}, {"rental_uris": {"ios": "https://dc.lft.to/lastmile_qr_scan", "android": "https://dc.lft.to/lastmile_qr_scan"}, "lon": -77.03524183333333, "type": "electric_scooter", "fusion_lat": 0.0, "lat": 38.922260333333334, "name": "1cac3998a47442d191c79ab90d53a37e", "fusion_lon": 0.0, "bike_id": "1cac3998a47442d191c79ab90d53a37e", "is_disabled": 0, "is_reserved": 0}, {"rental_uris": {"ios": "https://dc.lft.to/lastmile_qr_scan", "android": "https://dc.lft.to/lastmile_qr_scan"}, "lon": -77.03276066666666, "type": "electric_scooter", "fusion_lat": 0.0, "lat": 38.904207666666665, "name": "961a2395ecb21c61c2c264ee4faf2305", "fusion_lon": 0.0, "bike_id": "961a2395ecb21c61c2c264ee4faf2305", "is_disabled": 0, "is_reserved": 0}, {"rental_uris": {"ios": "https://dc.lft.to/lastmile_qr_scan", "android": "https://dc.lft.to/lastmile_qr_scan"}, "lon": -77.00218716666667, "type": "electric_scooter", "fusion_lat": 0.0, "lat": 38.90040283333333, "name": "46c712d7ee999c70fda5574a732f109c", "fusion_lon": 0.0, "bike_id": "46c712d7ee999c70fda5574a732f109c", "is_disabled": 0, "is_reserved": 0}, {"rental_uris": {"ios": "https://dc.lft.to/lastmile_qr_scan", "android": "https://dc.lft.to/lastmile_qr_scan"}, "lon": -76.99821366666667, "type": "electric_scooter", "fusion_lat": 0.0, "lat": 38.888766, "name": "374e553a53d4292345feadc649f2caf6", "fusion_lon": 0.0, "bike_id": "374e553a53d4292345feadc649f2caf6", "is_disabled": 0, "is_reserved": 0}, {"rental_uris": {"ios": "https://dc.lft.to/lastmile_qr_scan", "android": "https://dc.lft.to/lastmile_qr_scan"}, "lon": -77.0345155, "type": "electric_scooter", "fusion_lat": 0.0, "lat": 38.917411333333334, "name": "896fc606afe9ce9a8ab330597e170812", "fusion_lon": 0.0, "bike_id": "896fc606afe9ce9a8ab330597e170812", "is_disabled": 0, "is_reserved": 0}, {"rental_uris": {"ios": "https://dc.lft.to/lastmile_qr_scan", "android": "https://dc.lft.to/lastmile_qr_scan"}, "lon": -77.04350916666667, "type": "electric_scooter", "fusion_lat": 0.0, "lat": 38.905672833333334, "name": "859bd3a4eeb0e9ca5ceaca91f5649b52", "fusion_lon": 0.0, "bike_id": "859bd3a4eeb0e9ca5ceaca91f5649b52", "is_disabled": 0, "is_reserved": 0}, {"rental_uris": {"ios": "https://dc.lft.to/lastmile_qr_scan", "android": "https://dc.lft.to/lastmile_qr_scan"}, "lon": -77.00591683333333, "type": "electric_scooter", "fusion_lat": 0.0, "lat": 38.877171833333335, "name": "89b8f26e89c1b8fa5a074d65661e59cd", "fusion_lon": 0.0, "bike_id": "89b8f26e89c1b8fa5a074d65661e59cd", "is_disabled": 0, "is_reserved": 0}, {"rental_uris": {"ios": "https://dc.lft.to/lastmile_qr_scan", "android": "https://dc.lft.to/lastmile_qr_scan"}, "lon": -77.06024466666666, "type": "electric_bike", "fusion_lat": 0.0, "lat": 38.9041765, "name": "9d591c9077f7552b67cc809f320a1bcd", "fusion_lon": 0.0, "bike_id": "9d591c9077f7552b67cc809f320a1bcd", "is_disabled": 0, "is_reserved": 0}, {"rental_uris": {"ios": "https://dc.lft.to/lastmile_qr_scan", "android": "https://dc.lft.to/lastmile_qr_scan"}, "lon": -77.02569333333334, "type": "electric_scooter", "fusion_lat": 0.0, "lat": 38.88416333333333, "name": "830c6f902db164ccba5dfdf783ce3180", "fusion_lon": 0.0, "bike_id": "830c6f902db164ccba5dfdf783ce3180", "is_disabled": 0, "is_reserved": 0}, {"rental_uris": {"ios": "https://dc.lft.to/lastmile_qr_scan", "android": "https://dc.lft.to/lastmile_qr_scan"}, "lon": -77.01621583333333, "type": "electric_scooter", "fusion_lat": 0.0, "lat": 38.9071235, "name": "856f6a5ee1602ec72e5d9754e4e9502d", "fusion_lon": 0.0, "bike_id": "856f6a5ee1602ec72e5d9754e4e9502d", "is_disabled": 0, "is_reserved": 0}, {"rental_uris": {"ios": "https://dc.lft.to/lastmile_qr_scan", "android": "https://dc.lft.to/lastmile_qr_scan"}, "lon": -77.0386, "type": "electric_scooter", "fusion_lat": 0.0, "lat": 38.91549666666667, "name": "86cd3a85cf3fa5489f5b08c96fc3d07b", "fusion_lon": 0.0, "bike_id": "86cd3a85cf3fa5489f5b08c96fc3d07b", "is_disabled": 0, "is_reserved": 0}, {"rental_uris": {"ios": "https://dc.lft.to/lastmile_qr_scan", "android": "https://dc.lft.to/lastmile_qr_scan"}, "lon": -76.98885916666667, "type": "electric_scooter", "fusion_lat": 0.0, "lat": 38.8666235, "name": "99711d1c566c447526d57f5f317ad6d5", "fusion_lon": 0.0, "bike_id": "99711d1c566c447526d57f5f317ad6d5", "is_disabled": 0, "is_reserved": 0}, {"rental_uris": {"ios": "https://dc.lft.to/lastmile_qr_scan", "android": "https://dc.lft.to/lastmile_qr_scan"}, "lon": -77.02004716666667, "type": "electric_scooter", "fusion_lat": 0.0, "lat": 38.919184, "name": "ccc524edd4fb47437193736ea3a21b67", "fusion_lon": 0.0, "bike_id": "ccc524edd4fb47437193736ea3a21b67", "is_disabled": 0, "is_reserved": 0}, {"rental_uris": {"ios": "https://dc.lft.to/lastmile_qr_scan", "android": "https://dc.lft.to/lastmile_qr_scan"}, "lon": -77.032325, "type": "electric_scooter", "fusion_lat": 0.0, "lat": 38.920252833333336, "name": "a53285636b402695cf9de42464e13c16", "fusion_lon": 0.0, "bike_id": "a53285636b402695cf9de42464e13c16", "is_disabled": 0, "is_reserved": 0}, {"rental_uris": {"ios": "https://dc.lft.to/lastmile_qr_scan", "android": "https://dc.lft.to/lastmile_qr_scan"}, "lon": -77.04110266666666, "type": "electric_scooter", "fusion_lat": 0.0, "lat": 38.91858766666667, "name": "a6f72c8a6d3adb54db86ae178da7f4b3", "fusion_lon": 0.0, "bike_id": "a6f72c8a6d3adb54db86ae178da7f4b3", "is_disabled": 0, "is_reserved": 0}, {"rental_uris": {"ios": "https://dc.lft.to/lastmile_qr_scan", "android": "https://dc.lft.to/lastmile_qr_scan"}, "lon": -77.03176816666667, "type": "electric_scooter", "fusion_lat": 0.0, "lat": 38.91856583333333, "name": "278742fd9d9c91413b41a3cfc7ba0f75", "fusion_lon": 0.0, "bike_id": "278742fd9d9c91413b41a3cfc7ba0f75", "is_disabled": 0, "is_reserved": 0}, {"rental_uris": {"ios": "https://dc.lft.to/lastmile_qr_scan", "android": "https://dc.lft.to/lastmile_qr_scan"}, "lon": -77.00225383333333, "type": "electric_scooter", "fusion_lat": 0.0, "lat": 38.900429333333335, "name": "77edf2304e27021e480b418dd3690265", "fusion_lon": 0.0, "bike_id": "77edf2304e27021e480b418dd3690265", "is_disabled": 0, "is_reserved": 0}, {"rental_uris": {"ios": "https://dc.lft.to/lastmile_qr_scan", "android": "https://dc.lft.to/lastmile_qr_scan"}, "lon": -77.03473116666666, "type": "electric_scooter", "fusion_lat": 0.0, "lat": 38.91714266666666, "name": "0e59ebba5429604e7ff66bdba041aad8", "fusion_lon": 0.0, "bike_id": "0e59ebba5429604e7ff66bdba041aad8", "is_disabled": 0, "is_reserved": 0}, {"rental_uris": {"ios": "https://dc.lft.to/lastmile_qr_scan", "android": "https://dc.lft.to/lastmile_qr_scan"}, "lon": -77.04371066666667, "type": "electric_scooter", "fusion_lat": 0.0, "lat": 38.892265333333334, "name": "ec5e93d6283afc3de10ef49ea4a5cf5c", "fusion_lon": 0.0, "bike_id": "ec5e93d6283afc3de10ef49ea4a5cf5c", "is_disabled": 0, "is_reserved": 0}, {"rental_uris": {"ios": "https://dc.lft.to/lastmile_qr_scan", "android": "https://dc.lft.to/lastmile_qr_scan"}, "lon": -77.04126533333333, "type": "electric_scooter", "fusion_lat": 0.0, "lat": 38.9189015, "name": "f4734d899a3ad2d588b05c251e45eaec", "fusion_lon": 0.0, "bike_id": "f4734d899a3ad2d588b05c251e45eaec", "is_disabled": 0, "is_reserved": 0}, {"rental_uris": {"ios": "https://dc.lft.to/lastmile_qr_scan", "android": "https://dc.lft.to/lastmile_qr_scan"}, "lon": -77.007798, "type": "electric_scooter", "fusion_lat": 0.0, "lat": 38.90646783333333, "name": "33d6ca377fa1c2312a04c34867eb07cb", "fusion_lon": 0.0, "bike_id": "33d6ca377fa1c2312a04c34867eb07cb", "is_disabled": 0, "is_reserved": 0}, {"rental_uris": {"ios": "https://dc.lft.to/lastmile_qr_scan", "android": "https://dc.lft.to/lastmile_qr_scan"}, "lon": -77.09172233333334, "type": "electric_bike", "fusion_lat": 0.0, "lat": 38.967630666666665, "name": "68e98fc4fc7d280f85cbc3ee14ca3da8", "fusion_lon": 0.0, "bike_id": "68e98fc4fc7d280f85cbc3ee14ca3da8", "is_disabled": 0, "is_reserved": 0}, {"rental_uris": {"ios": "https://dc.lft.to/lastmile_qr_scan", "android": "https://dc.lft.to/lastmile_qr_scan"}, "lon": -77.034573, "type": "electric_scooter", "fusion_lat": 0.0, "lat": 38.921565, "name": "6cd2e0b383042b84fc94175f204a5fea", "fusion_lon": 0.0, "bike_id": "6cd2e0b383042b84fc94175f204a5fea", "is_disabled": 0, "is_reserved": 0}, {"rental_uris": {"ios": "https://dc.lft.to/lastmile_qr_scan", "android": "https://dc.lft.to/lastmile_qr_scan"}, "lon": -77.02331666666667, "type": "electric_scooter", "fusion_lat": 0.0, "lat": 38.8834235, "name": "2c5870806ae7c8bdf17d556e9450ea27", "fusion_lon": 0.0, "bike_id": "2c5870806ae7c8bdf17d556e9450ea27", "is_disabled": 0, "is_reserved": 0}, {"rental_uris": {"ios": "https://dc.lft.to/lastmile_qr_scan", "android": "https://dc.lft.to/lastmile_qr_scan"}, "lon": -77.02915733333333, "type": "electric_scooter", "fusion_lat": 0.0, "lat": 38.903543, "name": "a6df0c56f0ae728388c023b6ae54d27e", "fusion_lon": 0.0, "bike_id": "a6df0c56f0ae728388c023b6ae54d27e", "is_disabled": 0, "is_reserved": 0}, {"rental_uris": {"ios": "https://dc.lft.to/lastmile_qr_scan", "android": "https://dc.lft.to/lastmile_qr_scan"}, "lon": -77.041676, "type": "electric_scooter", "fusion_lat": 0.0, "lat": 38.91860333333333, "name": "98dbe077b4a8fef05d8d260a34639ff0", "fusion_lon": 0.0, "bike_id": "98dbe077b4a8fef05d8d260a34639ff0", "is_disabled": 0, "is_reserved": 0}, {"rental_uris": {"ios": "https://dc.lft.to/lastmile_qr_scan", "android": "https://dc.lft.to/lastmile_qr_scan"}, "lon": -77.04700666666666, "type": "electric_scooter", "fusion_lat": 0.0, "lat": 38.9210415, "name": "81d69090c289d34607bcbe8dab40ebac", "fusion_lon": 0.0, "bike_id": "81d69090c289d34607bcbe8dab40ebac", "is_disabled": 0, "is_reserved": 0}, {"rental_uris": {"ios": "https://dc.lft.to/lastmile_qr_scan", "android": "https://dc.lft.to/lastmile_qr_scan"}, "lon": -77.13095766666666, "type": "electric_bike", "fusion_lat": 0.0, "lat": 38.861692833333336, "name": "14bc3bb473d33d2a6cec07728d4d3c88", "fusion_lon": 0.0, "bike_id": "14bc3bb473d33d2a6cec07728d4d3c88", "is_disabled": 0, "is_reserved": 0}, {"rental_uris": {"ios": "https://dc.lft.to/lastmile_qr_scan", "android": "https://dc.lft.to/lastmile_qr_scan"}, "lon": -77.05597266666666, "type": "electric_scooter", "fusion_lat": 0.0, "lat": 38.937025, "name": "8d172032af69c665eb1c858f2c42db67", "fusion_lon": 0.0, "bike_id": "8d172032af69c665eb1c858f2c42db67", "is_disabled": 0, "is_reserved": 0}, {"rental_uris": {"ios": "https://dc.lft.to/lastmile_qr_scan", "android": "https://dc.lft.to/lastmile_qr_scan"}, "lon": -77.028841, "type": "electric_scooter", "fusion_lat": 0.0, "lat": 38.9047285, "name": "fd7984184fb20a4ba9bdd0bb299c187c", "fusion_lon": 0.0, "bike_id": "fd7984184fb20a4ba9bdd0bb299c187c", "is_disabled": 0, "is_reserved": 0}, {"rental_uris": {"ios": "https://dc.lft.to/lastmile_qr_scan", "android": "https://dc.lft.to/lastmile_qr_scan"}, "lon": -76.96175183333334, "type": "electric_bike", "fusion_lat": 0.0, "lat": 38.918674333333335, "name": "a980f8033bb5e75263f78d05d7b0014b", "fusion_lon": 0.0, "bike_id": "a980f8033bb5e75263f78d05d7b0014b", "is_disabled": 0, "is_reserved": 0}, {"rental_uris": {"ios": "https://dc.lft.to/lastmile_qr_scan", "android": "https://dc.lft.to/lastmile_qr_scan"}, "lon": -77.032354, "type": "electric_scooter", "fusion_lat": 0.0, "lat": 38.896359833333335, "name": "eba79722857cccb59f9bf544fd2dbe48", "fusion_lon": 0.0, "bike_id": "eba79722857cccb59f9bf544fd2dbe48", "is_disabled": 0, "is_reserved": 0}, {"rental_uris": {"ios": "https://dc.lft.to/lastmile_qr_scan", "android": "https://dc.lft.to/lastmile_qr_scan"}, "lon": -77.03795266666667, "type": "electric_scooter", "fusion_lat": 0.0, "lat": 38.936177666666666, "name": "868b4ef07bf76d6a3b8b98cbe8211c6c", "fusion_lon": 0.0, "bike_id": "868b4ef07bf76d6a3b8b98cbe8211c6c", "is_disabled": 0, "is_reserved": 0}, {"rental_uris": {"ios": "https://dc.lft.to/lastmile_qr_scan", "android": "https://dc.lft.to/lastmile_qr_scan"}, "lon": -77.0221895, "type": "electric_bike", "fusion_lat": 0.0, "lat": 38.89613216666667, "name": "e7b7e682bcc2abeab02efd94feaf5a9a", "fusion_lon": 0.0, "bike_id": "e7b7e682bcc2abeab02efd94feaf5a9a", "is_disabled": 0, "is_reserved": 0}, {"rental_uris": {"ios": "https://dc.lft.to/lastmile_qr_scan", "android": "https://dc.lft.to/lastmile_qr_scan"}, "lon": -77.03967083333333, "type": "electric_scooter", "fusion_lat": 0.0, "lat": 38.90260966666666, "name": "3ebe25dc0cf6c99e260ba052ca94b7e1", "fusion_lon": 0.0, "bike_id": "3ebe25dc0cf6c99e260ba052ca94b7e1", "is_disabled": 0, "is_reserved": 0}, {"rental_uris": {"ios": "https://dc.lft.to/lastmile_qr_scan", "android": "https://dc.lft.to/lastmile_qr_scan"}, "lon": -77.04044133333333, "type": "electric_scooter", "fusion_lat": 0.0, "lat": 38.92470683333333, "name": "370405bc2b9fce02947b0a7f4f191457", "fusion_lon": 0.0, "bike_id": "370405bc2b9fce02947b0a7f4f191457", "is_disabled": 0, "is_reserved": 0}, {"rental_uris": {"ios": "https://dc.lft.to/lastmile_qr_scan", "android": "https://dc.lft.to/lastmile_qr_scan"}, "lon": -77.05923466666667, "type": "electric_scooter", "fusion_lat": 0.0, "lat": 38.90456416666667, "name": "1537616d999719006a707d73caf2b952", "fusion_lon": 0.0, "bike_id": "1537616d999719006a707d73caf2b952", "is_disabled": 0, "is_reserved": 0}, {"rental_uris": {"ios": "https://dc.lft.to/lastmile_qr_scan", "android": "https://dc.lft.to/lastmile_qr_scan"}, "lon": -77.0257545, "type": "electric_scooter", "fusion_lat": 0.0, "lat": 38.8874955, "name": "f80dee7fb8e2e211bb1e148b08de2705", "fusion_lon": 0.0, "bike_id": "f80dee7fb8e2e211bb1e148b08de2705", "is_disabled": 0, "is_reserved": 0}, {"rental_uris": {"ios": "https://dc.lft.to/lastmile_qr_scan", "android": "https://dc.lft.to/lastmile_qr_scan"}, "lon": -77.03506583333333, "type": "electric_scooter", "fusion_lat": 0.0, "lat": 38.918845833333336, "name": "43fca9dce812649464e57a1a202c2efd", "fusion_lon": 0.0, "bike_id": "43fca9dce812649464e57a1a202c2efd", "is_disabled": 0, "is_reserved": 0}, {"rental_uris": {"ios": "https://dc.lft.to/lastmile_qr_scan", "android": "https://dc.lft.to/lastmile_qr_scan"}, "lon": -77.02165483333333, "type": "electric_scooter", "fusion_lat": 0.0, "lat": 38.897494, "name": "4efe09a4e800ee5f3368614e1d14445e", "fusion_lon": 0.0, "bike_id": "4efe09a4e800ee5f3368614e1d14445e", "is_disabled": 0, "is_reserved": 0}, {"rental_uris": {"ios": "https://dc.lft.to/lastmile_qr_scan", "android": "https://dc.lft.to/lastmile_qr_scan"}, "lon": -77.03498116666667, "type": "electric_scooter", "fusion_lat": 0.0, "lat": 38.9232905, "name": "17c92f8af290f47abad3d6e83af6129e", "fusion_lon": 0.0, "bike_id": "17c92f8af290f47abad3d6e83af6129e", "is_disabled": 0, "is_reserved": 0}, {"rental_uris": {"ios": "https://dc.lft.to/lastmile_qr_scan", "android": "https://dc.lft.to/lastmile_qr_scan"}, "lon": -77.04629933333334, "type": "electric_scooter", "fusion_lat": 0.0, "lat": 38.91635516666667, "name": "fae9a505f93750c788b4caa4811fa474", "fusion_lon": 0.0, "bike_id": "fae9a505f93750c788b4caa4811fa474", "is_disabled": 0, "is_reserved": 0}, {"rental_uris": {"ios": "https://dc.lft.to/lastmile_qr_scan", "android": "https://dc.lft.to/lastmile_qr_scan"}, "lon": -77.0551215, "type": "electric_scooter", "fusion_lat": 0.0, "lat": 38.92835066666667, "name": "a023b0f25a71a45c0838a3b3af5e9148", "fusion_lon": 0.0, "bike_id": "a023b0f25a71a45c0838a3b3af5e9148", "is_disabled": 0, "is_reserved": 0}, {"rental_uris": {"ios": "https://dc.lft.to/lastmile_qr_scan", "android": "https://dc.lft.to/lastmile_qr_scan"}, "lon": -76.980259, "type": "electric_scooter", "fusion_lat": 0.0, "lat": 38.88767883333333, "name": "b4a4aca3a259cc861e529edf9c38a80e", "fusion_lon": 0.0, "bike_id": "b4a4aca3a259cc861e529edf9c38a80e", "is_disabled": 0, "is_reserved": 0}, {"rental_uris": {"ios": "https://dc.lft.to/lastmile_qr_scan", "android": "https://dc.lft.to/lastmile_qr_scan"}, "lon": -77.05748616666666, "type": "electric_scooter", "fusion_lat": 0.0, "lat": 38.934195, "name": "ee5b5470e991ea40ef4222b01f939637", "fusion_lon": 0.0, "bike_id": "ee5b5470e991ea40ef4222b01f939637", "is_disabled": 0, "is_reserved": 0}, {"rental_uris": {"ios": "https://dc.lft.to/lastmile_qr_scan", "android": "https://dc.lft.to/lastmile_qr_scan"}, "lon": -77.011564, "type": "electric_scooter", "fusion_lat": 0.0, "lat": 38.90032816666667, "name": "16091637a7a443934322a46cd2819442", "fusion_lon": 0.0, "bike_id": "16091637a7a443934322a46cd2819442", "is_disabled": 0, "is_reserved": 0}, {"rental_uris": {"ios": "https://dc.lft.to/lastmile_qr_scan", "android": "https://dc.lft.to/lastmile_qr_scan"}, "lon": -77.02608633333334, "type": "electric_scooter", "fusion_lat": 0.0, "lat": 38.916784166666666, "name": "707686de8ac84037e8723727e8eaa7de", "fusion_lon": 0.0, "bike_id": "707686de8ac84037e8723727e8eaa7de", "is_disabled": 0, "is_reserved": 0}, {"rental_uris": {"ios": "https://dc.lft.to/lastmile_qr_scan", "android": "https://dc.lft.to/lastmile_qr_scan"}, "lon": -77.0307055, "type": "electric_scooter", "fusion_lat": 0.0, "lat": 38.899678, "name": "66affa8f5721385f7ac1c8dcbe08e26f", "fusion_lon": 0.0, "bike_id": "66affa8f5721385f7ac1c8dcbe08e26f", "is_disabled": 0, "is_reserved": 0}, {"rental_uris": {"ios": "https://dc.lft.to/lastmile_qr_scan", "android": "https://dc.lft.to/lastmile_qr_scan"}, "lon": -76.93738116666667, "type": "electric_scooter", "fusion_lat": 0.0, "lat": 38.89016766666667, "name": "51e2aee3c00731f0d0283819aff197d9", "fusion_lon": 0.0, "bike_id": "51e2aee3c00731f0d0283819aff197d9", "is_disabled": 0, "is_reserved": 0}, {"rental_uris": {"ios": "https://dc.lft.to/lastmile_qr_scan", "android": "https://dc.lft.to/lastmile_qr_scan"}, "lon": -77.01445266666667, "type": "electric_scooter", "fusion_lat": 0.0, "lat": 38.905778166666664, "name": "98f7de78c70692380ee0609de1150a88", "fusion_lon": 0.0, "bike_id": "98f7de78c70692380ee0609de1150a88", "is_disabled": 0, "is_reserved": 0}, {"rental_uris": {"ios": "https://dc.lft.to/lastmile_qr_scan", "android": "https://dc.lft.to/lastmile_qr_scan"}, "lon": -77.0793885, "type": "electric_scooter", "fusion_lat": 0.0, "lat": 38.948746, "name": "bc026f8ea97b74f687e3911e5b5bdea7", "fusion_lon": 0.0, "bike_id": "bc026f8ea97b74f687e3911e5b5bdea7", "is_disabled": 0, "is_reserved": 0}, {"rental_uris": {"ios": "https://dc.lft.to/lastmile_qr_scan", "android": "https://dc.lft.to/lastmile_qr_scan"}, "lon": -76.92999216666666, "type": "electric_bike", "fusion_lat": 0.0, "lat": 38.887995333333336, "name": "3bfe92dd5071dd2c13f39a8206c8df9b", "fusion_lon": 0.0, "bike_id": "3bfe92dd5071dd2c13f39a8206c8df9b", "is_disabled": 0, "is_reserved": 0}, {"rental_uris": {"ios": "https://dc.lft.to/lastmile_qr_scan", "android": "https://dc.lft.to/lastmile_qr_scan"}, "lon": -77.04913733333333, "type": "electric_scooter", "fusion_lat": 0.0, "lat": 38.900689, "name": "d68660d0e98d2b945aeccac46c3da9a4", "fusion_lon": 0.0, "bike_id": "d68660d0e98d2b945aeccac46c3da9a4", "is_disabled": 0, "is_reserved": 0}, {"rental_uris": {"ios": "https://dc.lft.to/lastmile_qr_scan", "android": "https://dc.lft.to/lastmile_qr_scan"}, "lon": -77.00716533333333, "type": "electric_scooter", "fusion_lat": 0.0, "lat": 38.913492, "name": "86168703805e3bb9c4b8c5bf81c3358f", "fusion_lon": 0.0, "bike_id": "86168703805e3bb9c4b8c5bf81c3358f", "is_disabled": 0, "is_reserved": 0}, {"rental_uris": {"ios": "https://dc.lft.to/lastmile_qr_scan", "android": "https://dc.lft.to/lastmile_qr_scan"}, "lon": -77.05269383333334, "type": "electric_scooter", "fusion_lat": 0.0, "lat": 38.91019983333333, "name": "e4cbdceafebae3c79cdf53be96aef49d", "fusion_lon": 0.0, "bike_id": "e4cbdceafebae3c79cdf53be96aef49d", "is_disabled": 0, "is_reserved": 0}, {"rental_uris": {"ios": "https://dc.lft.to/lastmile_qr_scan", "android": "https://dc.lft.to/lastmile_qr_scan"}, "lon": -77.0405455, "type": "electric_scooter", "fusion_lat": 0.0, "lat": 38.91895233333334, "name": "86282918d7773634dc6233ac906940f4", "fusion_lon": 0.0, "bike_id": "86282918d7773634dc6233ac906940f4", "is_disabled": 0, "is_reserved": 0}, {"rental_uris": {"ios": "https://dc.lft.to/lastmile_qr_scan", "android": "https://dc.lft.to/lastmile_qr_scan"}, "lon": -77.00232666666666, "type": "electric_scooter", "fusion_lat": 0.0, "lat": 38.90844666666667, "name": "780cd13bf77da2caa95cf0bc7370316b", "fusion_lon": 0.0, "bike_id": "780cd13bf77da2caa95cf0bc7370316b", "is_disabled": 0, "is_reserved": 0}, {"rental_uris": {"ios": "https://dc.lft.to/lastmile_qr_scan", "android": "https://dc.lft.to/lastmile_qr_scan"}, "lon": -77.02837133333334, "type": "electric_scooter", "fusion_lat": 0.0, "lat": 38.93241016666666, "name": "f8677c96933db457aae578b5978f2154", "fusion_lon": 0.0, "bike_id": "f8677c96933db457aae578b5978f2154", "is_disabled": 0, "is_reserved": 0}, {"rental_uris": {"ios": "https://dc.lft.to/lastmile_qr_scan", "android": "https://dc.lft.to/lastmile_qr_scan"}, "lon": -77.015995, "type": "electric_scooter", "fusion_lat": 0.0, "lat": 38.89628283333333, "name": "022d8a15570978827f83026fb1fbabfb", "fusion_lon": 0.0, "bike_id": "022d8a15570978827f83026fb1fbabfb", "is_disabled": 0, "is_reserved": 0}, {"rental_uris": {"ios": "https://dc.lft.to/lastmile_qr_scan", "android": "https://dc.lft.to/lastmile_qr_scan"}, "lon": -77.11318066666666, "type": "electric_bike", "fusion_lat": 0.0, "lat": 38.855683166666665, "name": "3627d7edd492bcd002f6a86be646fb51", "fusion_lon": 0.0, "bike_id": "3627d7edd492bcd002f6a86be646fb51", "is_disabled": 0, "is_reserved": 0}, {"rental_uris": {"ios": "https://dc.lft.to/lastmile_qr_scan", "android": "https://dc.lft.to/lastmile_qr_scan"}, "lon": -77.06888766666667, "type": "electric_scooter", "fusion_lat": 0.0, "lat": 38.9052685, "name": "ec9da4f7b644eea6530850aac631fcdf", "fusion_lon": 0.0, "bike_id": "ec9da4f7b644eea6530850aac631fcdf", "is_disabled": 0, "is_reserved": 0}, {"rental_uris": {"ios": "https://dc.lft.to/lastmile_qr_scan", "android": "https://dc.lft.to/lastmile_qr_scan"}, "lon": -77.00758516666667, "type": "electric_scooter", "fusion_lat": 0.0, "lat": 38.910294666666665, "name": "cb1e78d28669ccd2bd613af56fecf30a", "fusion_lon": 0.0, "bike_id": "cb1e78d28669ccd2bd613af56fecf30a", "is_disabled": 0, "is_reserved": 0}, {"rental_uris": {"ios": "https://dc.lft.to/lastmile_qr_scan", "android": "https://dc.lft.to/lastmile_qr_scan"}, "lon": -77.03960083333334, "type": "electric_scooter", "fusion_lat": 0.0, "lat": 38.89252116666667, "name": "fe90674ef9b342a1e01bf720fae7dcaf", "fusion_lon": 0.0, "bike_id": "fe90674ef9b342a1e01bf720fae7dcaf", "is_disabled": 0, "is_reserved": 0}, {"rental_uris": {"ios": "https://dc.lft.to/lastmile_qr_scan", "android": "https://dc.lft.to/lastmile_qr_scan"}, "lon": -77.04484883333333, "type": "electric_scooter", "fusion_lat": 0.0, "lat": 38.9066, "name": "f58d192c22ac627cd515661de4e00103", "fusion_lon": 0.0, "bike_id": "f58d192c22ac627cd515661de4e00103", "is_disabled": 0, "is_reserved": 0}, {"rental_uris": {"ios": "https://dc.lft.to/lastmile_qr_scan", "android": "https://dc.lft.to/lastmile_qr_scan"}, "lon": -76.98826116666666, "type": "electric_scooter", "fusion_lat": 0.0, "lat": 38.88027983333333, "name": "92b6c54782b450bd0492ba6de29df4cb", "fusion_lon": 0.0, "bike_id": "92b6c54782b450bd0492ba6de29df4cb", "is_disabled": 0, "is_reserved": 0}, {"rental_uris": {"ios": "https://dc.lft.to/lastmile_qr_scan", "android": "https://dc.lft.to/lastmile_qr_scan"}, "lon": -77.03853766666667, "type": "electric_scooter", "fusion_lat": 0.0, "lat": 38.931269666666665, "name": "60e959bdf2e895eda0c5ee57f7f2c06a", "fusion_lon": 0.0, "bike_id": "60e959bdf2e895eda0c5ee57f7f2c06a", "is_disabled": 0, "is_reserved": 0}, {"rental_uris": {"ios": "https://dc.lft.to/lastmile_qr_scan", "android": "https://dc.lft.to/lastmile_qr_scan"}, "lon": -77.02429983333333, "type": "electric_scooter", "fusion_lat": 0.0, "lat": 38.8847635, "name": "01f9a0d6198354bf4a996ebaa41c256f", "fusion_lon": 0.0, "bike_id": "01f9a0d6198354bf4a996ebaa41c256f", "is_disabled": 0, "is_reserved": 0}, {"rental_uris": {"ios": "https://dc.lft.to/lastmile_qr_scan", "android": "https://dc.lft.to/lastmile_qr_scan"}, "lon": -77.03007983333333, "type": "electric_bike", "fusion_lat": 0.0, "lat": 38.90054083333333, "name": "d1e06cf06701dc2287acb399873780ae", "fusion_lon": 0.0, "bike_id": "d1e06cf06701dc2287acb399873780ae", "is_disabled": 0, "is_reserved": 0}, {"rental_uris": {"ios": "https://dc.lft.to/lastmile_qr_scan", "android": "https://dc.lft.to/lastmile_qr_scan"}, "lon": -76.99539433333334, "type": "electric_bike", "fusion_lat": 0.0, "lat": 38.847448666666665, "name": "8c4c6680eca0040451a84430c531121c", "fusion_lon": 0.0, "bike_id": "8c4c6680eca0040451a84430c531121c", "is_disabled": 0, "is_reserved": 0}, {"rental_uris": {"ios": "https://dc.lft.to/lastmile_qr_scan", "android": "https://dc.lft.to/lastmile_qr_scan"}, "lon": -77.02372183333334, "type": "electric_scooter", "fusion_lat": 0.0, "lat": 38.919533333333334, "name": "070c4e67dd9cc6206e4683d625997975", "fusion_lon": 0.0, "bike_id": "070c4e67dd9cc6206e4683d625997975", "is_disabled": 0, "is_reserved": 0}, {"rental_uris": {"ios": "https://dc.lft.to/lastmile_qr_scan", "android": "https://dc.lft.to/lastmile_qr_scan"}, "lon": -77.03361233333334, "type": "electric_scooter", "fusion_lat": 0.0, "lat": 38.899619333333334, "name": "5dd89c67abfe42469e712455871605bb", "fusion_lon": 0.0, "bike_id": "5dd89c67abfe42469e712455871605bb", "is_disabled": 0, "is_reserved": 0}, {"rental_uris": {"ios": "https://dc.lft.to/lastmile_qr_scan", "android": "https://dc.lft.to/lastmile_qr_scan"}, "lon": -77.03669183333334, "type": "electric_scooter", "fusion_lat": 0.0, "lat": 38.9181215, "name": "584db76f32ab59362e44761bd64b0363", "fusion_lon": 0.0, "bike_id": "584db76f32ab59362e44761bd64b0363", "is_disabled": 0, "is_reserved": 0}, {"rental_uris": {"ios": "https://dc.lft.to/lastmile_qr_scan", "android": "https://dc.lft.to/lastmile_qr_scan"}, "lon": -77.0320765, "type": "electric_scooter", "fusion_lat": 0.0, "lat": 38.92587733333333, "name": "0c306cbbc6cc6b81139aa95c6906e9d7", "fusion_lon": 0.0, "bike_id": "0c306cbbc6cc6b81139aa95c6906e9d7", "is_disabled": 0, "is_reserved": 0}, {"rental_uris": {"ios": "https://dc.lft.to/lastmile_qr_scan", "android": "https://dc.lft.to/lastmile_qr_scan"}, "lon": -77.03664416666666, "type": "electric_scooter", "fusion_lat": 0.0, "lat": 38.91811033333333, "name": "206e461416334a9dc899ad66a736046d", "fusion_lon": 0.0, "bike_id": "206e461416334a9dc899ad66a736046d", "is_disabled": 0, "is_reserved": 0}, {"rental_uris": {"ios": "https://dc.lft.to/lastmile_qr_scan", "android": "https://dc.lft.to/lastmile_qr_scan"}, "lon": -77.03855883333334, "type": "electric_scooter", "fusion_lat": 0.0, "lat": 38.91207166666667, "name": "34bdfa3211386c11b86e5311c0c12f5d", "fusion_lon": 0.0, "bike_id": "34bdfa3211386c11b86e5311c0c12f5d", "is_disabled": 0, "is_reserved": 0}, {"rental_uris": {"ios": "https://dc.lft.to/lastmile_qr_scan", "android": "https://dc.lft.to/lastmile_qr_scan"}, "lon": -77.00594083333333, "type": "electric_scooter", "fusion_lat": 0.0, "lat": 38.905746, "name": "820254d74bbb89f3182e121558a8e6c3", "fusion_lon": 0.0, "bike_id": "820254d74bbb89f3182e121558a8e6c3", "is_disabled": 0, "is_reserved": 0}, {"rental_uris": {"ios": "https://dc.lft.to/lastmile_qr_scan", "android": "https://dc.lft.to/lastmile_qr_scan"}, "lon": -77.04534716666667, "type": "electric_scooter", "fusion_lat": 0.0, "lat": 38.919385166666665, "name": "7e0e3160e1a1461e2228a0d242a79c59", "fusion_lon": 0.0, "bike_id": "7e0e3160e1a1461e2228a0d242a79c59", "is_disabled": 0, "is_reserved": 0}, {"rental_uris": {"ios": "https://dc.lft.to/lastmile_qr_scan", "android": "https://dc.lft.to/lastmile_qr_scan"}, "lon": -77.05271483333334, "type": "electric_scooter", "fusion_lat": 0.0, "lat": 38.91017266666667, "name": "8f703aae765e957922938ee5bb2c0096", "fusion_lon": 0.0, "bike_id": "8f703aae765e957922938ee5bb2c0096", "is_disabled": 0, "is_reserved": 0}, {"rental_uris": {"ios": "https://dc.lft.to/lastmile_qr_scan", "android": "https://dc.lft.to/lastmile_qr_scan"}, "lon": -77.032301, "type": "electric_scooter", "fusion_lat": 0.0, "lat": 38.92752216666667, "name": "ee44dbaac0a70923a0e69ff599e7b699", "fusion_lon": 0.0, "bike_id": "ee44dbaac0a70923a0e69ff599e7b699", "is_disabled": 0, "is_reserved": 0}, {"rental_uris": {"ios": "https://dc.lft.to/lastmile_qr_scan", "android": "https://dc.lft.to/lastmile_qr_scan"}, "lon": -77.0397355, "type": "electric_scooter", "fusion_lat": 0.0, "lat": 38.90268566666667, "name": "38ddc49ccda38bc3bc8892ae53b8c784", "fusion_lon": 0.0, "bike_id": "38ddc49ccda38bc3bc8892ae53b8c784", "is_disabled": 0, "is_reserved": 0}, {"rental_uris": {"ios": "https://dc.lft.to/lastmile_qr_scan", "android": "https://dc.lft.to/lastmile_qr_scan"}, "lon": -77.02732333333333, "type": "electric_scooter", "fusion_lat": 0.0, "lat": 38.924901166666665, "name": "e3ea28cd19a634386cd8acc60c084479", "fusion_lon": 0.0, "bike_id": "e3ea28cd19a634386cd8acc60c084479", "is_disabled": 0, "is_reserved": 0}, {"rental_uris": {"ios": "https://dc.lft.to/lastmile_qr_scan", "android": "https://dc.lft.to/lastmile_qr_scan"}, "lon": -77.0177855, "type": "electric_scooter", "fusion_lat": 0.0, "lat": 38.900917666666665, "name": "dec32c1bda8359e7d43e4bebe8546dd3", "fusion_lon": 0.0, "bike_id": "dec32c1bda8359e7d43e4bebe8546dd3", "is_disabled": 0, "is_reserved": 0}, {"rental_uris": {"ios": "https://dc.lft.to/lastmile_qr_scan", "android": "https://dc.lft.to/lastmile_qr_scan"}, "lon": -76.97328683333333, "type": "electric_bike", "fusion_lat": 0.0, "lat": 38.85070783333333, "name": "80336533be634d4adc5e443781b6d239", "fusion_lon": 0.0, "bike_id": "80336533be634d4adc5e443781b6d239", "is_disabled": 0, "is_reserved": 0}, {"rental_uris": {"ios": "https://dc.lft.to/lastmile_qr_scan", "android": "https://dc.lft.to/lastmile_qr_scan"}, "lon": -77.06095283333333, "type": "electric_scooter", "fusion_lat": 0.0, "lat": 38.91221633333333, "name": "f5c028db5edb33e185a67c6865d04524", "fusion_lon": 0.0, "bike_id": "f5c028db5edb33e185a67c6865d04524", "is_disabled": 0, "is_reserved": 0}, {"rental_uris": {"ios": "https://dc.lft.to/lastmile_qr_scan", "android": "https://dc.lft.to/lastmile_qr_scan"}, "lon": -77.00778283333334, "type": "electric_scooter", "fusion_lat": 0.0, "lat": 38.90752633333334, "name": "d2a345db7ed4bf2954b318f0b4b3ff94", "fusion_lon": 0.0, "bike_id": "d2a345db7ed4bf2954b318f0b4b3ff94", "is_disabled": 0, "is_reserved": 0}, {"rental_uris": {"ios": "https://dc.lft.to/lastmile_qr_scan", "android": "https://dc.lft.to/lastmile_qr_scan"}, "lon": -77.01733883333333, "type": "electric_scooter", "fusion_lat": 0.0, "lat": 38.9748255, "name": "467527144a3ee0aa34a1d5f3c1082ed0", "fusion_lon": 0.0, "bike_id": "467527144a3ee0aa34a1d5f3c1082ed0", "is_disabled": 0, "is_reserved": 0}, {"rental_uris": {"ios": "https://dc.lft.to/lastmile_qr_scan", "android": "https://dc.lft.to/lastmile_qr_scan"}, "lon": -77.0089515, "type": "electric_scooter", "fusion_lat": 0.0, "lat": 38.9241455, "name": "e72667c49c2adb49e1c84d8f9f41fb53", "fusion_lon": 0.0, "bike_id": "e72667c49c2adb49e1c84d8f9f41fb53", "is_disabled": 0, "is_reserved": 0}, {"rental_uris": {"ios": "https://dc.lft.to/lastmile_qr_scan", "android": "https://dc.lft.to/lastmile_qr_scan"}, "lon": -77.02637516666667, "type": "electric_scooter", "fusion_lat": 0.0, "lat": 38.88416083333333, "name": "bbc39ad063a9ee42a194f9e73b26ea17", "fusion_lon": 0.0, "bike_id": "bbc39ad063a9ee42a194f9e73b26ea17", "is_disabled": 0, "is_reserved": 0}, {"rental_uris": {"ios": "https://dc.lft.to/lastmile_qr_scan", "android": "https://dc.lft.to/lastmile_qr_scan"}, "lon": -77.022234, "type": "electric_scooter", "fusion_lat": 0.0, "lat": 38.897869, "name": "67907140ccc7901d5553ddec6a7d827f", "fusion_lon": 0.0, "bike_id": "67907140ccc7901d5553ddec6a7d827f", "is_disabled": 0, "is_reserved": 0}, {"rental_uris": {"ios": "https://dc.lft.to/lastmile_qr_scan", "android": "https://dc.lft.to/lastmile_qr_scan"}, "lon": -77.00066366666667, "type": "electric_scooter", "fusion_lat": 0.0, "lat": 38.900582, "name": "cd41f9631c28726e56f6725ae0c35a53", "fusion_lon": 0.0, "bike_id": "cd41f9631c28726e56f6725ae0c35a53", "is_disabled": 0, "is_reserved": 0}, {"rental_uris": {"ios": "https://dc.lft.to/lastmile_qr_scan", "android": "https://dc.lft.to/lastmile_qr_scan"}, "lon": -77.051618, "type": "electric_scooter", "fusion_lat": 0.0, "lat": 38.89776533333333, "name": "dd2c0554e03dd0721ae8285c0eafbde4", "fusion_lon": 0.0, "bike_id": "dd2c0554e03dd0721ae8285c0eafbde4", "is_disabled": 0, "is_reserved": 0}, {"rental_uris": {"ios": "https://dc.lft.to/lastmile_qr_scan", "android": "https://dc.lft.to/lastmile_qr_scan"}, "lon": -76.9655365, "type": "electric_bike", "fusion_lat": 0.0, "lat": 38.9510205, "name": "17bf03f4b21c4d8a94dbf0b7669331dc", "fusion_lon": 0.0, "bike_id": "17bf03f4b21c4d8a94dbf0b7669331dc", "is_disabled": 0, "is_reserved": 0}, {"rental_uris": {"ios": "https://dc.lft.to/lastmile_qr_scan", "android": "https://dc.lft.to/lastmile_qr_scan"}, "lon": -76.995076, "type": "electric_scooter", "fusion_lat": 0.0, "lat": 38.88184233333333, "name": "4f98258c277cad11c9fcdfc6b3fe702b", "fusion_lon": 0.0, "bike_id": "4f98258c277cad11c9fcdfc6b3fe702b", "is_disabled": 0, "is_reserved": 0}, {"rental_uris": {"ios": "https://dc.lft.to/lastmile_qr_scan", "android": "https://dc.lft.to/lastmile_qr_scan"}, "lon": -77.02957366666666, "type": "electric_scooter", "fusion_lat": 0.0, "lat": 38.90510183333333, "name": "29ea4c809c0e9be4c484c18358a3bc21", "fusion_lon": 0.0, "bike_id": "29ea4c809c0e9be4c484c18358a3bc21", "is_disabled": 0, "is_reserved": 0}, {"rental_uris": {"ios": "https://dc.lft.to/lastmile_qr_scan", "android": "https://dc.lft.to/lastmile_qr_scan"}, "lon": -77.04697866666666, "type": "electric_scooter", "fusion_lat": 0.0, "lat": 38.9004875, "name": "7f414ad307b354c454fdb80e9853f4e8", "fusion_lon": 0.0, "bike_id": "7f414ad307b354c454fdb80e9853f4e8", "is_disabled": 0, "is_reserved": 0}, {"rental_uris": {"ios": "https://dc.lft.to/lastmile_qr_scan", "android": "https://dc.lft.to/lastmile_qr_scan"}, "lon": -77.0240505, "type": "electric_scooter", "fusion_lat": 0.0, "lat": 38.9159965, "name": "e30aef327fdd61354e23e07cfb0a4611", "fusion_lon": 0.0, "bike_id": "e30aef327fdd61354e23e07cfb0a4611", "is_disabled": 0, "is_reserved": 0}, {"rental_uris": {"ios": "https://dc.lft.to/lastmile_qr_scan", "android": "https://dc.lft.to/lastmile_qr_scan"}, "lon": -77.0335045, "type": "electric_scooter", "fusion_lat": 0.0, "lat": 38.89530883333333, "name": "e45fc88779f7a6813de6d6c732b655b7", "fusion_lon": 0.0, "bike_id": "e45fc88779f7a6813de6d6c732b655b7", "is_disabled": 0, "is_reserved": 0}, {"rental_uris": {"ios": "https://dc.lft.to/lastmile_qr_scan", "android": "https://dc.lft.to/lastmile_qr_scan"}, "lon": -77.05290933333333, "type": "electric_scooter", "fusion_lat": 0.0, "lat": 38.92803083333333, "name": "fe9d0306cb759f74f20f34178a5bbffa", "fusion_lon": 0.0, "bike_id": "fe9d0306cb759f74f20f34178a5bbffa", "is_disabled": 0, "is_reserved": 0}, {"rental_uris": {"ios": "https://dc.lft.to/lastmile_qr_scan", "android": "https://dc.lft.to/lastmile_qr_scan"}, "lon": -77.02611916666666, "type": "electric_bike", "fusion_lat": 0.0, "lat": 38.90044966666667, "name": "0090e8e085dbe0e377d99432f1b461e4", "fusion_lon": 0.0, "bike_id": "0090e8e085dbe0e377d99432f1b461e4", "is_disabled": 0, "is_reserved": 0}, {"rental_uris": {"ios": "https://dc.lft.to/lastmile_qr_scan", "android": "https://dc.lft.to/lastmile_qr_scan"}, "lon": -77.05004683333334, "type": "electric_scooter", "fusion_lat": 0.0, "lat": 38.892300666666664, "name": "cd0cf9908df4883c1a99cc94586ca1eb", "fusion_lon": 0.0, "bike_id": "cd0cf9908df4883c1a99cc94586ca1eb", "is_disabled": 0, "is_reserved": 0}, {"rental_uris": {"ios": "https://dc.lft.to/lastmile_qr_scan", "android": "https://dc.lft.to/lastmile_qr_scan"},