{"data": {"bikes": [{"bike_id": "f7b41a18fb20973e2d4f5a21a5f766df", "fusion_lon": 0.0, "name": "f7b41a18fb20973e2d4f5a21a5f766df", "lat": 38.900209, "is_disabled": 0, "is_reserved": 0, "lon": -76.98788216666667, "type": "electric_scooter", "fusion_lat": 0.0, "rental_uris": {"android": "https://dc.lft.to/lastmile_qr_scan", "ios": "https://dc.lft.to/lastmile_qr_scan"}}, {"bike_id": "03c1a741525944a2d7a596952b2d30e7", "fusion_lon": 0.0, "name": "03c1a741525944a2d7a596952b2d30e7", "lat": 38.91031866666667, "is_disabled": 0, "is_reserved": 0, "lon": -77.03442233333334, "type": "electric_scooter", "fusion_lat": 0.0, "rental_uris": {"android": "https://dc.lft.to/lastmile_qr_scan", "ios": "https://dc.lft.to/lastmile_qr_scan"}}, {"bike_id": "8d2ce32cc3ecb190abf3922556ebf577", "fusion_lon": 0.0, "name": "8d2ce32cc3ecb190abf3922556ebf577", "lat": 38.9186295, "is_disabled": 0, "is_reserved": 0, "lon": -77.041589, "type": "electric_scooter", "fusion_lat": 0.0, "rental_uris": {"android": "https://dc.lft.to/lastmile_qr_scan", "ios": "https://dc.lft.to/lastmile_qr_scan"}}, {"bike_id": "0784d4da735a4894ad0270c3650e8fb4", "fusion_lon": 0.0, "name": "0784d4da735a4894ad0270c3650e8fb4", "lat": 38.92331, "is_disabled": 0, "is_reserved": 0, "lon": -77.02052683333334, "type": "electric_scooter", "fusion_lat": 0.0, "rental_uris": {"android": "https://dc.lft.to/lastmile_qr_scan", "ios": "https://dc.lft.to/lastmile_qr_scan"}}, {"bike_id": "a31aee31410ae06c320ee768fa6e1a71", "fusion_lon": 0.0, "name": "a31aee31410ae06c320ee768fa6e1a71", "lat": 38.831449166666665, "is_disabled": 0, "is_reserved": 0, "lon": -77.00838916666666, "type": "electric_scooter", "fusion_lat": 0.0, "rental_uris": {"android": "https://dc.lft.to/lastmile_qr_scan", "ios": "https://dc.lft.to/lastmile_qr_scan"}}, {"bike_id": "91d585d9d5b9bc828153cc88e017914a", "fusion_lon": 0.0, "name": "91d585d9d5b9bc828153cc88e017914a", "lat": 38.926519666666664, "is_disabled": 0, "is_reserved": 0, "lon": -77.04291583333334, "type": "electric_scooter", "fusion_lat": 0.0, "rental_uris": {"android": "https://dc.lft.to/lastmile_qr_scan", "ios": "https://dc.lft.to/lastmile_qr_scan"}}, {"bike_id": "1e8b560c2a6a6039165d95cd32ae55f8", "fusion_lon": 0.0, "name": "1e8b560c2a6a6039165d95cd32ae55f8", "lat": 38.898744666666666, "is_disabled": 0, "is_reserved": 0, "lon": -76.93186166666666, "type": "electric_scooter", "fusion_lat": 0.0, "rental_uris": {"android": "https://dc.lft.to/lastmile_qr_scan", "ios": "https://dc.lft.to/lastmile_qr_scan"}}, {"bike_id": "a66195d4e528f9a0a3b30bc76ddac97e", "fusion_lon": 0.0, "name": "a66195d4e528f9a0a3b30bc76ddac97e", "lat": 39.08455683333333, "is_disabled": 0, "is_reserved": 0, "lon": -76.95196916666667, "type": "electric_bike", "fusion_lat": 0.0, "rental_uris": {"android": "https://dc.lft.to/lastmile_qr_scan", "ios": "https://dc.lft.to/lastmile_qr_scan"}}, {"bike_id": "a419bd05269dd46e04062cf4316f7d17", "fusion_lon": 0.0, "name": "a419bd05269dd46e04062cf4316f7d17", "lat": 38.93484683333333, "is_disabled": 0, "is_reserved": 0, "lon": -77.045313, "type": "electric_scooter", "fusion_lat": 0.0, "rental_uris": {"android": "https://dc.lft.to/lastmile_qr_scan", "ios": "https://dc.lft.to/lastmile_qr_scan"}}, {"bike_id": "0e0c6e2c9611d5bc90a7c2bcd3356e5d", "fusion_lon": 0.0, "name": "0e0c6e2c9611d5bc90a7c2bcd3356e5d", "lat": 38.89635033333333, "is_disabled": 0, "is_reserved": 0, "lon": -77.02221866666666, "type": "electric_scooter", "fusion_lat": 0.0, "rental_uris": {"android": "https://dc.lft.to/lastmile_qr_scan", "ios": "https://dc.lft.to/lastmile_qr_scan"}}, {"bike_id": "84bbb418d97ea3e65ed974ec9b6dad27", "fusion_lon": 0.0, "name": "84bbb418d97ea3e65ed974ec9b6dad27", "lat": 38.89401983333333, "is_disabled": 0, "is_reserved": 0, "lon": -76.99157083333333, "type": "electric_scooter", "fusion_lat": 0.0, "rental_uris": {"android": "https://dc.lft.to/lastmile_qr_scan", "ios": "https://dc.lft.to/lastmile_qr_scan"}}, {"bike_id": "b351e63d5e99cfef4d06996674de2273", "fusion_lon": 0.0, "name": "b351e63d5e99cfef4d06996674de2273", "lat": 38.87373383333333, "is_disabled": 0, "is_reserved": 0, "lon": -77.00011683333334, "type": "electric_scooter", "fusion_lat": 0.0, "rental_uris": {"android": "https://dc.lft.to/lastmile_qr_scan", "ios": "https://dc.lft.to/lastmile_qr_scan"}}, {"bike_id": "7cbcac1344a84c517e8dcbf27c459faf", "fusion_lon": 0.0, "name": "7cbcac1344a84c517e8dcbf27c459faf", "lat": 38.901577, "is_disabled": 0, "is_reserved": 0, "lon": -77.03458616666667, "type": "electric_scooter", "fusion_lat": 0.0, "rental_uris": {"android": "https://dc.lft.to/lastmile_qr_scan", "ios": "https://dc.lft.to/lastmile_qr_scan"}}, {"bike_id": "96a6d3e6a7453010b449d0d21c7a97d1", "fusion_lon": 0.0, "name": "96a6d3e6a7453010b449d0d21c7a97d1", "lat": 38.919231833333335, "is_disabled": 0, "is_reserved": 0, "lon": -77.02202866666667, "type": "electric_scooter", "fusion_lat": 0.0, "rental_uris": {"android": "https://dc.lft.to/lastmile_qr_scan", "ios": "https://dc.lft.to/lastmile_qr_scan"}}, {"bike_id": "8f4c2efc6f72227b5ea958d854e1ccba", "fusion_lon": 0.0, "name": "8f4c2efc6f72227b5ea958d854e1ccba", "lat": 38.9584135, "is_disabled": 0, "is_reserved": 0, "lon": -77.00095366666666, "type": "electric_bike", "fusion_lat": 0.0, "rental_uris": {"android": "https://dc.lft.to/lastmile_qr_scan", "ios": "https://dc.lft.to/lastmile_qr_scan"}}, {"bike_id": "7f2c688d3822bb03f0534144b8fffaa3", "fusion_lon": 0.0, "name": "7f2c688d3822bb03f0534144b8fffaa3", "lat": 38.914682, "is_disabled": 0, "is_reserved": 0, "lon": -77.03726483333334, "type": "electric_scooter", "fusion_lat": 0.0, "rental_uris": {"android": "https://dc.lft.to/lastmile_qr_scan", "ios": "https://dc.lft.to/lastmile_qr_scan"}}, {"bike_id": "5c0644d621fc6d09792234f0b6bc011e", "fusion_lon": 0.0, "name": "5c0644d621fc6d09792234f0b6bc011e", "lat": 38.909813166666666, "is_disabled": 0, "is_reserved": 0, "lon": -77.03312066666666, "type": "electric_scooter", "fusion_lat": 0.0, "rental_uris": {"android": "https://dc.lft.to/lastmile_qr_scan", "ios": "https://dc.lft.to/lastmile_qr_scan"}}, {"bike_id": "5394101e7bf0c1b156a682247a14f1a9", "fusion_lon": 0.0, "name": "5394101e7bf0c1b156a682247a14f1a9", "lat": 38.892211833333334, "is_disabled": 0, "is_reserved": 0, "lon": -77.0397745, "type": "electric_scooter", "fusion_lat": 0.0, "rental_uris": {"android": "https://dc.lft.to/lastmile_qr_scan", "ios": "https://dc.lft.to/lastmile_qr_scan"}}, {"bike_id": "7436720b1978f0673365381144db86b7", "fusion_lon": 0.0, "name": "7436720b1978f0673365381144db86b7", "lat": 38.8991165, "is_disabled": 0, "is_reserved": 0, "lon": -77.02702283333333, "type": "electric_scooter", "fusion_lat": 0.0, "rental_uris": {"android": "https://dc.lft.to/lastmile_qr_scan", "ios": "https://dc.lft.to/lastmile_qr_scan"}}, {"bike_id": "9d5ac6e7e843d805cc7487d2aebd4911", "fusion_lon": 0.0, "name": "9d5ac6e7e843d805cc7487d2aebd4911", "lat": 38.886065333333335, "is_disabled": 0, "is_reserved": 0, "lon": -77.03214516666667, "type": "electric_scooter", "fusion_lat": 0.0, "rental_uris": {"android": "https://dc.lft.to/lastmile_qr_scan", "ios": "https://dc.lft.to/lastmile_qr_scan"}}, {"bike_id": "9406f69243663d4071a31a2eda42ff8d", "fusion_lon": 0.0, "name": "9406f69243663d4071a31a2eda42ff8d", "lat": 38.978832, "is_disabled": 0, "is_reserved": 0, "lon": -77.060342, "type": "electric_bike", "fusion_lat": 0.0, "rental_uris": {"android": "https://dc.lft.to/lastmile_qr_scan", "ios": "https://dc.lft.to/lastmile_qr_scan"}}, {"bike_id": "3d10ce7c8683fae4713c9dff8817b2a8", "fusion_lon": 0.0, "name": "3d10ce7c8683fae4713c9dff8817b2a8", "lat": 38.887366166666666, "is_disabled": 0, "is_reserved": 0, "lon": -77.02578533333333, "type": "electric_scooter", "fusion_lat": 0.0, "rental_uris": {"android": "https://dc.lft.to/lastmile_qr_scan", "ios": "https://dc.lft.to/lastmile_qr_scan"}}, {"bike_id": "b6b0de2ec2d2c1b15f88e34d6ccafc6d", "fusion_lon": 0.0, "name": "b6b0de2ec2d2c1b15f88e34d6ccafc6d", "lat": 38.91563166666667, "is_disabled": 0, "is_reserved": 0, "lon": -77.021321, "type": "electric_scooter", "fusion_lat": 0.0, "rental_uris": {"android": "https://dc.lft.to/lastmile_qr_scan", "ios": "https://dc.lft.to/lastmile_qr_scan"}}, {"bike_id": "3f5fb30822cb9eaa8197cbf3f324c405", "fusion_lon": 0.0, "name": "3f5fb30822cb9eaa8197cbf3f324c405", "lat": 38.83928016666667, "is_disabled": 0, "is_reserved": 0, "lon": -77.07899483333334, "type": "electric_bike", "fusion_lat": 0.0, "rental_uris": {"android": "https://dc.lft.to/lastmile_qr_scan", "ios": "https://dc.lft.to/lastmile_qr_scan"}}, {"bike_id": "a6d8b4c42fe2b49e65a5a422d9baffcd", "fusion_lon": 0.0, "name": "a6d8b4c42fe2b49e65a5a422d9baffcd", "lat": 38.90510966666667, "is_disabled": 0, "is_reserved": 0, "lon": -77.049205, "type": "electric_scooter", "fusion_lat": 0.0, "rental_uris": {"android": "https://dc.lft.to/lastmile_qr_scan", "ios": "https://dc.lft.to/lastmile_qr_scan"}}, {"bike_id": "07a35d14c768927d0613cb0c28d406ea", "fusion_lon": 0.0, "name": "07a35d14c768927d0613cb0c28d406ea", "lat": 38.94371183333333, "is_disabled": 0, "is_reserved": 0, "lon": -77.02222383333333, "type": "electric_bike", "fusion_lat": 0.0, "rental_uris": {"android": "https://dc.lft.to/lastmile_qr_scan", "ios": "https://dc.lft.to/lastmile_qr_scan"}}, {"bike_id": "7141288ce77a82b8f119340e83b6c32b", "fusion_lon": 0.0, "name": "7141288ce77a82b8f119340e83b6c32b", "lat": 38.90728266666667, "is_disabled": 0, "is_reserved": 0, "lon": -76.99764466666667, "type": "electric_scooter", "fusion_lat": 0.0, "rental_uris": {"android": "https://dc.lft.to/lastmile_qr_scan", "ios": "https://dc.lft.to/lastmile_qr_scan"}}, {"bike_id": "f6c0b458312d7bd99b2ea8b393517001", "fusion_lon": 0.0, "name": "f6c0b458312d7bd99b2ea8b393517001", "lat": 38.92112483333333, "is_disabled": 0, "is_reserved": 0, "lon": -77.0420435, "type": "electric_scooter", "fusion_lat": 0.0, "rental_uris": {"android": "https://dc.lft.to/lastmile_qr_scan", "ios": "https://dc.lft.to/lastmile_qr_scan"}}, {"bike_id": "267b9bf92dc49e0aec2d60a15d88e82c", "fusion_lon": 0.0, "name": "267b9bf92dc49e0aec2d60a15d88e82c", "lat": 38.897102833333335, "is_disabled": 0, "is_reserved": 0, "lon": -77.03211383333333, "type": "electric_scooter", "fusion_lat": 0.0, "rental_uris": {"android": "https://dc.lft.to/lastmile_qr_scan", "ios": "https://dc.lft.to/lastmile_qr_scan"}}, {"bike_id": "fb6e71b55f83aee6cfed826676aa2e92", "fusion_lon": 0.0, "name": "fb6e71b55f83aee6cfed826676aa2e92", "lat": 38.917541166666666, "is_disabled": 0, "is_reserved": 0, "lon": -77.03849833333334, "type": "electric_scooter", "fusion_lat": 0.0, "rental_uris": {"android": "https://dc.lft.to/lastmile_qr_scan", "ios": "https://dc.lft.to/lastmile_qr_scan"}}, {"bike_id": "1c62e85908ade4aac12c634e364e0fa7", "fusion_lon": 0.0, "name": "1c62e85908ade4aac12c634e364e0fa7", "lat": 38.926014, "is_disabled": 0, "is_reserved": 0, "lon": -77.0238035, "type": "electric_scooter", "fusion_lat": 0.0, "rental_uris": {"android": "https://dc.lft.to/lastmile_qr_scan", "ios": "https://dc.lft.to/lastmile_qr_scan"}}, {"bike_id": "cc1056294d5d4c5b34cac6189ee5a644", "fusion_lon": 0.0, "name": "cc1056294d5d4c5b34cac6189ee5a644", "lat": 38.896703, "is_disabled": 0, "is_reserved": 0, "lon": -77.05462716666666, "type": "electric_scooter", "fusion_lat": 0.0, "rental_uris": {"android": "https://dc.lft.to/lastmile_qr_scan", "ios": "https://dc.lft.to/lastmile_qr_scan"}}, {"bike_id": "d4ebb6fb0cc756f546146278f387efee", "fusion_lon": 0.0, "name": "d4ebb6fb0cc756f546146278f387efee", "lat": 38.890079, "is_disabled": 0, "is_reserved": 0, "lon": -76.93743866666667, "type": "electric_scooter", "fusion_lat": 0.0, "rental_uris": {"android": "https://dc.lft.to/lastmile_qr_scan", "ios": "https://dc.lft.to/lastmile_qr_scan"}}, {"bike_id": "074abd297ccd1e679262edd565100e1f", "fusion_lon": 0.0, "name": "074abd297ccd1e679262edd565100e1f", "lat": 38.9255855, "is_disabled": 0, "is_reserved": 0, "lon": -77.02283416666667, "type": "electric_scooter", "fusion_lat": 0.0, "rental_uris": {"android": "https://dc.lft.to/lastmile_qr_scan", "ios": "https://dc.lft.to/lastmile_qr_scan"}}, {"bike_id": "c98ac0fa8da7c2595b9158048bac473a", "fusion_lon": 0.0, "name": "c98ac0fa8da7c2595b9158048bac473a", "lat": 38.900264666666665, "is_disabled": 0, "is_reserved": 0, "lon": -76.99728666666667, "type": "electric_scooter", "fusion_lat": 0.0, "rental_uris": {"android": "https://dc.lft.to/lastmile_qr_scan", "ios": "https://dc.lft.to/lastmile_qr_scan"}}, {"bike_id": "cc446c489d62b6803ed7b59e97de85dc", "fusion_lon": 0.0, "name": "cc446c489d62b6803ed7b59e97de85dc", "lat": 38.90381683333333, "is_disabled": 0, "is_reserved": 0, "lon": -77.04444333333333, "type": "electric_scooter", "fusion_lat": 0.0, "rental_uris": {"android": "https://dc.lft.to/lastmile_qr_scan", "ios": "https://dc.lft.to/lastmile_qr_scan"}}, {"bike_id": "f3f3f6b31804b576bd0b74aa30c5fd07", "fusion_lon": 0.0, "name": "f3f3f6b31804b576bd0b74aa30c5fd07", "lat": 38.90957433333333, "is_disabled": 0, "is_reserved": 0, "lon": -77.22890133333334, "type": "electric_bike", "fusion_lat": 0.0, "rental_uris": {"android": "https://dc.lft.to/lastmile_qr_scan", "ios": "https://dc.lft.to/lastmile_qr_scan"}}, {"bike_id": "cb0d4e9af435457531cfa71b240b98da", "fusion_lon": 0.0, "name": "cb0d4e9af435457531cfa71b240b98da", "lat": 38.898385166666664, "is_disabled": 0, "is_reserved": 0, "lon": -77.03320616666667, "type": "electric_scooter", "fusion_lat": 0.0, "rental_uris": {"android": "https://dc.lft.to/lastmile_qr_scan", "ios": "https://dc.lft.to/lastmile_qr_scan"}}, {"bike_id": "74bdfec41c5dbcb064e3642c5dfba17d", "fusion_lon": 0.0, "name": "74bdfec41c5dbcb064e3642c5dfba17d", "lat": 38.92865833333333, "is_disabled": 0, "is_reserved": 0, "lon": -77.03514866666667, "type": "electric_scooter", "fusion_lat": 0.0, "rental_uris": {"android": "https://dc.lft.to/lastmile_qr_scan", "ios": "https://dc.lft.to/lastmile_qr_scan"}}, {"bike_id": "20f1ddf500cea2db447233d5b5e6f73a", "fusion_lon": 0.0, "name": "20f1ddf500cea2db447233d5b5e6f73a", "lat": 38.907926, "is_disabled": 0, "is_reserved": 0, "lon": -76.99425316666667, "type": "electric_scooter", "fusion_lat": 0.0, "rental_uris": {"android": "https://dc.lft.to/lastmile_qr_scan", "ios": "https://dc.lft.to/lastmile_qr_scan"}}, {"bike_id": "19f19a1b4e0eb90dbdac56fde9a6d8a2", "fusion_lon": 0.0, "name": "19f19a1b4e0eb90dbdac56fde9a6d8a2", "lat": 38.880600666666666, "is_disabled": 0, "is_reserved": 0, "lon": -76.9321135, "type": "electric_scooter", "fusion_lat": 0.0, "rental_uris": {"android": "https://dc.lft.to/lastmile_qr_scan", "ios": "https://dc.lft.to/lastmile_qr_scan"}}, {"bike_id": "b3f509a588806d1fb8ce9386bd31f88d", "fusion_lon": 0.0, "name": "b3f509a588806d1fb8ce9386bd31f88d", "lat": 38.90151266666667, "is_disabled": 0, "is_reserved": 0, "lon": -76.99030033333334, "type": "electric_scooter", "fusion_lat": 0.0, "rental_uris": {"android": "https://dc.lft.to/lastmile_qr_scan", "ios": "https://dc.lft.to/lastmile_qr_scan"}}, {"bike_id": "302eed28d4b244e5be11e47b21c755fd", "fusion_lon": 0.0, "name": "302eed28d4b244e5be11e47b21c755fd", "lat": 38.91775666666667, "is_disabled": 0, "is_reserved": 0, "lon": -77.02305566666666, "type": "electric_scooter", "fusion_lat": 0.0, "rental_uris": {"android": "https://dc.lft.to/lastmile_qr_scan", "ios": "https://dc.lft.to/lastmile_qr_scan"}}, {"bike_id": "020ae64a22c99f2507ec1541439698d3", "fusion_lon": 0.0, "name": "020ae64a22c99f2507ec1541439698d3", "lat": 38.91652216666667, "is_disabled": 0, "is_reserved": 0, "lon": -77.0321395, "type": "electric_scooter", "fusion_lat": 0.0, "rental_uris": {"android": "https://dc.lft.to/lastmile_qr_scan", "ios": "https://dc.lft.to/lastmile_qr_scan"}}, {"bike_id": "cb53830aef63b8360337e27c25ea857e", "fusion_lon": 0.0, "name": "cb53830aef63b8360337e27c25ea857e", "lat": 38.91813233333333, "is_disabled": 0, "is_reserved": 0, "lon": -77.0320345, "type": "electric_scooter", "fusion_lat": 0.0, "rental_uris": {"android": "https://dc.lft.to/lastmile_qr_scan", "ios": "https://dc.lft.to/lastmile_qr_scan"}}, {"bike_id": "22f4f8aafbb0e855321d65438836638c", "fusion_lon": 0.0, "name": "22f4f8aafbb0e855321d65438836638c", "lat": 38.885218, "is_disabled": 0, "is_reserved": 0, "lon": -76.97711, "type": "electric_scooter", "fusion_lat": 0.0, "rental_uris": {"android": "https://dc.lft.to/lastmile_qr_scan", "ios": "https://dc.lft.to/lastmile_qr_scan"}}, {"bike_id": "c46d1f50a18b6c6625807950dd6c0f0b", "fusion_lon": 0.0, "name": "c46d1f50a18b6c6625807950dd6c0f0b", "lat": 38.907422833333335, "is_disabled": 0, "is_reserved": 0, "lon": -77.043517, "type": "electric_scooter", "fusion_lat": 0.0, "rental_uris": {"android": "https://dc.lft.to/lastmile_qr_scan", "ios": "https://dc.lft.to/lastmile_qr_scan"}}, {"bike_id": "3aec82672c4b3d6a8307cf125b97161a", "fusion_lon": 0.0, "name": "3aec82672c4b3d6a8307cf125b97161a", "lat": 38.87953733333333, "is_disabled": 0, "is_reserved": 0, "lon": -76.9900995, "type": "electric_scooter", "fusion_lat": 0.0, "rental_uris": {"android": "https://dc.lft.to/lastmile_qr_scan", "ios": "https://dc.lft.to/lastmile_qr_scan"}}, {"bike_id": "194ed9728c27e3140360fa25fb2ab2c7", "fusion_lon": 0.0, "name": "194ed9728c27e3140360fa25fb2ab2c7", "lat": 38.901699666666666, "is_disabled": 0, "is_reserved": 0, "lon": -77.03451933333334, "type": "electric_scooter", "fusion_lat": 0.0, "rental_uris": {"android": "https://dc.lft.to/lastmile_qr_scan", "ios": "https://dc.lft.to/lastmile_qr_scan"}}, {"bike_id": "e6c49f132b1feb8d79a0063cda050003", "fusion_lon": 0.0, "name": "e6c49f132b1feb8d79a0063cda050003", "lat": 38.9245895, "is_disabled": 0, "is_reserved": 0, "lon": -76.983617, "type": "electric_scooter", "fusion_lat": 0.0, "rental_uris": {"android": "https://dc.lft.to/lastmile_qr_scan", "ios": "https://dc.lft.to/lastmile_qr_scan"}}, {"bike_id": "199fe831fa00eade8dc774e598a6d219", "fusion_lon": 0.0, "name": "199fe831fa00eade8dc774e598a6d219", "lat": 38.9142325, "is_disabled": 0, "is_reserved": 0, "lon": -77.0692245, "type": "electric_bike", "fusion_lat": 0.0, "rental_uris": {"android": "https://dc.lft.to/lastmile_qr_scan", "ios": "https://dc.lft.to/lastmile_qr_scan"}}, {"bike_id": "1c4546c07fe6c781c115575764cce58b", "fusion_lon": 0.0, "name": "1c4546c07fe6c781c115575764cce58b", "lat": 38.915648833333336, "is_disabled": 0, "is_reserved": 0, "lon": -77.04623983333333, "type": "electric_scooter", "fusion_lat": 0.0, "rental_uris": {"android": "https://dc.lft.to/lastmile_qr_scan", "ios": "https://dc.lft.to/lastmile_qr_scan"}}, {"bike_id": "d07028b7238e1ceb6ade28a5139758f2", "fusion_lon": 0.0, "name": "d07028b7238e1ceb6ade28a5139758f2", "lat": 38.88316783333333, "is_disabled": 0, "is_reserved": 0, "lon": -77.017737, "type": "electric_scooter", "fusion_lat": 0.0, "rental_uris": {"android": "https://dc.lft.to/lastmile_qr_scan", "ios": "https://dc.lft.to/lastmile_qr_scan"}}, {"bike_id": "435ee5802ae29f20a3ff61526d9da60d", "fusion_lon": 0.0, "name": "435ee5802ae29f20a3ff61526d9da60d", "lat": 38.91477283333333, "is_disabled": 0, "is_reserved": 0, "lon": -77.045467, "type": "electric_scooter", "fusion_lat": 0.0, "rental_uris": {"android": "https://dc.lft.to/lastmile_qr_scan", "ios": "https://dc.lft.to/lastmile_qr_scan"}}, {"bike_id": "1f80b7c9657238e4baf41c7db07c2066", "fusion_lon": 0.0, "name": "1f80b7c9657238e4baf41c7db07c2066", "lat": 38.821791833333336, "is_disabled": 0, "is_reserved": 0, "lon": -76.995161, "type": "electric_bike", "fusion_lat": 0.0, "rental_uris": {"android": "https://dc.lft.to/lastmile_qr_scan", "ios": "https://dc.lft.to/lastmile_qr_scan"}}, {"bike_id": "5d29f79ca888eee3e474ea03c5185802", "fusion_lon": 0.0, "name": "5d29f79ca888eee3e474ea03c5185802", "lat": 38.907816, "is_disabled": 0, "is_reserved": 0, "lon": -77.02977466666667, "type": "electric_scooter", "fusion_lat": 0.0, "rental_uris": {"android": "https://dc.lft.to/lastmile_qr_scan", "ios": "https://dc.lft.to/lastmile_qr_scan"}}, {"bike_id": "232fd9a20e885f3595b0d67663c4375f", "fusion_lon": 0.0, "name": "232fd9a20e885f3595b0d67663c4375f", "lat": 38.898976833333336, "is_disabled": 0, "is_reserved": 0, "lon": -77.032811, "type": "electric_scooter", "fusion_lat": 0.0, "rental_uris": {"android": "https://dc.lft.to/lastmile_qr_scan", "ios": "https://dc.lft.to/lastmile_qr_scan"}}, {"bike_id": "f49a81ac616c95a3360cce1ba3e2bd0c", "fusion_lon": 0.0, "name": "f49a81ac616c95a3360cce1ba3e2bd0c", "lat": 38.9242235, "is_disabled": 0, "is_reserved": 0, "lon": -77.019473, "type": "electric_scooter", "fusion_lat": 0.0, "rental_uris": {"android": "https://dc.lft.to/lastmile_qr_scan", "ios": "https://dc.lft.to/lastmile_qr_scan"}}, {"bike_id": "67dfa8201609a98d4fea379c00684e0e", "fusion_lon": 0.0, "name": "67dfa8201609a98d4fea379c00684e0e", "lat": 38.92605283333333, "is_disabled": 0, "is_reserved": 0, "lon": -77.02151666666667, "type": "electric_scooter", "fusion_lat": 0.0, "rental_uris": {"android": "https://dc.lft.to/lastmile_qr_scan", "ios": "https://dc.lft.to/lastmile_qr_scan"}}, {"bike_id": "244fca0272b72b8fdbbba5512aa300e8", "fusion_lon": 0.0, "name": "244fca0272b72b8fdbbba5512aa300e8", "lat": 38.8982885, "is_disabled": 0, "is_reserved": 0, "lon": -76.94631233333334, "type": "electric_scooter", "fusion_lat": 0.0, "rental_uris": {"android": "https://dc.lft.to/lastmile_qr_scan", "ios": "https://dc.lft.to/lastmile_qr_scan"}}, {"bike_id": "930b0fa5d0683827676fcf4fe0698d26", "fusion_lon": 0.0, "name": "930b0fa5d0683827676fcf4fe0698d26", "lat": 38.915648166666664, "is_disabled": 0, "is_reserved": 0, "lon": -77.03223866666667, "type": "electric_scooter", "fusion_lat": 0.0, "rental_uris": {"android": "https://dc.lft.to/lastmile_qr_scan", "ios": "https://dc.lft.to/lastmile_qr_scan"}}, {"bike_id": "6a57d8d77894be32bb41bbc19af6999c", "fusion_lon": 0.0, "name": "6a57d8d77894be32bb41bbc19af6999c", "lat": 38.899683, "is_disabled": 0, "is_reserved": 0, "lon": -77.0465375, "type": "electric_scooter", "fusion_lat": 0.0, "rental_uris": {"android": "https://dc.lft.to/lastmile_qr_scan", "ios": "https://dc.lft.to/lastmile_qr_scan"}}, {"bike_id": "eea22dfd0f7a07909dacbe186aa22816", "fusion_lon": 0.0, "name": "eea22dfd0f7a07909dacbe186aa22816", "lat": 38.80450666666667, "is_disabled": 0, "is_reserved": 0, "lon": -77.05389383333333, "type": "electric_bike", "fusion_lat": 0.0, "rental_uris": {"android": "https://dc.lft.to/lastmile_qr_scan", "ios": "https://dc.lft.to/lastmile_qr_scan"}}, {"bike_id": "d43c4de1792fc5ca10d1aef90b34fbd4", "fusion_lon": 0.0, "name": "d43c4de1792fc5ca10d1aef90b34fbd4", "lat": 38.887021833333336, "is_disabled": 0, "is_reserved": 0, "lon": -77.00246033333333, "type": "electric_scooter", "fusion_lat": 0.0, "rental_uris": {"android": "https://dc.lft.to/lastmile_qr_scan", "ios": "https://dc.lft.to/lastmile_qr_scan"}}, {"bike_id": "6786635b8e704f439ef8a87ceead9890", "fusion_lon": 0.0, "name": "6786635b8e704f439ef8a87ceead9890", "lat": 38.9132545, "is_disabled": 0, "is_reserved": 0, "lon": -77.03845633333333, "type": "electric_scooter", "fusion_lat": 0.0, "rental_uris": {"android": "https://dc.lft.to/lastmile_qr_scan", "ios": "https://dc.lft.to/lastmile_qr_scan"}}, {"bike_id": "dfb9dab89fefd1b277934b33ae2c9e58", "fusion_lon": 0.0, "name": "dfb9dab89fefd1b277934b33ae2c9e58", "lat": 38.8736385, "is_disabled": 0, "is_reserved": 0, "lon": -77.00613183333333, "type": "electric_scooter", "fusion_lat": 0.0, "rental_uris": {"android": "https://dc.lft.to/lastmile_qr_scan", "ios": "https://dc.lft.to/lastmile_qr_scan"}}, {"bike_id": "7d0b8d87ea5ab95a938bf1d30d135469", "fusion_lon": 0.0, "name": "7d0b8d87ea5ab95a938bf1d30d135469", "lat": 38.90318466666667, "is_disabled": 0, "is_reserved": 0, "lon": -77.06018133333333, "type": "electric_scooter", "fusion_lat": 0.0, "rental_uris": {"android": "https://dc.lft.to/lastmile_qr_scan", "ios": "https://dc.lft.to/lastmile_qr_scan"}}, {"bike_id": "1e23c313d24b5711a4b5959930161f47", "fusion_lon": 0.0, "name": "1e23c313d24b5711a4b5959930161f47", "lat": 38.92382116666667, "is_disabled": 0, "is_reserved": 0, "lon": -77.0310365, "type": "electric_scooter", "fusion_lat": 0.0, "rental_uris": {"android": "https://dc.lft.to/lastmile_qr_scan", "ios": "https://dc.lft.to/lastmile_qr_scan"}}, {"bike_id": "de6209a3eaf9bef1a1fe5cde149c5882", "fusion_lon": 0.0, "name": "de6209a3eaf9bef1a1fe5cde149c5882", "lat": 38.961325333333335, "is_disabled": 0, "is_reserved": 0, "lon": -77.0278745, "type": "electric_scooter", "fusion_lat": 0.0, "rental_uris": {"android": "https://dc.lft.to/lastmile_qr_scan", "ios": "https://dc.lft.to/lastmile_qr_scan"}}, {"bike_id": "6801f67dbee0b88752f3430cf09f75b9", "fusion_lon": 0.0, "name": "6801f67dbee0b88752f3430cf09f75b9", "lat": 38.86630616666667, "is_disabled": 0, "is_reserved": 0, "lon": -76.98710016666666, "type": "electric_scooter", "fusion_lat": 0.0, "rental_uris": {"android": "https://dc.lft.to/lastmile_qr_scan", "ios": "https://dc.lft.to/lastmile_qr_scan"}}, {"bike_id": "8c2be7aea59c91b68204ff237253fbde", "fusion_lon": 0.0, "name": "8c2be7aea59c91b68204ff237253fbde", "lat": 38.87618916666667, "is_disabled": 0, "is_reserved": 0, "lon": -77.00651833333333, "type": "electric_scooter", "fusion_lat": 0.0, "rental_uris": {"android": "https://dc.lft.to/lastmile_qr_scan", "ios": "https://dc.lft.to/lastmile_qr_scan"}}, {"bike_id": "00e5705282df15d881c122024d9a7d17", "fusion_lon": 0.0, "name": "00e5705282df15d881c122024d9a7d17", "lat": 38.92357716666667, "is_disabled": 0, "is_reserved": 0, "lon": -76.9713605, "type": "electric_bike", "fusion_lat": 0.0, "rental_uris": {"android": "https://dc.lft.to/lastmile_qr_scan", "ios": "https://dc.lft.to/lastmile_qr_scan"}}, {"bike_id": "8bc64d86d4b5430b17c214316c728328", "fusion_lon": 0.0, "name": "8bc64d86d4b5430b17c214316c728328", "lat": 38.819872, "is_disabled": 0, "is_reserved": 0, "lon": -76.99811233333334, "type": "electric_bike", "fusion_lat": 0.0, "rental_uris": {"android": "https://dc.lft.to/lastmile_qr_scan", "ios": "https://dc.lft.to/lastmile_qr_scan"}}, {"bike_id": "778f2ff2c2c541982b3479bba3af98ee", "fusion_lon": 0.0, "name": "778f2ff2c2c541982b3479bba3af98ee", "lat": 38.877856, "is_disabled": 0, "is_reserved": 0, "lon": -76.994095, "type": "electric_scooter", "fusion_lat": 0.0, "rental_uris": {"android": "https://dc.lft.to/lastmile_qr_scan", "ios": "https://dc.lft.to/lastmile_qr_scan"}}, {"bike_id": "e3fc966964fc46bd85dad7f06a281f3d", "fusion_lon": 0.0, "name": "e3fc966964fc46bd85dad7f06a281f3d", "lat": 38.899639666666666, "is_disabled": 0, "is_reserved": 0, "lon": -77.0414785, "type": "electric_scooter", "fusion_lat": 0.0, "rental_uris": {"android": "https://dc.lft.to/lastmile_qr_scan", "ios": "https://dc.lft.to/lastmile_qr_scan"}}, {"bike_id": "213c83f8a8311f3c6d1e7867e3f1120c", "fusion_lon": 0.0, "name": "213c83f8a8311f3c6d1e7867e3f1120c", "lat": 38.914575, "is_disabled": 0, "is_reserved": 0, "lon": -77.00643266666667, "type": "electric_scooter", "fusion_lat": 0.0, "rental_uris": {"android": "https://dc.lft.to/lastmile_qr_scan", "ios": "https://dc.lft.to/lastmile_qr_scan"}}, {"bike_id": "aa868b3946ccfebeee43635e64304a68", "fusion_lon": 0.0, "name": "aa868b3946ccfebeee43635e64304a68", "lat": 38.9111835, "is_disabled": 0, "is_reserved": 0, "lon": -77.03832616666666, "type": "electric_scooter", "fusion_lat": 0.0, "rental_uris": {"android": "https://dc.lft.to/lastmile_qr_scan", "ios": "https://dc.lft.to/lastmile_qr_scan"}}, {"bike_id": "1efa0da0d40e5973f85ad0dccd53c853", "fusion_lon": 0.0, "name": "1efa0da0d40e5973f85ad0dccd53c853", "lat": 38.89604083333333, "is_disabled": 0, "is_reserved": 0, "lon": -77.04643383333334, "type": "electric_scooter", "fusion_lat": 0.0, "rental_uris": {"android": "https://dc.lft.to/lastmile_qr_scan", "ios": "https://dc.lft.to/lastmile_qr_scan"}}, {"bike_id": "cc8ac16569fac0cda40b5b8c1c6bb7b4", "fusion_lon": 0.0, "name": "cc8ac16569fac0cda40b5b8c1c6bb7b4", "lat": 38.909608666666664, "is_disabled": 0, "is_reserved": 0, "lon": -77.03769483333333, "type": "electric_scooter", "fusion_lat": 0.0, "rental_uris": {"android": "https://dc.lft.to/lastmile_qr_scan", "ios": "https://dc.lft.to/lastmile_qr_scan"}}, {"bike_id": "1f676d5269a3e929e557bcf0fbd7561b", "fusion_lon": 0.0, "name": "1f676d5269a3e929e557bcf0fbd7561b", "lat": 38.91418733333333, "is_disabled": 0, "is_reserved": 0, "lon": -77.00832016666666, "type": "electric_scooter", "fusion_lat": 0.0, "rental_uris": {"android": "https://dc.lft.to/lastmile_qr_scan", "ios": "https://dc.lft.to/lastmile_qr_scan"}}, {"bike_id": "5c4803881a6d6bdb73b916ab108e4130", "fusion_lon": 0.0, "name": "5c4803881a6d6bdb73b916ab108e4130", "lat": 38.936996, "is_disabled": 0, "is_reserved": 0, "lon": -77.05597666666667, "type": "electric_scooter", "fusion_lat": 0.0, "rental_uris": {"android": "https://dc.lft.to/lastmile_qr_scan", "ios": "https://dc.lft.to/lastmile_qr_scan"}}, {"bike_id": "bf5d0934fc72e634e3773dee2933dcdb", "fusion_lon": 0.0, "name": "bf5d0934fc72e634e3773dee2933dcdb", "lat": 38.892402, "is_disabled": 0, "is_reserved": 0, "lon": -77.048745, "type": "electric_scooter", "fusion_lat": 0.0, "rental_uris": {"android": "https://dc.lft.to/lastmile_qr_scan", "ios": "https://dc.lft.to/lastmile_qr_scan"}}, {"bike_id": "e12f456d760616914629df571dd0dae2", "fusion_lon": 0.0, "name": "e12f456d760616914629df571dd0dae2", "lat": 38.91862883333334, "is_disabled": 0, "is_reserved": 0, "lon": -77.03216216666667, "type": "electric_scooter", "fusion_lat": 0.0, "rental_uris": {"android": "https://dc.lft.to/lastmile_qr_scan", "ios": "https://dc.lft.to/lastmile_qr_scan"}}, {"bike_id": "711a8d6bb33b65dacd0c46c0125de4d5", "fusion_lon": 0.0, "name": "711a8d6bb33b65dacd0c46c0125de4d5", "lat": 38.922346833333336, "is_disabled": 0, "is_reserved": 0, "lon": -77.039015, "type": "electric_scooter", "fusion_lat": 0.0, "rental_uris": {"android": "https://dc.lft.to/lastmile_qr_scan", "ios": "https://dc.lft.to/lastmile_qr_scan"}}, {"bike_id": "16af38040f0b6aef2091e6a5d168580a", "fusion_lon": 0.0, "name": "16af38040f0b6aef2091e6a5d168580a", "lat": 38.904131166666666, "is_disabled": 0, "is_reserved": 0, "lon": -76.97329833333333, "type": "electric_scooter", "fusion_lat": 0.0, "rental_uris": {"android": "https://dc.lft.to/lastmile_qr_scan", "ios": "https://dc.lft.to/lastmile_qr_scan"}}, {"bike_id": "ff103230ede3ca6b9e771e8028195657", "fusion_lon": 0.0, "name": "ff103230ede3ca6b9e771e8028195657", "lat": 38.876869166666665, "is_disabled": 0, "is_reserved": 0, "lon": -77.007498, "type": "electric_scooter", "fusion_lat": 0.0, "rental_uris": {"android": "https://dc.lft.to/lastmile_qr_scan", "ios": "https://dc.lft.to/lastmile_qr_scan"}}, {"bike_id": "68adbb33d629de5d1be7f9678f0d2b68", "fusion_lon": 0.0, "name": "68adbb33d629de5d1be7f9678f0d2b68", "lat": 38.887661666666666, "is_disabled": 0, "is_reserved": 0, "lon": -76.97751433333333, "type": "electric_scooter", "fusion_lat": 0.0, "rental_uris": {"android": "https://dc.lft.to/lastmile_qr_scan", "ios": "https://dc.lft.to/lastmile_qr_scan"}}, {"bike_id": "9d47009da9c2978fd2557f3a96f19e78", "fusion_lon": 0.0, "name": "9d47009da9c2978fd2557f3a96f19e78", "lat": 38.905570166666664, "is_disabled": 0, "is_reserved": 0, "lon": -77.04336516666666, "type": "electric_scooter", "fusion_lat": 0.0, "rental_uris": {"android": "https://dc.lft.to/lastmile_qr_scan", "ios": "https://dc.lft.to/lastmile_qr_scan"}}, {"bike_id": "3f4dc6785cb3cbdc69377070a8fb276f", "fusion_lon": 0.0, "name": "3f4dc6785cb3cbdc69377070a8fb276f", "lat": 38.94911233333333, "is_disabled": 0, "is_reserved": 0, "lon": -77.0664945, "type": "electric_scooter", "fusion_lat": 0.0, "rental_uris": {"android": "https://dc.lft.to/lastmile_qr_scan", "ios": "https://dc.lft.to/lastmile_qr_scan"}}, {"bike_id": "01e23602ac4d18e1a3b13d8ae7d8dc53", "fusion_lon": 0.0, "name": "01e23602ac4d18e1a3b13d8ae7d8dc53", "lat": 38.914902, "is_disabled": 0, "is_reserved": 0, "lon": -77.048354, "type": "electric_scooter", "fusion_lat": 0.0, "rental_uris": {"android": "https://dc.lft.to/lastmile_qr_scan", "ios": "https://dc.lft.to/lastmile_qr_scan"}}, {"bike_id": "a549f9eaa56dcad5f731c7ad34411087", "fusion_lon": 0.0, "name": "a549f9eaa56dcad5f731c7ad34411087", "lat": 38.9129585, "is_disabled": 0, "is_reserved": 0, "lon": -76.98468766666667, "type": "electric_scooter", "fusion_lat": 0.0, "rental_uris": {"android": "https://dc.lft.to/lastmile_qr_scan", "ios": "https://dc.lft.to/lastmile_qr_scan"}}, {"bike_id": "2de8b83824f26f18c8399cdb2016e2ff", "fusion_lon": 0.0, "name": "2de8b83824f26f18c8399cdb2016e2ff", "lat": 38.912645833333336, "is_disabled": 0, "is_reserved": 0, "lon": -77.04841816666666, "type": "electric_scooter", "fusion_lat": 0.0, "rental_uris": {"android": "https://dc.lft.to/lastmile_qr_scan", "ios": "https://dc.lft.to/lastmile_qr_scan"}}, {"bike_id": "2565d659fd6d380e38fafaa789110e2f", "fusion_lon": 0.0, "name": "2565d659fd6d380e38fafaa789110e2f", "lat": 38.92310633333334, "is_disabled": 0, "is_reserved": 0, "lon": -77.0410775, "type": "electric_scooter", "fusion_lat": 0.0, "rental_uris": {"android": "https://dc.lft.to/lastmile_qr_scan", "ios": "https://dc.lft.to/lastmile_qr_scan"}}, {"bike_id": "a7d83ae435535d7206843c6d75ba25b6", "fusion_lon": 0.0, "name": "a7d83ae435535d7206843c6d75ba25b6", "lat": 38.91880733333333, "is_disabled": 0, "is_reserved": 0, "lon": -77.04313616666667, "type": "electric_scooter", "fusion_lat": 0.0, "rental_uris": {"android": "https://dc.lft.to/lastmile_qr_scan", "ios": "https://dc.lft.to/lastmile_qr_scan"}}, {"bike_id": "698d6c4e0022e56f0ad0ea1aa37ff15c", "fusion_lon": 0.0, "name": "698d6c4e0022e56f0ad0ea1aa37ff15c", "lat": 38.89365033333333, "is_disabled": 0, "is_reserved": 0, "lon": -76.92592866666666, "type": "electric_scooter", "fusion_lat": 0.0, "rental_uris": {"android": "https://dc.lft.to/lastmile_qr_scan", "ios": "https://dc.lft.to/lastmile_qr_scan"}}, {"bike_id": "93a3d6f0148afd65ada68a0b7652e632", "fusion_lon": 0.0, "name": "93a3d6f0148afd65ada68a0b7652e632", "lat": 38.909498666666664, "is_disabled": 0, "is_reserved": 0, "lon": -76.98535633333333, "type": "electric_scooter", "fusion_lat": 0.0, "rental_uris": {"android": "https://dc.lft.to/lastmile_qr_scan", "ios": "https://dc.lft.to/lastmile_qr_scan"}}, {"bike_id": "3c9b21cb0a24223d92fd86a028dfe4a3", "fusion_lon": 0.0, "name": "3c9b21cb0a24223d92fd86a028dfe4a3", "lat": 38.9057185, "is_disabled": 0, "is_reserved": 0, "lon": -77.04072666666667, "type": "electric_scooter", "fusion_lat": 0.0, "rental_uris": {"android": "https://dc.lft.to/lastmile_qr_scan", "ios": "https://dc.lft.to/lastmile_qr_scan"}}, {"bike_id": "0df2b3a8547d5ef2e2a72c3129244090", "fusion_lon": 0.0, "name": "0df2b3a8547d5ef2e2a72c3129244090", "lat": 38.86516566666667, "is_disabled": 0, "is_reserved": 0, "lon": -77.12936083333334, "type": "electric_bike", "fusion_lat": 0.0, "rental_uris": {"android": "https://dc.lft.to/lastmile_qr_scan", "ios": "https://dc.lft.to/lastmile_qr_scan"}}, {"bike_id": "4744522d2ae16af36c690826e8944b60", "fusion_lon": 0.0, "name": "4744522d2ae16af36c690826e8944b60", "lat": 38.91695033333333, "is_disabled": 0, "is_reserved": 0, "lon": -77.04212416666667, "type": "electric_scooter", "fusion_lat": 0.0, "rental_uris": {"android": "https://dc.lft.to/lastmile_qr_scan", "ios": "https://dc.lft.to/lastmile_qr_scan"}}, {"bike_id": "e3c7d3a7109aba0933b5343c64f3fc70", "fusion_lon": 0.0, "name": "e3c7d3a7109aba0933b5343c64f3fc70", "lat": 38.923606, "is_disabled": 0, "is_reserved": 0, "lon": -77.05049633333333, "type": "electric_scooter", "fusion_lat": 0.0, "rental_uris": {"android": "https://dc.lft.to/lastmile_qr_scan", "ios": "https://dc.lft.to/lastmile_qr_scan"}}, {"bike_id": "a500fafcbc3513060889f5665979c377", "fusion_lon": 0.0, "name": "a500fafcbc3513060889f5665979c377", "lat": 38.9002845, "is_disabled": 0, "is_reserved": 0, "lon": -77.00672416666667, "type": "electric_scooter", "fusion_lat": 0.0, "rental_uris": {"android": "https://dc.lft.to/lastmile_qr_scan", "ios": "https://dc.lft.to/lastmile_qr_scan"}}, {"bike_id": "c4354fe4dc3987be382c6df6c02eb5f2", "fusion_lon": 0.0, "name": "c4354fe4dc3987be382c6df6c02eb5f2", "lat": 38.824575833333334, "is_disabled": 0, "is_reserved": 0, "lon": -77.007926, "type": "electric_bike", "fusion_lat": 0.0, "rental_uris": {"android": "https://dc.lft.to/lastmile_qr_scan", "ios": "https://dc.lft.to/lastmile_qr_scan"}}, {"bike_id": "f962680fdeba8fda6f5d0d469f36aeba", "fusion_lon": 0.0, "name": "f962680fdeba8fda6f5d0d469f36aeba", "lat": 38.910800333333334, "is_disabled": 0, "is_reserved": 0, "lon": -77.0655015, "type": "electric_bike", "fusion_lat": 0.0, "rental_uris": {"android": "https://dc.lft.to/lastmile_qr_scan", "ios": "https://dc.lft.to/lastmile_qr_scan"}}, {"bike_id": "992baa0a44ce734c6f89a76aedf2a6a1", "fusion_lon": 0.0, "name": "992baa0a44ce734c6f89a76aedf2a6a1", "lat": 38.89588283333333, "is_disabled": 0, "is_reserved": 0, "lon": -77.02568583333333, "type": "electric_scooter", "fusion_lat": 0.0, "rental_uris": {"android": "https://dc.lft.to/lastmile_qr_scan", "ios": "https://dc.lft.to/lastmile_qr_scan"}}, {"bike_id": "18519d7bd32603399bf843edaabd0dac", "fusion_lon": 0.0, "name": "18519d7bd32603399bf843edaabd0dac", "lat": 38.90989, "is_disabled": 0, "is_reserved": 0, "lon": -77.03464816666667, "type": "electric_scooter", "fusion_lat": 0.0, "rental_uris": {"android": "https://dc.lft.to/lastmile_qr_scan", "ios": "https://dc.lft.to/lastmile_qr_scan"}}, {"bike_id": "3ca586ade4d0ffd8d38c19f86c491e28", "fusion_lon": 0.0, "name": "3ca586ade4d0ffd8d38c19f86c491e28", "lat": 38.906874333333334, "is_disabled": 0, "is_reserved": 0, "lon": -76.984938, "type": "electric_scooter", "fusion_lat": 0.0, "rental_uris": {"android": "https://dc.lft.to/lastmile_qr_scan", "ios": "https://dc.lft.to/lastmile_qr_scan"}}, {"bike_id": "1cf0021b46b26bbf5b77b9167a3fe958", "fusion_lon": 0.0, "name": "1cf0021b46b26bbf5b77b9167a3fe958", "lat": 38.91558083333334, "is_disabled": 0, "is_reserved": 0, "lon": -77.02048583333334, "type": "electric_scooter", "fusion_lat": 0.0, "rental_uris": {"android": "https://dc.lft.to/lastmile_qr_scan", "ios": "https://dc.lft.to/lastmile_qr_scan"}}, {"bike_id": "452bfa5c14ef8b7aa2cca4d7e220250c", "fusion_lon": 0.0, "name": "452bfa5c14ef8b7aa2cca4d7e220250c", "lat": 38.93410933333333, "is_disabled": 0, "is_reserved": 0, "lon": -77.03261983333333, "type": "electric_scooter", "fusion_lat": 0.0, "rental_uris": {"android": "https://dc.lft.to/lastmile_qr_scan", "ios": "https://dc.lft.to/lastmile_qr_scan"}}, {"bike_id": "6865396c76531220c22cdd8aaf51e0d5", "fusion_lon": 0.0, "name": "6865396c76531220c22cdd8aaf51e0d5", "lat": 38.88488983333333, "is_disabled": 0, "is_reserved": 0, "lon": -77.00710216666667, "type": "electric_scooter", "fusion_lat": 0.0, "rental_uris": {"android": "https://dc.lft.to/lastmile_qr_scan", "ios": "https://dc.lft.to/lastmile_qr_scan"}}, {"bike_id": "78192b65a1af1ca5f16fa28f6edef34f", "fusion_lon": 0.0, "name": "78192b65a1af1ca5f16fa28f6edef34f", "lat": 38.8923085, "is_disabled": 0, "is_reserved": 0, "lon": -77.01713383333333, "type": "electric_scooter", "fusion_lat": 0.0, "rental_uris": {"android": "https://dc.lft.to/lastmile_qr_scan", "ios": "https://dc.lft.to/lastmile_qr_scan"}}, {"bike_id": "b406dddb2885d4db57de1d5d7604dc33", "fusion_lon": 0.0, "name": "b406dddb2885d4db57de1d5d7604dc33", "lat": 38.915375833333336, "is_disabled": 0, "is_reserved": 0, "lon": -77.012243, "type": "electric_scooter", "fusion_lat": 0.0, "rental_uris": {"android": "https://dc.lft.to/lastmile_qr_scan", "ios": "https://dc.lft.to/lastmile_qr_scan"}}, {"bike_id": "01565334c7db4542c0d01cc356dd94a3", "fusion_lon": 0.0, "name": "01565334c7db4542c0d01cc356dd94a3", "lat": 38.90132, "is_disabled": 0, "is_reserved": 0, "lon": -77.04893966666667, "type": "electric_scooter", "fusion_lat": 0.0, "rental_uris": {"android": "https://dc.lft.to/lastmile_qr_scan", "ios": "https://dc.lft.to/lastmile_qr_scan"}}, {"bike_id": "03934f690b8043d0788f4b86312e7f0f", "fusion_lon": 0.0, "name": "03934f690b8043d0788f4b86312e7f0f", "lat": 38.91700866666667, "is_disabled": 0, "is_reserved": 0, "lon": -77.03468383333333, "type": "electric_scooter", "fusion_lat": 0.0, "rental_uris": {"android": "https://dc.lft.to/lastmile_qr_scan", "ios": "https://dc.lft.to/lastmile_qr_scan"}}, {"bike_id": "787bbed3520bc56afb9dc61703ba2d69", "fusion_lon": 0.0, "name": "787bbed3520bc56afb9dc61703ba2d69", "lat": 38.919275166666665, "is_disabled": 0, "is_reserved": 0, "lon": -77.0318745, "type": "electric_scooter", "fusion_lat": 0.0, "rental_uris": {"android": "https://dc.lft.to/lastmile_qr_scan", "ios": "https://dc.lft.to/lastmile_qr_scan"}}, {"bike_id": "aadf44e7dab24e9167dbc4b21f837411", "fusion_lon": 0.0, "name": "aadf44e7dab24e9167dbc4b21f837411", "lat": 38.9169325, "is_disabled": 0, "is_reserved": 0, "lon": -77.02596633333333, "type": "electric_scooter", "fusion_lat": 0.0, "rental_uris": {"android": "https://dc.lft.to/lastmile_qr_scan", "ios": "https://dc.lft.to/lastmile_qr_scan"}}, {"bike_id": "70a00e2ec53bffd318be0f7fc8344efc", "fusion_lon": 0.0, "name": "70a00e2ec53bffd318be0f7fc8344efc", "lat": 39.032053, "is_disabled": 0, "is_reserved": 0, "lon": -77.04726783333334, "type": "electric_bike", "fusion_lat": 0.0, "rental_uris": {"android": "https://dc.lft.to/lastmile_qr_scan", "ios": "https://dc.lft.to/lastmile_qr_scan"}}, {"bike_id": "826c406cb8647660e5ed92dde8cfb7c1", "fusion_lon": 0.0, "name": "826c406cb8647660e5ed92dde8cfb7c1", "lat": 38.85463166666667, "is_disabled": 0, "is_reserved": 0, "lon": -76.97234183333333, "type": "electric_scooter", "fusion_lat": 0.0, "rental_uris": {"android": "https://dc.lft.to/lastmile_qr_scan", "ios": "https://dc.lft.to/lastmile_qr_scan"}}, {"bike_id": "086f2856c106f9d920c270115385cd1a", "fusion_lon": 0.0, "name": "086f2856c106f9d920c270115385cd1a", "lat": 38.88629316666667, "is_disabled": 0, "is_reserved": 0, "lon": -77.01544233333334, "type": "electric_scooter", "fusion_lat": 0.0, "rental_uris": {"android": "https://dc.lft.to/lastmile_qr_scan", "ios": "https://dc.lft.to/lastmile_qr_scan"}}, {"bike_id": "e7b04fca6ccd4533800841c1e776cc6a", "fusion_lon": 0.0, "name": "e7b04fca6ccd4533800841c1e776cc6a", "lat": 38.90555616666666, "is_disabled": 0, "is_reserved": 0, "lon": -77.0053795, "type": "electric_scooter", "fusion_lat": 0.0, "rental_uris": {"android": "https://dc.lft.to/lastmile_qr_scan", "ios": "https://dc.lft.to/lastmile_qr_scan"}}, {"bike_id": "0619b2504f306afca1fe3dcd3a6777e6", "fusion_lon": 0.0, "name": "0619b2504f306afca1fe3dcd3a6777e6", "lat": 38.92047933333333, "is_disabled": 0, "is_reserved": 0, "lon": -77.02428833333333, "type": "electric_scooter", "fusion_lat": 0.0, "rental_uris": {"android": "https://dc.lft.to/lastmile_qr_scan", "ios": "https://dc.lft.to/lastmile_qr_scan"}}, {"bike_id": "ee30b1c25cd9b2e8f3269d82da9fed05", "fusion_lon": 0.0, "name": "ee30b1c25cd9b2e8f3269d82da9fed05", "lat": 38.88765333333333, "is_disabled": 0, "is_reserved": 0, "lon": -76.97749283333333, "type": "electric_scooter", "fusion_lat": 0.0, "rental_uris": {"android": "https://dc.lft.to/lastmile_qr_scan", "ios": "https://dc.lft.to/lastmile_qr_scan"}}, {"bike_id": "c8d34d360dbeda3e89f8aa6915063209", "fusion_lon": 0.0, "name": "c8d34d360dbeda3e89f8aa6915063209", "lat": 38.856086833333336, "is_disabled": 0, "is_reserved": 0, "lon": -76.9726645, "type": "electric_scooter", "fusion_lat": 0.0, "rental_uris": {"android": "https://dc.lft.to/lastmile_qr_scan", "ios": "https://dc.lft.to/lastmile_qr_scan"}}, {"bike_id": "64dda130e0b691adf2f00221370cd2ff", "fusion_lon": 0.0, "name": "64dda130e0b691adf2f00221370cd2ff", "lat": 38.914818833333335, "is_disabled": 0, "is_reserved": 0, "lon": -77.02300216666667, "type": "electric_scooter", "fusion_lat": 0.0, "rental_uris": {"android": "https://dc.lft.to/lastmile_qr_scan", "ios": "https://dc.lft.to/lastmile_qr_scan"}}, {"bike_id": "d66cb271ad128ca728a7cdc502f8acf6", "fusion_lon": 0.0, "name": "d66cb271ad128ca728a7cdc502f8acf6", "lat": 38.89255, "is_disabled": 0, "is_reserved": 0, "lon": -77.0465675, "type": "electric_scooter", "fusion_lat": 0.0, "rental_uris": {"android": "https://dc.lft.to/lastmile_qr_scan", "ios": "https://dc.lft.to/lastmile_qr_scan"}}, {"bike_id": "a8e8ac165c03c94260ea36310fcf70eb", "fusion_lon": 0.0, "name": "a8e8ac165c03c94260ea36310fcf70eb", "lat": 38.89237716666667, "is_disabled": 0, "is_reserved": 0, "lon": -77.0487375, "type": "electric_scooter", "fusion_lat": 0.0, "rental_uris": {"android": "https://dc.lft.to/lastmile_qr_scan", "ios": "https://dc.lft.to/lastmile_qr_scan"}}, {"bike_id": "31261a7bceda00108d05b1097d0e2abb", "fusion_lon": 0.0, "name": "31261a7bceda00108d05b1097d0e2abb", "lat": 38.90521966666667, "is_disabled": 0, "is_reserved": 0, "lon": -77.05143666666666, "type": "electric_scooter", "fusion_lat": 0.0, "rental_uris": {"android": "https://dc.lft.to/lastmile_qr_scan", "ios": "https://dc.lft.to/lastmile_qr_scan"}}, {"bike_id": "8d28787306e5f804f95908b63211578e", "fusion_lon": 0.0, "name": "8d28787306e5f804f95908b63211578e", "lat": 38.90218266666667, "is_disabled": 0, "is_reserved": 0, "lon": -77.0474865, "type": "electric_scooter", "fusion_lat": 0.0, "rental_uris": {"android": "https://dc.lft.to/lastmile_qr_scan", "ios": "https://dc.lft.to/lastmile_qr_scan"}}, {"bike_id": "73478c8546f92af2ce7ae9351aae8330", "fusion_lon": 0.0, "name": "73478c8546f92af2ce7ae9351aae8330", "lat": 38.90150583333333, "is_disabled": 0, "is_reserved": 0, "lon": -77.03470633333333, "type": "electric_scooter", "fusion_lat": 0.0, "rental_uris": {"android": "https://dc.lft.to/lastmile_qr_scan", "ios": "https://dc.lft.to/lastmile_qr_scan"}}, {"bike_id": "399505a8237ac91599e3cc01aeb00e87", "fusion_lon": 0.0, "name": "399505a8237ac91599e3cc01aeb00e87", "lat": 38.90981216666667, "is_disabled": 0, "is_reserved": 0, "lon": -77.03444566666667, "type": "electric_scooter", "fusion_lat": 0.0, "rental_uris": {"android": "https://dc.lft.to/lastmile_qr_scan", "ios": "https://dc.lft.to/lastmile_qr_scan"}}, {"bike_id": "9a4edce98dcf1e2d653d9dd73b544727", "fusion_lon": 0.0, "name": "9a4edce98dcf1e2d653d9dd73b544727", "lat": 38.903901, "is_disabled": 0, "is_reserved": 0, "lon": -77.0436015, "type": "electric_scooter", "fusion_lat": 0.0, "rental_uris": {"android": "https://dc.lft.to/lastmile_qr_scan", "ios": "https://dc.lft.to/lastmile_qr_scan"}}, {"bike_id": "57ce4ca6ac063d91784c99a7b91a7b68", "fusion_lon": 0.0, "name": "57ce4ca6ac063d91784c99a7b91a7b68", "lat": 38.908781833333336, "is_disabled": 0, "is_reserved": 0, "lon": -77.04335733333333, "type": "electric_scooter", "fusion_lat": 0.0, "rental_uris": {"android": "https://dc.lft.to/lastmile_qr_scan", "ios": "https://dc.lft.to/lastmile_qr_scan"}}, {"bike_id": "a46fa73046cf7b0846873c73f0a86e6d", "fusion_lon": 0.0, "name": "a46fa73046cf7b0846873c73f0a86e6d", "lat": 38.93570833333333, "is_disabled": 0, "is_reserved": 0, "lon": -77.0277975, "type": "electric_scooter", "fusion_lat": 0.0, "rental_uris": {"android": "https://dc.lft.to/lastmile_qr_scan", "ios": "https://dc.lft.to/lastmile_qr_scan"}}, {"bike_id": "e42e2953125ddb8e27a2728b8ee85fd0", "fusion_lon": 0.0, "name": "e42e2953125ddb8e27a2728b8ee85fd0", "lat": 38.901691, "is_disabled": 0, "is_reserved": 0, "lon": -77.04728716666666, "type": "electric_scooter", "fusion_lat": 0.0, "rental_uris": {"android": "https://dc.lft.to/lastmile_qr_scan", "ios": "https://dc.lft.to/lastmile_qr_scan"}}, {"bike_id": "8141766a921ce1c851f68bbe9e8ed21e", "fusion_lon": 0.0, "name": "8141766a921ce1c851f68bbe9e8ed21e", "lat": 38.904173166666666, "is_disabled": 0, "is_reserved": 0, "lon": -77.02418783333333, "type": "electric_scooter", "fusion_lat": 0.0, "rental_uris": {"android": "https://dc.lft.to/lastmile_qr_scan", "ios": "https://dc.lft.to/lastmile_qr_scan"}}, {"bike_id": "eec443083c197fc9be0f5e324ee7b1fb", "fusion_lon": 0.0, "name": "eec443083c197fc9be0f5e324ee7b1fb", "lat": 38.913121333333336, "is_disabled": 0, "is_reserved": 0, "lon": -77.031756, "type": "electric_scooter", "fusion_lat": 0.0, "rental_uris": {"android": "https://dc.lft.to/lastmile_qr_scan", "ios": "https://dc.lft.to/lastmile_qr_scan"}}, {"bike_id": "35da440ce16e100cf755a068a48952ff", "fusion_lon": 0.0, "name": "35da440ce16e100cf755a068a48952ff", "lat": 38.949661, "is_disabled": 0, "is_reserved": 0, "lon": -77.07523733333333, "type": "electric_scooter", "fusion_lat": 0.0, "rental_uris": {"android": "https://dc.lft.to/lastmile_qr_scan", "ios": "https://dc.lft.to/lastmile_qr_scan"}}, {"bike_id": "c6cbd99187dd0f98a692befcbbfdba7d", "fusion_lon": 0.0, "name": "c6cbd99187dd0f98a692befcbbfdba7d", "lat": 38.8837835, "is_disabled": 0, "is_reserved": 0, "lon": -76.93041416666667, "type": "electric_scooter", "fusion_lat": 0.0, "rental_uris": {"android": "https://dc.lft.to/lastmile_qr_scan", "ios": "https://dc.lft.to/lastmile_qr_scan"}}, {"bike_id": "622e4a14b69dd4102098d6fa8a6ccddf", "fusion_lon": 0.0, "name": "622e4a14b69dd4102098d6fa8a6ccddf", "lat": 38.90385783333333, "is_disabled": 0, "is_reserved": 0, "lon": -77.06705233333334, "type": "electric_scooter", "fusion_lat": 0.0, "rental_uris": {"android": "https://dc.lft.to/lastmile_qr_scan", "ios": "https://dc.lft.to/lastmile_qr_scan"}}, {"bike_id": "d352ec9b09c0b46473d6caf08e6454e7", "fusion_lon": 0.0, "name": "d352ec9b09c0b46473d6caf08e6454e7", "lat": 38.91953983333333, "is_disabled": 0, "is_reserved": 0, "lon": -77.0288135, "type": "electric_scooter", "fusion_lat": 0.0, "rental_uris": {"android": "https://dc.lft.to/lastmile_qr_scan", "ios": "https://dc.lft.to/lastmile_qr_scan"}}, {"bike_id": "573fbe1af7f8c3171f5708a7d46a5760", "fusion_lon": 0.0, "name": "573fbe1af7f8c3171f5708a7d46a5760", "lat": 38.921762333333334, "is_disabled": 0, "is_reserved": 0, "lon": -77.072309, "type": "electric_scooter", "fusion_lat": 0.0, "rental_uris": {"android": "https://dc.lft.to/lastmile_qr_scan", "ios": "https://dc.lft.to/lastmile_qr_scan"}}, {"bike_id": "61d9dd24dfbd55b90d8ef4eee88d4966", "fusion_lon": 0.0, "name": "61d9dd24dfbd55b90d8ef4eee88d4966", "lat": 38.922444, "is_disabled": 0, "is_reserved": 0, "lon": -77.08081066666666, "type": "electric_scooter", "fusion_lat": 0.0, "rental_uris": {"android": "https://dc.lft.to/lastmile_qr_scan", "ios": "https://dc.lft.to/lastmile_qr_scan"}}, {"bike_id": "1e9fce7ae8e273ffa687845be52d5724", "fusion_lon": 0.0, "name": "1e9fce7ae8e273ffa687845be52d5724", "lat": 38.90202383333333, "is_disabled": 0, "is_reserved": 0, "lon": -77.02231483333334, "type": "electric_scooter", "fusion_lat": 0.0, "rental_uris": {"android": "https://dc.lft.to/lastmile_qr_scan", "ios": "https://dc.lft.to/lastmile_qr_scan"}}, {"bike_id": "4de951ea6afd2bd5d6d2faad48d84d0c", "fusion_lon": 0.0, "name": "4de951ea6afd2bd5d6d2faad48d84d0c", "lat": 38.89828583333333, "is_disabled": 0, "is_reserved": 0, "lon": -77.01206283333333, "type": "electric_scooter", "fusion_lat": 0.0, "rental_uris": {"android": "https://dc.lft.to/lastmile_qr_scan", "ios": "https://dc.lft.to/lastmile_qr_scan"}}, {"bike_id": "2ed228ef81c90c66847f86a0a1c4c22c", "fusion_lon": 0.0, "name": "2ed228ef81c90c66847f86a0a1c4c22c", "lat": 38.91822966666667, "is_disabled": 0, "is_reserved": 0, "lon": -77.012105, "type": "electric_scooter", "fusion_lat": 0.0, "rental_uris": {"android": "https://dc.lft.to/lastmile_qr_scan", "ios": "https://dc.lft.to/lastmile_qr_scan"}}, {"bike_id": "cef6f964ebcc16ba70311896fb821447", "fusion_lon": 0.0, "name": "cef6f964ebcc16ba70311896fb821447", "lat": 38.897343, "is_disabled": 0, "is_reserved": 0, "lon": -76.92041666666667, "type": "electric_bike", "fusion_lat": 0.0, "rental_uris": {"android": "https://dc.lft.to/lastmile_qr_scan", "ios": "https://dc.lft.to/lastmile_qr_scan"}}, {"bike_id": "5c31aa728c0ba68f8ea12bafc30c673a", "fusion_lon": 0.0, "name": "5c31aa728c0ba68f8ea12bafc30c673a", "lat": 38.897388666666664, "is_disabled": 0, "is_reserved": 0, "lon": -77.003744, "type": "electric_scooter", "fusion_lat": 0.0, "rental_uris": {"android": "https://dc.lft.to/lastmile_qr_scan", "ios": "https://dc.lft.to/lastmile_qr_scan"}}, {"bike_id": "246ba1992cc64c9de8e2696f34a62c65", "fusion_lon": 0.0, "name": "246ba1992cc64c9de8e2696f34a62c65", "lat": 38.924502333333336, "is_disabled": 0, "is_reserved": 0, "lon": -77.0332395, "type": "electric_scooter", "fusion_lat": 0.0, "rental_uris": {"android": "https://dc.lft.to/lastmile_qr_scan", "ios": "https://dc.lft.to/lastmile_qr_scan"}}, {"bike_id": "3da26f79ed2339c6014a3edbfbaa5ddf", "fusion_lon": 0.0, "name": "3da26f79ed2339c6014a3edbfbaa5ddf", "lat": 38.96130333333333, "is_disabled": 0, "is_reserved": 0, "lon": -77.02784183333333, "type": "electric_scooter", "fusion_lat": 0.0, "rental_uris": {"android": "https://dc.lft.to/lastmile_qr_scan", "ios": "https://dc.lft.to/lastmile_qr_scan"}}, {"bike_id": "78a55cf386767fdb5ed5998260746416", "fusion_lon": 0.0, "name": "78a55cf386767fdb5ed5998260746416", "lat": 38.931239833333336, "is_disabled": 0, "is_reserved": 0, "lon": -77.038762, "type": "electric_scooter", "fusion_lat": 0.0, "rental_uris": {"android": "https://dc.lft.to/lastmile_qr_scan", "ios": "https://dc.lft.to/lastmile_qr_scan"}}, {"bike_id": "00f13e663386ff526c9ce329d824e780", "fusion_lon": 0.0, "name": "00f13e663386ff526c9ce329d824e780", "lat": 38.949909166666664, "is_disabled": 0, "is_reserved": 0, "lon": -77.02712566666666, "type": "electric_scooter", "fusion_lat": 0.0, "rental_uris": {"android": "https://dc.lft.to/lastmile_qr_scan", "ios": "https://dc.lft.to/lastmile_qr_scan"}}, {"bike_id": "c7997b78e6bf7b97582d682f1714068b", "fusion_lon": 0.0, "name": "c7997b78e6bf7b97582d682f1714068b", "lat": 38.917710666666665, "is_disabled": 0, "is_reserved": 0, "lon": -77.02305616666666, "type": "electric_scooter", "fusion_lat": 0.0, "rental_uris": {"android": "https://dc.lft.to/lastmile_qr_scan", "ios": "https://dc.lft.to/lastmile_qr_scan"}}, {"bike_id": "1e19f7796c228f3c379fa78dcf31bd28", "fusion_lon": 0.0, "name": "1e19f7796c228f3c379fa78dcf31bd28", "lat": 38.90979016666667, "is_disabled": 0, "is_reserved": 0, "lon": -77.02860033333333, "type": "electric_scooter", "fusion_lat": 0.0, "rental_uris": {"android": "https://dc.lft.to/lastmile_qr_scan", "ios": "https://dc.lft.to/lastmile_qr_scan"}}, {"bike_id": "107d68748546db85cc310a5110a79fa6", "fusion_lon": 0.0, "name": "107d68748546db85cc310a5110a79fa6", "lat": 38.92642266666667, "is_disabled": 0, "is_reserved": 0, "lon": -77.03317116666666, "type": "electric_scooter", "fusion_lat": 0.0, "rental_uris": {"android": "https://dc.lft.to/lastmile_qr_scan", "ios": "https://dc.lft.to/lastmile_qr_scan"}}, {"bike_id": "1b191441c47e127e70b4ca99699104ae", "fusion_lon": 0.0, "name": "1b191441c47e127e70b4ca99699104ae", "lat": 38.89115316666667, "is_disabled": 0, "is_reserved": 0, "lon": -76.93850966666666, "type": "electric_scooter", "fusion_lat": 0.0, "rental_uris": {"android": "https://dc.lft.to/lastmile_qr_scan", "ios": "https://dc.lft.to/lastmile_qr_scan"}}, {"bike_id": "f09ee29b658bf20932ae11484259c173", "fusion_lon": 0.0, "name": "f09ee29b658bf20932ae11484259c173", "lat": 38.8565715, "is_disabled": 0, "is_reserved": 0, "lon": -76.99665266666666, "type": "electric_scooter", "fusion_lat": 0.0, "rental_uris": {"android": "https://dc.lft.to/lastmile_qr_scan", "ios": "https://dc.lft.to/lastmile_qr_scan"}}, {"bike_id": "b1dd8ca14cec0a212569b039883165df", "fusion_lon": 0.0, "name": "b1dd8ca14cec0a212569b039883165df", "lat": 38.887114333333336, "is_disabled": 0, "is_reserved": 0, "lon": -77.02201866666667, "type": "electric_scooter", "fusion_lat": 0.0, "rental_uris": {"android": "https://dc.lft.to/lastmile_qr_scan", "ios": "https://dc.lft.to/lastmile_qr_scan"}}, {"bike_id": "621a48dfa5de478b44838be24d2f31c4", "fusion_lon": 0.0, "name": "621a48dfa5de478b44838be24d2f31c4", "lat": 38.92103816666667, "is_disabled": 0, "is_reserved": 0, "lon": -77.04696083333333, "type": "electric_scooter", "fusion_lat": 0.0, "rental_uris": {"android": "https://dc.lft.to/lastmile_qr_scan", "ios": "https://dc.lft.to/lastmile_qr_scan"}}, {"bike_id": "ca18e304e7cbceb6b032ecf89e0ab043", "fusion_lon": 0.0, "name": "ca18e304e7cbceb6b032ecf89e0ab043", "lat": 38.88690583333333, "is_disabled": 0, "is_reserved": 0, "lon": -76.9764215, "type": "electric_scooter", "fusion_lat": 0.0, "rental_uris": {"android": "https://dc.lft.to/lastmile_qr_scan", "ios": "https://dc.lft.to/lastmile_qr_scan"}}, {"bike_id": "9aa6c689a8f0f5fd99072dd7cd3634d1", "fusion_lon": 0.0, "name": "9aa6c689a8f0f5fd99072dd7cd3634d1", "lat": 38.9123355, "is_disabled": 0, "is_reserved": 0, "lon": -77.048789, "type": "electric_scooter", "fusion_lat": 0.0, "rental_uris": {"android": "https://dc.lft.to/lastmile_qr_scan", "ios": "https://dc.lft.to/lastmile_qr_scan"}}, {"bike_id": "d664d6345b140344241eb776756b7701", "fusion_lon": 0.0, "name": "d664d6345b140344241eb776756b7701", "lat": 38.910903833333336, "is_disabled": 0, "is_reserved": 0, "lon": -77.04425833333333, "type": "electric_scooter", "fusion_lat": 0.0, "rental_uris": {"android": "https://dc.lft.to/lastmile_qr_scan", "ios": "https://dc.lft.to/lastmile_qr_scan"}}, {"bike_id": "fecc2a0a8003403a155fb3d17faafcac", "fusion_lon": 0.0, "name": "fecc2a0a8003403a155fb3d17faafcac", "lat": 38.9173065, "is_disabled": 0, "is_reserved": 0, "lon": -77.04171116666667, "type": "electric_scooter", "fusion_lat": 0.0, "rental_uris": {"android": "https://dc.lft.to/lastmile_qr_scan", "ios": "https://dc.lft.to/lastmile_qr_scan"}}, {"bike_id": "7c78903578731bf18c9e6efa0907960c", "fusion_lon": 0.0, "name": "7c78903578731bf18c9e6efa0907960c", "lat": 38.905696666666664, "is_disabled": 0, "is_reserved": 0, "lon": -77.02409433333334, "type": "electric_scooter", "fusion_lat": 0.0, "rental_uris": {"android": "https://dc.lft.to/lastmile_qr_scan", "ios": "https://dc.lft.to/lastmile_qr_scan"}}, {"bike_id": "3a16ad4a6f64bf60623566c2df22779e", "fusion_lon": 0.0, "name": "3a16ad4a6f64bf60623566c2df22779e", "lat": 38.91817016666667, "is_disabled": 0, "is_reserved": 0, "lon": -77.032767, "type": "electric_scooter", "fusion_lat": 0.0, "rental_uris": {"android": "https://dc.lft.to/lastmile_qr_scan", "ios": "https://dc.lft.to/lastmile_qr_scan"}}, {"bike_id": "7720af1704c55ecb40343ed7c7cd5d13", "fusion_lon": 0.0, "name": "7720af1704c55ecb40343ed7c7cd5d13", "lat": 38.9267355, "is_disabled": 0, "is_reserved": 0, "lon": -77.0151025, "type": "electric_scooter", "fusion_lat": 0.0, "rental_uris": {"android": "https://dc.lft.to/lastmile_qr_scan", "ios": "https://dc.lft.to/lastmile_qr_scan"}}, {"bike_id": "ffa73106a03b76bc891c02a054d2f0fa", "fusion_lon": 0.0, "name": "ffa73106a03b76bc891c02a054d2f0fa", "lat": 38.920551833333334, "is_disabled": 0, "is_reserved": 0, "lon": -77.02431683333333, "type": "electric_scooter", "fusion_lat": 0.0, "rental_uris": {"android": "https://dc.lft.to/lastmile_qr_scan", "ios": "https://dc.lft.to/lastmile_qr_scan"}}, {"bike_id": "fe1d27aaf56e77662c6c75abe0213d47", "fusion_lon": 0.0, "name": "fe1d27aaf56e77662c6c75abe0213d47", "lat": 38.9045735, "is_disabled": 0, "is_reserved": 0, "lon": -77.04025683333333, "type": "electric_scooter", "fusion_lat": 0.0, "rental_uris": {"android": "https://dc.lft.to/lastmile_qr_scan", "ios": "https://dc.lft.to/lastmile_qr_scan"}}, {"bike_id": "616ad3c9255d65ae36d0da40fb59769e", "fusion_lon": 0.0, "name": "616ad3c9255d65ae36d0da40fb59769e", "lat": 38.85767283333333, "is_disabled": 0, "is_reserved": 0, "lon": -76.9875975, "type": "electric_bike", "fusion_lat": 0.0, "rental_uris": {"android": "https://dc.lft.to/lastmile_qr_scan", "ios": "https://dc.lft.to/lastmile_qr_scan"}}, {"bike_id": "225159c437d6b7a4c781010a7bdf8693", "fusion_lon": 0.0, "name": "225159c437d6b7a4c781010a7bdf8693", "lat": 38.904559, "is_disabled": 0, "is_reserved": 0, "lon": -77.0319775, "type": "electric_scooter", "fusion_lat": 0.0, "rental_uris": {"android": "https://dc.lft.to/lastmile_qr_scan", "ios": "https://dc.lft.to/lastmile_qr_scan"}}, {"bike_id": "4863835e55607202b09cc24a45a9063f", "fusion_lon": 0.0, "name": "4863835e55607202b09cc24a45a9063f", "lat": 38.897350833333334, "is_disabled": 0, "is_reserved": 0, "lon": -77.03970383333333, "type": "electric_scooter", "fusion_lat": 0.0, "rental_uris": {"android": "https://dc.lft.to/lastmile_qr_scan", "ios": "https://dc.lft.to/lastmile_qr_scan"}}, {"bike_id": "cd9b30b237ada3569da2490a05bb1cf6", "fusion_lon": 0.0, "name": "cd9b30b237ada3569da2490a05bb1cf6", "lat": 38.92422633333334, "is_disabled": 0, "is_reserved": 0, "lon": -77.01947833333334, "type": "electric_scooter", "fusion_lat": 0.0, "rental_uris": {"android": "https://dc.lft.to/lastmile_qr_scan", "ios": "https://dc.lft.to/lastmile_qr_scan"}}, {"bike_id": "60c621115ae7af907f35b216b2614e08", "fusion_lon": 0.0, "name": "60c621115ae7af907f35b216b2614e08", "lat": 38.8995105, "is_disabled": 0, "is_reserved": 0, "lon": -76.98152516666667, "type": "electric_scooter", "fusion_lat": 0.0, "rental_uris": {"android": "https://dc.lft.to/lastmile_qr_scan", "ios": "https://dc.lft.to/lastmile_qr_scan"}}, {"bike_id": "d1e2b7ad665ee30acfd7e74db68491bf", "fusion_lon": 0.0, "name": "d1e2b7ad665ee30acfd7e74db68491bf", "lat": 38.92439516666666, "is_disabled": 0, "is_reserved": 0, "lon": -77.03400416666666, "type": "electric_scooter", "fusion_lat": 0.0, "rental_uris": {"android": "https://dc.lft.to/lastmile_qr_scan", "ios": "https://dc.lft.to/lastmile_qr_scan"}}, {"bike_id": "46a78ffad04cecaa8b88ea8b38bd2476", "fusion_lon": 0.0, "name": "46a78ffad04cecaa8b88ea8b38bd2476", "lat": 38.918552, "is_disabled": 0, "is_reserved": 0, "lon": -77.02595116666667, "type": "electric_scooter", "fusion_lat": 0.0, "rental_uris": {"android": "https://dc.lft.to/lastmile_qr_scan", "ios": "https://dc.lft.to/lastmile_qr_scan"}}, {"bike_id": "6d25eed3e754579106f94a3dca14726e", "fusion_lon": 0.0, "name": "6d25eed3e754579106f94a3dca14726e", "lat": 38.911182833333335, "is_disabled": 0, "is_reserved": 0, "lon": -77.03832733333333, "type": "electric_scooter", "fusion_lat": 0.0, "rental_uris": {"android": "https://dc.lft.to/lastmile_qr_scan", "ios": "https://dc.lft.to/lastmile_qr_scan"}}, {"bike_id": "109ac80941198fa904c9a268bebf205a", "fusion_lon": 0.0, "name": "109ac80941198fa904c9a268bebf205a", "lat": 38.887185, "is_disabled": 0, "is_reserved": 0, "lon": -76.996889, "type": "electric_scooter", "fusion_lat": 0.0, "rental_uris": {"android": "https://dc.lft.to/lastmile_qr_scan", "ios": "https://dc.lft.to/lastmile_qr_scan"}}, {"bike_id": "ad714dc79ca49ad0785c65f71bb84b15", "fusion_lon": 0.0, "name": "ad714dc79ca49ad0785c65f71bb84b15", "lat": 38.93259666666667, "is_disabled": 0, "is_reserved": 0, "lon": -77.06625216666667, "type": "electric_scooter", "fusion_lat": 0.0, "rental_uris": {"android": "https://dc.lft.to/lastmile_qr_scan", "ios": "https://dc.lft.to/lastmile_qr_scan"}}, {"bike_id": "a2761af57d2c114f719496224a9e21fa", "fusion_lon": 0.0, "name": "a2761af57d2c114f719496224a9e21fa", "lat": 38.920387166666664, "is_disabled": 0, "is_reserved": 0, "lon": -77.02593466666667, "type": "electric_scooter", "fusion_lat": 0.0, "rental_uris": {"android": "https://dc.lft.to/lastmile_qr_scan", "ios": "https://dc.lft.to/lastmile_qr_scan"}}, {"bike_id": "3d1293d1b6908a7f711cc29272d54b76", "fusion_lon": 0.0, "name": "3d1293d1b6908a7f711cc29272d54b76", "lat": 38.8655305, "is_disabled": 0, "is_reserved": 0, "lon": -76.9785475, "type": "electric_scooter", "fusion_lat": 0.0, "rental_uris": {"android": "https://dc.lft.to/lastmile_qr_scan", "ios": "https://dc.lft.to/lastmile_qr_scan"}}, {"bike_id": "7e6123f5e77a4049b056fe266d856e15", "fusion_lon": 0.0, "name": "7e6123f5e77a4049b056fe266d856e15", "lat": 38.89223, "is_disabled": 0, "is_reserved": 0, "lon": -77.031302, "type": "electric_scooter", "fusion_lat": 0.0, "rental_uris": {"android": "https://dc.lft.to/lastmile_qr_scan", "ios": "https://dc.lft.to/lastmile_qr_scan"}}, {"bike_id": "e30cabec0373f588bb65e50de847270f", "fusion_lon": 0.0, "name": "e30cabec0373f588bb65e50de847270f", "lat": 38.88405783333333, "is_disabled": 0, "is_reserved": 0, "lon": -76.986108, "type": "electric_scooter", "fusion_lat": 0.0, "rental_uris": {"android": "https://dc.lft.to/lastmile_qr_scan", "ios": "https://dc.lft.to/lastmile_qr_scan"}}, {"bike_id": "fb74185dc38fbb6d6b557058f4f9c9e3", "fusion_lon": 0.0, "name": "fb74185dc38fbb6d6b557058f4f9c9e3", "lat": 38.886314, "is_disabled": 0, "is_reserved": 0, "lon": -77.01541566666667, "type": "electric_scooter", "fusion_lat": 0.0, "rental_uris": {"android": "https://dc.lft.to/lastmile_qr_scan", "ios": "https://dc.lft.to/lastmile_qr_scan"}}, {"bike_id": "fc7abb1bc45ba669626a55651be2ed57", "fusion_lon": 0.0, "name": "fc7abb1bc45ba669626a55651be2ed57", "lat": 38.89743433333334, "is_disabled": 0, "is_reserved": 0, "lon": -77.0453015, "type": "electric_scooter", "fusion_lat": 0.0, "rental_uris": {"android": "https://dc.lft.to/lastmile_qr_scan", "ios": "https://dc.lft.to/lastmile_qr_scan"}}, {"bike_id": "7b9ca76043ecd18d559b937a5aeabd78", "fusion_lon": 0.0, "name": "7b9ca76043ecd18d559b937a5aeabd78", "lat": 38.89497466666667, "is_disabled": 0, "is_reserved": 0, "lon": -77.00210383333334, "type": "electric_scooter", "fusion_lat": 0.0, "rental_uris": {"android": "https://dc.lft.to/lastmile_qr_scan", "ios": "https://dc.lft.to/lastmile_qr_scan"}}, {"bike_id": "d8238587e924e6b9433fae6bded4d1d5", "fusion_lon": 0.0, "name": "d8238587e924e6b9433fae6bded4d1d5", "lat": 38.91264783333333, "is_disabled": 0, "is_reserved": 0, "lon": -77.01436866666667, "type": "electric_scooter", "fusion_lat": 0.0, "rental_uris": {"android": "https://dc.lft.to/lastmile_qr_scan", "ios": "https://dc.lft.to/lastmile_qr_scan"}}, {"bike_id": "f6f4b7da634ab8400ef548fea1ad8784", "fusion_lon": 0.0, "name": "f6f4b7da634ab8400ef548fea1ad8784", "lat": 38.912658666666665, "is_disabled": 0, "is_reserved": 0, "lon": -77.03831433333333, "type": "electric_scooter", "fusion_lat": 0.0, "rental_uris": {"android": "https://dc.lft.to/lastmile_qr_scan", "ios": "https://dc.lft.to/lastmile_qr_scan"}}, {"bike_id": "dfc6f5c00efdde8450f22795331488d0", "fusion_lon": 0.0, "name": "dfc6f5c00efdde8450f22795331488d0", "lat": 38.935604833333336, "is_disabled": 0, "is_reserved": 0, "lon": -77.07458616666666, "type": "electric_scooter", "fusion_lat": 0.0, "rental_uris": {"android": "https://dc.lft.to/lastmile_qr_scan", "ios": "https://dc.lft.to/lastmile_qr_scan"}}, {"bike_id": "34c54185f19e7b11a2665519928abdef", "fusion_lon": 0.0, "name": "34c54185f19e7b11a2665519928abdef", "lat": 38.8765905, "is_disabled": 0, "is_reserved": 0, "lon": -77.0051765, "type": "electric_scooter", "fusion_lat": 0.0, "rental_uris": {"android": "https://dc.lft.to/lastmile_qr_scan", "ios": "https://dc.lft.to/lastmile_qr_scan"}}, {"bike_id": "253975934f60a050e4ae045598868540", "fusion_lon": 0.0, "name": "253975934f60a050e4ae045598868540", "lat": 38.926098333333336, "is_disabled": 0, "is_reserved": 0, "lon": -77.05710016666667, "type": "electric_scooter", "fusion_lat": 0.0, "rental_uris": {"android": "https://dc.lft.to/lastmile_qr_scan", "ios": "https://dc.lft.to/lastmile_qr_scan"}}, {"bike_id": "390304877fa9f8a17a97ec8131f84d95", "fusion_lon": 0.0, "name": "390304877fa9f8a17a97ec8131f84d95", "lat": 38.91554683333333, "is_disabled": 0, "is_reserved": 0, "lon": -77.0377225, "type": "electric_scooter", "fusion_lat": 0.0, "rental_uris": {"android": "https://dc.lft.to/lastmile_qr_scan", "ios": "https://dc.lft.to/lastmile_qr_scan"}}, {"bike_id": "b41377bb80fbdabced261cac885ed8d0", "fusion_lon": 0.0, "name": "b41377bb80fbdabced261cac885ed8d0", "lat": 38.89655, "is_disabled": 0, "is_reserved": 0, "lon": -77.02615216666666, "type": "electric_scooter", "fusion_lat": 0.0, "rental_uris": {"android": "https://dc.lft.to/lastmile_qr_scan", "ios": "https://dc.lft.to/lastmile_qr_scan"}}, {"bike_id": "8617b963522039f16a7ae2fe9567239e", "fusion_lon": 0.0, "name": "8617b963522039f16a7ae2fe9567239e", "lat": 38.923652833333335, "is_disabled": 0, "is_reserved": 0, "lon": -77.0502725, "type": "electric_scooter", "fusion_lat": 0.0, "rental_uris": {"android": "https://dc.lft.to/lastmile_qr_scan", "ios": "https://dc.lft.to/lastmile_qr_scan"}}, {"bike_id": "630fa247cbdfcb8a597766101f305788", "fusion_lon": 0.0, "name": "630fa247cbdfcb8a597766101f305788", "lat": 38.908862666666664, "is_disabled": 0, "is_reserved": 0, "lon": -77.06428916666667, "type": "electric_scooter", "fusion_lat": 0.0, "rental_uris": {"android": "https://dc.lft.to/lastmile_qr_scan", "ios": "https://dc.lft.to/lastmile_qr_scan"}}, {"bike_id": "8075a3df9861bb274be4795cb8a354f7", "fusion_lon": 0.0, "name": "8075a3df9861bb274be4795cb8a354f7", "lat": 38.917415166666665, "is_disabled": 0, "is_reserved": 0, "lon": -77.02117016666666, "type": "electric_scooter", "fusion_lat": 0.0, "rental_uris": {"android": "https://dc.lft.to/lastmile_qr_scan", "ios": "https://dc.lft.to/lastmile_qr_scan"}}, {"bike_id": "8003005f28c640b94111b1a1f49c349d", "fusion_lon": 0.0, "name": "8003005f28c640b94111b1a1f49c349d", "lat": 38.906867, "is_disabled": 0, "is_reserved": 0, "lon": -77.0238115, "type": "electric_scooter", "fusion_lat": 0.0, "rental_uris": {"android": "https://dc.lft.to/lastmile_qr_scan", "ios": "https://dc.lft.to/lastmile_qr_scan"}}, {"bike_id": "242c4b9c8c27634ec0b948d9cf1b5832", "fusion_lon": 0.0, "name": "242c4b9c8c27634ec0b948d9cf1b5832", "lat": 38.92328216666667, "is_disabled": 0, "is_reserved": 0, "lon": -77.02973683333333, "type": "electric_scooter", "fusion_lat": 0.0, "rental_uris": {"android": "https://dc.lft.to/lastmile_qr_scan", "ios": "https://dc.lft.to/lastmile_qr_scan"}}, {"bike_id": "9561102253389d6ed6b3a7cd4922d647", "fusion_lon": 0.0, "name": "9561102253389d6ed6b3a7cd4922d647", "lat": 38.9725775, "is_disabled": 0, "is_reserved": 0, "lon": -76.9927455, "type": "electric_bike", "fusion_lat": 0.0, "rental_uris": {"android": "https://dc.lft.to/lastmile_qr_scan", "ios": "https://dc.lft.to/lastmile_qr_scan"}}, {"bike_id": "c2f51ac72e9e26cf4c5e8dd917d85bc4", "fusion_lon": 0.0, "name": "c2f51ac72e9e26cf4c5e8dd917d85bc4", "lat": 38.8970055, "is_disabled": 0, "is_reserved": 0, "lon": -77.05087733333333, "type": "electric_scooter", "fusion_lat": 0.0, "rental_uris": {"android": "https://dc.lft.to/lastmile_qr_scan", "ios": "https://dc.lft.to/lastmile_qr_scan"}}, {"bike_id": "9bd6f30d2f9205b917e50be3c55fa1c4", "fusion_lon": 0.0, "name": "9bd6f30d2f9205b917e50be3c55fa1c4", "lat": 38.90671666666667, "is_disabled": 0, "is_reserved": 0, "lon": -77.0751705, "type": "electric_scooter", "fusion_lat": 0.0, "rental_uris": {"android": "https://dc.lft.to/lastmile_qr_scan", "ios": "https://dc.lft.to/lastmile_qr_scan"}}, {"bike_id": "b1e2a44efe0bfafd9e77d2133ac10b46", "fusion_lon": 0.0, "name": "b1e2a44efe0bfafd9e77d2133ac10b46", "lat": 38.898299333333334, "is_disabled": 0, "is_reserved": 0, "lon": -77.03188033333333, "type": "electric_scooter", "fusion_lat": 0.0, "rental_uris": {"android": "https://dc.lft.to/lastmile_qr_scan", "ios": "https://dc.lft.to/lastmile_qr_scan"}}, {"bike_id": "cdedf19938f8664fa2eed3c7e55dc10d", "fusion_lon": 0.0, "name": "cdedf19938f8664fa2eed3c7e55dc10d", "lat": 38.922403333333335, "is_disabled": 0, "is_reserved": 0, "lon": -77.03663416666667, "type": "electric_scooter", "fusion_lat": 0.0, "rental_uris": {"android": "https://dc.lft.to/lastmile_qr_scan", "ios": "https://dc.lft.to/lastmile_qr_scan"}}, {"bike_id": "af4a752dafea40ab0cc5d330ad084463", "fusion_lon": 0.0, "name": "af4a752dafea40ab0cc5d330ad084463", "lat": 38.894648, "is_disabled": 0, "is_reserved": 0, "lon": -77.026876, "type": "electric_scooter", "fusion_lat": 0.0, "rental_uris": {"android": "https://dc.lft.to/lastmile_qr_scan", "ios": "https://dc.lft.to/lastmile_qr_scan"}}, {"bike_id": "6ee5b8b086a6c7268baa76a4ffaa5755", "fusion_lon": 0.0, "name": "6ee5b8b086a6c7268baa76a4ffaa5755", "lat": 38.88300233333333, "is_disabled": 0, "is_reserved": 0, "lon": -77.01387766666667, "type": "electric_scooter", "fusion_lat": 0.0, "rental_uris": {"android": "https://dc.lft.to/lastmile_qr_scan", "ios": "https://dc.lft.to/lastmile_qr_scan"}}, {"bike_id": "cee1b93f5eda9154bd8fd352090417cf", "fusion_lon": 0.0, "name": "cee1b93f5eda9154bd8fd352090417cf", "lat": 38.91018566666666, "is_disabled": 0, "is_reserved": 0, "lon": -77.00920316666667, "type": "electric_scooter", "fusion_lat": 0.0, "rental_uris": {"android": "https://dc.lft.to/lastmile_qr_scan", "ios": "https://dc.lft.to/lastmile_qr_scan"}}, {"bike_id": "d250caf0f3e04133c4fe5b4954197909", "fusion_lon": 0.0, "name": "d250caf0f3e04133c4fe5b4954197909", "lat": 38.89220916666667, "is_disabled": 0, "is_reserved": 0, "lon": -77.04308133333333, "type": "electric_scooter", "fusion_lat": 0.0, "rental_uris": {"android": "https://dc.lft.to/lastmile_qr_scan", "ios": "https://dc.lft.to/lastmile_qr_scan"}}, {"bike_id": "d00a144cc39f4f4219e6d17672bbe54f", "fusion_lon": 0.0, "name": "d00a144cc39f4f4219e6d17672bbe54f", "lat": 38.88873316666667, "is_disabled": 0, "is_reserved": 0, "lon": -76.97732683333334, "type": "electric_scooter", "fusion_lat": 0.0, "rental_uris": {"android": "https://dc.lft.to/lastmile_qr_scan", "ios": "https://dc.lft.to/lastmile_qr_scan"}}, {"bike_id": "f14a26803284f6c1a21e71eea2e02731", "fusion_lon": 0.0, "name": "f14a26803284f6c1a21e71eea2e02731", "lat": 38.884895, "is_disabled": 0, "is_reserved": 0, "lon": -77.0071065, "type": "electric_scooter", "fusion_lat": 0.0, "rental_uris": {"android": "https://dc.lft.to/lastmile_qr_scan", "ios": "https://dc.lft.to/lastmile_qr_scan"}}, {"bike_id": "550eadc9263469628a14fcfb7064dc7c", "fusion_lon": 0.0, "name": "550eadc9263469628a14fcfb7064dc7c", "lat": 38.867607166666666, "is_disabled": 0, "is_reserved": 0, "lon": -76.9828, "type": "electric_scooter", "fusion_lat": 0.0, "rental_uris": {"android": "https://dc.lft.to/lastmile_qr_scan", "ios": "https://dc.lft.to/lastmile_qr_scan"}}, {"bike_id": "6f18d2066b17dc95807b29f93952f6ca", "fusion_lon": 0.0, "name": "6f18d2066b17dc95807b29f93952f6ca", "lat": 38.928505333333334, "is_disabled": 0, "is_reserved": 0, "lon": -77.03276483333333, "type": "electric_scooter", "fusion_lat": 0.0, "rental_uris": {"android": "https://dc.lft.to/lastmile_qr_scan", "ios": "https://dc.lft.to/lastmile_qr_scan"}}, {"bike_id": "093181d35ace0be7a919528c0724a4ba", "fusion_lon": 0.0, "name": "093181d35ace0be7a919528c0724a4ba", "lat": 38.91355433333333, "is_disabled": 0, "is_reserved": 0, "lon": -77.045812, "type": "electric_scooter", "fusion_lat": 0.0, "rental_uris": {"android": "https://dc.lft.to/lastmile_qr_scan", "ios": "https://dc.lft.to/lastmile_qr_scan"}}, {"bike_id": "a4d51d27a4d34dba4d535cb95fa19170", "fusion_lon": 0.0, "name": "a4d51d27a4d34dba4d535cb95fa19170", "lat": 38.934618666666665, "is_disabled": 0, "is_reserved": 0, "lon": -77.041223, "type": "electric_scooter", "fusion_lat": 0.0, "rental_uris": {"android": "https://dc.lft.to/lastmile_qr_scan", "ios": "https://dc.lft.to/lastmile_qr_scan"}}, {"bike_id": "08c5dca643989ea37524b23fa42b0599", "fusion_lon": 0.0, "name": "08c5dca643989ea37524b23fa42b0599", "lat": 38.95266566666667, "is_disabled": 0, "is_reserved": 0, "lon": -77.00247816666666, "type": "electric_scooter", "fusion_lat": 0.0, "rental_uris": {"android": "https://dc.lft.to/lastmile_qr_scan", "ios": "https://dc.lft.to/lastmile_qr_scan"}}, {"bike_id": "3314c68f4e9e2366a37ac18d9b7ab89e", "fusion_lon": 0.0, "name": "3314c68f4e9e2366a37ac18d9b7ab89e", "lat": 38.88488016666667, "is_disabled": 0, "is_reserved": 0, "lon": -77.00710983333333, "type": "electric_scooter", "fusion_lat": 0.0, "rental_uris": {"android": "https://dc.lft.to/lastmile_qr_scan", "ios": "https://dc.lft.to/lastmile_qr_scan"}}, {"bike_id": "edcf4fc9b2d81e38ba48674414b82ddf", "fusion_lon": 0.0, "name": "edcf4fc9b2d81e38ba48674414b82ddf", "lat": 38.928305, "is_disabled": 0, "is_reserved": 0, "lon": -77.03282266666666, "type": "electric_scooter", "fusion_lat": 0.0, "rental_uris": {"android": "https://dc.lft.to/lastmile_qr_scan", "ios": "https://dc.lft.to/lastmile_qr_scan"}}, {"bike_id": "2d37ff4879ce6ce42c74341c2d4c5673", "fusion_lon": 0.0, "name": "2d37ff4879ce6ce42c74341c2d4c5673", "lat": 38.910912833333335, "is_disabled": 0, "is_reserved": 0, "lon": -77.0384435, "type": "electric_scooter", "fusion_lat": 0.0, "rental_uris": {"android": "https://dc.lft.to/lastmile_qr_scan", "ios": "https://dc.lft.to/lastmile_qr_scan"}}, {"bike_id": "73ccc4596319ab91ae20c6b754baafb4", "fusion_lon": 0.0, "name": "73ccc4596319ab91ae20c6b754baafb4", "lat": 38.8974105, "is_disabled": 0, "is_reserved": 0, "lon": -77.043357, "type": "electric_scooter", "fusion_lat": 0.0, "rental_uris": {"android": "https://dc.lft.to/lastmile_qr_scan", "ios": "https://dc.lft.to/lastmile_qr_scan"}}, {"bike_id": "9714748cac1e56009e3a71f1c13658ac", "fusion_lon": 0.0, "name": "9714748cac1e56009e3a71f1c13658ac", "lat": 38.842821666666666, "is_disabled": 0, "is_reserved": 0, "lon": -77.0449365, "type": "electric_bike", "fusion_lat": 0.0, "rental_uris": {"android": "https://dc.lft.to/lastmile_qr_scan", "ios": "https://dc.lft.to/lastmile_qr_scan"}}, {"bike_id": "7fe1eeaa0705cc7813875125afa071f3", "fusion_lon": 0.0, "name": "7fe1eeaa0705cc7813875125afa071f3", "lat": 38.866825166666665, "is_disabled": 0, "is_reserved": 0, "lon": -76.98564683333333, "type": "electric_scooter", "fusion_lat": 0.0, "rental_uris": {"android": "https://dc.lft.to/lastmile_qr_scan", "ios": "https://dc.lft.to/lastmile_qr_scan"}}, {"bike_id": "8d5c282d20a9fcf1cca80a21747bcd1b", "fusion_lon": 0.0, "name": "8d5c282d20a9fcf1cca80a21747bcd1b", "lat": 38.898271, "is_disabled": 0, "is_reserved": 0, "lon": -77.0253475, "type": "electric_scooter", "fusion_lat": 0.0, "rental_uris": {"android": "https://dc.lft.to/lastmile_qr_scan", "ios": "https://dc.lft.to/lastmile_qr_scan"}}, {"bike_id": "343b9d267cd5bcfdecc89ecf2ca9c11f", "fusion_lon": 0.0, "name": "343b9d267cd5bcfdecc89ecf2ca9c11f", "lat": 38.899900833333334, "is_disabled": 0, "is_reserved": 0, "lon": -77.00662033333333, "type": "electric_scooter", "fusion_lat": 0.0, "rental_uris": {"android": "https://dc.lft.to/lastmile_qr_scan", "ios": "https://dc.lft.to/lastmile_qr_scan"}}, {"bike_id": "b58e4957c18ff9fc530a4be1dd587137", "fusion_lon": 0.0, "name": "b58e4957c18ff9fc530a4be1dd587137", "lat": 38.92876016666666, "is_disabled": 0, "is_reserved": 0, "lon": -77.0337505, "type": "electric_scooter", "fusion_lat": 0.0, "rental_uris": {"android": "https://dc.lft.to/lastmile_qr_scan", "ios": "https://dc.lft.to/lastmile_qr_scan"}}, {"bike_id": "62379ba0e4164aea7a8f76c17d928886", "fusion_lon": 0.0, "name": "62379ba0e4164aea7a8f76c17d928886", "lat": 38.88366416666667, "is_disabled": 0, "is_reserved": 0, "lon": -77.01976116666667, "type": "electric_scooter", "fusion_lat": 0.0, "rental_uris": {"android": "https://dc.lft.to/lastmile_qr_scan", "ios": "https://dc.lft.to/lastmile_qr_scan"}}, {"bike_id": "e047e5aa65ccdd40798601e1625df398", "fusion_lon": 0.0, "name": "e047e5aa65ccdd40798601e1625df398", "lat": 38.913556, "is_disabled": 0, "is_reserved": 0, "lon": -77.03439066666667, "type": "electric_scooter", "fusion_lat": 0.0, "rental_uris": {"android": "https://dc.lft.to/lastmile_qr_scan", "ios": "https://dc.lft.to/lastmile_qr_scan"}}, {"bike_id": "2f1bf161b4446eb1e799fc68d1d35e24", "fusion_lon": 0.0, "name": "2f1bf161b4446eb1e799fc68d1d35e24", "lat": 38.931931, "is_disabled": 0, "is_reserved": 0, "lon": -77.22927166666666, "type": "electric_bike", "fusion_lat": 0.0, "rental_uris": {"android": "https://dc.lft.to/lastmile_qr_scan", "ios": "https://dc.lft.to/lastmile_qr_scan"}}, {"bike_id": "4455603df8e7e858f81ca5bed09e8e38", "fusion_lon": 0.0, "name": "4455603df8e7e858f81ca5bed09e8e38", "lat": 38.917090333333334, "is_disabled": 0, "is_reserved": 0, "lon": -77.0414855, "type": "electric_scooter", "fusion_lat": 0.0, "rental_uris": {"android": "https://dc.lft.to/lastmile_qr_scan", "ios": "https://dc.lft.to/lastmile_qr_scan"}}, {"bike_id": "bda9832c1e851b0b99836ea5f735f5c4", "fusion_lon": 0.0, "name": "bda9832c1e851b0b99836ea5f735f5c4", "lat": 38.82040816666667, "is_disabled": 0, "is_reserved": 0, "lon": -77.05353833333334, "type": "electric_bike", "fusion_lat": 0.0, "rental_uris": {"android": "https://dc.lft.to/lastmile_qr_scan", "ios": "https://dc.lft.to/lastmile_qr_scan"}}, {"bike_id": "62bc9291675090787c800c8e2032975c", "fusion_lon": 0.0, "name": "62bc9291675090787c800c8e2032975c", "lat": 38.9028075, "is_disabled": 0, "is_reserved": 0, "lon": -77.02312533333334, "type": "electric_scooter", "fusion_lat": 0.0, "rental_uris": {"android": "https://dc.lft.to/lastmile_qr_scan", "ios": "https://dc.lft.to/lastmile_qr_scan"}}, {"bike_id": "67519781a8be1fde4c92edfe642338ef", "fusion_lon": 0.0, "name": "67519781a8be1fde4c92edfe642338ef", "lat": 38.92077333333334, "is_disabled": 0, "is_reserved": 0, "lon": -76.9972875, "type": "electric_scooter", "fusion_lat": 0.0, "rental_uris": {"android": "https://dc.lft.to/lastmile_qr_scan", "ios": "https://dc.lft.to/lastmile_qr_scan"}}, {"bike_id": "e7f3e9654ac6010e8d5b7fa3ec5857ee", "fusion_lon": 0.0, "name": "e7f3e9654ac6010e8d5b7fa3ec5857ee", "lat": 38.916814333333335, "is_disabled": 0, "is_reserved": 0, "lon": -77.03688666666666, "type": "electric_scooter", "fusion_lat": 0.0, "rental_uris": {"android": "https://dc.lft.to/lastmile_qr_scan", "ios": "https://dc.lft.to/lastmile_qr_scan"}}, {"bike_id": "67b58085d5c5e4e2e381e041d1eaa7ea", "fusion_lon": 0.0, "name": "67b58085d5c5e4e2e381e041d1eaa7ea", "lat": 38.8829555, "is_disabled": 0, "is_reserved": 0, "lon": -77.02478883333333, "type": "electric_scooter", "fusion_lat": 0.0, "rental_uris": {"android": "https://dc.lft.to/lastmile_qr_scan", "ios": "https://dc.lft.to/lastmile_qr_scan"}}, {"bike_id": "cd3de2ebf52fc98ca56cbdf068910863", "fusion_lon": 0.0, "name": "cd3de2ebf52fc98ca56cbdf068910863", "lat": 38.905513666666664, "is_disabled": 0, "is_reserved": 0, "lon": -77.00600583333333, "type": "electric_scooter", "fusion_lat": 0.0, "rental_uris": {"android": "https://dc.lft.to/lastmile_qr_scan", "ios": "https://dc.lft.to/lastmile_qr_scan"}}, {"bike_id": "89e002a6e6887d5a457d3df1b43d0caf", "fusion_lon": 0.0, "name": "89e002a6e6887d5a457d3df1b43d0caf", "lat": 38.91823983333333, "is_disabled": 0, "is_reserved": 0, "lon": -77.040249, "type": "electric_scooter", "fusion_lat": 0.0, "rental_uris": {"android": "https://dc.lft.to/lastmile_qr_scan", "ios": "https://dc.lft.to/lastmile_qr_scan"}}, {"bike_id": "f89ce94176e62ff1a0caccf367c3687b", "fusion_lon": 0.0, "name": "f89ce94176e62ff1a0caccf367c3687b", "lat": 38.942599333333334, "is_disabled": 0, "is_reserved": 0, "lon": -77.0253095, "type": "electric_scooter", "fusion_lat": 0.0, "rental_uris": {"android": "https://dc.lft.to/lastmile_qr_scan", "ios": "https://dc.lft.to/lastmile_qr_scan"}}, {"bike_id": "b0bc02129cc35035be212d57eb12950b", "fusion_lon": 0.0, "name": "b0bc02129cc35035be212d57eb12950b", "lat": 38.892381, "is_disabled": 0, "is_reserved": 0, "lon": -77.03349083333333, "type": "electric_scooter", "fusion_lat": 0.0, "rental_uris": {"android": "https://dc.lft.to/lastmile_qr_scan", "ios": "https://dc.lft.to/lastmile_qr_scan"}}, {"bike_id": "e1f911e0fea3ccf2b8264f79413c4aa7", "fusion_lon": 0.0, "name": "e1f911e0fea3ccf2b8264f79413c4aa7", "lat": 38.89706, "is_disabled": 0, "is_reserved": 0, "lon": -77.03215, "type": "electric_scooter", "fusion_lat": 0.0, "rental_uris": {"android": "https://dc.lft.to/lastmile_qr_scan", "ios": "https://dc.lft.to/lastmile_qr_scan"}}, {"bike_id": "426be361baee16a9c60d1838f9c4e89e", "fusion_lon": 0.0, "name": "426be361baee16a9c60d1838f9c4e89e", "lat": 38.9405265, "is_disabled": 0, "is_reserved": 0, "lon": -76.90419066666666, "type": "electric_bike", "fusion_lat": 0.0, "rental_uris": {"android": "https://dc.lft.to/lastmile_qr_scan", "ios": "https://dc.lft.to/lastmile_qr_scan"}}, {"bike_id": "dc2a0ee80a50f81c0f5c7aad49ec240f", "fusion_lon": 0.0, "name": "dc2a0ee80a50f81c0f5c7aad49ec240f", "lat": 38.9751825, "is_disabled": 0, "is_reserved": 0, "lon": -77.0169025, "type": "electric_bike", "fusion_lat": 0.0, "rental_uris": {"android": "https://dc.lft.to/lastmile_qr_scan", "ios": "https://dc.lft.to/lastmile_qr_scan"}}, {"bike_id": "0ee4dc0aa36cd6091b1c1b7bda56e492", "fusion_lon": 0.0, "name": "0ee4dc0aa36cd6091b1c1b7bda56e492", "lat": 38.92289233333333, "is_disabled": 0, "is_reserved": 0, "lon": -77.0297045, "type": "electric_scooter", "fusion_lat": 0.0, "rental_uris": {"android": "https://dc.lft.to/lastmile_qr_scan", "ios": "https://dc.lft.to/lastmile_qr_scan"}}, {"bike_id": "b72b599dad5eb9a45c6c5d676afc2311", "fusion_lon": 0.0, "name": "b72b599dad5eb9a45c6c5d676afc2311", "lat": 38.9157455, "is_disabled": 0, "is_reserved": 0, "lon": -77.01245616666667, "type": "electric_scooter", "fusion_lat": 0.0, "rental_uris": {"android": "https://dc.lft.to/lastmile_qr_scan", "ios": "https://dc.lft.to/lastmile_qr_scan"}}, {"bike_id": "b7c84a8fb9d69635edba4a82f8cf3884", "fusion_lon": 0.0, "name": "b7c84a8fb9d69635edba4a82f8cf3884", "lat": 38.89257283333333, "is_disabled": 0, "is_reserved": 0, "lon": -77.04658733333333, "type": "electric_scooter", "fusion_lat": 0.0, "rental_uris": {"android": "https://dc.lft.to/lastmile_qr_scan", "ios": "https://dc.lft.to/lastmile_qr_scan"}}, {"bike_id": "09f0b28d4ad6c8f773576aea51b1927d", "fusion_lon": 0.0, "name": "09f0b28d4ad6c8f773576aea51b1927d", "lat": 38.902230833333334, "is_disabled": 0, "is_reserved": 0, "lon": -77.04442983333334, "type": "electric_scooter", "fusion_lat": 0.0, "rental_uris": {"android": "https://dc.lft.to/lastmile_qr_scan", "ios": "https://dc.lft.to/lastmile_qr_scan"}}, {"bike_id": "3c74aedf86c187253fa7ef1dacf2278b", "fusion_lon": 0.0, "name": "3c74aedf86c187253fa7ef1dacf2278b", "lat": 38.9166755, "is_disabled": 0, "is_reserved": 0, "lon": -77.03466033333333, "type": "electric_scooter", "fusion_lat": 0.0, "rental_uris": {"android": "https://dc.lft.to/lastmile_qr_scan", "ios": "https://dc.lft.to/lastmile_qr_scan"}}, {"bike_id": "1963b16ffc49ccf8d93ec68b863a9779", "fusion_lon": 0.0, "name": "1963b16ffc49ccf8d93ec68b863a9779", "lat": 38.99444833333333, "is_disabled": 0, "is_reserved": 0, "lon": -76.99588616666666, "type": "electric_bike", "fusion_lat": 0.0, "rental_uris": {"android": "https://dc.lft.to/lastmile_qr_scan", "ios": "https://dc.lft.to/lastmile_qr_scan"}}, {"bike_id": "9be8ca580dfa2b8691ff23639f6574fa", "fusion_lon": 0.0, "name": "9be8ca580dfa2b8691ff23639f6574fa", "lat": 38.90433766666666, "is_disabled": 0, "is_reserved": 0, "lon": -77.04352233333333, "type": "electric_scooter", "fusion_lat": 0.0, "rental_uris": {"android": "https://dc.lft.to/lastmile_qr_scan", "ios": "https://dc.lft.to/lastmile_qr_scan"}}, {"bike_id": "6036a9dab526f83ca7c381f67c41f43d", "fusion_lon": 0.0, "name": "6036a9dab526f83ca7c381f67c41f43d", "lat": 38.9239865, "is_disabled": 0, "is_reserved": 0, "lon": -77.02437916666666, "type": "electric_scooter", "fusion_lat": 0.0, "rental_uris": {"android": "https://dc.lft.to/lastmile_qr_scan", "ios": "https://dc.lft.to/lastmile_qr_scan"}}, {"bike_id": "23d35febd3b885263dd6f293ac1115b4", "fusion_lon": 0.0, "name": "23d35febd3b885263dd6f293ac1115b4", "lat": 38.893594, "is_disabled": 0, "is_reserved": 0, "lon": -77.03206216666666, "type": "electric_scooter", "fusion_lat": 0.0, "rental_uris": {"android": "https://dc.lft.to/lastmile_qr_scan", "ios": "https://dc.lft.to/lastmile_qr_scan"}}, {"bike_id": "8789a7c0ea6719c3afa8eef6b764ecd5", "fusion_lon": 0.0, "name": "8789a7c0ea6719c3afa8eef6b764ecd5", "lat": 38.9169455, "is_disabled": 0, "is_reserved": 0, "lon": -77.02597566666667, "type": "electric_scooter", "fusion_lat": 0.0, "rental_uris": {"android": "https://dc.lft.to/lastmile_qr_scan", "ios": "https://dc.lft.to/lastmile_qr_scan"}}, {"bike_id": "b23dae8df21f3a2b247c2465a91f4f3b", "fusion_lon": 0.0, "name": "b23dae8df21f3a2b247c2465a91f4f3b", "lat": 38.892203333333335, "is_disabled": 0, "is_reserved": 0, "lon": -77.02221883333333, "type": "electric_scooter", "fusion_lat": 0.0, "rental_uris": {"android": "https://dc.lft.to/lastmile_qr_scan", "ios": "https://dc.lft.to/lastmile_qr_scan"}}, {"bike_id": "c6ca52379ec14115460a77ccc41fc074", "fusion_lon": 0.0, "name": "c6ca52379ec14115460a77ccc41fc074", "lat": 38.93333916666667, "is_disabled": 0, "is_reserved": 0, "lon": -77.034305, "type": "electric_scooter", "fusion_lat": 0.0, "rental_uris": {"android": "https://dc.lft.to/lastmile_qr_scan", "ios": "https://dc.lft.to/lastmile_qr_scan"}}, {"bike_id": "c4c1336a244da169049ecde378229bb6", "fusion_lon": 0.0, "name": "c4c1336a244da169049ecde378229bb6", "lat": 38.928519, "is_disabled": 0, "is_reserved": 0, "lon": -76.99774833333333, "type": "electric_scooter", "fusion_lat": 0.0, "rental_uris": {"android": "https://dc.lft.to/lastmile_qr_scan", "ios": "https://dc.lft.to/lastmile_qr_scan"}}, {"bike_id": "c9436cdf7575024b8b77a3295ca4be81", "fusion_lon": 0.0, "name": "c9436cdf7575024b8b77a3295ca4be81", "lat": 39.00295466666667, "is_disabled": 0, "is_reserved": 0, "lon": -76.902979, "type": "electric_bike", "fusion_lat": 0.0, "rental_uris": {"android": "https://dc.lft.to/lastmile_qr_scan", "ios": "https://dc.lft.to/lastmile_qr_scan"}}, {"bike_id": "1d40630db883f7819e537de58e4df310", "fusion_lon": 0.0, "name": "1d40630db883f7819e537de58e4df310", "lat": 38.948196333333335, "is_disabled": 0, "is_reserved": 0, "lon": -77.02943766666667, "type": "electric_bike", "fusion_lat": 0.0, "rental_uris": {"android": "https://dc.lft.to/lastmile_qr_scan", "ios": "https://dc.lft.to/lastmile_qr_scan"}}, {"bike_id": "c415959d7a9a837d7d8bcef626a9a3d1", "fusion_lon": 0.0, "name": "c415959d7a9a837d7d8bcef626a9a3d1", "lat": 38.89847433333333, "is_disabled": 0, "is_reserved": 0, "lon": -77.01890916666666, "type": "electric_scooter", "fusion_lat": 0.0, "rental_uris": {"android": "https://dc.lft.to/lastmile_qr_scan", "ios": "https://dc.lft.to/lastmile_qr_scan"}}, {"bike_id": "16f6fdcba88c3f8a843eed099f9433f5", "fusion_lon": 0.0, "name": "16f6fdcba88c3f8a843eed099f9433f5", "lat": 38.9350785, "is_disabled": 0, "is_reserved": 0, "lon": -77.0583035, "type": "electric_scooter", "fusion_lat": 0.0, "rental_uris": {"android": "https://dc.lft.to/lastmile_qr_scan", "ios": "https://dc.lft.to/lastmile_qr_scan"}}, {"bike_id": "47eec619a320ddde33dfc5a95d31ba55", "fusion_lon": 0.0, "name": "47eec619a320ddde33dfc5a95d31ba55", "lat": 38.90199616666666, "is_disabled": 0, "is_reserved": 0, "lon": -77.0223205, "type": "electric_scooter", "fusion_lat": 0.0, "rental_uris": {"android": "https://dc.lft.to/lastmile_qr_scan", "ios": "https://dc.lft.to/lastmile_qr_scan"}}, {"bike_id": "e4ae410798c44b1987af077f8469a3a6", "fusion_lon": 0.0, "name": "e4ae410798c44b1987af077f8469a3a6", "lat": 38.89844566666667, "is_disabled": 0, "is_reserved": 0, "lon": -77.012706, "type": "electric_scooter", "fusion_lat": 0.0, "rental_uris": {"android": "https://dc.lft.to/lastmile_qr_scan", "ios": "https://dc.lft.to/lastmile_qr_scan"}}, {"bike_id": "c13e22dce8ca86e95d710257c46c2bd5", "fusion_lon": 0.0, "name": "c13e22dce8ca86e95d710257c46c2bd5", "lat": 38.94473516666667, "is_disabled": 0, "is_reserved": 0, "lon": -77.023591, "type": "electric_scooter", "fusion_lat": 0.0, "rental_uris": {"android": "https://dc.lft.to/lastmile_qr_scan", "ios": "https://dc.lft.to/lastmile_qr_scan"}}, {"bike_id": "f87b0eade298b5b695a9d558783c9c9d", "fusion_lon": 0.0, "name": "f87b0eade298b5b695a9d558783c9c9d", "lat": 38.92353133333334, "is_disabled": 0, "is_reserved": 0, "lon": -77.0196375, "type": "electric_scooter", "fusion_lat": 0.0, "rental_uris": {"android": "https://dc.lft.to/lastmile_qr_scan", "ios": "https://dc.lft.to/lastmile_qr_scan"}}, {"bike_id": "ce5e0f24b19682bb3188f26ac44df342", "fusion_lon": 0.0, "name": "ce5e0f24b19682bb3188f26ac44df342", "lat": 38.923392, "is_disabled": 0, "is_reserved": 0, "lon": -77.01951516666666, "type": "electric_scooter", "fusion_lat": 0.0, "rental_uris": {"android": "https://dc.lft.to/lastmile_qr_scan", "ios": "https://dc.lft.to/lastmile_qr_scan"}}, {"bike_id": "d8060ed79125c63e27d6497815599906", "fusion_lon": 0.0, "name": "d8060ed79125c63e27d6497815599906", "lat": 38.92843583333333, "is_disabled": 0, "is_reserved": 0, "lon": -77.032897, "type": "electric_scooter", "fusion_lat": 0.0, "rental_uris": {"android": "https://dc.lft.to/lastmile_qr_scan", "ios": "https://dc.lft.to/lastmile_qr_scan"}}, {"bike_id": "b1ffe665ebf332a503b7a5f5df08e580", "fusion_lon": 0.0, "name": "b1ffe665ebf332a503b7a5f5df08e580", "lat": 38.9118775, "is_disabled": 0, "is_reserved": 0, "lon": -77.03838116666667, "type": "electric_scooter", "fusion_lat": 0.0, "rental_uris": {"android": "https://dc.lft.to/lastmile_qr_scan", "ios": "https://dc.lft.to/lastmile_qr_scan"}}, {"bike_id": "6737c7e3579f7a84aec58b851c3ae2df", "fusion_lon": 0.0, "name": "6737c7e3579f7a84aec58b851c3ae2df", "lat": 38.87499733333333, "is_disabled": 0, "is_reserved": 0, "lon": -77.00148083333333, "type": "electric_scooter", "fusion_lat": 0.0, "rental_uris": {"android": "https://dc.lft.to/lastmile_qr_scan", "ios": "https://dc.lft.to/lastmile_qr_scan"}}, {"bike_id": "99f3da00fb0dce908c42af28328e0779", "fusion_lon": 0.0, "name": "99f3da00fb0dce908c42af28328e0779", "lat": 38.932522166666665, "is_disabled": 0, "is_reserved": 0, "lon": -77.0327865, "type": "electric_scooter", "fusion_lat": 0.0, "rental_uris": {"android": "https://dc.lft.to/lastmile_qr_scan", "ios": "https://dc.lft.to/lastmile_qr_scan"}}, {"bike_id": "e181a7e235da0761f5d17e71d855e02a", "fusion_lon": 0.0, "name": "e181a7e235da0761f5d17e71d855e02a", "lat": 38.990559166666664, "is_disabled": 0, "is_reserved": 0, "lon": -77.038652, "type": "electric_bike", "fusion_lat": 0.0, "rental_uris": {"android": "https://dc.lft.to/lastmile_qr_scan", "ios": "https://dc.lft.to/lastmile_qr_scan"}}, {"bike_id": "a1276529ba26bc0ff694e976f70a2cc9", "fusion_lon": 0.0, "name": "a1276529ba26bc0ff694e976f70a2cc9", "lat": 38.8993265, "is_disabled": 0, "is_reserved": 0, "lon": -77.04204, "type": "electric_scooter", "fusion_lat": 0.0, "rental_uris": {"android": "https://dc.lft.to/lastmile_qr_scan", "ios": "https://dc.lft.to/lastmile_qr_scan"}}, {"bike_id": "658cb944f38375393faa7e124cf35c8a", "fusion_lon": 0.0, "name": "658cb944f38375393faa7e124cf35c8a", "lat": 38.928429333333334, "is_disabled": 0, "is_reserved": 0, "lon": -77.036509, "type": "electric_scooter", "fusion_lat": 0.0, "rental_uris": {"android": "https://dc.lft.to/lastmile_qr_scan", "ios": "https://dc.lft.to/lastmile_qr_scan"}}, {"bike_id": "07ec087c5db6f6fe26036540fa7130ea", "fusion_lon": 0.0, "name": "07ec087c5db6f6fe26036540fa7130ea", "lat": 38.93873133333334, "is_disabled": 0, "is_reserved": 0, "lon": -77.03222483333333, "type": "electric_scooter", "fusion_lat": 0.0, "rental_uris": {"android": "https://dc.lft.to/lastmile_qr_scan", "ios": "https://dc.lft.to/lastmile_qr_scan"}}, {"bike_id": "5f361de018245bd1d9a890b552a4181f", "fusion_lon": 0.0, "name": "5f361de018245bd1d9a890b552a4181f", "lat": 38.835449833333335, "is_disabled": 0, "is_reserved": 0, "lon": -76.98729416666667, "type": "electric_bike", "fusion_lat": 0.0, "rental_uris": {"android": "https://dc.lft.to/lastmile_qr_scan", "ios": "https://dc.lft.to/lastmile_qr_scan"}}, {"bike_id": "72d2c44406c3703d96d42b94ddb87782", "fusion_lon": 0.0, "name": "72d2c44406c3703d96d42b94ddb87782", "lat": 38.886323, "is_disabled": 0, "is_reserved": 0, "lon": -77.015437, "type": "electric_scooter", "fusion_lat": 0.0, "rental_uris": {"android": "https://dc.lft.to/lastmile_qr_scan", "ios": "https://dc.lft.to/lastmile_qr_scan"}}, {"bike_id": "28d6ba21f6fbccd6a51a824fa7211fba", "fusion_lon": 0.0, "name": "28d6ba21f6fbccd6a51a824fa7211fba", "lat": 38.919173666666666, "is_disabled": 0, "is_reserved": 0, "lon": -77.0702465, "type": "electric_bike", "fusion_lat": 0.0, "rental_uris": {"android": "https://dc.lft.to/lastmile_qr_scan", "ios": "https://dc.lft.to/lastmile_qr_scan"}}, {"bike_id": "299d2ecb42ae8d43984aacc24b5498af", "fusion_lon": 0.0, "name": "299d2ecb42ae8d43984aacc24b5498af", "lat": 38.892228, "is_disabled": 0, "is_reserved": 0, "lon": -77.031306, "type": "electric_scooter", "fusion_lat": 0.0, "rental_uris": {"android": "https://dc.lft.to/lastmile_qr_scan", "ios": "https://dc.lft.to/lastmile_qr_scan"}}, {"bike_id": "2aa5fa9c7cfd76453b327174b1db077f", "fusion_lon": 0.0, "name": "2aa5fa9c7cfd76453b327174b1db077f", "lat": 38.92327616666667, "is_disabled": 0, "is_reserved": 0, "lon": -77.02972583333333, "type": "electric_scooter", "fusion_lat": 0.0, "rental_uris": {"android": "https://dc.lft.to/lastmile_qr_scan", "ios": "https://dc.lft.to/lastmile_qr_scan"}}, {"bike_id": "7e2d03432d9a9372188e61111d482a88", "fusion_lon": 0.0, "name": "7e2d03432d9a9372188e61111d482a88", "lat": 38.84390766666667, "is_disabled": 0, "is_reserved": 0, "lon": -76.98956466666667, "type": "electric_scooter", "fusion_lat": 0.0, "rental_uris": {"android": "https://dc.lft.to/lastmile_qr_scan", "ios": "https://dc.lft.to/lastmile_qr_scan"}}, {"bike_id": "32eaceef0e2009c60d4ec9f3e27a274c", "fusion_lon": 0.0, "name": "32eaceef0e2009c60d4ec9f3e27a274c", "lat": 38.9056385, "is_disabled": 0, "is_reserved": 0, "lon": -77.04319716666667, "type": "electric_scooter", "fusion_lat": 0.0, "rental_uris": {"android": "https://dc.lft.to/lastmile_qr_scan", "ios": "https://dc.lft.to/lastmile_qr_scan"}}, {"bike_id": "0da68a28d43ac4222847fae4fb13f9af", "fusion_lon": 0.0, "name": "0da68a28d43ac4222847fae4fb13f9af", "lat": 38.934366833333335, "is_disabled": 0, "is_reserved": 0, "lon": -77.03991266666667, "type": "electric_scooter", "fusion_lat": 0.0, "rental_uris": {"android": "https://dc.lft.to/lastmile_qr_scan", "ios": "https://dc.lft.to/lastmile_qr_scan"}}, {"bike_id": "ac6268d1dc40044d53998af48de09c33", "fusion_lon": 0.0, "name": "ac6268d1dc40044d53998af48de09c33", "lat": 38.91265383333333, "is_disabled": 0, "is_reserved": 0, "lon": -77.04549683333333, "type": "electric_scooter", "fusion_lat": 0.0, "rental_uris": {"android": "https://dc.lft.to/lastmile_qr_scan", "ios": "https://dc.lft.to/lastmile_qr_scan"}}, {"bike_id": "c32485ef283d48487fa4ac48dd03a74e", "fusion_lon": 0.0, "name": "c32485ef283d48487fa4ac48dd03a74e", "lat": 38.92441916666667, "is_disabled": 0, "is_reserved": 0, "lon": -77.0520765, "type": "electric_scooter", "fusion_lat": 0.0, "rental_uris": {"android": "https://dc.lft.to/lastmile_qr_scan", "ios": "https://dc.lft.to/lastmile_qr_scan"}}, {"bike_id": "454a2a136d8ff19151f9510936994e48", "fusion_lon": 0.0, "name": "454a2a136d8ff19151f9510936994e48", "lat": 38.857940666666664, "is_disabled": 0, "is_reserved": 0, "lon": -76.98911466666667, "type": "electric_scooter", "fusion_lat": 0.0, "rental_uris": {"android": "https://dc.lft.to/lastmile_qr_scan", "ios": "https://dc.lft.to/lastmile_qr_scan"}}, {"bike_id": "8c85553a2e60260ccc915340c022b5a9", "fusion_lon": 0.0, "name": "8c85553a2e60260ccc915340c022b5a9", "lat": 38.9395235, "is_disabled": 0, "is_reserved": 0, "lon": -77.085934, "type": "electric_scooter", "fusion_lat": 0.0, "rental_uris": {"android": "https://dc.lft.to/lastmile_qr_scan", "ios": "https://dc.lft.to/lastmile_qr_scan"}}, {"bike_id": "bf28ce56512294ebd9e8aa4e3a549d28", "fusion_lon": 0.0, "name": "bf28ce56512294ebd9e8aa4e3a549d28", "lat": 38.879899333333334, "is_disabled": 0, "is_reserved": 0, "lon": -77.02403983333333, "type": "electric_scooter", "fusion_lat": 0.0, "rental_uris": {"android": "https://dc.lft.to/lastmile_qr_scan", "ios": "https://dc.lft.to/lastmile_qr_scan"}}, {"bike_id": "dc762022d846ffec082f02b21bf4c170", "fusion_lon": 0.0, "name": "dc762022d846ffec082f02b21bf4c170", "lat": 38.8985605, "is_disabled": 0, "is_reserved": 0, "lon": -76.97652483333333, "type": "electric_scooter", "fusion_lat": 0.0, "rental_uris": {"android": "https://dc.lft.to/lastmile_qr_scan", "ios": "https://dc.lft.to/lastmile_qr_scan"}}, {"bike_id": "0ab4c45ee1c2b9ab72d1a5f9bd010abb", "fusion_lon": 0.0, "name": "0ab4c45ee1c2b9ab72d1a5f9bd010abb", "lat": 38.902783, "is_disabled": 0, "is_reserved": 0, "lon": -77.03358066666667, "type": "electric_scooter", "fusion_lat": 0.0, "rental_uris": {"android": "https://dc.lft.to/lastmile_qr_scan", "ios": "https://dc.lft.to/lastmile_qr_scan"}}, {"bike_id": "d21667841983014437044bd312982809", "fusion_lon": 0.0, "name": "d21667841983014437044bd312982809", "lat": 38.85770766666667, "is_disabled": 0, "is_reserved": 0, "lon": -76.98753933333333, "type": "electric_bike", "fusion_lat": 0.0, "rental_uris": {"android": "https://dc.lft.to/lastmile_qr_scan", "ios": "https://dc.lft.to/lastmile_qr_scan"}},