{"data": {"bikes": [{"name": "58b0349cd633ee59488f27442f3d5a77", "fusion_lon": 0.0, "lat": 38.881114833333335, "is_reserved": 0, "type": "electric_scooter", "bike_id": "58b0349cd633ee59488f27442f3d5a77", "is_disabled": 0, "rental_uris": {"android": "https://dc.lft.to/lastmile_qr_scan", "ios": "https://dc.lft.to/lastmile_qr_scan"}, "lon": -77.01671883333333, "fusion_lat": 0.0}, {"name": "f01920c7dd039fcb887da9e4483b6328", "fusion_lon": 0.0, "lat": 38.91718633333333, "is_reserved": 0, "type": "electric_scooter", "bike_id": "f01920c7dd039fcb887da9e4483b6328", "is_disabled": 0, "rental_uris": {"android": "https://dc.lft.to/lastmile_qr_scan", "ios": "https://dc.lft.to/lastmile_qr_scan"}, "lon": -77.03855633333333, "fusion_lat": 0.0}, {"name": "200a8fa5eb4a10228cd4d14b92ee9968", "fusion_lon": 0.0, "lat": 38.91845333333333, "is_reserved": 0, "type": "electric_scooter", "bike_id": "200a8fa5eb4a10228cd4d14b92ee9968", "is_disabled": 0, "rental_uris": {"android": "https://dc.lft.to/lastmile_qr_scan", "ios": "https://dc.lft.to/lastmile_qr_scan"}, "lon": -77.03180416666666, "fusion_lat": 0.0}, {"name": "586a4a19e412eda47f1cdccc15e61892", "fusion_lon": 0.0, "lat": 38.888135, "is_reserved": 0, "type": "electric_scooter", "bike_id": "586a4a19e412eda47f1cdccc15e61892", "is_disabled": 0, "rental_uris": {"android": "https://dc.lft.to/lastmile_qr_scan", "ios": "https://dc.lft.to/lastmile_qr_scan"}, "lon": -76.93343083333333, "fusion_lat": 0.0}, {"name": "33c50081f013a3007d28fb350786f066", "fusion_lon": 0.0, "lat": 38.92471416666667, "is_reserved": 0, "type": "electric_scooter", "bike_id": "33c50081f013a3007d28fb350786f066", "is_disabled": 0, "rental_uris": {"android": "https://dc.lft.to/lastmile_qr_scan", "ios": "https://dc.lft.to/lastmile_qr_scan"}, "lon": -77.0219895, "fusion_lat": 0.0}, {"name": "39f566d8c15aa45d6cf58740fc49cd83", "fusion_lon": 0.0, "lat": 38.91635566666667, "is_reserved": 0, "type": "electric_scooter", "bike_id": "39f566d8c15aa45d6cf58740fc49cd83", "is_disabled": 0, "rental_uris": {"android": "https://dc.lft.to/lastmile_qr_scan", "ios": "https://dc.lft.to/lastmile_qr_scan"}, "lon": -77.00197783333333, "fusion_lat": 0.0}, {"name": "0916c2c1e0665cb8b534a9a8ede65080", "fusion_lon": 0.0, "lat": 38.92210133333333, "is_reserved": 0, "type": "electric_bike", "bike_id": "0916c2c1e0665cb8b534a9a8ede65080", "is_disabled": 0, "rental_uris": {"android": "https://dc.lft.to/lastmile_qr_scan", "ios": "https://dc.lft.to/lastmile_qr_scan"}, "lon": -76.9879315, "fusion_lat": 0.0}, {"name": "9fad31bb9019eb10bc000f9fa0592446", "fusion_lon": 0.0, "lat": 38.9209555, "is_reserved": 0, "type": "electric_scooter", "bike_id": "9fad31bb9019eb10bc000f9fa0592446", "is_disabled": 0, "rental_uris": {"android": "https://dc.lft.to/lastmile_qr_scan", "ios": "https://dc.lft.to/lastmile_qr_scan"}, "lon": -77.004323, "fusion_lat": 0.0}, {"name": "c932ecb378213b43d24d10440c3339aa", "fusion_lon": 0.0, "lat": 38.90271666666666, "is_reserved": 0, "type": "electric_scooter", "bike_id": "c932ecb378213b43d24d10440c3339aa", "is_disabled": 0, "rental_uris": {"android": "https://dc.lft.to/lastmile_qr_scan", "ios": "https://dc.lft.to/lastmile_qr_scan"}, "lon": -77.03968916666666, "fusion_lat": 0.0}, {"name": "64f1a96808a9256933dbaf0fa64b8f03", "fusion_lon": 0.0, "lat": 38.914155, "is_reserved": 0, "type": "electric_scooter", "bike_id": "64f1a96808a9256933dbaf0fa64b8f03", "is_disabled": 0, "rental_uris": {"android": "https://dc.lft.to/lastmile_qr_scan", "ios": "https://dc.lft.to/lastmile_qr_scan"}, "lon": -77.02152216666667, "fusion_lat": 0.0}, {"name": "1abfc76d8e94c5ed519e07762aa6f19c", "fusion_lon": 0.0, "lat": 38.911969666666664, "is_reserved": 0, "type": "electric_scooter", "bike_id": "1abfc76d8e94c5ed519e07762aa6f19c", "is_disabled": 0, "rental_uris": {"android": "https://dc.lft.to/lastmile_qr_scan", "ios": "https://dc.lft.to/lastmile_qr_scan"}, "lon": -77.03839033333334, "fusion_lat": 0.0}, {"name": "db6aa59147c282d635c4905835610e62", "fusion_lon": 0.0, "lat": 38.860952, "is_reserved": 0, "type": "electric_bike", "bike_id": "db6aa59147c282d635c4905835610e62", "is_disabled": 0, "rental_uris": {"android": "https://dc.lft.to/lastmile_qr_scan", "ios": "https://dc.lft.to/lastmile_qr_scan"}, "lon": -77.09586533333334, "fusion_lat": 0.0}, {"name": "f572b1ce2a3a89c50ff711501e3ff7da", "fusion_lon": 0.0, "lat": 38.936815333333335, "is_reserved": 0, "type": "electric_scooter", "bike_id": "f572b1ce2a3a89c50ff711501e3ff7da", "is_disabled": 0, "rental_uris": {"android": "https://dc.lft.to/lastmile_qr_scan", "ios": "https://dc.lft.to/lastmile_qr_scan"}, "lon": -77.0362375, "fusion_lat": 0.0}, {"name": "682649f8262615f04f6dcee06ee64534", "fusion_lon": 0.0, "lat": 38.922542166666666, "is_reserved": 0, "type": "electric_scooter", "bike_id": "682649f8262615f04f6dcee06ee64534", "is_disabled": 0, "rental_uris": {"android": "https://dc.lft.to/lastmile_qr_scan", "ios": "https://dc.lft.to/lastmile_qr_scan"}, "lon": -77.03023233333333, "fusion_lat": 0.0}, {"name": "b3a210e83e0e791efc9e162fdd767cf0", "fusion_lon": 0.0, "lat": 38.927314, "is_reserved": 0, "type": "electric_scooter", "bike_id": "b3a210e83e0e791efc9e162fdd767cf0", "is_disabled": 0, "rental_uris": {"android": "https://dc.lft.to/lastmile_qr_scan", "ios": "https://dc.lft.to/lastmile_qr_scan"}, "lon": -77.01498583333333, "fusion_lat": 0.0}, {"name": "8aa529a26f08bf50f753329bbb0189ff", "fusion_lon": 0.0, "lat": 38.91553116666667, "is_reserved": 0, "type": "electric_scooter", "bike_id": "8aa529a26f08bf50f753329bbb0189ff", "is_disabled": 0, "rental_uris": {"android": "https://dc.lft.to/lastmile_qr_scan", "ios": "https://dc.lft.to/lastmile_qr_scan"}, "lon": -77.04178716666667, "fusion_lat": 0.0}, {"name": "47e709c352ed6cb1d93d1cb4663a005d", "fusion_lon": 0.0, "lat": 38.92008283333333, "is_reserved": 0, "type": "electric_scooter", "bike_id": "47e709c352ed6cb1d93d1cb4663a005d", "is_disabled": 0, "rental_uris": {"android": "https://dc.lft.to/lastmile_qr_scan", "ios": "https://dc.lft.to/lastmile_qr_scan"}, "lon": -77.03220716666667, "fusion_lat": 0.0}, {"name": "bda28c8f2df9adfb8f1dea9694884c1d", "fusion_lon": 0.0, "lat": 38.89713883333334, "is_reserved": 0, "type": "electric_scooter", "bike_id": "bda28c8f2df9adfb8f1dea9694884c1d", "is_disabled": 0, "rental_uris": {"android": "https://dc.lft.to/lastmile_qr_scan", "ios": "https://dc.lft.to/lastmile_qr_scan"}, "lon": -76.93004733333333, "fusion_lat": 0.0}, {"name": "d8f98a287880df4144e39820e8768a7c", "fusion_lon": 0.0, "lat": 38.916458666666664, "is_reserved": 0, "type": "electric_scooter", "bike_id": "d8f98a287880df4144e39820e8768a7c", "is_disabled": 0, "rental_uris": {"android": "https://dc.lft.to/lastmile_qr_scan", "ios": "https://dc.lft.to/lastmile_qr_scan"}, "lon": -77.02395133333333, "fusion_lat": 0.0}, {"name": "49ca5332f4810b39e5fa46125b7b7e2f", "fusion_lon": 0.0, "lat": 38.9117395, "is_reserved": 0, "type": "electric_scooter", "bike_id": "49ca5332f4810b39e5fa46125b7b7e2f", "is_disabled": 0, "rental_uris": {"android": "https://dc.lft.to/lastmile_qr_scan", "ios": "https://dc.lft.to/lastmile_qr_scan"}, "lon": -77.00450833333333, "fusion_lat": 0.0}, {"name": "df2b24382aedba8364678779295024f4", "fusion_lon": 0.0, "lat": 38.9238615, "is_reserved": 0, "type": "electric_scooter", "bike_id": "df2b24382aedba8364678779295024f4", "is_disabled": 0, "rental_uris": {"android": "https://dc.lft.to/lastmile_qr_scan", "ios": "https://dc.lft.to/lastmile_qr_scan"}, "lon": -77.03091116666667, "fusion_lat": 0.0}, {"name": "a6e9b3f884ee1ebbefec6e5018ce001e", "fusion_lon": 0.0, "lat": 38.899281, "is_reserved": 0, "type": "electric_scooter", "bike_id": "a6e9b3f884ee1ebbefec6e5018ce001e", "is_disabled": 0, "rental_uris": {"android": "https://dc.lft.to/lastmile_qr_scan", "ios": "https://dc.lft.to/lastmile_qr_scan"}, "lon": -77.07058683333334, "fusion_lat": 0.0}, {"name": "64ebfd16a180f5aec1dfeba109e73a30", "fusion_lon": 0.0, "lat": 38.89857833333333, "is_reserved": 0, "type": "electric_scooter", "bike_id": "64ebfd16a180f5aec1dfeba109e73a30", "is_disabled": 0, "rental_uris": {"android": "https://dc.lft.to/lastmile_qr_scan", "ios": "https://dc.lft.to/lastmile_qr_scan"}, "lon": -77.02369466666667, "fusion_lat": 0.0}, {"name": "8bca6b409c8848a32516c87468776cf0", "fusion_lon": 0.0, "lat": 38.899578, "is_reserved": 0, "type": "electric_bike", "bike_id": "8bca6b409c8848a32516c87468776cf0", "is_disabled": 0, "rental_uris": {"android": "https://dc.lft.to/lastmile_qr_scan", "ios": "https://dc.lft.to/lastmile_qr_scan"}, "lon": -76.98558816666667, "fusion_lat": 0.0}, {"name": "402c63bcafaa670552bcef1d3f1b4a7e", "fusion_lon": 0.0, "lat": 38.90384533333334, "is_reserved": 0, "type": "electric_scooter", "bike_id": "402c63bcafaa670552bcef1d3f1b4a7e", "is_disabled": 0, "rental_uris": {"android": "https://dc.lft.to/lastmile_qr_scan", "ios": "https://dc.lft.to/lastmile_qr_scan"}, "lon": -77.04494583333333, "fusion_lat": 0.0}, {"name": "907bde1e89e69799af0f805c22a2777f", "fusion_lon": 0.0, "lat": 38.86629416666667, "is_reserved": 0, "type": "electric_scooter", "bike_id": "907bde1e89e69799af0f805c22a2777f", "is_disabled": 0, "rental_uris": {"android": "https://dc.lft.to/lastmile_qr_scan", "ios": "https://dc.lft.to/lastmile_qr_scan"}, "lon": -76.989009, "fusion_lat": 0.0}, {"name": "2913f90b75897302b7a2b27325c89023", "fusion_lon": 0.0, "lat": 38.91570883333333, "is_reserved": 0, "type": "electric_scooter", "bike_id": "2913f90b75897302b7a2b27325c89023", "is_disabled": 0, "rental_uris": {"android": "https://dc.lft.to/lastmile_qr_scan", "ios": "https://dc.lft.to/lastmile_qr_scan"}, "lon": -77.01034583333333, "fusion_lat": 0.0}, {"name": "582b10f9dae5603807dae16ee9fe56ba", "fusion_lon": 0.0, "lat": 38.928736666666666, "is_reserved": 0, "type": "electric_scooter", "bike_id": "582b10f9dae5603807dae16ee9fe56ba", "is_disabled": 0, "rental_uris": {"android": "https://dc.lft.to/lastmile_qr_scan", "ios": "https://dc.lft.to/lastmile_qr_scan"}, "lon": -77.03288066666667, "fusion_lat": 0.0}, {"name": "9d9ce46857b555c56e500d8e43edfe7a", "fusion_lon": 0.0, "lat": 38.906007333333335, "is_reserved": 0, "type": "electric_scooter", "bike_id": "9d9ce46857b555c56e500d8e43edfe7a", "is_disabled": 0, "rental_uris": {"android": "https://dc.lft.to/lastmile_qr_scan", "ios": "https://dc.lft.to/lastmile_qr_scan"}, "lon": -77.041344, "fusion_lat": 0.0}, {"name": "19f7000a11b5188d7f156e1ca22459d3", "fusion_lon": 0.0, "lat": 38.916665, "is_reserved": 0, "type": "electric_scooter", "bike_id": "19f7000a11b5188d7f156e1ca22459d3", "is_disabled": 0, "rental_uris": {"android": "https://dc.lft.to/lastmile_qr_scan", "ios": "https://dc.lft.to/lastmile_qr_scan"}, "lon": -77.022833, "fusion_lat": 0.0}, {"name": "86bbb4609ad74fc6b47c19fe2d3afd93", "fusion_lon": 0.0, "lat": 38.93434416666667, "is_reserved": 0, "type": "electric_scooter", "bike_id": "86bbb4609ad74fc6b47c19fe2d3afd93", "is_disabled": 0, "rental_uris": {"android": "https://dc.lft.to/lastmile_qr_scan", "ios": "https://dc.lft.to/lastmile_qr_scan"}, "lon": -77.04538983333333, "fusion_lat": 0.0}, {"name": "4f77dfd41101e449d103a13c97fb99bb", "fusion_lon": 0.0, "lat": 38.94204216666667, "is_reserved": 0, "type": "electric_scooter", "bike_id": "4f77dfd41101e449d103a13c97fb99bb", "is_disabled": 0, "rental_uris": {"android": "https://dc.lft.to/lastmile_qr_scan", "ios": "https://dc.lft.to/lastmile_qr_scan"}, "lon": -77.025119, "fusion_lat": 0.0}, {"name": "ce4287d27fe43333f4db35e91b26c984", "fusion_lon": 0.0, "lat": 38.903075333333334, "is_reserved": 0, "type": "electric_scooter", "bike_id": "ce4287d27fe43333f4db35e91b26c984", "is_disabled": 0, "rental_uris": {"android": "https://dc.lft.to/lastmile_qr_scan", "ios": "https://dc.lft.to/lastmile_qr_scan"}, "lon": -77.02217416666667, "fusion_lat": 0.0}, {"name": "1faa37284b3a98d617b5bae470d426ca", "fusion_lon": 0.0, "lat": 38.9128145, "is_reserved": 0, "type": "electric_scooter", "bike_id": "1faa37284b3a98d617b5bae470d426ca", "is_disabled": 0, "rental_uris": {"android": "https://dc.lft.to/lastmile_qr_scan", "ios": "https://dc.lft.to/lastmile_qr_scan"}, "lon": -77.0450085, "fusion_lat": 0.0}, {"name": "361befec6bccae73d3f30e78c0ceca92", "fusion_lon": 0.0, "lat": 38.904096333333335, "is_reserved": 0, "type": "electric_scooter", "bike_id": "361befec6bccae73d3f30e78c0ceca92", "is_disabled": 0, "rental_uris": {"android": "https://dc.lft.to/lastmile_qr_scan", "ios": "https://dc.lft.to/lastmile_qr_scan"}, "lon": -77.04348733333333, "fusion_lat": 0.0}, {"name": "c73117707fea38786afb3d0dbdbdb9e5", "fusion_lon": 0.0, "lat": 38.94993783333334, "is_reserved": 0, "type": "electric_scooter", "bike_id": "c73117707fea38786afb3d0dbdbdb9e5", "is_disabled": 0, "rental_uris": {"android": "https://dc.lft.to/lastmile_qr_scan", "ios": "https://dc.lft.to/lastmile_qr_scan"}, "lon": -77.03330366666667, "fusion_lat": 0.0}, {"name": "0538e741ba6144b5b8e442a00e8996f1", "fusion_lon": 0.0, "lat": 38.92382, "is_reserved": 0, "type": "electric_scooter", "bike_id": "0538e741ba6144b5b8e442a00e8996f1", "is_disabled": 0, "rental_uris": {"android": "https://dc.lft.to/lastmile_qr_scan", "ios": "https://dc.lft.to/lastmile_qr_scan"}, "lon": -77.020571, "fusion_lat": 0.0}, {"name": "de10e2a0a89d20d4a4d3415878b69cc9", "fusion_lon": 0.0, "lat": 38.90185616666667, "is_reserved": 0, "type": "electric_scooter", "bike_id": "de10e2a0a89d20d4a4d3415878b69cc9", "is_disabled": 0, "rental_uris": {"android": "https://dc.lft.to/lastmile_qr_scan", "ios": "https://dc.lft.to/lastmile_qr_scan"}, "lon": -76.98816333333333, "fusion_lat": 0.0}, {"name": "86a66bd0ada54070bfb1845116c00969", "fusion_lon": 0.0, "lat": 38.866405, "is_reserved": 0, "type": "electric_scooter", "bike_id": "86a66bd0ada54070bfb1845116c00969", "is_disabled": 0, "rental_uris": {"android": "https://dc.lft.to/lastmile_qr_scan", "ios": "https://dc.lft.to/lastmile_qr_scan"}, "lon": -76.9826315, "fusion_lat": 0.0}, {"name": "255da9c6aeca03733e9ac42f6708c2ae", "fusion_lon": 0.0, "lat": 38.86246633333333, "is_reserved": 0, "type": "electric_scooter", "bike_id": "255da9c6aeca03733e9ac42f6708c2ae", "is_disabled": 0, "rental_uris": {"android": "https://dc.lft.to/lastmile_qr_scan", "ios": "https://dc.lft.to/lastmile_qr_scan"}, "lon": -76.99491566666667, "fusion_lat": 0.0}, {"name": "cfc77bd2b9f14286f8388ee9ed10ee1f", "fusion_lon": 0.0, "lat": 38.917459, "is_reserved": 0, "type": "electric_scooter", "bike_id": "cfc77bd2b9f14286f8388ee9ed10ee1f", "is_disabled": 0, "rental_uris": {"android": "https://dc.lft.to/lastmile_qr_scan", "ios": "https://dc.lft.to/lastmile_qr_scan"}, "lon": -77.0147055, "fusion_lat": 0.0}, {"name": "7597a94e2de355a8094c1133e09b6551", "fusion_lon": 0.0, "lat": 38.902655333333335, "is_reserved": 0, "type": "electric_scooter", "bike_id": "7597a94e2de355a8094c1133e09b6551", "is_disabled": 0, "rental_uris": {"android": "https://dc.lft.to/lastmile_qr_scan", "ios": "https://dc.lft.to/lastmile_qr_scan"}, "lon": -77.03960616666667, "fusion_lat": 0.0}, {"name": "1994a40c284eee9d14d55bab280f1df6", "fusion_lon": 0.0, "lat": 38.957433333333334, "is_reserved": 0, "type": "electric_scooter", "bike_id": "1994a40c284eee9d14d55bab280f1df6", "is_disabled": 0, "rental_uris": {"android": "https://dc.lft.to/lastmile_qr_scan", "ios": "https://dc.lft.to/lastmile_qr_scan"}, "lon": -77.02064133333333, "fusion_lat": 0.0}, {"name": "165f24c7126a9ef44a4f366106643147", "fusion_lon": 0.0, "lat": 38.831571833333335, "is_reserved": 0, "type": "electric_scooter", "bike_id": "165f24c7126a9ef44a4f366106643147", "is_disabled": 0, "rental_uris": {"android": "https://dc.lft.to/lastmile_qr_scan", "ios": "https://dc.lft.to/lastmile_qr_scan"}, "lon": -77.05145283333333, "fusion_lat": 0.0}, {"name": "9479a4d487f6a407528986576790ee19", "fusion_lon": 0.0, "lat": 38.89719616666667, "is_reserved": 0, "type": "electric_scooter", "bike_id": "9479a4d487f6a407528986576790ee19", "is_disabled": 0, "rental_uris": {"android": "https://dc.lft.to/lastmile_qr_scan", "ios": "https://dc.lft.to/lastmile_qr_scan"}, "lon": -76.97343483333333, "fusion_lat": 0.0}, {"name": "8009684a0d2688d9d123bf577ceca523", "fusion_lon": 0.0, "lat": 38.87468833333333, "is_reserved": 0, "type": "electric_bike", "bike_id": "8009684a0d2688d9d123bf577ceca523", "is_disabled": 0, "rental_uris": {"android": "https://dc.lft.to/lastmile_qr_scan", "ios": "https://dc.lft.to/lastmile_qr_scan"}, "lon": -77.00234216666666, "fusion_lat": 0.0}, {"name": "b42f819c5ba3c98ccf2c5b23cdb1b7f1", "fusion_lon": 0.0, "lat": 38.9182385, "is_reserved": 0, "type": "electric_scooter", "bike_id": "b42f819c5ba3c98ccf2c5b23cdb1b7f1", "is_disabled": 0, "rental_uris": {"android": "https://dc.lft.to/lastmile_qr_scan", "ios": "https://dc.lft.to/lastmile_qr_scan"}, "lon": -77.0270865, "fusion_lat": 0.0}, {"name": "d2a32efdeaa94ab4b742f80c689348ea", "fusion_lon": 0.0, "lat": 38.931503166666666, "is_reserved": 0, "type": "electric_bike", "bike_id": "d2a32efdeaa94ab4b742f80c689348ea", "is_disabled": 0, "rental_uris": {"android": "https://dc.lft.to/lastmile_qr_scan", "ios": "https://dc.lft.to/lastmile_qr_scan"}, "lon": -77.02718716666666, "fusion_lat": 0.0}, {"name": "bc279ed70e846d91ce9295a94a86817b", "fusion_lon": 0.0, "lat": 38.98362266666667, "is_reserved": 0, "type": "electric_bike", "bike_id": "bc279ed70e846d91ce9295a94a86817b", "is_disabled": 0, "rental_uris": {"android": "https://dc.lft.to/lastmile_qr_scan", "ios": "https://dc.lft.to/lastmile_qr_scan"}, "lon": -76.97210366666667, "fusion_lat": 0.0}, {"name": "068ad12f477b6eb96b9c1004b3a889c1", "fusion_lon": 0.0, "lat": 38.923475833333335, "is_reserved": 0, "type": "electric_scooter", "bike_id": "068ad12f477b6eb96b9c1004b3a889c1", "is_disabled": 0, "rental_uris": {"android": "https://dc.lft.to/lastmile_qr_scan", "ios": "https://dc.lft.to/lastmile_qr_scan"}, "lon": -77.050805, "fusion_lat": 0.0}, {"name": "913357ae9aef4383b4e0b8172cbc6476", "fusion_lon": 0.0, "lat": 38.92422883333333, "is_reserved": 0, "type": "electric_scooter", "bike_id": "913357ae9aef4383b4e0b8172cbc6476", "is_disabled": 0, "rental_uris": {"android": "https://dc.lft.to/lastmile_qr_scan", "ios": "https://dc.lft.to/lastmile_qr_scan"}, "lon": -77.0505585, "fusion_lat": 0.0}, {"name": "bd11c4df85fc7ff8410545ae525b2da0", "fusion_lon": 0.0, "lat": 38.88429033333333, "is_reserved": 0, "type": "electric_scooter", "bike_id": "bd11c4df85fc7ff8410545ae525b2da0", "is_disabled": 0, "rental_uris": {"android": "https://dc.lft.to/lastmile_qr_scan", "ios": "https://dc.lft.to/lastmile_qr_scan"}, "lon": -77.02959833333334, "fusion_lat": 0.0}, {"name": "4eafbe1edf6617082006818d1b3dc185", "fusion_lon": 0.0, "lat": 38.92588666666666, "is_reserved": 0, "type": "electric_scooter", "bike_id": "4eafbe1edf6617082006818d1b3dc185", "is_disabled": 0, "rental_uris": {"android": "https://dc.lft.to/lastmile_qr_scan", "ios": "https://dc.lft.to/lastmile_qr_scan"}, "lon": -77.03908666666666, "fusion_lat": 0.0}, {"name": "6041665cff0ecb27c5475e7f123231e3", "fusion_lon": 0.0, "lat": 38.926527666666665, "is_reserved": 0, "type": "electric_scooter", "bike_id": "6041665cff0ecb27c5475e7f123231e3", "is_disabled": 0, "rental_uris": {"android": "https://dc.lft.to/lastmile_qr_scan", "ios": "https://dc.lft.to/lastmile_qr_scan"}, "lon": -77.03707983333334, "fusion_lat": 0.0}, {"name": "279ef99ead9d1f3167ebdabc4b69b615", "fusion_lon": 0.0, "lat": 38.900279, "is_reserved": 0, "type": "electric_scooter", "bike_id": "279ef99ead9d1f3167ebdabc4b69b615", "is_disabled": 0, "rental_uris": {"android": "https://dc.lft.to/lastmile_qr_scan", "ios": "https://dc.lft.to/lastmile_qr_scan"}, "lon": -77.00220133333333, "fusion_lat": 0.0}, {"name": "4cc53c37c1c6995f31b84ab4981f62fd", "fusion_lon": 0.0, "lat": 38.918136, "is_reserved": 0, "type": "electric_scooter", "bike_id": "4cc53c37c1c6995f31b84ab4981f62fd", "is_disabled": 0, "rental_uris": {"android": "https://dc.lft.to/lastmile_qr_scan", "ios": "https://dc.lft.to/lastmile_qr_scan"}, "lon": -77.03662383333334, "fusion_lat": 0.0}, {"name": "8c3d58c0646fe6048177aa54f3db841e", "fusion_lon": 0.0, "lat": 38.898729, "is_reserved": 0, "type": "electric_scooter", "bike_id": "8c3d58c0646fe6048177aa54f3db841e", "is_disabled": 0, "rental_uris": {"android": "https://dc.lft.to/lastmile_qr_scan", "ios": "https://dc.lft.to/lastmile_qr_scan"}, "lon": -76.92755933333333, "fusion_lat": 0.0}, {"name": "936b772aa0f0725fb346537f0a754796", "fusion_lon": 0.0, "lat": 38.924654, "is_reserved": 0, "type": "electric_scooter", "bike_id": "936b772aa0f0725fb346537f0a754796", "is_disabled": 0, "rental_uris": {"android": "https://dc.lft.to/lastmile_qr_scan", "ios": "https://dc.lft.to/lastmile_qr_scan"}, "lon": -77.0399705, "fusion_lat": 0.0}, {"name": "71c9defaaee1af57f6762c8136505537", "fusion_lon": 0.0, "lat": 38.931201, "is_reserved": 0, "type": "electric_scooter", "bike_id": "71c9defaaee1af57f6762c8136505537", "is_disabled": 0, "rental_uris": {"android": "https://dc.lft.to/lastmile_qr_scan", "ios": "https://dc.lft.to/lastmile_qr_scan"}, "lon": -77.020978, "fusion_lat": 0.0}, {"name": "86287924c2468de394e5ad1f9cb88483", "fusion_lon": 0.0, "lat": 38.8553975, "is_reserved": 0, "type": "electric_scooter", "bike_id": "86287924c2468de394e5ad1f9cb88483", "is_disabled": 0, "rental_uris": {"android": "https://dc.lft.to/lastmile_qr_scan", "ios": "https://dc.lft.to/lastmile_qr_scan"}, "lon": -76.98414366666667, "fusion_lat": 0.0}, {"name": "32c7df85b628e49a293258fcfb9d8424", "fusion_lon": 0.0, "lat": 38.88020683333333, "is_reserved": 0, "type": "electric_scooter", "bike_id": "32c7df85b628e49a293258fcfb9d8424", "is_disabled": 0, "rental_uris": {"android": "https://dc.lft.to/lastmile_qr_scan", "ios": "https://dc.lft.to/lastmile_qr_scan"}, "lon": -76.9311065, "fusion_lat": 0.0}, {"name": "df747e3a71c6a7433aee337f89630fdf", "fusion_lon": 0.0, "lat": 38.959438166666665, "is_reserved": 0, "type": "electric_scooter", "bike_id": "df747e3a71c6a7433aee337f89630fdf", "is_disabled": 0, "rental_uris": {"android": "https://dc.lft.to/lastmile_qr_scan", "ios": "https://dc.lft.to/lastmile_qr_scan"}, "lon": -77.03050983333333, "fusion_lat": 0.0}, {"name": "597adc74933d6ea7aa0ae21b1e760911", "fusion_lon": 0.0, "lat": 38.9079485, "is_reserved": 0, "type": "electric_scooter", "bike_id": "597adc74933d6ea7aa0ae21b1e760911", "is_disabled": 0, "rental_uris": {"android": "https://dc.lft.to/lastmile_qr_scan", "ios": "https://dc.lft.to/lastmile_qr_scan"}, "lon": -77.00207033333334, "fusion_lat": 0.0}, {"name": "bbb6ea53017a32d422b4bc99f34b5e08", "fusion_lon": 0.0, "lat": 38.9050685, "is_reserved": 0, "type": "electric_scooter", "bike_id": "bbb6ea53017a32d422b4bc99f34b5e08", "is_disabled": 0, "rental_uris": {"android": "https://dc.lft.to/lastmile_qr_scan", "ios": "https://dc.lft.to/lastmile_qr_scan"}, "lon": -77.02957933333333, "fusion_lat": 0.0}, {"name": "20994aca6e07243f90d9b2880380bbcc", "fusion_lon": 0.0, "lat": 38.900830166666665, "is_reserved": 0, "type": "electric_scooter", "bike_id": "20994aca6e07243f90d9b2880380bbcc", "is_disabled": 0, "rental_uris": {"android": "https://dc.lft.to/lastmile_qr_scan", "ios": "https://dc.lft.to/lastmile_qr_scan"}, "lon": -76.93018366666666, "fusion_lat": 0.0}, {"name": "8f6230992e521a55090cb75fb755a1cb", "fusion_lon": 0.0, "lat": 38.956549, "is_reserved": 0, "type": "electric_bike", "bike_id": "8f6230992e521a55090cb75fb755a1cb", "is_disabled": 0, "rental_uris": {"android": "https://dc.lft.to/lastmile_qr_scan", "ios": "https://dc.lft.to/lastmile_qr_scan"}, "lon": -77.01277716666667, "fusion_lat": 0.0}, {"name": "9f9ad6b16ae396adf296413d379c9b48", "fusion_lon": 0.0, "lat": 38.92981233333333, "is_reserved": 0, "type": "electric_scooter", "bike_id": "9f9ad6b16ae396adf296413d379c9b48", "is_disabled": 0, "rental_uris": {"android": "https://dc.lft.to/lastmile_qr_scan", "ios": "https://dc.lft.to/lastmile_qr_scan"}, "lon": -77.01325033333333, "fusion_lat": 0.0}, {"name": "168854e4933bb82e9590b6b520717ed2", "fusion_lon": 0.0, "lat": 38.92388533333333, "is_reserved": 0, "type": "electric_scooter", "bike_id": "168854e4933bb82e9590b6b520717ed2", "is_disabled": 0, "rental_uris": {"android": "https://dc.lft.to/lastmile_qr_scan", "ios": "https://dc.lft.to/lastmile_qr_scan"}, "lon": -77.02563, "fusion_lat": 0.0}, {"name": "b745c77fbe6e1ea29481dd685a1e9761", "fusion_lon": 0.0, "lat": 38.92797016666667, "is_reserved": 0, "type": "electric_scooter", "bike_id": "b745c77fbe6e1ea29481dd685a1e9761", "is_disabled": 0, "rental_uris": {"android": "https://dc.lft.to/lastmile_qr_scan", "ios": "https://dc.lft.to/lastmile_qr_scan"}, "lon": -77.03021783333334, "fusion_lat": 0.0}, {"name": "879bf6b39806d59efeb66dbb2c623540", "fusion_lon": 0.0, "lat": 38.83452333333334, "is_reserved": 0, "type": "electric_scooter", "bike_id": "879bf6b39806d59efeb66dbb2c623540", "is_disabled": 0, "rental_uris": {"android": "https://dc.lft.to/lastmile_qr_scan", "ios": "https://dc.lft.to/lastmile_qr_scan"}, "lon": -76.9907505, "fusion_lat": 0.0}, {"name": "907d922de5b29479a560192576e03a39", "fusion_lon": 0.0, "lat": 38.957555166666666, "is_reserved": 0, "type": "electric_scooter", "bike_id": "907d922de5b29479a560192576e03a39", "is_disabled": 0, "rental_uris": {"android": "https://dc.lft.to/lastmile_qr_scan", "ios": "https://dc.lft.to/lastmile_qr_scan"}, "lon": -77.020961, "fusion_lat": 0.0}, {"name": "da671305a27421df0b0931db4234385e", "fusion_lon": 0.0, "lat": 38.9044455, "is_reserved": 0, "type": "electric_scooter", "bike_id": "da671305a27421df0b0931db4234385e", "is_disabled": 0, "rental_uris": {"android": "https://dc.lft.to/lastmile_qr_scan", "ios": "https://dc.lft.to/lastmile_qr_scan"}, "lon": -76.9849555, "fusion_lat": 0.0}, {"name": "b6d2cc6c951aaaee4bd203831a2012e6", "fusion_lon": 0.0, "lat": 38.90175116666666, "is_reserved": 0, "type": "electric_scooter", "bike_id": "b6d2cc6c951aaaee4bd203831a2012e6", "is_disabled": 0, "rental_uris": {"android": "https://dc.lft.to/lastmile_qr_scan", "ios": "https://dc.lft.to/lastmile_qr_scan"}, "lon": -77.02478883333333, "fusion_lat": 0.0}, {"name": "37febf51110cf2ac5987555213668ff8", "fusion_lon": 0.0, "lat": 38.917529333333334, "is_reserved": 0, "type": "electric_bike", "bike_id": "37febf51110cf2ac5987555213668ff8", "is_disabled": 0, "rental_uris": {"android": "https://dc.lft.to/lastmile_qr_scan", "ios": "https://dc.lft.to/lastmile_qr_scan"}, "lon": -77.000462, "fusion_lat": 0.0}, {"name": "644006a87ea2d8be713312390bddb5bd", "fusion_lon": 0.0, "lat": 38.896254666666664, "is_reserved": 0, "type": "electric_scooter", "bike_id": "644006a87ea2d8be713312390bddb5bd", "is_disabled": 0, "rental_uris": {"android": "https://dc.lft.to/lastmile_qr_scan", "ios": "https://dc.lft.to/lastmile_qr_scan"}, "lon": -77.02973633333333, "fusion_lat": 0.0}, {"name": "aaae46c599186cb438be501fabe75a67", "fusion_lon": 0.0, "lat": 38.90043383333333, "is_reserved": 0, "type": "electric_scooter", "bike_id": "aaae46c599186cb438be501fabe75a67", "is_disabled": 0, "rental_uris": {"android": "https://dc.lft.to/lastmile_qr_scan", "ios": "https://dc.lft.to/lastmile_qr_scan"}, "lon": -77.0176865, "fusion_lat": 0.0}, {"name": "8bfca0b53c3509f0484f45e3a7b3f0aa", "fusion_lon": 0.0, "lat": 38.9518065, "is_reserved": 0, "type": "electric_scooter", "bike_id": "8bfca0b53c3509f0484f45e3a7b3f0aa", "is_disabled": 0, "rental_uris": {"android": "https://dc.lft.to/lastmile_qr_scan", "ios": "https://dc.lft.to/lastmile_qr_scan"}, "lon": -77.02718383333334, "fusion_lat": 0.0}, {"name": "4ad058bf727159b7b933e61d22414ebd", "fusion_lon": 0.0, "lat": 38.9120005, "is_reserved": 0, "type": "electric_scooter", "bike_id": "4ad058bf727159b7b933e61d22414ebd", "is_disabled": 0, "rental_uris": {"android": "https://dc.lft.to/lastmile_qr_scan", "ios": "https://dc.lft.to/lastmile_qr_scan"}, "lon": -77.0177555, "fusion_lat": 0.0}, {"name": "0ed58429f84a113b53bca70ab0eccc62", "fusion_lon": 0.0, "lat": 38.90000716666667, "is_reserved": 0, "type": "electric_scooter", "bike_id": "0ed58429f84a113b53bca70ab0eccc62", "is_disabled": 0, "rental_uris": {"android": "https://dc.lft.to/lastmile_qr_scan", "ios": "https://dc.lft.to/lastmile_qr_scan"}, "lon": -76.99686233333334, "fusion_lat": 0.0}, {"name": "bc3c4741da86e8ab7d8157460e6a441c", "fusion_lon": 0.0, "lat": 38.900144166666664, "is_reserved": 0, "type": "electric_scooter", "bike_id": "bc3c4741da86e8ab7d8157460e6a441c", "is_disabled": 0, "rental_uris": {"android": "https://dc.lft.to/lastmile_qr_scan", "ios": "https://dc.lft.to/lastmile_qr_scan"}, "lon": -76.9805705, "fusion_lat": 0.0}, {"name": "e72acfcf68ab82864a04b5927c17f722", "fusion_lon": 0.0, "lat": 38.916880666666664, "is_reserved": 0, "type": "electric_scooter", "bike_id": "e72acfcf68ab82864a04b5927c17f722", "is_disabled": 0, "rental_uris": {"android": "https://dc.lft.to/lastmile_qr_scan", "ios": "https://dc.lft.to/lastmile_qr_scan"}, "lon": -77.02692933333333, "fusion_lat": 0.0}, {"name": "92992dc087b0cefd4ee9906bd6a0f2ea", "fusion_lon": 0.0, "lat": 38.90288183333333, "is_reserved": 0, "type": "electric_scooter", "bike_id": "92992dc087b0cefd4ee9906bd6a0f2ea", "is_disabled": 0, "rental_uris": {"android": "https://dc.lft.to/lastmile_qr_scan", "ios": "https://dc.lft.to/lastmile_qr_scan"}, "lon": -77.05807766666666, "fusion_lat": 0.0}, {"name": "746c19710b9afd2327158fbe0fe1b3eb", "fusion_lon": 0.0, "lat": 38.909792333333336, "is_reserved": 0, "type": "electric_scooter", "bike_id": "746c19710b9afd2327158fbe0fe1b3eb", "is_disabled": 0, "rental_uris": {"android": "https://dc.lft.to/lastmile_qr_scan", "ios": "https://dc.lft.to/lastmile_qr_scan"}, "lon": -77.04805483333334, "fusion_lat": 0.0}, {"name": "44dc5aab5c6fb0364e3db834aba97b96", "fusion_lon": 0.0, "lat": 38.921263333333336, "is_reserved": 0, "type": "electric_scooter", "bike_id": "44dc5aab5c6fb0364e3db834aba97b96", "is_disabled": 0, "rental_uris": {"android": "https://dc.lft.to/lastmile_qr_scan", "ios": "https://dc.lft.to/lastmile_qr_scan"}, "lon": -77.044305, "fusion_lat": 0.0}, {"name": "c8b5148931d4bf83e854c4649e1bf466", "fusion_lon": 0.0, "lat": 38.9106855, "is_reserved": 0, "type": "electric_scooter", "bike_id": "c8b5148931d4bf83e854c4649e1bf466", "is_disabled": 0, "rental_uris": {"android": "https://dc.lft.to/lastmile_qr_scan", "ios": "https://dc.lft.to/lastmile_qr_scan"}, "lon": -77.04096816666667, "fusion_lat": 0.0}, {"name": "d40db1d9c5c218ccf4baaeaab656d901", "fusion_lon": 0.0, "lat": 38.92327233333334, "is_reserved": 0, "type": "electric_scooter", "bike_id": "d40db1d9c5c218ccf4baaeaab656d901", "is_disabled": 0, "rental_uris": {"android": "https://dc.lft.to/lastmile_qr_scan", "ios": "https://dc.lft.to/lastmile_qr_scan"}, "lon": -77.02127783333333, "fusion_lat": 0.0}, {"name": "247786f3c3cbd2495e56399ca7e5b37c", "fusion_lon": 0.0, "lat": 38.936803166666664, "is_reserved": 0, "type": "electric_scooter", "bike_id": "247786f3c3cbd2495e56399ca7e5b37c", "is_disabled": 0, "rental_uris": {"android": "https://dc.lft.to/lastmile_qr_scan", "ios": "https://dc.lft.to/lastmile_qr_scan"}, "lon": -77.032815, "fusion_lat": 0.0}, {"name": "e2b5c058623ce7e2bd4307036ed07686", "fusion_lon": 0.0, "lat": 38.90062866666667, "is_reserved": 0, "type": "electric_scooter", "bike_id": "e2b5c058623ce7e2bd4307036ed07686", "is_disabled": 0, "rental_uris": {"android": "https://dc.lft.to/lastmile_qr_scan", "ios": "https://dc.lft.to/lastmile_qr_scan"}, "lon": -76.93472566666667, "fusion_lat": 0.0}, {"name": "db754b68127a02d8c57ffb72cce845eb", "fusion_lon": 0.0, "lat": 38.856909333333334, "is_reserved": 0, "type": "electric_scooter", "bike_id": "db754b68127a02d8c57ffb72cce845eb", "is_disabled": 0, "rental_uris": {"android": "https://dc.lft.to/lastmile_qr_scan", "ios": "https://dc.lft.to/lastmile_qr_scan"}, "lon": -76.98951316666667, "fusion_lat": 0.0}, {"name": "e253792a12bd560016f0f5346d45b57c", "fusion_lon": 0.0, "lat": 38.930098666666666, "is_reserved": 0, "type": "electric_scooter", "bike_id": "e253792a12bd560016f0f5346d45b57c", "is_disabled": 0, "rental_uris": {"android": "https://dc.lft.to/lastmile_qr_scan", "ios": "https://dc.lft.to/lastmile_qr_scan"}, "lon": -77.01432433333333, "fusion_lat": 0.0}, {"name": "3e326af4a89f53ceb7e743e428e7fc36", "fusion_lon": 0.0, "lat": 39.05788483333333, "is_reserved": 0, "type": "electric_bike", "bike_id": "3e326af4a89f53ceb7e743e428e7fc36", "is_disabled": 0, "rental_uris": {"android": "https://dc.lft.to/lastmile_qr_scan", "ios": "https://dc.lft.to/lastmile_qr_scan"}, "lon": -77.150213, "fusion_lat": 0.0}, {"name": "cd1626e57c2b1e1506cc8d73e1ec3668", "fusion_lon": 0.0, "lat": 38.92071583333333, "is_reserved": 0, "type": "electric_scooter", "bike_id": "cd1626e57c2b1e1506cc8d73e1ec3668", "is_disabled": 0, "rental_uris": {"android": "https://dc.lft.to/lastmile_qr_scan", "ios": "https://dc.lft.to/lastmile_qr_scan"}, "lon": -77.02420416666666, "fusion_lat": 0.0}, {"name": "d678964d0061b39669eabe8539b743a1", "fusion_lon": 0.0, "lat": 38.844232833333336, "is_reserved": 0, "type": "electric_scooter", "bike_id": "d678964d0061b39669eabe8539b743a1", "is_disabled": 0, "rental_uris": {"android": "https://dc.lft.to/lastmile_qr_scan", "ios": "https://dc.lft.to/lastmile_qr_scan"}, "lon": -76.99779366666667, "fusion_lat": 0.0}, {"name": "5dc7283af43e9438fcdbaf70971fba35", "fusion_lon": 0.0, "lat": 38.90900033333333, "is_reserved": 0, "type": "electric_scooter", "bike_id": "5dc7283af43e9438fcdbaf70971fba35", "is_disabled": 0, "rental_uris": {"android": "https://dc.lft.to/lastmile_qr_scan", "ios": "https://dc.lft.to/lastmile_qr_scan"}, "lon": -77.0726715, "fusion_lat": 0.0}, {"name": "5503cb11e9cba65564e157386e76571b", "fusion_lon": 0.0, "lat": 38.83735766666667, "is_reserved": 0, "type": "electric_bike", "bike_id": "5503cb11e9cba65564e157386e76571b", "is_disabled": 0, "rental_uris": {"android": "https://dc.lft.to/lastmile_qr_scan", "ios": "https://dc.lft.to/lastmile_qr_scan"}, "lon": -77.09548533333333, "fusion_lat": 0.0}, {"name": "cd6b49bd524e14f34bb7f55d1e13ff45", "fusion_lon": 0.0, "lat": 38.924406833333336, "is_reserved": 0, "type": "electric_scooter", "bike_id": "cd6b49bd524e14f34bb7f55d1e13ff45", "is_disabled": 0, "rental_uris": {"android": "https://dc.lft.to/lastmile_qr_scan", "ios": "https://dc.lft.to/lastmile_qr_scan"}, "lon": -77.04103733333334, "fusion_lat": 0.0}, {"name": "29df5b0c5b165dc58003fabafee8f861", "fusion_lon": 0.0, "lat": 38.8721425, "is_reserved": 0, "type": "electric_scooter", "bike_id": "29df5b0c5b165dc58003fabafee8f861", "is_disabled": 0, "rental_uris": {"android": "https://dc.lft.to/lastmile_qr_scan", "ios": "https://dc.lft.to/lastmile_qr_scan"}, "lon": -77.01636733333333, "fusion_lat": 0.0}, {"name": "6ba545fe249e5b82c85567fc05a4837c", "fusion_lon": 0.0, "lat": 38.89986483333333, "is_reserved": 0, "type": "electric_scooter", "bike_id": "6ba545fe249e5b82c85567fc05a4837c", "is_disabled": 0, "rental_uris": {"android": "https://dc.lft.to/lastmile_qr_scan", "ios": "https://dc.lft.to/lastmile_qr_scan"}, "lon": -77.00623033333333, "fusion_lat": 0.0}, {"name": "cf48477fe968ebbc7e01b6e06aa90b14", "fusion_lon": 0.0, "lat": 38.902589166666665, "is_reserved": 0, "type": "electric_scooter", "bike_id": "cf48477fe968ebbc7e01b6e06aa90b14", "is_disabled": 0, "rental_uris": {"android": "https://dc.lft.to/lastmile_qr_scan", "ios": "https://dc.lft.to/lastmile_qr_scan"}, "lon": -77.01757083333334, "fusion_lat": 0.0}, {"name": "57820cd450fd2f05bfa785e23a0216e1", "fusion_lon": 0.0, "lat": 38.90152483333333, "is_reserved": 0, "type": "electric_scooter", "bike_id": "57820cd450fd2f05bfa785e23a0216e1", "is_disabled": 0, "rental_uris": {"android": "https://dc.lft.to/lastmile_qr_scan", "ios": "https://dc.lft.to/lastmile_qr_scan"}, "lon": -77.023916, "fusion_lat": 0.0}, {"name": "79bb13084d1d7d4a5689f2f2c6d1e80b", "fusion_lon": 0.0, "lat": 38.91918966666667, "is_reserved": 0, "type": "electric_scooter", "bike_id": "79bb13084d1d7d4a5689f2f2c6d1e80b", "is_disabled": 0, "rental_uris": {"android": "https://dc.lft.to/lastmile_qr_scan", "ios": "https://dc.lft.to/lastmile_qr_scan"}, "lon": -77.0261335, "fusion_lat": 0.0}, {"name": "44c6d6ec38ce4b5da6dc2aa74cf94c3b", "fusion_lon": 0.0, "lat": 38.920917833333334, "is_reserved": 0, "type": "electric_scooter", "bike_id": "44c6d6ec38ce4b5da6dc2aa74cf94c3b", "is_disabled": 0, "rental_uris": {"android": "https://dc.lft.to/lastmile_qr_scan", "ios": "https://dc.lft.to/lastmile_qr_scan"}, "lon": -77.02416566666666, "fusion_lat": 0.0}, {"name": "0c25bf616f4946fc449f0c9cc1ab9f82", "fusion_lon": 0.0, "lat": 38.923920833333334, "is_reserved": 0, "type": "electric_scooter", "bike_id": "0c25bf616f4946fc449f0c9cc1ab9f82", "is_disabled": 0, "rental_uris": {"android": "https://dc.lft.to/lastmile_qr_scan", "ios": "https://dc.lft.to/lastmile_qr_scan"}, "lon": -77.03672, "fusion_lat": 0.0}, {"name": "667a09660dc03c789dd6abc91402844d", "fusion_lon": 0.0, "lat": 38.90667216666667, "is_reserved": 0, "type": "electric_scooter", "bike_id": "667a09660dc03c789dd6abc91402844d", "is_disabled": 0, "rental_uris": {"android": "https://dc.lft.to/lastmile_qr_scan", "ios": "https://dc.lft.to/lastmile_qr_scan"}, "lon": -77.071338, "fusion_lat": 0.0}, {"name": "f11d824104057fa07b26a11a93903aec", "fusion_lon": 0.0, "lat": 38.86655566666667, "is_reserved": 0, "type": "electric_scooter", "bike_id": "f11d824104057fa07b26a11a93903aec", "is_disabled": 0, "rental_uris": {"android": "https://dc.lft.to/lastmile_qr_scan", "ios": "https://dc.lft.to/lastmile_qr_scan"}, "lon": -76.98887483333333, "fusion_lat": 0.0}, {"name": "e317e561241714704ee41d4597dc0d43", "fusion_lon": 0.0, "lat": 38.99003033333334, "is_reserved": 0, "type": "electric_bike", "bike_id": "e317e561241714704ee41d4597dc0d43", "is_disabled": 0, "rental_uris": {"android": "https://dc.lft.to/lastmile_qr_scan", "ios": "https://dc.lft.to/lastmile_qr_scan"}, "lon": -77.00435466666667, "fusion_lat": 0.0}, {"name": "cce59cdbb89682db1e2d83be0d46096f", "fusion_lon": 0.0, "lat": 38.925493, "is_reserved": 0, "type": "electric_scooter", "bike_id": "cce59cdbb89682db1e2d83be0d46096f", "is_disabled": 0, "rental_uris": {"android": "https://dc.lft.to/lastmile_qr_scan", "ios": "https://dc.lft.to/lastmile_qr_scan"}, "lon": -77.03306666666667, "fusion_lat": 0.0}, {"name": "6ef93f5e13ae35f59c2c5a710406fb8a", "fusion_lon": 0.0, "lat": 38.865155333333334, "is_reserved": 0, "type": "electric_scooter", "bike_id": "6ef93f5e13ae35f59c2c5a710406fb8a", "is_disabled": 0, "rental_uris": {"android": "https://dc.lft.to/lastmile_qr_scan", "ios": "https://dc.lft.to/lastmile_qr_scan"}, "lon": -76.97340633333333, "fusion_lat": 0.0}, {"name": "4f0a95af3ed7109441d815dd6853799e", "fusion_lon": 0.0, "lat": 38.92475183333333, "is_reserved": 0, "type": "electric_scooter", "bike_id": "4f0a95af3ed7109441d815dd6853799e", "is_disabled": 0, "rental_uris": {"android": "https://dc.lft.to/lastmile_qr_scan", "ios": "https://dc.lft.to/lastmile_qr_scan"}, "lon": -77.034944, "fusion_lat": 0.0}, {"name": "abdfee28e0ae658e62db3e44d46289fe", "fusion_lon": 0.0, "lat": 38.862415, "is_reserved": 0, "type": "electric_scooter", "bike_id": "abdfee28e0ae658e62db3e44d46289fe", "is_disabled": 0, "rental_uris": {"android": "https://dc.lft.to/lastmile_qr_scan", "ios": "https://dc.lft.to/lastmile_qr_scan"}, "lon": -76.99494, "fusion_lat": 0.0}, {"name": "5727f4a62ff89a6b5f0860b5e8722a3c", "fusion_lon": 0.0, "lat": 38.849243, "is_reserved": 0, "type": "electric_bike", "bike_id": "5727f4a62ff89a6b5f0860b5e8722a3c", "is_disabled": 0, "rental_uris": {"android": "https://dc.lft.to/lastmile_qr_scan", "ios": "https://dc.lft.to/lastmile_qr_scan"}, "lon": -77.0778955, "fusion_lat": 0.0}, {"name": "33656153dc59a93724a80ac4f6520a91", "fusion_lon": 0.0, "lat": 38.90192416666667, "is_reserved": 0, "type": "electric_scooter", "bike_id": "33656153dc59a93724a80ac4f6520a91", "is_disabled": 0, "rental_uris": {"android": "https://dc.lft.to/lastmile_qr_scan", "ios": "https://dc.lft.to/lastmile_qr_scan"}, "lon": -77.02155933333333, "fusion_lat": 0.0}, {"name": "cbffed07da22e2997a2e09bfd9428a07", "fusion_lon": 0.0, "lat": 38.95659, "is_reserved": 0, "type": "electric_bike", "bike_id": "cbffed07da22e2997a2e09bfd9428a07", "is_disabled": 0, "rental_uris": {"android": "https://dc.lft.to/lastmile_qr_scan", "ios": "https://dc.lft.to/lastmile_qr_scan"}, "lon": -77.012775, "fusion_lat": 0.0}, {"name": "48bf9356e93d80cf44972cb342b519e3", "fusion_lon": 0.0, "lat": 38.90514016666667, "is_reserved": 0, "type": "electric_scooter", "bike_id": "48bf9356e93d80cf44972cb342b519e3", "is_disabled": 0, "rental_uris": {"android": "https://dc.lft.to/lastmile_qr_scan", "ios": "https://dc.lft.to/lastmile_qr_scan"}, "lon": -77.00134716666666, "fusion_lat": 0.0}, {"name": "3e3e206bdf4bf8fc252d7b69ef6cd1f3", "fusion_lon": 0.0, "lat": 38.89376733333334, "is_reserved": 0, "type": "electric_scooter", "bike_id": "3e3e206bdf4bf8fc252d7b69ef6cd1f3", "is_disabled": 0, "rental_uris": {"android": "https://dc.lft.to/lastmile_qr_scan", "ios": "https://dc.lft.to/lastmile_qr_scan"}, "lon": -77.01550416666667, "fusion_lat": 0.0}, {"name": "5d7b5391c7e862a43c8446e782b01118", "fusion_lon": 0.0, "lat": 38.9168815, "is_reserved": 0, "type": "electric_scooter", "bike_id": "5d7b5391c7e862a43c8446e782b01118", "is_disabled": 0, "rental_uris": {"android": "https://dc.lft.to/lastmile_qr_scan", "ios": "https://dc.lft.to/lastmile_qr_scan"}, "lon": -77.04142783333333, "fusion_lat": 0.0}, {"name": "9e30425bbf19271291914eb544695ab3", "fusion_lon": 0.0, "lat": 38.83138783333333, "is_reserved": 0, "type": "electric_scooter", "bike_id": "9e30425bbf19271291914eb544695ab3", "is_disabled": 0, "rental_uris": {"android": "https://dc.lft.to/lastmile_qr_scan", "ios": "https://dc.lft.to/lastmile_qr_scan"}, "lon": -77.05125516666666, "fusion_lat": 0.0}, {"name": "cb2c53e4df431fc34f172bced7ad2808", "fusion_lon": 0.0, "lat": 38.928587, "is_reserved": 0, "type": "electric_scooter", "bike_id": "cb2c53e4df431fc34f172bced7ad2808", "is_disabled": 0, "rental_uris": {"android": "https://dc.lft.to/lastmile_qr_scan", "ios": "https://dc.lft.to/lastmile_qr_scan"}, "lon": -77.0139875, "fusion_lat": 0.0}, {"name": "f5b8438b82d8b28e2650332314dc1c62", "fusion_lon": 0.0, "lat": 38.929008833333334, "is_reserved": 0, "type": "electric_scooter", "bike_id": "f5b8438b82d8b28e2650332314dc1c62", "is_disabled": 0, "rental_uris": {"android": "https://dc.lft.to/lastmile_qr_scan", "ios": "https://dc.lft.to/lastmile_qr_scan"}, "lon": -77.025977, "fusion_lat": 0.0}, {"name": "d1fbbcbc106291407f44f9002d9f3a1f", "fusion_lon": 0.0, "lat": 38.9450695, "is_reserved": 0, "type": "electric_bike", "bike_id": "d1fbbcbc106291407f44f9002d9f3a1f", "is_disabled": 0, "rental_uris": {"android": "https://dc.lft.to/lastmile_qr_scan", "ios": "https://dc.lft.to/lastmile_qr_scan"}, "lon": -77.00661766666667, "fusion_lat": 0.0}, {"name": "214f36e8d5f7d3cd6e196085ae36b7fb", "fusion_lon": 0.0, "lat": 38.879337666666665, "is_reserved": 0, "type": "electric_scooter", "bike_id": "214f36e8d5f7d3cd6e196085ae36b7fb", "is_disabled": 0, "rental_uris": {"android": "https://dc.lft.to/lastmile_qr_scan", "ios": "https://dc.lft.to/lastmile_qr_scan"}, "lon": -77.0053135, "fusion_lat": 0.0}, {"name": "7f58bc0310b93079c3294ebfc473e9dd", "fusion_lon": 0.0, "lat": 38.91548866666667, "is_reserved": 0, "type": "electric_scooter", "bike_id": "7f58bc0310b93079c3294ebfc473e9dd", "is_disabled": 0, "rental_uris": {"android": "https://dc.lft.to/lastmile_qr_scan", "ios": "https://dc.lft.to/lastmile_qr_scan"}, "lon": -77.03847516666667, "fusion_lat": 0.0}, {"name": "5bfef3ef2941c41ee7910f6abfe21776", "fusion_lon": 0.0, "lat": 38.879403, "is_reserved": 0, "type": "electric_scooter", "bike_id": "5bfef3ef2941c41ee7910f6abfe21776", "is_disabled": 0, "rental_uris": {"android": "https://dc.lft.to/lastmile_qr_scan", "ios": "https://dc.lft.to/lastmile_qr_scan"}, "lon": -77.000631, "fusion_lat": 0.0}, {"name": "f3fd3b5598db9e6ea667aea10d50a3fb", "fusion_lon": 0.0, "lat": 38.9015395, "is_reserved": 0, "type": "electric_scooter", "bike_id": "f3fd3b5598db9e6ea667aea10d50a3fb", "is_disabled": 0, "rental_uris": {"android": "https://dc.lft.to/lastmile_qr_scan", "ios": "https://dc.lft.to/lastmile_qr_scan"}, "lon": -77.041883, "fusion_lat": 0.0}, {"name": "35dd2be6d998a9780d36eed843b5cfa0", "fusion_lon": 0.0, "lat": 38.906088, "is_reserved": 0, "type": "electric_scooter", "bike_id": "35dd2be6d998a9780d36eed843b5cfa0", "is_disabled": 0, "rental_uris": {"android": "https://dc.lft.to/lastmile_qr_scan", "ios": "https://dc.lft.to/lastmile_qr_scan"}, "lon": -77.04118016666666, "fusion_lat": 0.0}, {"name": "b1b612b517e9226b0339d336654cb6db", "fusion_lon": 0.0, "lat": 38.909592, "is_reserved": 0, "type": "electric_scooter", "bike_id": "b1b612b517e9226b0339d336654cb6db", "is_disabled": 0, "rental_uris": {"android": "https://dc.lft.to/lastmile_qr_scan", "ios": "https://dc.lft.to/lastmile_qr_scan"}, "lon": -77.02690216666667, "fusion_lat": 0.0}, {"name": "e09436a4fb8b6f6c30b2406593b31c97", "fusion_lon": 0.0, "lat": 38.863883333333334, "is_reserved": 0, "type": "electric_scooter", "bike_id": "e09436a4fb8b6f6c30b2406593b31c97", "is_disabled": 0, "rental_uris": {"android": "https://dc.lft.to/lastmile_qr_scan", "ios": "https://dc.lft.to/lastmile_qr_scan"}, "lon": -76.99046233333334, "fusion_lat": 0.0}, {"name": "95fb9b1e6b10b4c7444c050a5a03bbbb", "fusion_lon": 0.0, "lat": 38.80109016666667, "is_reserved": 0, "type": "electric_bike", "bike_id": "95fb9b1e6b10b4c7444c050a5a03bbbb", "is_disabled": 0, "rental_uris": {"android": "https://dc.lft.to/lastmile_qr_scan", "ios": "https://dc.lft.to/lastmile_qr_scan"}, "lon": -77.0704335, "fusion_lat": 0.0}, {"name": "13e03a519dd4fb31463b344c86b7aab1", "fusion_lon": 0.0, "lat": 38.9038215, "is_reserved": 0, "type": "electric_scooter", "bike_id": "13e03a519dd4fb31463b344c86b7aab1", "is_disabled": 0, "rental_uris": {"android": "https://dc.lft.to/lastmile_qr_scan", "ios": "https://dc.lft.to/lastmile_qr_scan"}, "lon": -77.03633516666666, "fusion_lat": 0.0}, {"name": "b52967753c06be94aa7f6c0573d4fd42", "fusion_lon": 0.0, "lat": 38.91088216666667, "is_reserved": 0, "type": "electric_scooter", "bike_id": "b52967753c06be94aa7f6c0573d4fd42", "is_disabled": 0, "rental_uris": {"android": "https://dc.lft.to/lastmile_qr_scan", "ios": "https://dc.lft.to/lastmile_qr_scan"}, "lon": -76.99268966666666, "fusion_lat": 0.0}, {"name": "44b1f497003724fe26aad78381d88997", "fusion_lon": 0.0, "lat": 38.883891166666665, "is_reserved": 0, "type": "electric_scooter", "bike_id": "44b1f497003724fe26aad78381d88997", "is_disabled": 0, "rental_uris": {"android": "https://dc.lft.to/lastmile_qr_scan", "ios": "https://dc.lft.to/lastmile_qr_scan"}, "lon": -76.93047916666667, "fusion_lat": 0.0}, {"name": "1060e8a9f15d98b28518b78fc620d003", "fusion_lon": 0.0, "lat": 38.93616316666667, "is_reserved": 0, "type": "electric_bike", "bike_id": "1060e8a9f15d98b28518b78fc620d003", "is_disabled": 0, "rental_uris": {"android": "https://dc.lft.to/lastmile_qr_scan", "ios": "https://dc.lft.to/lastmile_qr_scan"}, "lon": -77.09025416666667, "fusion_lat": 0.0}, {"name": "e3d7a254c7dc574204168bcfa984d394", "fusion_lon": 0.0, "lat": 38.92769666666667, "is_reserved": 0, "type": "electric_bike", "bike_id": "e3d7a254c7dc574204168bcfa984d394", "is_disabled": 0, "rental_uris": {"android": "https://dc.lft.to/lastmile_qr_scan", "ios": "https://dc.lft.to/lastmile_qr_scan"}, "lon": -77.070146, "fusion_lat": 0.0}, {"name": "75a83fdea188af6a7c84c3c2cf34e53a", "fusion_lon": 0.0, "lat": 38.8852515, "is_reserved": 0, "type": "electric_scooter", "bike_id": "75a83fdea188af6a7c84c3c2cf34e53a", "is_disabled": 0, "rental_uris": {"android": "https://dc.lft.to/lastmile_qr_scan", "ios": "https://dc.lft.to/lastmile_qr_scan"}, "lon": -76.996017, "fusion_lat": 0.0}, {"name": "c592c6aef6d6208cde477452e8c415a1", "fusion_lon": 0.0, "lat": 38.90602633333334, "is_reserved": 0, "type": "electric_scooter", "bike_id": "c592c6aef6d6208cde477452e8c415a1", "is_disabled": 0, "rental_uris": {"android": "https://dc.lft.to/lastmile_qr_scan", "ios": "https://dc.lft.to/lastmile_qr_scan"}, "lon": -77.02109633333333, "fusion_lat": 0.0}, {"name": "04b084b3e333e96154c2a5d74748a943", "fusion_lon": 0.0, "lat": 38.91304133333333, "is_reserved": 0, "type": "electric_scooter", "bike_id": "04b084b3e333e96154c2a5d74748a943", "is_disabled": 0, "rental_uris": {"android": "https://dc.lft.to/lastmile_qr_scan", "ios": "https://dc.lft.to/lastmile_qr_scan"}, "lon": -77.0453815, "fusion_lat": 0.0}, {"name": "37e6d04b166157cd9a60667e12bd9abc", "fusion_lon": 0.0, "lat": 38.965049, "is_reserved": 0, "type": "electric_bike", "bike_id": "37e6d04b166157cd9a60667e12bd9abc", "is_disabled": 0, "rental_uris": {"android": "https://dc.lft.to/lastmile_qr_scan", "ios": "https://dc.lft.to/lastmile_qr_scan"}, "lon": -77.02822683333333, "fusion_lat": 0.0}, {"name": "cee8dd8d7f36b640a717a0fbbc336184", "fusion_lon": 0.0, "lat": 38.905411, "is_reserved": 0, "type": "electric_scooter", "bike_id": "cee8dd8d7f36b640a717a0fbbc336184", "is_disabled": 0, "rental_uris": {"android": "https://dc.lft.to/lastmile_qr_scan", "ios": "https://dc.lft.to/lastmile_qr_scan"}, "lon": -77.0295545, "fusion_lat": 0.0}, {"name": "70b30adbca7d806fcde985d4c1a59cfc", "fusion_lon": 0.0, "lat": 38.886099, "is_reserved": 0, "type": "electric_scooter", "bike_id": "70b30adbca7d806fcde985d4c1a59cfc", "is_disabled": 0, "rental_uris": {"android": "https://dc.lft.to/lastmile_qr_scan", "ios": "https://dc.lft.to/lastmile_qr_scan"}, "lon": -76.99513733333333, "fusion_lat": 0.0}, {"name": "2bf14893abb242a3ee8c3561034e3c36", "fusion_lon": 0.0, "lat": 38.88458116666666, "is_reserved": 0, "type": "electric_scooter", "bike_id": "2bf14893abb242a3ee8c3561034e3c36", "is_disabled": 0, "rental_uris": {"android": "https://dc.lft.to/lastmile_qr_scan", "ios": "https://dc.lft.to/lastmile_qr_scan"}, "lon": -76.926199, "fusion_lat": 0.0}, {"name": "d04d89d7be1dbe03233ae05f3475b284", "fusion_lon": 0.0, "lat": 38.9622275, "is_reserved": 0, "type": "electric_bike", "bike_id": "d04d89d7be1dbe03233ae05f3475b284", "is_disabled": 0, "rental_uris": {"android": "https://dc.lft.to/lastmile_qr_scan", "ios": "https://dc.lft.to/lastmile_qr_scan"}, "lon": -77.02620883333333, "fusion_lat": 0.0}, {"name": "4747e18415d83814ef1ce5c487f71d4d", "fusion_lon": 0.0, "lat": 38.9067085, "is_reserved": 0, "type": "electric_scooter", "bike_id": "4747e18415d83814ef1ce5c487f71d4d", "is_disabled": 0, "rental_uris": {"android": "https://dc.lft.to/lastmile_qr_scan", "ios": "https://dc.lft.to/lastmile_qr_scan"}, "lon": -77.03861033333334, "fusion_lat": 0.0}, {"name": "0527961219e4065dfe6229c55d1e4a4d", "fusion_lon": 0.0, "lat": 38.92469633333333, "is_reserved": 0, "type": "electric_scooter", "bike_id": "0527961219e4065dfe6229c55d1e4a4d", "is_disabled": 0, "rental_uris": {"android": "https://dc.lft.to/lastmile_qr_scan", "ios": "https://dc.lft.to/lastmile_qr_scan"}, "lon": -77.03900733333333, "fusion_lat": 0.0}, {"name": "c54ca1e7b580f10bbbfbc11b1346567f", "fusion_lon": 0.0, "lat": 38.913189, "is_reserved": 0, "type": "electric_scooter", "bike_id": "c54ca1e7b580f10bbbfbc11b1346567f", "is_disabled": 0, "rental_uris": {"android": "https://dc.lft.to/lastmile_qr_scan", "ios": "https://dc.lft.to/lastmile_qr_scan"}, "lon": -77.03659716666667, "fusion_lat": 0.0}, {"name": "d2b28da9e5a30752995afc3857d4c636", "fusion_lon": 0.0, "lat": 38.8708425, "is_reserved": 0, "type": "electric_scooter", "bike_id": "d2b28da9e5a30752995afc3857d4c636", "is_disabled": 0, "rental_uris": {"android": "https://dc.lft.to/lastmile_qr_scan", "ios": "https://dc.lft.to/lastmile_qr_scan"}, "lon": -77.013558, "fusion_lat": 0.0}, {"name": "ca57ffc0ea5c657e6603bf4e3d8a6a3c", "fusion_lon": 0.0, "lat": 38.905802333333334, "is_reserved": 0, "type": "electric_scooter", "bike_id": "ca57ffc0ea5c657e6603bf4e3d8a6a3c", "is_disabled": 0, "rental_uris": {"android": "https://dc.lft.to/lastmile_qr_scan", "ios": "https://dc.lft.to/lastmile_qr_scan"}, "lon": -77.041457, "fusion_lat": 0.0}, {"name": "81b51c753215e50ebdea90964e400bad", "fusion_lon": 0.0, "lat": 38.90495833333333, "is_reserved": 0, "type": "electric_bike", "bike_id": "81b51c753215e50ebdea90964e400bad", "is_disabled": 0, "rental_uris": {"android": "https://dc.lft.to/lastmile_qr_scan", "ios": "https://dc.lft.to/lastmile_qr_scan"}, "lon": -76.97420466666667, "fusion_lat": 0.0}, {"name": "b5ae6a3013435adbb436c7abdcbe2cd1", "fusion_lon": 0.0, "lat": 38.91410616666667, "is_reserved": 0, "type": "electric_scooter", "bike_id": "b5ae6a3013435adbb436c7abdcbe2cd1", "is_disabled": 0, "rental_uris": {"android": "https://dc.lft.to/lastmile_qr_scan", "ios": "https://dc.lft.to/lastmile_qr_scan"}, "lon": -77.0417525, "fusion_lat": 0.0}, {"name": "52d1053d8797fc5be8046fc27beea665", "fusion_lon": 0.0, "lat": 38.90242516666667, "is_reserved": 0, "type": "electric_scooter", "bike_id": "52d1053d8797fc5be8046fc27beea665", "is_disabled": 0, "rental_uris": {"android": "https://dc.lft.to/lastmile_qr_scan", "ios": "https://dc.lft.to/lastmile_qr_scan"}, "lon": -77.00194516666667, "fusion_lat": 0.0}, {"name": "35fbea7e3e58a8c5d23852ca519c59d5", "fusion_lon": 0.0, "lat": 38.921535666666664, "is_reserved": 0, "type": "electric_scooter", "bike_id": "35fbea7e3e58a8c5d23852ca519c59d5", "is_disabled": 0, "rental_uris": {"android": "https://dc.lft.to/lastmile_qr_scan", "ios": "https://dc.lft.to/lastmile_qr_scan"}, "lon": -77.03466033333333, "fusion_lat": 0.0}, {"name": "fd28cf351ca5bcad859e14d64adb1a66", "fusion_lon": 0.0, "lat": 38.892366, "is_reserved": 0, "type": "electric_scooter", "bike_id": "fd28cf351ca5bcad859e14d64adb1a66", "is_disabled": 0, "rental_uris": {"android": "https://dc.lft.to/lastmile_qr_scan", "ios": "https://dc.lft.to/lastmile_qr_scan"}, "lon": -77.032056, "fusion_lat": 0.0}, {"name": "208d8ac546f2afb950a61c35e4ed4455", "fusion_lon": 0.0, "lat": 38.93452716666667, "is_reserved": 0, "type": "electric_scooter", "bike_id": "208d8ac546f2afb950a61c35e4ed4455", "is_disabled": 0, "rental_uris": {"android": "https://dc.lft.to/lastmile_qr_scan", "ios": "https://dc.lft.to/lastmile_qr_scan"}, "lon": -77.02726766666666, "fusion_lat": 0.0}, {"name": "6a39843462e04138c4efd0370f0776da", "fusion_lon": 0.0, "lat": 38.9162345, "is_reserved": 0, "type": "electric_scooter", "bike_id": "6a39843462e04138c4efd0370f0776da", "is_disabled": 0, "rental_uris": {"android": "https://dc.lft.to/lastmile_qr_scan", "ios": "https://dc.lft.to/lastmile_qr_scan"}, "lon": -77.02162266666667, "fusion_lat": 0.0}, {"name": "712be09d4b3787a7dc422b7c691beb66", "fusion_lon": 0.0, "lat": 38.925846666666665, "is_reserved": 0, "type": "electric_scooter", "bike_id": "712be09d4b3787a7dc422b7c691beb66", "is_disabled": 0, "rental_uris": {"android": "https://dc.lft.to/lastmile_qr_scan", "ios": "https://dc.lft.to/lastmile_qr_scan"}, "lon": -77.02607266666666, "fusion_lat": 0.0}, {"name": "99d5fbe481115f18711a0bf37e805e40", "fusion_lon": 0.0, "lat": 38.898406333333334, "is_reserved": 0, "type": "electric_scooter", "bike_id": "99d5fbe481115f18711a0bf37e805e40", "is_disabled": 0, "rental_uris": {"android": "https://dc.lft.to/lastmile_qr_scan", "ios": "https://dc.lft.to/lastmile_qr_scan"}, "lon": -77.03337033333334, "fusion_lat": 0.0}, {"name": "f2ec34b228b4b394d364d26f2e6a3aec", "fusion_lon": 0.0, "lat": 38.916053833333336, "is_reserved": 0, "type": "electric_scooter", "bike_id": "f2ec34b228b4b394d364d26f2e6a3aec", "is_disabled": 0, "rental_uris": {"android": "https://dc.lft.to/lastmile_qr_scan", "ios": "https://dc.lft.to/lastmile_qr_scan"}, "lon": -76.98369766666667, "fusion_lat": 0.0}, {"name": "655bd63aaa286f9fad78f3dbccbf60bd", "fusion_lon": 0.0, "lat": 38.9282655, "is_reserved": 0, "type": "electric_scooter", "bike_id": "655bd63aaa286f9fad78f3dbccbf60bd", "is_disabled": 0, "rental_uris": {"android": "https://dc.lft.to/lastmile_qr_scan", "ios": "https://dc.lft.to/lastmile_qr_scan"}, "lon": -77.02256816666667, "fusion_lat": 0.0}, {"name": "8a05af07bc154266baf9d15bfc80b75d", "fusion_lon": 0.0, "lat": 38.92390116666667, "is_reserved": 0, "type": "electric_scooter", "bike_id": "8a05af07bc154266baf9d15bfc80b75d", "is_disabled": 0, "rental_uris": {"android": "https://dc.lft.to/lastmile_qr_scan", "ios": "https://dc.lft.to/lastmile_qr_scan"}, "lon": -77.03664983333333, "fusion_lat": 0.0}, {"name": "50c4e2671ef20532c547c15c43607388", "fusion_lon": 0.0, "lat": 38.9233935, "is_reserved": 0, "type": "electric_scooter", "bike_id": "50c4e2671ef20532c547c15c43607388", "is_disabled": 0, "rental_uris": {"android": "https://dc.lft.to/lastmile_qr_scan", "ios": "https://dc.lft.to/lastmile_qr_scan"}, "lon": -77.05242, "fusion_lat": 0.0}, {"name": "b6d6ec044675913e5d97080b2c3b823d", "fusion_lon": 0.0, "lat": 38.90678333333334, "is_reserved": 0, "type": "electric_scooter", "bike_id": "b6d6ec044675913e5d97080b2c3b823d", "is_disabled": 0, "rental_uris": {"android": "https://dc.lft.to/lastmile_qr_scan", "ios": "https://dc.lft.to/lastmile_qr_scan"}, "lon": -77.03637133333334, "fusion_lat": 0.0}, {"name": "aad2e9bdd6f25ad209e5737d179077f0", "fusion_lon": 0.0, "lat": 38.901740833333335, "is_reserved": 0, "type": "electric_scooter", "bike_id": "aad2e9bdd6f25ad209e5737d179077f0", "is_disabled": 0, "rental_uris": {"android": "https://dc.lft.to/lastmile_qr_scan", "ios": "https://dc.lft.to/lastmile_qr_scan"}, "lon": -77.043603, "fusion_lat": 0.0}, {"name": "8f5b9ed5c6d3ae4d54c70be91a38bb1e", "fusion_lon": 0.0, "lat": 38.996310666666666, "is_reserved": 0, "type": "electric_scooter", "bike_id": "8f5b9ed5c6d3ae4d54c70be91a38bb1e", "is_disabled": 0, "rental_uris": {"android": "https://dc.lft.to/lastmile_qr_scan", "ios": "https://dc.lft.to/lastmile_qr_scan"}, "lon": -77.0313455, "fusion_lat": 0.0}, {"name": "d6274dcc91168a9f75d71f2ccdac7179", "fusion_lon": 0.0, "lat": 38.8717095, "is_reserved": 0, "type": "electric_scooter", "bike_id": "d6274dcc91168a9f75d71f2ccdac7179", "is_disabled": 0, "rental_uris": {"android": "https://dc.lft.to/lastmile_qr_scan", "ios": "https://dc.lft.to/lastmile_qr_scan"}, "lon": -76.97741366666666, "fusion_lat": 0.0}, {"name": "eab10dcdb2369381e51871998278b19e", "fusion_lon": 0.0, "lat": 38.93683766666667, "is_reserved": 0, "type": "electric_scooter", "bike_id": "eab10dcdb2369381e51871998278b19e", "is_disabled": 0, "rental_uris": {"android": "https://dc.lft.to/lastmile_qr_scan", "ios": "https://dc.lft.to/lastmile_qr_scan"}, "lon": -77.03627666666667, "fusion_lat": 0.0}, {"name": "6f2b26e77c59e98b0b70e68450d06b92", "fusion_lon": 0.0, "lat": 38.9167895, "is_reserved": 0, "type": "electric_scooter", "bike_id": "6f2b26e77c59e98b0b70e68450d06b92", "is_disabled": 0, "rental_uris": {"android": "https://dc.lft.to/lastmile_qr_scan", "ios": "https://dc.lft.to/lastmile_qr_scan"}, "lon": -77.02690783333334, "fusion_lat": 0.0}, {"name": "fd07e830a3487a158ae68f3fb50adaad", "fusion_lon": 0.0, "lat": 38.92182616666667, "is_reserved": 0, "type": "electric_scooter", "bike_id": "fd07e830a3487a158ae68f3fb50adaad", "is_disabled": 0, "rental_uris": {"android": "https://dc.lft.to/lastmile_qr_scan", "ios": "https://dc.lft.to/lastmile_qr_scan"}, "lon": -77.026665, "fusion_lat": 0.0}, {"name": "48dcb66537b237325ce267e9bf380b0d", "fusion_lon": 0.0, "lat": 38.9110995, "is_reserved": 0, "type": "electric_bike", "bike_id": "48dcb66537b237325ce267e9bf380b0d", "is_disabled": 0, "rental_uris": {"android": "https://dc.lft.to/lastmile_qr_scan", "ios": "https://dc.lft.to/lastmile_qr_scan"}, "lon": -77.01500416666667, "fusion_lat": 0.0}, {"name": "0045dbfc04d446e0bb800461f7c145b2", "fusion_lon": 0.0, "lat": 38.9355025, "is_reserved": 0, "type": "electric_scooter", "bike_id": "0045dbfc04d446e0bb800461f7c145b2", "is_disabled": 0, "rental_uris": {"android": "https://dc.lft.to/lastmile_qr_scan", "ios": "https://dc.lft.to/lastmile_qr_scan"}, "lon": -77.05853166666667, "fusion_lat": 0.0}, {"name": "0d5bc2fa498e8482fa64b869830f66e0", "fusion_lon": 0.0, "lat": 38.93084266666666, "is_reserved": 0, "type": "electric_scooter", "bike_id": "0d5bc2fa498e8482fa64b869830f66e0", "is_disabled": 0, "rental_uris": {"android": "https://dc.lft.to/lastmile_qr_scan", "ios": "https://dc.lft.to/lastmile_qr_scan"}, "lon": -76.99608533333334, "fusion_lat": 0.0}, {"name": "aa00a75872d30a70b314be817d3e21a8", "fusion_lon": 0.0, "lat": 38.91573416666667, "is_reserved": 0, "type": "electric_scooter", "bike_id": "aa00a75872d30a70b314be817d3e21a8", "is_disabled": 0, "rental_uris": {"android": "https://dc.lft.to/lastmile_qr_scan", "ios": "https://dc.lft.to/lastmile_qr_scan"}, "lon": -77.02292166666666, "fusion_lat": 0.0}, {"name": "fc450b34adda1f02c9723c2acb59040f", "fusion_lon": 0.0, "lat": 38.89360816666667, "is_reserved": 0, "type": "electric_scooter", "bike_id": "fc450b34adda1f02c9723c2acb59040f", "is_disabled": 0, "rental_uris": {"android": "https://dc.lft.to/lastmile_qr_scan", "ios": "https://dc.lft.to/lastmile_qr_scan"}, "lon": -76.94935383333333, "fusion_lat": 0.0}, {"name": "71a8f485547c13d3cc360ebad77ea630", "fusion_lon": 0.0, "lat": 38.90504816666667, "is_reserved": 0, "type": "electric_scooter", "bike_id": "71a8f485547c13d3cc360ebad77ea630", "is_disabled": 0, "rental_uris": {"android": "https://dc.lft.to/lastmile_qr_scan", "ios": "https://dc.lft.to/lastmile_qr_scan"}, "lon": -77.02954, "fusion_lat": 0.0}, {"name": "fea50b74714386cb2066434ef761af06", "fusion_lon": 0.0, "lat": 38.90785133333333, "is_reserved": 0, "type": "electric_scooter", "bike_id": "fea50b74714386cb2066434ef761af06", "is_disabled": 0, "rental_uris": {"android": "https://dc.lft.to/lastmile_qr_scan", "ios": "https://dc.lft.to/lastmile_qr_scan"}, "lon": -77.0238455, "fusion_lat": 0.0}, {"name": "aeed7880cca721f7c5a6c7d6b8aa898b", "fusion_lon": 0.0, "lat": 38.923224, "is_reserved": 0, "type": "electric_scooter", "bike_id": "aeed7880cca721f7c5a6c7d6b8aa898b", "is_disabled": 0, "rental_uris": {"android": "https://dc.lft.to/lastmile_qr_scan", "ios": "https://dc.lft.to/lastmile_qr_scan"}, "lon": -77.04110683333333, "fusion_lat": 0.0}, {"name": "bb1e242ff3dbcb26e4abc01df6a3deeb", "fusion_lon": 0.0, "lat": 38.9169615, "is_reserved": 0, "type": "electric_scooter", "bike_id": "bb1e242ff3dbcb26e4abc01df6a3deeb", "is_disabled": 0, "rental_uris": {"android": "https://dc.lft.to/lastmile_qr_scan", "ios": "https://dc.lft.to/lastmile_qr_scan"}, "lon": -77.03149066666667, "fusion_lat": 0.0}, {"name": "8ddfbec6163817876006cfdb5ff4df06", "fusion_lon": 0.0, "lat": 38.8647125, "is_reserved": 0, "type": "electric_scooter", "bike_id": "8ddfbec6163817876006cfdb5ff4df06", "is_disabled": 0, "rental_uris": {"android": "https://dc.lft.to/lastmile_qr_scan", "ios": "https://dc.lft.to/lastmile_qr_scan"}, "lon": -76.97747866666667, "fusion_lat": 0.0}, {"name": "3f00f0eb55153191a709ba63f70e0f86", "fusion_lon": 0.0, "lat": 38.91185466666667, "is_reserved": 0, "type": "electric_scooter", "bike_id": "3f00f0eb55153191a709ba63f70e0f86", "is_disabled": 0, "rental_uris": {"android": "https://dc.lft.to/lastmile_qr_scan", "ios": "https://dc.lft.to/lastmile_qr_scan"}, "lon": -77.01012333333334, "fusion_lat": 0.0}, {"name": "3fec646d3d8892615c1a22c6cdef8a0b", "fusion_lon": 0.0, "lat": 38.9696175, "is_reserved": 0, "type": "electric_bike", "bike_id": "3fec646d3d8892615c1a22c6cdef8a0b", "is_disabled": 0, "rental_uris": {"android": "https://dc.lft.to/lastmile_qr_scan", "ios": "https://dc.lft.to/lastmile_qr_scan"}, "lon": -76.95751983333334, "fusion_lat": 0.0}, {"name": "843e180d616343973d99179440c997b6", "fusion_lon": 0.0, "lat": 38.93170883333333, "is_reserved": 0, "type": "electric_bike", "bike_id": "843e180d616343973d99179440c997b6", "is_disabled": 0, "rental_uris": {"android": "https://dc.lft.to/lastmile_qr_scan", "ios": "https://dc.lft.to/lastmile_qr_scan"}, "lon": -76.97628333333333, "fusion_lat": 0.0}, {"name": "66e1064b4a1ef87faaedbb3a3d95b9f1", "fusion_lon": 0.0, "lat": 38.935281833333335, "is_reserved": 0, "type": "electric_scooter", "bike_id": "66e1064b4a1ef87faaedbb3a3d95b9f1", "is_disabled": 0, "rental_uris": {"android": "https://dc.lft.to/lastmile_qr_scan", "ios": "https://dc.lft.to/lastmile_qr_scan"}, "lon": -77.02351833333333, "fusion_lat": 0.0}, {"name": "5fc8854c1bd5353694013d298a2d940f", "fusion_lon": 0.0, "lat": 38.92863233333333, "is_reserved": 0, "type": "electric_scooter", "bike_id": "5fc8854c1bd5353694013d298a2d940f", "is_disabled": 0, "rental_uris": {"android": "https://dc.lft.to/lastmile_qr_scan", "ios": "https://dc.lft.to/lastmile_qr_scan"}, "lon": -77.0279485, "fusion_lat": 0.0}, {"name": "5b8fa97355d70d740ab039dbc4985370", "fusion_lon": 0.0, "lat": 38.91696533333333, "is_reserved": 0, "type": "electric_scooter", "bike_id": "5b8fa97355d70d740ab039dbc4985370", "is_disabled": 0, "rental_uris": {"android": "https://dc.lft.to/lastmile_qr_scan", "ios": "https://dc.lft.to/lastmile_qr_scan"}, "lon": -77.033393, "fusion_lat": 0.0}, {"name": "4e98646dc53d7584bf966a5a5b63eb42", "fusion_lon": 0.0, "lat": 38.8922955, "is_reserved": 0, "type": "electric_scooter", "bike_id": "4e98646dc53d7584bf966a5a5b63eb42", "is_disabled": 0, "rental_uris": {"android": "https://dc.lft.to/lastmile_qr_scan", "ios": "https://dc.lft.to/lastmile_qr_scan"}, "lon": -77.046523, "fusion_lat": 0.0}, {"name": "9ad5200866d71a4d85f5345a3d056ec9", "fusion_lon": 0.0, "lat": 38.902774666666666, "is_reserved": 0, "type": "electric_scooter", "bike_id": "9ad5200866d71a4d85f5345a3d056ec9", "is_disabled": 0, "rental_uris": {"android": "https://dc.lft.to/lastmile_qr_scan", "ios": "https://dc.lft.to/lastmile_qr_scan"}, "lon": -77.017381, "fusion_lat": 0.0}, {"name": "088299e5a2bdfbd7521be66ee8b55355", "fusion_lon": 0.0, "lat": 38.9293595, "is_reserved": 0, "type": "electric_scooter", "bike_id": "088299e5a2bdfbd7521be66ee8b55355", "is_disabled": 0, "rental_uris": {"android": "https://dc.lft.to/lastmile_qr_scan", "ios": "https://dc.lft.to/lastmile_qr_scan"}, "lon": -77.03284866666667, "fusion_lat": 0.0}, {"name": "0f4a88598b7e6bbeca80e808163af3a9", "fusion_lon": 0.0, "lat": 38.875743166666666, "is_reserved": 0, "type": "electric_scooter", "bike_id": "0f4a88598b7e6bbeca80e808163af3a9", "is_disabled": 0, "rental_uris": {"android": "https://dc.lft.to/lastmile_qr_scan", "ios": "https://dc.lft.to/lastmile_qr_scan"}, "lon": -77.005939, "fusion_lat": 0.0}, {"name": "10d6aee57169383fe5105dde5018a718", "fusion_lon": 0.0, "lat": 38.9088675, "is_reserved": 0, "type": "electric_scooter", "bike_id": "10d6aee57169383fe5105dde5018a718", "is_disabled": 0, "rental_uris": {"android": "https://dc.lft.to/lastmile_qr_scan", "ios": "https://dc.lft.to/lastmile_qr_scan"}, "lon": -76.99852983333334, "fusion_lat": 0.0}, {"name": "fcac4f2f1916a69bceb673df1418d848", "fusion_lon": 0.0, "lat": 38.9170295, "is_reserved": 0, "type": "electric_scooter", "bike_id": "fcac4f2f1916a69bceb673df1418d848", "is_disabled": 0, "rental_uris": {"android": "https://dc.lft.to/lastmile_qr_scan", "ios": "https://dc.lft.to/lastmile_qr_scan"}, "lon": -77.031538, "fusion_lat": 0.0}, {"name": "550af17fda556bc2d1c8f244a65b0f7b", "fusion_lon": 0.0, "lat": 38.9059145, "is_reserved": 0, "type": "electric_scooter", "bike_id": "550af17fda556bc2d1c8f244a65b0f7b", "is_disabled": 0, "rental_uris": {"android": "https://dc.lft.to/lastmile_qr_scan", "ios": "https://dc.lft.to/lastmile_qr_scan"}, "lon": -77.022002, "fusion_lat": 0.0}, {"name": "b9fbc45af52ef39482dbc3066898a8e4", "fusion_lon": 0.0, "lat": 38.918955833333335, "is_reserved": 0, "type": "electric_scooter", "bike_id": "b9fbc45af52ef39482dbc3066898a8e4", "is_disabled": 0, "rental_uris": {"android": "https://dc.lft.to/lastmile_qr_scan", "ios": "https://dc.lft.to/lastmile_qr_scan"}, "lon": -77.03449533333334, "fusion_lat": 0.0}, {"name": "a6a69baee94b877288960e45700f92f6", "fusion_lon": 0.0, "lat": 38.90069533333333, "is_reserved": 0, "type": "electric_scooter", "bike_id": "a6a69baee94b877288960e45700f92f6", "is_disabled": 0, "rental_uris": {"android": "https://dc.lft.to/lastmile_qr_scan", "ios": "https://dc.lft.to/lastmile_qr_scan"}, "lon": -77.0306355, "fusion_lat": 0.0}, {"name": "6f628b06684ec64aa7e6c9f7b4d7cb6c", "fusion_lon": 0.0, "lat": 38.87892683333333, "is_reserved": 0, "type": "electric_scooter", "bike_id": "6f628b06684ec64aa7e6c9f7b4d7cb6c", "is_disabled": 0, "rental_uris": {"android": "https://dc.lft.to/lastmile_qr_scan", "ios": "https://dc.lft.to/lastmile_qr_scan"}, "lon": -77.02294016666667, "fusion_lat": 0.0}, {"name": "0cab02e3cb380411fdcbce7d726bf38c", "fusion_lon": 0.0, "lat": 38.91323383333334, "is_reserved": 0, "type": "electric_scooter", "bike_id": "0cab02e3cb380411fdcbce7d726bf38c", "is_disabled": 0, "rental_uris": {"android": "https://dc.lft.to/lastmile_qr_scan", "ios": "https://dc.lft.to/lastmile_qr_scan"}, "lon": -76.984925, "fusion_lat": 0.0}, {"name": "3ed387c1e1406711a6de196fd8c57e20", "fusion_lon": 0.0, "lat": 38.837877, "is_reserved": 0, "type": "electric_bike", "bike_id": "3ed387c1e1406711a6de196fd8c57e20", "is_disabled": 0, "rental_uris": {"android": "https://dc.lft.to/lastmile_qr_scan", "ios": "https://dc.lft.to/lastmile_qr_scan"}, "lon": -76.99745366666667, "fusion_lat": 0.0}, {"name": "4b917fc5e74a80b582a929512d7515f6", "fusion_lon": 0.0, "lat": 38.87447, "is_reserved": 0, "type": "electric_scooter", "bike_id": "4b917fc5e74a80b582a929512d7515f6", "is_disabled": 0, "rental_uris": {"android": "https://dc.lft.to/lastmile_qr_scan", "ios": "https://dc.lft.to/lastmile_qr_scan"}, "lon": -77.00295516666667, "fusion_lat": 0.0}, {"name": "64a4db2d84156eb3be5af389df4af2d1", "fusion_lon": 0.0, "lat": 38.89877233333333, "is_reserved": 0, "type": "electric_scooter", "bike_id": "64a4db2d84156eb3be5af389df4af2d1", "is_disabled": 0, "rental_uris": {"android": "https://dc.lft.to/lastmile_qr_scan", "ios": "https://dc.lft.to/lastmile_qr_scan"}, "lon": -76.93186683333333, "fusion_lat": 0.0}, {"name": "f3e34b9cb2a2f299e3ffed2f22173f04", "fusion_lon": 0.0, "lat": 38.920911, "is_reserved": 0, "type": "electric_scooter", "bike_id": "f3e34b9cb2a2f299e3ffed2f22173f04", "is_disabled": 0, "rental_uris": {"android": "https://dc.lft.to/lastmile_qr_scan", "ios": "https://dc.lft.to/lastmile_qr_scan"}, "lon": -77.024189, "fusion_lat": 0.0}, {"name": "71a9961fab903724cc275016b0021ff3", "fusion_lon": 0.0, "lat": 38.92459, "is_reserved": 0, "type": "electric_bike", "bike_id": "71a9961fab903724cc275016b0021ff3", "is_disabled": 0, "rental_uris": {"android": "https://dc.lft.to/lastmile_qr_scan", "ios": "https://dc.lft.to/lastmile_qr_scan"}, "lon": -77.22580883333333, "fusion_lat": 0.0}, {"name": "8beac4754ca3919ab962013dd5a493e7", "fusion_lon": 0.0, "lat": 38.902159833333336, "is_reserved": 0, "type": "electric_scooter", "bike_id": "8beac4754ca3919ab962013dd5a493e7", "is_disabled": 0, "rental_uris": {"android": "https://dc.lft.to/lastmile_qr_scan", "ios": "https://dc.lft.to/lastmile_qr_scan"}, "lon": -77.021565, "fusion_lat": 0.0}, {"name": "1f74c09918c36aec597284c552d2ee19", "fusion_lon": 0.0, "lat": 38.881393833333334, "is_reserved": 0, "type": "electric_scooter", "bike_id": "1f74c09918c36aec597284c552d2ee19", "is_disabled": 0, "rental_uris": {"android": "https://dc.lft.to/lastmile_qr_scan", "ios": "https://dc.lft.to/lastmile_qr_scan"}, "lon": -77.013355, "fusion_lat": 0.0}, {"name": "e7c8a2f8658769a04556950e3b64c0a5", "fusion_lon": 0.0, "lat": 38.91710666666667, "is_reserved": 0, "type": "electric_scooter", "bike_id": "e7c8a2f8658769a04556950e3b64c0a5", "is_disabled": 0, "rental_uris": {"android": "https://dc.lft.to/lastmile_qr_scan", "ios": "https://dc.lft.to/lastmile_qr_scan"}, "lon": -77.02196816666667, "fusion_lat": 0.0}, {"name": "25ad1ef3064b85d2fa4e2bc73e70616a", "fusion_lon": 0.0, "lat": 38.93106566666667, "is_reserved": 0, "type": "electric_scooter", "bike_id": "25ad1ef3064b85d2fa4e2bc73e70616a", "is_disabled": 0, "rental_uris": {"android": "https://dc.lft.to/lastmile_qr_scan", "ios": "https://dc.lft.to/lastmile_qr_scan"}, "lon": -77.03027016666667, "fusion_lat": 0.0}, {"name": "9bb4ae83f76ff9025da9cdbb52fd7a03", "fusion_lon": 0.0, "lat": 38.92830516666667, "is_reserved": 0, "type": "electric_scooter", "bike_id": "9bb4ae83f76ff9025da9cdbb52fd7a03", "is_disabled": 0, "rental_uris": {"android": "https://dc.lft.to/lastmile_qr_scan", "ios": "https://dc.lft.to/lastmile_qr_scan"}, "lon": -77.03729133333333, "fusion_lat": 0.0}, {"name": "d1a1d52b93441060e44bb2ba4afcac7d", "fusion_lon": 0.0, "lat": 38.90061083333333, "is_reserved": 0, "type": "electric_scooter", "bike_id": "d1a1d52b93441060e44bb2ba4afcac7d", "is_disabled": 0, "rental_uris": {"android": "https://dc.lft.to/lastmile_qr_scan", "ios": "https://dc.lft.to/lastmile_qr_scan"}, "lon": -76.9883305, "fusion_lat": 0.0}, {"name": "7025a5d220ae0b5ff21509a36f408606", "fusion_lon": 0.0, "lat": 38.9327485, "is_reserved": 0, "type": "electric_scooter", "bike_id": "7025a5d220ae0b5ff21509a36f408606", "is_disabled": 0, "rental_uris": {"android": "https://dc.lft.to/lastmile_qr_scan", "ios": "https://dc.lft.to/lastmile_qr_scan"}, "lon": -77.0452995, "fusion_lat": 0.0}, {"name": "cb67d8b56f08c081339ef2b6e359720a", "fusion_lon": 0.0, "lat": 38.9064705, "is_reserved": 0, "type": "electric_scooter", "bike_id": "cb67d8b56f08c081339ef2b6e359720a", "is_disabled": 0, "rental_uris": {"android": "https://dc.lft.to/lastmile_qr_scan", "ios": "https://dc.lft.to/lastmile_qr_scan"}, "lon": -77.00190616666667, "fusion_lat": 0.0}, {"name": "d943251185b4b56a281dd3484780b8c2", "fusion_lon": 0.0, "lat": 38.865056833333334, "is_reserved": 0, "type": "electric_scooter", "bike_id": "d943251185b4b56a281dd3484780b8c2", "is_disabled": 0, "rental_uris": {"android": "https://dc.lft.to/lastmile_qr_scan", "ios": "https://dc.lft.to/lastmile_qr_scan"}, "lon": -76.98998116666667, "fusion_lat": 0.0}, {"name": "511d05d4a1edec80d2c00cb30a28e87c", "fusion_lon": 0.0, "lat": 38.93868616666666, "is_reserved": 0, "type": "electric_scooter", "bike_id": "511d05d4a1edec80d2c00cb30a28e87c", "is_disabled": 0, "rental_uris": {"android": "https://dc.lft.to/lastmile_qr_scan", "ios": "https://dc.lft.to/lastmile_qr_scan"}, "lon": -77.03084116666666, "fusion_lat": 0.0}, {"name": "c910104bd80fb0dec16f1301ea419409", "fusion_lon": 0.0, "lat": 38.91108883333333, "is_reserved": 0, "type": "electric_scooter", "bike_id": "c910104bd80fb0dec16f1301ea419409", "is_disabled": 0, "rental_uris": {"android": "https://dc.lft.to/lastmile_qr_scan", "ios": "https://dc.lft.to/lastmile_qr_scan"}, "lon": -77.04836133333333, "fusion_lat": 0.0}, {"name": "e90160d36d21e5ff1256d6aa9ec591b8", "fusion_lon": 0.0, "lat": 38.86383466666667, "is_reserved": 0, "type": "electric_scooter", "bike_id": "e90160d36d21e5ff1256d6aa9ec591b8", "is_disabled": 0, "rental_uris": {"android": "https://dc.lft.to/lastmile_qr_scan", "ios": "https://dc.lft.to/lastmile_qr_scan"}, "lon": -76.99043983333334, "fusion_lat": 0.0}, {"name": "a4becf11eeb26b65f549ee9ffa281e06", "fusion_lon": 0.0, "lat": 38.903997, "is_reserved": 0, "type": "electric_scooter", "bike_id": "a4becf11eeb26b65f549ee9ffa281e06", "is_disabled": 0, "rental_uris": {"android": "https://dc.lft.to/lastmile_qr_scan", "ios": "https://dc.lft.to/lastmile_qr_scan"}, "lon": -77.0677215, "fusion_lat": 0.0}, {"name": "9f989c33aebc39dc9ee653b7741ba65b", "fusion_lon": 0.0, "lat": 38.902409, "is_reserved": 0, "type": "electric_scooter", "bike_id": "9f989c33aebc39dc9ee653b7741ba65b", "is_disabled": 0, "rental_uris": {"android": "https://dc.lft.to/lastmile_qr_scan", "ios": "https://dc.lft.to/lastmile_qr_scan"}, "lon": -77.00194866666666, "fusion_lat": 0.0}, {"name": "dec102862faaa29f6f36e5e92ae8fedc", "fusion_lon": 0.0, "lat": 38.913584666666665, "is_reserved": 0, "type": "electric_scooter", "bike_id": "dec102862faaa29f6f36e5e92ae8fedc", "is_disabled": 0, "rental_uris": {"android": "https://dc.lft.to/lastmile_qr_scan", "ios": "https://dc.lft.to/lastmile_qr_scan"}, "lon": -77.0692945, "fusion_lat": 0.0}, {"name": "2b7696e07747e9efaa08fb7df2f21476", "fusion_lon": 0.0, "lat": 38.91659033333333, "is_reserved": 0, "type": "electric_scooter", "bike_id": "2b7696e07747e9efaa08fb7df2f21476", "is_disabled": 0, "rental_uris": {"android": "https://dc.lft.to/lastmile_qr_scan", "ios": "https://dc.lft.to/lastmile_qr_scan"}, "lon": -77.0200765, "fusion_lat": 0.0}, {"name": "0825bbc534f5b090e86ea786ffcc693e", "fusion_lon": 0.0, "lat": 38.9063725, "is_reserved": 0, "type": "electric_scooter", "bike_id": "0825bbc534f5b090e86ea786ffcc693e", "is_disabled": 0, "rental_uris": {"android": "https://dc.lft.to/lastmile_qr_scan", "ios": "https://dc.lft.to/lastmile_qr_scan"}, "lon": -77.069019, "fusion_lat": 0.0}, {"name": "dc5d7eecb4fd175ce027ed1825812dc0", "fusion_lon": 0.0, "lat": 38.872777166666665, "is_reserved": 0, "type": "electric_bike", "bike_id": "dc5d7eecb4fd175ce027ed1825812dc0", "is_disabled": 0, "rental_uris": {"android": "https://dc.lft.to/lastmile_qr_scan", "ios": "https://dc.lft.to/lastmile_qr_scan"}, "lon": -77.23325616666666, "fusion_lat": 0.0}, {"name": "0ad91a1cc5f33eb29997fb92cc1d6159", "fusion_lon": 0.0, "lat": 38.96464783333333, "is_reserved": 0, "type": "electric_bike", "bike_id": "0ad91a1cc5f33eb29997fb92cc1d6159", "is_disabled": 0, "rental_uris": {"android": "https://dc.lft.to/lastmile_qr_scan", "ios": "https://dc.lft.to/lastmile_qr_scan"}, "lon": -77.035667, "fusion_lat": 0.0}, {"name": "576ad366d3ddcc772723f0439eb83b16", "fusion_lon": 0.0, "lat": 38.913807166666665, "is_reserved": 0, "type": "electric_scooter", "bike_id": "576ad366d3ddcc772723f0439eb83b16", "is_disabled": 0, "rental_uris": {"android": "https://dc.lft.to/lastmile_qr_scan", "ios": "https://dc.lft.to/lastmile_qr_scan"}, "lon": -77.04130233333333, "fusion_lat": 0.0}, {"name": "4897306f31ce50e744bf1697f10de4a5", "fusion_lon": 0.0, "lat": 38.908247, "is_reserved": 0, "type": "electric_scooter", "bike_id": "4897306f31ce50e744bf1697f10de4a5", "is_disabled": 0, "rental_uris": {"android": "https://dc.lft.to/lastmile_qr_scan", "ios": "https://dc.lft.to/lastmile_qr_scan"}, "lon": -76.94155216666667, "fusion_lat": 0.0}, {"name": "5f4dc5ce8d21923a7856c224973a01fc", "fusion_lon": 0.0, "lat": 38.901699666666666, "is_reserved": 0, "type": "electric_scooter", "bike_id": "5f4dc5ce8d21923a7856c224973a01fc", "is_disabled": 0, "rental_uris": {"android": "https://dc.lft.to/lastmile_qr_scan", "ios": "https://dc.lft.to/lastmile_qr_scan"}, "lon": -77.06002183333334, "fusion_lat": 0.0}, {"name": "0a3db846b5372afc06b69ee0f2a582f3", "fusion_lon": 0.0, "lat": 38.90418483333333, "is_reserved": 0, "type": "electric_scooter", "bike_id": "0a3db846b5372afc06b69ee0f2a582f3", "is_disabled": 0, "rental_uris": {"android": "https://dc.lft.to/lastmile_qr_scan", "ios": "https://dc.lft.to/lastmile_qr_scan"}, "lon": -77.038332, "fusion_lat": 0.0}, {"name": "6c2ba61ca9507e7ad0d3f89141461403", "fusion_lon": 0.0, "lat": 38.92028416666667, "is_reserved": 0, "type": "electric_scooter", "bike_id": "6c2ba61ca9507e7ad0d3f89141461403", "is_disabled": 0, "rental_uris": {"android": "https://dc.lft.to/lastmile_qr_scan", "ios": "https://dc.lft.to/lastmile_qr_scan"}, "lon": -77.01131216666667, "fusion_lat": 0.0}, {"name": "cf3fd0a19093086c3979faf640910038", "fusion_lon": 0.0, "lat": 38.92722466666667, "is_reserved": 0, "type": "electric_scooter", "bike_id": "cf3fd0a19093086c3979faf640910038", "is_disabled": 0, "rental_uris": {"android": "https://dc.lft.to/lastmile_qr_scan", "ios": "https://dc.lft.to/lastmile_qr_scan"}, "lon": -77.039891, "fusion_lat": 0.0}, {"name": "cb7d02cb1a3cc4f9f3800274133c34de", "fusion_lon": 0.0, "lat": 38.89983616666667, "is_reserved": 0, "type": "electric_scooter", "bike_id": "cb7d02cb1a3cc4f9f3800274133c34de", "is_disabled": 0, "rental_uris": {"android": "https://dc.lft.to/lastmile_qr_scan", "ios": "https://dc.lft.to/lastmile_qr_scan"}, "lon": -77.0061965, "fusion_lat": 0.0}, {"name": "080a067bb6675cf4927746b31a8decf1", "fusion_lon": 0.0, "lat": 38.905985, "is_reserved": 0, "type": "electric_scooter", "bike_id": "080a067bb6675cf4927746b31a8decf1", "is_disabled": 0, "rental_uris": {"android": "https://dc.lft.to/lastmile_qr_scan", "ios": "https://dc.lft.to/lastmile_qr_scan"}, "lon": -77.00724, "fusion_lat": 0.0}, {"name": "716bacdcaaaca8e5ee8c0c59a21a8baf", "fusion_lon": 0.0, "lat": 38.92932483333333, "is_reserved": 0, "type": "electric_bike", "bike_id": "716bacdcaaaca8e5ee8c0c59a21a8baf", "is_disabled": 0, "rental_uris": {"android": "https://dc.lft.to/lastmile_qr_scan", "ios": "https://dc.lft.to/lastmile_qr_scan"}, "lon": -77.02774866666667, "fusion_lat": 0.0}, {"name": "5adf625d05e900b70ad574fd0e7dce7f", "fusion_lon": 0.0, "lat": 38.900868, "is_reserved": 0, "type": "electric_scooter", "bike_id": "5adf625d05e900b70ad574fd0e7dce7f", "is_disabled": 0, "rental_uris": {"android": "https://dc.lft.to/lastmile_qr_scan", "ios": "https://dc.lft.to/lastmile_qr_scan"}, "lon": -77.04754233333334, "fusion_lat": 0.0}, {"name": "1e45c43bcda48d11d164b5cef56dc26e", "fusion_lon": 0.0, "lat": 38.9286325, "is_reserved": 0, "type": "electric_scooter", "bike_id": "1e45c43bcda48d11d164b5cef56dc26e", "is_disabled": 0, "rental_uris": {"android": "https://dc.lft.to/lastmile_qr_scan", "ios": "https://dc.lft.to/lastmile_qr_scan"}, "lon": -77.03499516666666, "fusion_lat": 0.0}, {"name": "995a90dedb9d19301e4111765657076d", "fusion_lon": 0.0, "lat": 38.9203245, "is_reserved": 0, "type": "electric_scooter", "bike_id": "995a90dedb9d19301e4111765657076d", "is_disabled": 0, "rental_uris": {"android": "https://dc.lft.to/lastmile_qr_scan", "ios": "https://dc.lft.to/lastmile_qr_scan"}, "lon": -77.02585216666667, "fusion_lat": 0.0}, {"name": "96233b243285f0501cfda3cd106f61e9", "fusion_lon": 0.0, "lat": 38.9622735, "is_reserved": 0, "type": "electric_bike", "bike_id": "96233b243285f0501cfda3cd106f61e9", "is_disabled": 0, "rental_uris": {"android": "https://dc.lft.to/lastmile_qr_scan", "ios": "https://dc.lft.to/lastmile_qr_scan"}, "lon": -77.02623916666667, "fusion_lat": 0.0}, {"name": "c3fa088c68f351a8668f0aabfaf6b1b8", "fusion_lon": 0.0, "lat": 38.873468, "is_reserved": 0, "type": "electric_scooter", "bike_id": "c3fa088c68f351a8668f0aabfaf6b1b8", "is_disabled": 0, "rental_uris": {"android": "https://dc.lft.to/lastmile_qr_scan", "ios": "https://dc.lft.to/lastmile_qr_scan"}, "lon": -77.002646, "fusion_lat": 0.0}, {"name": "b6e31d0866726540f5fd8d60d039e4f2", "fusion_lon": 0.0, "lat": 38.872352166666666, "is_reserved": 0, "type": "electric_scooter", "bike_id": "b6e31d0866726540f5fd8d60d039e4f2", "is_disabled": 0, "rental_uris": {"android": "https://dc.lft.to/lastmile_qr_scan", "ios": "https://dc.lft.to/lastmile_qr_scan"}, "lon": -77.01760183333333, "fusion_lat": 0.0}, {"name": "8189e49185a33fb026a500a23e89fa44", "fusion_lon": 0.0, "lat": 38.906891333333334, "is_reserved": 0, "type": "electric_scooter", "bike_id": "8189e49185a33fb026a500a23e89fa44", "is_disabled": 0, "rental_uris": {"android": "https://dc.lft.to/lastmile_qr_scan", "ios": "https://dc.lft.to/lastmile_qr_scan"}, "lon": -77.07160366666666, "fusion_lat": 0.0}, {"name": "9f15de48b9db034ab4572c2357b7c742", "fusion_lon": 0.0, "lat": 38.899954, "is_reserved": 0, "type": "electric_scooter", "bike_id": "9f15de48b9db034ab4572c2357b7c742", "is_disabled": 0, "rental_uris": {"android": "https://dc.lft.to/lastmile_qr_scan", "ios": "https://dc.lft.to/lastmile_qr_scan"}, "lon": -77.00650766666666, "fusion_lat": 0.0}, {"name": "2124c0b7cd296a6c9893967b6a435444", "fusion_lon": 0.0, "lat": 38.951764833333336, "is_reserved": 0, "type": "electric_scooter", "bike_id": "2124c0b7cd296a6c9893967b6a435444", "is_disabled": 0, "rental_uris": {"android": "https://dc.lft.to/lastmile_qr_scan", "ios": "https://dc.lft.to/lastmile_qr_scan"}, "lon": -77.02722916666667, "fusion_lat": 0.0}, {"name": "40bd1b94a42bb9a817f6d45422983530", "fusion_lon": 0.0, "lat": 38.919255666666665, "is_reserved": 0, "type": "electric_scooter", "bike_id": "40bd1b94a42bb9a817f6d45422983530", "is_disabled": 0, "rental_uris": {"android": "https://dc.lft.to/lastmile_qr_scan", "ios": "https://dc.lft.to/lastmile_qr_scan"}, "lon": -77.02496116666667, "fusion_lat": 0.0}, {"name": "6ea9b693adb7de2e3573bcf6809cd457", "fusion_lon": 0.0, "lat": 38.857679833333336, "is_reserved": 0, "type": "electric_bike", "bike_id": "6ea9b693adb7de2e3573bcf6809cd457", "is_disabled": 0, "rental_uris": {"android": "https://dc.lft.to/lastmile_qr_scan", "ios": "https://dc.lft.to/lastmile_qr_scan"}, "lon": -76.98759766666667, "fusion_lat": 0.0}, {"name": "78706288d003b0bdd306d26c0d08bc61", "fusion_lon": 0.0, "lat": 38.838125833333336, "is_reserved": 0, "type": "electric_bike", "bike_id": "78706288d003b0bdd306d26c0d08bc61", "is_disabled": 0, "rental_uris": {"android": "https://dc.lft.to/lastmile_qr_scan", "ios": "https://dc.lft.to/lastmile_qr_scan"}, "lon": -77.09514433333334, "fusion_lat": 0.0}, {"name": "abccfa7ce995c762276e528a1cc34252", "fusion_lon": 0.0, "lat": 38.87181566666667, "is_reserved": 0, "type": "electric_scooter", "bike_id": "abccfa7ce995c762276e528a1cc34252", "is_disabled": 0, "rental_uris": {"android": "https://dc.lft.to/lastmile_qr_scan", "ios": "https://dc.lft.to/lastmile_qr_scan"}, "lon": -77.00614883333333, "fusion_lat": 0.0}, {"name": "2668d23efad329c73614d623d85a9ef1", "fusion_lon": 0.0, "lat": 38.927699, "is_reserved": 0, "type": "electric_scooter", "bike_id": "2668d23efad329c73614d623d85a9ef1", "is_disabled": 0, "rental_uris": {"android": "https://dc.lft.to/lastmile_qr_scan", "ios": "https://dc.lft.to/lastmile_qr_scan"}, "lon": -77.03059066666667, "fusion_lat": 0.0}, {"name": "ca352e811680e5dae4e2a911f2c7210a", "fusion_lon": 0.0, "lat": 38.893445166666666, "is_reserved": 0, "type": "electric_scooter", "bike_id": "ca352e811680e5dae4e2a911f2c7210a", "is_disabled": 0, "rental_uris": {"android": "https://dc.lft.to/lastmile_qr_scan", "ios": "https://dc.lft.to/lastmile_qr_scan"}, "lon": -77.01713983333333, "fusion_lat": 0.0}, {"name": "5a9410059225da135c62b77124741f0b", "fusion_lon": 0.0, "lat": 38.8989505, "is_reserved": 0, "type": "electric_scooter", "bike_id": "5a9410059225da135c62b77124741f0b", "is_disabled": 0, "rental_uris": {"android": "https://dc.lft.to/lastmile_qr_scan", "ios": "https://dc.lft.to/lastmile_qr_scan"}, "lon": -76.97705033333334, "fusion_lat": 0.0}, {"name": "f4ec6abc8c8be7ef50530f68a1d0d757", "fusion_lon": 0.0, "lat": 38.95532166666667, "is_reserved": 0, "type": "electric_scooter", "bike_id": "f4ec6abc8c8be7ef50530f68a1d0d757", "is_disabled": 0, "rental_uris": {"android": "https://dc.lft.to/lastmile_qr_scan", "ios": "https://dc.lft.to/lastmile_qr_scan"}, "lon": -77.02776816666666, "fusion_lat": 0.0}, {"name": "54ba382635d0d8c40a76b7bcb96b0418", "fusion_lon": 0.0, "lat": 38.9242475, "is_reserved": 0, "type": "electric_scooter", "bike_id": "54ba382635d0d8c40a76b7bcb96b0418", "is_disabled": 0, "rental_uris": {"android": "https://dc.lft.to/lastmile_qr_scan", "ios": "https://dc.lft.to/lastmile_qr_scan"}, "lon": -77.035465, "fusion_lat": 0.0}, {"name": "089c6a18d84ca2939a05069a57527ac8", "fusion_lon": 0.0, "lat": 38.93018583333333, "is_reserved": 0, "type": "electric_scooter", "bike_id": "089c6a18d84ca2939a05069a57527ac8", "is_disabled": 0, "rental_uris": {"android": "https://dc.lft.to/lastmile_qr_scan", "ios": "https://dc.lft.to/lastmile_qr_scan"}, "lon": -77.06082966666666, "fusion_lat": 0.0}, {"name": "82cfc6051d45982fcdea2d08fb9f4f49", "fusion_lon": 0.0, "lat": 38.90805683333333, "is_reserved": 0, "type": "electric_scooter", "bike_id": "82cfc6051d45982fcdea2d08fb9f4f49", "is_disabled": 0, "rental_uris": {"android": "https://dc.lft.to/lastmile_qr_scan", "ios": "https://dc.lft.to/lastmile_qr_scan"}, "lon": -77.0362695, "fusion_lat": 0.0}, {"name": "f63baf1049204d40c4f5ee4d5f284861", "fusion_lon": 0.0, "lat": 38.9232105, "is_reserved": 0, "type": "electric_scooter", "bike_id": "f63baf1049204d40c4f5ee4d5f284861", "is_disabled": 0, "rental_uris": {"android": "https://dc.lft.to/lastmile_qr_scan", "ios": "https://dc.lft.to/lastmile_qr_scan"}, "lon": -77.041738, "fusion_lat": 0.0}, {"name": "97afb4b6e61a14284198cad7fff83844", "fusion_lon": 0.0, "lat": 38.8992255, "is_reserved": 0, "type": "electric_scooter", "bike_id": "97afb4b6e61a14284198cad7fff83844", "is_disabled": 0, "rental_uris": {"android": "https://dc.lft.to/lastmile_qr_scan", "ios": "https://dc.lft.to/lastmile_qr_scan"}, "lon": -77.0036925, "fusion_lat": 0.0}, {"name": "705974d842e16ae43c44a9333ed02139", "fusion_lon": 0.0, "lat": 38.900053166666666, "is_reserved": 0, "type": "electric_scooter", "bike_id": "705974d842e16ae43c44a9333ed02139", "is_disabled": 0, "rental_uris": {"android": "https://dc.lft.to/lastmile_qr_scan", "ios": "https://dc.lft.to/lastmile_qr_scan"}, "lon": -77.02605116666666, "fusion_lat": 0.0}, {"name": "9ea4493cf0aac5baf506b214f53daffd", "fusion_lon": 0.0, "lat": 38.907932833333334, "is_reserved": 0, "type": "electric_scooter", "bike_id": "9ea4493cf0aac5baf506b214f53daffd", "is_disabled": 0, "rental_uris": {"android": "https://dc.lft.to/lastmile_qr_scan", "ios": "https://dc.lft.to/lastmile_qr_scan"}, "lon": -77.03861266666667, "fusion_lat": 0.0}, {"name": "500d6fc48397e11c19caa9134a5d7806", "fusion_lon": 0.0, "lat": 38.90937, "is_reserved": 0, "type": "electric_scooter", "bike_id": "500d6fc48397e11c19caa9134a5d7806", "is_disabled": 0, "rental_uris": {"android": "https://dc.lft.to/lastmile_qr_scan", "ios": "https://dc.lft.to/lastmile_qr_scan"}, "lon": -77.02690283333334, "fusion_lat": 0.0}, {"name": "e6ff695010fb0eb40b912068c5c7fec2", "fusion_lon": 0.0, "lat": 38.916862333333334, "is_reserved": 0, "type": "electric_scooter", "bike_id": "e6ff695010fb0eb40b912068c5c7fec2", "is_disabled": 0, "rental_uris": {"android": "https://dc.lft.to/lastmile_qr_scan", "ios": "https://dc.lft.to/lastmile_qr_scan"}, "lon": -77.02324616666667, "fusion_lat": 0.0}, {"name": "a7d0fade5d79d3c9028f0021a155caba", "fusion_lon": 0.0, "lat": 38.895407666666664, "is_reserved": 0, "type": "electric_scooter", "bike_id": "a7d0fade5d79d3c9028f0021a155caba", "is_disabled": 0, "rental_uris": {"android": "https://dc.lft.to/lastmile_qr_scan", "ios": "https://dc.lft.to/lastmile_qr_scan"}, "lon": -76.92945433333334, "fusion_lat": 0.0}, {"name": "fb149ae00354607b9d3998bc8de1b97a", "fusion_lon": 0.0, "lat": 38.90530866666667, "is_reserved": 0, "type": "electric_scooter", "bike_id": "fb149ae00354607b9d3998bc8de1b97a", "is_disabled": 0, "rental_uris": {"android": "https://dc.lft.to/lastmile_qr_scan", "ios": "https://dc.lft.to/lastmile_qr_scan"}, "lon": -76.98095016666667, "fusion_lat": 0.0}, {"name": "fa94f4127fa3f7733dd4e288599d19ee", "fusion_lon": 0.0, "lat": 38.85788066666667, "is_reserved": 0, "type": "electric_bike", "bike_id": "fa94f4127fa3f7733dd4e288599d19ee", "is_disabled": 0, "rental_uris": {"android": "https://dc.lft.to/lastmile_qr_scan", "ios": "https://dc.lft.to/lastmile_qr_scan"}, "lon": -77.120192, "fusion_lat": 0.0}, {"name": "0f9e18b9cbc9b27c8437bc9a3a448d6a", "fusion_lon": 0.0, "lat": 38.9351415, "is_reserved": 0, "type": "electric_scooter", "bike_id": "0f9e18b9cbc9b27c8437bc9a3a448d6a", "is_disabled": 0, "rental_uris": {"android": "https://dc.lft.to/lastmile_qr_scan", "ios": "https://dc.lft.to/lastmile_qr_scan"}, "lon": -77.03284966666666, "fusion_lat": 0.0}, {"name": "4a7c2deee99c736d75638d52b1694df4", "fusion_lon": 0.0, "lat": 38.862588833333334, "is_reserved": 0, "type": "electric_bike", "bike_id": "4a7c2deee99c736d75638d52b1694df4", "is_disabled": 0, "rental_uris": {"android": "https://dc.lft.to/lastmile_qr_scan", "ios": "https://dc.lft.to/lastmile_qr_scan"}, "lon": -76.98345, "fusion_lat": 0.0}, {"name": "0abd930307abf64c8d04b6bbdc76b9b1", "fusion_lon": 0.0, "lat": 38.893193, "is_reserved": 0, "type": "electric_scooter", "bike_id": "0abd930307abf64c8d04b6bbdc76b9b1", "is_disabled": 0, "rental_uris": {"android": "https://dc.lft.to/lastmile_qr_scan", "ios": "https://dc.lft.to/lastmile_qr_scan"}, "lon": -77.04864183333333, "fusion_lat": 0.0}, {"name": "fbce265ed5009263c20ee5fa07bcb291", "fusion_lon": 0.0, "lat": 38.916638, "is_reserved": 0, "type": "electric_scooter", "bike_id": "fbce265ed5009263c20ee5fa07bcb291", "is_disabled": 0, "rental_uris": {"android": "https://dc.lft.to/lastmile_qr_scan", "ios": "https://dc.lft.to/lastmile_qr_scan"}, "lon": -77.02966416666666, "fusion_lat": 0.0}, {"name": "7d675cc2c0487324072b0fd67f6d8a72", "fusion_lon": 0.0, "lat": 38.951513166666665, "is_reserved": 0, "type": "electric_scooter", "bike_id": "7d675cc2c0487324072b0fd67f6d8a72", "is_disabled": 0, "rental_uris": {"android": "https://dc.lft.to/lastmile_qr_scan", "ios": "https://dc.lft.to/lastmile_qr_scan"}, "lon": -77.01865833333333, "fusion_lat": 0.0}, {"name": "fab0113b11048669cca118efd6d4e672", "fusion_lon": 0.0, "lat": 38.92333883333333, "is_reserved": 0, "type": "electric_scooter", "bike_id": "fab0113b11048669cca118efd6d4e672", "is_disabled": 0, "rental_uris": {"android": "https://dc.lft.to/lastmile_qr_scan", "ios": "https://dc.lft.to/lastmile_qr_scan"}, "lon": -77.05678883333333, "fusion_lat": 0.0}, {"name": "8536e7b648334b39b4ff2a60f7246d43", "fusion_lon": 0.0, "lat": 38.90569383333333, "is_reserved": 0, "type": "electric_scooter", "bike_id": "8536e7b648334b39b4ff2a60f7246d43", "is_disabled": 0, "rental_uris": {"android": "https://dc.lft.to/lastmile_qr_scan", "ios": "https://dc.lft.to/lastmile_qr_scan"}, "lon": -77.04498683333334, "fusion_lat": 0.0}, {"name": "8564c976ea47dce598152c45dd5583b9", "fusion_lon": 0.0, "lat": 38.92648333333333, "is_reserved": 0, "type": "electric_scooter", "bike_id": "8564c976ea47dce598152c45dd5583b9", "is_disabled": 0, "rental_uris": {"android": "https://dc.lft.to/lastmile_qr_scan", "ios": "https://dc.lft.to/lastmile_qr_scan"}, "lon": -77.04134833333333, "fusion_lat": 0.0}, {"name": "124192b2673498562ffa3a49579cd93c", "fusion_lon": 0.0, "lat": 38.90212533333333, "is_reserved": 0, "type": "electric_scooter", "bike_id": "124192b2673498562ffa3a49579cd93c", "is_disabled": 0, "rental_uris": {"android": "https://dc.lft.to/lastmile_qr_scan", "ios": "https://dc.lft.to/lastmile_qr_scan"}, "lon": -77.02369433333334, "fusion_lat": 0.0}, {"name": "2bc25725aaeebfde30f437d3479c76fe", "fusion_lon": 0.0, "lat": 38.902166333333334, "is_reserved": 0, "type": "electric_scooter", "bike_id": "2bc25725aaeebfde30f437d3479c76fe", "is_disabled": 0, "rental_uris": {"android": "https://dc.lft.to/lastmile_qr_scan", "ios": "https://dc.lft.to/lastmile_qr_scan"}, "lon": -77.02371666666667, "fusion_lat": 0.0}, {"name": "37dfe2a99ed89546b3a01a6bdb18ca9c", "fusion_lon": 0.0, "lat": 38.880816833333334, "is_reserved": 0, "type": "electric_scooter", "bike_id": "37dfe2a99ed89546b3a01a6bdb18ca9c", "is_disabled": 0, "rental_uris": {"android": "https://dc.lft.to/lastmile_qr_scan", "ios": "https://dc.lft.to/lastmile_qr_scan"}, "lon": -76.9850025, "fusion_lat": 0.0}, {"name": "6d005efa6c36da84798fbeeb8602b5cf", "fusion_lon": 0.0, "lat": 38.9166965, "is_reserved": 0, "type": "electric_scooter", "bike_id": "6d005efa6c36da84798fbeeb8602b5cf", "is_disabled": 0, "rental_uris": {"android": "https://dc.lft.to/lastmile_qr_scan", "ios": "https://dc.lft.to/lastmile_qr_scan"}, "lon": -77.029704, "fusion_lat": 0.0}, {"name": "a5f83074530a1c26fe6f60434e36f033", "fusion_lon": 0.0, "lat": 38.900309166666666, "is_reserved": 0, "type": "electric_scooter", "bike_id": "a5f83074530a1c26fe6f60434e36f033", "is_disabled": 0, "rental_uris": {"android": "https://dc.lft.to/lastmile_qr_scan", "ios": "https://dc.lft.to/lastmile_qr_scan"}, "lon": -76.9989895, "fusion_lat": 0.0}, {"name": "fad8b139a070f5dedebdcc12da6cb72f", "fusion_lon": 0.0, "lat": 38.90719, "is_reserved": 0, "type": "electric_scooter", "bike_id": "fad8b139a070f5dedebdcc12da6cb72f", "is_disabled": 0, "rental_uris": {"android": "https://dc.lft.to/lastmile_qr_scan", "ios": "https://dc.lft.to/lastmile_qr_scan"}, "lon": -77.01821183333334, "fusion_lat": 0.0}, {"name": "a13e1086acfeb9c916084c228e86b4be", "fusion_lon": 0.0, "lat": 38.912654833333335, "is_reserved": 0, "type": "electric_scooter", "bike_id": "a13e1086acfeb9c916084c228e86b4be", "is_disabled": 0, "rental_uris": {"android": "https://dc.lft.to/lastmile_qr_scan", "ios": "https://dc.lft.to/lastmile_qr_scan"}, "lon": -77.02226916666666, "fusion_lat": 0.0}, {"name": "5994344fcefbed11b5704267f6e05119", "fusion_lon": 0.0, "lat": 38.91472516666666, "is_reserved": 0, "type": "electric_scooter", "bike_id": "5994344fcefbed11b5704267f6e05119", "is_disabled": 0, "rental_uris": {"android": "https://dc.lft.to/lastmile_qr_scan", "ios": "https://dc.lft.to/lastmile_qr_scan"}, "lon": -77.045007, "fusion_lat": 0.0}, {"name": "e921f80deaa953b77b459f9b742df2f6", "fusion_lon": 0.0, "lat": 38.914851666666664, "is_reserved": 0, "type": "electric_scooter", "bike_id": "e921f80deaa953b77b459f9b742df2f6", "is_disabled": 0, "rental_uris": {"android": "https://dc.lft.to/lastmile_qr_scan", "ios": "https://dc.lft.to/lastmile_qr_scan"}, "lon": -77.067378, "fusion_lat": 0.0}, {"name": "8224eb980c6444616c8bb9e8678f3adf", "fusion_lon": 0.0, "lat": 38.9813695, "is_reserved": 0, "type": "electric_scooter", "bike_id": "8224eb980c6444616c8bb9e8678f3adf", "is_disabled": 0, "rental_uris": {"android": "https://dc.lft.to/lastmile_qr_scan", "ios": "https://dc.lft.to/lastmile_qr_scan"}, "lon": -77.02226233333333, "fusion_lat": 0.0}, {"name": "362a6328169a4b2103eed7604276276a", "fusion_lon": 0.0, "lat": 38.925178833333334, "is_reserved": 0, "type": "electric_scooter", "bike_id": "362a6328169a4b2103eed7604276276a", "is_disabled": 0, "rental_uris": {"android": "https://dc.lft.to/lastmile_qr_scan", "ios": "https://dc.lft.to/lastmile_qr_scan"}, "lon": -77.0768625, "fusion_lat": 0.0}, {"name": "d0d8d645aa0a646df1020f41731ef05b", "fusion_lon": 0.0, "lat": 38.92968466666667, "is_reserved": 0, "type": "electric_scooter", "bike_id": "d0d8d645aa0a646df1020f41731ef05b", "is_disabled": 0, "rental_uris": {"android": "https://dc.lft.to/lastmile_qr_scan", "ios": "https://dc.lft.to/lastmile_qr_scan"}, "lon": -77.0312345, "fusion_lat": 0.0}, {"name": "d80ebc939c0c70baa3e49e854de739df", "fusion_lon": 0.0, "lat": 38.895429666666665, "is_reserved": 0, "type": "electric_scooter", "bike_id": "d80ebc939c0c70baa3e49e854de739df", "is_disabled": 0, "rental_uris": {"android": "https://dc.lft.to/lastmile_qr_scan", "ios": "https://dc.lft.to/lastmile_qr_scan"}, "lon": -77.02850566666666, "fusion_lat": 0.0}, {"name": "5c6df6f05a88fd982e3a4be832bcae87", "fusion_lon": 0.0, "lat": 38.92240266666667, "is_reserved": 0, "type": "electric_scooter", "bike_id": "5c6df6f05a88fd982e3a4be832bcae87", "is_disabled": 0, "rental_uris": {"android": "https://dc.lft.to/lastmile_qr_scan", "ios": "https://dc.lft.to/lastmile_qr_scan"}, "lon": -77.01825566666666, "fusion_lat": 0.0}, {"name": "f254e6068e19eef12d974c70b2ce3055", "fusion_lon": 0.0, "lat": 38.892208, "is_reserved": 0, "type": "electric_scooter", "bike_id": "f254e6068e19eef12d974c70b2ce3055", "is_disabled": 0, "rental_uris": {"android": "https://dc.lft.to/lastmile_qr_scan", "ios": "https://dc.lft.to/lastmile_qr_scan"}, "lon": -77.04308016666667, "fusion_lat": 0.0}, {"name": "dfa0f7d7a4bb8acaaf3a0f79d95d1783", "fusion_lon": 0.0, "lat": 38.9003465, "is_reserved": 0, "type": "electric_scooter", "bike_id": "dfa0f7d7a4bb8acaaf3a0f79d95d1783", "is_disabled": 0, "rental_uris": {"android": "https://dc.lft.to/lastmile_qr_scan", "ios": "https://dc.lft.to/lastmile_qr_scan"}, "lon": -76.9953875, "fusion_lat": 0.0}, {"name": "3e8ed0503755b2fc3cab969677ac1dea", "fusion_lon": 0.0, "lat": 38.92453616666667, "is_reserved": 0, "type": "electric_scooter", "bike_id": "3e8ed0503755b2fc3cab969677ac1dea", "is_disabled": 0, "rental_uris": {"android": "https://dc.lft.to/lastmile_qr_scan", "ios": "https://dc.lft.to/lastmile_qr_scan"}, "lon": -77.022454, "fusion_lat": 0.0}, {"name": "b4acee3c0f903a445b8931ddc6266554", "fusion_lon": 0.0, "lat": 38.86977383333333, "is_reserved": 0, "type": "electric_scooter", "bike_id": "b4acee3c0f903a445b8931ddc6266554", "is_disabled": 0, "rental_uris": {"android": "https://dc.lft.to/lastmile_qr_scan", "ios": "https://dc.lft.to/lastmile_qr_scan"}, "lon": -77.01222166666666, "fusion_lat": 0.0}, {"name": "63baab36baa1340b09c35b1295c89db4", "fusion_lon": 0.0, "lat": 39.039316166666666, "is_reserved": 0, "type": "electric_bike", "bike_id": "63baab36baa1340b09c35b1295c89db4", "is_disabled": 0, "rental_uris": {"android": "https://dc.lft.to/lastmile_qr_scan", "ios": "https://dc.lft.to/lastmile_qr_scan"}, "lon": -77.02850283333333, "fusion_lat": 0.0},