{"data": {"bikes": [{"fusion_lon": 0.0, "name": "22cdf0dd788a6a9cb0207f7102de9442", "rental_uris": {"android": "https://dc.lft.to/lastmile_qr_scan", "ios": "https://dc.lft.to/lastmile_qr_scan"}, "lat": 38.901784, "bike_id": "22cdf0dd788a6a9cb0207f7102de9442", "is_disabled": 0, "lon": -77.05890433333333, "is_reserved": 0, "fusion_lat": 0.0, "type": "electric_scooter"}, {"fusion_lon": 0.0, "name": "14a7b05982abadca774a659a5f079078", "rental_uris": {"android": "https://dc.lft.to/lastmile_qr_scan", "ios": "https://dc.lft.to/lastmile_qr_scan"}, "lat": 38.92567783333333, "bike_id": "14a7b05982abadca774a659a5f079078", "is_disabled": 0, "lon": -76.999601, "is_reserved": 0, "fusion_lat": 0.0, "type": "electric_scooter"}, {"fusion_lon": 0.0, "name": "c5a2fcd728a2be9836ae548a351a7fdb", "rental_uris": {"android": "https://dc.lft.to/lastmile_qr_scan", "ios": "https://dc.lft.to/lastmile_qr_scan"}, "lat": 38.89632133333333, "bike_id": "c5a2fcd728a2be9836ae548a351a7fdb", "is_disabled": 0, "lon": -77.03213516666666, "is_reserved": 0, "fusion_lat": 0.0, "type": "electric_scooter"}, {"fusion_lon": 0.0, "name": "57104dd827fc16c4e16352fc99558f84", "rental_uris": {"android": "https://dc.lft.to/lastmile_qr_scan", "ios": "https://dc.lft.to/lastmile_qr_scan"}, "lat": 38.92434266666667, "bike_id": "57104dd827fc16c4e16352fc99558f84", "is_disabled": 0, "lon": -77.0378915, "is_reserved": 0, "fusion_lat": 0.0, "type": "electric_scooter"}, {"fusion_lon": 0.0, "name": "b64069dcbec107a2fd4884c7bb103464", "rental_uris": {"android": "https://dc.lft.to/lastmile_qr_scan", "ios": "https://dc.lft.to/lastmile_qr_scan"}, "lat": 38.91561433333333, "bike_id": "b64069dcbec107a2fd4884c7bb103464", "is_disabled": 0, "lon": -77.03169233333334, "is_reserved": 0, "fusion_lat": 0.0, "type": "electric_scooter"}, {"fusion_lon": 0.0, "name": "a0452d56f03a82ce937636b0f18e093c", "rental_uris": {"android": "https://dc.lft.to/lastmile_qr_scan", "ios": "https://dc.lft.to/lastmile_qr_scan"}, "lat": 38.88290833333333, "bike_id": "a0452d56f03a82ce937636b0f18e093c", "is_disabled": 0, "lon": -77.02579633333333, "is_reserved": 0, "fusion_lat": 0.0, "type": "electric_scooter"}, {"fusion_lon": 0.0, "name": "376dee232daf746b2d06c8fa0707ac2b", "rental_uris": {"android": "https://dc.lft.to/lastmile_qr_scan", "ios": "https://dc.lft.to/lastmile_qr_scan"}, "lat": 38.90030383333333, "bike_id": "376dee232daf746b2d06c8fa0707ac2b", "is_disabled": 0, "lon": -77.01199283333334, "is_reserved": 0, "fusion_lat": 0.0, "type": "electric_scooter"}, {"fusion_lon": 0.0, "name": "2ab4a854ef828e784fd901db48f4ef7a", "rental_uris": {"android": "https://dc.lft.to/lastmile_qr_scan", "ios": "https://dc.lft.to/lastmile_qr_scan"}, "lat": 38.900555833333335, "bike_id": "2ab4a854ef828e784fd901db48f4ef7a", "is_disabled": 0, "lon": -76.98697866666667, "is_reserved": 0, "fusion_lat": 0.0, "type": "electric_scooter"}, {"fusion_lon": 0.0, "name": "c25f6b730e5d3083d39257e1c37fb33f", "rental_uris": {"android": "https://dc.lft.to/lastmile_qr_scan", "ios": "https://dc.lft.to/lastmile_qr_scan"}, "lat": 38.90235533333333, "bike_id": "c25f6b730e5d3083d39257e1c37fb33f", "is_disabled": 0, "lon": -77.01511616666667, "is_reserved": 0, "fusion_lat": 0.0, "type": "electric_scooter"}, {"fusion_lon": 0.0, "name": "07a38041e964d8f4e915d46cf9d18144", "rental_uris": {"android": "https://dc.lft.to/lastmile_qr_scan", "ios": "https://dc.lft.to/lastmile_qr_scan"}, "lat": 38.8624515, "bike_id": "07a38041e964d8f4e915d46cf9d18144", "is_disabled": 0, "lon": -76.995003, "is_reserved": 0, "fusion_lat": 0.0, "type": "electric_scooter"}, {"fusion_lon": 0.0, "name": "1d7fc8ff83bd6023e69af711c2888f46", "rental_uris": {"android": "https://dc.lft.to/lastmile_qr_scan", "ios": "https://dc.lft.to/lastmile_qr_scan"}, "lat": 38.8994365, "bike_id": "1d7fc8ff83bd6023e69af711c2888f46", "is_disabled": 0, "lon": -77.05033083333333, "is_reserved": 0, "fusion_lat": 0.0, "type": "electric_scooter"}, {"fusion_lon": 0.0, "name": "33a12b5dd8931859b6f481c92d602f2c", "rental_uris": {"android": "https://dc.lft.to/lastmile_qr_scan", "ios": "https://dc.lft.to/lastmile_qr_scan"}, "lat": 38.906123, "bike_id": "33a12b5dd8931859b6f481c92d602f2c", "is_disabled": 0, "lon": -77.12896016666667, "is_reserved": 0, "fusion_lat": 0.0, "type": "electric_bike"}, {"fusion_lon": 0.0, "name": "d20e44fb29635f855689bab6b1c1bc42", "rental_uris": {"android": "https://dc.lft.to/lastmile_qr_scan", "ios": "https://dc.lft.to/lastmile_qr_scan"}, "lat": 38.8804485, "bike_id": "d20e44fb29635f855689bab6b1c1bc42", "is_disabled": 0, "lon": -77.01168116666666, "is_reserved": 0, "fusion_lat": 0.0, "type": "electric_scooter"}, {"fusion_lon": 0.0, "name": "ab43042e38989736c8821b2b0568faf1", "rental_uris": {"android": "https://dc.lft.to/lastmile_qr_scan", "ios": "https://dc.lft.to/lastmile_qr_scan"}, "lat": 38.92379583333334, "bike_id": "ab43042e38989736c8821b2b0568faf1", "is_disabled": 0, "lon": -77.03058033333333, "is_reserved": 0, "fusion_lat": 0.0, "type": "electric_scooter"}, {"fusion_lon": 0.0, "name": "40e11962db41cd6018940f1dc24290c4", "rental_uris": {"android": "https://dc.lft.to/lastmile_qr_scan", "ios": "https://dc.lft.to/lastmile_qr_scan"}, "lat": 38.9055135, "bike_id": "40e11962db41cd6018940f1dc24290c4", "is_disabled": 0, "lon": -77.03472533333333, "is_reserved": 0, "fusion_lat": 0.0, "type": "electric_scooter"}, {"fusion_lon": 0.0, "name": "b5b78137d31d150cf9dc656379ddd4cb", "rental_uris": {"android": "https://dc.lft.to/lastmile_qr_scan", "ios": "https://dc.lft.to/lastmile_qr_scan"}, "lat": 38.9011845, "bike_id": "b5b78137d31d150cf9dc656379ddd4cb", "is_disabled": 0, "lon": -77.04993766666666, "is_reserved": 0, "fusion_lat": 0.0, "type": "electric_scooter"}, {"fusion_lon": 0.0, "name": "291b0dfa205911c3ea3b2eebc0dc0056", "rental_uris": {"android": "https://dc.lft.to/lastmile_qr_scan", "ios": "https://dc.lft.to/lastmile_qr_scan"}, "lat": 38.915745, "bike_id": "291b0dfa205911c3ea3b2eebc0dc0056", "is_disabled": 0, "lon": -77.05020666666667, "is_reserved": 0, "fusion_lat": 0.0, "type": "electric_scooter"}, {"fusion_lon": 0.0, "name": "2ef8a0ff7f7967a87827dafebb4148f6", "rental_uris": {"android": "https://dc.lft.to/lastmile_qr_scan", "ios": "https://dc.lft.to/lastmile_qr_scan"}, "lat": 38.90194566666667, "bike_id": "2ef8a0ff7f7967a87827dafebb4148f6", "is_disabled": 0, "lon": -77.05903266666667, "is_reserved": 0, "fusion_lat": 0.0, "type": "electric_scooter"}, {"fusion_lon": 0.0, "name": "07f87228f9a7440e8e9b0df4b1b0f923", "rental_uris": {"android": "https://dc.lft.to/lastmile_qr_scan", "ios": "https://dc.lft.to/lastmile_qr_scan"}, "lat": 38.892286, "bike_id": "07f87228f9a7440e8e9b0df4b1b0f923", "is_disabled": 0, "lon": -77.03375683333333, "is_reserved": 0, "fusion_lat": 0.0, "type": "electric_scooter"}, {"fusion_lon": 0.0, "name": "7fab584199643f26d9a8b3e295ea8fdb", "rental_uris": {"android": "https://dc.lft.to/lastmile_qr_scan", "ios": "https://dc.lft.to/lastmile_qr_scan"}, "lat": 38.901447833333336, "bike_id": "7fab584199643f26d9a8b3e295ea8fdb", "is_disabled": 0, "lon": -77.05055833333333, "is_reserved": 0, "fusion_lat": 0.0, "type": "electric_scooter"}, {"fusion_lon": 0.0, "name": "526001949c1673e687aa6ffdc9f45f3a", "rental_uris": {"android": "https://dc.lft.to/lastmile_qr_scan", "ios": "https://dc.lft.to/lastmile_qr_scan"}, "lat": 38.944261, "bike_id": "526001949c1673e687aa6ffdc9f45f3a", "is_disabled": 0, "lon": -77.05521383333334, "is_reserved": 0, "fusion_lat": 0.0, "type": "electric_scooter"}, {"fusion_lon": 0.0, "name": "b97ac7a30701740d56325ad1134f7b61", "rental_uris": {"android": "https://dc.lft.to/lastmile_qr_scan", "ios": "https://dc.lft.to/lastmile_qr_scan"}, "lat": 38.894545666666666, "bike_id": "b97ac7a30701740d56325ad1134f7b61", "is_disabled": 0, "lon": -77.02678, "is_reserved": 0, "fusion_lat": 0.0, "type": "electric_scooter"}, {"fusion_lon": 0.0, "name": "8f95f66d3bc3933b4e9329da3d90fa81", "rental_uris": {"android": "https://dc.lft.to/lastmile_qr_scan", "ios": "https://dc.lft.to/lastmile_qr_scan"}, "lat": 38.90067833333333, "bike_id": "8f95f66d3bc3933b4e9329da3d90fa81", "is_disabled": 0, "lon": -77.03186516666666, "is_reserved": 0, "fusion_lat": 0.0, "type": "electric_scooter"}, {"fusion_lon": 0.0, "name": "16fafc9e9a0b9774945d0c1a7d7447af", "rental_uris": {"android": "https://dc.lft.to/lastmile_qr_scan", "ios": "https://dc.lft.to/lastmile_qr_scan"}, "lat": 38.91704133333333, "bike_id": "16fafc9e9a0b9774945d0c1a7d7447af", "is_disabled": 0, "lon": -77.00112616666667, "is_reserved": 0, "fusion_lat": 0.0, "type": "electric_scooter"}, {"fusion_lon": 0.0, "name": "b4a6282c553c77145d40f0131ad6c2ac", "rental_uris": {"android": "https://dc.lft.to/lastmile_qr_scan", "ios": "https://dc.lft.to/lastmile_qr_scan"}, "lat": 38.886177833333335, "bike_id": "b4a6282c553c77145d40f0131ad6c2ac", "is_disabled": 0, "lon": -77.00281683333333, "is_reserved": 0, "fusion_lat": 0.0, "type": "electric_scooter"}, {"fusion_lon": 0.0, "name": "0634523a0903096809f0d2d415c7c977", "rental_uris": {"android": "https://dc.lft.to/lastmile_qr_scan", "ios": "https://dc.lft.to/lastmile_qr_scan"}, "lat": 38.902669333333336, "bike_id": "0634523a0903096809f0d2d415c7c977", "is_disabled": 0, "lon": -77.01759266666667, "is_reserved": 0, "fusion_lat": 0.0, "type": "electric_scooter"}, {"fusion_lon": 0.0, "name": "c981353e6295eaa654c393df0aca34b2", "rental_uris": {"android": "https://dc.lft.to/lastmile_qr_scan", "ios": "https://dc.lft.to/lastmile_qr_scan"}, "lat": 38.90528966666667, "bike_id": "c981353e6295eaa654c393df0aca34b2", "is_disabled": 0, "lon": -77.03040866666667, "is_reserved": 0, "fusion_lat": 0.0, "type": "electric_scooter"}, {"fusion_lon": 0.0, "name": "907247964a887a7c0bf78204bf1f6b09", "rental_uris": {"android": "https://dc.lft.to/lastmile_qr_scan", "ios": "https://dc.lft.to/lastmile_qr_scan"}, "lat": 38.920481, "bike_id": "907247964a887a7c0bf78204bf1f6b09", "is_disabled": 0, "lon": -77.024278, "is_reserved": 0, "fusion_lat": 0.0, "type": "electric_scooter"}, {"fusion_lon": 0.0, "name": "876867e5aa88f2481d6f3a503d3f747a", "rental_uris": {"android": "https://dc.lft.to/lastmile_qr_scan", "ios": "https://dc.lft.to/lastmile_qr_scan"}, "lat": 38.90392833333333, "bike_id": "876867e5aa88f2481d6f3a503d3f747a", "is_disabled": 0, "lon": -77.04365633333333, "is_reserved": 0, "fusion_lat": 0.0, "type": "electric_scooter"}, {"fusion_lon": 0.0, "name": "173a34b7bc58dc1f733584f30fbda562", "rental_uris": {"android": "https://dc.lft.to/lastmile_qr_scan", "ios": "https://dc.lft.to/lastmile_qr_scan"}, "lat": 38.93061016666667, "bike_id": "173a34b7bc58dc1f733584f30fbda562", "is_disabled": 0, "lon": -77.03943166666667, "is_reserved": 0, "fusion_lat": 0.0, "type": "electric_scooter"}, {"fusion_lon": 0.0, "name": "5f55d78da957ddbb138a9b6f6c7aa6e8", "rental_uris": {"android": "https://dc.lft.to/lastmile_qr_scan", "ios": "https://dc.lft.to/lastmile_qr_scan"}, "lat": 38.918033666666666, "bike_id": "5f55d78da957ddbb138a9b6f6c7aa6e8", "is_disabled": 0, "lon": -77.03448433333334, "is_reserved": 0, "fusion_lat": 0.0, "type": "electric_scooter"}, {"fusion_lon": 0.0, "name": "03c68d756f967f53ee31ad27675ba7e3", "rental_uris": {"android": "https://dc.lft.to/lastmile_qr_scan", "ios": "https://dc.lft.to/lastmile_qr_scan"}, "lat": 38.9170805, "bike_id": "03c68d756f967f53ee31ad27675ba7e3", "is_disabled": 0, "lon": -77.034711, "is_reserved": 0, "fusion_lat": 0.0, "type": "electric_scooter"}, {"fusion_lon": 0.0, "name": "477530705133178f7389dda09f3d140a", "rental_uris": {"android": "https://dc.lft.to/lastmile_qr_scan", "ios": "https://dc.lft.to/lastmile_qr_scan"}, "lat": 38.929585333333335, "bike_id": "477530705133178f7389dda09f3d140a", "is_disabled": 0, "lon": -77.02797783333334, "is_reserved": 0, "fusion_lat": 0.0, "type": "electric_scooter"}, {"fusion_lon": 0.0, "name": "6cae1329724ac6145a600c6c2f4806a9", "rental_uris": {"android": "https://dc.lft.to/lastmile_qr_scan", "ios": "https://dc.lft.to/lastmile_qr_scan"}, "lat": 38.90715133333333, "bike_id": "6cae1329724ac6145a600c6c2f4806a9", "is_disabled": 0, "lon": -77.04847966666667, "is_reserved": 0, "fusion_lat": 0.0, "type": "electric_scooter"}, {"fusion_lon": 0.0, "name": "2f536f9d9670b4e6713cab69431595ec", "rental_uris": {"android": "https://dc.lft.to/lastmile_qr_scan", "ios": "https://dc.lft.to/lastmile_qr_scan"}, "lat": 38.9195455, "bike_id": "2f536f9d9670b4e6713cab69431595ec", "is_disabled": 0, "lon": -77.048492, "is_reserved": 0, "fusion_lat": 0.0, "type": "electric_scooter"}, {"fusion_lon": 0.0, "name": "db1fce99c6d087062161837622ccf02e", "rental_uris": {"android": "https://dc.lft.to/lastmile_qr_scan", "ios": "https://dc.lft.to/lastmile_qr_scan"}, "lat": 39.084917833333336, "bike_id": "db1fce99c6d087062161837622ccf02e", "is_disabled": 0, "lon": -76.95049133333333, "is_reserved": 0, "fusion_lat": 0.0, "type": "electric_bike"}, {"fusion_lon": 0.0, "name": "9a4942b1c48bf51450ae9a9abc2789e2", "rental_uris": {"android": "https://dc.lft.to/lastmile_qr_scan", "ios": "https://dc.lft.to/lastmile_qr_scan"}, "lat": 38.900657333333335, "bike_id": "9a4942b1c48bf51450ae9a9abc2789e2", "is_disabled": 0, "lon": -76.92747016666667, "is_reserved": 0, "fusion_lat": 0.0, "type": "electric_scooter"}, {"fusion_lon": 0.0, "name": "f93a50a22a04ab5a50e0a466aaebce31", "rental_uris": {"android": "https://dc.lft.to/lastmile_qr_scan", "ios": "https://dc.lft.to/lastmile_qr_scan"}, "lat": 38.878616, "bike_id": "f93a50a22a04ab5a50e0a466aaebce31", "is_disabled": 0, "lon": -76.99164866666666, "is_reserved": 0, "fusion_lat": 0.0, "type": "electric_scooter"}, {"fusion_lon": 0.0, "name": "5c349e1a0990db34dee98815d53018b5", "rental_uris": {"android": "https://dc.lft.to/lastmile_qr_scan", "ios": "https://dc.lft.to/lastmile_qr_scan"}, "lat": 38.899518666666665, "bike_id": "5c349e1a0990db34dee98815d53018b5", "is_disabled": 0, "lon": -77.047878, "is_reserved": 0, "fusion_lat": 0.0, "type": "electric_scooter"}, {"fusion_lon": 0.0, "name": "c7944080a6ef7372bb3dc09f9ba11983", "rental_uris": {"android": "https://dc.lft.to/lastmile_qr_scan", "ios": "https://dc.lft.to/lastmile_qr_scan"}, "lat": 38.892262333333335, "bike_id": "c7944080a6ef7372bb3dc09f9ba11983", "is_disabled": 0, "lon": -77.00311833333333, "is_reserved": 0, "fusion_lat": 0.0, "type": "electric_scooter"}, {"fusion_lon": 0.0, "name": "25fc050a7dc1c0c9c803175863994395", "rental_uris": {"android": "https://dc.lft.to/lastmile_qr_scan", "ios": "https://dc.lft.to/lastmile_qr_scan"}, "lat": 38.89888466666667, "bike_id": "25fc050a7dc1c0c9c803175863994395", "is_disabled": 0, "lon": -77.032711, "is_reserved": 0, "fusion_lat": 0.0, "type": "electric_scooter"}, {"fusion_lon": 0.0, "name": "a0baee50e80e8c97addc72330125a133", "rental_uris": {"android": "https://dc.lft.to/lastmile_qr_scan", "ios": "https://dc.lft.to/lastmile_qr_scan"}, "lat": 38.9612225, "bike_id": "a0baee50e80e8c97addc72330125a133", "is_disabled": 0, "lon": -77.02789783333333, "is_reserved": 0, "fusion_lat": 0.0, "type": "electric_scooter"}, {"fusion_lon": 0.0, "name": "5ef41f6132c0ce00dfd5b004b8c5125a", "rental_uris": {"android": "https://dc.lft.to/lastmile_qr_scan", "ios": "https://dc.lft.to/lastmile_qr_scan"}, "lat": 38.93521616666666, "bike_id": "5ef41f6132c0ce00dfd5b004b8c5125a", "is_disabled": 0, "lon": -77.02849233333333, "is_reserved": 0, "fusion_lat": 0.0, "type": "electric_scooter"}, {"fusion_lon": 0.0, "name": "b81d7a37319fa2d0b98c93324e599dea", "rental_uris": {"android": "https://dc.lft.to/lastmile_qr_scan", "ios": "https://dc.lft.to/lastmile_qr_scan"}, "lat": 38.89748816666667, "bike_id": "b81d7a37319fa2d0b98c93324e599dea", "is_disabled": 0, "lon": -77.02602566666667, "is_reserved": 0, "fusion_lat": 0.0, "type": "electric_scooter"}, {"fusion_lon": 0.0, "name": "b925bf2051325aa385c4b4c9a39180c7", "rental_uris": {"android": "https://dc.lft.to/lastmile_qr_scan", "ios": "https://dc.lft.to/lastmile_qr_scan"}, "lat": 38.905571333333334, "bike_id": "b925bf2051325aa385c4b4c9a39180c7", "is_disabled": 0, "lon": -77.00557766666667, "is_reserved": 0, "fusion_lat": 0.0, "type": "electric_scooter"}, {"fusion_lon": 0.0, "name": "0ca933d029ad4fed97c72016b32f5f38", "rental_uris": {"android": "https://dc.lft.to/lastmile_qr_scan", "ios": "https://dc.lft.to/lastmile_qr_scan"}, "lat": 38.91951016666667, "bike_id": "0ca933d029ad4fed97c72016b32f5f38", "is_disabled": 0, "lon": -77.0178405, "is_reserved": 0, "fusion_lat": 0.0, "type": "electric_scooter"}, {"fusion_lon": 0.0, "name": "ce74e9d8e223d9a44d9789e85c857e40", "rental_uris": {"android": "https://dc.lft.to/lastmile_qr_scan", "ios": "https://dc.lft.to/lastmile_qr_scan"}, "lat": 38.918, "bike_id": "ce74e9d8e223d9a44d9789e85c857e40", "is_disabled": 0, "lon": -77.0344185, "is_reserved": 0, "fusion_lat": 0.0, "type": "electric_scooter"}, {"fusion_lon": 0.0, "name": "6525c2eaaae2efa8aff129ed3a9ccd6b", "rental_uris": {"android": "https://dc.lft.to/lastmile_qr_scan", "ios": "https://dc.lft.to/lastmile_qr_scan"}, "lat": 38.92931866666667, "bike_id": "6525c2eaaae2efa8aff129ed3a9ccd6b", "is_disabled": 0, "lon": -76.99577733333334, "is_reserved": 0, "fusion_lat": 0.0, "type": "electric_scooter"}, {"fusion_lon": 0.0, "name": "b3ae6e95718dcda1ac589649ab139ef2", "rental_uris": {"android": "https://dc.lft.to/lastmile_qr_scan", "ios": "https://dc.lft.to/lastmile_qr_scan"}, "lat": 38.89621666666667, "bike_id": "b3ae6e95718dcda1ac589649ab139ef2", "is_disabled": 0, "lon": -77.01169616666667, "is_reserved": 0, "fusion_lat": 0.0, "type": "electric_scooter"}, {"fusion_lon": 0.0, "name": "45fa7c7dba55baf439cb705ee9a7fb57", "rental_uris": {"android": "https://dc.lft.to/lastmile_qr_scan", "ios": "https://dc.lft.to/lastmile_qr_scan"}, "lat": 38.87632383333333, "bike_id": "45fa7c7dba55baf439cb705ee9a7fb57", "is_disabled": 0, "lon": -77.01655916666667, "is_reserved": 0, "fusion_lat": 0.0, "type": "electric_scooter"}, {"fusion_lon": 0.0, "name": "86d9e88d012750ebb34ec719d4192b5e", "rental_uris": {"android": "https://dc.lft.to/lastmile_qr_scan", "ios": "https://dc.lft.to/lastmile_qr_scan"}, "lat": 38.838130666666665, "bike_id": "86d9e88d012750ebb34ec719d4192b5e", "is_disabled": 0, "lon": -77.09523766666666, "is_reserved": 0, "fusion_lat": 0.0, "type": "electric_bike"}, {"fusion_lon": 0.0, "name": "bb7e24efeb7d21ede6656a8d8bc4b58f", "rental_uris": {"android": "https://dc.lft.to/lastmile_qr_scan", "ios": "https://dc.lft.to/lastmile_qr_scan"}, "lat": 38.90053183333333, "bike_id": "bb7e24efeb7d21ede6656a8d8bc4b58f", "is_disabled": 0, "lon": -76.98487866666666, "is_reserved": 0, "fusion_lat": 0.0, "type": "electric_scooter"}, {"fusion_lon": 0.0, "name": "540e2e310a68b84ed501bdc83478f65f", "rental_uris": {"android": "https://dc.lft.to/lastmile_qr_scan", "ios": "https://dc.lft.to/lastmile_qr_scan"}, "lat": 38.891758833333334, "bike_id": "540e2e310a68b84ed501bdc83478f65f", "is_disabled": 0, "lon": -76.942611, "is_reserved": 0, "fusion_lat": 0.0, "type": "electric_scooter"}, {"fusion_lon": 0.0, "name": "ddfa7667f2d56ab3c8921b63b7aac325", "rental_uris": {"android": "https://dc.lft.to/lastmile_qr_scan", "ios": "https://dc.lft.to/lastmile_qr_scan"}, "lat": 38.904532833333334, "bike_id": "ddfa7667f2d56ab3c8921b63b7aac325", "is_disabled": 0, "lon": -77.02599666666667, "is_reserved": 0, "fusion_lat": 0.0, "type": "electric_scooter"}, {"fusion_lon": 0.0, "name": "93c72639f3e145fdce5ec55b0165fc21", "rental_uris": {"android": "https://dc.lft.to/lastmile_qr_scan", "ios": "https://dc.lft.to/lastmile_qr_scan"}, "lat": 38.924712, "bike_id": "93c72639f3e145fdce5ec55b0165fc21", "is_disabled": 0, "lon": -77.039495, "is_reserved": 0, "fusion_lat": 0.0, "type": "electric_scooter"}, {"fusion_lon": 0.0, "name": "9acdd6b1437fa0c9459f372d58773a50", "rental_uris": {"android": "https://dc.lft.to/lastmile_qr_scan", "ios": "https://dc.lft.to/lastmile_qr_scan"}, "lat": 38.93526766666667, "bike_id": "9acdd6b1437fa0c9459f372d58773a50", "is_disabled": 0, "lon": -77.0325765, "is_reserved": 0, "fusion_lat": 0.0, "type": "electric_scooter"}, {"fusion_lon": 0.0, "name": "037b30fce0e7812316961349891df14f", "rental_uris": {"android": "https://dc.lft.to/lastmile_qr_scan", "ios": "https://dc.lft.to/lastmile_qr_scan"}, "lat": 38.89224983333333, "bike_id": "037b30fce0e7812316961349891df14f", "is_disabled": 0, "lon": -77.01725766666667, "is_reserved": 0, "fusion_lat": 0.0, "type": "electric_scooter"}, {"fusion_lon": 0.0, "name": "ef6443643ef5980ef3ea0f29e114e9df", "rental_uris": {"android": "https://dc.lft.to/lastmile_qr_scan", "ios": "https://dc.lft.to/lastmile_qr_scan"}, "lat": 38.9480345, "bike_id": "ef6443643ef5980ef3ea0f29e114e9df", "is_disabled": 0, "lon": -76.95973733333334, "is_reserved": 0, "fusion_lat": 0.0, "type": "electric_bike"}, {"fusion_lon": 0.0, "name": "4f834068c43cbda8186736ad67cc62f9", "rental_uris": {"android": "https://dc.lft.to/lastmile_qr_scan", "ios": "https://dc.lft.to/lastmile_qr_scan"}, "lat": 38.9236555, "bike_id": "4f834068c43cbda8186736ad67cc62f9", "is_disabled": 0, "lon": -77.01959783333334, "is_reserved": 0, "fusion_lat": 0.0, "type": "electric_scooter"}, {"fusion_lon": 0.0, "name": "d175c152ea51b975c711f28d1bfb8ff6", "rental_uris": {"android": "https://dc.lft.to/lastmile_qr_scan", "ios": "https://dc.lft.to/lastmile_qr_scan"}, "lat": 38.877376166666664, "bike_id": "d175c152ea51b975c711f28d1bfb8ff6", "is_disabled": 0, "lon": -76.99487366666666, "is_reserved": 0, "fusion_lat": 0.0, "type": "electric_scooter"}, {"fusion_lon": 0.0, "name": "c4d30a781b005e7d743c8d4755c2f63e", "rental_uris": {"android": "https://dc.lft.to/lastmile_qr_scan", "ios": "https://dc.lft.to/lastmile_qr_scan"}, "lat": 38.878399333333334, "bike_id": "c4d30a781b005e7d743c8d4755c2f63e", "is_disabled": 0, "lon": -77.01970083333333, "is_reserved": 0, "fusion_lat": 0.0, "type": "electric_scooter"}, {"fusion_lon": 0.0, "name": "7d84d9725d6ae81c335181340f445d35", "rental_uris": {"android": "https://dc.lft.to/lastmile_qr_scan", "ios": "https://dc.lft.to/lastmile_qr_scan"}, "lat": 38.90998183333333, "bike_id": "7d84d9725d6ae81c335181340f445d35", "is_disabled": 0, "lon": -77.0318935, "is_reserved": 0, "fusion_lat": 0.0, "type": "electric_scooter"}, {"fusion_lon": 0.0, "name": "a3e0e2bab3fccca6419d9168d7ff01a9", "rental_uris": {"android": "https://dc.lft.to/lastmile_qr_scan", "ios": "https://dc.lft.to/lastmile_qr_scan"}, "lat": 38.919149166666664, "bike_id": "a3e0e2bab3fccca6419d9168d7ff01a9", "is_disabled": 0, "lon": -77.04467016666666, "is_reserved": 0, "fusion_lat": 0.0, "type": "electric_scooter"}, {"fusion_lon": 0.0, "name": "451aeb258d2a6965012aba7524554af8", "rental_uris": {"android": "https://dc.lft.to/lastmile_qr_scan", "ios": "https://dc.lft.to/lastmile_qr_scan"}, "lat": 38.90579133333333, "bike_id": "451aeb258d2a6965012aba7524554af8", "is_disabled": 0, "lon": -77.03069083333334, "is_reserved": 0, "fusion_lat": 0.0, "type": "electric_scooter"}, {"fusion_lon": 0.0, "name": "be42c18c2aa1f8d446e6c057c24f0a8b", "rental_uris": {"android": "https://dc.lft.to/lastmile_qr_scan", "ios": "https://dc.lft.to/lastmile_qr_scan"}, "lat": 38.90665683333334, "bike_id": "be42c18c2aa1f8d446e6c057c24f0a8b", "is_disabled": 0, "lon": -77.0294335, "is_reserved": 0, "fusion_lat": 0.0, "type": "electric_scooter"}, {"fusion_lon": 0.0, "name": "d16162f8b9182f48227b4435e5858324", "rental_uris": {"android": "https://dc.lft.to/lastmile_qr_scan", "ios": "https://dc.lft.to/lastmile_qr_scan"}, "lat": 38.90062, "bike_id": "d16162f8b9182f48227b4435e5858324", "is_disabled": 0, "lon": -77.04879166666667, "is_reserved": 0, "fusion_lat": 0.0, "type": "electric_scooter"}, {"fusion_lon": 0.0, "name": "766e056ea3e58e3568c046e010d35698", "rental_uris": {"android": "https://dc.lft.to/lastmile_qr_scan", "ios": "https://dc.lft.to/lastmile_qr_scan"}, "lat": 38.908569166666666, "bike_id": "766e056ea3e58e3568c046e010d35698", "is_disabled": 0, "lon": -77.04352833333333, "is_reserved": 0, "fusion_lat": 0.0, "type": "electric_scooter"}, {"fusion_lon": 0.0, "name": "94bdcb733d99a38909dfda8c95b7a664", "rental_uris": {"android": "https://dc.lft.to/lastmile_qr_scan", "ios": "https://dc.lft.to/lastmile_qr_scan"}, "lat": 38.889872833333335, "bike_id": "94bdcb733d99a38909dfda8c95b7a664", "is_disabled": 0, "lon": -76.92109166666667, "is_reserved": 0, "fusion_lat": 0.0, "type": "electric_scooter"}, {"fusion_lon": 0.0, "name": "4ad7c65b3ab3737b6b4c9761f62994f4", "rental_uris": {"android": "https://dc.lft.to/lastmile_qr_scan", "ios": "https://dc.lft.to/lastmile_qr_scan"}, "lat": 38.887327, "bike_id": "4ad7c65b3ab3737b6b4c9761f62994f4", "is_disabled": 0, "lon": -77.01342116666666, "is_reserved": 0, "fusion_lat": 0.0, "type": "electric_scooter"}, {"fusion_lon": 0.0, "name": "98063c9739f8eb2c6c5ffce990ca49c7", "rental_uris": {"android": "https://dc.lft.to/lastmile_qr_scan", "ios": "https://dc.lft.to/lastmile_qr_scan"}, "lat": 38.89456916666666, "bike_id": "98063c9739f8eb2c6c5ffce990ca49c7", "is_disabled": 0, "lon": -77.19133666666667, "is_reserved": 0, "fusion_lat": 0.0, "type": "electric_bike"}, {"fusion_lon": 0.0, "name": "1a0c00727c79c519c2d5c0aaf7333e19", "rental_uris": {"android": "https://dc.lft.to/lastmile_qr_scan", "ios": "https://dc.lft.to/lastmile_qr_scan"}, "lat": 38.90139833333333, "bike_id": "1a0c00727c79c519c2d5c0aaf7333e19", "is_disabled": 0, "lon": -76.9896665, "is_reserved": 0, "fusion_lat": 0.0, "type": "electric_scooter"}, {"fusion_lon": 0.0, "name": "083b05b188a23bb24a0a5305629b71b4", "rental_uris": {"android": "https://dc.lft.to/lastmile_qr_scan", "ios": "https://dc.lft.to/lastmile_qr_scan"}, "lat": 38.916252666666665, "bike_id": "083b05b188a23bb24a0a5305629b71b4", "is_disabled": 0, "lon": -77.0349855, "is_reserved": 0, "fusion_lat": 0.0, "type": "electric_scooter"}, {"fusion_lon": 0.0, "name": "e9e7594892a6ec3a49b2809d1d4e75f0", "rental_uris": {"android": "https://dc.lft.to/lastmile_qr_scan", "ios": "https://dc.lft.to/lastmile_qr_scan"}, "lat": 38.928128666666666, "bike_id": "e9e7594892a6ec3a49b2809d1d4e75f0", "is_disabled": 0, "lon": -77.01949916666666, "is_reserved": 0, "fusion_lat": 0.0, "type": "electric_scooter"}, {"fusion_lon": 0.0, "name": "128834bfa33773bc7080821ac575c2f4", "rental_uris": {"android": "https://dc.lft.to/lastmile_qr_scan", "ios": "https://dc.lft.to/lastmile_qr_scan"}, "lat": 38.8988485, "bike_id": "128834bfa33773bc7080821ac575c2f4", "is_disabled": 0, "lon": -76.93176483333333, "is_reserved": 0, "fusion_lat": 0.0, "type": "electric_scooter"}, {"fusion_lon": 0.0, "name": "53bc63d7582e1b7d1e51a849ea8c26de", "rental_uris": {"android": "https://dc.lft.to/lastmile_qr_scan", "ios": "https://dc.lft.to/lastmile_qr_scan"}, "lat": 38.89565433333333, "bike_id": "53bc63d7582e1b7d1e51a849ea8c26de", "is_disabled": 0, "lon": -77.01117516666666, "is_reserved": 0, "fusion_lat": 0.0, "type": "electric_scooter"}, {"fusion_lon": 0.0, "name": "e45b8c9108db177affec99f2c39f3bf8", "rental_uris": {"android": "https://dc.lft.to/lastmile_qr_scan", "ios": "https://dc.lft.to/lastmile_qr_scan"}, "lat": 38.964815333333334, "bike_id": "e45b8c9108db177affec99f2c39f3bf8", "is_disabled": 0, "lon": -77.031678, "is_reserved": 0, "fusion_lat": 0.0, "type": "electric_bike"}, {"fusion_lon": 0.0, "name": "a943046a470a117faa24e7b9f7e125c0", "rental_uris": {"android": "https://dc.lft.to/lastmile_qr_scan", "ios": "https://dc.lft.to/lastmile_qr_scan"}, "lat": 38.91252733333334, "bike_id": "a943046a470a117faa24e7b9f7e125c0", "is_disabled": 0, "lon": -77.011537, "is_reserved": 0, "fusion_lat": 0.0, "type": "electric_scooter"}, {"fusion_lon": 0.0, "name": "6be5fd1466e2821d73c03f4f7f821f01", "rental_uris": {"android": "https://dc.lft.to/lastmile_qr_scan", "ios": "https://dc.lft.to/lastmile_qr_scan"}, "lat": 38.893459666666665, "bike_id": "6be5fd1466e2821d73c03f4f7f821f01", "is_disabled": 0, "lon": -76.95249816666667, "is_reserved": 0, "fusion_lat": 0.0, "type": "electric_scooter"}, {"fusion_lon": 0.0, "name": "0ca206364622482dfbc72e10311ef395", "rental_uris": {"android": "https://dc.lft.to/lastmile_qr_scan", "ios": "https://dc.lft.to/lastmile_qr_scan"}, "lat": 38.919127333333336, "bike_id": "0ca206364622482dfbc72e10311ef395", "is_disabled": 0, "lon": -77.03347083333334, "is_reserved": 0, "fusion_lat": 0.0, "type": "electric_scooter"}, {"fusion_lon": 0.0, "name": "f5804bb5ae920380728f0cb375a3b409", "rental_uris": {"android": "https://dc.lft.to/lastmile_qr_scan", "ios": "https://dc.lft.to/lastmile_qr_scan"}, "lat": 38.926146, "bike_id": "f5804bb5ae920380728f0cb375a3b409", "is_disabled": 0, "lon": -77.021625, "is_reserved": 0, "fusion_lat": 0.0, "type": "electric_scooter"}, {"fusion_lon": 0.0, "name": "0264c682a2e8a75395d0aa50d188cdee", "rental_uris": {"android": "https://dc.lft.to/lastmile_qr_scan", "ios": "https://dc.lft.to/lastmile_qr_scan"}, "lat": 38.90073, "bike_id": "0264c682a2e8a75395d0aa50d188cdee", "is_disabled": 0, "lon": -77.03359966666666, "is_reserved": 0, "fusion_lat": 0.0, "type": "electric_scooter"}, {"fusion_lon": 0.0, "name": "4bf33b7a4f4c9dba295c8492bd579bd8", "rental_uris": {"android": "https://dc.lft.to/lastmile_qr_scan", "ios": "https://dc.lft.to/lastmile_qr_scan"}, "lat": 38.911254, "bike_id": "4bf33b7a4f4c9dba295c8492bd579bd8", "is_disabled": 0, "lon": -77.0220085, "is_reserved": 0, "fusion_lat": 0.0, "type": "electric_scooter"}, {"fusion_lon": 0.0, "name": "022b0c6e7e3d30465de9c032d9008057", "rental_uris": {"android": "https://dc.lft.to/lastmile_qr_scan", "ios": "https://dc.lft.to/lastmile_qr_scan"}, "lat": 38.90337233333333, "bike_id": "022b0c6e7e3d30465de9c032d9008057", "is_disabled": 0, "lon": -76.982767, "is_reserved": 0, "fusion_lat": 0.0, "type": "electric_scooter"}, {"fusion_lon": 0.0, "name": "79b05813df3caf40e5634d375453b2f9", "rental_uris": {"android": "https://dc.lft.to/lastmile_qr_scan", "ios": "https://dc.lft.to/lastmile_qr_scan"}, "lat": 38.923453333333335, "bike_id": "79b05813df3caf40e5634d375453b2f9", "is_disabled": 0, "lon": -77.05472083333333, "is_reserved": 0, "fusion_lat": 0.0, "type": "electric_scooter"}, {"fusion_lon": 0.0, "name": "ae649c1b7612d4333be0a29accf99883", "rental_uris": {"android": "https://dc.lft.to/lastmile_qr_scan", "ios": "https://dc.lft.to/lastmile_qr_scan"}, "lat": 38.93547233333334, "bike_id": "ae649c1b7612d4333be0a29accf99883", "is_disabled": 0, "lon": -77.03426483333334, "is_reserved": 0, "fusion_lat": 0.0, "type": "electric_scooter"}, {"fusion_lon": 0.0, "name": "72ebfd66591250a8b4c5c76e2527a381", "rental_uris": {"android": "https://dc.lft.to/lastmile_qr_scan", "ios": "https://dc.lft.to/lastmile_qr_scan"}, "lat": 38.9225725, "bike_id": "72ebfd66591250a8b4c5c76e2527a381", "is_disabled": 0, "lon": -77.03071316666667, "is_reserved": 0, "fusion_lat": 0.0, "type": "electric_scooter"}, {"fusion_lon": 0.0, "name": "f9bd703395e5920ecaea281f9c1e5f3d", "rental_uris": {"android": "https://dc.lft.to/lastmile_qr_scan", "ios": "https://dc.lft.to/lastmile_qr_scan"}, "lat": 38.9297555, "bike_id": "f9bd703395e5920ecaea281f9c1e5f3d", "is_disabled": 0, "lon": -77.01966366666667, "is_reserved": 0, "fusion_lat": 0.0, "type": "electric_scooter"}, {"fusion_lon": 0.0, "name": "ca0ed0b4fa9594e0c959c87efce30da3", "rental_uris": {"android": "https://dc.lft.to/lastmile_qr_scan", "ios": "https://dc.lft.to/lastmile_qr_scan"}, "lat": 38.903856, "bike_id": "ca0ed0b4fa9594e0c959c87efce30da3", "is_disabled": 0, "lon": -77.06857066666667, "is_reserved": 0, "fusion_lat": 0.0, "type": "electric_scooter"}, {"fusion_lon": 0.0, "name": "ccff250846186177cad7527dd54e6d42", "rental_uris": {"android": "https://dc.lft.to/lastmile_qr_scan", "ios": "https://dc.lft.to/lastmile_qr_scan"}, "lat": 38.9178695, "bike_id": "ccff250846186177cad7527dd54e6d42", "is_disabled": 0, "lon": -77.0402885, "is_reserved": 0, "fusion_lat": 0.0, "type": "electric_scooter"}, {"fusion_lon": 0.0, "name": "dd41708c9717ba8a3e75027267440d80", "rental_uris": {"android": "https://dc.lft.to/lastmile_qr_scan", "ios": "https://dc.lft.to/lastmile_qr_scan"}, "lat": 38.9199225, "bike_id": "dd41708c9717ba8a3e75027267440d80", "is_disabled": 0, "lon": -77.07088116666667, "is_reserved": 0, "fusion_lat": 0.0, "type": "electric_scooter"}, {"fusion_lon": 0.0, "name": "b20443ac3965d1b670e91cd72a94c78f", "rental_uris": {"android": "https://dc.lft.to/lastmile_qr_scan", "ios": "https://dc.lft.to/lastmile_qr_scan"}, "lat": 38.92187966666667, "bike_id": "b20443ac3965d1b670e91cd72a94c78f", "is_disabled": 0, "lon": -77.03516816666667, "is_reserved": 0, "fusion_lat": 0.0, "type": "electric_scooter"}, {"fusion_lon": 0.0, "name": "36eae27acee8317a011c291f099dc118", "rental_uris": {"android": "https://dc.lft.to/lastmile_qr_scan", "ios": "https://dc.lft.to/lastmile_qr_scan"}, "lat": 38.9384975, "bike_id": "36eae27acee8317a011c291f099dc118", "is_disabled": 0, "lon": -77.02451, "is_reserved": 0, "fusion_lat": 0.0, "type": "electric_scooter"}, {"fusion_lon": 0.0, "name": "70c30f1670f3254d522cc00df24e8300", "rental_uris": {"android": "https://dc.lft.to/lastmile_qr_scan", "ios": "https://dc.lft.to/lastmile_qr_scan"}, "lat": 38.93702016666667, "bike_id": "70c30f1670f3254d522cc00df24e8300", "is_disabled": 0, "lon": -77.05598666666667, "is_reserved": 0, "fusion_lat": 0.0, "type": "electric_scooter"}, {"fusion_lon": 0.0, "name": "4bb21cd7010c13d7a532a627f5e3a59a", "rental_uris": {"android": "https://dc.lft.to/lastmile_qr_scan", "ios": "https://dc.lft.to/lastmile_qr_scan"}, "lat": 38.917201, "bike_id": "4bb21cd7010c13d7a532a627f5e3a59a", "is_disabled": 0, "lon": -77.02959316666667, "is_reserved": 0, "fusion_lat": 0.0, "type": "electric_scooter"}, {"fusion_lon": 0.0, "name": "8dc60fb1fff4758ddcc28f1c8c6e9e2c", "rental_uris": {"android": "https://dc.lft.to/lastmile_qr_scan", "ios": "https://dc.lft.to/lastmile_qr_scan"}, "lat": 38.923466166666664, "bike_id": "8dc60fb1fff4758ddcc28f1c8c6e9e2c", "is_disabled": 0, "lon": -77.05420883333333, "is_reserved": 0, "fusion_lat": 0.0, "type": "electric_scooter"}, {"fusion_lon": 0.0, "name": "0d22e310e2e73caaa1a3758f64125e9e", "rental_uris": {"android": "https://dc.lft.to/lastmile_qr_scan", "ios": "https://dc.lft.to/lastmile_qr_scan"}, "lat": 38.82847866666667, "bike_id": "0d22e310e2e73caaa1a3758f64125e9e", "is_disabled": 0, "lon": -77.05902116666667, "is_reserved": 0, "fusion_lat": 0.0, "type": "electric_bike"}, {"fusion_lon": 0.0, "name": "b773b57211888286a75426cbe492a603", "rental_uris": {"android": "https://dc.lft.to/lastmile_qr_scan", "ios": "https://dc.lft.to/lastmile_qr_scan"}, "lat": 38.899038166666664, "bike_id": "b773b57211888286a75426cbe492a603", "is_disabled": 0, "lon": -76.98834166666667, "is_reserved": 0, "fusion_lat": 0.0, "type": "electric_scooter"}, {"fusion_lon": 0.0, "name": "826812ed576fbd1f1b149a46158743bc", "rental_uris": {"android": "https://dc.lft.to/lastmile_qr_scan", "ios": "https://dc.lft.to/lastmile_qr_scan"}, "lat": 38.923571, "bike_id": "826812ed576fbd1f1b149a46158743bc", "is_disabled": 0, "lon": -77.07636633333334, "is_reserved": 0, "fusion_lat": 0.0, "type": "electric_scooter"}, {"fusion_lon": 0.0, "name": "b5bebeb87b4619d42280aa82bebe7554", "rental_uris": {"android": "https://dc.lft.to/lastmile_qr_scan", "ios": "https://dc.lft.to/lastmile_qr_scan"}, "lat": 38.9170185, "bike_id": "b5bebeb87b4619d42280aa82bebe7554", "is_disabled": 0, "lon": -77.036252, "is_reserved": 0, "fusion_lat": 0.0, "type": "electric_scooter"}, {"fusion_lon": 0.0, "name": "350b47a5bfa3dbc237a3b907a12663f1", "rental_uris": {"android": "https://dc.lft.to/lastmile_qr_scan", "ios": "https://dc.lft.to/lastmile_qr_scan"}, "lat": 38.9262855, "bike_id": "350b47a5bfa3dbc237a3b907a12663f1", "is_disabled": 0, "lon": -77.03503416666666, "is_reserved": 0, "fusion_lat": 0.0, "type": "electric_scooter"}, {"fusion_lon": 0.0, "name": "f190b119dec2c8898a6e6f236bfd22f3", "rental_uris": {"android": "https://dc.lft.to/lastmile_qr_scan", "ios": "https://dc.lft.to/lastmile_qr_scan"}, "lat": 38.91637166666667, "bike_id": "f190b119dec2c8898a6e6f236bfd22f3", "is_disabled": 0, "lon": -77.01033133333334, "is_reserved": 0, "fusion_lat": 0.0, "type": "electric_scooter"}, {"fusion_lon": 0.0, "name": "0e4b898db2ae99e773882fd438a85265", "rental_uris": {"android": "https://dc.lft.to/lastmile_qr_scan", "ios": "https://dc.lft.to/lastmile_qr_scan"}, "lat": 38.9014335, "bike_id": "0e4b898db2ae99e773882fd438a85265", "is_disabled": 0, "lon": -77.02185583333333, "is_reserved": 0, "fusion_lat": 0.0, "type": "electric_scooter"}, {"fusion_lon": 0.0, "name": "f293959dbf69efb878d4a761d7bf6cc6", "rental_uris": {"android": "https://dc.lft.to/lastmile_qr_scan", "ios": "https://dc.lft.to/lastmile_qr_scan"}, "lat": 38.876937833333336, "bike_id": "f293959dbf69efb878d4a761d7bf6cc6", "is_disabled": 0, "lon": -77.0005625, "is_reserved": 0, "fusion_lat": 0.0, "type": "electric_scooter"}, {"fusion_lon": 0.0, "name": "c773c563f2330473619100910e7e5b15", "rental_uris": {"android": "https://dc.lft.to/lastmile_qr_scan", "ios": "https://dc.lft.to/lastmile_qr_scan"}, "lat": 38.911164666666664, "bike_id": "c773c563f2330473619100910e7e5b15", "is_disabled": 0, "lon": -77.03836266666667, "is_reserved": 0, "fusion_lat": 0.0, "type": "electric_scooter"}, {"fusion_lon": 0.0, "name": "2e579e642e3666f9fa8d93c6df519e8b", "rental_uris": {"android": "https://dc.lft.to/lastmile_qr_scan", "ios": "https://dc.lft.to/lastmile_qr_scan"}, "lat": 38.88966083333333, "bike_id": "2e579e642e3666f9fa8d93c6df519e8b", "is_disabled": 0, "lon": -76.9273655, "is_reserved": 0, "fusion_lat": 0.0, "type": "electric_scooter"}, {"fusion_lon": 0.0, "name": "26c7d36e3cc57ec8376eec4cddec39f8", "rental_uris": {"android": "https://dc.lft.to/lastmile_qr_scan", "ios": "https://dc.lft.to/lastmile_qr_scan"}, "lat": 38.9185715, "bike_id": "26c7d36e3cc57ec8376eec4cddec39f8", "is_disabled": 0, "lon": -77.044754, "is_reserved": 0, "fusion_lat": 0.0, "type": "electric_scooter"}, {"fusion_lon": 0.0, "name": "537b0a46bc69032bd32a97c0dec15763", "rental_uris": {"android": "https://dc.lft.to/lastmile_qr_scan", "ios": "https://dc.lft.to/lastmile_qr_scan"}, "lat": 38.9180165, "bike_id": "537b0a46bc69032bd32a97c0dec15763", "is_disabled": 0, "lon": -77.0333665, "is_reserved": 0, "fusion_lat": 0.0, "type": "electric_scooter"}, {"fusion_lon": 0.0, "name": "56970c1e892ee982e5ea74b9bb1bd766", "rental_uris": {"android": "https://dc.lft.to/lastmile_qr_scan", "ios": "https://dc.lft.to/lastmile_qr_scan"}, "lat": 38.8988395, "bike_id": "56970c1e892ee982e5ea74b9bb1bd766", "is_disabled": 0, "lon": -77.02170916666667, "is_reserved": 0, "fusion_lat": 0.0, "type": "electric_scooter"}, {"fusion_lon": 0.0, "name": "3a9335be057f5946ecb3d4e644f8858e", "rental_uris": {"android": "https://dc.lft.to/lastmile_qr_scan", "ios": "https://dc.lft.to/lastmile_qr_scan"}, "lat": 38.928515166666664, "bike_id": "3a9335be057f5946ecb3d4e644f8858e", "is_disabled": 0, "lon": -77.01415483333334, "is_reserved": 0, "fusion_lat": 0.0, "type": "electric_scooter"}, {"fusion_lon": 0.0, "name": "ff543f7a1011b413f41691d1cc86a212", "rental_uris": {"android": "https://dc.lft.to/lastmile_qr_scan", "ios": "https://dc.lft.to/lastmile_qr_scan"}, "lat": 38.91566383333333, "bike_id": "ff543f7a1011b413f41691d1cc86a212", "is_disabled": 0, "lon": -77.06788633333333, "is_reserved": 0, "fusion_lat": 0.0, "type": "electric_scooter"}, {"fusion_lon": 0.0, "name": "67680d08512f9de4a58052a6e849ad68", "rental_uris": {"android": "https://dc.lft.to/lastmile_qr_scan", "ios": "https://dc.lft.to/lastmile_qr_scan"}, "lat": 38.90423466666667, "bike_id": "67680d08512f9de4a58052a6e849ad68", "is_disabled": 0, "lon": -77.043547, "is_reserved": 0, "fusion_lat": 0.0, "type": "electric_scooter"}, {"fusion_lon": 0.0, "name": "90050680d84c8911910c8fc8b757cc9d", "rental_uris": {"android": "https://dc.lft.to/lastmile_qr_scan", "ios": "https://dc.lft.to/lastmile_qr_scan"}, "lat": 38.92788216666667, "bike_id": "90050680d84c8911910c8fc8b757cc9d", "is_disabled": 0, "lon": -77.05333466666667, "is_reserved": 0, "fusion_lat": 0.0, "type": "electric_scooter"}, {"fusion_lon": 0.0, "name": "e78b3a9d3690a4b4984eca226f48d60d", "rental_uris": {"android": "https://dc.lft.to/lastmile_qr_scan", "ios": "https://dc.lft.to/lastmile_qr_scan"}, "lat": 38.909872666666665, "bike_id": "e78b3a9d3690a4b4984eca226f48d60d", "is_disabled": 0, "lon": -77.02206966666667, "is_reserved": 0, "fusion_lat": 0.0, "type": "electric_scooter"}, {"fusion_lon": 0.0, "name": "744ed141fd76a1767c792ec2a3d3e848", "rental_uris": {"android": "https://dc.lft.to/lastmile_qr_scan", "ios": "https://dc.lft.to/lastmile_qr_scan"}, "lat": 38.886916666666664, "bike_id": "744ed141fd76a1767c792ec2a3d3e848", "is_disabled": 0, "lon": -76.97637016666667, "is_reserved": 0, "fusion_lat": 0.0, "type": "electric_scooter"}, {"fusion_lon": 0.0, "name": "1930308c8a979cac0d933f9d1b5d5eac", "rental_uris": {"android": "https://dc.lft.to/lastmile_qr_scan", "ios": "https://dc.lft.to/lastmile_qr_scan"}, "lat": 38.90028133333333, "bike_id": "1930308c8a979cac0d933f9d1b5d5eac", "is_disabled": 0, "lon": -77.03626216666666, "is_reserved": 0, "fusion_lat": 0.0, "type": "electric_scooter"}, {"fusion_lon": 0.0, "name": "cff809fb24b033bf6ef2fe579b774c92", "rental_uris": {"android": "https://dc.lft.to/lastmile_qr_scan", "ios": "https://dc.lft.to/lastmile_qr_scan"}, "lat": 38.90957916666667, "bike_id": "cff809fb24b033bf6ef2fe579b774c92", "is_disabled": 0, "lon": -77.02280416666666, "is_reserved": 0, "fusion_lat": 0.0, "type": "electric_scooter"}, {"fusion_lon": 0.0, "name": "fc281cde3970cdd68b338d0f9134ce31", "rental_uris": {"android": "https://dc.lft.to/lastmile_qr_scan", "ios": "https://dc.lft.to/lastmile_qr_scan"}, "lat": 38.914198666666664, "bike_id": "fc281cde3970cdd68b338d0f9134ce31", "is_disabled": 0, "lon": -77.040011, "is_reserved": 0, "fusion_lat": 0.0, "type": "electric_scooter"}, {"fusion_lon": 0.0, "name": "0a80607cee3247d9c14ea5392e3879b7", "rental_uris": {"android": "https://dc.lft.to/lastmile_qr_scan", "ios": "https://dc.lft.to/lastmile_qr_scan"}, "lat": 38.89926666666667, "bike_id": "0a80607cee3247d9c14ea5392e3879b7", "is_disabled": 0, "lon": -77.04571516666667, "is_reserved": 0, "fusion_lat": 0.0, "type": "electric_scooter"}, {"fusion_lon": 0.0, "name": "066e2acbc36ccded8db0dc21cbd674a8", "rental_uris": {"android": "https://dc.lft.to/lastmile_qr_scan", "ios": "https://dc.lft.to/lastmile_qr_scan"}, "lat": 38.89531616666667, "bike_id": "066e2acbc36ccded8db0dc21cbd674a8", "is_disabled": 0, "lon": -76.99233166666667, "is_reserved": 0, "fusion_lat": 0.0, "type": "electric_scooter"}, {"fusion_lon": 0.0, "name": "0f4ff5609218b5953d2966060a24fea1", "rental_uris": {"android": "https://dc.lft.to/lastmile_qr_scan", "ios": "https://dc.lft.to/lastmile_qr_scan"}, "lat": 38.944968333333335, "bike_id": "0f4ff5609218b5953d2966060a24fea1", "is_disabled": 0, "lon": -77.06382216666667, "is_reserved": 0, "fusion_lat": 0.0, "type": "electric_scooter"}, {"fusion_lon": 0.0, "name": "99362fbae5f0040450697b48763bc895", "rental_uris": {"android": "https://dc.lft.to/lastmile_qr_scan", "ios": "https://dc.lft.to/lastmile_qr_scan"}, "lat": 38.91570466666667, "bike_id": "99362fbae5f0040450697b48763bc895", "is_disabled": 0, "lon": -77.04453166666667, "is_reserved": 0, "fusion_lat": 0.0, "type": "electric_scooter"}, {"fusion_lon": 0.0, "name": "8e052de99dd6432ff8d2240c324d6657", "rental_uris": {"android": "https://dc.lft.to/lastmile_qr_scan", "ios": "https://dc.lft.to/lastmile_qr_scan"}, "lat": 38.91263083333333, "bike_id": "8e052de99dd6432ff8d2240c324d6657", "is_disabled": 0, "lon": -76.97205683333334, "is_reserved": 0, "fusion_lat": 0.0, "type": "electric_scooter"}, {"fusion_lon": 0.0, "name": "ba3d5e181e1bf5781dde3233f8a123b1", "rental_uris": {"android": "https://dc.lft.to/lastmile_qr_scan", "ios": "https://dc.lft.to/lastmile_qr_scan"}, "lat": 38.913174833333336, "bike_id": "ba3d5e181e1bf5781dde3233f8a123b1", "is_disabled": 0, "lon": -77.02272333333333, "is_reserved": 0, "fusion_lat": 0.0, "type": "electric_scooter"}, {"fusion_lon": 0.0, "name": "4878cd620b96278ee5b6ff898a0a880a", "rental_uris": {"android": "https://dc.lft.to/lastmile_qr_scan", "ios": "https://dc.lft.to/lastmile_qr_scan"}, "lat": 38.9391215, "bike_id": "4878cd620b96278ee5b6ff898a0a880a", "is_disabled": 0, "lon": -77.03265283333333, "is_reserved": 0, "fusion_lat": 0.0, "type": "electric_scooter"}, {"fusion_lon": 0.0, "name": "01c8d73caa9c8e4646589b5c858b5ce6", "rental_uris": {"android": "https://dc.lft.to/lastmile_qr_scan", "ios": "https://dc.lft.to/lastmile_qr_scan"}, "lat": 38.894206, "bike_id": "01c8d73caa9c8e4646589b5c858b5ce6", "is_disabled": 0, "lon": -76.99771416666667, "is_reserved": 0, "fusion_lat": 0.0, "type": "electric_scooter"}, {"fusion_lon": 0.0, "name": "96b920ae6a61ce888e3238d485ae166e", "rental_uris": {"android": "https://dc.lft.to/lastmile_qr_scan", "ios": "https://dc.lft.to/lastmile_qr_scan"}, "lat": 38.892188833333336, "bike_id": "96b920ae6a61ce888e3238d485ae166e", "is_disabled": 0, "lon": -77.04368233333334, "is_reserved": 0, "fusion_lat": 0.0, "type": "electric_scooter"}, {"fusion_lon": 0.0, "name": "56e4487d2f280db10dfb72dac982f1d2", "rental_uris": {"android": "https://dc.lft.to/lastmile_qr_scan", "ios": "https://dc.lft.to/lastmile_qr_scan"}, "lat": 38.93110566666667, "bike_id": "56e4487d2f280db10dfb72dac982f1d2", "is_disabled": 0, "lon": -77.035087, "is_reserved": 0, "fusion_lat": 0.0, "type": "electric_scooter"}, {"fusion_lon": 0.0, "name": "a059d7025a50fce51305212d9cd6d4ae", "rental_uris": {"android": "https://dc.lft.to/lastmile_qr_scan", "ios": "https://dc.lft.to/lastmile_qr_scan"}, "lat": 38.90999266666667, "bike_id": "a059d7025a50fce51305212d9cd6d4ae", "is_disabled": 0, "lon": -77.0400865, "is_reserved": 0, "fusion_lat": 0.0, "type": "electric_scooter"}, {"fusion_lon": 0.0, "name": "e705868604886ad9db8055a1b2cf96f4", "rental_uris": {"android": "https://dc.lft.to/lastmile_qr_scan", "ios": "https://dc.lft.to/lastmile_qr_scan"}, "lat": 38.912586166666664, "bike_id": "e705868604886ad9db8055a1b2cf96f4", "is_disabled": 0, "lon": -77.04556583333333, "is_reserved": 0, "fusion_lat": 0.0, "type": "electric_scooter"}, {"fusion_lon": 0.0, "name": "2820b7a2a2d36173948c7c9c8655c826", "rental_uris": {"android": "https://dc.lft.to/lastmile_qr_scan", "ios": "https://dc.lft.to/lastmile_qr_scan"}, "lat": 38.8005415, "bike_id": "2820b7a2a2d36173948c7c9c8655c826", "is_disabled": 0, "lon": -77.1283685, "is_reserved": 0, "fusion_lat": 0.0, "type": "electric_bike"}, {"fusion_lon": 0.0, "name": "5a8c0dbb8a2dd68faa3f4d3a775c72d2", "rental_uris": {"android": "https://dc.lft.to/lastmile_qr_scan", "ios": "https://dc.lft.to/lastmile_qr_scan"}, "lat": 38.90044566666667, "bike_id": "5a8c0dbb8a2dd68faa3f4d3a775c72d2", "is_disabled": 0, "lon": -77.002094, "is_reserved": 0, "fusion_lat": 0.0, "type": "electric_scooter"}, {"fusion_lon": 0.0, "name": "3ee1c5be3fcfbad051bd352a18bb24f0", "rental_uris": {"android": "https://dc.lft.to/lastmile_qr_scan", "ios": "https://dc.lft.to/lastmile_qr_scan"}, "lat": 38.9064725, "bike_id": "3ee1c5be3fcfbad051bd352a18bb24f0", "is_disabled": 0, "lon": -77.05129666666667, "is_reserved": 0, "fusion_lat": 0.0, "type": "electric_scooter"}, {"fusion_lon": 0.0, "name": "0f6237828c6da27c94a07bc03306a21f", "rental_uris": {"android": "https://dc.lft.to/lastmile_qr_scan", "ios": "https://dc.lft.to/lastmile_qr_scan"}, "lat": 38.92856716666667, "bike_id": "0f6237828c6da27c94a07bc03306a21f", "is_disabled": 0, "lon": -77.0543015, "is_reserved": 0, "fusion_lat": 0.0, "type": "electric_scooter"}, {"fusion_lon": 0.0, "name": "57c54b1f55a9ae1cd7cd6add3aa0d442", "rental_uris": {"android": "https://dc.lft.to/lastmile_qr_scan", "ios": "https://dc.lft.to/lastmile_qr_scan"}, "lat": 38.92946533333333, "bike_id": "57c54b1f55a9ae1cd7cd6add3aa0d442", "is_disabled": 0, "lon": -77.03286633333333, "is_reserved": 0, "fusion_lat": 0.0, "type": "electric_scooter"}, {"fusion_lon": 0.0, "name": "85a91b7411b22fe104ef919fa30875f4", "rental_uris": {"android": "https://dc.lft.to/lastmile_qr_scan", "ios": "https://dc.lft.to/lastmile_qr_scan"}, "lat": 38.92784733333333, "bike_id": "85a91b7411b22fe104ef919fa30875f4", "is_disabled": 0, "lon": -77.0308105, "is_reserved": 0, "fusion_lat": 0.0, "type": "electric_scooter"}, {"fusion_lon": 0.0, "name": "eb7ae484602063d377994b6c6a8e97fe", "rental_uris": {"android": "https://dc.lft.to/lastmile_qr_scan", "ios": "https://dc.lft.to/lastmile_qr_scan"}, "lat": 38.9051015, "bike_id": "eb7ae484602063d377994b6c6a8e97fe", "is_disabled": 0, "lon": -77.02954716666666, "is_reserved": 0, "fusion_lat": 0.0, "type": "electric_scooter"}, {"fusion_lon": 0.0, "name": "ae89c207e1156bc3575dcea32199906c", "rental_uris": {"android": "https://dc.lft.to/lastmile_qr_scan", "ios": "https://dc.lft.to/lastmile_qr_scan"}, "lat": 38.9289975, "bike_id": "ae89c207e1156bc3575dcea32199906c", "is_disabled": 0, "lon": -77.03248233333333, "is_reserved": 0, "fusion_lat": 0.0, "type": "electric_scooter"}, {"fusion_lon": 0.0, "name": "f434b74359bae17fa3f4d54dfa963731", "rental_uris": {"android": "https://dc.lft.to/lastmile_qr_scan", "ios": "https://dc.lft.to/lastmile_qr_scan"}, "lat": 38.912749166666664, "bike_id": "f434b74359bae17fa3f4d54dfa963731", "is_disabled": 0, "lon": -77.01611283333334, "is_reserved": 0, "fusion_lat": 0.0, "type": "electric_scooter"}, {"fusion_lon": 0.0, "name": "22911fe4a430b25c48a377b55d15eb5b", "rental_uris": {"android": "https://dc.lft.to/lastmile_qr_scan", "ios": "https://dc.lft.to/lastmile_qr_scan"}, "lat": 38.939091, "bike_id": "22911fe4a430b25c48a377b55d15eb5b", "is_disabled": 0, "lon": -77.06042316666667, "is_reserved": 0, "fusion_lat": 0.0, "type": "electric_scooter"}, {"fusion_lon": 0.0, "name": "44911ae201cf74b1b23b053b318382fc", "rental_uris": {"android": "https://dc.lft.to/lastmile_qr_scan", "ios": "https://dc.lft.to/lastmile_qr_scan"}, "lat": 38.91551966666667, "bike_id": "44911ae201cf74b1b23b053b318382fc", "is_disabled": 0, "lon": -77.00723816666667, "is_reserved": 0, "fusion_lat": 0.0, "type": "electric_scooter"}, {"fusion_lon": 0.0, "name": "1babe88bb7ffba4df6ebd5febe1bd8ad", "rental_uris": {"android": "https://dc.lft.to/lastmile_qr_scan", "ios": "https://dc.lft.to/lastmile_qr_scan"}, "lat": 38.90491933333333, "bike_id": "1babe88bb7ffba4df6ebd5febe1bd8ad", "is_disabled": 0, "lon": -77.04867566666667, "is_reserved": 0, "fusion_lat": 0.0, "type": "electric_scooter"}, {"fusion_lon": 0.0, "name": "9089e95f916dfd115ad9cbe47681dfb0", "rental_uris": {"android": "https://dc.lft.to/lastmile_qr_scan", "ios": "https://dc.lft.to/lastmile_qr_scan"}, "lat": 38.908982333333334, "bike_id": "9089e95f916dfd115ad9cbe47681dfb0", "is_disabled": 0, "lon": -77.0726, "is_reserved": 0, "fusion_lat": 0.0, "type": "electric_scooter"}, {"fusion_lon": 0.0, "name": "66433f559f127f65df7fa5d026058614", "rental_uris": {"android": "https://dc.lft.to/lastmile_qr_scan", "ios": "https://dc.lft.to/lastmile_qr_scan"}, "lat": 38.92712816666667, "bike_id": "66433f559f127f65df7fa5d026058614", "is_disabled": 0, "lon": -77.020983, "is_reserved": 0, "fusion_lat": 0.0, "type": "electric_scooter"}, {"fusion_lon": 0.0, "name": "103e3a96053af0710c5f121dd04cf489", "rental_uris": {"android": "https://dc.lft.to/lastmile_qr_scan", "ios": "https://dc.lft.to/lastmile_qr_scan"}, "lat": 38.91676533333333, "bike_id": "103e3a96053af0710c5f121dd04cf489", "is_disabled": 0, "lon": -77.02287133333333, "is_reserved": 0, "fusion_lat": 0.0, "type": "electric_scooter"}, {"fusion_lon": 0.0, "name": "b8784f2fc223d97fffbd408010d5fc10", "rental_uris": {"android": "https://dc.lft.to/lastmile_qr_scan", "ios": "https://dc.lft.to/lastmile_qr_scan"}, "lat": 38.8881995, "bike_id": "b8784f2fc223d97fffbd408010d5fc10", "is_disabled": 0, "lon": -76.9770815, "is_reserved": 0, "fusion_lat": 0.0, "type": "electric_scooter"}, {"fusion_lon": 0.0, "name": "11345e3b60d837fe6d6b774064909724", "rental_uris": {"android": "https://dc.lft.to/lastmile_qr_scan", "ios": "https://dc.lft.to/lastmile_qr_scan"}, "lat": 38.960249833333336, "bike_id": "11345e3b60d837fe6d6b774064909724", "is_disabled": 0, "lon": -77.02427233333333, "is_reserved": 0, "fusion_lat": 0.0, "type": "electric_scooter"}, {"fusion_lon": 0.0, "name": "0e75fd6282ca46e7ef1995790b6e7baa", "rental_uris": {"android": "https://dc.lft.to/lastmile_qr_scan", "ios": "https://dc.lft.to/lastmile_qr_scan"}, "lat": 38.94313283333334, "bike_id": "0e75fd6282ca46e7ef1995790b6e7baa", "is_disabled": 0, "lon": -76.9901785, "is_reserved": 0, "fusion_lat": 0.0, "type": "electric_bike"}, {"fusion_lon": 0.0, "name": "3c18e0a3e11813c3f3be3443e41efd01", "rental_uris": {"android": "https://dc.lft.to/lastmile_qr_scan", "ios": "https://dc.lft.to/lastmile_qr_scan"}, "lat": 38.931387666666666, "bike_id": "3c18e0a3e11813c3f3be3443e41efd01", "is_disabled": 0, "lon": -77.05702766666667, "is_reserved": 0, "fusion_lat": 0.0, "type": "electric_scooter"}, {"fusion_lon": 0.0, "name": "25dc092a6d7854339441c8510e7bfb4a", "rental_uris": {"android": "https://dc.lft.to/lastmile_qr_scan", "ios": "https://dc.lft.to/lastmile_qr_scan"}, "lat": 38.855777833333335, "bike_id": "25dc092a6d7854339441c8510e7bfb4a", "is_disabled": 0, "lon": -76.97409733333333, "is_reserved": 0, "fusion_lat": 0.0, "type": "electric_bike"}, {"fusion_lon": 0.0, "name": "7acc88d4c6f67c9558cd6417da7849a5", "rental_uris": {"android": "https://dc.lft.to/lastmile_qr_scan", "ios": "https://dc.lft.to/lastmile_qr_scan"}, "lat": 38.930285, "bike_id": "7acc88d4c6f67c9558cd6417da7849a5", "is_disabled": 0, "lon": -77.05558033333334, "is_reserved": 0, "fusion_lat": 0.0, "type": "electric_scooter"}, {"fusion_lon": 0.0, "name": "0bc7b3c43e27890b6b56ede0b6670fe6", "rental_uris": {"android": "https://dc.lft.to/lastmile_qr_scan", "ios": "https://dc.lft.to/lastmile_qr_scan"}, "lat": 38.90489183333333, "bike_id": "0bc7b3c43e27890b6b56ede0b6670fe6", "is_disabled": 0, "lon": -77.0296675, "is_reserved": 0, "fusion_lat": 0.0, "type": "electric_scooter"}, {"fusion_lon": 0.0, "name": "b97cb6819cd80db7a3c29379d9bb1261", "rental_uris": {"android": "https://dc.lft.to/lastmile_qr_scan", "ios": "https://dc.lft.to/lastmile_qr_scan"}, "lat": 38.920049166666665, "bike_id": "b97cb6819cd80db7a3c29379d9bb1261", "is_disabled": 0, "lon": -76.98504083333333, "is_reserved": 0, "fusion_lat": 0.0, "type": "electric_scooter"}, {"fusion_lon": 0.0, "name": "48b187b55840813d7d2bd892fec956bf", "rental_uris": {"android": "https://dc.lft.to/lastmile_qr_scan", "ios": "https://dc.lft.to/lastmile_qr_scan"}, "lat": 38.923461, "bike_id": "48b187b55840813d7d2bd892fec956bf", "is_disabled": 0, "lon": -77.034154, "is_reserved": 0, "fusion_lat": 0.0, "type": "electric_scooter"}, {"fusion_lon": 0.0, "name": "1541a7654e6639845a829a966312c8f3", "rental_uris": {"android": "https://dc.lft.to/lastmile_qr_scan", "ios": "https://dc.lft.to/lastmile_qr_scan"}, "lat": 38.90756916666667, "bike_id": "1541a7654e6639845a829a966312c8f3", "is_disabled": 0, "lon": -77.045253, "is_reserved": 0, "fusion_lat": 0.0, "type": "electric_scooter"}, {"fusion_lon": 0.0, "name": "e7ed4b0d7eb6c06e7fcb50d1954d3449", "rental_uris": {"android": "https://dc.lft.to/lastmile_qr_scan", "ios": "https://dc.lft.to/lastmile_qr_scan"}, "lat": 38.806541333333335, "bike_id": "e7ed4b0d7eb6c06e7fcb50d1954d3449", "is_disabled": 0, "lon": -77.08762483333334, "is_reserved": 0, "fusion_lat": 0.0, "type": "electric_bike"}, {"fusion_lon": 0.0, "name": "7e2feb4a7140041342147040d82feda2", "rental_uris": {"android": "https://dc.lft.to/lastmile_qr_scan", "ios": "https://dc.lft.to/lastmile_qr_scan"}, "lat": 38.9048095, "bike_id": "7e2feb4a7140041342147040d82feda2", "is_disabled": 0, "lon": -77.048713, "is_reserved": 0, "fusion_lat": 0.0, "type": "electric_scooter"}, {"fusion_lon": 0.0, "name": "57e1fe38330fdfd139a283fb29d4e3f3", "rental_uris": {"android": "https://dc.lft.to/lastmile_qr_scan", "ios": "https://dc.lft.to/lastmile_qr_scan"}, "lat": 38.9132215, "bike_id": "57e1fe38330fdfd139a283fb29d4e3f3", "is_disabled": 0, "lon": -77.03180433333333, "is_reserved": 0, "fusion_lat": 0.0, "type": "electric_scooter"}, {"fusion_lon": 0.0, "name": "701ad192309d1e5a355b14a1de0d2440", "rental_uris": {"android": "https://dc.lft.to/lastmile_qr_scan", "ios": "https://dc.lft.to/lastmile_qr_scan"}, "lat": 38.882056, "bike_id": "701ad192309d1e5a355b14a1de0d2440", "is_disabled": 0, "lon": -77.0285715, "is_reserved": 0, "fusion_lat": 0.0, "type": "electric_scooter"}, {"fusion_lon": 0.0, "name": "f26a0129a796260e9f238e8d48495c33", "rental_uris": {"android": "https://dc.lft.to/lastmile_qr_scan", "ios": "https://dc.lft.to/lastmile_qr_scan"}, "lat": 38.877524333333334, "bike_id": "f26a0129a796260e9f238e8d48495c33", "is_disabled": 0, "lon": -77.00586316666667, "is_reserved": 0, "fusion_lat": 0.0, "type": "electric_scooter"}, {"fusion_lon": 0.0, "name": "6560cc6f7156cc204d4256dd4f309f9a", "rental_uris": {"android": "https://dc.lft.to/lastmile_qr_scan", "ios": "https://dc.lft.to/lastmile_qr_scan"}, "lat": 38.9389175, "bike_id": "6560cc6f7156cc204d4256dd4f309f9a", "is_disabled": 0, "lon": -77.017663, "is_reserved": 0, "fusion_lat": 0.0, "type": "electric_scooter"}, {"fusion_lon": 0.0, "name": "3fe4c0437f67e88906997b99f47b78ce", "rental_uris": {"android": "https://dc.lft.to/lastmile_qr_scan", "ios": "https://dc.lft.to/lastmile_qr_scan"}, "lat": 38.90678783333333, "bike_id": "3fe4c0437f67e88906997b99f47b78ce", "is_disabled": 0, "lon": -77.026895, "is_reserved": 0, "fusion_lat": 0.0, "type": "electric_scooter"}, {"fusion_lon": 0.0, "name": "79809fa9882216b72350d3ccc502419a", "rental_uris": {"android": "https://dc.lft.to/lastmile_qr_scan", "ios": "https://dc.lft.to/lastmile_qr_scan"}, "lat": 38.957147, "bike_id": "79809fa9882216b72350d3ccc502419a", "is_disabled": 0, "lon": -77.00230633333334, "is_reserved": 0, "fusion_lat": 0.0, "type": "electric_scooter"}, {"fusion_lon": 0.0, "name": "9dd13c5c5596d484348009ef0c5ee908", "rental_uris": {"android": "https://dc.lft.to/lastmile_qr_scan", "ios": "https://dc.lft.to/lastmile_qr_scan"}, "lat": 38.904617, "bike_id": "9dd13c5c5596d484348009ef0c5ee908", "is_disabled": 0, "lon": -77.02949166666667, "is_reserved": 0, "fusion_lat": 0.0, "type": "electric_scooter"}, {"fusion_lon": 0.0, "name": "f6a4bda1f35d972a18979ecfd657867b", "rental_uris": {"android": "https://dc.lft.to/lastmile_qr_scan", "ios": "https://dc.lft.to/lastmile_qr_scan"}, "lat": 38.915601333333335, "bike_id": "f6a4bda1f35d972a18979ecfd657867b", "is_disabled": 0, "lon": -77.02385233333334, "is_reserved": 0, "fusion_lat": 0.0, "type": "electric_scooter"}, {"fusion_lon": 0.0, "name": "fe201d30b1f2af6eb3d90f7ff589ef71", "rental_uris": {"android": "https://dc.lft.to/lastmile_qr_scan", "ios": "https://dc.lft.to/lastmile_qr_scan"}, "lat": 38.90032266666667, "bike_id": "fe201d30b1f2af6eb3d90f7ff589ef71", "is_disabled": 0, "lon": -76.99473816666666, "is_reserved": 0, "fusion_lat": 0.0, "type": "electric_scooter"}, {"fusion_lon": 0.0, "name": "d02314743ce5a0b6c4b652d6e849697d", "rental_uris": {"android": "https://dc.lft.to/lastmile_qr_scan", "ios": "https://dc.lft.to/lastmile_qr_scan"}, "lat": 38.96933533333333, "bike_id": "d02314743ce5a0b6c4b652d6e849697d", "is_disabled": 0, "lon": -77.02707433333333, "is_reserved": 0, "fusion_lat": 0.0, "type": "electric_scooter"}, {"fusion_lon": 0.0, "name": "b2e70087030a0f59c256fef96f4ebd41", "rental_uris": {"android": "https://dc.lft.to/lastmile_qr_scan", "ios": "https://dc.lft.to/lastmile_qr_scan"}, "lat": 38.9233115, "bike_id": "b2e70087030a0f59c256fef96f4ebd41", "is_disabled": 0, "lon": -77.0377925, "is_reserved": 0, "fusion_lat": 0.0, "type": "electric_scooter"}, {"fusion_lon": 0.0, "name": "94c0ba3f0c1ff6d7d7227d59f916c778", "rental_uris": {"android": "https://dc.lft.to/lastmile_qr_scan", "ios": "https://dc.lft.to/lastmile_qr_scan"}, "lat": 38.9221875, "bike_id": "94c0ba3f0c1ff6d7d7227d59f916c778", "is_disabled": 0, "lon": -77.01812933333333, "is_reserved": 0, "fusion_lat": 0.0, "type": "electric_scooter"}, {"fusion_lon": 0.0, "name": "2f7f6fb65af1e82c9fa35257b2e471d2", "rental_uris": {"android": "https://dc.lft.to/lastmile_qr_scan", "ios": "https://dc.lft.to/lastmile_qr_scan"}, "lat": 38.9267875, "bike_id": "2f7f6fb65af1e82c9fa35257b2e471d2", "is_disabled": 0, "lon": -77.01536766666666, "is_reserved": 0, "fusion_lat": 0.0, "type": "electric_scooter"}, {"fusion_lon": 0.0, "name": "c20dfb8d3b627e87bd7d361b74458dc9", "rental_uris": {"android": "https://dc.lft.to/lastmile_qr_scan", "ios": "https://dc.lft.to/lastmile_qr_scan"}, "lat": 38.901451333333334, "bike_id": "c20dfb8d3b627e87bd7d361b74458dc9", "is_disabled": 0, "lon": -77.02480066666666, "is_reserved": 0, "fusion_lat": 0.0, "type": "electric_scooter"}, {"fusion_lon": 0.0, "name": "9e95b23a77fba0521cf53db8289432b0", "rental_uris": {"android": "https://dc.lft.to/lastmile_qr_scan", "ios": "https://dc.lft.to/lastmile_qr_scan"}, "lat": 38.901233833333336, "bike_id": "9e95b23a77fba0521cf53db8289432b0", "is_disabled": 0, "lon": -77.03048633333333, "is_reserved": 0, "fusion_lat": 0.0, "type": "electric_scooter"}, {"fusion_lon": 0.0, "name": "dee8a7ea50aaf40d05935030306dc7de", "rental_uris": {"android": "https://dc.lft.to/lastmile_qr_scan", "ios": "https://dc.lft.to/lastmile_qr_scan"}, "lat": 38.923812833333336, "bike_id": "dee8a7ea50aaf40d05935030306dc7de", "is_disabled": 0, "lon": -77.02557916666666, "is_reserved": 0, "fusion_lat": 0.0, "type": "electric_scooter"}, {"fusion_lon": 0.0, "name": "72db2fc64c8f8214b9a2576263251155", "rental_uris": {"android": "https://dc.lft.to/lastmile_qr_scan", "ios": "https://dc.lft.to/lastmile_qr_scan"}, "lat": 38.90674933333333, "bike_id": "72db2fc64c8f8214b9a2576263251155", "is_disabled": 0, "lon": -77.026922, "is_reserved": 0, "fusion_lat": 0.0, "type": "electric_scooter"}, {"fusion_lon": 0.0, "name": "4ca68d32c1e43adeb1941208cf8fcb15", "rental_uris": {"android": "https://dc.lft.to/lastmile_qr_scan", "ios": "https://dc.lft.to/lastmile_qr_scan"}, "lat": 38.905301, "bike_id": "4ca68d32c1e43adeb1941208cf8fcb15", "is_disabled": 0, "lon": -77.05998116666666, "is_reserved": 0, "fusion_lat": 0.0, "type": "electric_scooter"}, {"fusion_lon": 0.0, "name": "7b96e0cc3e91cedd2a58b7e9cc595d26", "rental_uris": {"android": "https://dc.lft.to/lastmile_qr_scan", "ios": "https://dc.lft.to/lastmile_qr_scan"}, "lat": 38.901458166666664, "bike_id": "7b96e0cc3e91cedd2a58b7e9cc595d26", "is_disabled": 0, "lon": -77.02195733333333, "is_reserved": 0, "fusion_lat": 0.0, "type": "electric_scooter"}, {"fusion_lon": 0.0, "name": "ec324abd4ad6ab3893907a16a37907de", "rental_uris": {"android": "https://dc.lft.to/lastmile_qr_scan", "ios": "https://dc.lft.to/lastmile_qr_scan"}, "lat": 38.90239283333333, "bike_id": "ec324abd4ad6ab3893907a16a37907de", "is_disabled": 0, "lon": -77.00196866666667, "is_reserved": 0, "fusion_lat": 0.0, "type": "electric_scooter"}, {"fusion_lon": 0.0, "name": "df67827a306c9fed4a2bcce7ee44f3c6", "rental_uris": {"android": "https://dc.lft.to/lastmile_qr_scan", "ios": "https://dc.lft.to/lastmile_qr_scan"}, "lat": 38.87171333333333, "bike_id": "df67827a306c9fed4a2bcce7ee44f3c6", "is_disabled": 0, "lon": -77.0062905, "is_reserved": 0, "fusion_lat": 0.0, "type": "electric_scooter"}, {"fusion_lon": 0.0, "name": "54561e85e2722ea77053101aea932f8d", "rental_uris": {"android": "https://dc.lft.to/lastmile_qr_scan", "ios": "https://dc.lft.to/lastmile_qr_scan"}, "lat": 38.926900833333335, "bike_id": "54561e85e2722ea77053101aea932f8d", "is_disabled": 0, "lon": -77.01473416666667, "is_reserved": 0, "fusion_lat": 0.0, "type": "electric_scooter"}, {"fusion_lon": 0.0, "name": "b54f04ad591801f772f71ef3dd6c818b", "rental_uris": {"android": "https://dc.lft.to/lastmile_qr_scan", "ios": "https://dc.lft.to/lastmile_qr_scan"}, "lat": 38.905952166666665, "bike_id": "b54f04ad591801f772f71ef3dd6c818b", "is_disabled": 0, "lon": -77.025989, "is_reserved": 0, "fusion_lat": 0.0, "type": "electric_scooter"}, {"fusion_lon": 0.0, "name": "6f437ff20d7e0f8f9a851e41d72e6e15", "rental_uris": {"android": "https://dc.lft.to/lastmile_qr_scan", "ios": "https://dc.lft.to/lastmile_qr_scan"}, "lat": 38.934482833333334, "bike_id": "6f437ff20d7e0f8f9a851e41d72e6e15", "is_disabled": 0, "lon": -77.08965783333333, "is_reserved": 0, "fusion_lat": 0.0, "type": "electric_scooter"}, {"fusion_lon": 0.0, "name": "5d5e7268101801ad0aa1b083d50972e6", "rental_uris": {"android": "https://dc.lft.to/lastmile_qr_scan", "ios": "https://dc.lft.to/lastmile_qr_scan"}, "lat": 38.92369733333334, "bike_id": "5d5e7268101801ad0aa1b083d50972e6", "is_disabled": 0, "lon": -77.03051033333334, "is_reserved": 0, "fusion_lat": 0.0, "type": "electric_scooter"}, {"fusion_lon": 0.0, "name": "1371dced3a35e9f1186b5e0d7bab0beb", "rental_uris": {"android": "https://dc.lft.to/lastmile_qr_scan", "ios": "https://dc.lft.to/lastmile_qr_scan"}, "lat": 38.90707866666666, "bike_id": "1371dced3a35e9f1186b5e0d7bab0beb", "is_disabled": 0, "lon": -77.02388566666667, "is_reserved": 0, "fusion_lat": 0.0, "type": "electric_scooter"}, {"fusion_lon": 0.0, "name": "053818dfeace1c656bd4cdc7c5df5428", "rental_uris": {"android": "https://dc.lft.to/lastmile_qr_scan", "ios": "https://dc.lft.to/lastmile_qr_scan"}, "lat": 38.938548833333336, "bike_id": "053818dfeace1c656bd4cdc7c5df5428", "is_disabled": 0, "lon": -77.02445016666667, "is_reserved": 0, "fusion_lat": 0.0, "type": "electric_scooter"}, {"fusion_lon": 0.0, "name": "9e1b507be6726f279d29423edf7b0192", "rental_uris": {"android": "https://dc.lft.to/lastmile_qr_scan", "ios": "https://dc.lft.to/lastmile_qr_scan"}, "lat": 38.922615666666665, "bike_id": "9e1b507be6726f279d29423edf7b0192", "is_disabled": 0, "lon": -77.0732545, "is_reserved": 0, "fusion_lat": 0.0, "type": "electric_scooter"}, {"fusion_lon": 0.0, "name": "a77381c211dc51070c04b54a399028ca", "rental_uris": {"android": "https://dc.lft.to/lastmile_qr_scan", "ios": "https://dc.lft.to/lastmile_qr_scan"}, "lat": 38.90847383333333, "bike_id": "a77381c211dc51070c04b54a399028ca", "is_disabled": 0, "lon": -77.01020633333333, "is_reserved": 0, "fusion_lat": 0.0, "type": "electric_scooter"}, {"fusion_lon": 0.0, "name": "e75e74e3c8add444586824d51a80e653", "rental_uris": {"android": "https://dc.lft.to/lastmile_qr_scan", "ios": "https://dc.lft.to/lastmile_qr_scan"}, "lat": 38.935063666666665, "bike_id": "e75e74e3c8add444586824d51a80e653", "is_disabled": 0, "lon": -77.03716316666667, "is_reserved": 0, "fusion_lat": 0.0, "type": "electric_scooter"}, {"fusion_lon": 0.0, "name": "f16dfb2d4a8eee5cec186a657906b93d", "rental_uris": {"android": "https://dc.lft.to/lastmile_qr_scan", "ios": "https://dc.lft.to/lastmile_qr_scan"}, "lat": 38.92642933333333, "bike_id": "f16dfb2d4a8eee5cec186a657906b93d", "is_disabled": 0, "lon": -77.040644, "is_reserved": 0, "fusion_lat": 0.0, "type": "electric_scooter"}, {"fusion_lon": 0.0, "name": "76bb4ddfa92bf8d37e1834702d434a15", "rental_uris": {"android": "https://dc.lft.to/lastmile_qr_scan", "ios": "https://dc.lft.to/lastmile_qr_scan"}, "lat": 38.92449233333333, "bike_id": "76bb4ddfa92bf8d37e1834702d434a15", "is_disabled": 0, "lon": -77.03970883333334, "is_reserved": 0, "fusion_lat": 0.0, "type": "electric_scooter"}, {"fusion_lon": 0.0, "name": "2cffad347efdf2f2ddcea23018c89bbe", "rental_uris": {"android": "https://dc.lft.to/lastmile_qr_scan", "ios": "https://dc.lft.to/lastmile_qr_scan"}, "lat": 38.87679283333333, "bike_id": "2cffad347efdf2f2ddcea23018c89bbe", "is_disabled": 0, "lon": -77.019968, "is_reserved": 0, "fusion_lat": 0.0, "type": "electric_scooter"}, {"fusion_lon": 0.0, "name": "f23e94b8f2b2f7e10ff79aafbb83bf9e", "rental_uris": {"android": "https://dc.lft.to/lastmile_qr_scan", "ios": "https://dc.lft.to/lastmile_qr_scan"}, "lat": 38.906754, "bike_id": "f23e94b8f2b2f7e10ff79aafbb83bf9e", "is_disabled": 0, "lon": -77.02705483333334, "is_reserved": 0, "fusion_lat": 0.0, "type": "electric_scooter"}, {"fusion_lon": 0.0, "name": "e8b802e038e88b020622326772a34d9f", "rental_uris": {"android": "https://dc.lft.to/lastmile_qr_scan", "ios": "https://dc.lft.to/lastmile_qr_scan"}, "lat": 38.920631666666665, "bike_id": "e8b802e038e88b020622326772a34d9f", "is_disabled": 0, "lon": -77.02299566666667, "is_reserved": 0, "fusion_lat": 0.0, "type": "electric_scooter"}, {"fusion_lon": 0.0, "name": "58d8251cea21c7563211e75b89811ec7", "rental_uris": {"android": "https://dc.lft.to/lastmile_qr_scan", "ios": "https://dc.lft.to/lastmile_qr_scan"}, "lat": 38.92126716666667, "bike_id": "58d8251cea21c7563211e75b89811ec7", "is_disabled": 0, "lon": -77.02086066666666, "is_reserved": 0, "fusion_lat": 0.0, "type": "electric_scooter"}, {"fusion_lon": 0.0, "name": "58b89e904fbd755826c1eb095ea31a48", "rental_uris": {"android": "https://dc.lft.to/lastmile_qr_scan", "ios": "https://dc.lft.to/lastmile_qr_scan"}, "lat": 38.907719, "bike_id": "58b89e904fbd755826c1eb095ea31a48", "is_disabled": 0, "lon": -77.02454433333334, "is_reserved": 0, "fusion_lat": 0.0, "type": "electric_scooter"}, {"fusion_lon": 0.0, "name": "c7b694e0f8a356d166aa03c531a2b4ed", "rental_uris": {"android": "https://dc.lft.to/lastmile_qr_scan", "ios": "https://dc.lft.to/lastmile_qr_scan"}, "lat": 38.903914, "bike_id": "c7b694e0f8a356d166aa03c531a2b4ed", "is_disabled": 0, "lon": -76.98100183333334, "is_reserved": 0, "fusion_lat": 0.0, "type": "electric_scooter"}, {"fusion_lon": 0.0, "name": "f895eefb68438b2fd93d6a521611854e", "rental_uris": {"android": "https://dc.lft.to/lastmile_qr_scan", "ios": "https://dc.lft.to/lastmile_qr_scan"}, "lat": 38.89386583333334, "bike_id": "f895eefb68438b2fd93d6a521611854e", "is_disabled": 0, "lon": -76.86846800000001, "is_reserved": 0, "fusion_lat": 0.0, "type": "electric_bike"}, {"fusion_lon": 0.0, "name": "1b3780f80fc52c00c5e896ce08a2604a", "rental_uris": {"android": "https://dc.lft.to/lastmile_qr_scan", "ios": "https://dc.lft.to/lastmile_qr_scan"}, "lat": 38.90017483333333, "bike_id": "1b3780f80fc52c00c5e896ce08a2604a", "is_disabled": 0, "lon": -77.03303183333334, "is_reserved": 0, "fusion_lat": 0.0, "type": "electric_scooter"}, {"fusion_lon": 0.0, "name": "01eaf9d37cbd6cdaa01cabb29b86a8e2", "rental_uris": {"android": "https://dc.lft.to/lastmile_qr_scan", "ios": "https://dc.lft.to/lastmile_qr_scan"}, "lat": 38.9279895, "bike_id": "01eaf9d37cbd6cdaa01cabb29b86a8e2", "is_disabled": 0, "lon": -77.05528233333334, "is_reserved": 0, "fusion_lat": 0.0, "type": "electric_scooter"}, {"fusion_lon": 0.0, "name": "0d3e9fa1a65e599d838762282f794f89", "rental_uris": {"android": "https://dc.lft.to/lastmile_qr_scan", "ios": "https://dc.lft.to/lastmile_qr_scan"}, "lat": 38.8919555, "bike_id": "0d3e9fa1a65e599d838762282f794f89", "is_disabled": 0, "lon": -76.95810916666667, "is_reserved": 0, "fusion_lat": 0.0, "type": "electric_scooter"}, {"fusion_lon": 0.0, "name": "94d86d2f9d984efef5b15c8bab2bf84d", "rental_uris": {"android": "https://dc.lft.to/lastmile_qr_scan", "ios": "https://dc.lft.to/lastmile_qr_scan"}, "lat": 38.91123283333334, "bike_id": "94d86d2f9d984efef5b15c8bab2bf84d", "is_disabled": 0, "lon": -77.04235233333333, "is_reserved": 0, "fusion_lat": 0.0, "type": "electric_scooter"}, {"fusion_lon": 0.0, "name": "a8eb0395dd41e611ab083bd3f95b2136", "rental_uris": {"android": "https://dc.lft.to/lastmile_qr_scan", "ios": "https://dc.lft.to/lastmile_qr_scan"}, "lat": 38.902631, "bike_id": "a8eb0395dd41e611ab083bd3f95b2136", "is_disabled": 0, "lon": -77.00326466666667, "is_reserved": 0, "fusion_lat": 0.0, "type": "electric_scooter"}, {"fusion_lon": 0.0, "name": "0c6993d8d5e437f3128062acacbb51fa", "rental_uris": {"android": "https://dc.lft.to/lastmile_qr_scan", "ios": "https://dc.lft.to/lastmile_qr_scan"}, "lat": 38.90216983333333, "bike_id": "0c6993d8d5e437f3128062acacbb51fa", "is_disabled": 0, "lon": -77.01743016666667, "is_reserved": 0, "fusion_lat": 0.0, "type": "electric_scooter"}, {"fusion_lon": 0.0, "name": "63134aab5f8a2c42dd20b9bd44bdd7e3", "rental_uris": {"android": "https://dc.lft.to/lastmile_qr_scan", "ios": "https://dc.lft.to/lastmile_qr_scan"}, "lat": 38.892283666666664, "bike_id": "63134aab5f8a2c42dd20b9bd44bdd7e3", "is_disabled": 0, "lon": -77.05004683333334, "is_reserved": 0, "fusion_lat": 0.0, "type": "electric_scooter"}, {"fusion_lon": 0.0, "name": "d9a7af6080aca75ae6b58e8a23df644a", "rental_uris": {"android": "https://dc.lft.to/lastmile_qr_scan", "ios": "https://dc.lft.to/lastmile_qr_scan"}, "lat": 38.920524, "bike_id": "d9a7af6080aca75ae6b58e8a23df644a", "is_disabled": 0, "lon": -77.0418575, "is_reserved": 0, "fusion_lat": 0.0, "type": "electric_scooter"}, {"fusion_lon": 0.0, "name": "7cd8ea031d4f225fc7ce394b0f5c1201", "rental_uris": {"android": "https://dc.lft.to/lastmile_qr_scan", "ios": "https://dc.lft.to/lastmile_qr_scan"}, "lat": 38.883687, "bike_id": "7cd8ea031d4f225fc7ce394b0f5c1201", "is_disabled": 0, "lon": -76.92421066666667, "is_reserved": 0, "fusion_lat": 0.0, "type": "electric_scooter"}, {"fusion_lon": 0.0, "name": "ce95f6572e94cca3344b26d244f24d17", "rental_uris": {"android": "https://dc.lft.to/lastmile_qr_scan", "ios": "https://dc.lft.to/lastmile_qr_scan"}, "lat": 38.928692, "bike_id": "ce95f6572e94cca3344b26d244f24d17", "is_disabled": 0, "lon": -77.033346, "is_reserved": 0, "fusion_lat": 0.0, "type": "electric_scooter"}, {"fusion_lon": 0.0, "name": "0f96e0ca0fc9b1a8ddec49662d9a7665", "rental_uris": {"android": "https://dc.lft.to/lastmile_qr_scan", "ios": "https://dc.lft.to/lastmile_qr_scan"}, "lat": 38.908365333333336, "bike_id": "0f96e0ca0fc9b1a8ddec49662d9a7665", "is_disabled": 0, "lon": -77.07305083333334, "is_reserved": 0, "fusion_lat": 0.0, "type": "electric_scooter"}, {"fusion_lon": 0.0, "name": "0185f5d3bddc20c8dff12b9f13209326", "rental_uris": {"android": "https://dc.lft.to/lastmile_qr_scan", "ios": "https://dc.lft.to/lastmile_qr_scan"}, "lat": 38.923667333333334, "bike_id": "0185f5d3bddc20c8dff12b9f13209326", "is_disabled": 0, "lon": -77.05052383333333, "is_reserved": 0, "fusion_lat": 0.0, "type": "electric_scooter"}, {"fusion_lon": 0.0, "name": "e98fabc9a2eacd0fcc73f09ea1013021", "rental_uris": {"android": "https://dc.lft.to/lastmile_qr_scan", "ios": "https://dc.lft.to/lastmile_qr_scan"}, "lat": 38.91492216666666, "bike_id": "e98fabc9a2eacd0fcc73f09ea1013021", "is_disabled": 0, "lon": -77.0220235, "is_reserved": 0, "fusion_lat": 0.0, "type": "electric_scooter"}, {"fusion_lon": 0.0, "name": "a2b2497f2fc144648deb50b7683b3601", "rental_uris": {"android": "https://dc.lft.to/lastmile_qr_scan", "ios": "https://dc.lft.to/lastmile_qr_scan"}, "lat": 38.923388, "bike_id": "a2b2497f2fc144648deb50b7683b3601", "is_disabled": 0, "lon": -77.036097, "is_reserved": 0, "fusion_lat": 0.0, "type": "electric_scooter"}, {"fusion_lon": 0.0, "name": "7da6b656c6395ce98e248538a3ed1d67", "rental_uris": {"android": "https://dc.lft.to/lastmile_qr_scan", "ios": "https://dc.lft.to/lastmile_qr_scan"}, "lat": 38.922374, "bike_id": "7da6b656c6395ce98e248538a3ed1d67", "is_disabled": 0, "lon": -77.02148966666667, "is_reserved": 0, "fusion_lat": 0.0, "type": "electric_scooter"}, {"fusion_lon": 0.0, "name": "f54946008afb2054f63a1777b5ebf14d", "rental_uris": {"android": "https://dc.lft.to/lastmile_qr_scan", "ios": "https://dc.lft.to/lastmile_qr_scan"}, "lat": 38.924913, "bike_id": "f54946008afb2054f63a1777b5ebf14d", "is_disabled": 0, "lon": -77.00888883333333, "is_reserved": 0, "fusion_lat": 0.0, "type": "electric_scooter"}, {"fusion_lon": 0.0, "name": "10bcdcd65055a6d9c0b51de7d6a2ba88", "rental_uris": {"android": "https://dc.lft.to/lastmile_qr_scan", "ios": "https://dc.lft.to/lastmile_qr_scan"}, "lat": 38.91872083333333, "bike_id": "10bcdcd65055a6d9c0b51de7d6a2ba88", "is_disabled": 0, "lon": -77.04483866666666, "is_reserved": 0, "fusion_lat": 0.0, "type": "electric_scooter"}, {"fusion_lon": 0.0, "name": "7519d9bebdba7127b4f283f703fb0f8e", "rental_uris": {"android": "https://dc.lft.to/lastmile_qr_scan", "ios": "https://dc.lft.to/lastmile_qr_scan"}, "lat": 38.9206175, "bike_id": "7519d9bebdba7127b4f283f703fb0f8e", "is_disabled": 0, "lon": -76.99112633333333, "is_reserved": 0, "fusion_lat": 0.0, "type": "electric_bike"}, {"fusion_lon": 0.0, "name": "e6434854c81bd71e4cac25d51d9c817d", "rental_uris": {"android": "https://dc.lft.to/lastmile_qr_scan", "ios": "https://dc.lft.to/lastmile_qr_scan"}, "lat": 38.876855166666665, "bike_id": "e6434854c81bd71e4cac25d51d9c817d", "is_disabled": 0, "lon": -77.00065216666667, "is_reserved": 0, "fusion_lat": 0.0, "type": "electric_scooter"}, {"fusion_lon": 0.0, "name": "c767aab169a3ea7cbd7e32ae5fc76bb2", "rental_uris": {"android": "https://dc.lft.to/lastmile_qr_scan", "ios": "https://dc.lft.to/lastmile_qr_scan"}, "lat": 38.926066166666665, "bike_id": "c767aab169a3ea7cbd7e32ae5fc76bb2", "is_disabled": 0, "lon": -77.02163716666666, "is_reserved": 0, "fusion_lat": 0.0, "type": "electric_scooter"}, {"fusion_lon": 0.0, "name": "eb5eb0acc04bb532196bc051ab8b21e4", "rental_uris": {"android": "https://dc.lft.to/lastmile_qr_scan", "ios": "https://dc.lft.to/lastmile_qr_scan"}, "lat": 38.921739333333335, "bike_id": "eb5eb0acc04bb532196bc051ab8b21e4", "is_disabled": 0, "lon": -77.02670133333334, "is_reserved": 0, "fusion_lat": 0.0, "type": "electric_scooter"}, {"fusion_lon": 0.0, "name": "a36d32200dbddf51d8434b9bd8c3e9b5", "rental_uris": {"android": "https://dc.lft.to/lastmile_qr_scan", "ios": "https://dc.lft.to/lastmile_qr_scan"}, "lat": 38.92085683333333, "bike_id": "a36d32200dbddf51d8434b9bd8c3e9b5", "is_disabled": 0, "lon": -77.02323483333333, "is_reserved": 0, "fusion_lat": 0.0, "type": "electric_scooter"}, {"fusion_lon": 0.0, "name": "d6d646ee31528ac1e3af0ebe64307ecd", "rental_uris": {"android": "https://dc.lft.to/lastmile_qr_scan", "ios": "https://dc.lft.to/lastmile_qr_scan"}, "lat": 38.95756433333333, "bike_id": "d6d646ee31528ac1e3af0ebe64307ecd", "is_disabled": 0, "lon": -77.00914616666667, "is_reserved": 0, "fusion_lat": 0.0, "type": "electric_scooter"}, {"fusion_lon": 0.0, "name": "977565a33fa8b2a58828a77ab7744b69", "rental_uris": {"android": "https://dc.lft.to/lastmile_qr_scan", "ios": "https://dc.lft.to/lastmile_qr_scan"}, "lat": 38.91247666666667, "bike_id": "977565a33fa8b2a58828a77ab7744b69", "is_disabled": 0, "lon": -77.03214066666666, "is_reserved": 0, "fusion_lat": 0.0, "type": "electric_scooter"}, {"fusion_lon": 0.0, "name": "ab7a22c875554446690bc6f542b55d26", "rental_uris": {"android": "https://dc.lft.to/lastmile_qr_scan", "ios": "https://dc.lft.to/lastmile_qr_scan"}, "lat": 38.921488, "bike_id": "ab7a22c875554446690bc6f542b55d26", "is_disabled": 0, "lon": -77.0338775, "is_reserved": 0, "fusion_lat": 0.0, "type": "electric_scooter"}, {"fusion_lon": 0.0, "name": "6cd75978901880cd3a65f0c8e38273b2", "rental_uris": {"android": "https://dc.lft.to/lastmile_qr_scan", "ios": "https://dc.lft.to/lastmile_qr_scan"}, "lat": 38.89231266666667, "bike_id": "6cd75978901880cd3a65f0c8e38273b2", "is_disabled": 0, "lon": -77.02385916666667, "is_reserved": 0, "fusion_lat": 0.0, "type": "electric_scooter"}, {"fusion_lon": 0.0, "name": "5cdf4d86373c19150a01446f570d7b0c", "rental_uris": {"android": "https://dc.lft.to/lastmile_qr_scan", "ios": "https://dc.lft.to/lastmile_qr_scan"}, "lat": 38.920542833333336, "bike_id": "5cdf4d86373c19150a01446f570d7b0c", "is_disabled": 0, "lon": -77.02431266666666, "is_reserved": 0, "fusion_lat": 0.0, "type": "electric_scooter"}, {"fusion_lon": 0.0, "name": "ceec7f4217f4256cd1f179439fa3a21d", "rental_uris": {"android": "https://dc.lft.to/lastmile_qr_scan", "ios": "https://dc.lft.to/lastmile_qr_scan"}, "lat": 38.9436805, "bike_id": "ceec7f4217f4256cd1f179439fa3a21d", "is_disabled": 0, "lon": -77.06103033333333, "is_reserved": 0, "fusion_lat": 0.0, "type": "electric_scooter"}, {"fusion_lon": 0.0, "name": "af08e2ca9c11d226ea9e9ecabf19e387", "rental_uris": {"android": "https://dc.lft.to/lastmile_qr_scan", "ios": "https://dc.lft.to/lastmile_qr_scan"}, "lat": 38.917563, "bike_id": "af08e2ca9c11d226ea9e9ecabf19e387", "is_disabled": 0, "lon": -77.0210685, "is_reserved": 0, "fusion_lat": 0.0, "type": "electric_scooter"}, {"fusion_lon": 0.0, "name": "28313bbeaa11f12585d8397ed62403da", "rental_uris": {"android": "https://dc.lft.to/lastmile_qr_scan", "ios": "https://dc.lft.to/lastmile_qr_scan"}, "lat": 38.9226735, "bike_id": "28313bbeaa11f12585d8397ed62403da", "is_disabled": 0, "lon": -77.0339685, "is_reserved": 0, "fusion_lat": 0.0, "type": "electric_scooter"}, {"fusion_lon": 0.0, "name": "72848905dc7e45d5c29c36153b78cfe2", "rental_uris": {"android": "https://dc.lft.to/lastmile_qr_scan", "ios": "https://dc.lft.to/lastmile_qr_scan"}, "lat": 38.96134216666667, "bike_id": "72848905dc7e45d5c29c36153b78cfe2", "is_disabled": 0, "lon": -77.00033166666667, "is_reserved": 0, "fusion_lat": 0.0, "type": "electric_scooter"}, {"fusion_lon": 0.0, "name": "f1630d1f6be81abab02278c7acd2b1fe", "rental_uris": {"android": "https://dc.lft.to/lastmile_qr_scan", "ios": "https://dc.lft.to/lastmile_qr_scan"}, "lat": 38.94461666666667, "bike_id": "f1630d1f6be81abab02278c7acd2b1fe", "is_disabled": 0, "lon": -77.06391966666666, "is_reserved": 0, "fusion_lat": 0.0, "type": "electric_scooter"}, {"fusion_lon": 0.0, "name": "f9a75e6f7f3d5bbbefe737b24cce81b9", "rental_uris": {"android": "https://dc.lft.to/lastmile_qr_scan", "ios": "https://dc.lft.to/lastmile_qr_scan"}, "lat": 38.898817333333334, "bike_id": "f9a75e6f7f3d5bbbefe737b24cce81b9", "is_disabled": 0, "lon": -76.98837916666666, "is_reserved": 0, "fusion_lat": 0.0, "type": "electric_scooter"}, {"fusion_lon": 0.0, "name": "a5ca2f728833f21b8e81ab47a8eab7e8", "rental_uris": {"android": "https://dc.lft.to/lastmile_qr_scan", "ios": "https://dc.lft.to/lastmile_qr_scan"}, "lat": 38.9245845, "bike_id": "a5ca2f728833f21b8e81ab47a8eab7e8", "is_disabled": 0, "lon": -77.0328375, "is_reserved": 0, "fusion_lat": 0.0, "type": "electric_scooter"}, {"fusion_lon": 0.0, "name": "8d3e534ee92d4dbd4431bb4496fe0899", "rental_uris": {"android": "https://dc.lft.to/lastmile_qr_scan", "ios": "https://dc.lft.to/lastmile_qr_scan"}, "lat": 38.90020883333333, "bike_id": "8d3e534ee92d4dbd4431bb4496fe0899", "is_disabled": 0, "lon": -77.00224216666666, "is_reserved": 0, "fusion_lat": 0.0, "type": "electric_scooter"}, {"fusion_lon": 0.0, "name": "66ff6c513761763ac1d2d26688a6c894", "rental_uris": {"android": "https://dc.lft.to/lastmile_qr_scan", "ios": "https://dc.lft.to/lastmile_qr_scan"}, "lat": 38.9185485, "bike_id": "66ff6c513761763ac1d2d26688a6c894", "is_disabled": 0, "lon": -77.03187633333333, "is_reserved": 0, "fusion_lat": 0.0, "type": "electric_scooter"}, {"fusion_lon": 0.0, "name": "0f562a979015f4f51c4344fcb8ce9102", "rental_uris": {"android": "https://dc.lft.to/lastmile_qr_scan", "ios": "https://dc.lft.to/lastmile_qr_scan"}, "lat": 38.94031316666667, "bike_id": "0f562a979015f4f51c4344fcb8ce9102", "is_disabled": 0, "lon": -77.02520683333333, "is_reserved": 0, "fusion_lat": 0.0, "type": "electric_scooter"}, {"fusion_lon": 0.0, "name": "92867b1be2ba4036871d9ed55c348478", "rental_uris": {"android": "https://dc.lft.to/lastmile_qr_scan", "ios": "https://dc.lft.to/lastmile_qr_scan"}, "lat": 38.91845983333333, "bike_id": "92867b1be2ba4036871d9ed55c348478", "is_disabled": 0, "lon": -77.03859816666667, "is_reserved": 0, "fusion_lat": 0.0, "type": "electric_scooter"}, {"fusion_lon": 0.0, "name": "1e297c91e4a77012dc6d324e1f504cea", "rental_uris": {"android": "https://dc.lft.to/lastmile_qr_scan", "ios": "https://dc.lft.to/lastmile_qr_scan"}, "lat": 38.8804145, "bike_id": "1e297c91e4a77012dc6d324e1f504cea", "is_disabled": 0, "lon": -77.0035535, "is_reserved": 0, "fusion_lat": 0.0, "type": "electric_scooter"}, {"fusion_lon": 0.0, "name": "83fb9f529f7a04b9c536b6d0e65ca2e1", "rental_uris": {"android": "https://dc.lft.to/lastmile_qr_scan", "ios": "https://dc.lft.to/lastmile_qr_scan"}, "lat": 38.93631416666667, "bike_id": "83fb9f529f7a04b9c536b6d0e65ca2e1", "is_disabled": 0, "lon": -77.03261183333333, "is_reserved": 0, "fusion_lat": 0.0, "type": "electric_scooter"}, {"fusion_lon": 0.0, "name": "f9025fc0f686ea5a7c86a823a9acc692", "rental_uris": {"android": "https://dc.lft.to/lastmile_qr_scan", "ios": "https://dc.lft.to/lastmile_qr_scan"}, "lat": 38.877360833333334, "bike_id": "f9025fc0f686ea5a7c86a823a9acc692", "is_disabled": 0, "lon": -77.012008, "is_reserved": 0, "fusion_lat": 0.0, "type": "electric_bike"}, {"fusion_lon": 0.0, "name": "d9456200fdffac2987402c0c0fa293e5", "rental_uris": {"android": "https://dc.lft.to/lastmile_qr_scan", "ios": "https://dc.lft.to/lastmile_qr_scan"}, "lat": 38.902148, "bike_id": "d9456200fdffac2987402c0c0fa293e5", "is_disabled": 0, "lon": -77.01741983333334, "is_reserved": 0, "fusion_lat": 0.0, "type": "electric_scooter"}, {"fusion_lon": 0.0, "name": "1e93e0480bec7b85663ad0eac1627785", "rental_uris": {"android": "https://dc.lft.to/lastmile_qr_scan", "ios": "https://dc.lft.to/lastmile_qr_scan"}, "lat": 38.895446, "bike_id": "1e93e0480bec7b85663ad0eac1627785", "is_disabled": 0, "lon": -76.98337233333334, "is_reserved": 0, "fusion_lat": 0.0, "type": "electric_scooter"}, {"fusion_lon": 0.0, "name": "9c73cf1eb65a80776c1c39d806c282f1", "rental_uris": {"android": "https://dc.lft.to/lastmile_qr_scan", "ios": "https://dc.lft.to/lastmile_qr_scan"}, "lat": 38.90758733333333, "bike_id": "9c73cf1eb65a80776c1c39d806c282f1", "is_disabled": 0, "lon": -77.05980366666667, "is_reserved": 0, "fusion_lat": 0.0, "type": "electric_scooter"}, {"fusion_lon": 0.0, "name": "ea934bc07570a7cce311cb1f41450b60", "rental_uris": {"android": "https://dc.lft.to/lastmile_qr_scan", "ios": "https://dc.lft.to/lastmile_qr_scan"}, "lat": 38.919144333333335, "bike_id": "ea934bc07570a7cce311cb1f41450b60", "is_disabled": 0, "lon": -77.03421266666666, "is_reserved": 0, "fusion_lat": 0.0, "type": "electric_scooter"}, {"fusion_lon": 0.0, "name": "659b350302274d78aaf04e75c414c19c", "rental_uris": {"android": "https://dc.lft.to/lastmile_qr_scan", "ios": "https://dc.lft.to/lastmile_qr_scan"}, "lat": 38.924646833333334, "bike_id": "659b350302274d78aaf04e75c414c19c", "is_disabled": 0, "lon": -77.03830266666667, "is_reserved": 0, "fusion_lat": 0.0, "type": "electric_scooter"}, {"fusion_lon": 0.0, "name": "343ce9d2e9abe9b77ed57e891eda2e16", "rental_uris": {"android": "https://dc.lft.to/lastmile_qr_scan", "ios": "https://dc.lft.to/lastmile_qr_scan"}, "lat": 38.9170785, "bike_id": "343ce9d2e9abe9b77ed57e891eda2e16", "is_disabled": 0, "lon": -77.03866733333334, "is_reserved": 0, "fusion_lat": 0.0, "type": "electric_scooter"}, {"fusion_lon": 0.0, "name": "01955cfb74423f10887dd6351cb814b2", "rental_uris": {"android": "https://dc.lft.to/lastmile_qr_scan", "ios": "https://dc.lft.to/lastmile_qr_scan"}, "lat": 38.911074, "bike_id": "01955cfb74423f10887dd6351cb814b2", "is_disabled": 0, "lon": -77.038632, "is_reserved": 0, "fusion_lat": 0.0, "type": "electric_scooter"}, {"fusion_lon": 0.0, "name": "0209c42b32adcc99c207c707aca190c4", "rental_uris": {"android": "https://dc.lft.to/lastmile_qr_scan", "ios": "https://dc.lft.to/lastmile_qr_scan"}, "lat": 38.88424333333333, "bike_id": "0209c42b32adcc99c207c707aca190c4", "is_disabled": 0, "lon": -77.02564566666666, "is_reserved": 0, "fusion_lat": 0.0, "type": "electric_scooter"}, {"fusion_lon": 0.0, "name": "d04c4ae6cc62bb7a6474a6cfb8b7228f", "rental_uris": {"android": "https://dc.lft.to/lastmile_qr_scan", "ios": "https://dc.lft.to/lastmile_qr_scan"}, "lat": 38.92736566666667, "bike_id": "d04c4ae6cc62bb7a6474a6cfb8b7228f", "is_disabled": 0, "lon": -77.022759, "is_reserved": 0, "fusion_lat": 0.0, "type": "electric_scooter"}, {"fusion_lon": 0.0, "name": "572dc571cf702bae7c943aa909b125f9", "rental_uris": {"android": "https://dc.lft.to/lastmile_qr_scan", "ios": "https://dc.lft.to/lastmile_qr_scan"}, "lat": 38.94185983333333, "bike_id": "572dc571cf702bae7c943aa909b125f9", "is_disabled": 0, "lon": -77.0249255, "is_reserved": 0, "fusion_lat": 0.0, "type": "electric_scooter"}, {"fusion_lon": 0.0, "name": "f0b00a9824fb5ae9ace3c7f5a709155d", "rental_uris": {"android": "https://dc.lft.to/lastmile_qr_scan", "ios": "https://dc.lft.to/lastmile_qr_scan"}, "lat": 38.9171475, "bike_id": "f0b00a9824fb5ae9ace3c7f5a709155d", "is_disabled": 0, "lon": -77.03866916666666, "is_reserved": 0, "fusion_lat": 0.0, "type": "electric_scooter"}, {"fusion_lon": 0.0, "name": "ecdd265f21d4a01d50a1865ec39d2760", "rental_uris": {"android": "https://dc.lft.to/lastmile_qr_scan", "ios": "https://dc.lft.to/lastmile_qr_scan"}, "lat": 38.898780333333335, "bike_id": "ecdd265f21d4a01d50a1865ec39d2760", "is_disabled": 0, "lon": -76.931869, "is_reserved": 0, "fusion_lat": 0.0, "type": "electric_bike"}, {"fusion_lon": 0.0, "name": "84c0e884f4adcc94b42055bab6c7cea7", "rental_uris": {"android": "https://dc.lft.to/lastmile_qr_scan", "ios": "https://dc.lft.to/lastmile_qr_scan"}, "lat": 38.883437666666666, "bike_id": "84c0e884f4adcc94b42055bab6c7cea7", "is_disabled": 0, "lon": -76.9428585, "is_reserved": 0, "fusion_lat": 0.0, "type": "electric_scooter"}, {"fusion_lon": 0.0, "name": "bf74df47133a6e0ce2f779fe71eee62a", "rental_uris": {"android": "https://dc.lft.to/lastmile_qr_scan", "ios": "https://dc.lft.to/lastmile_qr_scan"}, "lat": 38.895739166666665, "bike_id": "bf74df47133a6e0ce2f779fe71eee62a", "is_disabled": 0, "lon": -76.94845716666667, "is_reserved": 0, "fusion_lat": 0.0, "type": "electric_scooter"}, {"fusion_lon": 0.0, "name": "6176c8f1e8a17a4b6f8d18bb2f3bf0c5", "rental_uris": {"android": "https://dc.lft.to/lastmile_qr_scan", "ios": "https://dc.lft.to/lastmile_qr_scan"}, "lat": 38.879458, "bike_id": "6176c8f1e8a17a4b6f8d18bb2f3bf0c5", "is_disabled": 0, "lon": -77.00376466666667, "is_reserved": 0, "fusion_lat": 0.0, "type": "electric_scooter"}, {"fusion_lon": 0.0, "name": "5f872fe7e546944861f7b5e59d3fd086", "rental_uris": {"android": "https://dc.lft.to/lastmile_qr_scan", "ios": "https://dc.lft.to/lastmile_qr_scan"}, "lat": 38.9149885, "bike_id": "5f872fe7e546944861f7b5e59d3fd086", "is_disabled": 0, "lon": -77.01224, "is_reserved": 0, "fusion_lat": 0.0, "type": "electric_scooter"}, {"fusion_lon": 0.0, "name": "3abb09c2aebb396ed8528cdfce5788ba", "rental_uris": {"android": "https://dc.lft.to/lastmile_qr_scan", "ios": "https://dc.lft.to/lastmile_qr_scan"}, "lat": 38.907105, "bike_id": "3abb09c2aebb396ed8528cdfce5788ba", "is_disabled": 0, "lon": -77.04980883333333, "is_reserved": 0, "fusion_lat": 0.0, "type": "electric_scooter"}, {"fusion_lon": 0.0, "name": "b6abe84a4a98ee2d269cc309891287a9", "rental_uris": {"android": "https://dc.lft.to/lastmile_qr_scan", "ios": "https://dc.lft.to/lastmile_qr_scan"}, "lat": 38.965036833333336, "bike_id": "b6abe84a4a98ee2d269cc309891287a9", "is_disabled": 0, "lon": -77.00260283333333, "is_reserved": 0, "fusion_lat": 0.0, "type": "electric_scooter"}, {"fusion_lon": 0.0, "name": "f79c602cbd75509572fd69d172586a49", "rental_uris": {"android": "https://dc.lft.to/lastmile_qr_scan", "ios": "https://dc.lft.to/lastmile_qr_scan"}, "lat": 38.917606, "bike_id": "f79c602cbd75509572fd69d172586a49", "is_disabled": 0, "lon": -77.00917016666666, "is_reserved": 0, "fusion_lat": 0.0, "type": "electric_scooter"}, {"fusion_lon": 0.0, "name": "f675fb35641f7ca01512fe4cae891ca0", "rental_uris": {"android": "https://dc.lft.to/lastmile_qr_scan", "ios": "https://dc.lft.to/lastmile_qr_scan"}, "lat": 38.903667166666665, "bike_id": "f675fb35641f7ca01512fe4cae891ca0", "is_disabled": 0, "lon": -76.99835733333333, "is_reserved": 0, "fusion_lat": 0.0, "type": "electric_scooter"}, {"fusion_lon": 0.0, "name": "b71bfb284029e70c8ce6020083c0c5fd", "rental_uris": {"android": "https://dc.lft.to/lastmile_qr_scan", "ios": "https://dc.lft.to/lastmile_qr_scan"}, "lat": 38.905250833333334, "bike_id": "b71bfb284029e70c8ce6020083c0c5fd", "is_disabled": 0, "lon": -77.0623765, "is_reserved": 0, "fusion_lat": 0.0, "type": "electric_scooter"}, {"fusion_lon": 0.0, "name": "b39c470832bfe011fb43accbd5c55b41", "rental_uris": {"android": "https://dc.lft.to/lastmile_qr_scan", "ios": "https://dc.lft.to/lastmile_qr_scan"}, "lat": 38.914826833333336, "bike_id": "b39c470832bfe011fb43accbd5c55b41", "is_disabled": 0, "lon": -77.04015866666667, "is_reserved": 0, "fusion_lat": 0.0, "type": "electric_scooter"}, {"fusion_lon": 0.0, "name": "00a19a44c7acd8a4fde7176766974124", "rental_uris": {"android": "https://dc.lft.to/lastmile_qr_scan", "ios": "https://dc.lft.to/lastmile_qr_scan"}, "lat": 38.91653933333333, "bike_id": "00a19a44c7acd8a4fde7176766974124", "is_disabled": 0, "lon": -77.00947766666667, "is_reserved": 0, "fusion_lat": 0.0, "type": "electric_scooter"}, {"fusion_lon": 0.0, "name": "188e38eb14c160c84c32a3ad1676cce6", "rental_uris": {"android": "https://dc.lft.to/lastmile_qr_scan", "ios": "https://dc.lft.to/lastmile_qr_scan"}, "lat": 38.87197483333333, "bike_id": "188e38eb14c160c84c32a3ad1676cce6", "is_disabled": 0, "lon": -77.009336, "is_reserved": 0, "fusion_lat": 0.0, "type": "electric_scooter"}, {"fusion_lon": 0.0, "name": "b3aca7bcc9f3a8253e44ee8bf3842d5f", "rental_uris": {"android": "https://dc.lft.to/lastmile_qr_scan", "ios": "https://dc.lft.to/lastmile_qr_scan"}, "lat": 38.8086625, "bike_id": "b3aca7bcc9f3a8253e44ee8bf3842d5f", "is_disabled": 0, "lon": -77.1125435, "is_reserved": 0, "fusion_lat": 0.0, "type": "electric_bike"}, {"fusion_lon": 0.0, "name": "e8496764f16efc867aedb41ce9117d7c", "rental_uris": {"android": "https://dc.lft.to/lastmile_qr_scan", "ios": "https://dc.lft.to/lastmile_qr_scan"}, "lat": 38.87572883333333, "bike_id": "e8496764f16efc867aedb41ce9117d7c", "is_disabled": 0, "lon": -77.0058275, "is_reserved": 0, "fusion_lat": 0.0, "type": "electric_scooter"}, {"fusion_lon": 0.0, "name": "4132f4278040d427374d29fef8fff3cb", "rental_uris": {"android": "https://dc.lft.to/lastmile_qr_scan", "ios": "https://dc.lft.to/lastmile_qr_scan"}, "lat": 38.871742, "bike_id": "4132f4278040d427374d29fef8fff3cb", "is_disabled": 0, "lon": -77.23391866666667, "is_reserved": 0, "fusion_lat": 0.0, "type": "electric_bike"}, {"fusion_lon": 0.0, "name": "8a3c3665a4fbf04a37b20c499c8657ae", "rental_uris": {"android": "https://dc.lft.to/lastmile_qr_scan", "ios": "https://dc.lft.to/lastmile_qr_scan"}, "lat": 38.90962016666667, "bike_id": "8a3c3665a4fbf04a37b20c499c8657ae", "is_disabled": 0, "lon": -77.02442, "is_reserved": 0, "fusion_lat": 0.0, "type": "electric_scooter"}, {"fusion_lon": 0.0, "name": "153e7bbbebb25073830c3ef2b8017ebb", "rental_uris": {"android": "https://dc.lft.to/lastmile_qr_scan", "ios": "https://dc.lft.to/lastmile_qr_scan"}, "lat": 38.916091, "bike_id": "153e7bbbebb25073830c3ef2b8017ebb", "is_disabled": 0, "lon": -77.0229905, "is_reserved": 0, "fusion_lat": 0.0, "type": "electric_scooter"}, {"fusion_lon": 0.0, "name": "32df6f61b4868eb3a3db513ffe5883ca", "rental_uris": {"android": "https://dc.lft.to/lastmile_qr_scan", "ios": "https://dc.lft.to/lastmile_qr_scan"}, "lat": 38.90951666666667, "bike_id": "32df6f61b4868eb3a3db513ffe5883ca", "is_disabled": 0, "lon": -77.04472933333334, "is_reserved": 0, "fusion_lat": 0.0, "type": "electric_scooter"}, {"fusion_lon": 0.0, "name": "da196b88db4020e84a9854c5e5c944d1", "rental_uris": {"android": "https://dc.lft.to/lastmile_qr_scan", "ios": "https://dc.lft.to/lastmile_qr_scan"}, "lat": 38.94166933333333, "bike_id": "da196b88db4020e84a9854c5e5c944d1", "is_disabled": 0, "lon": -77.0255925, "is_reserved": 0, "fusion_lat": 0.0, "type": "electric_scooter"}, {"fusion_lon": 0.0, "name": "50378d740de97aeea6464446c5b0fcbd", "rental_uris": {"android": "https://dc.lft.to/lastmile_qr_scan", "ios": "https://dc.lft.to/lastmile_qr_scan"}, "lat": 38.90580416666667, "bike_id": "50378d740de97aeea6464446c5b0fcbd", "is_disabled": 0, "lon": -77.046959, "is_reserved": 0, "fusion_lat": 0.0, "type": "electric_scooter"}, {"fusion_lon": 0.0, "name": "20072aed4fa8aa1ed6d550fd46b80cb6", "rental_uris": {"android": "https://dc.lft.to/lastmile_qr_scan", "ios": "https://dc.lft.to/lastmile_qr_scan"}, "lat": 38.9736915, "bike_id": "20072aed4fa8aa1ed6d550fd46b80cb6", "is_disabled": 0, "lon": -77.018622, "is_reserved": 0, "fusion_lat": 0.0, "type": "electric_scooter"}, {"fusion_lon": 0.0, "name": "8a2dd3b3d2c76358fdbe565aadcc66b4", "rental_uris": {"android": "https://dc.lft.to/lastmile_qr_scan", "ios": "https://dc.lft.to/lastmile_qr_scan"}, "lat": 38.90492883333334, "bike_id": "8a2dd3b3d2c76358fdbe565aadcc66b4", "is_disabled": 0, "lon": -77.05136483333334, "is_reserved": 0, "fusion_lat": 0.0, "type": "electric_scooter"}, {"fusion_lon": 0.0, "name": "3c5c8690e930552ce03b804d87787442", "rental_uris": {"android": "https://dc.lft.to/lastmile_qr_scan", "ios": "https://dc.lft.to/lastmile_qr_scan"}, "lat": 38.892274666666665, "bike_id": "3c5c8690e930552ce03b804d87787442", "is_disabled": 0, "lon": -77.03373816666667, "is_reserved": 0, "fusion_lat": 0.0, "type": "electric_scooter"}, {"fusion_lon": 0.0, "name": "3dcfc799698c08ce2ab3b80ff911d163", "rental_uris": {"android": "https://dc.lft.to/lastmile_qr_scan", "ios": "https://dc.lft.to/lastmile_qr_scan"}, "lat": 38.9095985, "bike_id": "3dcfc799698c08ce2ab3b80ff911d163", "is_disabled": 0, "lon": -77.03573466666667, "is_reserved": 0, "fusion_lat": 0.0, "type": "electric_scooter"}, {"fusion_lon": 0.0, "name": "bdd738aa761350476e354697d6ac5d07", "rental_uris": {"android": "https://dc.lft.to/lastmile_qr_scan", "ios": "https://dc.lft.to/lastmile_qr_scan"}, "lat": 38.926853333333334, "bike_id": "bdd738aa761350476e354697d6ac5d07", "is_disabled": 0, "lon": -77.02965533333334, "is_reserved": 0, "fusion_lat": 0.0, "type": "electric_scooter"}, {"fusion_lon": 0.0, "name": "5d12d6ac89bd252d4e498b16764405f6", "rental_uris": {"android": "https://dc.lft.to/lastmile_qr_scan", "ios": "https://dc.lft.to/lastmile_qr_scan"}, "lat": 38.884335166666666, "bike_id": "5d12d6ac89bd252d4e498b16764405f6", "is_disabled": 0, "lon": -76.9574255, "is_reserved": 0, "fusion_lat": 0.0, "type": "electric_scooter"}, {"fusion_lon": 0.0, "name": "4df86262a2dae0be09935ccf5d4c0600", "rental_uris": {"android": "https://dc.lft.to/lastmile_qr_scan", "ios": "https://dc.lft.to/lastmile_qr_scan"}, "lat": 38.892227166666665, "bike_id": "4df86262a2dae0be09935ccf5d4c0600", "is_disabled": 0, "lon": -77.0437405, "is_reserved": 0, "fusion_lat": 0.0, "type": "electric_scooter"}, {"fusion_lon": 0.0, "name": "13303b027c32fe684454d3a3766b4d9c", "rental_uris": {"android": "https://dc.lft.to/lastmile_qr_scan", "ios": "https://dc.lft.to/lastmile_qr_scan"}, "lat": 38.899584833333336, "bike_id": "13303b027c32fe684454d3a3766b4d9c", "is_disabled": 0, "lon": -77.047168, "is_reserved": 0, "fusion_lat": 0.0, "type": "electric_scooter"}, {"fusion_lon": 0.0, "name": "a566106391d1c43569ff2906fe7fbbd0", "rental_uris": {"android": "https://dc.lft.to/lastmile_qr_scan", "ios": "https://dc.lft.to/lastmile_qr_scan"}, "lat": 38.924139333333336, "bike_id": "a566106391d1c43569ff2906fe7fbbd0", "is_disabled": 0, "lon": -77.021382, "is_reserved": 0, "fusion_lat": 0.0, "type": "electric_scooter"}, {"fusion_lon": 0.0, "name": "fdd160179159fce55ae5e8706e593818", "rental_uris": {"android": "https://dc.lft.to/lastmile_qr_scan", "ios": "https://dc.lft.to/lastmile_qr_scan"}, "lat": 38.9508035, "bike_id": "fdd160179159fce55ae5e8706e593818", "is_disabled": 0, "lon": -76.99798266666667, "is_reserved": 0, "fusion_lat": 0.0, "type": "electric_scooter"}, {"fusion_lon": 0.0, "name": "1f89a044da6323d806eb7150a1a20236", "rental_uris": {"android": "https://dc.lft.to/lastmile_qr_scan", "ios": "https://dc.lft.to/lastmile_qr_scan"}, "lat": 38.87996916666667, "bike_id": "1f89a044da6323d806eb7150a1a20236", "is_disabled": 0, "lon": -77.03741916666667, "is_reserved": 0, "fusion_lat": 0.0, "type": "electric_scooter"}, {"fusion_lon": 0.0, "name": "cffad13430c9b94235e0425dcca8a996", "rental_uris": {"android": "https://dc.lft.to/lastmile_qr_scan", "ios": "https://dc.lft.to/lastmile_qr_scan"}, "lat": 38.89906333333333, "bike_id": "cffad13430c9b94235e0425dcca8a996", "is_disabled": 0, "lon": -76.93392266666666, "is_reserved": 0, "fusion_lat": 0.0, "type": "electric_scooter"}, {"fusion_lon": 0.0, "name": "18f34b69a946311f7929e68b56497f3f", "rental_uris": {"android": "https://dc.lft.to/lastmile_qr_scan", "ios": "https://dc.lft.to/lastmile_qr_scan"}, "lat": 38.937365166666666, "bike_id": "18f34b69a946311f7929e68b56497f3f", "is_disabled": 0, "lon": -77.03260666666667, "is_reserved": 0, "fusion_lat": 0.0, "type": "electric_scooter"}, {"fusion_lon": 0.0, "name": "4c672f23e84515449a72078281dbf69b", "rental_uris": {"android": "https://dc.lft.to/lastmile_qr_scan", "ios": "https://dc.lft.to/lastmile_qr_scan"}, "lat": 38.90255883333333, "bike_id": "4c672f23e84515449a72078281dbf69b", "is_disabled": 0, "lon": -77.0312745, "is_reserved": 0, "fusion_lat": 0.0, "type": "electric_scooter"},