{"data": {"bikes": [{"fusion_lat": 0.0, "name": "f2bdb0ea21cbf438c1e201eac05562e1", "is_disabled": 0, "rental_uris": {"android": "https://dc.lft.to/lastmile_qr_scan", "ios": "https://dc.lft.to/lastmile_qr_scan"}, "fusion_lon": 0.0, "lat": 38.913675833333336, "bike_id": "f2bdb0ea21cbf438c1e201eac05562e1", "type": "electric_scooter", "is_reserved": 0, "lon": -77.04559683333333}, {"fusion_lat": 0.0, "name": "df778155048204efc38cd41d82836fba", "is_disabled": 0, "rental_uris": {"android": "https://dc.lft.to/lastmile_qr_scan", "ios": "https://dc.lft.to/lastmile_qr_scan"}, "fusion_lon": 0.0, "lat": 38.937014166666664, "bike_id": "df778155048204efc38cd41d82836fba", "type": "electric_scooter", "is_reserved": 0, "lon": -77.03281133333333}, {"fusion_lat": 0.0, "name": "43dec8eea8e2717c58bbad751fa33704", "is_disabled": 0, "rental_uris": {"android": "https://dc.lft.to/lastmile_qr_scan", "ios": "https://dc.lft.to/lastmile_qr_scan"}, "fusion_lon": 0.0, "lat": 38.897361, "bike_id": "43dec8eea8e2717c58bbad751fa33704", "type": "electric_scooter", "is_reserved": 0, "lon": -77.04360216666667}, {"fusion_lat": 0.0, "name": "2c5a3515739e66ac23d54b1bad7a199f", "is_disabled": 0, "rental_uris": {"android": "https://dc.lft.to/lastmile_qr_scan", "ios": "https://dc.lft.to/lastmile_qr_scan"}, "fusion_lon": 0.0, "lat": 38.9224995, "bike_id": "2c5a3515739e66ac23d54b1bad7a199f", "type": "electric_scooter", "is_reserved": 0, "lon": -77.04195833333333}, {"fusion_lat": 0.0, "name": "b5c2206c09b28bd00dde51a7c2b5250f", "is_disabled": 0, "rental_uris": {"android": "https://dc.lft.to/lastmile_qr_scan", "ios": "https://dc.lft.to/lastmile_qr_scan"}, "fusion_lon": 0.0, "lat": 38.8668095, "bike_id": "b5c2206c09b28bd00dde51a7c2b5250f", "type": "electric_scooter", "is_reserved": 0, "lon": -76.985622}, {"fusion_lat": 0.0, "name": "9e3ad4da66ff7f11926a3028bca021f6", "is_disabled": 0, "rental_uris": {"android": "https://dc.lft.to/lastmile_qr_scan", "ios": "https://dc.lft.to/lastmile_qr_scan"}, "fusion_lon": 0.0, "lat": 38.8428405, "bike_id": "9e3ad4da66ff7f11926a3028bca021f6", "type": "electric_bike", "is_reserved": 0, "lon": -77.04495733333333}, {"fusion_lat": 0.0, "name": "731a14e06ab56c05d3e697a2d1750c9d", "is_disabled": 0, "rental_uris": {"android": "https://dc.lft.to/lastmile_qr_scan", "ios": "https://dc.lft.to/lastmile_qr_scan"}, "fusion_lon": 0.0, "lat": 38.915691333333335, "bike_id": "731a14e06ab56c05d3e697a2d1750c9d", "type": "electric_scooter", "is_reserved": 0, "lon": -77.02386766666666}, {"fusion_lat": 0.0, "name": "98cafeda70cb176605ff6b2470ee8697", "is_disabled": 0, "rental_uris": {"android": "https://dc.lft.to/lastmile_qr_scan", "ios": "https://dc.lft.to/lastmile_qr_scan"}, "fusion_lon": 0.0, "lat": 38.900278166666666, "bike_id": "98cafeda70cb176605ff6b2470ee8697", "type": "electric_scooter", "is_reserved": 0, "lon": -77.007013}, {"fusion_lat": 0.0, "name": "62ccf4d518e2dba0c86185c72a72c095", "is_disabled": 0, "rental_uris": {"android": "https://dc.lft.to/lastmile_qr_scan", "ios": "https://dc.lft.to/lastmile_qr_scan"}, "fusion_lon": 0.0, "lat": 38.92473783333333, "bike_id": "62ccf4d518e2dba0c86185c72a72c095", "type": "electric_scooter", "is_reserved": 0, "lon": -77.03917616666666}, {"fusion_lat": 0.0, "name": "0c59ad5ff605f556d86e7e2ad740eeb2", "is_disabled": 0, "rental_uris": {"android": "https://dc.lft.to/lastmile_qr_scan", "ios": "https://dc.lft.to/lastmile_qr_scan"}, "fusion_lon": 0.0, "lat": 38.92846516666667, "bike_id": "0c59ad5ff605f556d86e7e2ad740eeb2", "type": "electric_scooter", "is_reserved": 0, "lon": -77.03286716666666}, {"fusion_lat": 0.0, "name": "c360b7ea5d95edef9c95e61bd609d8ca", "is_disabled": 0, "rental_uris": {"android": "https://dc.lft.to/lastmile_qr_scan", "ios": "https://dc.lft.to/lastmile_qr_scan"}, "fusion_lon": 0.0, "lat": 38.934637333333335, "bike_id": "c360b7ea5d95edef9c95e61bd609d8ca", "type": "electric_scooter", "is_reserved": 0, "lon": -77.04125766666667}, {"fusion_lat": 0.0, "name": "f4f220da7b7ce6201ddb9bc87ed68a00", "is_disabled": 0, "rental_uris": {"android": "https://dc.lft.to/lastmile_qr_scan", "ios": "https://dc.lft.to/lastmile_qr_scan"}, "fusion_lon": 0.0, "lat": 38.89862983333333, "bike_id": "f4f220da7b7ce6201ddb9bc87ed68a00", "type": "electric_scooter", "is_reserved": 0, "lon": -76.94638733333333}, {"fusion_lat": 0.0, "name": "47b38d870d008b88c14079349438afa4", "is_disabled": 0, "rental_uris": {"android": "https://dc.lft.to/lastmile_qr_scan", "ios": "https://dc.lft.to/lastmile_qr_scan"}, "fusion_lon": 0.0, "lat": 38.8848775, "bike_id": "47b38d870d008b88c14079349438afa4", "type": "electric_scooter", "is_reserved": 0, "lon": -77.00711033333333}, {"fusion_lat": 0.0, "name": "8f8349337ad8e62581489e70d76a6b13", "is_disabled": 0, "rental_uris": {"android": "https://dc.lft.to/lastmile_qr_scan", "ios": "https://dc.lft.to/lastmile_qr_scan"}, "fusion_lon": 0.0, "lat": 38.88616366666667, "bike_id": "8f8349337ad8e62581489e70d76a6b13", "type": "electric_scooter", "is_reserved": 0, "lon": -77.01529316666667}, {"fusion_lat": 0.0, "name": "63e808fe8bfb1dfd7e7da1b3a34760bb", "is_disabled": 0, "rental_uris": {"android": "https://dc.lft.to/lastmile_qr_scan", "ios": "https://dc.lft.to/lastmile_qr_scan"}, "fusion_lon": 0.0, "lat": 39.032033, "bike_id": "63e808fe8bfb1dfd7e7da1b3a34760bb", "type": "electric_bike", "is_reserved": 0, "lon": -77.04726816666667}, {"fusion_lat": 0.0, "name": "c8418443c90044483813aa24b2e7c701", "is_disabled": 0, "rental_uris": {"android": "https://dc.lft.to/lastmile_qr_scan", "ios": "https://dc.lft.to/lastmile_qr_scan"}, "fusion_lon": 0.0, "lat": 38.920563666666666, "bike_id": "c8418443c90044483813aa24b2e7c701", "type": "electric_scooter", "is_reserved": 0, "lon": -77.024253}, {"fusion_lat": 0.0, "name": "e88d86c0a2fd02e9546aff3de0f4b47b", "is_disabled": 0, "rental_uris": {"android": "https://dc.lft.to/lastmile_qr_scan", "ios": "https://dc.lft.to/lastmile_qr_scan"}, "fusion_lon": 0.0, "lat": 38.88769416666667, "bike_id": "e88d86c0a2fd02e9546aff3de0f4b47b", "type": "electric_scooter", "is_reserved": 0, "lon": -76.97748516666667}, {"fusion_lat": 0.0, "name": "3776eae4df7e0e9794a714a5b2f0689d", "is_disabled": 0, "rental_uris": {"android": "https://dc.lft.to/lastmile_qr_scan", "ios": "https://dc.lft.to/lastmile_qr_scan"}, "fusion_lon": 0.0, "lat": 38.906877, "bike_id": "3776eae4df7e0e9794a714a5b2f0689d", "type": "electric_scooter", "is_reserved": 0, "lon": -76.98495266666667}, {"fusion_lat": 0.0, "name": "43e3eb08d2bfb6aaf22e1ed0136ee9af", "is_disabled": 0, "rental_uris": {"android": "https://dc.lft.to/lastmile_qr_scan", "ios": "https://dc.lft.to/lastmile_qr_scan"}, "fusion_lon": 0.0, "lat": 38.8545855, "bike_id": "43e3eb08d2bfb6aaf22e1ed0136ee9af", "type": "electric_scooter", "is_reserved": 0, "lon": -76.9723245}, {"fusion_lat": 0.0, "name": "aa7f258e0b4b8572bae0a898cf511a76", "is_disabled": 0, "rental_uris": {"android": "https://dc.lft.to/lastmile_qr_scan", "ios": "https://dc.lft.to/lastmile_qr_scan"}, "fusion_lon": 0.0, "lat": 38.892339666666665, "bike_id": "aa7f258e0b4b8572bae0a898cf511a76", "type": "electric_scooter", "is_reserved": 0, "lon": -77.0171165}, {"fusion_lat": 0.0, "name": "7d502a9545d5f95e48d0f030b8404d77", "is_disabled": 0, "rental_uris": {"android": "https://dc.lft.to/lastmile_qr_scan", "ios": "https://dc.lft.to/lastmile_qr_scan"}, "fusion_lon": 0.0, "lat": 38.933922833333334, "bike_id": "7d502a9545d5f95e48d0f030b8404d77", "type": "electric_scooter", "is_reserved": 0, "lon": -77.03274733333333}, {"fusion_lat": 0.0, "name": "929becb0ab8ea8f91de9ad6cf45e12fb", "is_disabled": 0, "rental_uris": {"android": "https://dc.lft.to/lastmile_qr_scan", "ios": "https://dc.lft.to/lastmile_qr_scan"}, "fusion_lon": 0.0, "lat": 38.921161166666664, "bike_id": "929becb0ab8ea8f91de9ad6cf45e12fb", "type": "electric_scooter", "is_reserved": 0, "lon": -77.0439255}, {"fusion_lat": 0.0, "name": "9b224460b9e3f6fbfcf58a79afc7c36e", "is_disabled": 0, "rental_uris": {"android": "https://dc.lft.to/lastmile_qr_scan", "ios": "https://dc.lft.to/lastmile_qr_scan"}, "fusion_lon": 0.0, "lat": 38.90581066666667, "bike_id": "9b224460b9e3f6fbfcf58a79afc7c36e", "type": "electric_scooter", "is_reserved": 0, "lon": -77.005356}, {"fusion_lat": 0.0, "name": "b4e7139f543229d709e06c5ce90470c9", "is_disabled": 0, "rental_uris": {"android": "https://dc.lft.to/lastmile_qr_scan", "ios": "https://dc.lft.to/lastmile_qr_scan"}, "fusion_lon": 0.0, "lat": 38.9013005, "bike_id": "b4e7139f543229d709e06c5ce90470c9", "type": "electric_scooter", "is_reserved": 0, "lon": -77.048907}, {"fusion_lat": 0.0, "name": "499aa86bb7ffc30dca81d170aabb35ff", "is_disabled": 0, "rental_uris": {"android": "https://dc.lft.to/lastmile_qr_scan", "ios": "https://dc.lft.to/lastmile_qr_scan"}, "fusion_lon": 0.0, "lat": 38.91532933333333, "bike_id": "499aa86bb7ffc30dca81d170aabb35ff", "type": "electric_scooter", "is_reserved": 0, "lon": -77.01218466666667}, {"fusion_lat": 0.0, "name": "3b08896aa18720032bd940ebb3e4848b", "is_disabled": 0, "rental_uris": {"android": "https://dc.lft.to/lastmile_qr_scan", "ios": "https://dc.lft.to/lastmile_qr_scan"}, "fusion_lon": 0.0, "lat": 38.917091166666665, "bike_id": "3b08896aa18720032bd940ebb3e4848b", "type": "electric_scooter", "is_reserved": 0, "lon": -77.03471833333333}, {"fusion_lat": 0.0, "name": "941a9c9fea234d12aaa2f276895d84a8", "is_disabled": 0, "rental_uris": {"android": "https://dc.lft.to/lastmile_qr_scan", "ios": "https://dc.lft.to/lastmile_qr_scan"}, "fusion_lon": 0.0, "lat": 38.919333333333334, "bike_id": "941a9c9fea234d12aaa2f276895d84a8", "type": "electric_scooter", "is_reserved": 0, "lon": -77.031818}, {"fusion_lat": 0.0, "name": "fdb17f7abd81caa384f0b7577ce097de", "is_disabled": 0, "rental_uris": {"android": "https://dc.lft.to/lastmile_qr_scan", "ios": "https://dc.lft.to/lastmile_qr_scan"}, "fusion_lon": 0.0, "lat": 38.915146, "bike_id": "fdb17f7abd81caa384f0b7577ce097de", "type": "electric_scooter", "is_reserved": 0, "lon": -77.01979933333334}, {"fusion_lat": 0.0, "name": "b7329bbfcdc5e088c41207f8cd4dd549", "is_disabled": 0, "rental_uris": {"android": "https://dc.lft.to/lastmile_qr_scan", "ios": "https://dc.lft.to/lastmile_qr_scan"}, "fusion_lon": 0.0, "lat": 38.936105, "bike_id": "b7329bbfcdc5e088c41207f8cd4dd549", "type": "electric_scooter", "is_reserved": 0, "lon": -77.05860483333333}, {"fusion_lat": 0.0, "name": "aa243511e41f659a7f0a2bee1323a868", "is_disabled": 0, "rental_uris": {"android": "https://dc.lft.to/lastmile_qr_scan", "ios": "https://dc.lft.to/lastmile_qr_scan"}, "fusion_lon": 0.0, "lat": 38.866286, "bike_id": "aa243511e41f659a7f0a2bee1323a868", "type": "electric_scooter", "is_reserved": 0, "lon": -76.98712116666667}, {"fusion_lat": 0.0, "name": "673f4e12edfcf928c68f5de92a8a4f6c", "is_disabled": 0, "rental_uris": {"android": "https://dc.lft.to/lastmile_qr_scan", "ios": "https://dc.lft.to/lastmile_qr_scan"}, "fusion_lon": 0.0, "lat": 38.924672, "bike_id": "673f4e12edfcf928c68f5de92a8a4f6c", "type": "electric_scooter", "is_reserved": 0, "lon": -77.02215966666667}, {"fusion_lat": 0.0, "name": "2157b81beeadd501ee2e6d5250deae55", "is_disabled": 0, "rental_uris": {"android": "https://dc.lft.to/lastmile_qr_scan", "ios": "https://dc.lft.to/lastmile_qr_scan"}, "fusion_lon": 0.0, "lat": 38.82797383333333, "bike_id": "2157b81beeadd501ee2e6d5250deae55", "type": "electric_bike", "is_reserved": 0, "lon": -77.12488366666666}, {"fusion_lat": 0.0, "name": "9612f01cf6ed680829906eb6fb9d66f9", "is_disabled": 0, "rental_uris": {"android": "https://dc.lft.to/lastmile_qr_scan", "ios": "https://dc.lft.to/lastmile_qr_scan"}, "fusion_lon": 0.0, "lat": 38.92018866666667, "bike_id": "9612f01cf6ed680829906eb6fb9d66f9", "type": "electric_scooter", "is_reserved": 0, "lon": -77.03137066666666}, {"fusion_lat": 0.0, "name": "9fb42563ce08812a33119e6037c61f3e", "is_disabled": 0, "rental_uris": {"android": "https://dc.lft.to/lastmile_qr_scan", "ios": "https://dc.lft.to/lastmile_qr_scan"}, "fusion_lon": 0.0, "lat": 38.898480166666666, "bike_id": "9fb42563ce08812a33119e6037c61f3e", "type": "electric_scooter", "is_reserved": 0, "lon": -77.0393695}, {"fusion_lat": 0.0, "name": "0298bbccaf9234e2dac65def9712ba16", "is_disabled": 0, "rental_uris": {"android": "https://dc.lft.to/lastmile_qr_scan", "ios": "https://dc.lft.to/lastmile_qr_scan"}, "fusion_lon": 0.0, "lat": 38.892266, "bike_id": "0298bbccaf9234e2dac65def9712ba16", "type": "electric_scooter", "is_reserved": 0, "lon": -77.04183316666666}, {"fusion_lat": 0.0, "name": "b3216d913e761d3a3d68e092be448bbe", "is_disabled": 0, "rental_uris": {"android": "https://dc.lft.to/lastmile_qr_scan", "ios": "https://dc.lft.to/lastmile_qr_scan"}, "fusion_lon": 0.0, "lat": 38.865229166666666, "bike_id": "b3216d913e761d3a3d68e092be448bbe", "type": "electric_bike", "is_reserved": 0, "lon": -76.97336}, {"fusion_lat": 0.0, "name": "98d481e7b99e1da4ce29200e774cb4cf", "is_disabled": 0, "rental_uris": {"android": "https://dc.lft.to/lastmile_qr_scan", "ios": "https://dc.lft.to/lastmile_qr_scan"}, "fusion_lon": 0.0, "lat": 38.8854, "bike_id": "98d481e7b99e1da4ce29200e774cb4cf", "type": "electric_scooter", "is_reserved": 0, "lon": -77.00049516666667}, {"fusion_lat": 0.0, "name": "55f66d30267f61f147429bd3ceb4e0cc", "is_disabled": 0, "rental_uris": {"android": "https://dc.lft.to/lastmile_qr_scan", "ios": "https://dc.lft.to/lastmile_qr_scan"}, "fusion_lon": 0.0, "lat": 38.909550833333334, "bike_id": "55f66d30267f61f147429bd3ceb4e0cc", "type": "electric_bike", "is_reserved": 0, "lon": -76.98434283333333}, {"fusion_lat": 0.0, "name": "e1bef057d7e6f540f4544209a53d5dae", "is_disabled": 0, "rental_uris": {"android": "https://dc.lft.to/lastmile_qr_scan", "ios": "https://dc.lft.to/lastmile_qr_scan"}, "fusion_lon": 0.0, "lat": 38.8603455, "bike_id": "e1bef057d7e6f540f4544209a53d5dae", "type": "electric_scooter", "is_reserved": 0, "lon": -76.98375166666666}, {"fusion_lat": 0.0, "name": "59f5c6c195f9199adf6fb4acc1a82425", "is_disabled": 0, "rental_uris": {"android": "https://dc.lft.to/lastmile_qr_scan", "ios": "https://dc.lft.to/lastmile_qr_scan"}, "fusion_lon": 0.0, "lat": 38.88164533333333, "bike_id": "59f5c6c195f9199adf6fb4acc1a82425", "type": "electric_scooter", "is_reserved": 0, "lon": -77.02767616666667}, {"fusion_lat": 0.0, "name": "b39f88a118e88d9783e1622fbee97bbe", "is_disabled": 0, "rental_uris": {"android": "https://dc.lft.to/lastmile_qr_scan", "ios": "https://dc.lft.to/lastmile_qr_scan"}, "fusion_lon": 0.0, "lat": 38.88266766666667, "bike_id": "b39f88a118e88d9783e1622fbee97bbe", "type": "electric_scooter", "is_reserved": 0, "lon": -77.00362266666667}, {"fusion_lat": 0.0, "name": "1af8a1a0591aa5c2327c0667686dcca0", "is_disabled": 0, "rental_uris": {"android": "https://dc.lft.to/lastmile_qr_scan", "ios": "https://dc.lft.to/lastmile_qr_scan"}, "fusion_lon": 0.0, "lat": 38.923003666666666, "bike_id": "1af8a1a0591aa5c2327c0667686dcca0", "type": "electric_scooter", "is_reserved": 0, "lon": -77.04143166666667}, {"fusion_lat": 0.0, "name": "4ce6bfa51a56debaccffbcff8231f4ab", "is_disabled": 0, "rental_uris": {"android": "https://dc.lft.to/lastmile_qr_scan", "ios": "https://dc.lft.to/lastmile_qr_scan"}, "fusion_lon": 0.0, "lat": 38.909789333333336, "bike_id": "4ce6bfa51a56debaccffbcff8231f4ab", "type": "electric_scooter", "is_reserved": 0, "lon": -77.03378866666667}, {"fusion_lat": 0.0, "name": "6d6d5a060363a39d3704d5a95a59f719", "is_disabled": 0, "rental_uris": {"android": "https://dc.lft.to/lastmile_qr_scan", "ios": "https://dc.lft.to/lastmile_qr_scan"}, "fusion_lon": 0.0, "lat": 38.91113816666667, "bike_id": "6d6d5a060363a39d3704d5a95a59f719", "type": "electric_scooter", "is_reserved": 0, "lon": -77.0813325}, {"fusion_lat": 0.0, "name": "30cc0ce2523d100cbc6a5edf5aeece47", "is_disabled": 0, "rental_uris": {"android": "https://dc.lft.to/lastmile_qr_scan", "ios": "https://dc.lft.to/lastmile_qr_scan"}, "fusion_lon": 0.0, "lat": 38.887412166666664, "bike_id": "30cc0ce2523d100cbc6a5edf5aeece47", "type": "electric_scooter", "is_reserved": 0, "lon": -77.01528083333334}, {"fusion_lat": 0.0, "name": "4d5ecb6f3fa9eab659e271c773274928", "is_disabled": 0, "rental_uris": {"android": "https://dc.lft.to/lastmile_qr_scan", "ios": "https://dc.lft.to/lastmile_qr_scan"}, "fusion_lon": 0.0, "lat": 38.9027065, "bike_id": "4d5ecb6f3fa9eab659e271c773274928", "type": "electric_scooter", "is_reserved": 0, "lon": -77.05317916666667}, {"fusion_lat": 0.0, "name": "bdc77e07d89ca8d70eae82dea72fcca0", "is_disabled": 0, "rental_uris": {"android": "https://dc.lft.to/lastmile_qr_scan", "ios": "https://dc.lft.to/lastmile_qr_scan"}, "fusion_lon": 0.0, "lat": 38.866844, "bike_id": "bdc77e07d89ca8d70eae82dea72fcca0", "type": "electric_scooter", "is_reserved": 0, "lon": -76.98571616666666}, {"fusion_lat": 0.0, "name": "e69b7a97e2c6f326548a12fe5fbfa717", "is_disabled": 0, "rental_uris": {"android": "https://dc.lft.to/lastmile_qr_scan", "ios": "https://dc.lft.to/lastmile_qr_scan"}, "fusion_lon": 0.0, "lat": 38.88758683333333, "bike_id": "e69b7a97e2c6f326548a12fe5fbfa717", "type": "electric_scooter", "is_reserved": 0, "lon": -77.0201575}, {"fusion_lat": 0.0, "name": "8ca2ab348e70a5443f8c68ae8637425c", "is_disabled": 0, "rental_uris": {"android": "https://dc.lft.to/lastmile_qr_scan", "ios": "https://dc.lft.to/lastmile_qr_scan"}, "fusion_lon": 0.0, "lat": 38.885257833333334, "bike_id": "8ca2ab348e70a5443f8c68ae8637425c", "type": "electric_scooter", "is_reserved": 0, "lon": -77.01504683333333}, {"fusion_lat": 0.0, "name": "8e99911a2e6594f3e1347d33d008b6de", "is_disabled": 0, "rental_uris": {"android": "https://dc.lft.to/lastmile_qr_scan", "ios": "https://dc.lft.to/lastmile_qr_scan"}, "fusion_lon": 0.0, "lat": 38.887467666666666, "bike_id": "8e99911a2e6594f3e1347d33d008b6de", "type": "electric_scooter", "is_reserved": 0, "lon": -77.01778883333333}, {"fusion_lat": 0.0, "name": "0bae818918130df330e5ec30bdeddf49", "is_disabled": 0, "rental_uris": {"android": "https://dc.lft.to/lastmile_qr_scan", "ios": "https://dc.lft.to/lastmile_qr_scan"}, "fusion_lon": 0.0, "lat": 38.90741033333333, "bike_id": "0bae818918130df330e5ec30bdeddf49", "type": "electric_scooter", "is_reserved": 0, "lon": -77.01307216666666}, {"fusion_lat": 0.0, "name": "7c3a0a361649107aded4829933a5e90f", "is_disabled": 0, "rental_uris": {"android": "https://dc.lft.to/lastmile_qr_scan", "ios": "https://dc.lft.to/lastmile_qr_scan"}, "fusion_lon": 0.0, "lat": 38.914295, "bike_id": "7c3a0a361649107aded4829933a5e90f", "type": "electric_scooter", "is_reserved": 0, "lon": -77.0642305}, {"fusion_lat": 0.0, "name": "ec45096dc7c9e42fc0af9e6512afc526", "is_disabled": 0, "rental_uris": {"android": "https://dc.lft.to/lastmile_qr_scan", "ios": "https://dc.lft.to/lastmile_qr_scan"}, "fusion_lon": 0.0, "lat": 38.895228833333334, "bike_id": "ec45096dc7c9e42fc0af9e6512afc526", "type": "electric_scooter", "is_reserved": 0, "lon": -77.00339533333333}, {"fusion_lat": 0.0, "name": "aecee17fcd3faddcddc05316ee8ef651", "is_disabled": 0, "rental_uris": {"android": "https://dc.lft.to/lastmile_qr_scan", "ios": "https://dc.lft.to/lastmile_qr_scan"}, "fusion_lon": 0.0, "lat": 38.920794666666666, "bike_id": "aecee17fcd3faddcddc05316ee8ef651", "type": "electric_bike", "is_reserved": 0, "lon": -76.98945733333333}, {"fusion_lat": 0.0, "name": "a8978c8eb077483bb23a10366d941c3d", "is_disabled": 0, "rental_uris": {"android": "https://dc.lft.to/lastmile_qr_scan", "ios": "https://dc.lft.to/lastmile_qr_scan"}, "fusion_lon": 0.0, "lat": 38.874629666666664, "bike_id": "a8978c8eb077483bb23a10366d941c3d", "type": "electric_scooter", "is_reserved": 0, "lon": -77.00964683333333}, {"fusion_lat": 0.0, "name": "8879f4a060f6baf616024f3ad93fa08b", "is_disabled": 0, "rental_uris": {"android": "https://dc.lft.to/lastmile_qr_scan", "ios": "https://dc.lft.to/lastmile_qr_scan"}, "fusion_lon": 0.0, "lat": 38.89556833333333, "bike_id": "8879f4a060f6baf616024f3ad93fa08b", "type": "electric_scooter", "is_reserved": 0, "lon": -76.99843683333333}, {"fusion_lat": 0.0, "name": "7f82fa3a202514a385f1cea8892985fd", "is_disabled": 0, "rental_uris": {"android": "https://dc.lft.to/lastmile_qr_scan", "ios": "https://dc.lft.to/lastmile_qr_scan"}, "fusion_lon": 0.0, "lat": 38.9850635, "bike_id": "7f82fa3a202514a385f1cea8892985fd", "type": "electric_bike", "is_reserved": 0, "lon": -76.98207916666667}, {"fusion_lat": 0.0, "name": "4882956cd7a67bd69358245049427949", "is_disabled": 0, "rental_uris": {"android": "https://dc.lft.to/lastmile_qr_scan", "ios": "https://dc.lft.to/lastmile_qr_scan"}, "fusion_lon": 0.0, "lat": 38.88494716666666, "bike_id": "4882956cd7a67bd69358245049427949", "type": "electric_scooter", "is_reserved": 0, "lon": -77.0072455}, {"fusion_lat": 0.0, "name": "d55eab125a49b63e3ad3030d94fe135b", "is_disabled": 0, "rental_uris": {"android": "https://dc.lft.to/lastmile_qr_scan", "ios": "https://dc.lft.to/lastmile_qr_scan"}, "fusion_lon": 0.0, "lat": 38.884051666666664, "bike_id": "d55eab125a49b63e3ad3030d94fe135b", "type": "electric_scooter", "is_reserved": 0, "lon": -76.98585566666667}, {"fusion_lat": 0.0, "name": "0329c86d4cc8440215de9c4374b23d1f", "is_disabled": 0, "rental_uris": {"android": "https://dc.lft.to/lastmile_qr_scan", "ios": "https://dc.lft.to/lastmile_qr_scan"}, "fusion_lon": 0.0, "lat": 38.8606365, "bike_id": "0329c86d4cc8440215de9c4374b23d1f", "type": "electric_scooter", "is_reserved": 0, "lon": -76.98499866666667}, {"fusion_lat": 0.0, "name": "878673794d6b3ce3ea9682c582383ccb", "is_disabled": 0, "rental_uris": {"android": "https://dc.lft.to/lastmile_qr_scan", "ios": "https://dc.lft.to/lastmile_qr_scan"}, "fusion_lon": 0.0, "lat": 38.91067683333333, "bike_id": "878673794d6b3ce3ea9682c582383ccb", "type": "electric_scooter", "is_reserved": 0, "lon": -77.0218725}, {"fusion_lat": 0.0, "name": "f12917a34503d52d40b64614186ded46", "is_disabled": 0, "rental_uris": {"android": "https://dc.lft.to/lastmile_qr_scan", "ios": "https://dc.lft.to/lastmile_qr_scan"}, "fusion_lon": 0.0, "lat": 38.90242833333333, "bike_id": "f12917a34503d52d40b64614186ded46", "type": "electric_scooter", "is_reserved": 0, "lon": -77.00197316666667}, {"fusion_lat": 0.0, "name": "74d81d623b03b1f47d757f4e4806bad7", "is_disabled": 0, "rental_uris": {"android": "https://dc.lft.to/lastmile_qr_scan", "ios": "https://dc.lft.to/lastmile_qr_scan"}, "fusion_lon": 0.0, "lat": 38.88488016666667, "bike_id": "74d81d623b03b1f47d757f4e4806bad7", "type": "electric_scooter", "is_reserved": 0, "lon": -77.00713966666666}, {"fusion_lat": 0.0, "name": "94a03083537433abbbed3e3e53e61b8f", "is_disabled": 0, "rental_uris": {"android": "https://dc.lft.to/lastmile_qr_scan", "ios": "https://dc.lft.to/lastmile_qr_scan"}, "fusion_lon": 0.0, "lat": 38.92202266666666, "bike_id": "94a03083537433abbbed3e3e53e61b8f", "type": "electric_scooter", "is_reserved": 0, "lon": -77.04127066666666}, {"fusion_lat": 0.0, "name": "fe2a627c762aa9250613a13c2a45acbf", "is_disabled": 0, "rental_uris": {"android": "https://dc.lft.to/lastmile_qr_scan", "ios": "https://dc.lft.to/lastmile_qr_scan"}, "fusion_lon": 0.0, "lat": 38.884002, "bike_id": "fe2a627c762aa9250613a13c2a45acbf", "type": "electric_scooter", "is_reserved": 0, "lon": -77.026032}, {"fusion_lat": 0.0, "name": "55f41ac864f181f70638ce40179ab8e3", "is_disabled": 0, "rental_uris": {"android": "https://dc.lft.to/lastmile_qr_scan", "ios": "https://dc.lft.to/lastmile_qr_scan"}, "fusion_lon": 0.0, "lat": 38.901416, "bike_id": "55f41ac864f181f70638ce40179ab8e3", "type": "electric_scooter", "is_reserved": 0, "lon": -77.03227516666666}, {"fusion_lat": 0.0, "name": "02eb517b1c3516a09bf88b39d53dfcaf", "is_disabled": 0, "rental_uris": {"android": "https://dc.lft.to/lastmile_qr_scan", "ios": "https://dc.lft.to/lastmile_qr_scan"}, "fusion_lon": 0.0, "lat": 38.895672166666664, "bike_id": "02eb517b1c3516a09bf88b39d53dfcaf", "type": "electric_scooter", "is_reserved": 0, "lon": -77.0281455}, {"fusion_lat": 0.0, "name": "9a4b28883d2e06b317de5e172336b03a", "is_disabled": 0, "rental_uris": {"android": "https://dc.lft.to/lastmile_qr_scan", "ios": "https://dc.lft.to/lastmile_qr_scan"}, "fusion_lon": 0.0, "lat": 38.910395, "bike_id": "9a4b28883d2e06b317de5e172336b03a", "type": "electric_bike", "is_reserved": 0, "lon": -77.03799583333333}, {"fusion_lat": 0.0, "name": "6bfbfae6d8709602c6bad1537aae9e46", "is_disabled": 0, "rental_uris": {"android": "https://dc.lft.to/lastmile_qr_scan", "ios": "https://dc.lft.to/lastmile_qr_scan"}, "fusion_lon": 0.0, "lat": 38.905043666666664, "bike_id": "6bfbfae6d8709602c6bad1537aae9e46", "type": "electric_scooter", "is_reserved": 0, "lon": -77.0612995}, {"fusion_lat": 0.0, "name": "71d9e6ae702aa1d8fcd095c4124d163c", "is_disabled": 0, "rental_uris": {"android": "https://dc.lft.to/lastmile_qr_scan", "ios": "https://dc.lft.to/lastmile_qr_scan"}, "fusion_lon": 0.0, "lat": 38.93047883333333, "bike_id": "71d9e6ae702aa1d8fcd095c4124d163c", "type": "electric_scooter", "is_reserved": 0, "lon": -77.03208866666667}, {"fusion_lat": 0.0, "name": "f109ac4fb9afe20d76b48a6b4c7100b1", "is_disabled": 0, "rental_uris": {"android": "https://dc.lft.to/lastmile_qr_scan", "ios": "https://dc.lft.to/lastmile_qr_scan"}, "fusion_lon": 0.0, "lat": 38.91180516666667, "bike_id": "f109ac4fb9afe20d76b48a6b4c7100b1", "type": "electric_scooter", "is_reserved": 0, "lon": -77.02829566666666}, {"fusion_lat": 0.0, "name": "c997a2965fd01d103318645bb4e5dca0", "is_disabled": 0, "rental_uris": {"android": "https://dc.lft.to/lastmile_qr_scan", "ios": "https://dc.lft.to/lastmile_qr_scan"}, "fusion_lon": 0.0, "lat": 38.914336, "bike_id": "c997a2965fd01d103318645bb4e5dca0", "type": "electric_scooter", "is_reserved": 0, "lon": -77.01217983333333}, {"fusion_lat": 0.0, "name": "7bf15cbaa821951f27ddf354aa7bb2d5", "is_disabled": 0, "rental_uris": {"android": "https://dc.lft.to/lastmile_qr_scan", "ios": "https://dc.lft.to/lastmile_qr_scan"}, "fusion_lon": 0.0, "lat": 38.909221333333335, "bike_id": "7bf15cbaa821951f27ddf354aa7bb2d5", "type": "electric_scooter", "is_reserved": 0, "lon": -77.03073883333333}, {"fusion_lat": 0.0, "name": "5d96232ce795db1b0cfb11dc5f17d471", "is_disabled": 0, "rental_uris": {"android": "https://dc.lft.to/lastmile_qr_scan", "ios": "https://dc.lft.to/lastmile_qr_scan"}, "fusion_lon": 0.0, "lat": 38.954051166666666, "bike_id": "5d96232ce795db1b0cfb11dc5f17d471", "type": "electric_scooter", "is_reserved": 0, "lon": -77.02748616666666}, {"fusion_lat": 0.0, "name": "fcc56551f8c251525c541559a4c5f31b", "is_disabled": 0, "rental_uris": {"android": "https://dc.lft.to/lastmile_qr_scan", "ios": "https://dc.lft.to/lastmile_qr_scan"}, "fusion_lon": 0.0, "lat": 38.90145533333333, "bike_id": "fcc56551f8c251525c541559a4c5f31b", "type": "electric_scooter", "is_reserved": 0, "lon": -77.043506}, {"fusion_lat": 0.0, "name": "f7e24197f03b17851f34876b6cccbd8c", "is_disabled": 0, "rental_uris": {"android": "https://dc.lft.to/lastmile_qr_scan", "ios": "https://dc.lft.to/lastmile_qr_scan"}, "fusion_lon": 0.0, "lat": 38.919914, "bike_id": "f7e24197f03b17851f34876b6cccbd8c", "type": "electric_scooter", "is_reserved": 0, "lon": -77.01764366666667}, {"fusion_lat": 0.0, "name": "c9f8db53bc955a13c79c301c87ab4a1a", "is_disabled": 0, "rental_uris": {"android": "https://dc.lft.to/lastmile_qr_scan", "ios": "https://dc.lft.to/lastmile_qr_scan"}, "fusion_lon": 0.0, "lat": 38.900374666666664, "bike_id": "c9f8db53bc955a13c79c301c87ab4a1a", "type": "electric_scooter", "is_reserved": 0, "lon": -77.0401085}, {"fusion_lat": 0.0, "name": "18b10d8030ad89b414f39975c57d7e3e", "is_disabled": 0, "rental_uris": {"android": "https://dc.lft.to/lastmile_qr_scan", "ios": "https://dc.lft.to/lastmile_qr_scan"}, "fusion_lon": 0.0, "lat": 38.92332316666667, "bike_id": "18b10d8030ad89b414f39975c57d7e3e", "type": "electric_scooter", "is_reserved": 0, "lon": -77.02048533333334}, {"fusion_lat": 0.0, "name": "09b3fc53ad2831dc61ab4f1dbc03c17d", "is_disabled": 0, "rental_uris": {"android": "https://dc.lft.to/lastmile_qr_scan", "ios": "https://dc.lft.to/lastmile_qr_scan"}, "fusion_lon": 0.0, "lat": 38.90988133333333, "bike_id": "09b3fc53ad2831dc61ab4f1dbc03c17d", "type": "electric_scooter", "is_reserved": 0, "lon": -77.0441235}, {"fusion_lat": 0.0, "name": "bcd8960ca0bbdafd06d036622b7c9029", "is_disabled": 0, "rental_uris": {"android": "https://dc.lft.to/lastmile_qr_scan", "ios": "https://dc.lft.to/lastmile_qr_scan"}, "fusion_lon": 0.0, "lat": 38.937116, "bike_id": "bcd8960ca0bbdafd06d036622b7c9029", "type": "electric_scooter", "is_reserved": 0, "lon": -77.032736}, {"fusion_lat": 0.0, "name": "c9aa5ed969287a422e361c65d825a8d3", "is_disabled": 0, "rental_uris": {"android": "https://dc.lft.to/lastmile_qr_scan", "ios": "https://dc.lft.to/lastmile_qr_scan"}, "fusion_lon": 0.0, "lat": 38.8969925, "bike_id": "c9aa5ed969287a422e361c65d825a8d3", "type": "electric_scooter", "is_reserved": 0, "lon": -77.00760783333334}, {"fusion_lat": 0.0, "name": "ad4d4a248f719cbcfa6b137cd4db2788", "is_disabled": 0, "rental_uris": {"android": "https://dc.lft.to/lastmile_qr_scan", "ios": "https://dc.lft.to/lastmile_qr_scan"}, "fusion_lon": 0.0, "lat": 38.9195625, "bike_id": "ad4d4a248f719cbcfa6b137cd4db2788", "type": "electric_scooter", "is_reserved": 0, "lon": -77.01786783333333}, {"fusion_lat": 0.0, "name": "06100f70454fbfed3afd975d6c2cc1d2", "is_disabled": 0, "rental_uris": {"android": "https://dc.lft.to/lastmile_qr_scan", "ios": "https://dc.lft.to/lastmile_qr_scan"}, "fusion_lon": 0.0, "lat": 38.98462966666666, "bike_id": "06100f70454fbfed3afd975d6c2cc1d2", "type": "electric_bike", "is_reserved": 0, "lon": -77.02683216666667}, {"fusion_lat": 0.0, "name": "2df8d973a1043925373a2f3df5adc6a9", "is_disabled": 0, "rental_uris": {"android": "https://dc.lft.to/lastmile_qr_scan", "ios": "https://dc.lft.to/lastmile_qr_scan"}, "fusion_lon": 0.0, "lat": 38.921128, "bike_id": "2df8d973a1043925373a2f3df5adc6a9", "type": "electric_scooter", "is_reserved": 0, "lon": -77.04186833333333}, {"fusion_lat": 0.0, "name": "14d4a9caa18df58ce84e74ef066d3a68", "is_disabled": 0, "rental_uris": {"android": "https://dc.lft.to/lastmile_qr_scan", "ios": "https://dc.lft.to/lastmile_qr_scan"}, "fusion_lon": 0.0, "lat": 38.923639666666666, "bike_id": "14d4a9caa18df58ce84e74ef066d3a68", "type": "electric_scooter", "is_reserved": 0, "lon": -77.01957216666666}, {"fusion_lat": 0.0, "name": "f44ece7d2a535b5b061278cbe9b7830b", "is_disabled": 0, "rental_uris": {"android": "https://dc.lft.to/lastmile_qr_scan", "ios": "https://dc.lft.to/lastmile_qr_scan"}, "fusion_lon": 0.0, "lat": 38.889465333333334, "bike_id": "f44ece7d2a535b5b061278cbe9b7830b", "type": "electric_scooter", "is_reserved": 0, "lon": -76.99161483333333}, {"fusion_lat": 0.0, "name": "92f03910451a6ea63affa03c3ead68df", "is_disabled": 0, "rental_uris": {"android": "https://dc.lft.to/lastmile_qr_scan", "ios": "https://dc.lft.to/lastmile_qr_scan"}, "fusion_lon": 0.0, "lat": 38.928669166666666, "bike_id": "92f03910451a6ea63affa03c3ead68df", "type": "electric_scooter", "is_reserved": 0, "lon": -77.05451116666667}, {"fusion_lat": 0.0, "name": "255b05c9908f09311fe208e72ae7d906", "is_disabled": 0, "rental_uris": {"android": "https://dc.lft.to/lastmile_qr_scan", "ios": "https://dc.lft.to/lastmile_qr_scan"}, "fusion_lon": 0.0, "lat": 38.918563666666664, "bike_id": "255b05c9908f09311fe208e72ae7d906", "type": "electric_scooter", "is_reserved": 0, "lon": -77.0352925}, {"fusion_lat": 0.0, "name": "41fa5679624b1257915cba1883325d38", "is_disabled": 0, "rental_uris": {"android": "https://dc.lft.to/lastmile_qr_scan", "ios": "https://dc.lft.to/lastmile_qr_scan"}, "fusion_lon": 0.0, "lat": 38.91314933333334, "bike_id": "41fa5679624b1257915cba1883325d38", "type": "electric_scooter", "is_reserved": 0, "lon": -77.015186}, {"fusion_lat": 0.0, "name": "4c51ac4951f5190f104e94ec85426e59", "is_disabled": 0, "rental_uris": {"android": "https://dc.lft.to/lastmile_qr_scan", "ios": "https://dc.lft.to/lastmile_qr_scan"}, "fusion_lon": 0.0, "lat": 38.916938, "bike_id": "4c51ac4951f5190f104e94ec85426e59", "type": "electric_scooter", "is_reserved": 0, "lon": -77.02301716666666}, {"fusion_lat": 0.0, "name": "9aa332e23ce32a35b82262ef328cc36f", "is_disabled": 0, "rental_uris": {"android": "https://dc.lft.to/lastmile_qr_scan", "ios": "https://dc.lft.to/lastmile_qr_scan"}, "fusion_lon": 0.0, "lat": 38.93029116666666, "bike_id": "9aa332e23ce32a35b82262ef328cc36f", "type": "electric_scooter", "is_reserved": 0, "lon": -77.03292816666666}, {"fusion_lat": 0.0, "name": "817490338903d63c894ad99fc4907fef", "is_disabled": 0, "rental_uris": {"android": "https://dc.lft.to/lastmile_qr_scan", "ios": "https://dc.lft.to/lastmile_qr_scan"}, "fusion_lon": 0.0, "lat": 38.915501166666665, "bike_id": "817490338903d63c894ad99fc4907fef", "type": "electric_scooter", "is_reserved": 0, "lon": -77.04175566666666}, {"fusion_lat": 0.0, "name": "bcfbb6b6242b9db942a41d2e9eadb6b0", "is_disabled": 0, "rental_uris": {"android": "https://dc.lft.to/lastmile_qr_scan", "ios": "https://dc.lft.to/lastmile_qr_scan"}, "fusion_lon": 0.0, "lat": 38.904121, "bike_id": "bcfbb6b6242b9db942a41d2e9eadb6b0", "type": "electric_scooter", "is_reserved": 0, "lon": -76.97331066666666}, {"fusion_lat": 0.0, "name": "afc7f789daf5d6ecda262a8a72289523", "is_disabled": 0, "rental_uris": {"android": "https://dc.lft.to/lastmile_qr_scan", "ios": "https://dc.lft.to/lastmile_qr_scan"}, "fusion_lon": 0.0, "lat": 38.90717566666667, "bike_id": "afc7f789daf5d6ecda262a8a72289523", "type": "electric_scooter", "is_reserved": 0, "lon": -77.03346816666667}, {"fusion_lat": 0.0, "name": "4ab960f8c1719fe74d683dcf92f64154", "is_disabled": 0, "rental_uris": {"android": "https://dc.lft.to/lastmile_qr_scan", "ios": "https://dc.lft.to/lastmile_qr_scan"}, "fusion_lon": 0.0, "lat": 38.902564166666664, "bike_id": "4ab960f8c1719fe74d683dcf92f64154", "type": "electric_scooter", "is_reserved": 0, "lon": -76.97453883333333}, {"fusion_lat": 0.0, "name": "f92e5a11ce604ef772fbcdf423139c0d", "is_disabled": 0, "rental_uris": {"android": "https://dc.lft.to/lastmile_qr_scan", "ios": "https://dc.lft.to/lastmile_qr_scan"}, "fusion_lon": 0.0, "lat": 38.90589, "bike_id": "f92e5a11ce604ef772fbcdf423139c0d", "type": "electric_scooter", "is_reserved": 0, "lon": -77.00582016666667}, {"fusion_lat": 0.0, "name": "b4d55e4df84480ae033e1b05c5717658", "is_disabled": 0, "rental_uris": {"android": "https://dc.lft.to/lastmile_qr_scan", "ios": "https://dc.lft.to/lastmile_qr_scan"}, "fusion_lon": 0.0, "lat": 38.8925135, "bike_id": "b4d55e4df84480ae033e1b05c5717658", "type": "electric_scooter", "is_reserved": 0, "lon": -77.04651766666667}, {"fusion_lat": 0.0, "name": "99d13ac7e2aa32dd721777731749e0ae", "is_disabled": 0, "rental_uris": {"android": "https://dc.lft.to/lastmile_qr_scan", "ios": "https://dc.lft.to/lastmile_qr_scan"}, "fusion_lon": 0.0, "lat": 38.85850033333333, "bike_id": "99d13ac7e2aa32dd721777731749e0ae", "type": "electric_bike", "is_reserved": 0, "lon": -77.09756783333333}, {"fusion_lat": 0.0, "name": "ec6e6afd26e1f06d9cbacc6e8669dc8c", "is_disabled": 0, "rental_uris": {"android": "https://dc.lft.to/lastmile_qr_scan", "ios": "https://dc.lft.to/lastmile_qr_scan"}, "fusion_lon": 0.0, "lat": 38.96128083333333, "bike_id": "ec6e6afd26e1f06d9cbacc6e8669dc8c", "type": "electric_scooter", "is_reserved": 0, "lon": -77.08530566666667}, {"fusion_lat": 0.0, "name": "aca93c47276b44da012c165dd987273c", "is_disabled": 0, "rental_uris": {"android": "https://dc.lft.to/lastmile_qr_scan", "ios": "https://dc.lft.to/lastmile_qr_scan"}, "fusion_lon": 0.0, "lat": 38.8923455, "bike_id": "aca93c47276b44da012c165dd987273c", "type": "electric_scooter", "is_reserved": 0, "lon": -77.03347083333334}, {"fusion_lat": 0.0, "name": "4f92de81cb3d62112362abf5cb86fc43", "is_disabled": 0, "rental_uris": {"android": "https://dc.lft.to/lastmile_qr_scan", "ios": "https://dc.lft.to/lastmile_qr_scan"}, "fusion_lon": 0.0, "lat": 38.9280615, "bike_id": "4f92de81cb3d62112362abf5cb86fc43", "type": "electric_scooter", "is_reserved": 0, "lon": -77.01406416666667}, {"fusion_lat": 0.0, "name": "6529db136d86401ee6a175fc44d9d795", "is_disabled": 0, "rental_uris": {"android": "https://dc.lft.to/lastmile_qr_scan", "ios": "https://dc.lft.to/lastmile_qr_scan"}, "fusion_lon": 0.0, "lat": 38.887438333333336, "bike_id": "6529db136d86401ee6a175fc44d9d795", "type": "electric_scooter", "is_reserved": 0, "lon": -76.983591}, {"fusion_lat": 0.0, "name": "ad382945f1d36e30c800f90cb18ac5e7", "is_disabled": 0, "rental_uris": {"android": "https://dc.lft.to/lastmile_qr_scan", "ios": "https://dc.lft.to/lastmile_qr_scan"}, "fusion_lon": 0.0, "lat": 38.884419, "bike_id": "ad382945f1d36e30c800f90cb18ac5e7", "type": "electric_scooter", "is_reserved": 0, "lon": -77.025125}, {"fusion_lat": 0.0, "name": "849aeb685addf99fd971e26a7f4b9771", "is_disabled": 0, "rental_uris": {"android": "https://dc.lft.to/lastmile_qr_scan", "ios": "https://dc.lft.to/lastmile_qr_scan"}, "fusion_lon": 0.0, "lat": 38.894011166666665, "bike_id": "849aeb685addf99fd971e26a7f4b9771", "type": "electric_scooter", "is_reserved": 0, "lon": -76.99491816666666}, {"fusion_lat": 0.0, "name": "ccf964e8ec4f5abd217b55e739fd8271", "is_disabled": 0, "rental_uris": {"android": "https://dc.lft.to/lastmile_qr_scan", "ios": "https://dc.lft.to/lastmile_qr_scan"}, "fusion_lon": 0.0, "lat": 38.924313833333336, "bike_id": "ccf964e8ec4f5abd217b55e739fd8271", "type": "electric_scooter", "is_reserved": 0, "lon": -77.019552}, {"fusion_lat": 0.0, "name": "c740d6a9d50e73b7c714264c9b9dffaa", "is_disabled": 0, "rental_uris": {"android": "https://dc.lft.to/lastmile_qr_scan", "ios": "https://dc.lft.to/lastmile_qr_scan"}, "fusion_lon": 0.0, "lat": 38.92827533333333, "bike_id": "c740d6a9d50e73b7c714264c9b9dffaa", "type": "electric_scooter", "is_reserved": 0, "lon": -77.05440716666666}, {"fusion_lat": 0.0, "name": "7a7bcb1f91a82562f8765d392bc67722", "is_disabled": 0, "rental_uris": {"android": "https://dc.lft.to/lastmile_qr_scan", "ios": "https://dc.lft.to/lastmile_qr_scan"}, "fusion_lon": 0.0, "lat": 38.907866, "bike_id": "7a7bcb1f91a82562f8765d392bc67722", "type": "electric_scooter", "is_reserved": 0, "lon": -77.03509816666667}, {"fusion_lat": 0.0, "name": "422dfc72248417b63c24d9ec44fc6f0d", "is_disabled": 0, "rental_uris": {"android": "https://dc.lft.to/lastmile_qr_scan", "ios": "https://dc.lft.to/lastmile_qr_scan"}, "fusion_lon": 0.0, "lat": 38.923017, "bike_id": "422dfc72248417b63c24d9ec44fc6f0d", "type": "electric_scooter", "is_reserved": 0, "lon": -77.04174333333333}, {"fusion_lat": 0.0, "name": "65d3bbf2aa3adc954c8a16c8b1563dc4", "is_disabled": 0, "rental_uris": {"android": "https://dc.lft.to/lastmile_qr_scan", "ios": "https://dc.lft.to/lastmile_qr_scan"}, "fusion_lon": 0.0, "lat": 38.92220366666667, "bike_id": "65d3bbf2aa3adc954c8a16c8b1563dc4", "type": "electric_bike", "is_reserved": 0, "lon": -77.20137983333333}, {"fusion_lat": 0.0, "name": "5056f52995ce960af2c7dca1c2982feb", "is_disabled": 0, "rental_uris": {"android": "https://dc.lft.to/lastmile_qr_scan", "ios": "https://dc.lft.to/lastmile_qr_scan"}, "fusion_lon": 0.0, "lat": 38.898309166666664, "bike_id": "5056f52995ce960af2c7dca1c2982feb", "type": "electric_scooter", "is_reserved": 0, "lon": -77.04167883333334}, {"fusion_lat": 0.0, "name": "30d769a2adca5b2883caaca37d637e89", "is_disabled": 0, "rental_uris": {"android": "https://dc.lft.to/lastmile_qr_scan", "ios": "https://dc.lft.to/lastmile_qr_scan"}, "fusion_lon": 0.0, "lat": 38.899428, "bike_id": "30d769a2adca5b2883caaca37d637e89", "type": "electric_scooter", "is_reserved": 0, "lon": -77.02011783333333}, {"fusion_lat": 0.0, "name": "12c1039fd4aa924e08447ed0cff5460a", "is_disabled": 0, "rental_uris": {"android": "https://dc.lft.to/lastmile_qr_scan", "ios": "https://dc.lft.to/lastmile_qr_scan"}, "fusion_lon": 0.0, "lat": 38.90182683333333, "bike_id": "12c1039fd4aa924e08447ed0cff5460a", "type": "electric_scooter", "is_reserved": 0, "lon": -77.01614716666667}, {"fusion_lat": 0.0, "name": "0f31d5ea93020a6ec97c915cdd4cc593", "is_disabled": 0, "rental_uris": {"android": "https://dc.lft.to/lastmile_qr_scan", "ios": "https://dc.lft.to/lastmile_qr_scan"}, "fusion_lon": 0.0, "lat": 38.92326516666667, "bike_id": "0f31d5ea93020a6ec97c915cdd4cc593", "type": "electric_scooter", "is_reserved": 0, "lon": -77.043969}, {"fusion_lat": 0.0, "name": "71bfdc9cfcffc95a58d5b61a051052ec", "is_disabled": 0, "rental_uris": {"android": "https://dc.lft.to/lastmile_qr_scan", "ios": "https://dc.lft.to/lastmile_qr_scan"}, "fusion_lon": 0.0, "lat": 38.92694216666666, "bike_id": "71bfdc9cfcffc95a58d5b61a051052ec", "type": "electric_scooter", "is_reserved": 0, "lon": -77.01479833333333}, {"fusion_lat": 0.0, "name": "bb5bfa01689c4148405c30d0dcfc5be9", "is_disabled": 0, "rental_uris": {"android": "https://dc.lft.to/lastmile_qr_scan", "ios": "https://dc.lft.to/lastmile_qr_scan"}, "fusion_lon": 0.0, "lat": 38.9312445, "bike_id": "bb5bfa01689c4148405c30d0dcfc5be9", "type": "electric_scooter", "is_reserved": 0, "lon": -77.0302665}, {"fusion_lat": 0.0, "name": "f28c1d616ea2bb9e2bf91ae20be035bf", "is_disabled": 0, "rental_uris": {"android": "https://dc.lft.to/lastmile_qr_scan", "ios": "https://dc.lft.to/lastmile_qr_scan"}, "fusion_lon": 0.0, "lat": 38.89616816666667, "bike_id": "f28c1d616ea2bb9e2bf91ae20be035bf", "type": "electric_bike", "is_reserved": 0, "lon": -76.9074025}, {"fusion_lat": 0.0, "name": "1430f4ae1f4215c2844bb7f23c7b6923", "is_disabled": 0, "rental_uris": {"android": "https://dc.lft.to/lastmile_qr_scan", "ios": "https://dc.lft.to/lastmile_qr_scan"}, "fusion_lon": 0.0, "lat": 38.91818766666667, "bike_id": "1430f4ae1f4215c2844bb7f23c7b6923", "type": "electric_scooter", "is_reserved": 0, "lon": -77.02501683333334}, {"fusion_lat": 0.0, "name": "68f0f4a96c26cba9b80920259070e46d", "is_disabled": 0, "rental_uris": {"android": "https://dc.lft.to/lastmile_qr_scan", "ios": "https://dc.lft.to/lastmile_qr_scan"}, "fusion_lon": 0.0, "lat": 38.924126666666666, "bike_id": "68f0f4a96c26cba9b80920259070e46d", "type": "electric_scooter", "is_reserved": 0, "lon": -77.04460666666667}, {"fusion_lat": 0.0, "name": "147c820fa34ad8deac63dd9bde88eae9", "is_disabled": 0, "rental_uris": {"android": "https://dc.lft.to/lastmile_qr_scan", "ios": "https://dc.lft.to/lastmile_qr_scan"}, "fusion_lon": 0.0, "lat": 38.887205333333334, "bike_id": "147c820fa34ad8deac63dd9bde88eae9", "type": "electric_scooter", "is_reserved": 0, "lon": -76.99685916666667}, {"fusion_lat": 0.0, "name": "32233a53eda6b6882c1413a77b6faaa6", "is_disabled": 0, "rental_uris": {"android": "https://dc.lft.to/lastmile_qr_scan", "ios": "https://dc.lft.to/lastmile_qr_scan"}, "fusion_lon": 0.0, "lat": 38.89836483333333, "bike_id": "32233a53eda6b6882c1413a77b6faaa6", "type": "electric_scooter", "is_reserved": 0, "lon": -77.00746333333333}, {"fusion_lat": 0.0, "name": "f00e1a78ce979b67c640b6aa695c9316", "is_disabled": 0, "rental_uris": {"android": "https://dc.lft.to/lastmile_qr_scan", "ios": "https://dc.lft.to/lastmile_qr_scan"}, "fusion_lon": 0.0, "lat": 38.9846595, "bike_id": "f00e1a78ce979b67c640b6aa695c9316", "type": "electric_bike", "is_reserved": 0, "lon": -76.97053083333333}, {"fusion_lat": 0.0, "name": "88fe0bc3d9116fb2bd8518db1e744d1c", "is_disabled": 0, "rental_uris": {"android": "https://dc.lft.to/lastmile_qr_scan", "ios": "https://dc.lft.to/lastmile_qr_scan"}, "fusion_lon": 0.0, "lat": 38.906854, "bike_id": "88fe0bc3d9116fb2bd8518db1e744d1c", "type": "electric_bike", "is_reserved": 0, "lon": -76.94493083333333}, {"fusion_lat": 0.0, "name": "f158961823357491fe425c7639d68510", "is_disabled": 0, "rental_uris": {"android": "https://dc.lft.to/lastmile_qr_scan", "ios": "https://dc.lft.to/lastmile_qr_scan"}, "fusion_lon": 0.0, "lat": 38.887663, "bike_id": "f158961823357491fe425c7639d68510", "type": "electric_scooter", "is_reserved": 0, "lon": -76.977448}, {"fusion_lat": 0.0, "name": "61a69ce1fdaed02498c8eeabbab711f6", "is_disabled": 0, "rental_uris": {"android": "https://dc.lft.to/lastmile_qr_scan", "ios": "https://dc.lft.to/lastmile_qr_scan"}, "fusion_lon": 0.0, "lat": 38.91066, "bike_id": "61a69ce1fdaed02498c8eeabbab711f6", "type": "electric_scooter", "is_reserved": 0, "lon": -76.98518783333333}, {"fusion_lat": 0.0, "name": "4615f509b884183147c7069fe425ca18", "is_disabled": 0, "rental_uris": {"android": "https://dc.lft.to/lastmile_qr_scan", "ios": "https://dc.lft.to/lastmile_qr_scan"}, "fusion_lon": 0.0, "lat": 38.90152233333333, "bike_id": "4615f509b884183147c7069fe425ca18", "type": "electric_scooter", "is_reserved": 0, "lon": -76.93066766666666}, {"fusion_lat": 0.0, "name": "59ee0e26af1d370c6ce73e33b251f99a", "is_disabled": 0, "rental_uris": {"android": "https://dc.lft.to/lastmile_qr_scan", "ios": "https://dc.lft.to/lastmile_qr_scan"}, "fusion_lon": 0.0, "lat": 38.93691966666667, "bike_id": "59ee0e26af1d370c6ce73e33b251f99a", "type": "electric_bike", "is_reserved": 0, "lon": -76.99059666666666}, {"fusion_lat": 0.0, "name": "7f77dcecb86e449c6e80b51bfd3707c5", "is_disabled": 0, "rental_uris": {"android": "https://dc.lft.to/lastmile_qr_scan", "ios": "https://dc.lft.to/lastmile_qr_scan"}, "fusion_lon": 0.0, "lat": 38.904143, "bike_id": "7f77dcecb86e449c6e80b51bfd3707c5", "type": "electric_scooter", "is_reserved": 0, "lon": -77.04353916666666}, {"fusion_lat": 0.0, "name": "46419d406619439c90cd25c681b1ce22", "is_disabled": 0, "rental_uris": {"android": "https://dc.lft.to/lastmile_qr_scan", "ios": "https://dc.lft.to/lastmile_qr_scan"}, "fusion_lon": 0.0, "lat": 38.918179, "bike_id": "46419d406619439c90cd25c681b1ce22", "type": "electric_scooter", "is_reserved": 0, "lon": -77.0270125}, {"fusion_lat": 0.0, "name": "188b564dd6ef6311945c9f09691aeaf2", "is_disabled": 0, "rental_uris": {"android": "https://dc.lft.to/lastmile_qr_scan", "ios": "https://dc.lft.to/lastmile_qr_scan"}, "fusion_lon": 0.0, "lat": 38.926057166666666, "bike_id": "188b564dd6ef6311945c9f09691aeaf2", "type": "electric_scooter", "is_reserved": 0, "lon": -77.05712016666666}, {"fusion_lat": 0.0, "name": "2f5bd32720fc5fe085635a0e13acfdee", "is_disabled": 0, "rental_uris": {"android": "https://dc.lft.to/lastmile_qr_scan", "ios": "https://dc.lft.to/lastmile_qr_scan"}, "fusion_lon": 0.0, "lat": 38.876653, "bike_id": "2f5bd32720fc5fe085635a0e13acfdee", "type": "electric_scooter", "is_reserved": 0, "lon": -77.00517266666667}, {"fusion_lat": 0.0, "name": "62d10ee781cfdc3c3737a9161481b799", "is_disabled": 0, "rental_uris": {"android": "https://dc.lft.to/lastmile_qr_scan", "ios": "https://dc.lft.to/lastmile_qr_scan"}, "fusion_lon": 0.0, "lat": 38.9358145, "bike_id": "62d10ee781cfdc3c3737a9161481b799", "type": "electric_scooter", "is_reserved": 0, "lon": -77.0336115}, {"fusion_lat": 0.0, "name": "ac5fc0b30719f5726751242e48b6508d", "is_disabled": 0, "rental_uris": {"android": "https://dc.lft.to/lastmile_qr_scan", "ios": "https://dc.lft.to/lastmile_qr_scan"}, "fusion_lon": 0.0, "lat": 38.886298333333336, "bike_id": "ac5fc0b30719f5726751242e48b6508d", "type": "electric_scooter", "is_reserved": 0, "lon": -77.01538933333333}, {"fusion_lat": 0.0, "name": "46edee3784fc8e97305d41a881d5851c", "is_disabled": 0, "rental_uris": {"android": "https://dc.lft.to/lastmile_qr_scan", "ios": "https://dc.lft.to/lastmile_qr_scan"}, "fusion_lon": 0.0, "lat": 38.9012505, "bike_id": "46edee3784fc8e97305d41a881d5851c", "type": "electric_scooter", "is_reserved": 0, "lon": -77.03916116666667}, {"fusion_lat": 0.0, "name": "eac92743692f924d2c35c1ce503c7d17", "is_disabled": 0, "rental_uris": {"android": "https://dc.lft.to/lastmile_qr_scan", "ios": "https://dc.lft.to/lastmile_qr_scan"}, "fusion_lon": 0.0, "lat": 38.905719166666664, "bike_id": "eac92743692f924d2c35c1ce503c7d17", "type": "electric_scooter", "is_reserved": 0, "lon": -77.00580466666666}, {"fusion_lat": 0.0, "name": "c51ffdf1241cb1743a8882f36f14b7f5", "is_disabled": 0, "rental_uris": {"android": "https://dc.lft.to/lastmile_qr_scan", "ios": "https://dc.lft.to/lastmile_qr_scan"}, "fusion_lon": 0.0, "lat": 38.897452333333334, "bike_id": "c51ffdf1241cb1743a8882f36f14b7f5", "type": "electric_scooter", "is_reserved": 0, "lon": -77.04533866666667}, {"fusion_lat": 0.0, "name": "f7c31fe1aa74712d4f4e87049e22ff50", "is_disabled": 0, "rental_uris": {"android": "https://dc.lft.to/lastmile_qr_scan", "ios": "https://dc.lft.to/lastmile_qr_scan"}, "fusion_lon": 0.0, "lat": 38.90881683333333, "bike_id": "f7c31fe1aa74712d4f4e87049e22ff50", "type": "electric_scooter", "is_reserved": 0, "lon": -77.06428116666666}, {"fusion_lat": 0.0, "name": "4f1a296535a3030f4176d1975400a6a7", "is_disabled": 0, "rental_uris": {"android": "https://dc.lft.to/lastmile_qr_scan", "ios": "https://dc.lft.to/lastmile_qr_scan"}, "fusion_lon": 0.0, "lat": 38.89496833333333, "bike_id": "4f1a296535a3030f4176d1975400a6a7", "type": "electric_scooter", "is_reserved": 0, "lon": -77.00212683333334}, {"fusion_lat": 0.0, "name": "288f8e67b5103e8fef463828537a72f1", "is_disabled": 0, "rental_uris": {"android": "https://dc.lft.to/lastmile_qr_scan", "ios": "https://dc.lft.to/lastmile_qr_scan"}, "fusion_lon": 0.0, "lat": 38.93559333333333, "bike_id": "288f8e67b5103e8fef463828537a72f1", "type": "electric_scooter", "is_reserved": 0, "lon": -77.07461866666667}, {"fusion_lat": 0.0, "name": "f33871b6da34e7d9fc36f67cb234c80a", "is_disabled": 0, "rental_uris": {"android": "https://dc.lft.to/lastmile_qr_scan", "ios": "https://dc.lft.to/lastmile_qr_scan"}, "fusion_lon": 0.0, "lat": 38.916999833333335, "bike_id": "f33871b6da34e7d9fc36f67cb234c80a", "type": "electric_scooter", "is_reserved": 0, "lon": -77.04209933333334}, {"fusion_lat": 0.0, "name": "c186b2dfd7614aff7e81f7d9ee27cbed", "is_disabled": 0, "rental_uris": {"android": "https://dc.lft.to/lastmile_qr_scan", "ios": "https://dc.lft.to/lastmile_qr_scan"}, "fusion_lon": 0.0, "lat": 38.8922335, "bike_id": "c186b2dfd7614aff7e81f7d9ee27cbed", "type": "electric_scooter", "is_reserved": 0, "lon": -77.04801783333333}, {"fusion_lat": 0.0, "name": "16ec9d364491c40f11bc0c65c4bebbdd", "is_disabled": 0, "rental_uris": {"android": "https://dc.lft.to/lastmile_qr_scan", "ios": "https://dc.lft.to/lastmile_qr_scan"}, "fusion_lon": 0.0, "lat": 38.90265433333333, "bike_id": "16ec9d364491c40f11bc0c65c4bebbdd", "type": "electric_scooter", "is_reserved": 0, "lon": -77.01756833333333}, {"fusion_lat": 0.0, "name": "9daa0c9d94543cd3244a388ca58aba9a", "is_disabled": 0, "rental_uris": {"android": "https://dc.lft.to/lastmile_qr_scan", "ios": "https://dc.lft.to/lastmile_qr_scan"}, "fusion_lon": 0.0, "lat": 38.9029905, "bike_id": "9daa0c9d94543cd3244a388ca58aba9a", "type": "electric_scooter", "is_reserved": 0, "lon": -77.03194533333334}, {"fusion_lat": 0.0, "name": "42f3a5d0c69f11f592e8de7414e14434", "is_disabled": 0, "rental_uris": {"android": "https://dc.lft.to/lastmile_qr_scan", "ios": "https://dc.lft.to/lastmile_qr_scan"}, "fusion_lon": 0.0, "lat": 38.92853683333333, "bike_id": "42f3a5d0c69f11f592e8de7414e14434", "type": "electric_scooter", "is_reserved": 0, "lon": -77.03098716666666}, {"fusion_lat": 0.0, "name": "9bfe15912ad15485e043a0197a6f1df5", "is_disabled": 0, "rental_uris": {"android": "https://dc.lft.to/lastmile_qr_scan", "ios": "https://dc.lft.to/lastmile_qr_scan"}, "fusion_lon": 0.0, "lat": 38.899987833333334, "bike_id": "9bfe15912ad15485e043a0197a6f1df5", "type": "electric_scooter", "is_reserved": 0, "lon": -76.98563}, {"fusion_lat": 0.0, "name": "6e2799f2a7ca8263c56dc9742301c630", "is_disabled": 0, "rental_uris": {"android": "https://dc.lft.to/lastmile_qr_scan", "ios": "https://dc.lft.to/lastmile_qr_scan"}, "fusion_lon": 0.0, "lat": 38.890691833333335, "bike_id": "6e2799f2a7ca8263c56dc9742301c630", "type": "electric_scooter", "is_reserved": 0, "lon": -76.944545}, {"fusion_lat": 0.0, "name": "fc05f3f3b0891e0e49ecdbf6cd29ee9b", "is_disabled": 0, "rental_uris": {"android": "https://dc.lft.to/lastmile_qr_scan", "ios": "https://dc.lft.to/lastmile_qr_scan"}, "fusion_lon": 0.0, "lat": 38.89535383333333, "bike_id": "fc05f3f3b0891e0e49ecdbf6cd29ee9b", "type": "electric_scooter", "is_reserved": 0, "lon": -77.011964}, {"fusion_lat": 0.0, "name": "7269a0fd445c0f39ce22cb8575cbe584", "is_disabled": 0, "rental_uris": {"android": "https://dc.lft.to/lastmile_qr_scan", "ios": "https://dc.lft.to/lastmile_qr_scan"}, "fusion_lon": 0.0, "lat": 38.92515933333333, "bike_id": "7269a0fd445c0f39ce22cb8575cbe584", "type": "electric_scooter", "is_reserved": 0, "lon": -76.9956085}, {"fusion_lat": 0.0, "name": "38d4c122caa871acfdd1fa1a419b186f", "is_disabled": 0, "rental_uris": {"android": "https://dc.lft.to/lastmile_qr_scan", "ios": "https://dc.lft.to/lastmile_qr_scan"}, "fusion_lon": 0.0, "lat": 38.90162383333333, "bike_id": "38d4c122caa871acfdd1fa1a419b186f", "type": "electric_scooter", "is_reserved": 0, "lon": -77.04143583333334}, {"fusion_lat": 0.0, "name": "b34f382da012ae75bd4a8a3bbd2a2e0f", "is_disabled": 0, "rental_uris": {"android": "https://dc.lft.to/lastmile_qr_scan", "ios": "https://dc.lft.to/lastmile_qr_scan"}, "fusion_lon": 0.0, "lat": 38.928830166666664, "bike_id": "b34f382da012ae75bd4a8a3bbd2a2e0f", "type": "electric_scooter", "is_reserved": 0, "lon": -77.03271816666667}, {"fusion_lat": 0.0, "name": "77ab4d02fc4f5bbac71fa26daf74f688", "is_disabled": 0, "rental_uris": {"android": "https://dc.lft.to/lastmile_qr_scan", "ios": "https://dc.lft.to/lastmile_qr_scan"}, "fusion_lon": 0.0, "lat": 38.91259866666667, "bike_id": "77ab4d02fc4f5bbac71fa26daf74f688", "type": "electric_scooter", "is_reserved": 0, "lon": -77.031844}, {"fusion_lat": 0.0, "name": "7d93d0b9ff3dcc050b374dd305cad557", "is_disabled": 0, "rental_uris": {"android": "https://dc.lft.to/lastmile_qr_scan", "ios": "https://dc.lft.to/lastmile_qr_scan"}, "fusion_lon": 0.0, "lat": 38.90823366666667, "bike_id": "7d93d0b9ff3dcc050b374dd305cad557", "type": "electric_scooter", "is_reserved": 0, "lon": -77.054928}, {"fusion_lat": 0.0, "name": "9fd593a2428f23c33364ac44ff73d738", "is_disabled": 0, "rental_uris": {"android": "https://dc.lft.to/lastmile_qr_scan", "ios": "https://dc.lft.to/lastmile_qr_scan"}, "fusion_lon": 0.0, "lat": 38.93675016666667, "bike_id": "9fd593a2428f23c33364ac44ff73d738", "type": "electric_scooter", "is_reserved": 0, "lon": -77.03594383333333}, {"fusion_lat": 0.0, "name": "81581de2dcf8efc3d3d95a8ae1d724c0", "is_disabled": 0, "rental_uris": {"android": "https://dc.lft.to/lastmile_qr_scan", "ios": "https://dc.lft.to/lastmile_qr_scan"}, "fusion_lon": 0.0, "lat": 38.908975833333336, "bike_id": "81581de2dcf8efc3d3d95a8ae1d724c0", "type": "electric_scooter", "is_reserved": 0, "lon": -77.03445383333333}, {"fusion_lat": 0.0, "name": "90177751d05f2b0016cd39ddbf6c329f", "is_disabled": 0, "rental_uris": {"android": "https://dc.lft.to/lastmile_qr_scan", "ios": "https://dc.lft.to/lastmile_qr_scan"}, "fusion_lon": 0.0, "lat": 38.917169333333334, "bike_id": "90177751d05f2b0016cd39ddbf6c329f", "type": "electric_scooter", "is_reserved": 0, "lon": -77.01205816666666}, {"fusion_lat": 0.0, "name": "f1674c9e895b4b1c0f39e8d69ae0f712", "is_disabled": 0, "rental_uris": {"android": "https://dc.lft.to/lastmile_qr_scan", "ios": "https://dc.lft.to/lastmile_qr_scan"}, "fusion_lon": 0.0, "lat": 38.884953333333335, "bike_id": "f1674c9e895b4b1c0f39e8d69ae0f712", "type": "electric_scooter", "is_reserved": 0, "lon": -77.02094066666666}, {"fusion_lat": 0.0, "name": "aae45708d080c68c387aeda3b83a54df", "is_disabled": 0, "rental_uris": {"android": "https://dc.lft.to/lastmile_qr_scan", "ios": "https://dc.lft.to/lastmile_qr_scan"}, "fusion_lon": 0.0, "lat": 38.917690666666665, "bike_id": "aae45708d080c68c387aeda3b83a54df", "type": "electric_scooter", "is_reserved": 0, "lon": -77.0191485}, {"fusion_lat": 0.0, "name": "afcb3b6effbeb3f11d060ab5bfac3f99", "is_disabled": 0, "rental_uris": {"android": "https://dc.lft.to/lastmile_qr_scan", "ios": "https://dc.lft.to/lastmile_qr_scan"}, "fusion_lon": 0.0, "lat": 38.920799, "bike_id": "afcb3b6effbeb3f11d060ab5bfac3f99", "type": "electric_scooter", "is_reserved": 0, "lon": -77.00455883333333}, {"fusion_lat": 0.0, "name": "49518c76b1b3c6580414ce35494f6451", "is_disabled": 0, "rental_uris": {"android": "https://dc.lft.to/lastmile_qr_scan", "ios": "https://dc.lft.to/lastmile_qr_scan"}, "fusion_lon": 0.0, "lat": 38.93703816666667, "bike_id": "49518c76b1b3c6580414ce35494f6451", "type": "electric_scooter", "is_reserved": 0, "lon": -77.0211595}, {"fusion_lat": 0.0, "name": "7babc9770bb31e92f53fc65a1562bc02", "is_disabled": 0, "rental_uris": {"android": "https://dc.lft.to/lastmile_qr_scan", "ios": "https://dc.lft.to/lastmile_qr_scan"}, "fusion_lon": 0.0, "lat": 38.952308, "bike_id": "7babc9770bb31e92f53fc65a1562bc02", "type": "electric_scooter", "is_reserved": 0, "lon": -77.00244416666666}, {"fusion_lat": 0.0, "name": "6a85f6a9b2f348a17e47698c5ea50965", "is_disabled": 0, "rental_uris": {"android": "https://dc.lft.to/lastmile_qr_scan", "ios": "https://dc.lft.to/lastmile_qr_scan"}, "fusion_lon": 0.0, "lat": 38.919931, "bike_id": "6a85f6a9b2f348a17e47698c5ea50965", "type": "electric_scooter", "is_reserved": 0, "lon": -77.01787466666667}, {"fusion_lat": 0.0, "name": "05673edff24f928eeb4e5e928ca7b0d8", "is_disabled": 0, "rental_uris": {"android": "https://dc.lft.to/lastmile_qr_scan", "ios": "https://dc.lft.to/lastmile_qr_scan"}, "fusion_lon": 0.0, "lat": 38.961178833333335, "bike_id": "05673edff24f928eeb4e5e928ca7b0d8", "type": "electric_scooter", "is_reserved": 0, "lon": -77.02865466666667}, {"fusion_lat": 0.0, "name": "f86318b67be29aa1db714fcf86ae71a5", "is_disabled": 0, "rental_uris": {"android": "https://dc.lft.to/lastmile_qr_scan", "ios": "https://dc.lft.to/lastmile_qr_scan"}, "fusion_lon": 0.0, "lat": 38.91865166666667, "bike_id": "f86318b67be29aa1db714fcf86ae71a5", "type": "electric_scooter", "is_reserved": 0, "lon": -77.04041133333334}, {"fusion_lat": 0.0, "name": "412955337d6ef068b7c5bd2a0e5b0a25", "is_disabled": 0, "rental_uris": {"android": "https://dc.lft.to/lastmile_qr_scan", "ios": "https://dc.lft.to/lastmile_qr_scan"}, "fusion_lon": 0.0, "lat": 38.937810999999996, "bike_id": "412955337d6ef068b7c5bd2a0e5b0a25", "type": "electric_scooter", "is_reserved": 0, "lon": -77.02467583333333}, {"fusion_lat": 0.0, "name": "979dea14e72afd3502d88a91285c5114", "is_disabled": 0, "rental_uris": {"android": "https://dc.lft.to/lastmile_qr_scan", "ios": "https://dc.lft.to/lastmile_qr_scan"}, "fusion_lon": 0.0, "lat": 38.89489866666667, "bike_id": "979dea14e72afd3502d88a91285c5114", "type": "electric_scooter", "is_reserved": 0, "lon": -77.01532433333334}, {"fusion_lat": 0.0, "name": "97a180dfd8bfb5bdec9197a2d1c489f3", "is_disabled": 0, "rental_uris": {"android": "https://dc.lft.to/lastmile_qr_scan", "ios": "https://dc.lft.to/lastmile_qr_scan"}, "fusion_lon": 0.0, "lat": 38.93193216666667, "bike_id": "97a180dfd8bfb5bdec9197a2d1c489f3", "type": "electric_scooter", "is_reserved": 0, "lon": -77.04296833333333}, {"fusion_lat": 0.0, "name": "ff56ee0b60c9e59412dc84475f37ace3", "is_disabled": 0, "rental_uris": {"android": "https://dc.lft.to/lastmile_qr_scan", "ios": "https://dc.lft.to/lastmile_qr_scan"}, "fusion_lon": 0.0, "lat": 38.8845775, "bike_id": "ff56ee0b60c9e59412dc84475f37ace3", "type": "electric_scooter", "is_reserved": 0, "lon": -76.998365}, {"fusion_lat": 0.0, "name": "24ac92a120a81c67248722d8306782fc", "is_disabled": 0, "rental_uris": {"android": "https://dc.lft.to/lastmile_qr_scan", "ios": "https://dc.lft.to/lastmile_qr_scan"}, "fusion_lon": 0.0, "lat": 38.903659833333336, "bike_id": "24ac92a120a81c67248722d8306782fc", "type": "electric_scooter", "is_reserved": 0, "lon": -77.01836633333333}, {"fusion_lat": 0.0, "name": "1e585141f06ce8b0d4d22a7b7fa12ae5", "is_disabled": 0, "rental_uris": {"android": "https://dc.lft.to/lastmile_qr_scan", "ios": "https://dc.lft.to/lastmile_qr_scan"}, "fusion_lon": 0.0, "lat": 38.87797883333333, "bike_id": "1e585141f06ce8b0d4d22a7b7fa12ae5", "type": "electric_scooter", "is_reserved": 0, "lon": -77.00126033333333}, {"fusion_lat": 0.0, "name": "4f0c741cdc818b9b5291134e81e990d0", "is_disabled": 0, "rental_uris": {"android": "https://dc.lft.to/lastmile_qr_scan", "ios": "https://dc.lft.to/lastmile_qr_scan"}, "fusion_lon": 0.0, "lat": 38.918276, "bike_id": "4f0c741cdc818b9b5291134e81e990d0", "type": "electric_scooter", "is_reserved": 0, "lon": -77.041744}, {"fusion_lat": 0.0, "name": "5fe2736138aa02e9d41330db3b6a8b3e", "is_disabled": 0, "rental_uris": {"android": "https://dc.lft.to/lastmile_qr_scan", "ios": "https://dc.lft.to/lastmile_qr_scan"}, "fusion_lon": 0.0, "lat": 38.93515983333333, "bike_id": "5fe2736138aa02e9d41330db3b6a8b3e", "type": "electric_scooter", "is_reserved": 0, "lon": -77.05834983333334}, {"fusion_lat": 0.0, "name": "74d3bd7a368294309933855a0cab788c", "is_disabled": 0, "rental_uris": {"android": "https://dc.lft.to/lastmile_qr_scan", "ios": "https://dc.lft.to/lastmile_qr_scan"}, "fusion_lon": 0.0, "lat": 38.90769233333333, "bike_id": "74d3bd7a368294309933855a0cab788c", "type": "electric_scooter", "is_reserved": 0, "lon": -77.0297095}, {"fusion_lat": 0.0, "name": "f303d2148a332b548eec68fb29b706d9", "is_disabled": 0, "rental_uris": {"android": "https://dc.lft.to/lastmile_qr_scan", "ios": "https://dc.lft.to/lastmile_qr_scan"}, "fusion_lon": 0.0, "lat": 38.901437333333334, "bike_id": "f303d2148a332b548eec68fb29b706d9", "type": "electric_scooter", "is_reserved": 0, "lon": -77.0607205}, {"fusion_lat": 0.0, "name": "77622c75eefd72502806360d42cc09ca", "is_disabled": 0, "rental_uris": {"android": "https://dc.lft.to/lastmile_qr_scan", "ios": "https://dc.lft.to/lastmile_qr_scan"}, "fusion_lon": 0.0, "lat": 38.88405916666667, "bike_id": "77622c75eefd72502806360d42cc09ca", "type": "electric_bike", "is_reserved": 0, "lon": -76.954078}, {"fusion_lat": 0.0, "name": "a0e533fb88735ff7e8a2b910d0d7278f", "is_disabled": 0, "rental_uris": {"android": "https://dc.lft.to/lastmile_qr_scan", "ios": "https://dc.lft.to/lastmile_qr_scan"}, "fusion_lon": 0.0, "lat": 38.896145, "bike_id": "a0e533fb88735ff7e8a2b910d0d7278f", "type": "electric_scooter", "is_reserved": 0, "lon": -77.02649283333334}, {"fusion_lat": 0.0, "name": "02a982183273812d8e81d2f01e3b71a0", "is_disabled": 0, "rental_uris": {"android": "https://dc.lft.to/lastmile_qr_scan", "ios": "https://dc.lft.to/lastmile_qr_scan"}, "fusion_lon": 0.0, "lat": 38.951828666666664, "bike_id": "02a982183273812d8e81d2f01e3b71a0", "type": "electric_scooter", "is_reserved": 0, "lon": -77.02725216666667}, {"fusion_lat": 0.0, "name": "4ae761f0d80dd536115f248cc8859ef8", "is_disabled": 0, "rental_uris": {"android": "https://dc.lft.to/lastmile_qr_scan", "ios": "https://dc.lft.to/lastmile_qr_scan"}, "fusion_lon": 0.0, "lat": 38.909171, "bike_id": "4ae761f0d80dd536115f248cc8859ef8", "type": "electric_scooter", "is_reserved": 0, "lon": -77.07273666666667}, {"fusion_lat": 0.0, "name": "dd58f89f028a9554182c226116dd89bc", "is_disabled": 0, "rental_uris": {"android": "https://dc.lft.to/lastmile_qr_scan", "ios": "https://dc.lft.to/lastmile_qr_scan"}, "fusion_lon": 0.0, "lat": 38.902704166666666, "bike_id": "dd58f89f028a9554182c226116dd89bc", "type": "electric_scooter", "is_reserved": 0, "lon": -77.053157}, {"fusion_lat": 0.0, "name": "b8ef7d241d10f07337343acf2989f726", "is_disabled": 0, "rental_uris": {"android": "https://dc.lft.to/lastmile_qr_scan", "ios": "https://dc.lft.to/lastmile_qr_scan"}, "fusion_lon": 0.0, "lat": 38.879419666666664, "bike_id": "b8ef7d241d10f07337343acf2989f726", "type": "electric_scooter", "is_reserved": 0, "lon": -77.00906333333333}, {"fusion_lat": 0.0, "name": "d8eedcd1c1ea6ea2ba221b3487dbaf91", "is_disabled": 0, "rental_uris": {"android": "https://dc.lft.to/lastmile_qr_scan", "ios": "https://dc.lft.to/lastmile_qr_scan"}, "fusion_lon": 0.0, "lat": 38.8872225, "bike_id": "d8eedcd1c1ea6ea2ba221b3487dbaf91", "type": "electric_scooter", "is_reserved": 0, "lon": -76.99644316666667}, {"fusion_lat": 0.0, "name": "4f2444ebcdef1ade7530e55dc8b7bc0b", "is_disabled": 0, "rental_uris": {"android": "https://dc.lft.to/lastmile_qr_scan", "ios": "https://dc.lft.to/lastmile_qr_scan"}, "fusion_lon": 0.0, "lat": 38.93177883333333, "bike_id": "4f2444ebcdef1ade7530e55dc8b7bc0b", "type": "electric_scooter", "is_reserved": 0, "lon": -77.02813983333333}, {"fusion_lat": 0.0, "name": "ef15fbd586562be0211729e664b2feed", "is_disabled": 0, "rental_uris": {"android": "https://dc.lft.to/lastmile_qr_scan", "ios": "https://dc.lft.to/lastmile_qr_scan"}, "fusion_lon": 0.0, "lat": 38.916115833333336, "bike_id": "ef15fbd586562be0211729e664b2feed", "type": "electric_scooter", "is_reserved": 0, "lon": -77.03114933333333}, {"fusion_lat": 0.0, "name": "c12ccd5e55e42155ef32e7450551256e", "is_disabled": 0, "rental_uris": {"android": "https://dc.lft.to/lastmile_qr_scan", "ios": "https://dc.lft.to/lastmile_qr_scan"}, "fusion_lon": 0.0, "lat": 38.90011283333333, "bike_id": "c12ccd5e55e42155ef32e7450551256e", "type": "electric_scooter", "is_reserved": 0, "lon": -77.03506866666666}, {"fusion_lat": 0.0, "name": "40cc2c4eb4e1e467e04ab3e55c6e633b", "is_disabled": 0, "rental_uris": {"android": "https://dc.lft.to/lastmile_qr_scan", "ios": "https://dc.lft.to/lastmile_qr_scan"}, "fusion_lon": 0.0, "lat": 38.875817, "bike_id": "40cc2c4eb4e1e467e04ab3e55c6e633b", "type": "electric_bike", "is_reserved": 0, "lon": -77.23410283333334}, {"fusion_lat": 0.0, "name": "4bc3d35c8650deff7dfb11cc7315144b", "is_disabled": 0, "rental_uris": {"android": "https://dc.lft.to/lastmile_qr_scan", "ios": "https://dc.lft.to/lastmile_qr_scan"}, "fusion_lon": 0.0, "lat": 38.885249333333334, "bike_id": "4bc3d35c8650deff7dfb11cc7315144b", "type": "electric_scooter", "is_reserved": 0, "lon": -76.92924316666667}, {"fusion_lat": 0.0, "name": "db16a0669f75e67016c0c951fb652656", "is_disabled": 0, "rental_uris": {"android": "https://dc.lft.to/lastmile_qr_scan", "ios": "https://dc.lft.to/lastmile_qr_scan"}, "fusion_lon": 0.0, "lat": 38.898422333333336, "bike_id": "db16a0669f75e67016c0c951fb652656", "type": "electric_scooter", "is_reserved": 0, "lon": -77.0074905}, {"fusion_lat": 0.0, "name": "bb3e1b8622e1c605e4d26de2ed7e26c8", "is_disabled": 0, "rental_uris": {"android": "https://dc.lft.to/lastmile_qr_scan", "ios": "https://dc.lft.to/lastmile_qr_scan"}, "fusion_lon": 0.0, "lat": 38.8922575, "bike_id": "bb3e1b8622e1c605e4d26de2ed7e26c8", "type": "electric_scooter", "is_reserved": 0, "lon": -77.03982883333333}, {"fusion_lat": 0.0, "name": "4bc3d5ecdf2fec0f98208abad2169c2a", "is_disabled": 0, "rental_uris": {"android": "https://dc.lft.to/lastmile_qr_scan", "ios": "https://dc.lft.to/lastmile_qr_scan"}, "fusion_lon": 0.0, "lat": 38.918174, "bike_id": "4bc3d5ecdf2fec0f98208abad2169c2a", "type": "electric_scooter", "is_reserved": 0, "lon": -77.04000833333333}, {"fusion_lat": 0.0, "name": "75973fa8f1c5261212185f069682184f", "is_disabled": 0, "rental_uris": {"android": "https://dc.lft.to/lastmile_qr_scan", "ios": "https://dc.lft.to/lastmile_qr_scan"}, "fusion_lon": 0.0, "lat": 38.90765366666667, "bike_id": "75973fa8f1c5261212185f069682184f", "type": "electric_scooter", "is_reserved": 0, "lon": -77.04356033333333}, {"fusion_lat": 0.0, "name": "008484a81d9e13f431cbf6af6cba42a6", "is_disabled": 0, "rental_uris": {"android": "https://dc.lft.to/lastmile_qr_scan", "ios": "https://dc.lft.to/lastmile_qr_scan"}, "fusion_lon": 0.0, "lat": 38.9038035, "bike_id": "008484a81d9e13f431cbf6af6cba42a6", "type": "electric_bike", "is_reserved": 0, "lon": -77.0051425}, {"fusion_lat": 0.0, "name": "556a64485cbfa26128b29c653acbb446", "is_disabled": 0, "rental_uris": {"android": "https://dc.lft.to/lastmile_qr_scan", "ios": "https://dc.lft.to/lastmile_qr_scan"}, "fusion_lon": 0.0, "lat": 38.9241075, "bike_id": "556a64485cbfa26128b29c653acbb446", "type": "electric_scooter", "is_reserved": 0, "lon": -77.029796}, {"fusion_lat": 0.0, "name": "89ca54e6c7519840a63ede0dac11bec5", "is_disabled": 0, "rental_uris": {"android": "https://dc.lft.to/lastmile_qr_scan", "ios": "https://dc.lft.to/lastmile_qr_scan"}, "fusion_lon": 0.0, "lat": 38.899829833333335, "bike_id": "89ca54e6c7519840a63ede0dac11bec5", "type": "electric_scooter", "is_reserved": 0, "lon": -77.02241533333333}, {"fusion_lat": 0.0, "name": "767742ff7aa791f2c25228cc597c5270", "is_disabled": 0, "rental_uris": {"android": "https://dc.lft.to/lastmile_qr_scan", "ios": "https://dc.lft.to/lastmile_qr_scan"}, "fusion_lon": 0.0, "lat": 38.89281583333333, "bike_id": "767742ff7aa791f2c25228cc597c5270", "type": "electric_scooter", "is_reserved": 0, "lon": -77.05034283333333}, {"fusion_lat": 0.0, "name": "37592b170aa1dd9b0836f27de66347e5", "is_disabled": 0, "rental_uris": {"android": "https://dc.lft.to/lastmile_qr_scan", "ios": "https://dc.lft.to/lastmile_qr_scan"}, "fusion_lon": 0.0, "lat": 38.8961725, "bike_id": "37592b170aa1dd9b0836f27de66347e5", "type": "electric_scooter", "is_reserved": 0, "lon": -77.0259425}, {"fusion_lat": 0.0, "name": "11b2bea7c6f48480e715d0374ab7492f", "is_disabled": 0, "rental_uris": {"android": "https://dc.lft.to/lastmile_qr_scan", "ios": "https://dc.lft.to/lastmile_qr_scan"}, "fusion_lon": 0.0, "lat": 38.916927666666666, "bike_id": "11b2bea7c6f48480e715d0374ab7492f", "type": "electric_scooter", "is_reserved": 0, "lon": -77.03780416666666}, {"fusion_lat": 0.0, "name": "52c1d630f9a2861a7e3b04d211ae9276", "is_disabled": 0, "rental_uris": {"android": "https://dc.lft.to/lastmile_qr_scan", "ios": "https://dc.lft.to/lastmile_qr_scan"}, "fusion_lon": 0.0, "lat": 38.928740833333336, "bike_id": "52c1d630f9a2861a7e3b04d211ae9276", "type": "electric_scooter", "is_reserved": 0, "lon": -77.0349995}, {"fusion_lat": 0.0, "name": "62b10b3c5aea9f35d9034bc9b4d626bb", "is_disabled": 0, "rental_uris": {"android": "https://dc.lft.to/lastmile_qr_scan", "ios": "https://dc.lft.to/lastmile_qr_scan"}, "fusion_lon": 0.0, "lat": 38.90323866666667, "bike_id": "62b10b3c5aea9f35d9034bc9b4d626bb", "type": "electric_scooter", "is_reserved": 0, "lon": -77.0252155}, {"fusion_lat": 0.0, "name": "3483a2b6b4ea91622be02d9f60d9efe2", "is_disabled": 0, "rental_uris": {"android": "https://dc.lft.to/lastmile_qr_scan", "ios": "https://dc.lft.to/lastmile_qr_scan"}, "fusion_lon": 0.0, "lat": 38.90835516666667, "bike_id": "3483a2b6b4ea91622be02d9f60d9efe2", "type": "electric_scooter", "is_reserved": 0, "lon": -77.06370916666667}, {"fusion_lat": 0.0, "name": "18f71fbc1e01f781cac57f016d765348", "is_disabled": 0, "rental_uris": {"android": "https://dc.lft.to/lastmile_qr_scan", "ios": "https://dc.lft.to/lastmile_qr_scan"}, "fusion_lon": 0.0, "lat": 38.85721866666667, "bike_id": "18f71fbc1e01f781cac57f016d765348", "type": "electric_scooter", "is_reserved": 0, "lon": -76.9809845}, {"fusion_lat": 0.0, "name": "673cbc28edfff2c45acf090660cf16fb", "is_disabled": 0, "rental_uris": {"android": "https://dc.lft.to/lastmile_qr_scan", "ios": "https://dc.lft.to/lastmile_qr_scan"}, "fusion_lon": 0.0, "lat": 38.910106999999996, "bike_id": "673cbc28edfff2c45acf090660cf16fb", "type": "electric_scooter", "is_reserved": 0, "lon": -76.98493966666666}, {"fusion_lat": 0.0, "name": "00ea4f90ca8f260611c86ddc2f4e2653", "is_disabled": 0, "rental_uris": {"android": "https://dc.lft.to/lastmile_qr_scan", "ios": "https://dc.lft.to/lastmile_qr_scan"}, "fusion_lon": 0.0, "lat": 38.9588425, "bike_id": "00ea4f90ca8f260611c86ddc2f4e2653", "type": "electric_scooter", "is_reserved": 0, "lon": -77.01170133333333}, {"fusion_lat": 0.0, "name": "ec4911757aef9636a61397cba36335e1", "is_disabled": 0, "rental_uris": {"android": "https://dc.lft.to/lastmile_qr_scan", "ios": "https://dc.lft.to/lastmile_qr_scan"}, "fusion_lon": 0.0, "lat": 38.920583, "bike_id": "ec4911757aef9636a61397cba36335e1", "type": "electric_scooter", "is_reserved": 0, "lon": -77.03299583333333}, {"fusion_lat": 0.0, "name": "8fdab3c45b0bd52c00c318163eff5070", "is_disabled": 0, "rental_uris": {"android": "https://dc.lft.to/lastmile_qr_scan", "ios": "https://dc.lft.to/lastmile_qr_scan"}, "fusion_lon": 0.0, "lat": 38.912672666666666, "bike_id": "8fdab3c45b0bd52c00c318163eff5070", "type": "electric_scooter", "is_reserved": 0, "lon": -77.013122}, {"fusion_lat": 0.0, "name": "093618e63034cd5555ecbba371d2c183", "is_disabled": 0, "rental_uris": {"android": "https://dc.lft.to/lastmile_qr_scan", "ios": "https://dc.lft.to/lastmile_qr_scan"}, "fusion_lon": 0.0, "lat": 38.876621, "bike_id": "093618e63034cd5555ecbba371d2c183", "type": "electric_scooter", "is_reserved": 0, "lon": -77.00915116666667}, {"fusion_lat": 0.0, "name": "386fac7381fbae53337bfbd38a6f4195", "is_disabled": 0, "rental_uris": {"android": "https://dc.lft.to/lastmile_qr_scan", "ios": "https://dc.lft.to/lastmile_qr_scan"}, "fusion_lon": 0.0, "lat": 38.89571383333333, "bike_id": "386fac7381fbae53337bfbd38a6f4195", "type": "electric_scooter", "is_reserved": 0, "lon": -77.02318183333334}, {"fusion_lat": 0.0, "name": "2189dafb18b96a604a96cf3a5bf8555d", "is_disabled": 0, "rental_uris": {"android": "https://dc.lft.to/lastmile_qr_scan", "ios": "https://dc.lft.to/lastmile_qr_scan"}, "fusion_lon": 0.0, "lat": 38.866298, "bike_id": "2189dafb18b96a604a96cf3a5bf8555d", "type": "electric_scooter", "is_reserved": 0, "lon": -76.98712316666666}, {"fusion_lat": 0.0, "name": "0c3013187f22945ded2751e69fc9f369", "is_disabled": 0, "rental_uris": {"android": "https://dc.lft.to/lastmile_qr_scan", "ios": "https://dc.lft.to/lastmile_qr_scan"}, "fusion_lon": 0.0, "lat": 38.876482, "bike_id": "0c3013187f22945ded2751e69fc9f369", "type": "electric_scooter", "is_reserved": 0, "lon": -77.006566}, {"fusion_lat": 0.0, "name": "aa8a3831103ab927b2dd45dba07935ea", "is_disabled": 0, "rental_uris": {"android": "https://dc.lft.to/lastmile_qr_scan", "ios": "https://dc.lft.to/lastmile_qr_scan"}, "fusion_lon": 0.0, "lat": 38.819948833333335, "bike_id": "aa8a3831103ab927b2dd45dba07935ea", "type": "electric_bike", "is_reserved": 0, "lon": -76.99817116666667}, {"fusion_lat": 0.0, "name": "27157264caef41fc3dbec03e4af9eae7", "is_disabled": 0, "rental_uris": {"android": "https://dc.lft.to/lastmile_qr_scan", "ios": "https://dc.lft.to/lastmile_qr_scan"}, "fusion_lon": 0.0, "lat": 38.94242166666667, "bike_id": "27157264caef41fc3dbec03e4af9eae7", "type": "electric_scooter", "is_reserved": 0, "lon": -77.02574266666667}, {"fusion_lat": 0.0, "name": "e1b0f43df0ca79d0a4d2f1e5d22651a9", "is_disabled": 0, "rental_uris": {"android": "https://dc.lft.to/lastmile_qr_scan", "ios": "https://dc.lft.to/lastmile_qr_scan"}, "fusion_lon": 0.0, "lat": 38.92908833333333, "bike_id": "e1b0f43df0ca79d0a4d2f1e5d22651a9", "type": "electric_scooter", "is_reserved": 0, "lon": -77.03276083333333}, {"fusion_lat": 0.0, "name": "bc4f263912b2faf4f86cba6b368605b0", "is_disabled": 0, "rental_uris": {"android": "https://dc.lft.to/lastmile_qr_scan", "ios": "https://dc.lft.to/lastmile_qr_scan"}, "fusion_lon": 0.0, "lat": 38.9237915, "bike_id": "bc4f263912b2faf4f86cba6b368605b0", "type": "electric_scooter", "is_reserved": 0, "lon": -77.05148916666667}, {"fusion_lat": 0.0, "name": "4f59a8c96edd060118711f7fabbdff7b", "is_disabled": 0, "rental_uris": {"android": "https://dc.lft.to/lastmile_qr_scan", "ios": "https://dc.lft.to/lastmile_qr_scan"}, "fusion_lon": 0.0, "lat": 38.913062833333335, "bike_id": "4f59a8c96edd060118711f7fabbdff7b", "type": "electric_scooter", "is_reserved": 0, "lon": -77.03853333333333}, {"fusion_lat": 0.0, "name": "62fc43e3032ebda73068d3e35fd75b59", "is_disabled": 0, "rental_uris": {"android": "https://dc.lft.to/lastmile_qr_scan", "ios": "https://dc.lft.to/lastmile_qr_scan"}, "fusion_lon": 0.0, "lat": 38.903039666666665, "bike_id": "62fc43e3032ebda73068d3e35fd75b59", "type": "electric_scooter", "is_reserved": 0, "lon": -77.06021583333333}, {"fusion_lat": 0.0, "name": "48f46054094568de85b2c2575df78d24", "is_disabled": 0, "rental_uris": {"android": "https://dc.lft.to/lastmile_qr_scan", "ios": "https://dc.lft.to/lastmile_qr_scan"}, "fusion_lon": 0.0, "lat": 38.89925016666667, "bike_id": "48f46054094568de85b2c2575df78d24", "type": "electric_scooter", "is_reserved": 0, "lon": -76.98537383333333}, {"fusion_lat": 0.0, "name": "768276af0a6e940850bb10c4406a8a66", "is_disabled": 0, "rental_uris": {"android": "https://dc.lft.to/lastmile_qr_scan", "ios": "https://dc.lft.to/lastmile_qr_scan"}, "fusion_lon": 0.0, "lat": 38.855825833333334, "bike_id": "768276af0a6e940850bb10c4406a8a66", "type": "electric_scooter", "is_reserved": 0, "lon": -76.96655483333333}, {"fusion_lat": 0.0, "name": "853bd05aa581dec97c4d10f0bf0e003e", "is_disabled": 0, "rental_uris": {"android": "https://dc.lft.to/lastmile_qr_scan", "ios": "https://dc.lft.to/lastmile_qr_scan"}, "fusion_lon": 0.0, "lat": 38.89239166666667, "bike_id": "853bd05aa581dec97c4d10f0bf0e003e", "type": "electric_scooter", "is_reserved": 0, "lon": -77.02105633333333}, {"fusion_lat": 0.0, "name": "d5593bf3aec95a08e9db67a4bd3e51e4", "is_disabled": 0, "rental_uris": {"android": "https://dc.lft.to/lastmile_qr_scan", "ios": "https://dc.lft.to/lastmile_qr_scan"}, "fusion_lon": 0.0, "lat": 38.903102, "bike_id": "d5593bf3aec95a08e9db67a4bd3e51e4", "type": "electric_scooter", "is_reserved": 0, "lon": -77.045152}, {"fusion_lat": 0.0, "name": "26ef2af958d04515a63826e6bf91e099", "is_disabled": 0, "rental_uris": {"android": "https://dc.lft.to/lastmile_qr_scan", "ios": "https://dc.lft.to/lastmile_qr_scan"}, "fusion_lon": 0.0, "lat": 38.9043125, "bike_id": "26ef2af958d04515a63826e6bf91e099", "type": "electric_scooter", "is_reserved": 0, "lon": -77.04059383333333}, {"fusion_lat": 0.0, "name": "97a2e17a880c0ec726fed98a27b48a2b", "is_disabled": 0, "rental_uris": {"android": "https://dc.lft.to/lastmile_qr_scan", "ios": "https://dc.lft.to/lastmile_qr_scan"}, "fusion_lon": 0.0, "lat": 38.900229833333334, "bike_id": "97a2e17a880c0ec726fed98a27b48a2b", "type": "electric_scooter", "is_reserved": 0, "lon": -77.01181683333333}, {"fusion_lat": 0.0, "name": "6bf391dc3d730ec652c7c7ba19a373a5", "is_disabled": 0, "rental_uris": {"android": "https://dc.lft.to/lastmile_qr_scan", "ios": "https://dc.lft.to/lastmile_qr_scan"}, "fusion_lon": 0.0, "lat": 38.92038683333333, "bike_id": "6bf391dc3d730ec652c7c7ba19a373a5", "type": "electric_scooter", "is_reserved": 0, "lon": -77.04088166666666}, {"fusion_lat": 0.0, "name": "80490b05d8040469fb8fa440a7887578", "is_disabled": 0, "rental_uris": {"android": "https://dc.lft.to/lastmile_qr_scan", "ios": "https://dc.lft.to/lastmile_qr_scan"}, "fusion_lon": 0.0, "lat": 38.923679166666666, "bike_id": "80490b05d8040469fb8fa440a7887578", "type": "electric_scooter", "is_reserved": 0, "lon": -77.05033266666666}, {"fusion_lat": 0.0, "name": "6e31eb8f538d9933a702b03d5e3c38fa", "is_disabled": 0, "rental_uris": {"android": "https://dc.lft.to/lastmile_qr_scan", "ios": "https://dc.lft.to/lastmile_qr_scan"}, "fusion_lon": 0.0, "lat": 38.89853383333333, "bike_id": "6e31eb8f538d9933a702b03d5e3c38fa", "type": "electric_scooter", "is_reserved": 0, "lon": -77.0285655}, {"fusion_lat": 0.0, "name": "767a40efb6055946a0c3a004c3f674bf", "is_disabled": 0, "rental_uris": {"android": "https://dc.lft.to/lastmile_qr_scan", "ios": "https://dc.lft.to/lastmile_qr_scan"}, "fusion_lon": 0.0, "lat": 38.94897516666666, "bike_id": "767a40efb6055946a0c3a004c3f674bf", "type": "electric_bike", "is_reserved": 0, "lon": -76.9637305}, {"fusion_lat": 0.0, "name": "9116aa941d5c9eb1596a60f10b56100c", "is_disabled": 0, "rental_uris": {"android": "https://dc.lft.to/lastmile_qr_scan", "ios": "https://dc.lft.to/lastmile_qr_scan"}, "fusion_lon": 0.0, "lat": 38.8997285, "bike_id": "9116aa941d5c9eb1596a60f10b56100c", "type": "electric_scooter", "is_reserved": 0, "lon": -77.01911633333333}, {"fusion_lat": 0.0, "name": "083e04059db200a23a865eaed5f89757", "is_disabled": 0, "rental_uris": {"android": "https://dc.lft.to/lastmile_qr_scan", "ios": "https://dc.lft.to/lastmile_qr_scan"}, "fusion_lon": 0.0, "lat": 38.940869166666666, "bike_id": "083e04059db200a23a865eaed5f89757", "type": "electric_scooter", "is_reserved": 0, "lon": -77.06180416666666}, {"fusion_lat": 0.0, "name": "f5a357bee7848a99dc74f77c899538ed", "is_disabled": 0, "rental_uris": {"android": "https://dc.lft.to/lastmile_qr_scan", "ios": "https://dc.lft.to/lastmile_qr_scan"}, "fusion_lon": 0.0, "lat": 38.883933, "bike_id": "f5a357bee7848a99dc74f77c899538ed", "type": "electric_scooter", "is_reserved": 0, "lon": -76.93044433333333}, {"fusion_lat": 0.0, "name": "fe235344cdfb9f28bdf573e8cb47210c", "is_disabled": 0, "rental_uris": {"android": "https://dc.lft.to/lastmile_qr_scan", "ios": "https://dc.lft.to/lastmile_qr_scan"}, "fusion_lon": 0.0, "lat": 38.91691183333333, "bike_id": "fe235344cdfb9f28bdf573e8cb47210c", "type": "electric_scooter", "is_reserved": 0, "lon": -77.02829433333333}, {"fusion_lat": 0.0, "name": "e60ef06ca42c2c5afceedee10dfc76f1", "is_disabled": 0, "rental_uris": {"android": "https://dc.lft.to/lastmile_qr_scan", "ios": "https://dc.lft.to/lastmile_qr_scan"}, "fusion_lon": 0.0, "lat": 38.93058966666667, "bike_id": "e60ef06ca42c2c5afceedee10dfc76f1", "type": "electric_scooter", "is_reserved": 0, "lon": -77.02325}, {"fusion_lat": 0.0, "name": "a2777e78f8927ad59bc203438ea72784", "is_disabled": 0, "rental_uris": {"android": "https://dc.lft.to/lastmile_qr_scan", "ios": "https://dc.lft.to/lastmile_qr_scan"}, "fusion_lon": 0.0, "lat": 38.91394666666667, "bike_id": "a2777e78f8927ad59bc203438ea72784", "type": "electric_scooter", "is_reserved": 0, "lon": -77.03661766666667}, {"fusion_lat": 0.0, "name": "de2598a40275b43754e956440cdf83e2", "is_disabled": 0, "rental_uris": {"android": "https://dc.lft.to/lastmile_qr_scan", "ios": "https://dc.lft.to/lastmile_qr_scan"}, "fusion_lon": 0.0, "lat": 38.9232115, "bike_id": "de2598a40275b43754e956440cdf83e2", "type": "electric_scooter", "is_reserved": 0, "lon": -77.043986}, {"fusion_lat": 0.0, "name": "596442267d1940468a8341d16d7225f8", "is_disabled": 0, "rental_uris": {"android": "https://dc.lft.to/lastmile_qr_scan", "ios": "https://dc.lft.to/lastmile_qr_scan"}, "fusion_lon": 0.0, "lat": 38.914163333333335, "bike_id": "596442267d1940468a8341d16d7225f8", "type": "electric_scooter", "is_reserved": 0, "lon": -77.031726}, {"fusion_lat": 0.0, "name": "93008521cf51ea9addc252a5b0d9f3f5", "is_disabled": 0, "rental_uris": {"android": "https://dc.lft.to/lastmile_qr_scan", "ios": "https://dc.lft.to/lastmile_qr_scan"}, "fusion_lon": 0.0, "lat": 38.959360333333336, "bike_id": "93008521cf51ea9addc252a5b0d9f3f5", "type": "electric_scooter", "is_reserved": 0, "lon": -77.03116533333333}, {"fusion_lat": 0.0, "name": "d652e16af67901e8ed70a0c4dff2ccc6", "is_disabled": 0, "rental_uris": {"android": "https://dc.lft.to/lastmile_qr_scan", "ios": "https://dc.lft.to/lastmile_qr_scan"}, "fusion_lon": 0.0, "lat": 38.918279, "bike_id": "d652e16af67901e8ed70a0c4dff2ccc6", "type": "electric_scooter", "is_reserved": 0, "lon": -77.04170916666666}, {"fusion_lat": 0.0, "name": "f071824b13407816d009e099a2e4e370", "is_disabled": 0, "rental_uris": {"android": "https://dc.lft.to/lastmile_qr_scan", "ios": "https://dc.lft.to/lastmile_qr_scan"}, "fusion_lon": 0.0, "lat": 38.91698383333333, "bike_id": "f071824b13407816d009e099a2e4e370", "type": "electric_scooter", "is_reserved": 0, "lon": -77.0116785}, {"fusion_lat": 0.0, "name": "7a6cc41fa15b25b4b0fc71f7d240d22c", "is_disabled": 0, "rental_uris": {"android": "https://dc.lft.to/lastmile_qr_scan", "ios": "https://dc.lft.to/lastmile_qr_scan"}, "fusion_lon": 0.0, "lat": 38.92482016666666, "bike_id": "7a6cc41fa15b25b4b0fc71f7d240d22c", "type": "electric_scooter", "is_reserved": 0, "lon": -77.027535}, {"fusion_lat": 0.0, "name": "5928526cd9f025f2913c497ede60f925", "is_disabled": 0, "rental_uris": {"android": "https://dc.lft.to/lastmile_qr_scan", "ios": "https://dc.lft.to/lastmile_qr_scan"}, "fusion_lon": 0.0, "lat": 38.84585516666667, "bike_id": "5928526cd9f025f2913c497ede60f925", "type": "electric_bike", "is_reserved": 0, "lon": -76.98167966666666}, {"fusion_lat": 0.0, "name": "36f427bd0b9b9eb8376d05ad22f026c0", "is_disabled": 0, "rental_uris": {"android": "https://dc.lft.to/lastmile_qr_scan", "ios": "https://dc.lft.to/lastmile_qr_scan"}, "fusion_lon": 0.0, "lat": 38.90413, "bike_id": "36f427bd0b9b9eb8376d05ad22f026c0", "type": "electric_scooter", "is_reserved": 0, "lon": -76.97327466666667}, {"fusion_lat": 0.0, "name": "496adecb79474780d2102b56dc27cd82", "is_disabled": 0, "rental_uris": {"android": "https://dc.lft.to/lastmile_qr_scan", "ios": "https://dc.lft.to/lastmile_qr_scan"}, "fusion_lon": 0.0, "lat": 38.8975795, "bike_id": "496adecb79474780d2102b56dc27cd82", "type": "electric_scooter", "is_reserved": 0, "lon": -77.03035533333333}, {"fusion_lat": 0.0, "name": "19e00d839170f49ef5b2598d0c5318d9", "is_disabled": 0, "rental_uris": {"android": "https://dc.lft.to/lastmile_qr_scan", "ios": "https://dc.lft.to/lastmile_qr_scan"}, "fusion_lon": 0.0, "lat": 38.912219, "bike_id": "19e00d839170f49ef5b2598d0c5318d9", "type": "electric_scooter", "is_reserved": 0, "lon": -77.03785266666667}, {"fusion_lat": 0.0, "name": "f38105a7f66e0c2b4d42ca27e61bedc7", "is_disabled": 0, "rental_uris": {"android": "https://dc.lft.to/lastmile_qr_scan", "ios": "https://dc.lft.to/lastmile_qr_scan"}, "fusion_lon": 0.0, "lat": 38.90979733333333, "bike_id": "f38105a7f66e0c2b4d42ca27e61bedc7", "type": "electric_scooter", "is_reserved": 0, "lon": -77.02817533333334}, {"fusion_lat": 0.0, "name": "abb5e67bd404b671096d99eebbf67376", "is_disabled": 0, "rental_uris": {"android": "https://dc.lft.to/lastmile_qr_scan", "ios": "https://dc.lft.to/lastmile_qr_scan"}, "fusion_lon": 0.0, "lat": 38.89223333333333, "bike_id": "abb5e67bd404b671096d99eebbf67376", "type": "electric_scooter", "is_reserved": 0, "lon": -77.04312366666667}, {"fusion_lat": 0.0, "name": "b6e1a440d6aa433baac627ca168ae35a", "is_disabled": 0, "rental_uris": {"android": "https://dc.lft.to/lastmile_qr_scan", "ios": "https://dc.lft.to/lastmile_qr_scan"}, "fusion_lon": 0.0, "lat": 38.846124, "bike_id": "b6e1a440d6aa433baac627ca168ae35a", "type": "electric_bike", "is_reserved": 0, "lon": -76.9690685}, {"fusion_lat": 0.0, "name": "1f960221ea650799a361fa8cd2881836", "is_disabled": 0, "rental_uris": {"android": "https://dc.lft.to/lastmile_qr_scan", "ios": "https://dc.lft.to/lastmile_qr_scan"}, "fusion_lon": 0.0, "lat": 38.90463033333333, "bike_id": "1f960221ea650799a361fa8cd2881836", "type": "electric_scooter", "is_reserved": 0, "lon": -77.03103383333334}, {"fusion_lat": 0.0, "name": "2fa498acef6d226d1b22cd9b2d6c6fcb", "is_disabled": 0, "rental_uris": {"android": "https://dc.lft.to/lastmile_qr_scan", "ios": "https://dc.lft.to/lastmile_qr_scan"}, "fusion_lon": 0.0, "lat": 38.91486366666667, "bike_id": "2fa498acef6d226d1b22cd9b2d6c6fcb", "type": "electric_bike", "is_reserved": 0, "lon": -77.01016383333334}, {"fusion_lat": 0.0, "name": "f47ffeb7485679f286cbe815875ea2cb", "is_disabled": 0, "rental_uris": {"android": "https://dc.lft.to/lastmile_qr_scan", "ios": "https://dc.lft.to/lastmile_qr_scan"}, "fusion_lon": 0.0, "lat": 38.948265666666664, "bike_id": "f47ffeb7485679f286cbe815875ea2cb", "type": "electric_scooter", "is_reserved": 0, "lon": -77.0797965}, {"fusion_lat": 0.0, "name": "a8426fd58e648cb97ba34b2c06e49436", "is_disabled": 0, "rental_uris": {"android": "https://dc.lft.to/lastmile_qr_scan", "ios": "https://dc.lft.to/lastmile_qr_scan"}, "fusion_lon": 0.0, "lat": 38.904010666666665, "bike_id": "a8426fd58e648cb97ba34b2c06e49436", "type": "electric_scooter", "is_reserved": 0, "lon": -77.04358033333334}, {"fusion_lat": 0.0, "name": "608d276251154715d1be57fe5d245a8c", "is_disabled": 0, "rental_uris": {"android": "https://dc.lft.to/lastmile_qr_scan", "ios": "https://dc.lft.to/lastmile_qr_scan"}, "fusion_lon": 0.0, "lat": 38.91693766666667, "bike_id": "608d276251154715d1be57fe5d245a8c", "type": "electric_scooter", "is_reserved": 0, "lon": -77.02594883333333}, {"fusion_lat": 0.0, "name": "00dfdb953c232daee029189fb65e65c3", "is_disabled": 0, "rental_uris": {"android": "https://dc.lft.to/lastmile_qr_scan", "ios": "https://dc.lft.to/lastmile_qr_scan"}, "fusion_lon": 0.0, "lat": 38.91402883333333, "bike_id": "00dfdb953c232daee029189fb65e65c3", "type": "electric_scooter", "is_reserved": 0, "lon": -77.039076}, {"fusion_lat": 0.0, "name": "fbd3a0ec1b24845e9cc9b3838ea4fe80", "is_disabled": 0, "rental_uris": {"android": "https://dc.lft.to/lastmile_qr_scan", "ios": "https://dc.lft.to/lastmile_qr_scan"}, "fusion_lon": 0.0, "lat": 38.918896333333336, "bike_id": "fbd3a0ec1b24845e9cc9b3838ea4fe80", "type": "electric_scooter", "is_reserved": 0, "lon": -77.02971616666666}, {"fusion_lat": 0.0, "name": "4003c6afbdceae89667eecfbf3af65e2", "is_disabled": 0, "rental_uris": {"android": "https://dc.lft.to/lastmile_qr_scan", "ios": "https://dc.lft.to/lastmile_qr_scan"}, "fusion_lon": 0.0, "lat": 38.87493533333333, "bike_id": "4003c6afbdceae89667eecfbf3af65e2", "type": "electric_bike", "is_reserved": 0, "lon": -77.2112315}, {"fusion_lat": 0.0, "name": "08dbf76a0e80ae5ea1be07e67ac6c195", "is_disabled": 0, "rental_uris": {"android": "https://dc.lft.to/lastmile_qr_scan", "ios": "https://dc.lft.to/lastmile_qr_scan"}, "fusion_lon": 0.0, "lat": 38.89613216666667, "bike_id": "08dbf76a0e80ae5ea1be07e67ac6c195", "type": "electric_bike", "is_reserved": 0, "lon": -76.90738583333334}, {"fusion_lat": 0.0, "name": "015c8dd417cf31a6bc0c9e5ffb533bd9", "is_disabled": 0, "rental_uris": {"android": "https://dc.lft.to/lastmile_qr_scan", "ios": "https://dc.lft.to/lastmile_qr_scan"}, "fusion_lon": 0.0, "lat": 38.90723883333333, "bike_id": "015c8dd417cf31a6bc0c9e5ffb533bd9", "type": "electric_scooter", "is_reserved": 0, "lon": -77.02975216666667}, {"fusion_lat": 0.0, "name": "4e9ea56c30c8a5f5a22306150b36c354", "is_disabled": 0, "rental_uris": {"android": "https://dc.lft.to/lastmile_qr_scan", "ios": "https://dc.lft.to/lastmile_qr_scan"}, "fusion_lon": 0.0, "lat": 38.914799, "bike_id": "4e9ea56c30c8a5f5a22306150b36c354", "type": "electric_scooter", "is_reserved": 0, "lon": -77.02289916666666}, {"fusion_lat": 0.0, "name": "52f18c1999644fd4dd4a4ee5b4e62c9d", "is_disabled": 0, "rental_uris": {"android": "https://dc.lft.to/lastmile_qr_scan", "ios": "https://dc.lft.to/lastmile_qr_scan"}, "fusion_lon": 0.0, "lat": 38.90515216666667, "bike_id": "52f18c1999644fd4dd4a4ee5b4e62c9d", "type": "electric_scooter", "is_reserved": 0, "lon": -77.05142883333333}, {"fusion_lat": 0.0, "name": "8a990b1c3f8b280842845213f0e4c6ef", "is_disabled": 0, "rental_uris": {"android": "https://dc.lft.to/lastmile_qr_scan", "ios": "https://dc.lft.to/lastmile_qr_scan"}, "fusion_lon": 0.0, "lat": 38.9019635, "bike_id": "8a990b1c3f8b280842845213f0e4c6ef", "type": "electric_scooter", "is_reserved": 0, "lon": -77.0474605}, {"fusion_lat": 0.0, "name": "388ea78f6f0bf5bd8426de86826a0928", "is_disabled": 0, "rental_uris": {"android": "https://dc.lft.to/lastmile_qr_scan", "ios": "https://dc.lft.to/lastmile_qr_scan"}, "fusion_lon": 0.0, "lat": 38.908758666666664, "bike_id": "388ea78f6f0bf5bd8426de86826a0928", "type": "electric_scooter", "is_reserved": 0, "lon": -77.03472366666666}, {"fusion_lat": 0.0, "name": "9b32a80ef7f6d34e43975b18cabd55e4", "is_disabled": 0, "rental_uris": {"android": "https://dc.lft.to/lastmile_qr_scan", "ios": "https://dc.lft.to/lastmile_qr_scan"}, "fusion_lon": 0.0, "lat": 38.8560845, "bike_id": "9b32a80ef7f6d34e43975b18cabd55e4", "type": "electric_scooter", "is_reserved": 0, "lon": -76.9727815}, {"fusion_lat": 0.0, "name": "8423f4b31b9e4bb4ac982b6f862ec54f", "is_disabled": 0, "rental_uris": {"android": "https://dc.lft.to/lastmile_qr_scan", "ios": "https://dc.lft.to/lastmile_qr_scan"}, "fusion_lon": 0.0, "lat": 38.910508, "bike_id": "8423f4b31b9e4bb4ac982b6f862ec54f", "type": "electric_scooter", "is_reserved": 0, "lon": -77.01511183333334}, {"fusion_lat": 0.0, "name": "dcd7b8d84d0e3fc7a980292e2739fc2b", "is_disabled": 0, "rental_uris": {"android": "https://dc.lft.to/lastmile_qr_scan", "ios": "https://dc.lft.to/lastmile_qr_scan"}, "fusion_lon": 0.0, "lat": 38.8924865, "bike_id": "dcd7b8d84d0e3fc7a980292e2739fc2b", "type": "electric_scooter", "is_reserved": 0, "lon": -77.0464995}, {"fusion_lat": 0.0, "name": "8fd2a4b4dcfe5d338854ffcdeba81bff", "is_disabled": 0, "rental_uris": {"android": "https://dc.lft.to/lastmile_qr_scan", "ios": "https://dc.lft.to/lastmile_qr_scan"}, "fusion_lon": 0.0, "lat": 38.89240433333333, "bike_id": "8fd2a4b4dcfe5d338854ffcdeba81bff", "type": "electric_scooter", "is_reserved": 0, "lon": -77.0487425}, {"fusion_lat": 0.0, "name": "c72f06b76e318f6c0ec9a79c8741e2e2", "is_disabled": 0, "rental_uris": {"android": "https://dc.lft.to/lastmile_qr_scan", "ios": "https://dc.lft.to/lastmile_qr_scan"}, "fusion_lon": 0.0, "lat": 38.895256, "bike_id": "c72f06b76e318f6c0ec9a79c8741e2e2", "type": "electric_scooter", "is_reserved": 0, "lon": -77.0281985}, {"fusion_lat": 0.0, "name": "192c724abd3ef052daef04be0fd96135", "is_disabled": 0, "rental_uris": {"android": "https://dc.lft.to/lastmile_qr_scan", "ios": "https://dc.lft.to/lastmile_qr_scan"}, "fusion_lon": 0.0, "lat": 38.907181666666666, "bike_id": "192c724abd3ef052daef04be0fd96135", "type": "electric_scooter", "is_reserved": 0, "lon": -77.06908983333334}, {"fusion_lat": 0.0, "name": "bd896e35dcb66f8d8577bb9718f72fce", "is_disabled": 0, "rental_uris": {"android": "https://dc.lft.to/lastmile_qr_scan", "ios": "https://dc.lft.to/lastmile_qr_scan"}, "fusion_lon": 0.0, "lat": 38.980614333333335, "bike_id": "bd896e35dcb66f8d8577bb9718f72fce", "type": "electric_scooter", "is_reserved": 0, "lon": -77.02635916666667}, {"fusion_lat": 0.0, "name": "6ac066602a64718f7023f03441cdff34", "is_disabled": 0, "rental_uris": {"android": "https://dc.lft.to/lastmile_qr_scan", "ios": "https://dc.lft.to/lastmile_qr_scan"}, "fusion_lon": 0.0, "lat": 38.90954933333333, "bike_id": "6ac066602a64718f7023f03441cdff34", "type": "electric_scooter", "is_reserved": 0, "lon": -76.99875016666667}, {"fusion_lat": 0.0, "name": "2ccf3eb5ca54c5442dec2d4e1572da97", "is_disabled": 0, "rental_uris": {"android": "https://dc.lft.to/lastmile_qr_scan", "ios": "https://dc.lft.to/lastmile_qr_scan"}, "fusion_lon": 0.0, "lat": 38.8876575, "bike_id": "2ccf3eb5ca54c5442dec2d4e1572da97", "type": "electric_scooter", "is_reserved": 0, "lon": -76.9946945}, {"fusion_lat": 0.0, "name": "00dfcc55196154e1a86509b1f3c57930", "is_disabled": 0, "rental_uris": {"android": "https://dc.lft.to/lastmile_qr_scan", "ios": "https://dc.lft.to/lastmile_qr_scan"}, "fusion_lon": 0.0, "lat": 38.8973505, "bike_id": "00dfcc55196154e1a86509b1f3c57930", "type": "electric_scooter", "is_reserved": 0, "lon": -77.054727}, {"fusion_lat": 0.0, "name": "babd7a38c93780908e3674a5a12a1db0", "is_disabled": 0, "rental_uris": {"android": "https://dc.lft.to/lastmile_qr_scan", "ios": "https://dc.lft.to/lastmile_qr_scan"}, "fusion_lon": 0.0, "lat": 38.93901483333333, "bike_id": "babd7a38c93780908e3674a5a12a1db0", "type": "electric_scooter", "is_reserved": 0, "lon": -77.03313266666666}, {"fusion_lat": 0.0, "name": "21819806f9fe391ac9487c85d6a81d74", "is_disabled": 0, "rental_uris": {"android": "https://dc.lft.to/lastmile_qr_scan", "ios": "https://dc.lft.to/lastmile_qr_scan"}, "fusion_lon": 0.0, "lat": 38.929868666666664, "bike_id": "21819806f9fe391ac9487c85d6a81d74", "type": "electric_scooter", "is_reserved": 0, "lon": -77.03254183333334}, {"fusion_lat": 0.0, "name": "1f798938615d23f8848897291bec03e5", "is_disabled": 0, "rental_uris": {"android": "https://dc.lft.to/lastmile_qr_scan", "ios": "https://dc.lft.to/lastmile_qr_scan"}, "fusion_lon": 0.0, "lat": 38.91130916666667, "bike_id": "1f798938615d23f8848897291bec03e5", "type": "electric_scooter", "is_reserved": 0, "lon": -77.04419033333333}, {"fusion_lat": 0.0, "name": "44986a62db7ef7dda99551583c0b7b33", "is_disabled": 0, "rental_uris": {"android": "https://dc.lft.to/lastmile_qr_scan", "ios": "https://dc.lft.to/lastmile_qr_scan"}, "fusion_lon": 0.0, "lat": 38.9231655, "bike_id": "44986a62db7ef7dda99551583c0b7b33", "type": "electric_scooter", "is_reserved": 0, "lon": -77.029803}, {"fusion_lat": 0.0, "name": "70ae1d5a62051e27ec2a228faf6ba92e", "is_disabled": 0, "rental_uris": {"android": "https://dc.lft.to/lastmile_qr_scan", "ios": "https://dc.lft.to/lastmile_qr_scan"}, "fusion_lon": 0.0, "lat": 38.92595133333333, "bike_id": "70ae1d5a62051e27ec2a228faf6ba92e", "type": "electric_scooter", "is_reserved": 0, "lon": -77.02566283333333}, {"fusion_lat": 0.0, "name": "65e952b5d7ea735a4215f2fd1ac4ad91", "is_disabled": 0, "rental_uris": {"android": "https://dc.lft.to/lastmile_qr_scan", "ios": "https://dc.lft.to/lastmile_qr_scan"}, "fusion_lon": 0.0, "lat": 38.9275055, "bike_id": "65e952b5d7ea735a4215f2fd1ac4ad91", "type": "electric_scooter", "is_reserved": 0, "lon": -77.02132066666667}, {"fusion_lat": 0.0, "name": "d190be9dce58593014a1526413bdc6ca", "is_disabled": 0, "rental_uris": {"android": "https://dc.lft.to/lastmile_qr_scan", "ios": "https://dc.lft.to/lastmile_qr_scan"}, "fusion_lon": 0.0, "lat": 38.89555416666666, "bike_id": "d190be9dce58593014a1526413bdc6ca", "type": "electric_scooter", "is_reserved": 0, "lon": -77.039534}, {"fusion_lat": 0.0, "name": "6dfd055b5ec80d037a63f5ab81de2dfd", "is_disabled": 0, "rental_uris": {"android": "https://dc.lft.to/lastmile_qr_scan", "ios": "https://dc.lft.to/lastmile_qr_scan"}, "fusion_lon": 0.0, "lat": 38.93709783333333, "bike_id": "6dfd055b5ec80d037a63f5ab81de2dfd", "type": "electric_scooter", "is_reserved": 0, "lon": -77.02396266666666}, {"fusion_lat": 0.0, "name": "79de4cb9d42f89fabf362c0a5bfc9e0c", "is_disabled": 0, "rental_uris": {"android": "https://dc.lft.to/lastmile_qr_scan", "ios": "https://dc.lft.to/lastmile_qr_scan"}, "fusion_lon": 0.0, "lat": 38.857857833333334, "bike_id": "79de4cb9d42f89fabf362c0a5bfc9e0c", "type": "electric_bike", "is_reserved": 0, "lon": -77.12017}, {"fusion_lat": 0.0, "name": "1c6247f8a53da43aa3650b90ba002d39", "is_disabled": 0, "rental_uris": {"android": "https://dc.lft.to/lastmile_qr_scan", "ios": "https://dc.lft.to/lastmile_qr_scan"}, "fusion_lon": 0.0, "lat": 38.89200816666666, "bike_id": "1c6247f8a53da43aa3650b90ba002d39", "type": "electric_scooter", "is_reserved": 0, "lon": -76.956998}, {"fusion_lat": 0.0, "name": "878e7935650e54022130d7c1db2c49fd", "is_disabled": 0, "rental_uris": {"android": "https://dc.lft.to/lastmile_qr_scan", "ios": "https://dc.lft.to/lastmile_qr_scan"}, "fusion_lon": 0.0, "lat": 38.9922075, "bike_id": "878e7935650e54022130d7c1db2c49fd", "type": "electric_bike", "is_reserved": 0, "lon": -76.94432216666667}, {"fusion_lat": 0.0, "name": "15708d93fe418e5d38df8995a4169123", "is_disabled": 0, "rental_uris": {"android": "https://dc.lft.to/lastmile_qr_scan", "ios": "https://dc.lft.to/lastmile_qr_scan"}, "fusion_lon": 0.0, "lat": 38.887411, "bike_id": "15708d93fe418e5d38df8995a4169123", "type": "electric_scooter", "is_reserved": 0, "lon": -77.01532983333334}, {"fusion_lat": 0.0, "name": "327c8f822e4b81b6fca91801769c7b7c", "is_disabled": 0, "rental_uris": {"android": "https://dc.lft.to/lastmile_qr_scan", "ios": "https://dc.lft.to/lastmile_qr_scan"}, "fusion_lon": 0.0, "lat": 38.91668383333333, "bike_id": "327c8f822e4b81b6fca91801769c7b7c", "type": "electric_scooter", "is_reserved": 0, "lon": -77.02715883333333}, {"fusion_lat": 0.0, "name": "e92ae0b6cf6bc1e89c6223dc67be505c", "is_disabled": 0, "rental_uris": {"android": "https://dc.lft.to/lastmile_qr_scan", "ios": "https://dc.lft.to/lastmile_qr_scan"}, "fusion_lon": 0.0, "lat": 38.92233383333333, "bike_id": "e92ae0b6cf6bc1e89c6223dc67be505c", "type": "electric_scooter", "is_reserved": 0, "lon": -77.04649166666667}, {"fusion_lat": 0.0, "name": "2172e737b0916c18adb5a36ba68eebfb", "is_disabled": 0, "rental_uris": {"android": "https://dc.lft.to/lastmile_qr_scan", "ios": "https://dc.lft.to/lastmile_qr_scan"}, "fusion_lon": 0.0, "lat": 38.96475316666667, "bike_id": "2172e737b0916c18adb5a36ba68eebfb", "type": "electric_scooter", "is_reserved": 0, "lon": -77.01191516666667}, {"fusion_lat": 0.0, "name": "25a25058dc74464f96f62497db1796d3", "is_disabled": 0, "rental_uris": {"android": "https://dc.lft.to/lastmile_qr_scan", "ios": "https://dc.lft.to/lastmile_qr_scan"}, "fusion_lon": 0.0, "lat": 38.85523533333333, "bike_id": "25a25058dc74464f96f62497db1796d3", "type": "electric_bike", "is_reserved": 0, "lon": -77.12058633333334}, {"fusion_lat": 0.0, "name": "1fb1f89f16c7c99ac8587649d4d6d333", "is_disabled": 0, "rental_uris": {"android": "https://dc.lft.to/lastmile_qr_scan", "ios": "https://dc.lft.to/lastmile_qr_scan"}, "fusion_lon": 0.0, "lat": 38.921193833333334, "bike_id": "1fb1f89f16c7c99ac8587649d4d6d333", "type": "electric_scooter", "is_reserved": 0, "lon": -77.04431},