{"data": {"bikes": [{"fusion_lat": 0.0, "name": "581b8c539401117780e9190bffa737df", "is_disabled": 0, "rental_uris": {"android": "https://dc.lft.to/lastmile_qr_scan", "ios": "https://dc.lft.to/lastmile_qr_scan"}, "fusion_lon": 0.0, "lat": 38.9181155, "bike_id": "581b8c539401117780e9190bffa737df", "type": "electric_scooter", "is_reserved": 0, "lon": -77.02528433333333}, {"fusion_lat": 0.0, "name": "df62212eefa247785a3be90667708711", "is_disabled": 0, "rental_uris": {"android": "https://dc.lft.to/lastmile_qr_scan", "ios": "https://dc.lft.to/lastmile_qr_scan"}, "fusion_lon": 0.0, "lat": 38.88747433333333, "bike_id": "df62212eefa247785a3be90667708711", "type": "electric_scooter", "is_reserved": 0, "lon": -77.03157583333333}, {"fusion_lat": 0.0, "name": "078b328f9c283a15fd191e9bbb46c09f", "is_disabled": 0, "rental_uris": {"android": "https://dc.lft.to/lastmile_qr_scan", "ios": "https://dc.lft.to/lastmile_qr_scan"}, "fusion_lon": 0.0, "lat": 38.88770783333333, "bike_id": "078b328f9c283a15fd191e9bbb46c09f", "type": "electric_scooter", "is_reserved": 0, "lon": -76.97744583333333}, {"fusion_lat": 0.0, "name": "58753e4a2b29b906f6b9104628997fdb", "is_disabled": 0, "rental_uris": {"android": "https://dc.lft.to/lastmile_qr_scan", "ios": "https://dc.lft.to/lastmile_qr_scan"}, "fusion_lon": 0.0, "lat": 38.906863, "bike_id": "58753e4a2b29b906f6b9104628997fdb", "type": "electric_bike", "is_reserved": 0, "lon": -76.944925}, {"fusion_lat": 0.0, "name": "07b2d998b5b82bbccb7b601db62c8521", "is_disabled": 0, "rental_uris": {"android": "https://dc.lft.to/lastmile_qr_scan", "ios": "https://dc.lft.to/lastmile_qr_scan"}, "fusion_lon": 0.0, "lat": 38.9286905, "bike_id": "07b2d998b5b82bbccb7b601db62c8521", "type": "electric_scooter", "is_reserved": 0, "lon": -77.030389}, {"fusion_lat": 0.0, "name": "4012aa7fadd61d5557bf5883f4108bdc", "is_disabled": 0, "rental_uris": {"android": "https://dc.lft.to/lastmile_qr_scan", "ios": "https://dc.lft.to/lastmile_qr_scan"}, "fusion_lon": 0.0, "lat": 38.9281255, "bike_id": "4012aa7fadd61d5557bf5883f4108bdc", "type": "electric_scooter", "is_reserved": 0, "lon": -77.04360983333333}, {"fusion_lat": 0.0, "name": "86f1ac5c92c41a8d50b94db17bbf70f5", "is_disabled": 0, "rental_uris": {"android": "https://dc.lft.to/lastmile_qr_scan", "ios": "https://dc.lft.to/lastmile_qr_scan"}, "fusion_lon": 0.0, "lat": 38.901501833333334, "bike_id": "86f1ac5c92c41a8d50b94db17bbf70f5", "type": "electric_scooter", "is_reserved": 0, "lon": -76.93068383333333}, {"fusion_lat": 0.0, "name": "266ee52c723d4c5b6b82f206e91b2c36", "is_disabled": 0, "rental_uris": {"android": "https://dc.lft.to/lastmile_qr_scan", "ios": "https://dc.lft.to/lastmile_qr_scan"}, "fusion_lon": 0.0, "lat": 38.9170305, "bike_id": "266ee52c723d4c5b6b82f206e91b2c36", "type": "electric_scooter", "is_reserved": 0, "lon": -77.024792}, {"fusion_lat": 0.0, "name": "1d28af07345ed50e844aee15d8e86f06", "is_disabled": 0, "rental_uris": {"android": "https://dc.lft.to/lastmile_qr_scan", "ios": "https://dc.lft.to/lastmile_qr_scan"}, "fusion_lon": 0.0, "lat": 38.869193333333335, "bike_id": "1d28af07345ed50e844aee15d8e86f06", "type": "electric_bike", "is_reserved": 0, "lon": -76.97501433333333}, {"fusion_lat": 0.0, "name": "bedc13dd6d3f39b214c0b5d0c1c48c29", "is_disabled": 0, "rental_uris": {"android": "https://dc.lft.to/lastmile_qr_scan", "ios": "https://dc.lft.to/lastmile_qr_scan"}, "fusion_lon": 0.0, "lat": 38.909367333333336, "bike_id": "bedc13dd6d3f39b214c0b5d0c1c48c29", "type": "electric_scooter", "is_reserved": 0, "lon": -77.01843316666667}, {"fusion_lat": 0.0, "name": "bb5877c52172eaed31779241dd75b2f3", "is_disabled": 0, "rental_uris": {"android": "https://dc.lft.to/lastmile_qr_scan", "ios": "https://dc.lft.to/lastmile_qr_scan"}, "fusion_lon": 0.0, "lat": 39.05254516666667, "bike_id": "bb5877c52172eaed31779241dd75b2f3", "type": "electric_bike", "is_reserved": 0, "lon": -77.0806555}, {"fusion_lat": 0.0, "name": "0b81822254c1237d3ab2727ec8d15297", "is_disabled": 0, "rental_uris": {"android": "https://dc.lft.to/lastmile_qr_scan", "ios": "https://dc.lft.to/lastmile_qr_scan"}, "fusion_lon": 0.0, "lat": 38.93514783333333, "bike_id": "0b81822254c1237d3ab2727ec8d15297", "type": "electric_scooter", "is_reserved": 0, "lon": -77.07268433333333}, {"fusion_lat": 0.0, "name": "61edc93f60946a0fbaf92b66a6039578", "is_disabled": 0, "rental_uris": {"android": "https://dc.lft.to/lastmile_qr_scan", "ios": "https://dc.lft.to/lastmile_qr_scan"}, "fusion_lon": 0.0, "lat": 38.91568183333333, "bike_id": "61edc93f60946a0fbaf92b66a6039578", "type": "electric_scooter", "is_reserved": 0, "lon": -77.038583}, {"fusion_lat": 0.0, "name": "5765cce5ac5b3c81a9ecebb2d45b16d2", "is_disabled": 0, "rental_uris": {"android": "https://dc.lft.to/lastmile_qr_scan", "ios": "https://dc.lft.to/lastmile_qr_scan"}, "fusion_lon": 0.0, "lat": 38.847557, "bike_id": "5765cce5ac5b3c81a9ecebb2d45b16d2", "type": "electric_scooter", "is_reserved": 0, "lon": -76.99499833333333}, {"fusion_lat": 0.0, "name": "4653a7ac884053abccba3a51674f08d1", "is_disabled": 0, "rental_uris": {"android": "https://dc.lft.to/lastmile_qr_scan", "ios": "https://dc.lft.to/lastmile_qr_scan"}, "fusion_lon": 0.0, "lat": 38.907371499999996, "bike_id": "4653a7ac884053abccba3a51674f08d1", "type": "electric_scooter", "is_reserved": 0, "lon": -77.0454785}, {"fusion_lat": 0.0, "name": "a59d9921f8dc7f332d88939e9c39d9df", "is_disabled": 0, "rental_uris": {"android": "https://dc.lft.to/lastmile_qr_scan", "ios": "https://dc.lft.to/lastmile_qr_scan"}, "fusion_lon": 0.0, "lat": 38.89443883333333, "bike_id": "a59d9921f8dc7f332d88939e9c39d9df", "type": "electric_scooter", "is_reserved": 0, "lon": -76.936759}, {"fusion_lat": 0.0, "name": "95ff6b7aae26a9266a57a4c058de3df4", "is_disabled": 0, "rental_uris": {"android": "https://dc.lft.to/lastmile_qr_scan", "ios": "https://dc.lft.to/lastmile_qr_scan"}, "fusion_lon": 0.0, "lat": 38.89852233333333, "bike_id": "95ff6b7aae26a9266a57a4c058de3df4", "type": "electric_scooter", "is_reserved": 0, "lon": -76.990275}, {"fusion_lat": 0.0, "name": "0f8405a652bc8a67869300a7411da05e", "is_disabled": 0, "rental_uris": {"android": "https://dc.lft.to/lastmile_qr_scan", "ios": "https://dc.lft.to/lastmile_qr_scan"}, "fusion_lon": 0.0, "lat": 38.914151, "bike_id": "0f8405a652bc8a67869300a7411da05e", "type": "electric_scooter", "is_reserved": 0, "lon": -77.0283475}, {"fusion_lat": 0.0, "name": "9a66521c805ca0551b00bdf70ff9ecc0", "is_disabled": 0, "rental_uris": {"android": "https://dc.lft.to/lastmile_qr_scan", "ios": "https://dc.lft.to/lastmile_qr_scan"}, "fusion_lon": 0.0, "lat": 38.907717166666664, "bike_id": "9a66521c805ca0551b00bdf70ff9ecc0", "type": "electric_scooter", "is_reserved": 0, "lon": -77.05013166666667}, {"fusion_lat": 0.0, "name": "49878f61073adabe78ddf37756008e50", "is_disabled": 0, "rental_uris": {"android": "https://dc.lft.to/lastmile_qr_scan", "ios": "https://dc.lft.to/lastmile_qr_scan"}, "fusion_lon": 0.0, "lat": 38.89876983333333, "bike_id": "49878f61073adabe78ddf37756008e50", "type": "electric_scooter", "is_reserved": 0, "lon": -76.93186683333333}, {"fusion_lat": 0.0, "name": "6c414eb8bd65611957e6283515c41939", "is_disabled": 0, "rental_uris": {"android": "https://dc.lft.to/lastmile_qr_scan", "ios": "https://dc.lft.to/lastmile_qr_scan"}, "fusion_lon": 0.0, "lat": 38.8970245, "bike_id": "6c414eb8bd65611957e6283515c41939", "type": "electric_scooter", "is_reserved": 0, "lon": -77.02381766666667}, {"fusion_lat": 0.0, "name": "70757bafd0d5b6d930db75df1fb231d8", "is_disabled": 0, "rental_uris": {"android": "https://dc.lft.to/lastmile_qr_scan", "ios": "https://dc.lft.to/lastmile_qr_scan"}, "fusion_lon": 0.0, "lat": 38.919995666666665, "bike_id": "70757bafd0d5b6d930db75df1fb231d8", "type": "electric_scooter", "is_reserved": 0, "lon": -77.07138183333333}, {"fusion_lat": 0.0, "name": "edb7c4817704265a3f0d323304e623b5", "is_disabled": 0, "rental_uris": {"android": "https://dc.lft.to/lastmile_qr_scan", "ios": "https://dc.lft.to/lastmile_qr_scan"}, "fusion_lon": 0.0, "lat": 38.91600316666667, "bike_id": "edb7c4817704265a3f0d323304e623b5", "type": "electric_scooter", "is_reserved": 0, "lon": -77.04904133333334}, {"fusion_lat": 0.0, "name": "323fe312ab2d97f7492596c9f1f25fa7", "is_disabled": 0, "rental_uris": {"android": "https://dc.lft.to/lastmile_qr_scan", "ios": "https://dc.lft.to/lastmile_qr_scan"}, "fusion_lon": 0.0, "lat": 38.938470833333334, "bike_id": "323fe312ab2d97f7492596c9f1f25fa7", "type": "electric_scooter", "is_reserved": 0, "lon": -77.06242833333333}, {"fusion_lat": 0.0, "name": "346ee8dca141d7e15ec6bd71bed79a10", "is_disabled": 0, "rental_uris": {"android": "https://dc.lft.to/lastmile_qr_scan", "ios": "https://dc.lft.to/lastmile_qr_scan"}, "fusion_lon": 0.0, "lat": 38.92622566666667, "bike_id": "346ee8dca141d7e15ec6bd71bed79a10", "type": "electric_scooter", "is_reserved": 0, "lon": -77.04326433333334}, {"fusion_lat": 0.0, "name": "547789064891b819625fa9de47c6332b", "is_disabled": 0, "rental_uris": {"android": "https://dc.lft.to/lastmile_qr_scan", "ios": "https://dc.lft.to/lastmile_qr_scan"}, "fusion_lon": 0.0, "lat": 38.92549183333333, "bike_id": "547789064891b819625fa9de47c6332b", "type": "electric_scooter", "is_reserved": 0, "lon": -77.04297516666666}, {"fusion_lat": 0.0, "name": "2c29b67a49df8790fe3eff4cee9f8c2b", "is_disabled": 0, "rental_uris": {"android": "https://dc.lft.to/lastmile_qr_scan", "ios": "https://dc.lft.to/lastmile_qr_scan"}, "fusion_lon": 0.0, "lat": 38.931166, "bike_id": "2c29b67a49df8790fe3eff4cee9f8c2b", "type": "electric_scooter", "is_reserved": 0, "lon": -77.02096683333333}, {"fusion_lat": 0.0, "name": "e53fb2f20a5d8adb6156aebe42550ae5", "is_disabled": 0, "rental_uris": {"android": "https://dc.lft.to/lastmile_qr_scan", "ios": "https://dc.lft.to/lastmile_qr_scan"}, "fusion_lon": 0.0, "lat": 38.91995583333333, "bike_id": "e53fb2f20a5d8adb6156aebe42550ae5", "type": "electric_scooter", "is_reserved": 0, "lon": -77.03280383333333}, {"fusion_lat": 0.0, "name": "9e302ac998a6b04eca68dbc29c30495a", "is_disabled": 0, "rental_uris": {"android": "https://dc.lft.to/lastmile_qr_scan", "ios": "https://dc.lft.to/lastmile_qr_scan"}, "fusion_lon": 0.0, "lat": 38.90023266666667, "bike_id": "9e302ac998a6b04eca68dbc29c30495a", "type": "electric_scooter", "is_reserved": 0, "lon": -77.00028766666667}, {"fusion_lat": 0.0, "name": "43880756121c451d49b089d69d38069d", "is_disabled": 0, "rental_uris": {"android": "https://dc.lft.to/lastmile_qr_scan", "ios": "https://dc.lft.to/lastmile_qr_scan"}, "fusion_lon": 0.0, "lat": 38.9140645, "bike_id": "43880756121c451d49b089d69d38069d", "type": "electric_scooter", "is_reserved": 0, "lon": -77.03173616666666}, {"fusion_lat": 0.0, "name": "50c2b5587d8acddb1f7a6dbdeb9b924b", "is_disabled": 0, "rental_uris": {"android": "https://dc.lft.to/lastmile_qr_scan", "ios": "https://dc.lft.to/lastmile_qr_scan"}, "fusion_lon": 0.0, "lat": 38.905232833333336, "bike_id": "50c2b5587d8acddb1f7a6dbdeb9b924b", "type": "electric_scooter", "is_reserved": 0, "lon": -77.06140733333334}, {"fusion_lat": 0.0, "name": "e2d6e58ebf25cad6f76e7a19eb8e5e43", "is_disabled": 0, "rental_uris": {"android": "https://dc.lft.to/lastmile_qr_scan", "ios": "https://dc.lft.to/lastmile_qr_scan"}, "fusion_lon": 0.0, "lat": 38.997809, "bike_id": "e2d6e58ebf25cad6f76e7a19eb8e5e43", "type": "electric_bike", "is_reserved": 0, "lon": -77.04713066666666}, {"fusion_lat": 0.0, "name": "41218003a4da56c9751fc1c9a05de0b2", "is_disabled": 0, "rental_uris": {"android": "https://dc.lft.to/lastmile_qr_scan", "ios": "https://dc.lft.to/lastmile_qr_scan"}, "fusion_lon": 0.0, "lat": 38.94123116666667, "bike_id": "41218003a4da56c9751fc1c9a05de0b2", "type": "electric_scooter", "is_reserved": 0, "lon": -77.026286}, {"fusion_lat": 0.0, "name": "840902c4d74b99500e7055f8dc55d157", "is_disabled": 0, "rental_uris": {"android": "https://dc.lft.to/lastmile_qr_scan", "ios": "https://dc.lft.to/lastmile_qr_scan"}, "fusion_lon": 0.0, "lat": 38.900088, "bike_id": "840902c4d74b99500e7055f8dc55d157", "type": "electric_scooter", "is_reserved": 0, "lon": -77.01141783333334}, {"fusion_lat": 0.0, "name": "b05b1d7b98365973180cd988876310e9", "is_disabled": 0, "rental_uris": {"android": "https://dc.lft.to/lastmile_qr_scan", "ios": "https://dc.lft.to/lastmile_qr_scan"}, "fusion_lon": 0.0, "lat": 38.916497166666666, "bike_id": "b05b1d7b98365973180cd988876310e9", "type": "electric_scooter", "is_reserved": 0, "lon": -77.031611}, {"fusion_lat": 0.0, "name": "2b57ceec135f57958715185ec0b1e82d", "is_disabled": 0, "rental_uris": {"android": "https://dc.lft.to/lastmile_qr_scan", "ios": "https://dc.lft.to/lastmile_qr_scan"}, "fusion_lon": 0.0, "lat": 38.90250916666667, "bike_id": "2b57ceec135f57958715185ec0b1e82d", "type": "electric_scooter", "is_reserved": 0, "lon": -76.98664983333333}, {"fusion_lat": 0.0, "name": "4d173184ad3c35286a57d3b73af1b27e", "is_disabled": 0, "rental_uris": {"android": "https://dc.lft.to/lastmile_qr_scan", "ios": "https://dc.lft.to/lastmile_qr_scan"}, "fusion_lon": 0.0, "lat": 38.892343, "bike_id": "4d173184ad3c35286a57d3b73af1b27e", "type": "electric_scooter", "is_reserved": 0, "lon": -77.02411616666667}, {"fusion_lat": 0.0, "name": "d70abc65808fc44f9f26ed4020633232", "is_disabled": 0, "rental_uris": {"android": "https://dc.lft.to/lastmile_qr_scan", "ios": "https://dc.lft.to/lastmile_qr_scan"}, "fusion_lon": 0.0, "lat": 38.9241505, "bike_id": "d70abc65808fc44f9f26ed4020633232", "type": "electric_scooter", "is_reserved": 0, "lon": -77.02103783333334}, {"fusion_lat": 0.0, "name": "1c85dbd8b7d0d6a1c9d178966b6e8546", "is_disabled": 0, "rental_uris": {"android": "https://dc.lft.to/lastmile_qr_scan", "ios": "https://dc.lft.to/lastmile_qr_scan"}, "fusion_lon": 0.0, "lat": 38.92350583333333, "bike_id": "1c85dbd8b7d0d6a1c9d178966b6e8546", "type": "electric_scooter", "is_reserved": 0, "lon": -77.033968}, {"fusion_lat": 0.0, "name": "09d5bb26229d63e361657328f9d09289", "is_disabled": 0, "rental_uris": {"android": "https://dc.lft.to/lastmile_qr_scan", "ios": "https://dc.lft.to/lastmile_qr_scan"}, "fusion_lon": 0.0, "lat": 38.898732833333334, "bike_id": "09d5bb26229d63e361657328f9d09289", "type": "electric_scooter", "is_reserved": 0, "lon": -77.03980316666667}, {"fusion_lat": 0.0, "name": "797f04cb4e36170633493d5e4d5e8c81", "is_disabled": 0, "rental_uris": {"android": "https://dc.lft.to/lastmile_qr_scan", "ios": "https://dc.lft.to/lastmile_qr_scan"}, "fusion_lon": 0.0, "lat": 38.9041075, "bike_id": "797f04cb4e36170633493d5e4d5e8c81", "type": "electric_scooter", "is_reserved": 0, "lon": -76.973349}, {"fusion_lat": 0.0, "name": "828e8c3e58d52842018522107f91e4c7", "is_disabled": 0, "rental_uris": {"android": "https://dc.lft.to/lastmile_qr_scan", "ios": "https://dc.lft.to/lastmile_qr_scan"}, "fusion_lon": 0.0, "lat": 38.882456, "bike_id": "828e8c3e58d52842018522107f91e4c7", "type": "electric_scooter", "is_reserved": 0, "lon": -77.003517}, {"fusion_lat": 0.0, "name": "ff0c2f249aba091ed3d8ff52e412b23a", "is_disabled": 0, "rental_uris": {"android": "https://dc.lft.to/lastmile_qr_scan", "ios": "https://dc.lft.to/lastmile_qr_scan"}, "fusion_lon": 0.0, "lat": 38.907356166666666, "bike_id": "ff0c2f249aba091ed3d8ff52e412b23a", "type": "electric_scooter", "is_reserved": 0, "lon": -77.02936133333333}, {"fusion_lat": 0.0, "name": "0644be49fdf1a651a4666db11a9cf0bd", "is_disabled": 0, "rental_uris": {"android": "https://dc.lft.to/lastmile_qr_scan", "ios": "https://dc.lft.to/lastmile_qr_scan"}, "fusion_lon": 0.0, "lat": 38.908012166666666, "bike_id": "0644be49fdf1a651a4666db11a9cf0bd", "type": "electric_scooter", "is_reserved": 0, "lon": -77.04345283333333}, {"fusion_lat": 0.0, "name": "f42d02b74ebd4ec97b188f995e919942", "is_disabled": 0, "rental_uris": {"android": "https://dc.lft.to/lastmile_qr_scan", "ios": "https://dc.lft.to/lastmile_qr_scan"}, "fusion_lon": 0.0, "lat": 38.935789, "bike_id": "f42d02b74ebd4ec97b188f995e919942", "type": "electric_scooter", "is_reserved": 0, "lon": -77.02364216666666}, {"fusion_lat": 0.0, "name": "b8c88c116e79d6ccc05e7924652efe1c", "is_disabled": 0, "rental_uris": {"android": "https://dc.lft.to/lastmile_qr_scan", "ios": "https://dc.lft.to/lastmile_qr_scan"}, "fusion_lon": 0.0, "lat": 38.911070333333335, "bike_id": "b8c88c116e79d6ccc05e7924652efe1c", "type": "electric_scooter", "is_reserved": 0, "lon": -77.0114855}, {"fusion_lat": 0.0, "name": "b3d4f5f62704daf47f154175f6041d70", "is_disabled": 0, "rental_uris": {"android": "https://dc.lft.to/lastmile_qr_scan", "ios": "https://dc.lft.to/lastmile_qr_scan"}, "fusion_lon": 0.0, "lat": 38.95217266666667, "bike_id": "b3d4f5f62704daf47f154175f6041d70", "type": "electric_scooter", "is_reserved": 0, "lon": -77.00205883333334}, {"fusion_lat": 0.0, "name": "a58b9c7e56caf051f0e39086abe7e465", "is_disabled": 0, "rental_uris": {"android": "https://dc.lft.to/lastmile_qr_scan", "ios": "https://dc.lft.to/lastmile_qr_scan"}, "fusion_lon": 0.0, "lat": 38.94708683333333, "bike_id": "a58b9c7e56caf051f0e39086abe7e465", "type": "electric_scooter", "is_reserved": 0, "lon": -77.0193775}, {"fusion_lat": 0.0, "name": "ed1e4d1a3a5f28bb3e896c26bdab849f", "is_disabled": 0, "rental_uris": {"android": "https://dc.lft.to/lastmile_qr_scan", "ios": "https://dc.lft.to/lastmile_qr_scan"}, "fusion_lon": 0.0, "lat": 38.96674383333333, "bike_id": "ed1e4d1a3a5f28bb3e896c26bdab849f", "type": "electric_bike", "is_reserved": 0, "lon": -77.02168983333334}, {"fusion_lat": 0.0, "name": "a99a0793901f9c3569faa9b3e0ad16de", "is_disabled": 0, "rental_uris": {"android": "https://dc.lft.to/lastmile_qr_scan", "ios": "https://dc.lft.to/lastmile_qr_scan"}, "fusion_lon": 0.0, "lat": 38.9298825, "bike_id": "a99a0793901f9c3569faa9b3e0ad16de", "type": "electric_scooter", "is_reserved": 0, "lon": -77.03242483333334}, {"fusion_lat": 0.0, "name": "0b1f5407284315cb0b2972dc73be49a8", "is_disabled": 0, "rental_uris": {"android": "https://dc.lft.to/lastmile_qr_scan", "ios": "https://dc.lft.to/lastmile_qr_scan"}, "fusion_lon": 0.0, "lat": 38.92883283333333, "bike_id": "0b1f5407284315cb0b2972dc73be49a8", "type": "electric_scooter", "is_reserved": 0, "lon": -77.033551}, {"fusion_lat": 0.0, "name": "893bc1fd432a4e6d9b4ca644be89b0eb", "is_disabled": 0, "rental_uris": {"android": "https://dc.lft.to/lastmile_qr_scan", "ios": "https://dc.lft.to/lastmile_qr_scan"}, "fusion_lon": 0.0, "lat": 38.931867833333335, "bike_id": "893bc1fd432a4e6d9b4ca644be89b0eb", "type": "electric_scooter", "is_reserved": 0, "lon": -77.043023}, {"fusion_lat": 0.0, "name": "35d09136aec0642a33dacb284bf68d95", "is_disabled": 0, "rental_uris": {"android": "https://dc.lft.to/lastmile_qr_scan", "ios": "https://dc.lft.to/lastmile_qr_scan"}, "fusion_lon": 0.0, "lat": 38.9003105, "bike_id": "35d09136aec0642a33dacb284bf68d95", "type": "electric_scooter", "is_reserved": 0, "lon": -76.9913635}, {"fusion_lat": 0.0, "name": "8f189944545c239432a7fefe232abb18", "is_disabled": 0, "rental_uris": {"android": "https://dc.lft.to/lastmile_qr_scan", "ios": "https://dc.lft.to/lastmile_qr_scan"}, "fusion_lon": 0.0, "lat": 38.900236666666665, "bike_id": "8f189944545c239432a7fefe232abb18", "type": "electric_scooter", "is_reserved": 0, "lon": -77.04013883333333}, {"fusion_lat": 0.0, "name": "3552446746c57e71de54f6b7cd68c9b3", "is_disabled": 0, "rental_uris": {"android": "https://dc.lft.to/lastmile_qr_scan", "ios": "https://dc.lft.to/lastmile_qr_scan"}, "fusion_lon": 0.0, "lat": 38.89040266666667, "bike_id": "3552446746c57e71de54f6b7cd68c9b3", "type": "electric_scooter", "is_reserved": 0, "lon": -76.93746816666666}, {"fusion_lat": 0.0, "name": "f46e41cb3c4ad9a2461a7a18fc665c7a", "is_disabled": 0, "rental_uris": {"android": "https://dc.lft.to/lastmile_qr_scan", "ios": "https://dc.lft.to/lastmile_qr_scan"}, "fusion_lon": 0.0, "lat": 38.9467705, "bike_id": "f46e41cb3c4ad9a2461a7a18fc665c7a", "type": "electric_scooter", "is_reserved": 0, "lon": -77.03093616666666}, {"fusion_lat": 0.0, "name": "eb033f4ceb90c07a3243b7cac4095c93", "is_disabled": 0, "rental_uris": {"android": "https://dc.lft.to/lastmile_qr_scan", "ios": "https://dc.lft.to/lastmile_qr_scan"}, "fusion_lon": 0.0, "lat": 38.994463833333334, "bike_id": "eb033f4ceb90c07a3243b7cac4095c93", "type": "electric_bike", "is_reserved": 0, "lon": -76.99588466666667}, {"fusion_lat": 0.0, "name": "a5d2c22a882af191776c1dbce63c4ea1", "is_disabled": 0, "rental_uris": {"android": "https://dc.lft.to/lastmile_qr_scan", "ios": "https://dc.lft.to/lastmile_qr_scan"}, "fusion_lon": 0.0, "lat": 38.94061116666666, "bike_id": "a5d2c22a882af191776c1dbce63c4ea1", "type": "electric_bike", "is_reserved": 0, "lon": -76.90407633333334}, {"fusion_lat": 0.0, "name": "d2d58f8d1daf64630920b084e6f11702", "is_disabled": 0, "rental_uris": {"android": "https://dc.lft.to/lastmile_qr_scan", "ios": "https://dc.lft.to/lastmile_qr_scan"}, "fusion_lon": 0.0, "lat": 38.9030745, "bike_id": "d2d58f8d1daf64630920b084e6f11702", "type": "electric_scooter", "is_reserved": 0, "lon": -76.9765095}, {"fusion_lat": 0.0, "name": "9d5a5af2390fd35363ae65e7d85e8ca3", "is_disabled": 0, "rental_uris": {"android": "https://dc.lft.to/lastmile_qr_scan", "ios": "https://dc.lft.to/lastmile_qr_scan"}, "fusion_lon": 0.0, "lat": 38.91876116666667, "bike_id": "9d5a5af2390fd35363ae65e7d85e8ca3", "type": "electric_scooter", "is_reserved": 0, "lon": -77.02598683333333}, {"fusion_lat": 0.0, "name": "613e09c70ae615176baf8233adc43156", "is_disabled": 0, "rental_uris": {"android": "https://dc.lft.to/lastmile_qr_scan", "ios": "https://dc.lft.to/lastmile_qr_scan"}, "fusion_lon": 0.0, "lat": 38.9167315, "bike_id": "613e09c70ae615176baf8233adc43156", "type": "electric_scooter", "is_reserved": 0, "lon": -77.04175833333333}, {"fusion_lat": 0.0, "name": "63702111cc100c91d04a647688374b9b", "is_disabled": 0, "rental_uris": {"android": "https://dc.lft.to/lastmile_qr_scan", "ios": "https://dc.lft.to/lastmile_qr_scan"}, "fusion_lon": 0.0, "lat": 38.886731833333336, "bike_id": "63702111cc100c91d04a647688374b9b", "type": "electric_scooter", "is_reserved": 0, "lon": -77.0283115}, {"fusion_lat": 0.0, "name": "2a83864ab0043eb6d5034fac02e16e18", "is_disabled": 0, "rental_uris": {"android": "https://dc.lft.to/lastmile_qr_scan", "ios": "https://dc.lft.to/lastmile_qr_scan"}, "fusion_lon": 0.0, "lat": 38.90101833333333, "bike_id": "2a83864ab0043eb6d5034fac02e16e18", "type": "electric_scooter", "is_reserved": 0, "lon": -77.02599783333334}, {"fusion_lat": 0.0, "name": "4e49f2a94f31a39cf04b1963d80d946e", "is_disabled": 0, "rental_uris": {"android": "https://dc.lft.to/lastmile_qr_scan", "ios": "https://dc.lft.to/lastmile_qr_scan"}, "fusion_lon": 0.0, "lat": 38.90120133333333, "bike_id": "4e49f2a94f31a39cf04b1963d80d946e", "type": "electric_scooter", "is_reserved": 0, "lon": -77.01699383333333}, {"fusion_lat": 0.0, "name": "7ea4f5af31359ba45f94219d38e35da0", "is_disabled": 0, "rental_uris": {"android": "https://dc.lft.to/lastmile_qr_scan", "ios": "https://dc.lft.to/lastmile_qr_scan"}, "fusion_lon": 0.0, "lat": 38.905779, "bike_id": "7ea4f5af31359ba45f94219d38e35da0", "type": "electric_scooter", "is_reserved": 0, "lon": -77.04083183333333}, {"fusion_lat": 0.0, "name": "448ebf7eec3386fcfb658aca8a71f052", "is_disabled": 0, "rental_uris": {"android": "https://dc.lft.to/lastmile_qr_scan", "ios": "https://dc.lft.to/lastmile_qr_scan"}, "fusion_lon": 0.0, "lat": 38.909522, "bike_id": "448ebf7eec3386fcfb658aca8a71f052", "type": "electric_scooter", "is_reserved": 0, "lon": -77.03362966666667}, {"fusion_lat": 0.0, "name": "885a9c7196a86a09a6ed0e27730edfde", "is_disabled": 0, "rental_uris": {"android": "https://dc.lft.to/lastmile_qr_scan", "ios": "https://dc.lft.to/lastmile_qr_scan"}, "fusion_lon": 0.0, "lat": 38.90567866666667, "bike_id": "885a9c7196a86a09a6ed0e27730edfde", "type": "electric_scooter", "is_reserved": 0, "lon": -77.005927}, {"fusion_lat": 0.0, "name": "be1afe4f5fe0a94556d79d65b0c4a6ba", "is_disabled": 0, "rental_uris": {"android": "https://dc.lft.to/lastmile_qr_scan", "ios": "https://dc.lft.to/lastmile_qr_scan"}, "fusion_lon": 0.0, "lat": 38.91080566666667, "bike_id": "be1afe4f5fe0a94556d79d65b0c4a6ba", "type": "electric_scooter", "is_reserved": 0, "lon": -77.00882783333333}, {"fusion_lat": 0.0, "name": "2ad7ac3a436b1bc10b8706ab926552bb", "is_disabled": 0, "rental_uris": {"android": "https://dc.lft.to/lastmile_qr_scan", "ios": "https://dc.lft.to/lastmile_qr_scan"}, "fusion_lon": 0.0, "lat": 38.8767765, "bike_id": "2ad7ac3a436b1bc10b8706ab926552bb", "type": "electric_scooter", "is_reserved": 0, "lon": -77.01789216666667}, {"fusion_lat": 0.0, "name": "da82719b02f8e3533ed40d0060c93d61", "is_disabled": 0, "rental_uris": {"android": "https://dc.lft.to/lastmile_qr_scan", "ios": "https://dc.lft.to/lastmile_qr_scan"}, "fusion_lon": 0.0, "lat": 38.806863166666666, "bike_id": "da82719b02f8e3533ed40d0060c93d61", "type": "electric_bike", "is_reserved": 0, "lon": -77.06919416666666}, {"fusion_lat": 0.0, "name": "09aa341b8a674869eac3e0ebb8182792", "is_disabled": 0, "rental_uris": {"android": "https://dc.lft.to/lastmile_qr_scan", "ios": "https://dc.lft.to/lastmile_qr_scan"}, "fusion_lon": 0.0, "lat": 38.88451833333333, "bike_id": "09aa341b8a674869eac3e0ebb8182792", "type": "electric_scooter", "is_reserved": 0, "lon": -76.99391283333334}, {"fusion_lat": 0.0, "name": "c48478f62b2fcd3b597668bff8d45b09", "is_disabled": 0, "rental_uris": {"android": "https://dc.lft.to/lastmile_qr_scan", "ios": "https://dc.lft.to/lastmile_qr_scan"}, "fusion_lon": 0.0, "lat": 38.937541333333336, "bike_id": "c48478f62b2fcd3b597668bff8d45b09", "type": "electric_scooter", "is_reserved": 0, "lon": -77.03590066666666}, {"fusion_lat": 0.0, "name": "a6edcd23e1adc84483175871adefd616", "is_disabled": 0, "rental_uris": {"android": "https://dc.lft.to/lastmile_qr_scan", "ios": "https://dc.lft.to/lastmile_qr_scan"}, "fusion_lon": 0.0, "lat": 38.91978916666667, "bike_id": "a6edcd23e1adc84483175871adefd616", "type": "electric_bike", "is_reserved": 0, "lon": -76.99242183333334}, {"fusion_lat": 0.0, "name": "f3bde780fae53529bda5ff85fddd70fc", "is_disabled": 0, "rental_uris": {"android": "https://dc.lft.to/lastmile_qr_scan", "ios": "https://dc.lft.to/lastmile_qr_scan"}, "fusion_lon": 0.0, "lat": 38.91335016666667, "bike_id": "f3bde780fae53529bda5ff85fddd70fc", "type": "electric_scooter", "is_reserved": 0, "lon": -77.01029833333334}, {"fusion_lat": 0.0, "name": "cdc6c1791f9579f19b627e6e6495cb6b", "is_disabled": 0, "rental_uris": {"android": "https://dc.lft.to/lastmile_qr_scan", "ios": "https://dc.lft.to/lastmile_qr_scan"}, "fusion_lon": 0.0, "lat": 38.907085, "bike_id": "cdc6c1791f9579f19b627e6e6495cb6b", "type": "electric_scooter", "is_reserved": 0, "lon": -77.05048183333334}, {"fusion_lat": 0.0, "name": "0c84551930c0c8b15a56510288debb97", "is_disabled": 0, "rental_uris": {"android": "https://dc.lft.to/lastmile_qr_scan", "ios": "https://dc.lft.to/lastmile_qr_scan"}, "fusion_lon": 0.0, "lat": 38.909347, "bike_id": "0c84551930c0c8b15a56510288debb97", "type": "electric_scooter", "is_reserved": 0, "lon": -77.064069}, {"fusion_lat": 0.0, "name": "5169f78fb54e63344fafa1d42dee1ab3", "is_disabled": 0, "rental_uris": {"android": "https://dc.lft.to/lastmile_qr_scan", "ios": "https://dc.lft.to/lastmile_qr_scan"}, "fusion_lon": 0.0, "lat": 38.89623916666667, "bike_id": "5169f78fb54e63344fafa1d42dee1ab3", "type": "electric_scooter", "is_reserved": 0, "lon": -77.04507516666666}, {"fusion_lat": 0.0, "name": "d56b5ac38b6e810d1070a2a8b61a24b5", "is_disabled": 0, "rental_uris": {"android": "https://dc.lft.to/lastmile_qr_scan", "ios": "https://dc.lft.to/lastmile_qr_scan"}, "fusion_lon": 0.0, "lat": 38.92462616666667, "bike_id": "d56b5ac38b6e810d1070a2a8b61a24b5", "type": "electric_scooter", "is_reserved": 0, "lon": -77.03543}, {"fusion_lat": 0.0, "name": "d5ded115c2cd32867c9913aec7162ede", "is_disabled": 0, "rental_uris": {"android": "https://dc.lft.to/lastmile_qr_scan", "ios": "https://dc.lft.to/lastmile_qr_scan"}, "fusion_lon": 0.0, "lat": 38.940085333333336, "bike_id": "d5ded115c2cd32867c9913aec7162ede", "type": "electric_scooter", "is_reserved": 0, "lon": -77.0841855}, {"fusion_lat": 0.0, "name": "c05928a375c7b5a4ed7b6a4c76903b49", "is_disabled": 0, "rental_uris": {"android": "https://dc.lft.to/lastmile_qr_scan", "ios": "https://dc.lft.to/lastmile_qr_scan"}, "fusion_lon": 0.0, "lat": 38.88676, "bike_id": "c05928a375c7b5a4ed7b6a4c76903b49", "type": "electric_scooter", "is_reserved": 0, "lon": -77.01373833333334}, {"fusion_lat": 0.0, "name": "66c0cf60d80f9c5e765a95585d238052", "is_disabled": 0, "rental_uris": {"android": "https://dc.lft.to/lastmile_qr_scan", "ios": "https://dc.lft.to/lastmile_qr_scan"}, "fusion_lon": 0.0, "lat": 38.900272666666666, "bike_id": "66c0cf60d80f9c5e765a95585d238052", "type": "electric_scooter", "is_reserved": 0, "lon": -77.016274}, {"fusion_lat": 0.0, "name": "2dc09dc3bb6890ac3b207ebd60af4b2d", "is_disabled": 0, "rental_uris": {"android": "https://dc.lft.to/lastmile_qr_scan", "ios": "https://dc.lft.to/lastmile_qr_scan"}, "fusion_lon": 0.0, "lat": 38.83512, "bike_id": "2dc09dc3bb6890ac3b207ebd60af4b2d", "type": "electric_bike", "is_reserved": 0, "lon": -76.98676833333333}, {"fusion_lat": 0.0, "name": "453d08e418f150cb3d3f81ec54358355", "is_disabled": 0, "rental_uris": {"android": "https://dc.lft.to/lastmile_qr_scan", "ios": "https://dc.lft.to/lastmile_qr_scan"}, "fusion_lon": 0.0, "lat": 38.887354, "bike_id": "453d08e418f150cb3d3f81ec54358355", "type": "electric_scooter", "is_reserved": 0, "lon": -77.03172183333334}, {"fusion_lat": 0.0, "name": "b8cc9b48d9cab663a246d53dc34da479", "is_disabled": 0, "rental_uris": {"android": "https://dc.lft.to/lastmile_qr_scan", "ios": "https://dc.lft.to/lastmile_qr_scan"}, "fusion_lon": 0.0, "lat": 38.90063883333333, "bike_id": "b8cc9b48d9cab663a246d53dc34da479", "type": "electric_scooter", "is_reserved": 0, "lon": -76.93386716666667}, {"fusion_lat": 0.0, "name": "c5b7493fdab9a80572438ce523aac5b3", "is_disabled": 0, "rental_uris": {"android": "https://dc.lft.to/lastmile_qr_scan", "ios": "https://dc.lft.to/lastmile_qr_scan"}, "fusion_lon": 0.0, "lat": 38.90773333333333, "bike_id": "c5b7493fdab9a80572438ce523aac5b3", "type": "electric_scooter", "is_reserved": 0, "lon": -77.055913}, {"fusion_lat": 0.0, "name": "dccb4ac6cbafe1818b8aeb97bd3084d6", "is_disabled": 0, "rental_uris": {"android": "https://dc.lft.to/lastmile_qr_scan", "ios": "https://dc.lft.to/lastmile_qr_scan"}, "fusion_lon": 0.0, "lat": 38.942723, "bike_id": "dccb4ac6cbafe1818b8aeb97bd3084d6", "type": "electric_scooter", "is_reserved": 0, "lon": -77.032515}, {"fusion_lat": 0.0, "name": "33dad5856e38859bdd6948b4e50662af", "is_disabled": 0, "rental_uris": {"android": "https://dc.lft.to/lastmile_qr_scan", "ios": "https://dc.lft.to/lastmile_qr_scan"}, "fusion_lon": 0.0, "lat": 38.91556666666666, "bike_id": "33dad5856e38859bdd6948b4e50662af", "type": "electric_scooter", "is_reserved": 0, "lon": -77.011328}, {"fusion_lat": 0.0, "name": "f17b3a8568d17a9c4bf2b441a4e73da8", "is_disabled": 0, "rental_uris": {"android": "https://dc.lft.to/lastmile_qr_scan", "ios": "https://dc.lft.to/lastmile_qr_scan"}, "fusion_lon": 0.0, "lat": 38.911555666666665, "bike_id": "f17b3a8568d17a9c4bf2b441a4e73da8", "type": "electric_scooter", "is_reserved": 0, "lon": -77.07272316666666}, {"fusion_lat": 0.0, "name": "f29e258d58088a1613acc985b2604f90", "is_disabled": 0, "rental_uris": {"android": "https://dc.lft.to/lastmile_qr_scan", "ios": "https://dc.lft.to/lastmile_qr_scan"}, "fusion_lon": 0.0, "lat": 38.897103666666666, "bike_id": "f29e258d58088a1613acc985b2604f90", "type": "electric_scooter", "is_reserved": 0, "lon": -77.02139066666666}, {"fusion_lat": 0.0, "name": "bf1c4cf7ad3baf7f5be962375fd0dc7e", "is_disabled": 0, "rental_uris": {"android": "https://dc.lft.to/lastmile_qr_scan", "ios": "https://dc.lft.to/lastmile_qr_scan"}, "fusion_lon": 0.0, "lat": 38.916939, "bike_id": "bf1c4cf7ad3baf7f5be962375fd0dc7e", "type": "electric_scooter", "is_reserved": 0, "lon": -77.04155766666666}, {"fusion_lat": 0.0, "name": "0ad0f5f90f2aeebb1c645e5eb5a2f8c3", "is_disabled": 0, "rental_uris": {"android": "https://dc.lft.to/lastmile_qr_scan", "ios": "https://dc.lft.to/lastmile_qr_scan"}, "fusion_lon": 0.0, "lat": 38.99228983333333, "bike_id": "0ad0f5f90f2aeebb1c645e5eb5a2f8c3", "type": "electric_bike", "is_reserved": 0, "lon": -76.94405483333334}, {"fusion_lat": 0.0, "name": "7e2c7d05492e016ca8a6608c6127a8b3", "is_disabled": 0, "rental_uris": {"android": "https://dc.lft.to/lastmile_qr_scan", "ios": "https://dc.lft.to/lastmile_qr_scan"}, "fusion_lon": 0.0, "lat": 38.95310966666667, "bike_id": "7e2c7d05492e016ca8a6608c6127a8b3", "type": "electric_scooter", "is_reserved": 0, "lon": -77.02247083333333}, {"fusion_lat": 0.0, "name": "b3f680750332ee1daf1d018d61c64006", "is_disabled": 0, "rental_uris": {"android": "https://dc.lft.to/lastmile_qr_scan", "ios": "https://dc.lft.to/lastmile_qr_scan"}, "fusion_lon": 0.0, "lat": 38.91704466666667, "bike_id": "b3f680750332ee1daf1d018d61c64006", "type": "electric_scooter", "is_reserved": 0, "lon": -77.03118883333333}, {"fusion_lat": 0.0, "name": "fc5cf277c080301003020b19a12eea8c", "is_disabled": 0, "rental_uris": {"android": "https://dc.lft.to/lastmile_qr_scan", "ios": "https://dc.lft.to/lastmile_qr_scan"}, "fusion_lon": 0.0, "lat": 38.9171435, "bike_id": "fc5cf277c080301003020b19a12eea8c", "type": "electric_scooter", "is_reserved": 0, "lon": -77.03043283333334}, {"fusion_lat": 0.0, "name": "5385d89f4707e9ad3036b91899037acd", "is_disabled": 0, "rental_uris": {"android": "https://dc.lft.to/lastmile_qr_scan", "ios": "https://dc.lft.to/lastmile_qr_scan"}, "fusion_lon": 0.0, "lat": 38.93530533333333, "bike_id": "5385d89f4707e9ad3036b91899037acd", "type": "electric_scooter", "is_reserved": 0, "lon": -77.02347166666667}, {"fusion_lat": 0.0, "name": "f560ff7ac2d2f99ded992526bf5232ae", "is_disabled": 0, "rental_uris": {"android": "https://dc.lft.to/lastmile_qr_scan", "ios": "https://dc.lft.to/lastmile_qr_scan"}, "fusion_lon": 0.0, "lat": 38.905160333333335, "bike_id": "f560ff7ac2d2f99ded992526bf5232ae", "type": "electric_bike", "is_reserved": 0, "lon": -77.06020733333334}, {"fusion_lat": 0.0, "name": "f24d70808a955f147f865c909f21ee15", "is_disabled": 0, "rental_uris": {"android": "https://dc.lft.to/lastmile_qr_scan", "ios": "https://dc.lft.to/lastmile_qr_scan"}, "fusion_lon": 0.0, "lat": 38.922847166666664, "bike_id": "f24d70808a955f147f865c909f21ee15", "type": "electric_scooter", "is_reserved": 0, "lon": -77.04237116666667}, {"fusion_lat": 0.0, "name": "bdbfcbc879783aa67706e132c887e39f", "is_disabled": 0, "rental_uris": {"android": "https://dc.lft.to/lastmile_qr_scan", "ios": "https://dc.lft.to/lastmile_qr_scan"}, "fusion_lon": 0.0, "lat": 38.88505716666667, "bike_id": "bdbfcbc879783aa67706e132c887e39f", "type": "electric_scooter", "is_reserved": 0, "lon": -77.000609}, {"fusion_lat": 0.0, "name": "203f19139f3be9bb428050309c4d38fa", "is_disabled": 0, "rental_uris": {"android": "https://dc.lft.to/lastmile_qr_scan", "ios": "https://dc.lft.to/lastmile_qr_scan"}, "fusion_lon": 0.0, "lat": 38.855075666666664, "bike_id": "203f19139f3be9bb428050309c4d38fa", "type": "electric_scooter", "is_reserved": 0, "lon": -76.96535016666667}, {"fusion_lat": 0.0, "name": "4be46c674bb049dfb15ca3895ffbd2bd", "is_disabled": 0, "rental_uris": {"android": "https://dc.lft.to/lastmile_qr_scan", "ios": "https://dc.lft.to/lastmile_qr_scan"}, "fusion_lon": 0.0, "lat": 38.90177633333333, "bike_id": "4be46c674bb049dfb15ca3895ffbd2bd", "type": "electric_scooter", "is_reserved": 0, "lon": -77.05035366666667}, {"fusion_lat": 0.0, "name": "5ef23964033409f5986cd4d944fe1df3", "is_disabled": 0, "rental_uris": {"android": "https://dc.lft.to/lastmile_qr_scan", "ios": "https://dc.lft.to/lastmile_qr_scan"}, "fusion_lon": 0.0, "lat": 38.89796316666666, "bike_id": "5ef23964033409f5986cd4d944fe1df3", "type": "electric_scooter", "is_reserved": 0, "lon": -77.02199966666667}, {"fusion_lat": 0.0, "name": "702837b93cd519d9537e494391443a73", "is_disabled": 0, "rental_uris": {"android": "https://dc.lft.to/lastmile_qr_scan", "ios": "https://dc.lft.to/lastmile_qr_scan"}, "fusion_lon": 0.0, "lat": 38.883864833333334, "bike_id": "702837b93cd519d9537e494391443a73", "type": "electric_scooter", "is_reserved": 0, "lon": -76.930458}, {"fusion_lat": 0.0, "name": "1d6883059ae5f97030b821ed70fb4d91", "is_disabled": 0, "rental_uris": {"android": "https://dc.lft.to/lastmile_qr_scan", "ios": "https://dc.lft.to/lastmile_qr_scan"}, "fusion_lon": 0.0, "lat": 38.9408695, "bike_id": "1d6883059ae5f97030b821ed70fb4d91", "type": "electric_scooter", "is_reserved": 0, "lon": -77.061803}, {"fusion_lat": 0.0, "name": "934dcd97cddd68287d2acce3870002a6", "is_disabled": 0, "rental_uris": {"android": "https://dc.lft.to/lastmile_qr_scan", "ios": "https://dc.lft.to/lastmile_qr_scan"}, "fusion_lon": 0.0, "lat": 38.905164166666665, "bike_id": "934dcd97cddd68287d2acce3870002a6", "type": "electric_scooter", "is_reserved": 0, "lon": -77.06379016666666}, {"fusion_lat": 0.0, "name": "1ae210654d7d302b3a967e48831a479d", "is_disabled": 0, "rental_uris": {"android": "https://dc.lft.to/lastmile_qr_scan", "ios": "https://dc.lft.to/lastmile_qr_scan"}, "fusion_lon": 0.0, "lat": 38.857663333333335, "bike_id": "1ae210654d7d302b3a967e48831a479d", "type": "electric_bike", "is_reserved": 0, "lon": -76.98755216666666}, {"fusion_lat": 0.0, "name": "fd5afd9c514a76b56fb67bd458764088", "is_disabled": 0, "rental_uris": {"android": "https://dc.lft.to/lastmile_qr_scan", "ios": "https://dc.lft.to/lastmile_qr_scan"}, "fusion_lon": 0.0, "lat": 38.89728783333333, "bike_id": "fd5afd9c514a76b56fb67bd458764088", "type": "electric_scooter", "is_reserved": 0, "lon": -77.05521316666666}, {"fusion_lat": 0.0, "name": "dc307fbc6228dbf944a5b8f6a3e96c95", "is_disabled": 0, "rental_uris": {"android": "https://dc.lft.to/lastmile_qr_scan", "ios": "https://dc.lft.to/lastmile_qr_scan"}, "fusion_lon": 0.0, "lat": 38.910390666666665, "bike_id": "dc307fbc6228dbf944a5b8f6a3e96c95", "type": "electric_scooter", "is_reserved": 0, "lon": -77.04341283333333}, {"fusion_lat": 0.0, "name": "66a5ee1f34d7fa63f4aeed459196f971", "is_disabled": 0, "rental_uris": {"android": "https://dc.lft.to/lastmile_qr_scan", "ios": "https://dc.lft.to/lastmile_qr_scan"}, "fusion_lon": 0.0, "lat": 38.898433, "bike_id": "66a5ee1f34d7fa63f4aeed459196f971", "type": "electric_scooter", "is_reserved": 0, "lon": -77.02628633333333}, {"fusion_lat": 0.0, "name": "e99cd9de9f0510adc59fbe5bcba3b2c6", "is_disabled": 0, "rental_uris": {"android": "https://dc.lft.to/lastmile_qr_scan", "ios": "https://dc.lft.to/lastmile_qr_scan"}, "fusion_lon": 0.0, "lat": 38.92069633333333, "bike_id": "e99cd9de9f0510adc59fbe5bcba3b2c6", "type": "electric_scooter", "is_reserved": 0, "lon": -77.03199716666667}, {"fusion_lat": 0.0, "name": "4aa8c1c7e08d8901b77a6ba02fc73e86", "is_disabled": 0, "rental_uris": {"android": "https://dc.lft.to/lastmile_qr_scan", "ios": "https://dc.lft.to/lastmile_qr_scan"}, "fusion_lon": 0.0, "lat": 38.91494, "bike_id": "4aa8c1c7e08d8901b77a6ba02fc73e86", "type": "electric_scooter", "is_reserved": 0, "lon": -77.01323383333333}, {"fusion_lat": 0.0, "name": "a8c6697893aed0d774fdbd1f80ae6d6f", "is_disabled": 0, "rental_uris": {"android": "https://dc.lft.to/lastmile_qr_scan", "ios": "https://dc.lft.to/lastmile_qr_scan"}, "fusion_lon": 0.0, "lat": 38.9173155, "bike_id": "a8c6697893aed0d774fdbd1f80ae6d6f", "type": "electric_scooter", "is_reserved": 0, "lon": -77.03661816666667}, {"fusion_lat": 0.0, "name": "0c8a52e65d6e46b6fd8d5ace69441f2e", "is_disabled": 0, "rental_uris": {"android": "https://dc.lft.to/lastmile_qr_scan", "ios": "https://dc.lft.to/lastmile_qr_scan"}, "fusion_lon": 0.0, "lat": 38.922715333333336, "bike_id": "0c8a52e65d6e46b6fd8d5ace69441f2e", "type": "electric_scooter", "is_reserved": 0, "lon": -77.0423435}, {"fusion_lat": 0.0, "name": "011e3de55d31df1146586c57208b67af", "is_disabled": 0, "rental_uris": {"android": "https://dc.lft.to/lastmile_qr_scan", "ios": "https://dc.lft.to/lastmile_qr_scan"}, "fusion_lon": 0.0, "lat": 38.913155, "bike_id": "011e3de55d31df1146586c57208b67af", "type": "electric_scooter", "is_reserved": 0, "lon": -77.02365483333334}, {"fusion_lat": 0.0, "name": "a17021582272831afdd99c272fd370b2", "is_disabled": 0, "rental_uris": {"android": "https://dc.lft.to/lastmile_qr_scan", "ios": "https://dc.lft.to/lastmile_qr_scan"}, "fusion_lon": 0.0, "lat": 38.91085283333334, "bike_id": "a17021582272831afdd99c272fd370b2", "type": "electric_scooter", "is_reserved": 0, "lon": -77.0209725}, {"fusion_lat": 0.0, "name": "6c0dd796e7c0416251cd9abcbb68a023", "is_disabled": 0, "rental_uris": {"android": "https://dc.lft.to/lastmile_qr_scan", "ios": "https://dc.lft.to/lastmile_qr_scan"}, "fusion_lon": 0.0, "lat": 38.847576, "bike_id": "6c0dd796e7c0416251cd9abcbb68a023", "type": "electric_scooter", "is_reserved": 0, "lon": -76.9950265}, {"fusion_lat": 0.0, "name": "12013573f4f797c3f276110aab559d1d", "is_disabled": 0, "rental_uris": {"android": "https://dc.lft.to/lastmile_qr_scan", "ios": "https://dc.lft.to/lastmile_qr_scan"}, "fusion_lon": 0.0, "lat": 38.8874105, "bike_id": "12013573f4f797c3f276110aab559d1d", "type": "electric_scooter", "is_reserved": 0, "lon": -77.0227255}, {"fusion_lat": 0.0, "name": "e847e20d7c69bb59c17b5e1cfae260b1", "is_disabled": 0, "rental_uris": {"android": "https://dc.lft.to/lastmile_qr_scan", "ios": "https://dc.lft.to/lastmile_qr_scan"}, "fusion_lon": 0.0, "lat": 38.92162533333333, "bike_id": "e847e20d7c69bb59c17b5e1cfae260b1", "type": "electric_scooter", "is_reserved": 0, "lon": -77.0338915}, {"fusion_lat": 0.0, "name": "5b474f2d53013404e2dd6b3aee5f2182", "is_disabled": 0, "rental_uris": {"android": "https://dc.lft.to/lastmile_qr_scan", "ios": "https://dc.lft.to/lastmile_qr_scan"}, "fusion_lon": 0.0, "lat": 38.9256865, "bike_id": "5b474f2d53013404e2dd6b3aee5f2182", "type": "electric_scooter", "is_reserved": 0, "lon": -77.022721}, {"fusion_lat": 0.0, "name": "d8ddc331bce2391718c4bf13ddd74237", "is_disabled": 0, "rental_uris": {"android": "https://dc.lft.to/lastmile_qr_scan", "ios": "https://dc.lft.to/lastmile_qr_scan"}, "fusion_lon": 0.0, "lat": 38.9140145, "bike_id": "d8ddc331bce2391718c4bf13ddd74237", "type": "electric_scooter", "is_reserved": 0, "lon": -77.03173016666666}, {"fusion_lat": 0.0, "name": "12b08aeb2f7c1a15ce8ba4590da4f6e6", "is_disabled": 0, "rental_uris": {"android": "https://dc.lft.to/lastmile_qr_scan", "ios": "https://dc.lft.to/lastmile_qr_scan"}, "fusion_lon": 0.0, "lat": 38.885337166666666, "bike_id": "12b08aeb2f7c1a15ce8ba4590da4f6e6", "type": "electric_scooter", "is_reserved": 0, "lon": -76.99610333333334}, {"fusion_lat": 0.0, "name": "a0649e063f3a21530b712bf8c5a1c7c2", "is_disabled": 0, "rental_uris": {"android": "https://dc.lft.to/lastmile_qr_scan", "ios": "https://dc.lft.to/lastmile_qr_scan"}, "fusion_lon": 0.0, "lat": 38.907246666666666, "bike_id": "a0649e063f3a21530b712bf8c5a1c7c2", "type": "electric_scooter", "is_reserved": 0, "lon": -77.04813416666667}, {"fusion_lat": 0.0, "name": "49a5ce1f12e70544c9ea69f09c2be290", "is_disabled": 0, "rental_uris": {"android": "https://dc.lft.to/lastmile_qr_scan", "ios": "https://dc.lft.to/lastmile_qr_scan"}, "fusion_lon": 0.0, "lat": 38.93684116666667, "bike_id": "49a5ce1f12e70544c9ea69f09c2be290", "type": "electric_scooter", "is_reserved": 0, "lon": -77.03625483333333}, {"fusion_lat": 0.0, "name": "ac7268cb2175f4f07b224abc128efadd", "is_disabled": 0, "rental_uris": {"android": "https://dc.lft.to/lastmile_qr_scan", "ios": "https://dc.lft.to/lastmile_qr_scan"}, "fusion_lon": 0.0, "lat": 38.923232166666665, "bike_id": "ac7268cb2175f4f07b224abc128efadd", "type": "electric_scooter", "is_reserved": 0, "lon": -77.02072616666666}, {"fusion_lat": 0.0, "name": "c5cf259d1f8ee55da19a648fda0d9b47", "is_disabled": 0, "rental_uris": {"android": "https://dc.lft.to/lastmile_qr_scan", "ios": "https://dc.lft.to/lastmile_qr_scan"}, "fusion_lon": 0.0, "lat": 38.90259616666667, "bike_id": "c5cf259d1f8ee55da19a648fda0d9b47", "type": "electric_scooter", "is_reserved": 0, "lon": -77.04365066666666}, {"fusion_lat": 0.0, "name": "fea9d7c8b279e87591a40e7995e58972", "is_disabled": 0, "rental_uris": {"android": "https://dc.lft.to/lastmile_qr_scan", "ios": "https://dc.lft.to/lastmile_qr_scan"}, "fusion_lon": 0.0, "lat": 38.94067616666667, "bike_id": "fea9d7c8b279e87591a40e7995e58972", "type": "electric_bike", "is_reserved": 0, "lon": -76.9946095}, {"fusion_lat": 0.0, "name": "dea18d78bcc9cc4b8cf31c5e8cf3789e", "is_disabled": 0, "rental_uris": {"android": "https://dc.lft.to/lastmile_qr_scan", "ios": "https://dc.lft.to/lastmile_qr_scan"}, "fusion_lon": 0.0, "lat": 38.931379666666665, "bike_id": "dea18d78bcc9cc4b8cf31c5e8cf3789e", "type": "electric_scooter", "is_reserved": 0, "lon": -77.07856966666667}, {"fusion_lat": 0.0, "name": "baf8a4e41e4e56c94c56b56a519ee767", "is_disabled": 0, "rental_uris": {"android": "https://dc.lft.to/lastmile_qr_scan", "ios": "https://dc.lft.to/lastmile_qr_scan"}, "fusion_lon": 0.0, "lat": 38.918515166666666, "bike_id": "baf8a4e41e4e56c94c56b56a519ee767", "type": "electric_scooter", "is_reserved": 0, "lon": -77.03207633333334}, {"fusion_lat": 0.0, "name": "785b55d50a18ed4949cc0e9545d50768", "is_disabled": 0, "rental_uris": {"android": "https://dc.lft.to/lastmile_qr_scan", "ios": "https://dc.lft.to/lastmile_qr_scan"}, "fusion_lon": 0.0, "lat": 38.92114683333333, "bike_id": "785b55d50a18ed4949cc0e9545d50768", "type": "electric_scooter", "is_reserved": 0, "lon": -77.03165016666667}, {"fusion_lat": 0.0, "name": "dbf404a7db0fb603e158ff64490dcae7", "is_disabled": 0, "rental_uris": {"android": "https://dc.lft.to/lastmile_qr_scan", "ios": "https://dc.lft.to/lastmile_qr_scan"}, "fusion_lon": 0.0, "lat": 38.92287816666666, "bike_id": "dbf404a7db0fb603e158ff64490dcae7", "type": "electric_scooter", "is_reserved": 0, "lon": -77.02330966666666}, {"fusion_lat": 0.0, "name": "8615921e8149c1d61e8438c5bd91bfe4", "is_disabled": 0, "rental_uris": {"android": "https://dc.lft.to/lastmile_qr_scan", "ios": "https://dc.lft.to/lastmile_qr_scan"}, "fusion_lon": 0.0, "lat": 38.8971905, "bike_id": "8615921e8149c1d61e8438c5bd91bfe4", "type": "electric_scooter", "is_reserved": 0, "lon": -77.007849}, {"fusion_lat": 0.0, "name": "841d03a5c0c7b70b2a67e34b9299ae94", "is_disabled": 0, "rental_uris": {"android": "https://dc.lft.to/lastmile_qr_scan", "ios": "https://dc.lft.to/lastmile_qr_scan"}, "fusion_lon": 0.0, "lat": 38.88319383333334, "bike_id": "841d03a5c0c7b70b2a67e34b9299ae94", "type": "electric_scooter", "is_reserved": 0, "lon": -77.0137135}, {"fusion_lat": 0.0, "name": "34211741f5187b4114151ac55d619839", "is_disabled": 0, "rental_uris": {"android": "https://dc.lft.to/lastmile_qr_scan", "ios": "https://dc.lft.to/lastmile_qr_scan"}, "fusion_lon": 0.0, "lat": 38.9245355, "bike_id": "34211741f5187b4114151ac55d619839", "type": "electric_scooter", "is_reserved": 0, "lon": -77.00878116666667}, {"fusion_lat": 0.0, "name": "d2c836a27842c04fa7f62cc7adefc802", "is_disabled": 0, "rental_uris": {"android": "https://dc.lft.to/lastmile_qr_scan", "ios": "https://dc.lft.to/lastmile_qr_scan"}, "fusion_lon": 0.0, "lat": 38.997492, "bike_id": "d2c836a27842c04fa7f62cc7adefc802", "type": "electric_bike", "is_reserved": 0, "lon": -77.02682533333333}, {"fusion_lat": 0.0, "name": "f175c4f8a226d235a78338a7bb832b4c", "is_disabled": 0, "rental_uris": {"android": "https://dc.lft.to/lastmile_qr_scan", "ios": "https://dc.lft.to/lastmile_qr_scan"}, "fusion_lon": 0.0, "lat": 38.896823, "bike_id": "f175c4f8a226d235a78338a7bb832b4c", "type": "electric_scooter", "is_reserved": 0, "lon": -77.05113333333334}, {"fusion_lat": 0.0, "name": "bd712bdbfb92e18e053b1cc87976b431", "is_disabled": 0, "rental_uris": {"android": "https://dc.lft.to/lastmile_qr_scan", "ios": "https://dc.lft.to/lastmile_qr_scan"}, "fusion_lon": 0.0, "lat": 38.935852, "bike_id": "bd712bdbfb92e18e053b1cc87976b431", "type": "electric_scooter", "is_reserved": 0, "lon": -77.033573}, {"fusion_lat": 0.0, "name": "074041063114c8bd650a08412b550291", "is_disabled": 0, "rental_uris": {"android": "https://dc.lft.to/lastmile_qr_scan", "ios": "https://dc.lft.to/lastmile_qr_scan"}, "fusion_lon": 0.0, "lat": 38.941252166666665, "bike_id": "074041063114c8bd650a08412b550291", "type": "electric_bike", "is_reserved": 0, "lon": -76.99028666666666}, {"fusion_lat": 0.0, "name": "544efa223a40db74efa158c4da9289b3", "is_disabled": 0, "rental_uris": {"android": "https://dc.lft.to/lastmile_qr_scan", "ios": "https://dc.lft.to/lastmile_qr_scan"}, "fusion_lon": 0.0, "lat": 38.917051, "bike_id": "544efa223a40db74efa158c4da9289b3", "type": "electric_scooter", "is_reserved": 0, "lon": -77.04171933333333}, {"fusion_lat": 0.0, "name": "491ef907007a38ae5a0edc1595c287ba", "is_disabled": 0, "rental_uris": {"android": "https://dc.lft.to/lastmile_qr_scan", "ios": "https://dc.lft.to/lastmile_qr_scan"}, "fusion_lon": 0.0, "lat": 38.90061083333333, "bike_id": "491ef907007a38ae5a0edc1595c287ba", "type": "electric_scooter", "is_reserved": 0, "lon": -77.01375333333333}, {"fusion_lat": 0.0, "name": "09ebcb092a420ec4cdca1f70cc7e9426", "is_disabled": 0, "rental_uris": {"android": "https://dc.lft.to/lastmile_qr_scan", "ios": "https://dc.lft.to/lastmile_qr_scan"}, "fusion_lon": 0.0, "lat": 38.93382183333333, "bike_id": "09ebcb092a420ec4cdca1f70cc7e9426", "type": "electric_scooter", "is_reserved": 0, "lon": -77.024205}, {"fusion_lat": 0.0, "name": "7c14f787809868d5c7e5f520cc9198b3", "is_disabled": 0, "rental_uris": {"android": "https://dc.lft.to/lastmile_qr_scan", "ios": "https://dc.lft.to/lastmile_qr_scan"}, "fusion_lon": 0.0, "lat": 38.911099, "bike_id": "7c14f787809868d5c7e5f520cc9198b3", "type": "electric_scooter", "is_reserved": 0, "lon": -77.04467616666666}, {"fusion_lat": 0.0, "name": "3b2314d80052e0572ba98c28eae06f16", "is_disabled": 0, "rental_uris": {"android": "https://dc.lft.to/lastmile_qr_scan", "ios": "https://dc.lft.to/lastmile_qr_scan"}, "fusion_lon": 0.0, "lat": 38.971244666666664, "bike_id": "3b2314d80052e0572ba98c28eae06f16", "type": "electric_bike", "is_reserved": 0, "lon": -77.020829}, {"fusion_lat": 0.0, "name": "52f74133c995d473a83b931eee504cd9", "is_disabled": 0, "rental_uris": {"android": "https://dc.lft.to/lastmile_qr_scan", "ios": "https://dc.lft.to/lastmile_qr_scan"}, "fusion_lon": 0.0, "lat": 38.91971183333333, "bike_id": "52f74133c995d473a83b931eee504cd9", "type": "electric_scooter", "is_reserved": 0, "lon": -77.017995}, {"fusion_lat": 0.0, "name": "bd6500fcef5f5a4eb152920875fc9c6e", "is_disabled": 0, "rental_uris": {"android": "https://dc.lft.to/lastmile_qr_scan", "ios": "https://dc.lft.to/lastmile_qr_scan"}, "fusion_lon": 0.0, "lat": 38.92784183333333, "bike_id": "bd6500fcef5f5a4eb152920875fc9c6e", "type": "electric_scooter", "is_reserved": 0, "lon": -77.031527}, {"fusion_lat": 0.0, "name": "b6215331317333902f7ab05a7773ae7f", "is_disabled": 0, "rental_uris": {"android": "https://dc.lft.to/lastmile_qr_scan", "ios": "https://dc.lft.to/lastmile_qr_scan"}, "fusion_lon": 0.0, "lat": 38.933862, "bike_id": "b6215331317333902f7ab05a7773ae7f", "type": "electric_scooter", "is_reserved": 0, "lon": -77.02414766666666}, {"fusion_lat": 0.0, "name": "b16feae1751e350ccad411a827035d5a", "is_disabled": 0, "rental_uris": {"android": "https://dc.lft.to/lastmile_qr_scan", "ios": "https://dc.lft.to/lastmile_qr_scan"}, "fusion_lon": 0.0, "lat": 38.91862166666667, "bike_id": "b16feae1751e350ccad411a827035d5a", "type": "electric_scooter", "is_reserved": 0, "lon": -77.04588683333333}, {"fusion_lat": 0.0, "name": "968f9fedb95355a7cae99c57462e1a6d", "is_disabled": 0, "rental_uris": {"android": "https://dc.lft.to/lastmile_qr_scan", "ios": "https://dc.lft.to/lastmile_qr_scan"}, "fusion_lon": 0.0, "lat": 38.92873866666667, "bike_id": "968f9fedb95355a7cae99c57462e1a6d", "type": "electric_scooter", "is_reserved": 0, "lon": -77.03275366666666}, {"fusion_lat": 0.0, "name": "d0fa7a695255f829032c194c2660efcb", "is_disabled": 0, "rental_uris": {"android": "https://dc.lft.to/lastmile_qr_scan", "ios": "https://dc.lft.to/lastmile_qr_scan"}, "fusion_lon": 0.0, "lat": 38.911758, "bike_id": "d0fa7a695255f829032c194c2660efcb", "type": "electric_scooter", "is_reserved": 0, "lon": -77.068621}, {"fusion_lat": 0.0, "name": "56d809cbd19060b9812b28426ebdccb7", "is_disabled": 0, "rental_uris": {"android": "https://dc.lft.to/lastmile_qr_scan", "ios": "https://dc.lft.to/lastmile_qr_scan"}, "fusion_lon": 0.0, "lat": 38.861405166666664, "bike_id": "56d809cbd19060b9812b28426ebdccb7", "type": "electric_bike", "is_reserved": 0, "lon": -76.97171633333333}, {"fusion_lat": 0.0, "name": "1d14e039b6e7a9d848ea03955b358182", "is_disabled": 0, "rental_uris": {"android": "https://dc.lft.to/lastmile_qr_scan", "ios": "https://dc.lft.to/lastmile_qr_scan"}, "fusion_lon": 0.0, "lat": 38.9449915, "bike_id": "1d14e039b6e7a9d848ea03955b358182", "type": "electric_bike", "is_reserved": 0, "lon": -77.0054185}, {"fusion_lat": 0.0, "name": "25ee7d84fa1675749dee9149537e06d1", "is_disabled": 0, "rental_uris": {"android": "https://dc.lft.to/lastmile_qr_scan", "ios": "https://dc.lft.to/lastmile_qr_scan"}, "fusion_lon": 0.0, "lat": 38.87646183333333, "bike_id": "25ee7d84fa1675749dee9149537e06d1", "type": "electric_scooter", "is_reserved": 0, "lon": -77.00835383333333}, {"fusion_lat": 0.0, "name": "d1a3affe2721e351b33f36965638c75c", "is_disabled": 0, "rental_uris": {"android": "https://dc.lft.to/lastmile_qr_scan", "ios": "https://dc.lft.to/lastmile_qr_scan"}, "fusion_lon": 0.0, "lat": 38.9340615, "bike_id": "d1a3affe2721e351b33f36965638c75c", "type": "electric_scooter", "is_reserved": 0, "lon": -77.032729}, {"fusion_lat": 0.0, "name": "b0de3fa785983c654eed410316ee1c13", "is_disabled": 0, "rental_uris": {"android": "https://dc.lft.to/lastmile_qr_scan", "ios": "https://dc.lft.to/lastmile_qr_scan"}, "fusion_lon": 0.0, "lat": 38.927207, "bike_id": "b0de3fa785983c654eed410316ee1c13", "type": "electric_scooter", "is_reserved": 0, "lon": -77.020815}, {"fusion_lat": 0.0, "name": "bf4f499f2ae82cefea36138cbb8cc596", "is_disabled": 0, "rental_uris": {"android": "https://dc.lft.to/lastmile_qr_scan", "ios": "https://dc.lft.to/lastmile_qr_scan"}, "fusion_lon": 0.0, "lat": 38.9312015, "bike_id": "bf4f499f2ae82cefea36138cbb8cc596", "type": "electric_scooter", "is_reserved": 0, "lon": -77.03526916666667}, {"fusion_lat": 0.0, "name": "cd6481f01de1ab4a180a92570964b359", "is_disabled": 0, "rental_uris": {"android": "https://dc.lft.to/lastmile_qr_scan", "ios": "https://dc.lft.to/lastmile_qr_scan"}, "fusion_lon": 0.0, "lat": 38.89308183333333, "bike_id": "cd6481f01de1ab4a180a92570964b359", "type": "electric_scooter", "is_reserved": 0, "lon": -77.05588666666667}, {"fusion_lat": 0.0, "name": "105351a5bd6384288b4bb4a48da71131", "is_disabled": 0, "rental_uris": {"android": "https://dc.lft.to/lastmile_qr_scan", "ios": "https://dc.lft.to/lastmile_qr_scan"}, "fusion_lon": 0.0, "lat": 38.900386, "bike_id": "105351a5bd6384288b4bb4a48da71131", "type": "electric_scooter", "is_reserved": 0, "lon": -76.98559316666666}, {"fusion_lat": 0.0, "name": "c8e253a771861f2426aff1382721c0e0", "is_disabled": 0, "rental_uris": {"android": "https://dc.lft.to/lastmile_qr_scan", "ios": "https://dc.lft.to/lastmile_qr_scan"}, "fusion_lon": 0.0, "lat": 38.91995633333333, "bike_id": "c8e253a771861f2426aff1382721c0e0", "type": "electric_scooter", "is_reserved": 0, "lon": -77.0177035}, {"fusion_lat": 0.0, "name": "6ab59190002bef388b4f743de8b2dbfd", "is_disabled": 0, "rental_uris": {"android": "https://dc.lft.to/lastmile_qr_scan", "ios": "https://dc.lft.to/lastmile_qr_scan"}, "fusion_lon": 0.0, "lat": 38.949816166666665, "bike_id": "6ab59190002bef388b4f743de8b2dbfd", "type": "electric_scooter", "is_reserved": 0, "lon": -77.02697366666666}, {"fusion_lat": 0.0, "name": "0f4c37e5416abde43d551eccd077991a", "is_disabled": 0, "rental_uris": {"android": "https://dc.lft.to/lastmile_qr_scan", "ios": "https://dc.lft.to/lastmile_qr_scan"}, "fusion_lon": 0.0, "lat": 38.9266705, "bike_id": "0f4c37e5416abde43d551eccd077991a", "type": "electric_scooter", "is_reserved": 0, "lon": -77.05154216666666}, {"fusion_lat": 0.0, "name": "11a0c234590523d29b14ac750a88fdc2", "is_disabled": 0, "rental_uris": {"android": "https://dc.lft.to/lastmile_qr_scan", "ios": "https://dc.lft.to/lastmile_qr_scan"}, "fusion_lon": 0.0, "lat": 38.907334666666664, "bike_id": "11a0c234590523d29b14ac750a88fdc2", "type": "electric_scooter", "is_reserved": 0, "lon": -77.02942483333334}, {"fusion_lat": 0.0, "name": "6dce87459d1fd7d15aa2c19be9eb4cd3", "is_disabled": 0, "rental_uris": {"android": "https://dc.lft.to/lastmile_qr_scan", "ios": "https://dc.lft.to/lastmile_qr_scan"}, "fusion_lon": 0.0, "lat": 38.898462333333335, "bike_id": "6dce87459d1fd7d15aa2c19be9eb4cd3", "type": "electric_scooter", "is_reserved": 0, "lon": -77.0222475}, {"fusion_lat": 0.0, "name": "86df9402431d222810e30b1b95f898ba", "is_disabled": 0, "rental_uris": {"android": "https://dc.lft.to/lastmile_qr_scan", "ios": "https://dc.lft.to/lastmile_qr_scan"}, "fusion_lon": 0.0, "lat": 38.906398333333335, "bike_id": "86df9402431d222810e30b1b95f898ba", "type": "electric_scooter", "is_reserved": 0, "lon": -77.04865}, {"fusion_lat": 0.0, "name": "a08eef11ce129ea84405d70f2cd06505", "is_disabled": 0, "rental_uris": {"android": "https://dc.lft.to/lastmile_qr_scan", "ios": "https://dc.lft.to/lastmile_qr_scan"}, "fusion_lon": 0.0, "lat": 38.92408966666667, "bike_id": "a08eef11ce129ea84405d70f2cd06505", "type": "electric_scooter", "is_reserved": 0, "lon": -77.0253485}, {"fusion_lat": 0.0, "name": "6e8d49b2d117cc1325a9066df120a6ba", "is_disabled": 0, "rental_uris": {"android": "https://dc.lft.to/lastmile_qr_scan", "ios": "https://dc.lft.to/lastmile_qr_scan"}, "fusion_lon": 0.0, "lat": 38.896251666666664, "bike_id": "6e8d49b2d117cc1325a9066df120a6ba", "type": "electric_scooter", "is_reserved": 0, "lon": -77.02667483333333}, {"fusion_lat": 0.0, "name": "a76dada26ed1e0b0237e73943092ada0", "is_disabled": 0, "rental_uris": {"android": "https://dc.lft.to/lastmile_qr_scan", "ios": "https://dc.lft.to/lastmile_qr_scan"}, "fusion_lon": 0.0, "lat": 38.91157366666667, "bike_id": "a76dada26ed1e0b0237e73943092ada0", "type": "electric_scooter", "is_reserved": 0, "lon": -76.98725433333334}, {"fusion_lat": 0.0, "name": "ab2dc6bd5c0ea58b1725b93e46ec4738", "is_disabled": 0, "rental_uris": {"android": "https://dc.lft.to/lastmile_qr_scan", "ios": "https://dc.lft.to/lastmile_qr_scan"}, "fusion_lon": 0.0, "lat": 38.91490533333333, "bike_id": "ab2dc6bd5c0ea58b1725b93e46ec4738", "type": "electric_scooter", "is_reserved": 0, "lon": -77.014128}, {"fusion_lat": 0.0, "name": "de0862e010b73571863b33a0eb1bd419", "is_disabled": 0, "rental_uris": {"android": "https://dc.lft.to/lastmile_qr_scan", "ios": "https://dc.lft.to/lastmile_qr_scan"}, "fusion_lon": 0.0, "lat": 38.895071333333334, "bike_id": "de0862e010b73571863b33a0eb1bd419", "type": "electric_scooter", "is_reserved": 0, "lon": -77.0416885}, {"fusion_lat": 0.0, "name": "d2be0b752665cb9dd6a0e8985ebc7d20", "is_disabled": 0, "rental_uris": {"android": "https://dc.lft.to/lastmile_qr_scan", "ios": "https://dc.lft.to/lastmile_qr_scan"}, "fusion_lon": 0.0, "lat": 38.87995983333333, "bike_id": "d2be0b752665cb9dd6a0e8985ebc7d20", "type": "electric_scooter", "is_reserved": 0, "lon": -76.9853835}, {"fusion_lat": 0.0, "name": "660e891a0183bdd9c1a5f9decde7b46f", "is_disabled": 0, "rental_uris": {"android": "https://dc.lft.to/lastmile_qr_scan", "ios": "https://dc.lft.to/lastmile_qr_scan"}, "fusion_lon": 0.0, "lat": 38.917935166666666, "bike_id": "660e891a0183bdd9c1a5f9decde7b46f", "type": "electric_scooter", "is_reserved": 0, "lon": -77.040202}, {"fusion_lat": 0.0, "name": "50038fd76fb935ea2fcd803bc8b1a85a", "is_disabled": 0, "rental_uris": {"android": "https://dc.lft.to/lastmile_qr_scan", "ios": "https://dc.lft.to/lastmile_qr_scan"}, "fusion_lon": 0.0, "lat": 38.932242, "bike_id": "50038fd76fb935ea2fcd803bc8b1a85a", "type": "electric_scooter", "is_reserved": 0, "lon": -77.044159}, {"fusion_lat": 0.0, "name": "bc314cbf10b99916feb3ee7b29d0ecf5", "is_disabled": 0, "rental_uris": {"android": "https://dc.lft.to/lastmile_qr_scan", "ios": "https://dc.lft.to/lastmile_qr_scan"}, "fusion_lon": 0.0, "lat": 38.90729983333333, "bike_id": "bc314cbf10b99916feb3ee7b29d0ecf5", "type": "electric_scooter", "is_reserved": 0, "lon": -77.02892316666667}, {"fusion_lat": 0.0, "name": "7578ccc4c7c276ed319e2d93b425b408", "is_disabled": 0, "rental_uris": {"android": "https://dc.lft.to/lastmile_qr_scan", "ios": "https://dc.lft.to/lastmile_qr_scan"}, "fusion_lon": 0.0, "lat": 38.93873383333333, "bike_id": "7578ccc4c7c276ed319e2d93b425b408", "type": "electric_scooter", "is_reserved": 0, "lon": -77.032291}, {"fusion_lat": 0.0, "name": "eaa6c4a8bc9821b05b4aff06b920cfc8", "is_disabled": 0, "rental_uris": {"android": "https://dc.lft.to/lastmile_qr_scan", "ios": "https://dc.lft.to/lastmile_qr_scan"}, "fusion_lon": 0.0, "lat": 38.842751166666666, "bike_id": "eaa6c4a8bc9821b05b4aff06b920cfc8", "type": "electric_bike", "is_reserved": 0, "lon": -76.9883965}, {"fusion_lat": 0.0, "name": "13e4163007ed666df034d075aea53103", "is_disabled": 0, "rental_uris": {"android": "https://dc.lft.to/lastmile_qr_scan", "ios": "https://dc.lft.to/lastmile_qr_scan"}, "fusion_lon": 0.0, "lat": 38.921586, "bike_id": "13e4163007ed666df034d075aea53103", "type": "electric_scooter", "is_reserved": 0, "lon": -77.0364385}, {"fusion_lat": 0.0, "name": "4264009353bcee38e0eb19892b4ce292", "is_disabled": 0, "rental_uris": {"android": "https://dc.lft.to/lastmile_qr_scan", "ios": "https://dc.lft.to/lastmile_qr_scan"}, "fusion_lon": 0.0, "lat": 38.899851166666664, "bike_id": "4264009353bcee38e0eb19892b4ce292", "type": "electric_scooter", "is_reserved": 0, "lon": -77.04042966666667}, {"fusion_lat": 0.0, "name": "a6605612ba71875c3ef785cf24a88009", "is_disabled": 0, "rental_uris": {"android": "https://dc.lft.to/lastmile_qr_scan", "ios": "https://dc.lft.to/lastmile_qr_scan"}, "fusion_lon": 0.0, "lat": 38.90224466666667, "bike_id": "a6605612ba71875c3ef785cf24a88009", "type": "electric_scooter", "is_reserved": 0, "lon": -77.02306966666667}, {"fusion_lat": 0.0, "name": "b71bf3772939c6d1ae2d1002703dfb11", "is_disabled": 0, "rental_uris": {"android": "https://dc.lft.to/lastmile_qr_scan", "ios": "https://dc.lft.to/lastmile_qr_scan"}, "fusion_lon": 0.0, "lat": 38.90017016666667, "bike_id": "b71bf3772939c6d1ae2d1002703dfb11", "type": "electric_scooter", "is_reserved": 0, "lon": -76.98811683333334}, {"fusion_lat": 0.0, "name": "7dedabab372f2a5697dc68a9ed2bea49", "is_disabled": 0, "rental_uris": {"android": "https://dc.lft.to/lastmile_qr_scan", "ios": "https://dc.lft.to/lastmile_qr_scan"}, "fusion_lon": 0.0, "lat": 38.91476883333333, "bike_id": "7dedabab372f2a5697dc68a9ed2bea49", "type": "electric_scooter", "is_reserved": 0, "lon": -76.98388016666667}, {"fusion_lat": 0.0, "name": "f82d0dd83fd17fff5a25106ba53902a5", "is_disabled": 0, "rental_uris": {"android": "https://dc.lft.to/lastmile_qr_scan", "ios": "https://dc.lft.to/lastmile_qr_scan"}, "fusion_lon": 0.0, "lat": 38.913563, "bike_id": "f82d0dd83fd17fff5a25106ba53902a5", "type": "electric_scooter", "is_reserved": 0, "lon": -77.03328716666667}, {"fusion_lat": 0.0, "name": "7c999019818e8bea67bbb396606685a8", "is_disabled": 0, "rental_uris": {"android": "https://dc.lft.to/lastmile_qr_scan", "ios": "https://dc.lft.to/lastmile_qr_scan"}, "fusion_lon": 0.0, "lat": 38.984751, "bike_id": "7c999019818e8bea67bbb396606685a8", "type": "electric_scooter", "is_reserved": 0, "lon": -77.02642166666666}, {"fusion_lat": 0.0, "name": "10bc784e7bb15f164a77b42a5a488f76", "is_disabled": 0, "rental_uris": {"android": "https://dc.lft.to/lastmile_qr_scan", "ios": "https://dc.lft.to/lastmile_qr_scan"}, "fusion_lon": 0.0, "lat": 38.91662933333333, "bike_id": "10bc784e7bb15f164a77b42a5a488f76", "type": "electric_scooter", "is_reserved": 0, "lon": -77.02814533333333}, {"fusion_lat": 0.0, "name": "9869ff545a965e22747b79bbff7ea5ec", "is_disabled": 0, "rental_uris": {"android": "https://dc.lft.to/lastmile_qr_scan", "ios": "https://dc.lft.to/lastmile_qr_scan"}, "fusion_lon": 0.0, "lat": 38.901466, "bike_id": "9869ff545a965e22747b79bbff7ea5ec", "type": "electric_scooter", "is_reserved": 0, "lon": -77.02005316666667}, {"fusion_lat": 0.0, "name": "3ad988126248df7802aaa3212a53a92d", "is_disabled": 0, "rental_uris": {"android": "https://dc.lft.to/lastmile_qr_scan", "ios": "https://dc.lft.to/lastmile_qr_scan"}, "fusion_lon": 0.0, "lat": 38.926521, "bike_id": "3ad988126248df7802aaa3212a53a92d", "type": "electric_scooter", "is_reserved": 0, "lon": -77.037126}, {"fusion_lat": 0.0, "name": "e5f7bbcd87a76e307d364c7c1097eec2", "is_disabled": 0, "rental_uris": {"android": "https://dc.lft.to/lastmile_qr_scan", "ios": "https://dc.lft.to/lastmile_qr_scan"}, "fusion_lon": 0.0, "lat": 38.89478733333333, "bike_id": "e5f7bbcd87a76e307d364c7c1097eec2", "type": "electric_scooter", "is_reserved": 0, "lon": -77.01939233333333}, {"fusion_lat": 0.0, "name": "4406c60dd099bd66fc564672d6a37562", "is_disabled": 0, "rental_uris": {"android": "https://dc.lft.to/lastmile_qr_scan", "ios": "https://dc.lft.to/lastmile_qr_scan"}, "fusion_lon": 0.0, "lat": 38.92483716666667, "bike_id": "4406c60dd099bd66fc564672d6a37562", "type": "electric_scooter", "is_reserved": 0, "lon": -77.028353}, {"fusion_lat": 0.0, "name": "2bdbd83de42137762eb0c86730ba1256", "is_disabled": 0, "rental_uris": {"android": "https://dc.lft.to/lastmile_qr_scan", "ios": "https://dc.lft.to/lastmile_qr_scan"}, "fusion_lon": 0.0, "lat": 38.937002166666666, "bike_id": "2bdbd83de42137762eb0c86730ba1256", "type": "electric_scooter", "is_reserved": 0, "lon": -77.02395516666667}, {"fusion_lat": 0.0, "name": "7da94522491fd52f95cca60fed4ea404", "is_disabled": 0, "rental_uris": {"android": "https://dc.lft.to/lastmile_qr_scan", "ios": "https://dc.lft.to/lastmile_qr_scan"}, "fusion_lon": 0.0, "lat": 38.91845333333333, "bike_id": "7da94522491fd52f95cca60fed4ea404", "type": "electric_scooter", "is_reserved": 0, "lon": -76.96541866666666}, {"fusion_lat": 0.0, "name": "58dbe4cf3024e6477e68880f15ad6f82", "is_disabled": 0, "rental_uris": {"android": "https://dc.lft.to/lastmile_qr_scan", "ios": "https://dc.lft.to/lastmile_qr_scan"}, "fusion_lon": 0.0, "lat": 38.90247516666667, "bike_id": "58dbe4cf3024e6477e68880f15ad6f82", "type": "electric_scooter", "is_reserved": 0, "lon": -77.01934516666667}, {"fusion_lat": 0.0, "name": "42a51d83f685ff1faa9b5aa05782526a", "is_disabled": 0, "rental_uris": {"android": "https://dc.lft.to/lastmile_qr_scan", "ios": "https://dc.lft.to/lastmile_qr_scan"}, "fusion_lon": 0.0, "lat": 38.9284765, "bike_id": "42a51d83f685ff1faa9b5aa05782526a", "type": "electric_scooter", "is_reserved": 0, "lon": -77.03303933333333}, {"fusion_lat": 0.0, "name": "e7ea9de80c862cac11894c027d8b75ba", "is_disabled": 0, "rental_uris": {"android": "https://dc.lft.to/lastmile_qr_scan", "ios": "https://dc.lft.to/lastmile_qr_scan"}, "fusion_lon": 0.0, "lat": 38.89685983333333, "bike_id": "e7ea9de80c862cac11894c027d8b75ba", "type": "electric_scooter", "is_reserved": 0, "lon": -76.93707483333333}, {"fusion_lat": 0.0, "name": "2882bece3838fd1df59f1f8d6a10e951", "is_disabled": 0, "rental_uris": {"android": "https://dc.lft.to/lastmile_qr_scan", "ios": "https://dc.lft.to/lastmile_qr_scan"}, "fusion_lon": 0.0, "lat": 38.903175833333336, "bike_id": "2882bece3838fd1df59f1f8d6a10e951", "type": "electric_scooter", "is_reserved": 0, "lon": -76.977986}, {"fusion_lat": 0.0, "name": "5c052a78098511c7be231505968fb9d2", "is_disabled": 0, "rental_uris": {"android": "https://dc.lft.to/lastmile_qr_scan", "ios": "https://dc.lft.to/lastmile_qr_scan"}, "fusion_lon": 0.0, "lat": 38.939304, "bike_id": "5c052a78098511c7be231505968fb9d2", "type": "electric_scooter", "is_reserved": 0, "lon": -77.07477683333333}, {"fusion_lat": 0.0, "name": "947222c4c14f8d4a845c91b68752729c", "is_disabled": 0, "rental_uris": {"android": "https://dc.lft.to/lastmile_qr_scan", "ios": "https://dc.lft.to/lastmile_qr_scan"}, "fusion_lon": 0.0, "lat": 38.88188233333333, "bike_id": "947222c4c14f8d4a845c91b68752729c", "type": "electric_scooter", "is_reserved": 0, "lon": -77.003553}, {"fusion_lat": 0.0, "name": "911d27b5ff51102721df608725b80ae6", "is_disabled": 0, "rental_uris": {"android": "https://dc.lft.to/lastmile_qr_scan", "ios": "https://dc.lft.to/lastmile_qr_scan"}, "fusion_lon": 0.0, "lat": 38.892366, "bike_id": "911d27b5ff51102721df608725b80ae6", "type": "electric_scooter", "is_reserved": 0, "lon": -77.03172733333334}, {"fusion_lat": 0.0, "name": "4f347f04f3f96abbf7328c452d68b3f5", "is_disabled": 0, "rental_uris": {"android": "https://dc.lft.to/lastmile_qr_scan", "ios": "https://dc.lft.to/lastmile_qr_scan"}, "fusion_lon": 0.0, "lat": 38.90350216666667, "bike_id": "4f347f04f3f96abbf7328c452d68b3f5", "type": "electric_bike", "is_reserved": 0, "lon": -77.06327516666667}, {"fusion_lat": 0.0, "name": "419b53fff35b9ed827ad5d00fb395168", "is_disabled": 0, "rental_uris": {"android": "https://dc.lft.to/lastmile_qr_scan", "ios": "https://dc.lft.to/lastmile_qr_scan"}, "fusion_lon": 0.0, "lat": 38.90531433333334, "bike_id": "419b53fff35b9ed827ad5d00fb395168", "type": "electric_scooter", "is_reserved": 0, "lon": -77.0567875}, {"fusion_lat": 0.0, "name": "68d6550a11466692bf93d42c7f8c17c1", "is_disabled": 0, "rental_uris": {"android": "https://dc.lft.to/lastmile_qr_scan", "ios": "https://dc.lft.to/lastmile_qr_scan"}, "fusion_lon": 0.0, "lat": 38.80298333333333, "bike_id": "68d6550a11466692bf93d42c7f8c17c1", "type": "electric_bike", "is_reserved": 0, "lon": -77.0593905}, {"fusion_lat": 0.0, "name": "6b8f6ffe5cd98cdfcfca96ba73b2e330", "is_disabled": 0, "rental_uris": {"android": "https://dc.lft.to/lastmile_qr_scan", "ios": "https://dc.lft.to/lastmile_qr_scan"}, "fusion_lon": 0.0, "lat": 38.9028565, "bike_id": "6b8f6ffe5cd98cdfcfca96ba73b2e330", "type": "electric_scooter", "is_reserved": 0, "lon": -77.01658916666666}, {"fusion_lat": 0.0, "name": "e7ef4e7521cf7ed3b6012d363bbbc65d", "is_disabled": 0, "rental_uris": {"android": "https://dc.lft.to/lastmile_qr_scan", "ios": "https://dc.lft.to/lastmile_qr_scan"}, "fusion_lon": 0.0, "lat": 38.92726566666666, "bike_id": "e7ef4e7521cf7ed3b6012d363bbbc65d", "type": "electric_scooter", "is_reserved": 0, "lon": -77.041932}, {"fusion_lat": 0.0, "name": "cc0a0a80b300986f4a027921060fd78d", "is_disabled": 0, "rental_uris": {"android": "https://dc.lft.to/lastmile_qr_scan", "ios": "https://dc.lft.to/lastmile_qr_scan"}, "fusion_lon": 0.0, "lat": 38.90032083333333, "bike_id": "cc0a0a80b300986f4a027921060fd78d", "type": "electric_scooter", "is_reserved": 0, "lon": -77.00203866666666}, {"fusion_lat": 0.0, "name": "01a66853e64d85cf5da200fba871a098", "is_disabled": 0, "rental_uris": {"android": "https://dc.lft.to/lastmile_qr_scan", "ios": "https://dc.lft.to/lastmile_qr_scan"}, "fusion_lon": 0.0, "lat": 38.939025666666666, "bike_id": "01a66853e64d85cf5da200fba871a098", "type": "electric_scooter", "is_reserved": 0, "lon": -77.03258433333333}, {"fusion_lat": 0.0, "name": "906433791cbffc805866c3cd8c467ceb", "is_disabled": 0, "rental_uris": {"android": "https://dc.lft.to/lastmile_qr_scan", "ios": "https://dc.lft.to/lastmile_qr_scan"}, "fusion_lon": 0.0, "lat": 38.916662333333335, "bike_id": "906433791cbffc805866c3cd8c467ceb", "type": "electric_scooter", "is_reserved": 0, "lon": -76.982333}, {"fusion_lat": 0.0, "name": "e50845f196e113897bc1382cec9bab04", "is_disabled": 0, "rental_uris": {"android": "https://dc.lft.to/lastmile_qr_scan", "ios": "https://dc.lft.to/lastmile_qr_scan"}, "fusion_lon": 0.0, "lat": 38.920802, "bike_id": "e50845f196e113897bc1382cec9bab04", "type": "electric_bike", "is_reserved": 0, "lon": -76.98949566666667}, {"fusion_lat": 0.0, "name": "3ed83e90f61535328f14ca611d4b3fde", "is_disabled": 0, "rental_uris": {"android": "https://dc.lft.to/lastmile_qr_scan", "ios": "https://dc.lft.to/lastmile_qr_scan"}, "fusion_lon": 0.0, "lat": 38.8933165, "bike_id": "3ed83e90f61535328f14ca611d4b3fde", "type": "electric_scooter", "is_reserved": 0, "lon": -77.02244066666667}, {"fusion_lat": 0.0, "name": "61baaa832dc8183950719fcb6494ce47", "is_disabled": 0, "rental_uris": {"android": "https://dc.lft.to/lastmile_qr_scan", "ios": "https://dc.lft.to/lastmile_qr_scan"}, "fusion_lon": 0.0, "lat": 38.883214333333335, "bike_id": "61baaa832dc8183950719fcb6494ce47", "type": "electric_scooter", "is_reserved": 0, "lon": -77.01770916666666}, {"fusion_lat": 0.0, "name": "a7b6c1a4943fb1a566116839f4fccfb1", "is_disabled": 0, "rental_uris": {"android": "https://dc.lft.to/lastmile_qr_scan", "ios": "https://dc.lft.to/lastmile_qr_scan"}, "fusion_lon": 0.0, "lat": 38.8872645, "bike_id": "a7b6c1a4943fb1a566116839f4fccfb1", "type": "electric_scooter", "is_reserved": 0, "lon": -76.9835545}, {"fusion_lat": 0.0, "name": "8c8a1f75c6d319d10d3b52c38925a0f2", "is_disabled": 0, "rental_uris": {"android": "https://dc.lft.to/lastmile_qr_scan", "ios": "https://dc.lft.to/lastmile_qr_scan"}, "fusion_lon": 0.0, "lat": 38.93649283333333, "bike_id": "8c8a1f75c6d319d10d3b52c38925a0f2", "type": "electric_scooter", "is_reserved": 0, "lon": -77.03054133333333}, {"fusion_lat": 0.0, "name": "f93381192a5f4351b63c946f65691cbe", "is_disabled": 0, "rental_uris": {"android": "https://dc.lft.to/lastmile_qr_scan", "ios": "https://dc.lft.to/lastmile_qr_scan"}, "fusion_lon": 0.0, "lat": 38.899794166666666, "bike_id": "f93381192a5f4351b63c946f65691cbe", "type": "electric_scooter", "is_reserved": 0, "lon": -76.98704983333333}, {"fusion_lat": 0.0, "name": "2dbaab2cc374aaf2f10e9d730ac91f49", "is_disabled": 0, "rental_uris": {"android": "https://dc.lft.to/lastmile_qr_scan", "ios": "https://dc.lft.to/lastmile_qr_scan"}, "fusion_lon": 0.0, "lat": 38.887445166666666, "bike_id": "2dbaab2cc374aaf2f10e9d730ac91f49", "type": "electric_scooter", "is_reserved": 0, "lon": -77.023799}, {"fusion_lat": 0.0, "name": "f06c5b0808793a932005d8ced1d0ed3e", "is_disabled": 0, "rental_uris": {"android": "https://dc.lft.to/lastmile_qr_scan", "ios": "https://dc.lft.to/lastmile_qr_scan"}, "fusion_lon": 0.0, "lat": 38.94229883333333, "bike_id": "f06c5b0808793a932005d8ced1d0ed3e", "type": "electric_scooter", "is_reserved": 0, "lon": -77.0138595}, {"fusion_lat": 0.0, "name": "8d4e74ea3e6aa3c4f818efbee557058d", "is_disabled": 0, "rental_uris": {"android": "https://dc.lft.to/lastmile_qr_scan", "ios": "https://dc.lft.to/lastmile_qr_scan"}, "fusion_lon": 0.0, "lat": 38.916303166666665, "bike_id": "8d4e74ea3e6aa3c4f818efbee557058d", "type": "electric_scooter", "is_reserved": 0, "lon": -77.02806416666667}, {"fusion_lat": 0.0, "name": "4dae0422fa27ea8324ad9312646c06a2", "is_disabled": 0, "rental_uris": {"android": "https://dc.lft.to/lastmile_qr_scan", "ios": "https://dc.lft.to/lastmile_qr_scan"}, "fusion_lon": 0.0, "lat": 38.88717666666667, "bike_id": "4dae0422fa27ea8324ad9312646c06a2", "type": "electric_scooter", "is_reserved": 0, "lon": -77.017752}, {"fusion_lat": 0.0, "name": "71960f0d56a76e2f4e709342ab69c4c3", "is_disabled": 0, "rental_uris": {"android": "https://dc.lft.to/lastmile_qr_scan", "ios": "https://dc.lft.to/lastmile_qr_scan"}, "fusion_lon": 0.0, "lat": 38.9246245, "bike_id": "71960f0d56a76e2f4e709342ab69c4c3", "type": "electric_scooter", "is_reserved": 0, "lon": -77.0240565}, {"fusion_lat": 0.0, "name": "72a69e7ca9ea603184cf5f7c2e7d4d26", "is_disabled": 0, "rental_uris": {"android": "https://dc.lft.to/lastmile_qr_scan", "ios": "https://dc.lft.to/lastmile_qr_scan"}, "fusion_lon": 0.0, "lat": 38.900255, "bike_id": "72a69e7ca9ea603184cf5f7c2e7d4d26", "type": "electric_scooter", "is_reserved": 0, "lon": -76.9992595}, {"fusion_lat": 0.0, "name": "403536645133415ef787e7caa9883360", "is_disabled": 0, "rental_uris": {"android": "https://dc.lft.to/lastmile_qr_scan", "ios": "https://dc.lft.to/lastmile_qr_scan"}, "fusion_lon": 0.0, "lat": 38.889647, "bike_id": "403536645133415ef787e7caa9883360", "type": "electric_scooter", "is_reserved": 0, "lon": -77.01504316666667}, {"fusion_lat": 0.0, "name": "43f13ea70ec37a4ce86c3df4ef7e179e", "is_disabled": 0, "rental_uris": {"android": "https://dc.lft.to/lastmile_qr_scan", "ios": "https://dc.lft.to/lastmile_qr_scan"}, "fusion_lon": 0.0, "lat": 38.87447516666667, "bike_id": "43f13ea70ec37a4ce86c3df4ef7e179e", "type": "electric_scooter", "is_reserved": 0, "lon": -77.01873433333333}, {"fusion_lat": 0.0, "name": "29828e7e88c695d4bab11ac18a97aed4", "is_disabled": 0, "rental_uris": {"android": "https://dc.lft.to/lastmile_qr_scan", "ios": "https://dc.lft.to/lastmile_qr_scan"}, "fusion_lon": 0.0, "lat": 38.90182733333333, "bike_id": "29828e7e88c695d4bab11ac18a97aed4", "type": "electric_scooter", "is_reserved": 0, "lon": -77.0591575}, {"fusion_lat": 0.0, "name": "a1b896d28ee7d76ae820075c789aafd5", "is_disabled": 0, "rental_uris": {"android": "https://dc.lft.to/lastmile_qr_scan", "ios": "https://dc.lft.to/lastmile_qr_scan"}, "fusion_lon": 0.0, "lat": 38.929942833333335, "bike_id": "a1b896d28ee7d76ae820075c789aafd5", "type": "electric_scooter", "is_reserved": 0, "lon": -77.03233716666666}, {"fusion_lat": 0.0, "name": "c4b2747e8ba11ad9292c5d3757967c60", "is_disabled": 0, "rental_uris": {"android": "https://dc.lft.to/lastmile_qr_scan", "ios": "https://dc.lft.to/lastmile_qr_scan"}, "fusion_lon": 0.0, "lat": 38.9232075, "bike_id": "c4b2747e8ba11ad9292c5d3757967c60", "type": "electric_scooter", "is_reserved": 0, "lon": -77.04622516666667}, {"fusion_lat": 0.0, "name": "83e6bcaa4fe60c983db63bd03f233ba4", "is_disabled": 0, "rental_uris": {"android": "https://dc.lft.to/lastmile_qr_scan", "ios": "https://dc.lft.to/lastmile_qr_scan"}, "fusion_lon": 0.0, "lat": 38.905776833333334, "bike_id": "83e6bcaa4fe60c983db63bd03f233ba4", "type": "electric_scooter", "is_reserved": 0, "lon": -77.03434533333333}, {"fusion_lat": 0.0, "name": "fc75295c307f162bd58c3c05081d027e", "is_disabled": 0, "rental_uris": {"android": "https://dc.lft.to/lastmile_qr_scan", "ios": "https://dc.lft.to/lastmile_qr_scan"}, "fusion_lon": 0.0, "lat": 38.92306133333334, "bike_id": "fc75295c307f162bd58c3c05081d027e", "type": "electric_scooter", "is_reserved": 0, "lon": -76.9942475}, {"fusion_lat": 0.0, "name": "e2c36a35045f805893b6f95b2d0e4821", "is_disabled": 0, "rental_uris": {"android": "https://dc.lft.to/lastmile_qr_scan", "ios": "https://dc.lft.to/lastmile_qr_scan"}, "fusion_lon": 0.0, "lat": 38.902611, "bike_id": "e2c36a35045f805893b6f95b2d0e4821", "type": "electric_scooter", "is_reserved": 0, "lon": -76.99607766666666}, {"fusion_lat": 0.0, "name": "dc12a23d65f507d0a2c2f0db2e94991c", "is_disabled": 0, "rental_uris": {"android": "https://dc.lft.to/lastmile_qr_scan", "ios": "https://dc.lft.to/lastmile_qr_scan"}, "fusion_lon": 0.0, "lat": 38.923703333333336, "bike_id": "dc12a23d65f507d0a2c2f0db2e94991c", "type": "electric_scooter", "is_reserved": 0, "lon": -77.081518}, {"fusion_lat": 0.0, "name": "fcdb34fd1a8cde565b096303d6ed3ca1", "is_disabled": 0, "rental_uris": {"android": "https://dc.lft.to/lastmile_qr_scan", "ios": "https://dc.lft.to/lastmile_qr_scan"}, "fusion_lon": 0.0, "lat": 38.9003635, "bike_id": "fcdb34fd1a8cde565b096303d6ed3ca1", "type": "electric_scooter", "is_reserved": 0, "lon": -77.01224016666667}, {"fusion_lat": 0.0, "name": "51a3c6bf0e178b71c854f92e08e4953d", "is_disabled": 0, "rental_uris": {"android": "https://dc.lft.to/lastmile_qr_scan", "ios": "https://dc.lft.to/lastmile_qr_scan"}, "fusion_lon": 0.0, "lat": 38.91556516666667, "bike_id": "51a3c6bf0e178b71c854f92e08e4953d", "type": "electric_scooter", "is_reserved": 0, "lon": -77.03254483333333}, {"fusion_lat": 0.0, "name": "f31fbe1f459c78956b726633c3a8c31a", "is_disabled": 0, "rental_uris": {"android": "https://dc.lft.to/lastmile_qr_scan", "ios": "https://dc.lft.to/lastmile_qr_scan"}, "fusion_lon": 0.0, "lat": 38.8973535, "bike_id": "f31fbe1f459c78956b726633c3a8c31a", "type": "electric_scooter", "is_reserved": 0, "lon": -76.94719466666666}, {"fusion_lat": 0.0, "name": "f8fa5b6f3305efe2c7e6d6e0c409aeeb", "is_disabled": 0, "rental_uris": {"android": "https://dc.lft.to/lastmile_qr_scan", "ios": "https://dc.lft.to/lastmile_qr_scan"}, "fusion_lon": 0.0, "lat": 38.91558583333333, "bike_id": "f8fa5b6f3305efe2c7e6d6e0c409aeeb", "type": "electric_scooter", "is_reserved": 0, "lon": -77.03241166666666}, {"fusion_lat": 0.0, "name": "0861f4c35c16ee869cd88918e3810f28", "is_disabled": 0, "rental_uris": {"android": "https://dc.lft.to/lastmile_qr_scan", "ios": "https://dc.lft.to/lastmile_qr_scan"}, "fusion_lon": 0.0, "lat": 38.892235, "bike_id": "0861f4c35c16ee869cd88918e3810f28", "type": "electric_scooter", "is_reserved": 0, "lon": -77.04805316666666}, {"fusion_lat": 0.0, "name": "9a0969ae0425bdd6e8cc36cb23ea2441", "is_disabled": 0, "rental_uris": {"android": "https://dc.lft.to/lastmile_qr_scan", "ios": "https://dc.lft.to/lastmile_qr_scan"}, "fusion_lon": 0.0, "lat": 38.900322, "bike_id": "9a0969ae0425bdd6e8cc36cb23ea2441", "type": "electric_scooter", "is_reserved": 0, "lon": -76.991338}, {"fusion_lat": 0.0, "name": "672f5fc7d411bd32e1b187a867d13fbb", "is_disabled": 0, "rental_uris": {"android": "https://dc.lft.to/lastmile_qr_scan", "ios": "https://dc.lft.to/lastmile_qr_scan"}, "fusion_lon": 0.0, "lat": 38.93036016666667, "bike_id": "672f5fc7d411bd32e1b187a867d13fbb", "type": "electric_scooter", "is_reserved": 0, "lon": -77.03303216666667}, {"fusion_lat": 0.0, "name": "c51b3e87dd1de3139b1f35791cbec02e", "is_disabled": 0, "rental_uris": {"android": "https://dc.lft.to/lastmile_qr_scan", "ios": "https://dc.lft.to/lastmile_qr_scan"}, "fusion_lon": 0.0, "lat": 38.9159695, "bike_id": "c51b3e87dd1de3139b1f35791cbec02e", "type": "electric_scooter", "is_reserved": 0, "lon": -77.04628983333333}, {"fusion_lat": 0.0, "name": "424ce34b5c26f5302aca304b47225a16", "is_disabled": 0, "rental_uris": {"android": "https://dc.lft.to/lastmile_qr_scan", "ios": "https://dc.lft.to/lastmile_qr_scan"}, "fusion_lon": 0.0, "lat": 38.960722, "bike_id": "424ce34b5c26f5302aca304b47225a16", "type": "electric_scooter", "is_reserved": 0, "lon": -77.00095566666667}, {"fusion_lat": 0.0, "name": "49bfee88984def89a894221ee7b41001", "is_disabled": 0, "rental_uris": {"android": "https://dc.lft.to/lastmile_qr_scan", "ios": "https://dc.lft.to/lastmile_qr_scan"}, "fusion_lon": 0.0, "lat": 38.8556505, "bike_id": "49bfee88984def89a894221ee7b41001", "type": "electric_bike", "is_reserved": 0, "lon": -77.11314183333333}, {"fusion_lat": 0.0, "name": "4263dfc7f8f23df0ad3a552f83927c70", "is_disabled": 0, "rental_uris": {"android": "https://dc.lft.to/lastmile_qr_scan", "ios": "https://dc.lft.to/lastmile_qr_scan"}, "fusion_lon": 0.0, "lat": 38.894566166666664, "bike_id": "4263dfc7f8f23df0ad3a552f83927c70", "type": "electric_scooter", "is_reserved": 0, "lon": -77.04546683333334}, {"fusion_lat": 0.0, "name": "1f8b863f3a2ddc1450ccc9ce1ad8ff07", "is_disabled": 0, "rental_uris": {"android": "https://dc.lft.to/lastmile_qr_scan", "ios": "https://dc.lft.to/lastmile_qr_scan"}, "fusion_lon": 0.0, "lat": 38.900866666666666, "bike_id": "1f8b863f3a2ddc1450ccc9ce1ad8ff07", "type": "electric_scooter", "is_reserved": 0, "lon": -77.027163}, {"fusion_lat": 0.0, "name": "d2d28bbf1d1675773cb6b58468576271", "is_disabled": 0, "rental_uris": {"android": "https://dc.lft.to/lastmile_qr_scan", "ios": "https://dc.lft.to/lastmile_qr_scan"}, "fusion_lon": 0.0, "lat": 38.897288833333334, "bike_id": "d2d28bbf1d1675773cb6b58468576271", "type": "electric_scooter", "is_reserved": 0, "lon": -76.94702416666667}, {"fusion_lat": 0.0, "name": "d2d9fc0620ed79ce73961f8fb6fbf7b1", "is_disabled": 0, "rental_uris": {"android": "https://dc.lft.to/lastmile_qr_scan", "ios": "https://dc.lft.to/lastmile_qr_scan"}, "fusion_lon": 0.0, "lat": 38.9084825, "bike_id": "d2d9fc0620ed79ce73961f8fb6fbf7b1", "type": "electric_scooter", "is_reserved": 0, "lon": -77.06414083333334}, {"fusion_lat": 0.0, "name": "943ac692f4f47e45a2e7028662e80e3c", "is_disabled": 0, "rental_uris": {"android": "https://dc.lft.to/lastmile_qr_scan", "ios": "https://dc.lft.to/lastmile_qr_scan"}, "fusion_lon": 0.0, "lat": 38.91307116666667, "bike_id": "943ac692f4f47e45a2e7028662e80e3c", "type": "electric_scooter", "is_reserved": 0, "lon": -77.04878816666667}, {"fusion_lat": 0.0, "name": "ed8e45d9a969889985766bc7d9f9e67c", "is_disabled": 0, "rental_uris": {"android": "https://dc.lft.to/lastmile_qr_scan", "ios": "https://dc.lft.to/lastmile_qr_scan"}, "fusion_lon": 0.0, "lat": 38.908189, "bike_id": "ed8e45d9a969889985766bc7d9f9e67c", "type": "electric_scooter", "is_reserved": 0, "lon": -77.04155}, {"fusion_lat": 0.0, "name": "3b24740fcb02d40fbe591dc7eb6406d5", "is_disabled": 0, "rental_uris": {"android": "https://dc.lft.to/lastmile_qr_scan", "ios": "https://dc.lft.to/lastmile_qr_scan"}, "fusion_lon": 0.0, "lat": 38.91085283333334, "bike_id": "3b24740fcb02d40fbe591dc7eb6406d5", "type": "electric_scooter", "is_reserved": 0, "lon": -77.06502516666667}, {"fusion_lat": 0.0, "name": "077f7580e706ea5795914a33f9be7554", "is_disabled": 0, "rental_uris": {"android": "https://dc.lft.to/lastmile_qr_scan", "ios": "https://dc.lft.to/lastmile_qr_scan"}, "fusion_lon": 0.0, "lat": 38.92039616666667, "bike_id": "077f7580e706ea5795914a33f9be7554", "type": "electric_scooter", "is_reserved": 0, "lon": -77.01733216666666}, {"fusion_lat": 0.0, "name": "d8369d4780375235d926b8910dc64fbd", "is_disabled": 0, "rental_uris": {"android": "https://dc.lft.to/lastmile_qr_scan", "ios": "https://dc.lft.to/lastmile_qr_scan"}, "fusion_lon": 0.0, "lat": 38.89285183333333, "bike_id": "d8369d4780375235d926b8910dc64fbd", "type": "electric_scooter", "is_reserved": 0, "lon": -76.98307233333334}, {"fusion_lat": 0.0, "name": "bcb973c395a8accd2c4ccd3db6246ae2", "is_disabled": 0, "rental_uris": {"android": "https://dc.lft.to/lastmile_qr_scan", "ios": "https://dc.lft.to/lastmile_qr_scan"}, "fusion_lon": 0.0, "lat": 38.804959333333336, "bike_id": "bcb973c395a8accd2c4ccd3db6246ae2", "type": "electric_bike", "is_reserved": 0, "lon": -77.10161016666666}, {"fusion_lat": 0.0, "name": "aa8cd73946cbfbc69d1dbf7f721b1a12", "is_disabled": 0, "rental_uris": {"android": "https://dc.lft.to/lastmile_qr_scan", "ios": "https://dc.lft.to/lastmile_qr_scan"}, "fusion_lon": 0.0, "lat": 38.937663, "bike_id": "aa8cd73946cbfbc69d1dbf7f721b1a12", "type": "electric_scooter", "is_reserved": 0, "lon": -77.03256766666667}, {"fusion_lat": 0.0, "name": "71ed6f848a671decfcddb9fc81505c5d", "is_disabled": 0, "rental_uris": {"android": "https://dc.lft.to/lastmile_qr_scan", "ios": "https://dc.lft.to/lastmile_qr_scan"}, "fusion_lon": 0.0, "lat": 38.92791366666667, "bike_id": "71ed6f848a671decfcddb9fc81505c5d", "type": "electric_scooter", "is_reserved": 0, "lon": -77.03213916666667}, {"fusion_lat": 0.0, "name": "77ef77813333e1eaeb2ed96fab989ec5", "is_disabled": 0, "rental_uris": {"android": "https://dc.lft.to/lastmile_qr_scan", "ios": "https://dc.lft.to/lastmile_qr_scan"}, "fusion_lon": 0.0, "lat": 38.87833216666667, "bike_id": "77ef77813333e1eaeb2ed96fab989ec5", "type": "electric_scooter", "is_reserved": 0, "lon": -76.9632125}, {"fusion_lat": 0.0, "name": "174064c12cf5c346a7a30677a7aaba20", "is_disabled": 0, "rental_uris": {"android": "https://dc.lft.to/lastmile_qr_scan", "ios": "https://dc.lft.to/lastmile_qr_scan"}, "fusion_lon": 0.0, "lat": 38.9255885, "bike_id": "174064c12cf5c346a7a30677a7aaba20", "type": "electric_scooter", "is_reserved": 0, "lon": -77.07765816666667}, {"fusion_lat": 0.0, "name": "2383fcebd3d82fbd254a2a909510afd6", "is_disabled": 0, "rental_uris": {"android": "https://dc.lft.to/lastmile_qr_scan", "ios": "https://dc.lft.to/lastmile_qr_scan"}, "fusion_lon": 0.0, "lat": 38.919360166666664, "bike_id": "2383fcebd3d82fbd254a2a909510afd6", "type": "electric_scooter", "is_reserved": 0, "lon": -77.07069583333333}, {"fusion_lat": 0.0, "name": "c1e41c6433e3b75f9e6c708e32162df8", "is_disabled": 0, "rental_uris": {"android": "https://dc.lft.to/lastmile_qr_scan", "ios": "https://dc.lft.to/lastmile_qr_scan"}, "fusion_lon": 0.0, "lat": 38.90807916666667, "bike_id": "c1e41c6433e3b75f9e6c708e32162df8", "type": "electric_scooter", "is_reserved": 0, "lon": -77.0433085}, {"fusion_lat": 0.0, "name": "e00129ff7100b89beffb5a04dc675b9a", "is_disabled": 0, "rental_uris": {"android": "https://dc.lft.to/lastmile_qr_scan", "ios": "https://dc.lft.to/lastmile_qr_scan"}, "fusion_lon": 0.0, "lat": 38.9108525, "bike_id": "e00129ff7100b89beffb5a04dc675b9a", "type": "electric_scooter", "is_reserved": 0, "lon": -77.06501366666667}, {"fusion_lat": 0.0, "name": "54691dd57fe4e32e9c34b6b301822f45", "is_disabled": 0, "rental_uris": {"android": "https://dc.lft.to/lastmile_qr_scan", "ios": "https://dc.lft.to/lastmile_qr_scan"}, "fusion_lon": 0.0, "lat": 38.92361866666667, "bike_id": "54691dd57fe4e32e9c34b6b301822f45", "type": "electric_scooter", "is_reserved": 0, "lon": -77.04381783333334}, {"fusion_lat": 0.0, "name": "b6e2dbefb13e2183e490af1156044436", "is_disabled": 0, "rental_uris": {"android": "https://dc.lft.to/lastmile_qr_scan", "ios": "https://dc.lft.to/lastmile_qr_scan"}, "fusion_lon": 0.0, "lat": 38.8963275, "bike_id": "b6e2dbefb13e2183e490af1156044436", "type": "electric_scooter", "is_reserved": 0, "lon": -77.04014733333334}, {"fusion_lat": 0.0, "name": "a2cb205e7dd364bbbc1d80465363ccf6", "is_disabled": 0, "rental_uris": {"android": "https://dc.lft.to/lastmile_qr_scan", "ios": "https://dc.lft.to/lastmile_qr_scan"}, "fusion_lon": 0.0, "lat": 38.843032666666666, "bike_id": "a2cb205e7dd364bbbc1d80465363ccf6", "type": "electric_bike", "is_reserved": 0, "lon": -77.10862433333334}, {"fusion_lat": 0.0, "name": "41ad5be917eb83f1986fa9d09ebe7b28", "is_disabled": 0, "rental_uris": {"android": "https://dc.lft.to/lastmile_qr_scan", "ios": "https://dc.lft.to/lastmile_qr_scan"}, "fusion_lon": 0.0, "lat": 38.9109245, "bike_id": "41ad5be917eb83f1986fa9d09ebe7b28", "type": "electric_bike", "is_reserved": 0, "lon": -76.9847675}, {"fusion_lat": 0.0, "name": "a0e7bc329f194dfd124cf9bc2d2d190e", "is_disabled": 0, "rental_uris": {"android": "https://dc.lft.to/lastmile_qr_scan", "ios": "https://dc.lft.to/lastmile_qr_scan"}, "fusion_lon": 0.0, "lat": 38.909563, "bike_id": "a0e7bc329f194dfd124cf9bc2d2d190e", "type": "electric_scooter", "is_reserved": 0, "lon": -76.98540066666666}, {"fusion_lat": 0.0, "name": "63c00e282af9dd0a8d0c4fd08353b318", "is_disabled": 0, "rental_uris": {"android": "https://dc.lft.to/lastmile_qr_scan", "ios": "https://dc.lft.to/lastmile_qr_scan"}, "fusion_lon": 0.0, "lat": 38.90209483333334, "bike_id": "63c00e282af9dd0a8d0c4fd08353b318", "type": "electric_scooter", "is_reserved": 0, "lon": -77.06119766666667}, {"fusion_lat": 0.0, "name": "66df30dfe2d21fefcc61ff08978ea24a", "is_disabled": 0, "rental_uris": {"android": "https://dc.lft.to/lastmile_qr_scan", "ios": "https://dc.lft.to/lastmile_qr_scan"}, "fusion_lon": 0.0, "lat": 38.916222166666664, "bike_id": "66df30dfe2d21fefcc61ff08978ea24a", "type": "electric_scooter", "is_reserved": 0, "lon": -77.0385235}, {"fusion_lat": 0.0, "name": "ef668fad4282a19ef234236cfe8fdb0c", "is_disabled": 0, "rental_uris": {"android": "https://dc.lft.to/lastmile_qr_scan", "ios": "https://dc.lft.to/lastmile_qr_scan"}, "fusion_lon": 0.0, "lat": 38.892298833333335, "bike_id": "ef668fad4282a19ef234236cfe8fdb0c", "type": "electric_scooter", "is_reserved": 0, "lon": -77.0317495}, {"fusion_lat": 0.0, "name": "fe51ce0f5590b8fb53e364ea3c7950d2", "is_disabled": 0, "rental_uris": {"android": "https://dc.lft.to/lastmile_qr_scan", "ios": "https://dc.lft.to/lastmile_qr_scan"}, "fusion_lon": 0.0, "lat": 38.874689833333335, "bike_id": "fe51ce0f5590b8fb53e364ea3c7950d2", "type": "electric_scooter", "is_reserved": 0, "lon": -77.01897066666666}, {"fusion_lat": 0.0, "name": "eaddc5d4d78f152748700a771594bbcb", "is_disabled": 0, "rental_uris": {"android": "https://dc.lft.to/lastmile_qr_scan", "ios": "https://dc.lft.to/lastmile_qr_scan"}, "fusion_lon": 0.0, "lat": 38.88767883333333, "bike_id": "eaddc5d4d78f152748700a771594bbcb", "type": "electric_scooter", "is_reserved": 0, "lon": -76.97751933333333}, {"fusion_lat": 0.0, "name": "e8b7e80754d718a77795954845936601", "is_disabled": 0, "rental_uris": {"android": "https://dc.lft.to/lastmile_qr_scan", "ios": "https://dc.lft.to/lastmile_qr_scan"}, "fusion_lon": 0.0, "lat": 38.91010433333334, "bike_id": "e8b7e80754d718a77795954845936601", "type": "electric_scooter", "is_reserved": 0, "lon": -77.00706816666667}, {"fusion_lat": 0.0, "name": "b6f5a2357453d222c3a6bb75112bab6c", "is_disabled": 0, "rental_uris": {"android": "https://dc.lft.to/lastmile_qr_scan", "ios": "https://dc.lft.to/lastmile_qr_scan"}, "fusion_lon": 0.0, "lat": 38.899115333333334, "bike_id": "b6f5a2357453d222c3a6bb75112bab6c", "type": "electric_scooter", "is_reserved": 0, "lon": -76.94548183333333}, {"fusion_lat": 0.0, "name": "8c3d8b18d2486bfbcc49e73b22215f80", "is_disabled": 0, "rental_uris": {"android": "https://dc.lft.to/lastmile_qr_scan", "ios": "https://dc.lft.to/lastmile_qr_scan"}, "fusion_lon": 0.0, "lat": 38.82457566666667, "bike_id": "8c3d8b18d2486bfbcc49e73b22215f80", "type": "electric_bike", "is_reserved": 0, "lon": -77.00789583333334}, {"fusion_lat": 0.0, "name": "594f481d7047ce8fe45ab3f736784e4d", "is_disabled": 0, "rental_uris": {"android": "https://dc.lft.to/lastmile_qr_scan", "ios": "https://dc.lft.to/lastmile_qr_scan"}, "fusion_lon": 0.0, "lat": 38.848375833333336, "bike_id": "594f481d7047ce8fe45ab3f736784e4d", "type": "electric_bike", "is_reserved": 0, "lon": -77.07922633333334}, {"fusion_lat": 0.0, "name": "7208a54097a735e9e77b77f054d336d4", "is_disabled": 0, "rental_uris": {"android": "https://dc.lft.to/lastmile_qr_scan", "ios": "https://dc.lft.to/lastmile_qr_scan"}, "fusion_lon": 0.0, "lat": 38.937053166666665, "bike_id": "7208a54097a735e9e77b77f054d336d4", "type": "electric_scooter", "is_reserved": 0, "lon": -77.0610085}, {"fusion_lat": 0.0, "name": "237885d3b46e3f4e8002860d0da506d5", "is_disabled": 0, "rental_uris": {"android": "https://dc.lft.to/lastmile_qr_scan", "ios": "https://dc.lft.to/lastmile_qr_scan"}, "fusion_lon": 0.0, "lat": 38.90530483333333, "bike_id": "237885d3b46e3f4e8002860d0da506d5", "type": "electric_scooter", "is_reserved": 0, "lon": -77.05681083333333}, {"fusion_lat": 0.0, "name": "11e14ca6648fb8a1b92ffe5b193e24a3", "is_disabled": 0, "rental_uris": {"android": "https://dc.lft.to/lastmile_qr_scan", "ios": "https://dc.lft.to/lastmile_qr_scan"}, "fusion_lon": 0.0, "lat": 38.89224433333333, "bike_id": "11e14ca6648fb8a1b92ffe5b193e24a3", "type": "electric_scooter", "is_reserved": 0, "lon": -77.04806533333333}, {"fusion_lat": 0.0, "name": "cea986852ea871b64123d8e6d55db87c", "is_disabled": 0, "rental_uris": {"android": "https://dc.lft.to/lastmile_qr_scan", "ios": "https://dc.lft.to/lastmile_qr_scan"}, "fusion_lon": 0.0, "lat": 38.907678833333335, "bike_id": "cea986852ea871b64123d8e6d55db87c", "type": "electric_scooter", "is_reserved": 0, "lon": -77.034696}, {"fusion_lat": 0.0, "name": "6dec324fabd2c3120eb46113a34ff293", "is_disabled": 0, "rental_uris": {"android": "https://dc.lft.to/lastmile_qr_scan", "ios": "https://dc.lft.to/lastmile_qr_scan"}, "fusion_lon": 0.0, "lat": 38.9197125, "bike_id": "6dec324fabd2c3120eb46113a34ff293", "type": "electric_scooter", "is_reserved": 0, "lon": -77.07097016666667}, {"fusion_lat": 0.0, "name": "cb6256239b7e6ac187af16808e8b92fd", "is_disabled": 0, "rental_uris": {"android": "https://dc.lft.to/lastmile_qr_scan", "ios": "https://dc.lft.to/lastmile_qr_scan"}, "fusion_lon": 0.0, "lat": 38.916569333333335, "bike_id": "cb6256239b7e6ac187af16808e8b92fd", "type": "electric_scooter", "is_reserved": 0, "lon": -77.02808483333334}, {"fusion_lat": 0.0, "name": "df966bb6b963564f12bc7707b6bd26b8", "is_disabled": 0, "rental_uris": {"android": "https://dc.lft.to/lastmile_qr_scan", "ios": "https://dc.lft.to/lastmile_qr_scan"}, "fusion_lon": 0.0, "lat": 38.89229816666667, "bike_id": "df966bb6b963564f12bc7707b6bd26b8", "type": "electric_scooter", "is_reserved": 0, "lon": -77.05012466666666}, {"fusion_lat": 0.0, "name": "8084aadb7726dcb4b80181305d888467", "is_disabled": 0, "rental_uris": {"android": "https://dc.lft.to/lastmile_qr_scan", "ios": "https://dc.lft.to/lastmile_qr_scan"}, "fusion_lon": 0.0, "lat": 38.8740555, "bike_id": "8084aadb7726dcb4b80181305d888467", "type": "electric_scooter", "is_reserved": 0, "lon": -77.0006805}, {"fusion_lat": 0.0, "name": "3dd0131b0c2279651ea3c7dfb54a4183", "is_disabled": 0, "rental_uris": {"android": "https://dc.lft.to/lastmile_qr_scan", "ios": "https://dc.lft.to/lastmile_qr_scan"}, "fusion_lon": 0.0, "lat": 38.901972, "bike_id": "3dd0131b0c2279651ea3c7dfb54a4183", "type": "electric_scooter", "is_reserved": 0, "lon": -76.9785885}, {"fusion_lat": 0.0, "name": "29b982dcf822ecce29d7582924872695", "is_disabled": 0, "rental_uris": {"android": "https://dc.lft.to/lastmile_qr_scan", "ios": "https://dc.lft.to/lastmile_qr_scan"}, "fusion_lon": 0.0, "lat": 38.91631616666667, "bike_id": "29b982dcf822ecce29d7582924872695", "type": "electric_scooter", "is_reserved": 0, "lon": -77.031472}, {"fusion_lat": 0.0, "name": "b0607dab5793d2ec5ad5829471fe2d6e", "is_disabled": 0, "rental_uris": {"android": "https://dc.lft.to/lastmile_qr_scan", "ios": "https://dc.lft.to/lastmile_qr_scan"}, "fusion_lon": 0.0, "lat": 38.9233095, "bike_id": "b0607dab5793d2ec5ad5829471fe2d6e", "type": "electric_scooter", "is_reserved": 0, "lon": -77.038204}, {"fusion_lat": 0.0, "name": "6e87fd04bd2a2c1b361037073f050ab4", "is_disabled": 0, "rental_uris": {"android": "https://dc.lft.to/lastmile_qr_scan", "ios": "https://dc.lft.to/lastmile_qr_scan"}, "fusion_lon": 0.0, "lat": 38.8864485, "bike_id": "6e87fd04bd2a2c1b361037073f050ab4", "type": "electric_scooter", "is_reserved": 0, "lon": -77.0195555}, {"fusion_lat": 0.0, "name": "6ef0583bda3f1fab773f4f819daad000", "is_disabled": 0, "rental_uris": {"android": "https://dc.lft.to/lastmile_qr_scan", "ios": "https://dc.lft.to/lastmile_qr_scan"}, "fusion_lon": 0.0, "lat": 38.9027065, "bike_id": "6ef0583bda3f1fab773f4f819daad000", "type": "electric_scooter", "is_reserved": 0, "lon": -77.02748916666667}, {"fusion_lat": 0.0, "name": "dfbbb25467460f37098786b93345514c", "is_disabled": 0, "rental_uris": {"android": "https://dc.lft.to/lastmile_qr_scan", "ios": "https://dc.lft.to/lastmile_qr_scan"}, "fusion_lon": 0.0, "lat": 38.92879533333333, "bike_id": "dfbbb25467460f37098786b93345514c", "type": "electric_scooter", "is_reserved": 0, "lon": -77.01359433333333}, {"fusion_lat": 0.0, "name": "659266b855a698f5cf2d5c22f58b33c5", "is_disabled": 0, "rental_uris": {"android": "https://dc.lft.to/lastmile_qr_scan", "ios": "https://dc.lft.to/lastmile_qr_scan"}, "fusion_lon": 0.0, "lat": 38.93319916666667, "bike_id": "659266b855a698f5cf2d5c22f58b33c5", "type": "electric_scooter", "is_reserved": 0, "lon": -77.0274305}, {"fusion_lat": 0.0, "name": "a81838a47179cf4a2f81d9d18b725ff5", "is_disabled": 0, "rental_uris": {"android": "https://dc.lft.to/lastmile_qr_scan", "ios": "https://dc.lft.to/lastmile_qr_scan"}, "fusion_lon": 0.0, "lat": 38.8875945, "bike_id": "a81838a47179cf4a2f81d9d18b725ff5", "type": "electric_scooter", "is_reserved": 0, "lon": -76.99782383333333}, {"fusion_lat": 0.0, "name": "a1634c9a992a00bb03f738d0decb1e66", "is_disabled": 0, "rental_uris": {"android": "https://dc.lft.to/lastmile_qr_scan", "ios": "https://dc.lft.to/lastmile_qr_scan"}, "fusion_lon": 0.0, "lat": 38.89223783333333, "bike_id": "a1634c9a992a00bb03f738d0decb1e66", "type": "electric_scooter", "is_reserved": 0, "lon": -77.03213883333333}, {"fusion_lat": 0.0, "name": "d410db78fdc3243f3a4ea91b613df0bb", "is_disabled": 0, "rental_uris": {"android": "https://dc.lft.to/lastmile_qr_scan", "ios": "https://dc.lft.to/lastmile_qr_scan"}, "fusion_lon": 0.0, "lat": 38.90004016666666, "bike_id": "d410db78fdc3243f3a4ea91b613df0bb", "type": "electric_scooter", "is_reserved": 0, "lon": -77.0318495}, {"fusion_lat": 0.0, "name": "e3cab4b2ab17b01aca00e99a6099fb93", "is_disabled": 0, "rental_uris": {"android": "https://dc.lft.to/lastmile_qr_scan", "ios": "https://dc.lft.to/lastmile_qr_scan"}, "fusion_lon": 0.0, "lat": 38.936339333333336, "bike_id": "e3cab4b2ab17b01aca00e99a6099fb93", "type": "electric_scooter", "is_reserved": 0, "lon": -77.07308033333334}, {"fusion_lat": 0.0, "name": "c90ddcfd35cd87cbf1eb0f286e882d91", "is_disabled": 0, "rental_uris": {"android": "https://dc.lft.to/lastmile_qr_scan", "ios": "https://dc.lft.to/lastmile_qr_scan"},