{"data": {"bikes": [{"is_reserved": 0, "type": "electric_scooter", "fusion_lat": 0.0, "is_disabled": 0, "rental_uris": {"ios": "https://dc.lft.to/lastmile_qr_scan", "android": "https://dc.lft.to/lastmile_qr_scan"}, "bike_id": "e49800d3672f0e616ff5ac0db84e085c", "lat": 38.924775833333335, "name": "e49800d3672f0e616ff5ac0db84e085c", "lon": -77.02550383333333, "fusion_lon": 0.0}, {"is_reserved": 0, "type": "electric_scooter", "fusion_lat": 0.0, "is_disabled": 0, "rental_uris": {"ios": "https://dc.lft.to/lastmile_qr_scan", "android": "https://dc.lft.to/lastmile_qr_scan"}, "bike_id": "d16e6189f94dd98544c3f1fadd3d6107", "lat": 38.91967566666667, "name": "d16e6189f94dd98544c3f1fadd3d6107", "lon": -77.0710435, "fusion_lon": 0.0}, {"is_reserved": 0, "type": "electric_scooter", "fusion_lat": 0.0, "is_disabled": 0, "rental_uris": {"ios": "https://dc.lft.to/lastmile_qr_scan", "android": "https://dc.lft.to/lastmile_qr_scan"}, "bike_id": "aa88475ff82adad44bcbc1db7075f8ef", "lat": 38.92821683333333, "name": "aa88475ff82adad44bcbc1db7075f8ef", "lon": -77.0215455, "fusion_lon": 0.0}, {"is_reserved": 0, "type": "electric_scooter", "fusion_lat": 0.0, "is_disabled": 0, "rental_uris": {"ios": "https://dc.lft.to/lastmile_qr_scan", "android": "https://dc.lft.to/lastmile_qr_scan"}, "bike_id": "b64054872ce33e8a2d2346b4edf579ce", "lat": 38.9126035, "name": "b64054872ce33e8a2d2346b4edf579ce", "lon": -77.0387765, "fusion_lon": 0.0}, {"is_reserved": 0, "type": "electric_scooter", "fusion_lat": 0.0, "is_disabled": 0, "rental_uris": {"ios": "https://dc.lft.to/lastmile_qr_scan", "android": "https://dc.lft.to/lastmile_qr_scan"}, "bike_id": "21b440f5dfabc76a21faf0806b7ee355", "lat": 38.915969, "name": "21b440f5dfabc76a21faf0806b7ee355", "lon": -76.98388566666667, "fusion_lon": 0.0}, {"is_reserved": 0, "type": "electric_scooter", "fusion_lat": 0.0, "is_disabled": 0, "rental_uris": {"ios": "https://dc.lft.to/lastmile_qr_scan", "android": "https://dc.lft.to/lastmile_qr_scan"}, "bike_id": "404c4a79c5f05816d6fefe2a17436235", "lat": 38.93979266666667, "name": "404c4a79c5f05816d6fefe2a17436235", "lon": -77.02875666666667, "fusion_lon": 0.0}, {"is_reserved": 0, "type": "electric_bike", "fusion_lat": 0.0, "is_disabled": 0, "rental_uris": {"ios": "https://dc.lft.to/lastmile_qr_scan", "android": "https://dc.lft.to/lastmile_qr_scan"}, "bike_id": "3ea6e24badcc6d6ca6697190b778eefb", "lat": 38.88275183333333, "name": "3ea6e24badcc6d6ca6697190b778eefb", "lon": -76.932379, "fusion_lon": 0.0}, {"is_reserved": 0, "type": "electric_scooter", "fusion_lat": 0.0, "is_disabled": 0, "rental_uris": {"ios": "https://dc.lft.to/lastmile_qr_scan", "android": "https://dc.lft.to/lastmile_qr_scan"}, "bike_id": "ef4a6e875c1efbb9322d670447226322", "lat": 38.894660333333334, "name": "ef4a6e875c1efbb9322d670447226322", "lon": -77.02733983333333, "fusion_lon": 0.0}, {"is_reserved": 0, "type": "electric_scooter", "fusion_lat": 0.0, "is_disabled": 0, "rental_uris": {"ios": "https://dc.lft.to/lastmile_qr_scan", "android": "https://dc.lft.to/lastmile_qr_scan"}, "bike_id": "b139b85d4655c7f1cec4b91c945afc81", "lat": 38.892259833333334, "name": "b139b85d4655c7f1cec4b91c945afc81", "lon": -77.04484616666667, "fusion_lon": 0.0}, {"is_reserved": 0, "type": "electric_scooter", "fusion_lat": 0.0, "is_disabled": 0, "rental_uris": {"ios": "https://dc.lft.to/lastmile_qr_scan", "android": "https://dc.lft.to/lastmile_qr_scan"}, "bike_id": "34436f040755a1002c333c77d378d541", "lat": 38.911219833333334, "name": "34436f040755a1002c333c77d378d541", "lon": -77.00490433333333, "fusion_lon": 0.0}, {"is_reserved": 0, "type": "electric_scooter", "fusion_lat": 0.0, "is_disabled": 0, "rental_uris": {"ios": "https://dc.lft.to/lastmile_qr_scan", "android": "https://dc.lft.to/lastmile_qr_scan"}, "bike_id": "26bf04a7558456eace476f6d635b8584", "lat": 38.92036266666667, "name": "26bf04a7558456eace476f6d635b8584", "lon": -77.04177083333333, "fusion_lon": 0.0}, {"is_reserved": 0, "type": "electric_scooter", "fusion_lat": 0.0, "is_disabled": 0, "rental_uris": {"ios": "https://dc.lft.to/lastmile_qr_scan", "android": "https://dc.lft.to/lastmile_qr_scan"}, "bike_id": "35d89c619046255bbc4af8e2b86a89d6", "lat": 38.924101, "name": "35d89c619046255bbc4af8e2b86a89d6", "lon": -77.02980666666667, "fusion_lon": 0.0}, {"is_reserved": 0, "type": "electric_scooter", "fusion_lat": 0.0, "is_disabled": 0, "rental_uris": {"ios": "https://dc.lft.to/lastmile_qr_scan", "android": "https://dc.lft.to/lastmile_qr_scan"}, "bike_id": "0810204da37ccac8cbaa191061b2c2f2", "lat": 38.9096055, "name": "0810204da37ccac8cbaa191061b2c2f2", "lon": -77.023787, "fusion_lon": 0.0}, {"is_reserved": 0, "type": "electric_scooter", "fusion_lat": 0.0, "is_disabled": 0, "rental_uris": {"ios": "https://dc.lft.to/lastmile_qr_scan", "android": "https://dc.lft.to/lastmile_qr_scan"}, "bike_id": "1f2f73be02bcb24eba415a9b175cc12b", "lat": 38.92067016666667, "name": "1f2f73be02bcb24eba415a9b175cc12b", "lon": -77.02826783333333, "fusion_lon": 0.0}, {"is_reserved": 0, "type": "electric_scooter", "fusion_lat": 0.0, "is_disabled": 0, "rental_uris": {"ios": "https://dc.lft.to/lastmile_qr_scan", "android": "https://dc.lft.to/lastmile_qr_scan"}, "bike_id": "4485d4fd0c81eb5b6fb4030dd8154ee5", "lat": 38.90470066666666, "name": "4485d4fd0c81eb5b6fb4030dd8154ee5", "lon": -77.016921, "fusion_lon": 0.0}, {"is_reserved": 0, "type": "electric_scooter", "fusion_lat": 0.0, "is_disabled": 0, "rental_uris": {"ios": "https://dc.lft.to/lastmile_qr_scan", "android": "https://dc.lft.to/lastmile_qr_scan"}, "bike_id": "d94d479e97c07fde8745b769439f3f2a", "lat": 38.90299266666667, "name": "d94d479e97c07fde8745b769439f3f2a", "lon": -77.017144, "fusion_lon": 0.0}, {"is_reserved": 0, "type": "electric_scooter", "fusion_lat": 0.0, "is_disabled": 0, "rental_uris": {"ios": "https://dc.lft.to/lastmile_qr_scan", "android": "https://dc.lft.to/lastmile_qr_scan"}, "bike_id": "e5ac9fc16ad3946656c1741be2d150a3", "lat": 38.93780733333333, "name": "e5ac9fc16ad3946656c1741be2d150a3", "lon": -76.99369, "fusion_lon": 0.0}, {"is_reserved": 0, "type": "electric_scooter", "fusion_lat": 0.0, "is_disabled": 0, "rental_uris": {"ios": "https://dc.lft.to/lastmile_qr_scan", "android": "https://dc.lft.to/lastmile_qr_scan"}, "bike_id": "50f109ead9ea517adc8334b24652ca40", "lat": 38.8967655, "name": "50f109ead9ea517adc8334b24652ca40", "lon": -77.01205816666666, "fusion_lon": 0.0}, {"is_reserved": 0, "type": "electric_scooter", "fusion_lat": 0.0, "is_disabled": 0, "rental_uris": {"ios": "https://dc.lft.to/lastmile_qr_scan", "android": "https://dc.lft.to/lastmile_qr_scan"}, "bike_id": "602e0e8b693a801086497246caca5c9c", "lat": 38.91189516666667, "name": "602e0e8b693a801086497246caca5c9c", "lon": -77.00195583333333, "fusion_lon": 0.0}, {"is_reserved": 0, "type": "electric_scooter", "fusion_lat": 0.0, "is_disabled": 0, "rental_uris": {"ios": "https://dc.lft.to/lastmile_qr_scan", "android": "https://dc.lft.to/lastmile_qr_scan"}, "bike_id": "5f2a92af3e7ae45f9759753b4eafc4c9", "lat": 38.882681833333336, "name": "5f2a92af3e7ae45f9759753b4eafc4c9", "lon": -76.99518966666666, "fusion_lon": 0.0}, {"is_reserved": 0, "type": "electric_scooter", "fusion_lat": 0.0, "is_disabled": 0, "rental_uris": {"ios": "https://dc.lft.to/lastmile_qr_scan", "android": "https://dc.lft.to/lastmile_qr_scan"}, "bike_id": "601e466d4f808e87108ba637cacedcae", "lat": 38.903327833333336, "name": "601e466d4f808e87108ba637cacedcae", "lon": -76.97589033333334, "fusion_lon": 0.0}, {"is_reserved": 0, "type": "electric_scooter", "fusion_lat": 0.0, "is_disabled": 0, "rental_uris": {"ios": "https://dc.lft.to/lastmile_qr_scan", "android": "https://dc.lft.to/lastmile_qr_scan"}, "bike_id": "29b752f7a4807179085e5bba01aa4423", "lat": 38.92383616666667, "name": "29b752f7a4807179085e5bba01aa4423", "lon": -77.051802, "fusion_lon": 0.0}, {"is_reserved": 0, "type": "electric_scooter", "fusion_lat": 0.0, "is_disabled": 0, "rental_uris": {"ios": "https://dc.lft.to/lastmile_qr_scan", "android": "https://dc.lft.to/lastmile_qr_scan"}, "bike_id": "7b8dd6520d2ef64f43b1d25dfc81815a", "lat": 38.887268, "name": "7b8dd6520d2ef64f43b1d25dfc81815a", "lon": -76.98375183333333, "fusion_lon": 0.0}, {"is_reserved": 0, "type": "electric_scooter", "fusion_lat": 0.0, "is_disabled": 0, "rental_uris": {"ios": "https://dc.lft.to/lastmile_qr_scan", "android": "https://dc.lft.to/lastmile_qr_scan"}, "bike_id": "a6d113b920652834e92bd939de56138a", "lat": 38.89954766666666, "name": "a6d113b920652834e92bd939de56138a", "lon": -77.04750933333334, "fusion_lon": 0.0}, {"is_reserved": 0, "type": "electric_scooter", "fusion_lat": 0.0, "is_disabled": 0, "rental_uris": {"ios": "https://dc.lft.to/lastmile_qr_scan", "android": "https://dc.lft.to/lastmile_qr_scan"}, "bike_id": "31b46fc1a34b9f54bbf6f6968467766b", "lat": 38.9562615, "name": "31b46fc1a34b9f54bbf6f6968467766b", "lon": -77.02237633333333, "fusion_lon": 0.0}, {"is_reserved": 0, "type": "electric_scooter", "fusion_lat": 0.0, "is_disabled": 0, "rental_uris": {"ios": "https://dc.lft.to/lastmile_qr_scan", "android": "https://dc.lft.to/lastmile_qr_scan"}, "bike_id": "68b6884606d92c0853ced13cd7a5abb4", "lat": 38.91819066666667, "name": "68b6884606d92c0853ced13cd7a5abb4", "lon": -77.03337216666667, "fusion_lon": 0.0}, {"is_reserved": 0, "type": "electric_scooter", "fusion_lat": 0.0, "is_disabled": 0, "rental_uris": {"ios": "https://dc.lft.to/lastmile_qr_scan", "android": "https://dc.lft.to/lastmile_qr_scan"}, "bike_id": "e26d84ff992f21d98372f2c3810e4889", "lat": 38.90791516666667, "name": "e26d84ff992f21d98372f2c3810e4889", "lon": -77.00963883333333, "fusion_lon": 0.0}, {"is_reserved": 0, "type": "electric_scooter", "fusion_lat": 0.0, "is_disabled": 0, "rental_uris": {"ios": "https://dc.lft.to/lastmile_qr_scan", "android": "https://dc.lft.to/lastmile_qr_scan"}, "bike_id": "6a2530caff9f8fc940cad0618d04f934", "lat": 38.909362, "name": "6a2530caff9f8fc940cad0618d04f934", "lon": -76.999118, "fusion_lon": 0.0}, {"is_reserved": 0, "type": "electric_scooter", "fusion_lat": 0.0, "is_disabled": 0, "rental_uris": {"ios": "https://dc.lft.to/lastmile_qr_scan", "android": "https://dc.lft.to/lastmile_qr_scan"}, "bike_id": "ccf3ee72289ce770a0effac6f326300e", "lat": 38.921850166666665, "name": "ccf3ee72289ce770a0effac6f326300e", "lon": -77.02087733333333, "fusion_lon": 0.0}, {"is_reserved": 0, "type": "electric_scooter", "fusion_lat": 0.0, "is_disabled": 0, "rental_uris": {"ios": "https://dc.lft.to/lastmile_qr_scan", "android": "https://dc.lft.to/lastmile_qr_scan"}, "bike_id": "2ee1078f376de01833f2ecfa7af65e85", "lat": 38.8793705, "name": "2ee1078f376de01833f2ecfa7af65e85", "lon": -77.0060645, "fusion_lon": 0.0}, {"is_reserved": 0, "type": "electric_scooter", "fusion_lat": 0.0, "is_disabled": 0, "rental_uris": {"ios": "https://dc.lft.to/lastmile_qr_scan", "android": "https://dc.lft.to/lastmile_qr_scan"}, "bike_id": "08409aef42ab99558b22865a09428cec", "lat": 38.934185166666666, "name": "08409aef42ab99558b22865a09428cec", "lon": -77.03288483333333, "fusion_lon": 0.0}, {"is_reserved": 0, "type": "electric_scooter", "fusion_lat": 0.0, "is_disabled": 0, "rental_uris": {"ios": "https://dc.lft.to/lastmile_qr_scan", "android": "https://dc.lft.to/lastmile_qr_scan"}, "bike_id": "b713087a3cee02cccc75ba635713ee4c", "lat": 38.878398833333335, "name": "b713087a3cee02cccc75ba635713ee4c", "lon": -77.0087065, "fusion_lon": 0.0}, {"is_reserved": 0, "type": "electric_bike", "fusion_lat": 0.0, "is_disabled": 0, "rental_uris": {"ios": "https://dc.lft.to/lastmile_qr_scan", "android": "https://dc.lft.to/lastmile_qr_scan"}, "bike_id": "fb0df1ceebf337314b0e7c18dd644759", "lat": 39.00531866666667, "name": "fb0df1ceebf337314b0e7c18dd644759", "lon": -77.10401716666667, "fusion_lon": 0.0}, {"is_reserved": 0, "type": "electric_scooter", "fusion_lat": 0.0, "is_disabled": 0, "rental_uris": {"ios": "https://dc.lft.to/lastmile_qr_scan", "android": "https://dc.lft.to/lastmile_qr_scan"}, "bike_id": "4a7fc18693e4193ea3058adabf3d492f", "lat": 38.8852695, "name": "4a7fc18693e4193ea3058adabf3d492f", "lon": -76.996157, "fusion_lon": 0.0}, {"is_reserved": 0, "type": "electric_scooter", "fusion_lat": 0.0, "is_disabled": 0, "rental_uris": {"ios": "https://dc.lft.to/lastmile_qr_scan", "android": "https://dc.lft.to/lastmile_qr_scan"}, "bike_id": "f7f75eff79e2534a0c3d6683147bff48", "lat": 38.90569216666667, "name": "f7f75eff79e2534a0c3d6683147bff48", "lon": -77.031182, "fusion_lon": 0.0}, {"is_reserved": 0, "type": "electric_bike", "fusion_lat": 0.0, "is_disabled": 0, "rental_uris": {"ios": "https://dc.lft.to/lastmile_qr_scan", "android": "https://dc.lft.to/lastmile_qr_scan"}, "bike_id": "3ff2d057ef9f905c82d189b4015c208c", "lat": 38.86509616666667, "name": "3ff2d057ef9f905c82d189b4015c208c", "lon": -76.9733515, "fusion_lon": 0.0}, {"is_reserved": 0, "type": "electric_scooter", "fusion_lat": 0.0, "is_disabled": 0, "rental_uris": {"ios": "https://dc.lft.to/lastmile_qr_scan", "android": "https://dc.lft.to/lastmile_qr_scan"}, "bike_id": "bf7761c529596328f58cdd86f984205e", "lat": 38.929708166666664, "name": "bf7761c529596328f58cdd86f984205e", "lon": -77.023465, "fusion_lon": 0.0}, {"is_reserved": 0, "type": "electric_scooter", "fusion_lat": 0.0, "is_disabled": 0, "rental_uris": {"ios": "https://dc.lft.to/lastmile_qr_scan", "android": "https://dc.lft.to/lastmile_qr_scan"}, "bike_id": "3bd29774692683c49b3e935416769b1f", "lat": 38.91473966666667, "name": "3bd29774692683c49b3e935416769b1f", "lon": -77.00915083333334, "fusion_lon": 0.0}, {"is_reserved": 0, "type": "electric_scooter", "fusion_lat": 0.0, "is_disabled": 0, "rental_uris": {"ios": "https://dc.lft.to/lastmile_qr_scan", "android": "https://dc.lft.to/lastmile_qr_scan"}, "bike_id": "526590b259926b08e97ee9aea2260dc3", "lat": 38.898538, "name": "526590b259926b08e97ee9aea2260dc3", "lon": -76.99487766666667, "fusion_lon": 0.0}, {"is_reserved": 0, "type": "electric_scooter", "fusion_lat": 0.0, "is_disabled": 0, "rental_uris": {"ios": "https://dc.lft.to/lastmile_qr_scan", "android": "https://dc.lft.to/lastmile_qr_scan"}, "bike_id": "1f6311befbbfddb89cca85d097cf3be9", "lat": 38.897616166666666, "name": "1f6311befbbfddb89cca85d097cf3be9", "lon": -77.01201933333333, "fusion_lon": 0.0}, {"is_reserved": 0, "type": "electric_scooter", "fusion_lat": 0.0, "is_disabled": 0, "rental_uris": {"ios": "https://dc.lft.to/lastmile_qr_scan", "android": "https://dc.lft.to/lastmile_qr_scan"}, "bike_id": "13777ad304d66e7ba968a4edb31d53e1", "lat": 38.91458316666667, "name": "13777ad304d66e7ba968a4edb31d53e1", "lon": -77.02288233333333, "fusion_lon": 0.0}, {"is_reserved": 0, "type": "electric_bike", "fusion_lat": 0.0, "is_disabled": 0, "rental_uris": {"ios": "https://dc.lft.to/lastmile_qr_scan", "android": "https://dc.lft.to/lastmile_qr_scan"}, "bike_id": "3bfbe2125100967deed9ed848df74482", "lat": 38.877379833333336, "name": "3bfbe2125100967deed9ed848df74482", "lon": -77.14870716666667, "fusion_lon": 0.0}, {"is_reserved": 0, "type": "electric_scooter", "fusion_lat": 0.0, "is_disabled": 0, "rental_uris": {"ios": "https://dc.lft.to/lastmile_qr_scan", "android": "https://dc.lft.to/lastmile_qr_scan"}, "bike_id": "80b74326b378f52d10e35bdbbfeee8a8", "lat": 38.91947583333334, "name": "80b74326b378f52d10e35bdbbfeee8a8", "lon": -77.02507433333334, "fusion_lon": 0.0}, {"is_reserved": 0, "type": "electric_scooter", "fusion_lat": 0.0, "is_disabled": 0, "rental_uris": {"ios": "https://dc.lft.to/lastmile_qr_scan", "android": "https://dc.lft.to/lastmile_qr_scan"}, "bike_id": "eb59d986c36c3a60b833a9444c1c7f27", "lat": 38.90755883333333, "name": "eb59d986c36c3a60b833a9444c1c7f27", "lon": -77.01698966666666, "fusion_lon": 0.0}, {"is_reserved": 0, "type": "electric_scooter", "fusion_lat": 0.0, "is_disabled": 0, "rental_uris": {"ios": "https://dc.lft.to/lastmile_qr_scan", "android": "https://dc.lft.to/lastmile_qr_scan"}, "bike_id": "242a6b28c14241d865460c8c55d7fd43", "lat": 38.90416883333333, "name": "242a6b28c14241d865460c8c55d7fd43", "lon": -76.9853025, "fusion_lon": 0.0}, {"is_reserved": 0, "type": "electric_scooter", "fusion_lat": 0.0, "is_disabled": 0, "rental_uris": {"ios": "https://dc.lft.to/lastmile_qr_scan", "android": "https://dc.lft.to/lastmile_qr_scan"}, "bike_id": "04829e37011307ca43fbfbcd05cc52f9", "lat": 38.899397, "name": "04829e37011307ca43fbfbcd05cc52f9", "lon": -77.014508, "fusion_lon": 0.0}, {"is_reserved": 0, "type": "electric_bike", "fusion_lat": 0.0, "is_disabled": 0, "rental_uris": {"ios": "https://dc.lft.to/lastmile_qr_scan", "android": "https://dc.lft.to/lastmile_qr_scan"}, "bike_id": "b81b7fd1039a147a96e864274596789f", "lat": 38.990973, "name": "b81b7fd1039a147a96e864274596789f", "lon": -76.9937365, "fusion_lon": 0.0}, {"is_reserved": 0, "type": "electric_scooter", "fusion_lat": 0.0, "is_disabled": 0, "rental_uris": {"ios": "https://dc.lft.to/lastmile_qr_scan", "android": "https://dc.lft.to/lastmile_qr_scan"}, "bike_id": "afd6108970d744e7e39b556cb06f74f7", "lat": 38.899741, "name": "afd6108970d744e7e39b556cb06f74f7", "lon": -77.04717883333333, "fusion_lon": 0.0}, {"is_reserved": 0, "type": "electric_scooter", "fusion_lat": 0.0, "is_disabled": 0, "rental_uris": {"ios": "https://dc.lft.to/lastmile_qr_scan", "android": "https://dc.lft.to/lastmile_qr_scan"}, "bike_id": "50883aab98b8e3713793021e64ce6325", "lat": 38.949744, "name": "50883aab98b8e3713793021e64ce6325", "lon": -77.02441833333333, "fusion_lon": 0.0}, {"is_reserved": 0, "type": "electric_bike", "fusion_lat": 0.0, "is_disabled": 0, "rental_uris": {"ios": "https://dc.lft.to/lastmile_qr_scan", "android": "https://dc.lft.to/lastmile_qr_scan"}, "bike_id": "8086978be7f8409f85ff104ad95fe226", "lat": 38.86623516666667, "name": "8086978be7f8409f85ff104ad95fe226", "lon": -76.99001, "fusion_lon": 0.0}, {"is_reserved": 0, "type": "electric_scooter", "fusion_lat": 0.0, "is_disabled": 0, "rental_uris": {"ios": "https://dc.lft.to/lastmile_qr_scan", "android": "https://dc.lft.to/lastmile_qr_scan"}, "bike_id": "a213580e3b5fab8cc70c2a4f41902a1c", "lat": 38.9059275, "name": "a213580e3b5fab8cc70c2a4f41902a1c", "lon": -77.06275466666666, "fusion_lon": 0.0}, {"is_reserved": 0, "type": "electric_scooter", "fusion_lat": 0.0, "is_disabled": 0, "rental_uris": {"ios": "https://dc.lft.to/lastmile_qr_scan", "android": "https://dc.lft.to/lastmile_qr_scan"}, "bike_id": "d3e9128423949efd1c7b05bc9ae1accb", "lat": 38.91483733333333, "name": "d3e9128423949efd1c7b05bc9ae1accb", "lon": -77.040844, "fusion_lon": 0.0}, {"is_reserved": 0, "type": "electric_scooter", "fusion_lat": 0.0, "is_disabled": 0, "rental_uris": {"ios": "https://dc.lft.to/lastmile_qr_scan", "android": "https://dc.lft.to/lastmile_qr_scan"}, "bike_id": "db45084f8c44fcd16dcf38f0046c67f3", "lat": 38.924572166666664, "name": "db45084f8c44fcd16dcf38f0046c67f3", "lon": -77.03782383333333, "fusion_lon": 0.0}, {"is_reserved": 0, "type": "electric_bike", "fusion_lat": 0.0, "is_disabled": 0, "rental_uris": {"ios": "https://dc.lft.to/lastmile_qr_scan", "android": "https://dc.lft.to/lastmile_qr_scan"}, "bike_id": "bde6d5ea91845baf77cc3ed519be53db", "lat": 38.854405666666665, "name": "bde6d5ea91845baf77cc3ed519be53db", "lon": -76.972289, "fusion_lon": 0.0}, {"is_reserved": 0, "type": "electric_scooter", "fusion_lat": 0.0, "is_disabled": 0, "rental_uris": {"ios": "https://dc.lft.to/lastmile_qr_scan", "android": "https://dc.lft.to/lastmile_qr_scan"}, "bike_id": "345c5c1bab4241ddf02408c7845d6232", "lat": 38.914367, "name": "345c5c1bab4241ddf02408c7845d6232", "lon": -77.02296433333333, "fusion_lon": 0.0}, {"is_reserved": 0, "type": "electric_scooter", "fusion_lat": 0.0, "is_disabled": 0, "rental_uris": {"ios": "https://dc.lft.to/lastmile_qr_scan", "android": "https://dc.lft.to/lastmile_qr_scan"}, "bike_id": "681f3607a02c98d685bc276efa36800d", "lat": 38.8791405, "name": "681f3607a02c98d685bc276efa36800d", "lon": -76.94483583333333, "fusion_lon": 0.0}, {"is_reserved": 0, "type": "electric_scooter", "fusion_lat": 0.0, "is_disabled": 0, "rental_uris": {"ios": "https://dc.lft.to/lastmile_qr_scan", "android": "https://dc.lft.to/lastmile_qr_scan"}, "bike_id": "bb62c4a5e936e9b7e0ba05779d816016", "lat": 38.89397783333333, "name": "bb62c4a5e936e9b7e0ba05779d816016", "lon": -77.04998966666666, "fusion_lon": 0.0}, {"is_reserved": 0, "type": "electric_scooter", "fusion_lat": 0.0, "is_disabled": 0, "rental_uris": {"ios": "https://dc.lft.to/lastmile_qr_scan", "android": "https://dc.lft.to/lastmile_qr_scan"}, "bike_id": "2632a5db97ebbcccdaa1ba41666c10ec", "lat": 38.915636166666665, "name": "2632a5db97ebbcccdaa1ba41666c10ec", "lon": -77.036694, "fusion_lon": 0.0}, {"is_reserved": 0, "type": "electric_scooter", "fusion_lat": 0.0, "is_disabled": 0, "rental_uris": {"ios": "https://dc.lft.to/lastmile_qr_scan", "android": "https://dc.lft.to/lastmile_qr_scan"}, "bike_id": "4c83e423254a75fdf0d5b11d9331fb12", "lat": 38.90610683333333, "name": "4c83e423254a75fdf0d5b11d9331fb12", "lon": -76.98981933333333, "fusion_lon": 0.0}, {"is_reserved": 0, "type": "electric_scooter", "fusion_lat": 0.0, "is_disabled": 0, "rental_uris": {"ios": "https://dc.lft.to/lastmile_qr_scan", "android": "https://dc.lft.to/lastmile_qr_scan"}, "bike_id": "c16f593b29eb3e44369b875f547045e5", "lat": 38.90786383333333, "name": "c16f593b29eb3e44369b875f547045e5", "lon": -77.04512933333334, "fusion_lon": 0.0}, {"is_reserved": 0, "type": "electric_scooter", "fusion_lat": 0.0, "is_disabled": 0, "rental_uris": {"ios": "https://dc.lft.to/lastmile_qr_scan", "android": "https://dc.lft.to/lastmile_qr_scan"}, "bike_id": "0b4ae359ccec846eba454e26d7365234", "lat": 38.92041283333333, "name": "0b4ae359ccec846eba454e26d7365234", "lon": -77.01676966666666, "fusion_lon": 0.0}, {"is_reserved": 0, "type": "electric_bike", "fusion_lat": 0.0, "is_disabled": 0, "rental_uris": {"ios": "https://dc.lft.to/lastmile_qr_scan", "android": "https://dc.lft.to/lastmile_qr_scan"}, "bike_id": "c8f187d0202390d670aec51def233236", "lat": 38.906920166666666, "name": "c8f187d0202390d670aec51def233236", "lon": -76.95251066666667, "fusion_lon": 0.0}, {"is_reserved": 0, "type": "electric_scooter", "fusion_lat": 0.0, "is_disabled": 0, "rental_uris": {"ios": "https://dc.lft.to/lastmile_qr_scan", "android": "https://dc.lft.to/lastmile_qr_scan"}, "bike_id": "7bbec2a7b50aa4b7f194e501466b3646", "lat": 38.897323, "name": "7bbec2a7b50aa4b7f194e501466b3646", "lon": -77.0256655, "fusion_lon": 0.0}, {"is_reserved": 0, "type": "electric_scooter", "fusion_lat": 0.0, "is_disabled": 0, "rental_uris": {"ios": "https://dc.lft.to/lastmile_qr_scan", "android": "https://dc.lft.to/lastmile_qr_scan"}, "bike_id": "778a0131f15085dffa4c05a84df0e391", "lat": 38.94261633333333, "name": "778a0131f15085dffa4c05a84df0e391", "lon": -76.984696, "fusion_lon": 0.0}, {"is_reserved": 0, "type": "electric_scooter", "fusion_lat": 0.0, "is_disabled": 0, "rental_uris": {"ios": "https://dc.lft.to/lastmile_qr_scan", "android": "https://dc.lft.to/lastmile_qr_scan"}, "bike_id": "3194c1e077448db85233842703354dc9", "lat": 38.895349333333336, "name": "3194c1e077448db85233842703354dc9", "lon": -76.98834716666667, "fusion_lon": 0.0}, {"is_reserved": 0, "type": "electric_scooter", "fusion_lat": 0.0, "is_disabled": 0, "rental_uris": {"ios": "https://dc.lft.to/lastmile_qr_scan", "android": "https://dc.lft.to/lastmile_qr_scan"}, "bike_id": "b390490cb15b6ee005806f7f67f2b34f", "lat": 38.883579, "name": "b390490cb15b6ee005806f7f67f2b34f", "lon": -76.9577005, "fusion_lon": 0.0}, {"is_reserved": 0, "type": "electric_scooter", "fusion_lat": 0.0, "is_disabled": 0, "rental_uris": {"ios": "https://dc.lft.to/lastmile_qr_scan", "android": "https://dc.lft.to/lastmile_qr_scan"}, "bike_id": "b147e48953708a4fe8e3d922d8bee49f", "lat": 38.896751333333334, "name": "b147e48953708a4fe8e3d922d8bee49f", "lon": -77.051251, "fusion_lon": 0.0}, {"is_reserved": 0, "type": "electric_scooter", "fusion_lat": 0.0, "is_disabled": 0, "rental_uris": {"ios": "https://dc.lft.to/lastmile_qr_scan", "android": "https://dc.lft.to/lastmile_qr_scan"}, "bike_id": "b7b05f8b9e5573d1fb8469f7e335f44f", "lat": 38.91183866666667, "name": "b7b05f8b9e5573d1fb8469f7e335f44f", "lon": -77.06083016666666, "fusion_lon": 0.0}, {"is_reserved": 0, "type": "electric_scooter", "fusion_lat": 0.0, "is_disabled": 0, "rental_uris": {"ios": "https://dc.lft.to/lastmile_qr_scan", "android": "https://dc.lft.to/lastmile_qr_scan"}, "bike_id": "a1d4fa5e9a43c630eead2b5a140542b1", "lat": 38.947191833333335, "name": "a1d4fa5e9a43c630eead2b5a140542b1", "lon": -77.06804033333333, "fusion_lon": 0.0}, {"is_reserved": 0, "type": "electric_scooter", "fusion_lat": 0.0, "is_disabled": 0, "rental_uris": {"ios": "https://dc.lft.to/lastmile_qr_scan", "android": "https://dc.lft.to/lastmile_qr_scan"}, "bike_id": "05c6ac35f0e04627e54144f23e133fd2", "lat": 38.90022416666667, "name": "05c6ac35f0e04627e54144f23e133fd2", "lon": -77.043329, "fusion_lon": 0.0}, {"is_reserved": 0, "type": "electric_scooter", "fusion_lat": 0.0, "is_disabled": 0, "rental_uris": {"ios": "https://dc.lft.to/lastmile_qr_scan", "android": "https://dc.lft.to/lastmile_qr_scan"}, "bike_id": "9ec781f64a0b48527ce9ace6d97de73a", "lat": 38.898817333333334, "name": "9ec781f64a0b48527ce9ace6d97de73a", "lon": -76.93176933333334, "fusion_lon": 0.0}, {"is_reserved": 0, "type": "electric_scooter", "fusion_lat": 0.0, "is_disabled": 0, "rental_uris": {"ios": "https://dc.lft.to/lastmile_qr_scan", "android": "https://dc.lft.to/lastmile_qr_scan"}, "bike_id": "cec810216bdb4b93a9e83ba3eb16db4b", "lat": 38.910169833333335, "name": "cec810216bdb4b93a9e83ba3eb16db4b", "lon": -77.01983583333333, "fusion_lon": 0.0}, {"is_reserved": 0, "type": "electric_scooter", "fusion_lat": 0.0, "is_disabled": 0, "rental_uris": {"ios": "https://dc.lft.to/lastmile_qr_scan", "android": "https://dc.lft.to/lastmile_qr_scan"}, "bike_id": "31397de735a967a5e75506d5c7a91d6c", "lat": 38.9642575, "name": "31397de735a967a5e75506d5c7a91d6c", "lon": -77.07425683333334, "fusion_lon": 0.0}, {"is_reserved": 0, "type": "electric_scooter", "fusion_lat": 0.0, "is_disabled": 0, "rental_uris": {"ios": "https://dc.lft.to/lastmile_qr_scan", "android": "https://dc.lft.to/lastmile_qr_scan"}, "bike_id": "1f66707b8fe6ce858f8636acb4607bd1", "lat": 38.9019665, "name": "1f66707b8fe6ce858f8636acb4607bd1", "lon": -77.02196816666667, "fusion_lon": 0.0}, {"is_reserved": 0, "type": "electric_scooter", "fusion_lat": 0.0, "is_disabled": 0, "rental_uris": {"ios": "https://dc.lft.to/lastmile_qr_scan", "android": "https://dc.lft.to/lastmile_qr_scan"}, "bike_id": "8408283d31e727b8593374943ef184b2", "lat": 38.85715883333334, "name": "8408283d31e727b8593374943ef184b2", "lon": -76.9809635, "fusion_lon": 0.0}, {"is_reserved": 0, "type": "electric_scooter", "fusion_lat": 0.0, "is_disabled": 0, "rental_uris": {"ios": "https://dc.lft.to/lastmile_qr_scan", "android": "https://dc.lft.to/lastmile_qr_scan"}, "bike_id": "b7a8563cfbecc90a1824aaa04e831522", "lat": 38.93555666666666, "name": "b7a8563cfbecc90a1824aaa04e831522", "lon": -77.073437, "fusion_lon": 0.0}, {"is_reserved": 0, "type": "electric_bike", "fusion_lat": 0.0, "is_disabled": 0, "rental_uris": {"ios": "https://dc.lft.to/lastmile_qr_scan", "android": "https://dc.lft.to/lastmile_qr_scan"}, "bike_id": "3a9aeb5fe8dd068f9a9cdf7884da1719", "lat": 38.92800916666667, "name": "3a9aeb5fe8dd068f9a9cdf7884da1719", "lon": -77.22939816666667, "fusion_lon": 0.0}, {"is_reserved": 0, "type": "electric_scooter", "fusion_lat": 0.0, "is_disabled": 0, "rental_uris": {"ios": "https://dc.lft.to/lastmile_qr_scan", "android": "https://dc.lft.to/lastmile_qr_scan"}, "bike_id": "1c603aeadb8983f85fedc2b2a879333d", "lat": 38.92753966666667, "name": "1c603aeadb8983f85fedc2b2a879333d", "lon": -77.03260116666667, "fusion_lon": 0.0}, {"is_reserved": 0, "type": "electric_bike", "fusion_lat": 0.0, "is_disabled": 0, "rental_uris": {"ios": "https://dc.lft.to/lastmile_qr_scan", "android": "https://dc.lft.to/lastmile_qr_scan"}, "bike_id": "e92bea49cf9a99cc27362364515284b5", "lat": 38.83402733333333, "name": "e92bea49cf9a99cc27362364515284b5", "lon": -77.0500825, "fusion_lon": 0.0}, {"is_reserved": 0, "type": "electric_scooter", "fusion_lat": 0.0, "is_disabled": 0, "rental_uris": {"ios": "https://dc.lft.to/lastmile_qr_scan", "android": "https://dc.lft.to/lastmile_qr_scan"}, "bike_id": "4d44209a7d179af38003fc3d0f6a4d64", "lat": 38.8854095, "name": "4d44209a7d179af38003fc3d0f6a4d64", "lon": -76.98538016666667, "fusion_lon": 0.0}, {"is_reserved": 0, "type": "electric_scooter", "fusion_lat": 0.0, "is_disabled": 0, "rental_uris": {"ios": "https://dc.lft.to/lastmile_qr_scan", "android": "https://dc.lft.to/lastmile_qr_scan"}, "bike_id": "aedcb2f92eaa9998751ddd68ae3e7468", "lat": 38.929020333333334, "name": "aedcb2f92eaa9998751ddd68ae3e7468", "lon": -77.03228516666667, "fusion_lon": 0.0}, {"is_reserved": 0, "type": "electric_scooter", "fusion_lat": 0.0, "is_disabled": 0, "rental_uris": {"ios": "https://dc.lft.to/lastmile_qr_scan", "android": "https://dc.lft.to/lastmile_qr_scan"}, "bike_id": "0fc80785d0a4052aa65914881fafb982", "lat": 38.947252666666664, "name": "0fc80785d0a4052aa65914881fafb982", "lon": -77.026707, "fusion_lon": 0.0}, {"is_reserved": 0, "type": "electric_scooter", "fusion_lat": 0.0, "is_disabled": 0, "rental_uris": {"ios": "https://dc.lft.to/lastmile_qr_scan", "android": "https://dc.lft.to/lastmile_qr_scan"}, "bike_id": "da9196f6271251e104e53718c2c522e3", "lat": 38.916958666666666, "name": "da9196f6271251e104e53718c2c522e3", "lon": -77.05299566666666, "fusion_lon": 0.0}, {"is_reserved": 0, "type": "electric_scooter", "fusion_lat": 0.0, "is_disabled": 0, "rental_uris": {"ios": "https://dc.lft.to/lastmile_qr_scan", "android": "https://dc.lft.to/lastmile_qr_scan"}, "bike_id": "33f25cd93517a1cdecb3a275f375a377", "lat": 38.917674166666664, "name": "33f25cd93517a1cdecb3a275f375a377", "lon": -77.01496, "fusion_lon": 0.0}, {"is_reserved": 0, "type": "electric_scooter", "fusion_lat": 0.0, "is_disabled": 0, "rental_uris": {"ios": "https://dc.lft.to/lastmile_qr_scan", "android": "https://dc.lft.to/lastmile_qr_scan"}, "bike_id": "3ff530fd4fea72f4efcf9ac4c99e487b", "lat": 38.9218365, "name": "3ff530fd4fea72f4efcf9ac4c99e487b", "lon": -77.0211995, "fusion_lon": 0.0}, {"is_reserved": 0, "type": "electric_scooter", "fusion_lat": 0.0, "is_disabled": 0, "rental_uris": {"ios": "https://dc.lft.to/lastmile_qr_scan", "android": "https://dc.lft.to/lastmile_qr_scan"}, "bike_id": "8a5b28778060bf9ebbb3f58a54569f45", "lat": 38.903060833333335, "name": "8a5b28778060bf9ebbb3f58a54569f45", "lon": -77.04063283333333, "fusion_lon": 0.0}, {"is_reserved": 0, "type": "electric_bike", "fusion_lat": 0.0, "is_disabled": 0, "rental_uris": {"ios": "https://dc.lft.to/lastmile_qr_scan", "android": "https://dc.lft.to/lastmile_qr_scan"}, "bike_id": "bbdde14f4bb70b79aac96fbd2764a9da", "lat": 38.9384315, "name": "bbdde14f4bb70b79aac96fbd2764a9da", "lon": -76.9433635, "fusion_lon": 0.0}, {"is_reserved": 0, "type": "electric_scooter", "fusion_lat": 0.0, "is_disabled": 0, "rental_uris": {"ios": "https://dc.lft.to/lastmile_qr_scan", "android": "https://dc.lft.to/lastmile_qr_scan"}, "bike_id": "992f76d88fcfc1d395edd43a9104060e", "lat": 38.96502233333333, "name": "992f76d88fcfc1d395edd43a9104060e", "lon": -77.06284066666667, "fusion_lon": 0.0}, {"is_reserved": 0, "type": "electric_scooter", "fusion_lat": 0.0, "is_disabled": 0, "rental_uris": {"ios": "https://dc.lft.to/lastmile_qr_scan", "android": "https://dc.lft.to/lastmile_qr_scan"}, "bike_id": "98afd31aa273e4af6fc854278f923c66", "lat": 38.91385533333333, "name": "98afd31aa273e4af6fc854278f923c66", "lon": -77.0320815, "fusion_lon": 0.0}, {"is_reserved": 0, "type": "electric_scooter", "fusion_lat": 0.0, "is_disabled": 0, "rental_uris": {"ios": "https://dc.lft.to/lastmile_qr_scan", "android": "https://dc.lft.to/lastmile_qr_scan"}, "bike_id": "ce342e66c48c82826d47832618c2895c", "lat": 38.88449933333333, "name": "ce342e66c48c82826d47832618c2895c", "lon": -77.02989383333333, "fusion_lon": 0.0}, {"is_reserved": 0, "type": "electric_scooter", "fusion_lat": 0.0, "is_disabled": 0, "rental_uris": {"ios": "https://dc.lft.to/lastmile_qr_scan", "android": "https://dc.lft.to/lastmile_qr_scan"}, "bike_id": "875a2c0857687d71793b6b95173fcae5", "lat": 38.90592083333333, "name": "875a2c0857687d71793b6b95173fcae5", "lon": -77.0469565, "fusion_lon": 0.0}, {"is_reserved": 0, "type": "electric_scooter", "fusion_lat": 0.0, "is_disabled": 0, "rental_uris": {"ios": "https://dc.lft.to/lastmile_qr_scan", "android": "https://dc.lft.to/lastmile_qr_scan"}, "bike_id": "604d4918b353f5e08fd30d7d6be600b2", "lat": 38.92625, "name": "604d4918b353f5e08fd30d7d6be600b2", "lon": -77.041441, "fusion_lon": 0.0}, {"is_reserved": 0, "type": "electric_bike", "fusion_lat": 0.0, "is_disabled": 0, "rental_uris": {"ios": "https://dc.lft.to/lastmile_qr_scan", "android": "https://dc.lft.to/lastmile_qr_scan"}, "bike_id": "103f737307a7e6cad5b9d236a47bd53b", "lat": 38.871732333333334, "name": "103f737307a7e6cad5b9d236a47bd53b", "lon": -77.23392933333334, "fusion_lon": 0.0}, {"is_reserved": 0, "type": "electric_scooter", "fusion_lat": 0.0, "is_disabled": 0, "rental_uris": {"ios": "https://dc.lft.to/lastmile_qr_scan", "android": "https://dc.lft.to/lastmile_qr_scan"}, "bike_id": "94c00cdb61a6f9a7d5e5b7f3a13b9f89", "lat": 38.89229483333333, "name": "94c00cdb61a6f9a7d5e5b7f3a13b9f89", "lon": -77.0499575, "fusion_lon": 0.0}, {"is_reserved": 0, "type": "electric_scooter", "fusion_lat": 0.0, "is_disabled": 0, "rental_uris": {"ios": "https://dc.lft.to/lastmile_qr_scan", "android": "https://dc.lft.to/lastmile_qr_scan"}, "bike_id": "c423f81367e1309c48580f54019a6c7d", "lat": 38.921747833333335, "name": "c423f81367e1309c48580f54019a6c7d", "lon": -77.04339166666666, "fusion_lon": 0.0}, {"is_reserved": 0, "type": "electric_bike", "fusion_lat": 0.0, "is_disabled": 0, "rental_uris": {"ios": "https://dc.lft.to/lastmile_qr_scan", "android": "https://dc.lft.to/lastmile_qr_scan"}, "bike_id": "8cb36bf58f2567e828726abb4e616bcb", "lat": 39.000002, "name": "8cb36bf58f2567e828726abb4e616bcb", "lon": -76.91802566666667, "fusion_lon": 0.0}, {"is_reserved": 0, "type": "electric_bike", "fusion_lat": 0.0, "is_disabled": 0, "rental_uris": {"ios": "https://dc.lft.to/lastmile_qr_scan", "android": "https://dc.lft.to/lastmile_qr_scan"}, "bike_id": "be6999d78d5b342b02a30c44a38682d0", "lat": 38.8074, "name": "be6999d78d5b342b02a30c44a38682d0", "lon": -77.09686766666667, "fusion_lon": 0.0}, {"is_reserved": 0, "type": "electric_bike", "fusion_lat": 0.0, "is_disabled": 0, "rental_uris": {"ios": "https://dc.lft.to/lastmile_qr_scan", "android": "https://dc.lft.to/lastmile_qr_scan"}, "bike_id": "cf915003ade1f1430125e5b199aec8d2", "lat": 38.950891166666665, "name": "cf915003ade1f1430125e5b199aec8d2", "lon": -77.01228066666667, "fusion_lon": 0.0}, {"is_reserved": 0, "type": "electric_scooter", "fusion_lat": 0.0, "is_disabled": 0, "rental_uris": {"ios": "https://dc.lft.to/lastmile_qr_scan", "android": "https://dc.lft.to/lastmile_qr_scan"}, "bike_id": "455543ec9942c896d704cb62423996bb", "lat": 38.90601, "name": "455543ec9942c896d704cb62423996bb", "lon": -77.05838016666667, "fusion_lon": 0.0}, {"is_reserved": 0, "type": "electric_scooter", "fusion_lat": 0.0, "is_disabled": 0, "rental_uris": {"ios": "https://dc.lft.to/lastmile_qr_scan", "android": "https://dc.lft.to/lastmile_qr_scan"}, "bike_id": "f88f2df2e4bf8eee46c2c751495b63e3", "lat": 38.914388833333334, "name": "f88f2df2e4bf8eee46c2c751495b63e3", "lon": -77.00341516666667, "fusion_lon": 0.0}, {"is_reserved": 0, "type": "electric_scooter", "fusion_lat": 0.0, "is_disabled": 0, "rental_uris": {"ios": "https://dc.lft.to/lastmile_qr_scan", "android": "https://dc.lft.to/lastmile_qr_scan"}, "bike_id": "00b38094e353582e8eefa8b6dc8bb823", "lat": 38.895439, "name": "00b38094e353582e8eefa8b6dc8bb823", "lon": -76.98338583333333, "fusion_lon": 0.0}, {"is_reserved": 0, "type": "electric_scooter", "fusion_lat": 0.0, "is_disabled": 0, "rental_uris": {"ios": "https://dc.lft.to/lastmile_qr_scan", "android": "https://dc.lft.to/lastmile_qr_scan"}, "bike_id": "c9d7a7c89649fe2ca0ed32f06f221673", "lat": 38.90874816666667, "name": "c9d7a7c89649fe2ca0ed32f06f221673", "lon": -77.07153933333333, "fusion_lon": 0.0}, {"is_reserved": 0, "type": "electric_scooter", "fusion_lat": 0.0, "is_disabled": 0, "rental_uris": {"ios": "https://dc.lft.to/lastmile_qr_scan", "android": "https://dc.lft.to/lastmile_qr_scan"}, "bike_id": "45be56eb4ac7995b89161ee7f819b5ee", "lat": 38.901074333333334, "name": "45be56eb4ac7995b89161ee7f819b5ee", "lon": -77.03167966666666, "fusion_lon": 0.0}, {"is_reserved": 0, "type": "electric_scooter", "fusion_lat": 0.0, "is_disabled": 0, "rental_uris": {"ios": "https://dc.lft.to/lastmile_qr_scan", "android": "https://dc.lft.to/lastmile_qr_scan"}, "bike_id": "2ebf0382c4d04cf0459b9a0eead984c1", "lat": 38.91805733333333, "name": "2ebf0382c4d04cf0459b9a0eead984c1", "lon": -77.03440333333333, "fusion_lon": 0.0}, {"is_reserved": 0, "type": "electric_scooter", "fusion_lat": 0.0, "is_disabled": 0, "rental_uris": {"ios": "https://dc.lft.to/lastmile_qr_scan", "android": "https://dc.lft.to/lastmile_qr_scan"}, "bike_id": "1c5ce00cbb133f16278583b93f5fcf39", "lat": 38.893626, "name": "1c5ce00cbb133f16278583b93f5fcf39", "lon": -76.941103, "fusion_lon": 0.0}, {"is_reserved": 0, "type": "electric_scooter", "fusion_lat": 0.0, "is_disabled": 0, "rental_uris": {"ios": "https://dc.lft.to/lastmile_qr_scan", "android": "https://dc.lft.to/lastmile_qr_scan"}, "bike_id": "94473d2beaa0d26aea4ecb91d89dfdab", "lat": 38.9078115, "name": "94473d2beaa0d26aea4ecb91d89dfdab", "lon": -77.0725255, "fusion_lon": 0.0}, {"is_reserved": 0, "type": "electric_scooter", "fusion_lat": 0.0, "is_disabled": 0, "rental_uris": {"ios": "https://dc.lft.to/lastmile_qr_scan", "android": "https://dc.lft.to/lastmile_qr_scan"}, "bike_id": "44a1e63d454da672294475fc96911ded", "lat": 38.92493366666667, "name": "44a1e63d454da672294475fc96911ded", "lon": -77.04341983333333, "fusion_lon": 0.0}, {"is_reserved": 0, "type": "electric_scooter", "fusion_lat": 0.0, "is_disabled": 0, "rental_uris": {"ios": "https://dc.lft.to/lastmile_qr_scan", "android": "https://dc.lft.to/lastmile_qr_scan"}, "bike_id": "f1371d70298c3c0cfe7417d9f9e36c65", "lat": 38.88710416666667, "name": "f1371d70298c3c0cfe7417d9f9e36c65", "lon": -76.9834185, "fusion_lon": 0.0}, {"is_reserved": 0, "type": "electric_scooter", "fusion_lat": 0.0, "is_disabled": 0, "rental_uris": {"ios": "https://dc.lft.to/lastmile_qr_scan", "android": "https://dc.lft.to/lastmile_qr_scan"}, "bike_id": "da8435210691adcd7de1586348b280d6", "lat": 38.885458, "name": "da8435210691adcd7de1586348b280d6", "lon": -77.0007035, "fusion_lon": 0.0}, {"is_reserved": 0, "type": "electric_scooter", "fusion_lat": 0.0, "is_disabled": 0, "rental_uris": {"ios": "https://dc.lft.to/lastmile_qr_scan", "android": "https://dc.lft.to/lastmile_qr_scan"}, "bike_id": "301e889c345f4488c7533b8e9e82b023", "lat": 38.90864666666667, "name": "301e889c345f4488c7533b8e9e82b023", "lon": -77.003187, "fusion_lon": 0.0}, {"is_reserved": 0, "type": "electric_scooter", "fusion_lat": 0.0, "is_disabled": 0, "rental_uris": {"ios": "https://dc.lft.to/lastmile_qr_scan", "android": "https://dc.lft.to/lastmile_qr_scan"}, "bike_id": "1fb9ce1cefe9420e81c0f540f077e2b2", "lat": 38.92884983333333, "name": "1fb9ce1cefe9420e81c0f540f077e2b2", "lon": -77.03730366666667, "fusion_lon": 0.0}, {"is_reserved": 0, "type": "electric_scooter", "fusion_lat": 0.0, "is_disabled": 0, "rental_uris": {"ios": "https://dc.lft.to/lastmile_qr_scan", "android": "https://dc.lft.to/lastmile_qr_scan"}, "bike_id": "05d729b3c42fb3979986add53797c0bb", "lat": 38.93112416666666, "name": "05d729b3c42fb3979986add53797c0bb", "lon": -77.02798033333333, "fusion_lon": 0.0}, {"is_reserved": 0, "type": "electric_scooter", "fusion_lat": 0.0, "is_disabled": 0, "rental_uris": {"ios": "https://dc.lft.to/lastmile_qr_scan", "android": "https://dc.lft.to/lastmile_qr_scan"}, "bike_id": "5e31c3123a6fa69d05a96b43965245e1", "lat": 38.9217995, "name": "5e31c3123a6fa69d05a96b43965245e1", "lon": -76.9563975, "fusion_lon": 0.0}, {"is_reserved": 0, "type": "electric_scooter", "fusion_lat": 0.0, "is_disabled": 0, "rental_uris": {"ios": "https://dc.lft.to/lastmile_qr_scan", "android": "https://dc.lft.to/lastmile_qr_scan"}, "bike_id": "794dbcb12994eb3a6e9ec03081d73d6e", "lat": 38.8977455, "name": "794dbcb12994eb3a6e9ec03081d73d6e", "lon": -77.0502475, "fusion_lon": 0.0}, {"is_reserved": 0, "type": "electric_bike", "fusion_lat": 0.0, "is_disabled": 0, "rental_uris": {"ios": "https://dc.lft.to/lastmile_qr_scan", "android": "https://dc.lft.to/lastmile_qr_scan"}, "bike_id": "7aaaf9ad20a2b1110dfd928ee2deb664", "lat": 38.99869116666667, "name": "7aaaf9ad20a2b1110dfd928ee2deb664", "lon": -77.0039795, "fusion_lon": 0.0}, {"is_reserved": 0, "type": "electric_scooter", "fusion_lat": 0.0, "is_disabled": 0, "rental_uris": {"ios": "https://dc.lft.to/lastmile_qr_scan", "android": "https://dc.lft.to/lastmile_qr_scan"}, "bike_id": "c9481a061ce1758dcd0e8ae96f7a572e", "lat": 38.89222733333333, "name": "c9481a061ce1758dcd0e8ae96f7a572e", "lon": -77.025391, "fusion_lon": 0.0}, {"is_reserved": 0, "type": "electric_scooter", "fusion_lat": 0.0, "is_disabled": 0, "rental_uris": {"ios": "https://dc.lft.to/lastmile_qr_scan", "android": "https://dc.lft.to/lastmile_qr_scan"}, "bike_id": "69d51cb90d85ff7df1fda3930891508f", "lat": 38.933772, "name": "69d51cb90d85ff7df1fda3930891508f", "lon": -77.07253016666667, "fusion_lon": 0.0}, {"is_reserved": 0, "type": "electric_scooter", "fusion_lat": 0.0, "is_disabled": 0, "rental_uris": {"ios": "https://dc.lft.to/lastmile_qr_scan", "android": "https://dc.lft.to/lastmile_qr_scan"}, "bike_id": "1ffb7ad17a7ed601533c03d203c39492", "lat": 38.944639333333335, "name": "1ffb7ad17a7ed601533c03d203c39492", "lon": -77.00658833333334, "fusion_lon": 0.0}, {"is_reserved": 0, "type": "electric_scooter", "fusion_lat": 0.0, "is_disabled": 0, "rental_uris": {"ios": "https://dc.lft.to/lastmile_qr_scan", "android": "https://dc.lft.to/lastmile_qr_scan"}, "bike_id": "fd1d8759e578398d24d66e785a1bac24", "lat": 38.920550666666664, "name": "fd1d8759e578398d24d66e785a1bac24", "lon": -77.03394016666667, "fusion_lon": 0.0}, {"is_reserved": 0, "type": "electric_scooter", "fusion_lat": 0.0, "is_disabled": 0, "rental_uris": {"ios": "https://dc.lft.to/lastmile_qr_scan", "android": "https://dc.lft.to/lastmile_qr_scan"}, "bike_id": "f8489eb1fc6f1eb166f8199977f1640c", "lat": 38.91213466666667, "name": "f8489eb1fc6f1eb166f8199977f1640c", "lon": -77.00664166666667, "fusion_lon": 0.0}, {"is_reserved": 0, "type": "electric_scooter", "fusion_lat": 0.0, "is_disabled": 0, "rental_uris": {"ios": "https://dc.lft.to/lastmile_qr_scan", "android": "https://dc.lft.to/lastmile_qr_scan"}, "bike_id": "c0f4abf85c9cb59a76583f91197db514", "lat": 38.9027165, "name": "c0f4abf85c9cb59a76583f91197db514", "lon": -76.98982883333333, "fusion_lon": 0.0}, {"is_reserved": 0, "type": "electric_scooter", "fusion_lat": 0.0, "is_disabled": 0, "rental_uris": {"ios": "https://dc.lft.to/lastmile_qr_scan", "android": "https://dc.lft.to/lastmile_qr_scan"}, "bike_id": "64569b054d83927ba9492efeccc73f78", "lat": 38.907784, "name": "64569b054d83927ba9492efeccc73f78", "lon": -77.07246716666667, "fusion_lon": 0.0}, {"is_reserved": 0, "type": "electric_scooter", "fusion_lat": 0.0, "is_disabled": 0, "rental_uris": {"ios": "https://dc.lft.to/lastmile_qr_scan", "android": "https://dc.lft.to/lastmile_qr_scan"}, "bike_id": "acd42287e949bf04bd3db33889d919c9", "lat": 38.91543166666666, "name": "acd42287e949bf04bd3db33889d919c9", "lon": -77.02965416666666, "fusion_lon": 0.0}, {"is_reserved": 0, "type": "electric_scooter", "fusion_lat": 0.0, "is_disabled": 0, "rental_uris": {"ios": "https://dc.lft.to/lastmile_qr_scan", "android": "https://dc.lft.to/lastmile_qr_scan"}, "bike_id": "100193b231da3f116956fa61075b998d", "lat": 38.905046666666664, "name": "100193b231da3f116956fa61075b998d", "lon": -77.04321083333333, "fusion_lon": 0.0}, {"is_reserved": 0, "type": "electric_scooter", "fusion_lat": 0.0, "is_disabled": 0, "rental_uris": {"ios": "https://dc.lft.to/lastmile_qr_scan", "android": "https://dc.lft.to/lastmile_qr_scan"}, "bike_id": "b2bd244b7a2c75a2d8271e2e2e7f008d", "lat": 38.873744, "name": "b2bd244b7a2c75a2d8271e2e2e7f008d", "lon": -77.00129916666667, "fusion_lon": 0.0}, {"is_reserved": 0, "type": "electric_scooter", "fusion_lat": 0.0, "is_disabled": 0, "rental_uris": {"ios": "https://dc.lft.to/lastmile_qr_scan", "android": "https://dc.lft.to/lastmile_qr_scan"}, "bike_id": "cd46a71ef9191261125891bb7e2b5f00", "lat": 38.90377266666667, "name": "cd46a71ef9191261125891bb7e2b5f00", "lon": -77.05160433333333, "fusion_lon": 0.0}, {"is_reserved": 0, "type": "electric_scooter", "fusion_lat": 0.0, "is_disabled": 0, "rental_uris": {"ios": "https://dc.lft.to/lastmile_qr_scan", "android": "https://dc.lft.to/lastmile_qr_scan"}, "bike_id": "76054d8f6d13ff8aad2fff8d7ecf29bd", "lat": 38.91045966666667, "name": "76054d8f6d13ff8aad2fff8d7ecf29bd", "lon": -76.9979035, "fusion_lon": 0.0}, {"is_reserved": 0, "type": "electric_scooter", "fusion_lat": 0.0, "is_disabled": 0, "rental_uris": {"ios": "https://dc.lft.to/lastmile_qr_scan", "android": "https://dc.lft.to/lastmile_qr_scan"}, "bike_id": "a52a278835922227659916d3009eeb01", "lat": 38.9183045, "name": "a52a278835922227659916d3009eeb01", "lon": -77.04512516666666, "fusion_lon": 0.0}, {"is_reserved": 0, "type": "electric_scooter", "fusion_lat": 0.0, "is_disabled": 0, "rental_uris": {"ios": "https://dc.lft.to/lastmile_qr_scan", "android": "https://dc.lft.to/lastmile_qr_scan"}, "bike_id": "1dfc89d8d2a19cbfb4b5356f97f4a7c5", "lat": 38.91104166666667, "name": "1dfc89d8d2a19cbfb4b5356f97f4a7c5", "lon": -77.01099933333333, "fusion_lon": 0.0}, {"is_reserved": 0, "type": "electric_scooter", "fusion_lat": 0.0, "is_disabled": 0, "rental_uris": {"ios": "https://dc.lft.to/lastmile_qr_scan", "android": "https://dc.lft.to/lastmile_qr_scan"}, "bike_id": "abd9dc30bc6ba73bb8893b357409e6d4", "lat": 38.923356, "name": "abd9dc30bc6ba73bb8893b357409e6d4", "lon": -77.00894216666667, "fusion_lon": 0.0}, {"is_reserved": 0, "type": "electric_scooter", "fusion_lat": 0.0, "is_disabled": 0, "rental_uris": {"ios": "https://dc.lft.to/lastmile_qr_scan", "android": "https://dc.lft.to/lastmile_qr_scan"}, "bike_id": "2e062809d378f174cd5eac619c7a4b91", "lat": 38.90260116666666, "name": "2e062809d378f174cd5eac619c7a4b91", "lon": -77.02646883333334, "fusion_lon": 0.0}, {"is_reserved": 0, "type": "electric_scooter", "fusion_lat": 0.0, "is_disabled": 0, "rental_uris": {"ios": "https://dc.lft.to/lastmile_qr_scan", "android": "https://dc.lft.to/lastmile_qr_scan"}, "bike_id": "0ac7f7a3d182d3cbbda0a1e6e3f194a8", "lat": 38.908837166666665, "name": "0ac7f7a3d182d3cbbda0a1e6e3f194a8", "lon": -77.00272966666667, "fusion_lon": 0.0}, {"is_reserved": 0, "type": "electric_scooter", "fusion_lat": 0.0, "is_disabled": 0, "rental_uris": {"ios": "https://dc.lft.to/lastmile_qr_scan", "android": "https://dc.lft.to/lastmile_qr_scan"}, "bike_id": "d047660874bbd2c402178fffc0f791cf", "lat": 38.918296166666664, "name": "d047660874bbd2c402178fffc0f791cf", "lon": -77.02716416666667, "fusion_lon": 0.0}, {"is_reserved": 0, "type": "electric_bike", "fusion_lat": 0.0, "is_disabled": 0, "rental_uris": {"ios": "https://dc.lft.to/lastmile_qr_scan", "android": "https://dc.lft.to/lastmile_qr_scan"}, "bike_id": "f8a9da2ef76573548517cdda69c045d7", "lat": 38.922939666666664, "name": "f8a9da2ef76573548517cdda69c045d7", "lon": -76.99772333333334, "fusion_lon": 0.0}, {"is_reserved": 0, "type": "electric_scooter", "fusion_lat": 0.0, "is_disabled": 0, "rental_uris": {"ios": "https://dc.lft.to/lastmile_qr_scan", "android": "https://dc.lft.to/lastmile_qr_scan"}, "bike_id": "1ebf12e506c980df73c6448197868d05", "lat": 38.895245, "name": "1ebf12e506c980df73c6448197868d05", "lon": -76.97732383333333, "fusion_lon": 0.0}, {"is_reserved": 0, "type": "electric_scooter", "fusion_lat": 0.0, "is_disabled": 0, "rental_uris": {"ios": "https://dc.lft.to/lastmile_qr_scan", "android": "https://dc.lft.to/lastmile_qr_scan"}, "bike_id": "0a9f7a3a852826bc451f108acb376b95", "lat": 38.92345433333333, "name": "0a9f7a3a852826bc451f108acb376b95", "lon": -77.03526033333333, "fusion_lon": 0.0}, {"is_reserved": 0, "type": "electric_scooter", "fusion_lat": 0.0, "is_disabled": 0, "rental_uris": {"ios": "https://dc.lft.to/lastmile_qr_scan", "android": "https://dc.lft.to/lastmile_qr_scan"}, "bike_id": "4d0e51bb1b219d59a63c80684897edaf", "lat": 38.88105633333333, "name": "4d0e51bb1b219d59a63c80684897edaf", "lon": -77.02629816666666, "fusion_lon": 0.0}, {"is_reserved": 0, "type": "electric_scooter", "fusion_lat": 0.0, "is_disabled": 0, "rental_uris": {"ios": "https://dc.lft.to/lastmile_qr_scan", "android": "https://dc.lft.to/lastmile_qr_scan"}, "bike_id": "4ae920e1a707727929bd06f547260ad3", "lat": 38.899792833333336, "name": "4ae920e1a707727929bd06f547260ad3", "lon": -77.04190833333334, "fusion_lon": 0.0}, {"is_reserved": 0, "type": "electric_scooter", "fusion_lat": 0.0, "is_disabled": 0, "rental_uris": {"ios": "https://dc.lft.to/lastmile_qr_scan", "android": "https://dc.lft.to/lastmile_qr_scan"}, "bike_id": "e04eebfe099a313f69eadcf2e55ae292", "lat": 38.9098965, "name": "e04eebfe099a313f69eadcf2e55ae292", "lon": -77.0648835, "fusion_lon": 0.0}, {"is_reserved": 0, "type": "electric_scooter", "fusion_lat": 0.0, "is_disabled": 0, "rental_uris": {"ios": "https://dc.lft.to/lastmile_qr_scan", "android": "https://dc.lft.to/lastmile_qr_scan"}, "bike_id": "23f2e08279d991ad0ea1c357d2769b56", "lat": 38.899963666666665, "name": "23f2e08279d991ad0ea1c357d2769b56", "lon": -77.05258883333333, "fusion_lon": 0.0}, {"is_reserved": 0, "type": "electric_scooter", "fusion_lat": 0.0, "is_disabled": 0, "rental_uris": {"ios": "https://dc.lft.to/lastmile_qr_scan", "android": "https://dc.lft.to/lastmile_qr_scan"}, "bike_id": "5c8ade255309ee072bf20ec51686936b", "lat": 38.95185016666667, "name": "5c8ade255309ee072bf20ec51686936b", "lon": -77.02618116666666, "fusion_lon": 0.0}, {"is_reserved": 0, "type": "electric_scooter", "fusion_lat": 0.0, "is_disabled": 0, "rental_uris": {"ios": "https://dc.lft.to/lastmile_qr_scan", "android": "https://dc.lft.to/lastmile_qr_scan"}, "bike_id": "ea4097ab3837954a7ef834e102491302", "lat": 38.911417, "name": "ea4097ab3837954a7ef834e102491302", "lon": -77.0152405, "fusion_lon": 0.0}, {"is_reserved": 0, "type": "electric_scooter", "fusion_lat": 0.0, "is_disabled": 0, "rental_uris": {"ios": "https://dc.lft.to/lastmile_qr_scan", "android": "https://dc.lft.to/lastmile_qr_scan"}, "bike_id": "1d08571810db3ad22fd148f4cc3b4453", "lat": 38.91487, "name": "1d08571810db3ad22fd148f4cc3b4453", "lon": -77.03436933333333, "fusion_lon": 0.0}, {"is_reserved": 0, "type": "electric_scooter", "fusion_lat": 0.0, "is_disabled": 0, "rental_uris": {"ios": "https://dc.lft.to/lastmile_qr_scan", "android": "https://dc.lft.to/lastmile_qr_scan"}, "bike_id": "b759beea48e626628ac38030f0092b5a", "lat": 38.89197983333333, "name": "b759beea48e626628ac38030f0092b5a", "lon": -77.01550166666667, "fusion_lon": 0.0}, {"is_reserved": 0, "type": "electric_bike", "fusion_lat": 0.0, "is_disabled": 0, "rental_uris": {"ios": "https://dc.lft.to/lastmile_qr_scan", "android": "https://dc.lft.to/lastmile_qr_scan"}, "bike_id": "e10c088ab9671cd0780afe069b3ff2bd", "lat": 38.9043125, "name": "e10c088ab9671cd0780afe069b3ff2bd", "lon": -76.97229283333333, "fusion_lon": 0.0}, {"is_reserved": 0, "type": "electric_scooter", "fusion_lat": 0.0, "is_disabled": 0, "rental_uris": {"ios": "https://dc.lft.to/lastmile_qr_scan", "android": "https://dc.lft.to/lastmile_qr_scan"}, "bike_id": "7b44b1aa9502dc39eda628477d07fdbc", "lat": 38.942279666666664, "name": "7b44b1aa9502dc39eda628477d07fdbc", "lon": -77.01439133333334, "fusion_lon": 0.0}, {"is_reserved": 0, "type": "electric_scooter", "fusion_lat": 0.0, "is_disabled": 0, "rental_uris": {"ios": "https://dc.lft.to/lastmile_qr_scan", "android": "https://dc.lft.to/lastmile_qr_scan"}, "bike_id": "82a755ca4f23b1279d9292116cc98bc6", "lat": 38.898464, "name": "82a755ca4f23b1279d9292116cc98bc6", "lon": -76.92747016666667, "fusion_lon": 0.0}, {"is_reserved": 0, "type": "electric_scooter", "fusion_lat": 0.0, "is_disabled": 0, "rental_uris": {"ios": "https://dc.lft.to/lastmile_qr_scan", "android": "https://dc.lft.to/lastmile_qr_scan"}, "bike_id": "7f50315bfa41d4a4e557be63f7c20fdc", "lat": 38.9346395, "name": "7f50315bfa41d4a4e557be63f7c20fdc", "lon": -77.02351366666667, "fusion_lon": 0.0}, {"is_reserved": 0, "type": "electric_bike", "fusion_lat": 0.0, "is_disabled": 0, "rental_uris": {"ios": "https://dc.lft.to/lastmile_qr_scan", "android": "https://dc.lft.to/lastmile_qr_scan"}, "bike_id": "b9527f79d42ccf90b17e9f341ae387d7", "lat": 38.83301316666667, "name": "b9527f79d42ccf90b17e9f341ae387d7", "lon": -77.08411333333333, "fusion_lon": 0.0}, {"is_reserved": 0, "type": "electric_scooter", "fusion_lat": 0.0, "is_disabled": 0, "rental_uris": {"ios": "https://dc.lft.to/lastmile_qr_scan", "android": "https://dc.lft.to/lastmile_qr_scan"}, "bike_id": "173ac4dd48067a5171083dab5f13b15d", "lat": 38.9431545, "name": "173ac4dd48067a5171083dab5f13b15d", "lon": -77.01726066666667, "fusion_lon": 0.0}, {"is_reserved": 0, "type": "electric_scooter", "fusion_lat": 0.0, "is_disabled": 0, "rental_uris": {"ios": "https://dc.lft.to/lastmile_qr_scan", "android": "https://dc.lft.to/lastmile_qr_scan"}, "bike_id": "f6cfc1313b6922151dfb04d616d18b14", "lat": 38.897537, "name": "f6cfc1313b6922151dfb04d616d18b14", "lon": -77.00952616666666, "fusion_lon": 0.0}, {"is_reserved": 0, "type": "electric_scooter", "fusion_lat": 0.0, "is_disabled": 0, "rental_uris": {"ios": "https://dc.lft.to/lastmile_qr_scan", "android": "https://dc.lft.to/lastmile_qr_scan"}, "bike_id": "68ef0d230d0247c90ba1251ba9daa087", "lat": 38.9282125, "name": "68ef0d230d0247c90ba1251ba9daa087", "lon": -77.0225715, "fusion_lon": 0.0}, {"is_reserved": 0, "type": "electric_scooter", "fusion_lat": 0.0, "is_disabled": 0, "rental_uris": {"ios": "https://dc.lft.to/lastmile_qr_scan", "android": "https://dc.lft.to/lastmile_qr_scan"}, "bike_id": "b3518586ba880bb3d9e3ccf725442d5c", "lat": 38.903223, "name": "b3518586ba880bb3d9e3ccf725442d5c", "lon": -77.02125183333334, "fusion_lon": 0.0}, {"is_reserved": 0, "type": "electric_scooter", "fusion_lat": 0.0, "is_disabled": 0, "rental_uris": {"ios": "https://dc.lft.to/lastmile_qr_scan", "android": "https://dc.lft.to/lastmile_qr_scan"}, "bike_id": "8e28ab5ca36ee80fed181b98f8d2e2d5", "lat": 38.93640083333333, "name": "8e28ab5ca36ee80fed181b98f8d2e2d5", "lon": -77.03629366666667, "fusion_lon": 0.0}, {"is_reserved": 0, "type": "electric_scooter", "fusion_lat": 0.0, "is_disabled": 0, "rental_uris": {"ios": "https://dc.lft.to/lastmile_qr_scan", "android": "https://dc.lft.to/lastmile_qr_scan"}, "bike_id": "3948aa8b5600b1c6fbab58d762e0c4cd", "lat": 38.910114666666665, "name": "3948aa8b5600b1c6fbab58d762e0c4cd", "lon": -76.99388033333334, "fusion_lon": 0.0}, {"is_reserved": 0, "type": "electric_scooter", "fusion_lat": 0.0, "is_disabled": 0, "rental_uris": {"ios": "https://dc.lft.to/lastmile_qr_scan", "android": "https://dc.lft.to/lastmile_qr_scan"}, "bike_id": "f48783fb23f70c036ec93adca42753d5", "lat": 38.9181165, "name": "f48783fb23f70c036ec93adca42753d5", "lon": -77.03440866666666, "fusion_lon": 0.0}, {"is_reserved": 0, "type": "electric_scooter", "fusion_lat": 0.0, "is_disabled": 0, "rental_uris": {"ios": "https://dc.lft.to/lastmile_qr_scan", "android": "https://dc.lft.to/lastmile_qr_scan"}, "bike_id": "be2c8255d2f61f571bcd056fd669030b", "lat": 38.919200833333335, "name": "be2c8255d2f61f571bcd056fd669030b", "lon": -77.009746, "fusion_lon": 0.0}, {"is_reserved": 0, "type": "electric_scooter", "fusion_lat": 0.0, "is_disabled": 0, "rental_uris": {"ios": "https://dc.lft.to/lastmile_qr_scan", "android": "https://dc.lft.to/lastmile_qr_scan"}, "bike_id": "0f1d67a4c3eb55d7f56f6d931b441fda", "lat": 38.90446816666667, "name": "0f1d67a4c3eb55d7f56f6d931b441fda", "lon": -77.01875333333334, "fusion_lon": 0.0}, {"is_reserved": 0, "type": "electric_scooter", "fusion_lat": 0.0, "is_disabled": 0, "rental_uris": {"ios": "https://dc.lft.to/lastmile_qr_scan", "android": "https://dc.lft.to/lastmile_qr_scan"}, "bike_id": "49db7c5096267090789c21c562b720af", "lat": 38.900537666666665, "name": "49db7c5096267090789c21c562b720af", "lon": -77.0175235, "fusion_lon": 0.0}, {"is_reserved": 0, "type": "electric_scooter", "fusion_lat": 0.0, "is_disabled": 0, "rental_uris": {"ios": "https://dc.lft.to/lastmile_qr_scan", "android": "https://dc.lft.to/lastmile_qr_scan"}, "bike_id": "92a61b91102ae9fed8d5c1edf57716bb", "lat": 38.89856483333333, "name": "92a61b91102ae9fed8d5c1edf57716bb", "lon": -77.03352133333334, "fusion_lon": 0.0}, {"is_reserved": 0, "type": "electric_scooter", "fusion_lat": 0.0, "is_disabled": 0, "rental_uris": {"ios": "https://dc.lft.to/lastmile_qr_scan", "android": "https://dc.lft.to/lastmile_qr_scan"}, "bike_id": "0eb8ee9b8b72ef649eb74547da99da6a", "lat": 38.876999833333336, "name": "0eb8ee9b8b72ef649eb74547da99da6a", "lon": -77.0055885, "fusion_lon": 0.0}, {"is_reserved": 0, "type": "electric_scooter", "fusion_lat": 0.0, "is_disabled": 0, "rental_uris": {"ios": "https://dc.lft.to/lastmile_qr_scan", "android": "https://dc.lft.to/lastmile_qr_scan"}, "bike_id": "ec8d9ced4528d4240c3e66c7a421bd6e", "lat": 38.927988, "name": "ec8d9ced4528d4240c3e66c7a421bd6e", "lon": -77.03698483333334, "fusion_lon": 0.0}, {"is_reserved": 0, "type": "electric_scooter", "fusion_lat": 0.0, "is_disabled": 0, "rental_uris": {"ios": "https://dc.lft.to/lastmile_qr_scan", "android": "https://dc.lft.to/lastmile_qr_scan"}, "bike_id": "ff0b339660ef5a38b571ff0a3713f71d", "lat": 38.89340633333333, "name": "ff0b339660ef5a38b571ff0a3713f71d", "lon": -76.98556633333334, "fusion_lon": 0.0}, {"is_reserved": 0, "type": "electric_scooter", "fusion_lat": 0.0, "is_disabled": 0, "rental_uris": {"ios": "https://dc.lft.to/lastmile_qr_scan", "android": "https://dc.lft.to/lastmile_qr_scan"}, "bike_id": "2fffda1dae0a2fa8a95a96fd6553aa64", "lat": 38.9170795, "name": "2fffda1dae0a2fa8a95a96fd6553aa64", "lon": -77.04044783333333, "fusion_lon": 0.0}, {"is_reserved": 0, "type": "electric_scooter", "fusion_lat": 0.0, "is_disabled": 0, "rental_uris": {"ios": "https://dc.lft.to/lastmile_qr_scan", "android": "https://dc.lft.to/lastmile_qr_scan"}, "bike_id": "caa3ec7fd6b301399590ed3335211b6c", "lat": 38.9187645, "name": "caa3ec7fd6b301399590ed3335211b6c", "lon": -77.03561766666667, "fusion_lon": 0.0}, {"is_reserved": 0, "type": "electric_scooter", "fusion_lat": 0.0, "is_disabled": 0, "rental_uris": {"ios": "https://dc.lft.to/lastmile_qr_scan", "android": "https://dc.lft.to/lastmile_qr_scan"}, "bike_id": "5383dd95fa2e9b33ff493f0f90d81880", "lat": 38.935875833333334, "name": "5383dd95fa2e9b33ff493f0f90d81880", "lon": -77.0742585, "fusion_lon": 0.0}, {"is_reserved": 0, "type": "electric_scooter", "fusion_lat": 0.0, "is_disabled": 0, "rental_uris": {"ios": "https://dc.lft.to/lastmile_qr_scan", "android": "https://dc.lft.to/lastmile_qr_scan"}, "bike_id": "d38b83dc6e2e50c829dea4aa9f8739d5", "lat": 38.905554, "name": "d38b83dc6e2e50c829dea4aa9f8739d5", "lon": -77.00597416666666, "fusion_lon": 0.0}, {"is_reserved": 0, "type": "electric_scooter", "fusion_lat": 0.0, "is_disabled": 0, "rental_uris": {"ios": "https://dc.lft.to/lastmile_qr_scan", "android": "https://dc.lft.to/lastmile_qr_scan"}, "bike_id": "f3c1e19560d38a92528406d6df52e098", "lat": 38.873723, "name": "f3c1e19560d38a92528406d6df52e098", "lon": -77.00186666666667, "fusion_lon": 0.0}, {"is_reserved": 0, "type": "electric_scooter", "fusion_lat": 0.0, "is_disabled": 0, "rental_uris": {"ios": "https://dc.lft.to/lastmile_qr_scan", "android": "https://dc.lft.to/lastmile_qr_scan"}, "bike_id": "e758ca5d9343a83d748ffc71edb2c239", "lat": 38.9186515, "name": "e758ca5d9343a83d748ffc71edb2c239", "lon": -77.01529166666667, "fusion_lon": 0.0}, {"is_reserved": 0, "type": "electric_scooter", "fusion_lat": 0.0, "is_disabled": 0, "rental_uris": {"ios": "https://dc.lft.to/lastmile_qr_scan", "android": "https://dc.lft.to/lastmile_qr_scan"}, "bike_id": "9669dc49292d0d8bc448322ad6961fb7", "lat": 38.9224075, "name": "9669dc49292d0d8bc448322ad6961fb7", "lon": -77.03661633333333, "fusion_lon": 0.0}, {"is_reserved": 0, "type": "electric_scooter", "fusion_lat": 0.0, "is_disabled": 0, "rental_uris": {"ios": "https://dc.lft.to/lastmile_qr_scan", "android": "https://dc.lft.to/lastmile_qr_scan"}, "bike_id": "99560c58d42d737ceed4ce030c9dcc06", "lat": 38.87838416666666, "name": "99560c58d42d737ceed4ce030c9dcc06", "lon": -76.931289, "fusion_lon": 0.0}, {"is_reserved": 0, "type": "electric_scooter", "fusion_lat": 0.0, "is_disabled": 0, "rental_uris": {"ios": "https://dc.lft.to/lastmile_qr_scan", "android": "https://dc.lft.to/lastmile_qr_scan"}, "bike_id": "4d888fab275d0e2616682fcdb2a553fb", "lat": 38.901816833333335, "name": "4d888fab275d0e2616682fcdb2a553fb", "lon": -76.988422, "fusion_lon": 0.0}, {"is_reserved": 0, "type": "electric_bike", "fusion_lat": 0.0, "is_disabled": 0, "rental_uris": {"ios": "https://dc.lft.to/lastmile_qr_scan", "android": "https://dc.lft.to/lastmile_qr_scan"}, "bike_id": "8f169ae114dfc0b6475f4ff45cf809fd", "lat": 39.010671, "name": "8f169ae114dfc0b6475f4ff45cf809fd", "lon": -76.92243533333334, "fusion_lon": 0.0}, {"is_reserved": 0, "type": "electric_scooter", "fusion_lat": 0.0, "is_disabled": 0, "rental_uris": {"ios": "https://dc.lft.to/lastmile_qr_scan", "android": "https://dc.lft.to/lastmile_qr_scan"}, "bike_id": "0fb35c68c938df613fc41a1bd4a3b48a", "lat": 38.90727016666666, "name": "0fb35c68c938df613fc41a1bd4a3b48a", "lon": -77.04770433333333, "fusion_lon": 0.0}, {"is_reserved": 0, "type": "electric_scooter", "fusion_lat": 0.0, "is_disabled": 0, "rental_uris": {"ios": "https://dc.lft.to/lastmile_qr_scan", "android": "https://dc.lft.to/lastmile_qr_scan"}, "bike_id": "d939ba3925e14ef2d2a5fc66c8517795", "lat": 38.93134583333333, "name": "d939ba3925e14ef2d2a5fc66c8517795", "lon": -77.02198433333334, "fusion_lon": 0.0}, {"is_reserved": 0, "type": "electric_scooter", "fusion_lat": 0.0, "is_disabled": 0, "rental_uris": {"ios": "https://dc.lft.to/lastmile_qr_scan", "android": "https://dc.lft.to/lastmile_qr_scan"}, "bike_id": "d1528f8f1dc6a25f0277773085c64190", "lat": 38.906116, "name": "d1528f8f1dc6a25f0277773085c64190", "lon": -77.05642866666666, "fusion_lon": 0.0}, {"is_reserved": 0, "type": "electric_scooter", "fusion_lat": 0.0, "is_disabled": 0, "rental_uris": {"ios": "https://dc.lft.to/lastmile_qr_scan", "android": "https://dc.lft.to/lastmile_qr_scan"}, "bike_id": "a78d8fd43a9277a7d2ec6456fb3d92b9", "lat": 38.92328, "name": "a78d8fd43a9277a7d2ec6456fb3d92b9", "lon": -77.03616366666667, "fusion_lon": 0.0}, {"is_reserved": 0, "type": "electric_scooter", "fusion_lat": 0.0, "is_disabled": 0, "rental_uris": {"ios": "https://dc.lft.to/lastmile_qr_scan", "android": "https://dc.lft.to/lastmile_qr_scan"}, "bike_id": "a5304c0215464f6ebb8c0d1e5c513f42", "lat": 38.91712883333334, "name": "a5304c0215464f6ebb8c0d1e5c513f42", "lon": -77.008875, "fusion_lon": 0.0}, {"is_reserved": 0, "type": "electric_scooter", "fusion_lat": 0.0, "is_disabled": 0, "rental_uris": {"ios": "https://dc.lft.to/lastmile_qr_scan", "android": "https://dc.lft.to/lastmile_qr_scan"}, "bike_id": "146eea78eb14d62212cf057998e33d72", "lat": 38.9200585, "name": "146eea78eb14d62212cf057998e33d72", "lon": -77.03178533333333, "fusion_lon": 0.0}, {"is_reserved": 0, "type": "electric_scooter", "fusion_lat": 0.0, "is_disabled": 0, "rental_uris": {"ios": "https://dc.lft.to/lastmile_qr_scan", "android": "https://dc.lft.to/lastmile_qr_scan"}, "bike_id": "88863bc59f63f54c02677eeba4ce2bc8", "lat": 38.952738833333335, "name": "88863bc59f63f54c02677eeba4ce2bc8", "lon": -76.99890016666667, "fusion_lon": 0.0}, {"is_reserved": 0, "type": "electric_scooter", "fusion_lat": 0.0, "is_disabled": 0, "rental_uris": {"ios": "https://dc.lft.to/lastmile_qr_scan", "android": "https://dc.lft.to/lastmile_qr_scan"}, "bike_id": "42d67601bdfb28ed7f3363910865b506", "lat": 38.908772, "name": "42d67601bdfb28ed7f3363910865b506", "lon": -77.0441055, "fusion_lon": 0.0}, {"is_reserved": 0, "type": "electric_scooter", "fusion_lat": 0.0, "is_disabled": 0, "rental_uris": {"ios": "https://dc.lft.to/lastmile_qr_scan", "android": "https://dc.lft.to/lastmile_qr_scan"}, "bike_id": "a57492a0bb490cf834d7f084166ab573", "lat": 38.9212245, "name": "a57492a0bb490cf834d7f084166ab573", "lon": -77.0181365, "fusion_lon": 0.0}, {"is_reserved": 0, "type": "electric_scooter", "fusion_lat": 0.0, "is_disabled": 0, "rental_uris": {"ios": "https://dc.lft.to/lastmile_qr_scan", "android": "https://dc.lft.to/lastmile_qr_scan"}, "bike_id": "db84c079900bfff764bd9e77efc23d28", "lat": 38.902249166666664, "name": "db84c079900bfff764bd9e77efc23d28", "lon": -77.01392366666667, "fusion_lon": 0.0}, {"is_reserved": 0, "type": "electric_scooter", "fusion_lat": 0.0, "is_disabled": 0, "rental_uris": {"ios": "https://dc.lft.to/lastmile_qr_scan", "android": "https://dc.lft.to/lastmile_qr_scan"}, "bike_id": "a16dfa97083b504b5603ef26a7a0009b", "lat": 38.917525166666664, "name": "a16dfa97083b504b5603ef26a7a0009b", "lon": -77.02288583333333, "fusion_lon": 0.0}, {"is_reserved": 0, "type": "electric_scooter", "fusion_lat": 0.0, "is_disabled": 0, "rental_uris": {"ios": "https://dc.lft.to/lastmile_qr_scan", "android": "https://dc.lft.to/lastmile_qr_scan"}, "bike_id": "d2019c69e429c8b39961e0f052e748d9", "lat": 38.927885333333336, "name": "d2019c69e429c8b39961e0f052e748d9", "lon": -76.97626783333334, "fusion_lon": 0.0}, {"is_reserved": 0, "type": "electric_scooter", "fusion_lat": 0.0, "is_disabled": 0, "rental_uris": {"ios": "https://dc.lft.to/lastmile_qr_scan", "android": "https://dc.lft.to/lastmile_qr_scan"}, "bike_id": "ae7632c04009082e899ced274123fc83", "lat": 38.925427166666665, "name": "ae7632c04009082e899ced274123fc83", "lon": -77.03326933333334, "fusion_lon": 0.0}, {"is_reserved": 0, "type": "electric_scooter", "fusion_lat": 0.0, "is_disabled": 0, "rental_uris": {"ios": "https://dc.lft.to/lastmile_qr_scan", "android": "https://dc.lft.to/lastmile_qr_scan"}, "bike_id": "706e9cb759f521b79b487655f707f5d4", "lat": 38.83379633333333, "name": "706e9cb759f521b79b487655f707f5d4", "lon": -77.00302166666667, "fusion_lon": 0.0}, {"is_reserved": 0, "type": "electric_scooter", "fusion_lat": 0.0, "is_disabled": 0, "rental_uris": {"ios": "https://dc.lft.to/lastmile_qr_scan", "android": "https://dc.lft.to/lastmile_qr_scan"}, "bike_id": "f7d5c1d8dd34feef40a051752987c89a", "lat": 38.895385166666664, "name": "f7d5c1d8dd34feef40a051752987c89a", "lon": -77.0266565, "fusion_lon": 0.0}, {"is_reserved": 0, "type": "electric_scooter", "fusion_lat": 0.0, "is_disabled": 0, "rental_uris": {"ios": "https://dc.lft.to/lastmile_qr_scan", "android": "https://dc.lft.to/lastmile_qr_scan"}, "bike_id": "09f10b1d391749ceb3ce4394fa2797ca", "lat": 38.933212833333336, "name": "09f10b1d391749ceb3ce4394fa2797ca", "lon": -77.03255933333334, "fusion_lon": 0.0}, {"is_reserved": 0, "type": "electric_bike", "fusion_lat": 0.0, "is_disabled": 0, "rental_uris": {"ios": "https://dc.lft.to/lastmile_qr_scan", "android": "https://dc.lft.to/lastmile_qr_scan"}, "bike_id": "9715f8bc72124154fe6c72c6a2e04efc", "lat": 38.9362625, "name": "9715f8bc72124154fe6c72c6a2e04efc", "lon": -77.06353283333333, "fusion_lon": 0.0}, {"is_reserved": 0, "type": "electric_scooter", "fusion_lat": 0.0, "is_disabled": 0, "rental_uris": {"ios": "https://dc.lft.to/lastmile_qr_scan", "android": "https://dc.lft.to/lastmile_qr_scan"}, "bike_id": "882d8b78308e7373c426a6bbd45ffe5f", "lat": 38.93128216666667, "name": "882d8b78308e7373c426a6bbd45ffe5f", "lon": -77.02175683333333, "fusion_lon": 0.0}, {"is_reserved": 0, "type": "electric_scooter", "fusion_lat": 0.0, "is_disabled": 0, "rental_uris": {"ios": "https://dc.lft.to/lastmile_qr_scan", "android": "https://dc.lft.to/lastmile_qr_scan"}, "bike_id": "1de28a463e86435943a8cd6f34590209", "lat": 38.89599366666667, "name": "1de28a463e86435943a8cd6f34590209", "lon": -77.027512, "fusion_lon": 0.0}, {"is_reserved": 0, "type": "electric_bike", "fusion_lat": 0.0, "is_disabled": 0, "rental_uris": {"ios": "https://dc.lft.to/lastmile_qr_scan", "android": "https://dc.lft.to/lastmile_qr_scan"}, "bike_id": "ee45ccb001a45c338a46d1e96b08b013", "lat": 38.83602666666667, "name": "ee45ccb001a45c338a46d1e96b08b013", "lon": -77.0037705, "fusion_lon": 0.0}, {"is_reserved": 0, "type": "electric_scooter", "fusion_lat": 0.0, "is_disabled": 0, "rental_uris": {"ios": "https://dc.lft.to/lastmile_qr_scan", "android": "https://dc.lft.to/lastmile_qr_scan"}, "bike_id": "cfa486eea6b43432614deabe6a71635e", "lat": 38.90411816666666, "name": "cfa486eea6b43432614deabe6a71635e", "lon": -77.02405066666667, "fusion_lon": 0.0}, {"is_reserved": 0, "type": "electric_bike", "fusion_lat": 0.0, "is_disabled": 0, "rental_uris": {"ios": "https://dc.lft.to/lastmile_qr_scan", "android": "https://dc.lft.to/lastmile_qr_scan"}, "bike_id": "87b71d1c5d735e9628bc0edb726dbf08", "lat": 38.906851833333334, "name": "87b71d1c5d735e9628bc0edb726dbf08", "lon": -77.01021766666666, "fusion_lon": 0.0}, {"is_reserved": 0, "type": "electric_scooter", "fusion_lat": 0.0, "is_disabled": 0, "rental_uris": {"ios": "https://dc.lft.to/lastmile_qr_scan", "android": "https://dc.lft.to/lastmile_qr_scan"}, "bike_id": "f0814813b493cb839ffb53e8b4c34e82", "lat": 38.92133166666667, "name": "f0814813b493cb839ffb53e8b4c34e82", "lon": -77.003968, "fusion_lon": 0.0}, {"is_reserved": 0, "type": "electric_bike", "fusion_lat": 0.0, "is_disabled": 0, "rental_uris": {"ios": "https://dc.lft.to/lastmile_qr_scan", "android": "https://dc.lft.to/lastmile_qr_scan"}, "bike_id": "cebcc1a2631efdac8b000ccd1a62accd", "lat": 38.8578405, "name": "cebcc1a2631efdac8b000ccd1a62accd", "lon": -76.98761966666666, "fusion_lon": 0.0}, {"is_reserved": 0, "type": "electric_scooter", "fusion_lat": 0.0, "is_disabled": 0, "rental_uris": {"ios": "https://dc.lft.to/lastmile_qr_scan", "android": "https://dc.lft.to/lastmile_qr_scan"}, "bike_id": "9168b51192c8334179cc833397265eb6", "lat": 38.904170666666666, "name": "9168b51192c8334179cc833397265eb6", "lon": -77.05121083333333, "fusion_lon": 0.0}, {"is_reserved": 0, "type": "electric_scooter", "fusion_lat": 0.0, "is_disabled": 0, "rental_uris": {"ios": "https://dc.lft.to/lastmile_qr_scan", "android": "https://dc.lft.to/lastmile_qr_scan"}, "bike_id": "7f8b2f495fa3111de462774f37729552", "lat": 38.8822815, "name": "7f8b2f495fa3111de462774f37729552", "lon": -76.99090466666667, "fusion_lon": 0.0}, {"is_reserved": 0, "type": "electric_scooter", "fusion_lat": 0.0, "is_disabled": 0, "rental_uris": {"ios": "https://dc.lft.to/lastmile_qr_scan", "android": "https://dc.lft.to/lastmile_qr_scan"}, "bike_id": "5a004f0038ef13aaaab48a2ba66ba2cc", "lat": 38.90077683333333, "name": "5a004f0038ef13aaaab48a2ba66ba2cc", "lon": -77.02980766666667, "fusion_lon": 0.0}, {"is_reserved": 0, "type": "electric_bike", "fusion_lat": 0.0, "is_disabled": 0, "rental_uris": {"ios": "https://dc.lft.to/lastmile_qr_scan", "android": "https://dc.lft.to/lastmile_qr_scan"}, "bike_id": "b7ab45a81be2b672b2598fee7ff1b77c", "lat": 38.8972455, "name": "b7ab45a81be2b672b2598fee7ff1b77c", "lon": -76.97239333333333, "fusion_lon": 0.0}, {"is_reserved": 0, "type": "electric_scooter", "fusion_lat": 0.0, "is_disabled": 0, "rental_uris": {"ios": "https://dc.lft.to/lastmile_qr_scan", "android": "https://dc.lft.to/lastmile_qr_scan"}, "bike_id": "a7958f6192dadba990937d6ea230ee58", "lat": 38.9723885, "name": "a7958f6192dadba990937d6ea230ee58", "lon": -77.0271685, "fusion_lon": 0.0}, {"is_reserved": 0, "type": "electric_scooter", "fusion_lat": 0.0, "is_disabled": 0, "rental_uris": {"ios": "https://dc.lft.to/lastmile_qr_scan", "android": "https://dc.lft.to/lastmile_qr_scan"}, "bike_id": "833739d522773c6473929b5e42cdbe81", "lat": 38.897850166666665, "name": "833739d522773c6473929b5e42cdbe81", "lon": -77.05006116666667, "fusion_lon": 0.0}, {"is_reserved": 0, "type": "electric_scooter", "fusion_lat": 0.0, "is_disabled": 0, "rental_uris": {"ios": "https://dc.lft.to/lastmile_qr_scan", "android": "https://dc.lft.to/lastmile_qr_scan"}, "bike_id": "495d48907cdf9f6acd4223758b68c3dc", "lat": 38.91561816666667, "name": "495d48907cdf9f6acd4223758b68c3dc", "lon": -77.03668016666667, "fusion_lon": 0.0}, {"is_reserved": 0, "type": "electric_scooter", "fusion_lat": 0.0, "is_disabled": 0, "rental_uris": {"ios": "https://dc.lft.to/lastmile_qr_scan", "android": "https://dc.lft.to/lastmile_qr_scan"}, "bike_id": "dc4587df0838c43bca6e1f5d6662c124", "lat": 38.948615833333335, "name": "dc4587df0838c43bca6e1f5d6662c124", "lon": -77.07883366666667, "fusion_lon": 0.0}, {"is_reserved": 0, "type": "electric_scooter", "fusion_lat": 0.0, "is_disabled": 0, "rental_uris": {"ios": "https://dc.lft.to/lastmile_qr_scan", "android": "https://dc.lft.to/lastmile_qr_scan"}, "bike_id": "f06f20dbcedf8f6c8429facf9b39bf73", "lat": 38.916536666666666, "name": "f06f20dbcedf8f6c8429facf9b39bf73", "lon": -77.04170116666667, "fusion_lon": 0.0}, {"is_reserved": 0, "type": "electric_scooter", "fusion_lat": 0.0, "is_disabled": 0, "rental_uris": {"ios": "https://dc.lft.to/lastmile_qr_scan", "android": "https://dc.lft.to/lastmile_qr_scan"}, "bike_id": "40a078ae39eeca712797c28fe4699772", "lat": 38.922803333333334, "name": "40a078ae39eeca712797c28fe4699772", "lon": -76.997865, "fusion_lon": 0.0}, {"is_reserved": 0, "type": "electric_scooter", "fusion_lat": 0.0, "is_disabled": 0, "rental_uris": {"ios": "https://dc.lft.to/lastmile_qr_scan", "android": "https://dc.lft.to/lastmile_qr_scan"}, "bike_id": "aa2cc17dc47aa0608e519f444382d25c", "lat": 38.896852, "name": "aa2cc17dc47aa0608e519f444382d25c", "lon": -77.04320616666666, "fusion_lon": 0.0}, {"is_reserved": 0, "type": "electric_scooter", "fusion_lat": 0.0, "is_disabled": 0, "rental_uris": {"ios": "https://dc.lft.to/lastmile_qr_scan", "android": "https://dc.lft.to/lastmile_qr_scan"}, "bike_id": "a0e76c709872c148255fdeec1d2e1c52", "lat": 38.9344265, "name": "a0e76c709872c148255fdeec1d2e1c52", "lon": -77.03279583333334, "fusion_lon": 0.0}, {"is_reserved": 0, "type": "electric_scooter", "fusion_lat": 0.0, "is_disabled": 0, "rental_uris": {"ios": "https://dc.lft.to/lastmile_qr_scan", "android": "https://dc.lft.to/lastmile_qr_scan"}, "bike_id": "6d90465f9f29297ebacb47130968bc76", "lat": 38.880099333333334, "name": "6d90465f9f29297ebacb47130968bc76", "lon": -76.9974115, "fusion_lon": 0.0}, {"is_reserved": 0, "type": "electric_bike", "fusion_lat": 0.0, "is_disabled": 0, "rental_uris": {"ios": "https://dc.lft.to/lastmile_qr_scan", "android": "https://dc.lft.to/lastmile_qr_scan"}, "bike_id": "66b75791319c1b3361477985c71a89c3", "lat": 38.9689685, "name": "66b75791319c1b3361477985c71a89c3", "lon": -76.95574416666666, "fusion_lon": 0.0}, {"is_reserved": 0, "type": "electric_scooter", "fusion_lat": 0.0, "is_disabled": 0, "rental_uris": {"ios": "https://dc.lft.to/lastmile_qr_scan", "android": "https://dc.lft.to/lastmile_qr_scan"}, "bike_id": "4eea3a8350caf18dc593392687ec6ec6", "lat": 38.898825333333335, "name": "4eea3a8350caf18dc593392687ec6ec6", "lon": -76.93173333333333, "fusion_lon": 0.0}, {"is_reserved": 0, "type": "electric_scooter", "fusion_lat": 0.0, "is_disabled": 0, "rental_uris": {"ios": "https://dc.lft.to/lastmile_qr_scan", "android": "https://dc.lft.to/lastmile_qr_scan"}, "bike_id": "1c32a068dfedf17ca34263ae9af0c8f2", "lat": 38.913307333333336, "name": "1c32a068dfedf17ca34263ae9af0c8f2", "lon": -77.0303925, "fusion_lon": 0.0}, {"is_reserved": 0, "type": "electric_bike", "fusion_lat": 0.0, "is_disabled": 0, "rental_uris": {"ios": "https://dc.lft.to/lastmile_qr_scan", "android": "https://dc.lft.to/lastmile_qr_scan"}, "bike_id": "4ec237125705698545887e999923f102", "lat": 38.930365, "name": "4ec237125705698545887e999923f102", "lon": -77.055651, "fusion_lon": 0.0}, {"is_reserved": 0, "type": "electric_scooter", "fusion_lat": 0.0, "is_disabled": 0, "rental_uris": {"ios": "https://dc.lft.to/lastmile_qr_scan", "android": "https://dc.lft.to/lastmile_qr_scan"}, "bike_id": "08eba3808cd0737a4f4d578fb3e48e64", "lat": 38.911570833333336, "name": "08eba3808cd0737a4f4d578fb3e48e64", "lon": -77.04484966666666, "fusion_lon": 0.0}, {"is_reserved": 0, "type": "electric_bike", "fusion_lat": 0.0, "is_disabled": 0, "rental_uris": {"ios": "https://dc.lft.to/lastmile_qr_scan", "android": "https://dc.lft.to/lastmile_qr_scan"}, "bike_id": "072de0e8a0a45541499ab29c3486e18a", "lat": 38.86564833333333, "name": "072de0e8a0a45541499ab29c3486e18a", "lon": -76.9747645, "fusion_lon": 0.0}, {"is_reserved": 0, "type": "electric_scooter", "fusion_lat": 0.0, "is_disabled": 0, "rental_uris": {"ios": "https://dc.lft.to/lastmile_qr_scan", "android": "https://dc.lft.to/lastmile_qr_scan"}, "bike_id": "656defc92bba7e69a919a6335e9a09bd", "lat": 38.90043266666667, "name": "656defc92bba7e69a919a6335e9a09bd", "lon": -77.003898, "fusion_lon": 0.0}, {"is_reserved": 0, "type": "electric_bike", "fusion_lat": 0.0, "is_disabled": 0, "rental_uris": {"ios": "https://dc.lft.to/lastmile_qr_scan", "android": "https://dc.lft.to/lastmile_qr_scan"}, "bike_id": "da272f35f8ad3cf681b6f6380ca3433e", "lat": 38.82430083333333, "name": "da272f35f8ad3cf681b6f6380ca3433e", "lon": -77.12042083333333, "fusion_lon": 0.0}, {"is_reserved": 0, "type": "electric_scooter", "fusion_lat": 0.0, "is_disabled": 0, "rental_uris": {"ios": "https://dc.lft.to/lastmile_qr_scan", "android": "https://dc.lft.to/lastmile_qr_scan"}, "bike_id": "df6373aebc7ca93736d38feca42cdfb3", "lat": 38.88580266666666, "name": "df6373aebc7ca93736d38feca42cdfb3", "lon": -77.01228366666666, "fusion_lon": 0.0}, {"is_reserved": 0, "type": "electric_scooter", "fusion_lat": 0.0, "is_disabled": 0, "rental_uris": {"ios": "https://dc.lft.to/lastmile_qr_scan", "android": "https://dc.lft.to/lastmile_qr_scan"}, "bike_id": "7ebeccbacb52e8c51cb6af32b0575735", "lat": 38.90070733333334, "name": "7ebeccbacb52e8c51cb6af32b0575735", "lon": -77.0132045, "fusion_lon": 0.0}, {"is_reserved": 0, "type": "electric_scooter", "fusion_lat": 0.0, "is_disabled": 0, "rental_uris": {"ios": "https://dc.lft.to/lastmile_qr_scan", "android": "https://dc.lft.to/lastmile_qr_scan"}, "bike_id": "89ae58eee73fb4fedbf25263b0bf7df9", "lat": 38.91040566666667, "name": "89ae58eee73fb4fedbf25263b0bf7df9", "lon": -77.01026283333333, "fusion_lon": 0.0}, {"is_reserved": 0, "type": "electric_scooter", "fusion_lat": 0.0, "is_disabled": 0, "rental_uris": {"ios": "https://dc.lft.to/lastmile_qr_scan", "android": "https://dc.lft.to/lastmile_qr_scan"}, "bike_id": "f1619fdec2e94fca8ec2ad0b13da7c97", "lat": 38.929030166666664, "name": "f1619fdec2e94fca8ec2ad0b13da7c97", "lon": -77.0234845, "fusion_lon": 0.0}, {"is_reserved": 0, "type": "electric_scooter", "fusion_lat": 0.0, "is_disabled": 0, "rental_uris": {"ios": "https://dc.lft.to/lastmile_qr_scan", "android": "https://dc.lft.to/lastmile_qr_scan"}, "bike_id": "205e384fb47734494e1d293df161a556", "lat": 38.91698183333333, "name": "205e384fb47734494e1d293df161a556", "lon": -77.03961716666667, "fusion_lon": 0.0}, {"is_reserved": 0, "type": "electric_scooter", "fusion_lat": 0.0, "is_disabled": 0, "rental_uris": {"ios": "https://dc.lft.to/lastmile_qr_scan", "android": "https://dc.lft.to/lastmile_qr_scan"}, "bike_id": "81d62329983d04545232e5fc3a26dbd7", "lat": 38.935258833333336, "name": "81d62329983d04545232e5fc3a26dbd7", "lon": -77.05444983333334, "fusion_lon": 0.0}, {"is_reserved": 0, "type": "electric_scooter", "fusion_lat": 0.0, "is_disabled": 0, "rental_uris": {"ios": "https://dc.lft.to/lastmile_qr_scan", "android": "https://dc.lft.to/lastmile_qr_scan"}, "bike_id": "633a56608fe1b434fe4f5440d5ad6328", "lat": 38.8996425, "name": "633a56608fe1b434fe4f5440d5ad6328", "lon": -77.04830383333334, "fusion_lon": 0.0}, {"is_reserved": 0, "type": "electric_scooter", "fusion_lat": 0.0, "is_disabled": 0, "rental_uris": {"ios": "https://dc.lft.to/lastmile_qr_scan", "android": "https://dc.lft.to/lastmile_qr_scan"}, "bike_id": "212aa76ae25a47a056550b36746ed899", "lat": 38.893247, "name": "212aa76ae25a47a056550b36746ed899", "lon": -77.01965566666667, "fusion_lon": 0.0}, {"is_reserved": 0, "type": "electric_scooter", "fusion_lat": 0.0, "is_disabled": 0, "rental_uris": {"ios": "https://dc.lft.to/lastmile_qr_scan", "android": "https://dc.lft.to/lastmile_qr_scan"}, "bike_id": "c039d530bc10f743bbceda1ad4d178d3", "lat": 38.898151666666664, "name": "c039d530bc10f743bbceda1ad4d178d3", "lon": -77.04665883333334, "fusion_lon": 0.0}, {"is_reserved": 0, "type": "electric_scooter", "fusion_lat": 0.0, "is_disabled": 0, "rental_uris": {"ios": "https://dc.lft.to/lastmile_qr_scan", "android": "https://dc.lft.to/lastmile_qr_scan"}, "bike_id": "c191ffcc78dac892f7fa79c738fe94ab", "lat": 38.90959866666667, "name": "c191ffcc78dac892f7fa79c738fe94ab", "lon": -77.023819, "fusion_lon": 0.0}, {"is_reserved": 0, "type": "electric_scooter", "fusion_lat": 0.0, "is_disabled": 0, "rental_uris": {"ios": "https://dc.lft.to/lastmile_qr_scan", "android": "https://dc.lft.to/lastmile_qr_scan"}, "bike_id": "4eae1b341a941d2158813facb4cf0045", "lat": 38.92240483333333, "name": "4eae1b341a941d2158813facb4cf0045", "lon": -77.028145, "fusion_lon": 0.0}, {"is_reserved": 0, "type": "electric_scooter", "fusion_lat": 0.0, "is_disabled": 0, "rental_uris": {"ios": "https://dc.lft.to/lastmile_qr_scan", "android": "https://dc.lft.to/lastmile_qr_scan"}, "bike_id": "a56e32a5d9c595224c7a45f7e5297193", "lat": 38.90744083333333, "name": "a56e32a5d9c595224c7a45f7e5297193", "lon": -76.998848, "fusion_lon": 0.0}, {"is_reserved": 0, "type": "electric_scooter", "fusion_lat": 0.0, "is_disabled": 0, "rental_uris": {"ios": "https://dc.lft.to/lastmile_qr_scan", "android": "https://dc.lft.to/lastmile_qr_scan"}, "bike_id": "39575d5441a6c6912b2beecd39d8a617", "lat": 38.87066466666667, "name": "39575d5441a6c6912b2beecd39d8a617", "lon": -76.981273, "fusion_lon": 0.0}, {"is_reserved": 0, "type": "electric_scooter", "fusion_lat": 0.0, "is_disabled": 0, "rental_uris": {"ios": "https://dc.lft.to/lastmile_qr_scan", "android": "https://dc.lft.to/lastmile_qr_scan"}, "bike_id": "e088b36ac77970587053640e491458bd", "lat": 38.920693666666665, "name": "e088b36ac77970587053640e491458bd", "lon": -77.0239725, "fusion_lon": 0.0}, {"is_reserved": 0, "type": "electric_bike", "fusion_lat": 0.0, "is_disabled": 0, "rental_uris": {"ios": "https://dc.lft.to/lastmile_qr_scan", "android": "https://dc.lft.to/lastmile_qr_scan"}, "bike_id": "d7070d9ad9f47b52f82cd13553a1d9ad", "lat": 38.95185133333333, "name": "d7070d9ad9f47b52f82cd13553a1d9ad", "lon": -76.93542166666667, "fusion_lon": 0.0}, {"is_reserved": 0, "type": "electric_scooter", "fusion_lat": 0.0, "is_disabled": 0, "rental_uris": {"ios": "https://dc.lft.to/lastmile_qr_scan", "android": "https://dc.lft.to/lastmile_qr_scan"}, "bike_id": "9856e680f43fdcd7688149c832af2c40", "lat": 38.9287065, "name": "9856e680f43fdcd7688149c832af2c40", "lon": -77.01418683333333, "fusion_lon": 0.0}, {"is_reserved": 0, "type": "electric_scooter", "fusion_lat": 0.0, "is_disabled": 0, "rental_uris": {"ios": "https://dc.lft.to/lastmile_qr_scan", "android": "https://dc.lft.to/lastmile_qr_scan"}, "bike_id": "77952697e111eb9e6ca4439713a321f1", "lat": 38.9205395, "name": "77952697e111eb9e6ca4439713a321f1", "lon": -77.01794383333333, "fusion_lon": 0.0}, {"is_reserved": 0, "type": "electric_scooter", "fusion_lat": 0.0, "is_disabled": 0, "rental_uris": {"ios": "https://dc.lft.to/lastmile_qr_scan", "android": "https://dc.lft.to/lastmile_qr_scan"}, "bike_id": "3f5dbfbb3090730fc4179a5d57156db3", "lat": 38.93334816666667, "name": "3f5dbfbb3090730fc4179a5d57156db3", "lon": -77.03880466666666, "fusion_lon": 0.0}, {"is_reserved": 0, "type": "electric_scooter", "fusion_lat": 0.0, "is_disabled": 0, "rental_uris": {"ios": "https://dc.lft.to/lastmile_qr_scan", "android": "https://dc.lft.to/lastmile_qr_scan"}, "bike_id": "4f796507fd13b597b2062bda7d4dadf2", "lat": 38.923475333333336, "name": "4f796507fd13b597b2062bda7d4dadf2", "lon": -77.0402785, "fusion_lon": 0.0}, {"is_reserved": 0, "type": "electric_bike", "fusion_lat": 0.0, "is_disabled": 0, "rental_uris": {"ios": "https://dc.lft.to/lastmile_qr_scan", "android": "https://dc.lft.to/lastmile_qr_scan"}, "bike_id": "564eabad9e09c66eba2d6a8df14bb4a5", "lat": 38.963821833333334, "name": "564eabad9e09c66eba2d6a8df14bb4a5", "lon": -77.01977766666667, "fusion_lon": 0.0}, {"is_reserved": 0, "type": "electric_scooter", "fusion_lat": 0.0, "is_disabled": 0, "rental_uris": {"ios": "https://dc.lft.to/lastmile_qr_scan", "android": "https://dc.lft.to/lastmile_qr_scan"}, "bike_id": "8c7ed795f72f2afe83fbd1b492726fb7", "lat": 38.924722833333334, "name": "8c7ed795f72f2afe83fbd1b492726fb7", "lon": -77.02846783333334, "fusion_lon": 0.0}, {"is_reserved": 0, "type": "electric_scooter", "fusion_lat": 0.0, "is_disabled": 0, "rental_uris": {"ios": "https://dc.lft.to/lastmile_qr_scan", "android": "https://dc.lft.to/lastmile_qr_scan"}, "bike_id": "7517a3fea722e9eeb6f44fae569ca5e6", "lat": 38.9256045, "name": "7517a3fea722e9eeb6f44fae569ca5e6", "lon": -77.05269, "fusion_lon": 0.0}, {"is_reserved": 0, "type": "electric_scooter", "fusion_lat": 0.0, "is_disabled": 0, "rental_uris": {"ios": "https://dc.lft.to/lastmile_qr_scan", "android": "https://dc.lft.to/lastmile_qr_scan"}, "bike_id": "61235a0af3cbd79f400e2fe7d761aef9", "lat": 38.89546083333333, "name": "61235a0af3cbd79f400e2fe7d761aef9", "lon": -76.98335816666666, "fusion_lon": 0.0}, {"is_reserved": 0, "type": "electric_scooter", "fusion_lat": 0.0, "is_disabled": 0, "rental_uris": {"ios": "https://dc.lft.to/lastmile_qr_scan", "android": "https://dc.lft.to/lastmile_qr_scan"}, "bike_id": "e71465a839823554b5a6e8b93fb28a97", "lat": 38.88432266666667, "name": "e71465a839823554b5a6e8b93fb28a97", "lon": -77.0252065, "fusion_lon": 0.0}, {"is_reserved": 0, "type": "electric_scooter", "fusion_lat": 0.0, "is_disabled": 0, "rental_uris": {"ios": "https://dc.lft.to/lastmile_qr_scan", "android": "https://dc.lft.to/lastmile_qr_scan"}, "bike_id": "6aa1a06f643b2503ad068ccacd1ce973", "lat": 38.907532833333335, "name": "6aa1a06f643b2503ad068ccacd1ce973", "lon": -77.00766983333334, "fusion_lon": 0.0}, {"is_reserved": 0, "type": "electric_scooter", "fusion_lat": 0.0, "is_disabled": 0, "rental_uris": {"ios": "https://dc.lft.to/lastmile_qr_scan", "android": "https://dc.lft.to/lastmile_qr_scan"}, "bike_id": "a6e5dbed80a2fb3a011101ac2a2a522c", "lat": 38.91713016666667, "name": "a6e5dbed80a2fb3a011101ac2a2a522c", "lon": -77.03858783333334, "fusion_lon": 0.0}, {"is_reserved": 0, "type": "electric_scooter", "fusion_lat": 0.0, "is_disabled": 0, "rental_uris": {"ios": "https://dc.lft.to/lastmile_qr_scan", "android": "https://dc.lft.to/lastmile_qr_scan"}, "bike_id": "717ccb50c6af03f8116fd0955c4dd848", "lat": 38.924656166666665, "name": "717ccb50c6af03f8116fd0955c4dd848", "lon": -77.02243583333333, "fusion_lon": 0.0}, {"is_reserved": 0, "type": "electric_scooter", "fusion_lat": 0.0, "is_disabled": 0, "rental_uris": {"ios": "https://dc.lft.to/lastmile_qr_scan", "android": "https://dc.lft.to/lastmile_qr_scan"}, "bike_id": "7ec708778c73696ced16b67520dde903", "lat": 38.91877266666667, "name": "7ec708778c73696ced16b67520dde903", "lon": -77.03509883333334, "fusion_lon": 0.0}, {"is_reserved": 0, "type": "electric_scooter", "fusion_lat": 0.0, "is_disabled": 0, "rental_uris": {"ios": "https://dc.lft.to/lastmile_qr_scan", "android": "https://dc.lft.to/lastmile_qr_scan"}, "bike_id": "50e82152c2213ad830aa33f7252a1868", "lat": 38.91653266666667, "name": "50e82152c2213ad830aa33f7252a1868", "lon": -77.01027766666667, "fusion_lon": 0.0}, {"is_reserved": 0, "type": "electric_scooter", "fusion_lat": 0.0, "is_disabled": 0, "rental_uris": {"ios": "https://dc.lft.to/lastmile_qr_scan", "android": "https://dc.lft.to/lastmile_qr_scan"}, "bike_id": "4a3e14e38fec9484915fbda8880a652f", "lat": 38.944844833333335, "name": "4a3e14e38fec9484915fbda8880a652f", "lon": -77.0950865, "fusion_lon": 0.0}, {"is_reserved": 0, "type": "electric_bike", "fusion_lat": 0.0, "is_disabled": 0, "rental_uris": {"ios": "https://dc.lft.to/lastmile_qr_scan", "android": "https://dc.lft.to/lastmile_qr_scan"}, "bike_id": "66a2e6456ea2e49adeb682c568e48205", "lat": 38.8830315, "name": "66a2e6456ea2e49adeb682c568e48205", "lon": -77.00196216666667, "fusion_lon": 0.0}, {"is_reserved": 0, "type": "electric_scooter", "fusion_lat": 0.0, "is_disabled": 0, "rental_uris": {"ios": "https://dc.lft.to/lastmile_qr_scan", "android": "https://dc.lft.to/lastmile_qr_scan"}, "bike_id": "e3d71b6ec2707c5908033c688c110b35", "lat": 38.92155116666667, "name": "e3d71b6ec2707c5908033c688c110b35", "lon": -77.03385283333333, "fusion_lon": 0.0}, {"is_reserved": 0, "type": "electric_scooter", "fusion_lat": 0.0, "is_disabled": 0, "rental_uris": {"ios": "https://dc.lft.to/lastmile_qr_scan", "android": "https://dc.lft.to/lastmile_qr_scan"}, "bike_id": "b716e20c10669c000dff2485c4ac3198", "lat": 38.896342, "name": "b716e20c10669c000dff2485c4ac3198", "lon": -77.02859433333333, "fusion_lon": 0.0}, {"is_reserved": 0, "type": "electric_scooter", "fusion_lat": 0.0, "is_disabled": 0, "rental_uris": {"ios": "https://dc.lft.to/lastmile_qr_scan", "android": "https://dc.lft.to/lastmile_qr_scan"}, "bike_id": "a7dd1b1255b9c8ae9366918a758a0053", "lat": 38.935941166666666, "name": "a7dd1b1255b9c8ae9366918a758a0053", "lon": -77.0376895, "fusion_lon": 0.0}, {"is_reserved": 0, "type": "electric_scooter", "fusion_lat": 0.0, "is_disabled": 0, "rental_uris": {"ios": "https://dc.lft.to/lastmile_qr_scan", "android": "https://dc.lft.to/lastmile_qr_scan"}, "bike_id": "34b5be8e70914141f5858ec0a76c682e", "lat": 38.892224, "name": "34b5be8e70914141f5858ec0a76c682e", "lon": -77.0463865, "fusion_lon": 0.0}, {"is_reserved": 0, "type": "electric_scooter", "fusion_lat": 0.0, "is_disabled": 0, "rental_uris": {"ios": "https://dc.lft.to/lastmile_qr_scan", "android": "https://dc.lft.to/lastmile_qr_scan"}, "bike_id": "e0248cd5ff99527faebe0891737fccc9", "lat": 38.922114, "name": "e0248cd5ff99527faebe0891737fccc9", "lon": -77.042363, "fusion_lon": 0.0}, {"is_reserved": 0, "type": "electric_bike", "fusion_lat": 0.0, "is_disabled": 0, "rental_uris": {"ios": "https://dc.lft.to/lastmile_qr_scan", "android": "https://dc.lft.to/lastmile_qr_scan"}, "bike_id": "dca139523ab2f85fca77b17c10dbfcb0", "lat": 38.80980233333333, "name": "dca139523ab2f85fca77b17c10dbfcb0", "lon": -77.07658666666667, "fusion_lon": 0.0}, {"is_reserved": 0, "type": "electric_scooter", "fusion_lat": 0.0, "is_disabled": 0, "rental_uris": {"ios": "https://dc.lft.to/lastmile_qr_scan", "android": "https://dc.lft.to/lastmile_qr_scan"}, "bike_id": "5a8f76c51b544d01fff6b4cca7d892eb", "lat": 38.898204, "name": "5a8f76c51b544d01fff6b4cca7d892eb", "lon": -76.93006233333334, "fusion_lon": 0.0}, {"is_reserved": 0, "type": "electric_scooter", "fusion_lat": 0.0, "is_disabled": 0, "rental_uris": {"ios": "https://dc.lft.to/lastmile_qr_scan", "android": "https://dc.lft.to/lastmile_qr_scan"}, "bike_id": "899a3873e49f0c661e1a967f45e24bac", "lat": 38.8975805, "name": "899a3873e49f0c661e1a967f45e24bac", "lon": -77.0477615, "fusion_lon": 0.0}, {"is_reserved": 0, "type": "electric_bike", "fusion_lat": 0.0, "is_disabled": 0, "rental_uris": {"ios": "https://dc.lft.to/lastmile_qr_scan", "android": "https://dc.lft.to/lastmile_qr_scan"}, "bike_id": "c2ea895750d61954113baa537db40169", "lat": 38.920196833333335, "name": "c2ea895750d61954113baa537db40169", "lon": -77.00328583333334, "fusion_lon": 0.0}, {"is_reserved": 0, "type": "electric_scooter", "fusion_lat": 0.0, "is_disabled": 0, "rental_uris": {"ios": "https://dc.lft.to/lastmile_qr_scan", "android": "https://dc.lft.to/lastmile_qr_scan"}, "bike_id": "69e3454b35b5553ee26e866b5f25d82d", "lat": 38.89818866666667, "name": "69e3454b35b5553ee26e866b5f25d82d", "lon": -77.0126885, "fusion_lon": 0.0}, {"is_reserved": 0, "type": "electric_bike", "fusion_lat": 0.0, "is_disabled": 0, "rental_uris": {"ios": "https://dc.lft.to/lastmile_qr_scan", "android": "https://dc.lft.to/lastmile_qr_scan"}, "bike_id": "80dc030187be3784382323b6fec9eec3", "lat": 38.9364195, "name": "80dc030187be3784382323b6fec9eec3", "lon": -76.95457033333334, "fusion_lon": 0.0}, {"is_reserved": 0, "type": "electric_scooter", "fusion_lat": 0.0, "is_disabled": 0, "rental_uris": {"ios": "https://dc.lft.to/lastmile_qr_scan", "android": "https://dc.lft.to/lastmile_qr_scan"}, "bike_id": "273e3838e413a2807ec26ea2e97b599a", "lat": 38.894436166666665, "name": "273e3838e413a2807ec26ea2e97b599a", "lon": -76.98087833333334, "fusion_lon": 0.0}, {"is_reserved": 0, "type": "electric_scooter", "fusion_lat": 0.0, "is_disabled": 0, "rental_uris": {"ios": "https://dc.lft.to/lastmile_qr_scan", "android": "https://dc.lft.to/lastmile_qr_scan"}, "bike_id": "13a92513fec0e4c63ded613024e74cb3", "lat": 38.92665266666667, "name": "13a92513fec0e4c63ded613024e74cb3", "lon": -76.99536516666667, "fusion_lon": 0.0}, {"is_reserved": 0, "type": "electric_scooter", "fusion_lat": 0.0, "is_disabled": 0, "rental_uris": {"ios": "https://dc.lft.to/lastmile_qr_scan", "android": "https://dc.lft.to/lastmile_qr_scan"}, "bike_id": "7b68edabb95a5602694297f6998d56d7", "lat": 38.9353395, "name": "7b68edabb95a5602694297f6998d56d7", "lon": -77.0235535, "fusion_lon": 0.0}, {"is_reserved": 0, "type": "electric_bike", "fusion_lat": 0.0, "is_disabled": 0, "rental_uris": {"ios": "https://dc.lft.to/lastmile_qr_scan", "android": "https://dc.lft.to/lastmile_qr_scan"}, "bike_id": "5c31e0c8ff958376f5f5092c5de30beb", "lat": 38.924386166666665, "name": "5c31e0c8ff958376f5f5092c5de30beb", "lon": -77.02499666666667, "fusion_lon": 0.0}, {"is_reserved": 0, "type": "electric_scooter", "fusion_lat": 0.0, "is_disabled": 0, "rental_uris": {"ios": "https://dc.lft.to/lastmile_qr_scan", "android": "https://dc.lft.to/lastmile_qr_scan"}, "bike_id": "15f21e307141d5fda0dd872d354bd769", "lat": 38.92959966666667, "name": "15f21e307141d5fda0dd872d354bd769", "lon": -77.03171233333333, "fusion_lon": 0.0}, {"is_reserved": 0, "type": "electric_scooter", "fusion_lat": 0.0, "is_disabled": 0, "rental_uris": {"ios": "https://dc.lft.to/lastmile_qr_scan", "android": "https://dc.lft.to/lastmile_qr_scan"}, "bike_id": "8e2239e5ce5074fadc501fc93bc63150", "lat": 38.88038266666667, "name": "8e2239e5ce5074fadc501fc93bc63150", "lon": -76.92720183333333, "fusion_lon": 0.0}, {"is_reserved": 0, "type": "electric_scooter", "fusion_lat": 0.0, "is_disabled": 0, "rental_uris": {"ios": "https://dc.lft.to/lastmile_qr_scan", "android": "https://dc.lft.to/lastmile_qr_scan"}, "bike_id": "d16e3fdbcf9ec8a10afb67b391751e15", "lat": 38.941734, "name": "d16e3fdbcf9ec8a10afb67b391751e15", "lon": -77.025377, "fusion_lon": 0.0}, {"is_reserved": 0, "type": "electric_scooter", "fusion_lat": 0.0, "is_disabled": 0, "rental_uris": {"ios": "https://dc.lft.to/lastmile_qr_scan", "android": "https://dc.lft.to/lastmile_qr_scan"}, "bike_id": "e452a7d0ce9f097fb6219d963d18af7a", "lat": 38.90686216666667, "name": "e452a7d0ce9f097fb6219d963d18af7a", "lon": -77.02711, "fusion_lon": 0.0}, {"is_reserved": 0, "type": "electric_scooter", "fusion_lat": 0.0, "is_disabled": 0, "rental_uris": {"ios": "https://dc.lft.to/lastmile_qr_scan", "android": "https://dc.lft.to/lastmile_qr_scan"}, "bike_id": "400659e73754334af18520f95c1add28", "lat": 38.909651333333336, "name": "400659e73754334af18520f95c1add28", "lon": -77.04843333333334, "fusion_lon": 0.0}, {"is_reserved": 0, "type": "electric_scooter", "fusion_lat": 0.0, "is_disabled": 0, "rental_uris": {"ios": "https://dc.lft.to/lastmile_qr_scan", "android": "https://dc.lft.to/lastmile_qr_scan"}, "bike_id": "d233279d220ccc89202e7c156c781982", "lat": 38.902739833333335, "name": "d233279d220ccc89202e7c156c781982", "lon": -77.02797316666667, "fusion_lon": 0.0}, {"is_reserved": 0, "type": "electric_scooter", "fusion_lat": 0.0, "is_disabled": 0, "rental_uris": {"ios": "https://dc.lft.to/lastmile_qr_scan", "android": "https://dc.lft.to/lastmile_qr_scan"}, "bike_id": "96af6ce04dc3d81d17136849d0decb47", "lat": 38.916167, "name": "96af6ce04dc3d81d17136849d0decb47", "lon": -77.04588316666667, "fusion_lon": 0.0}, {"is_reserved": 0, "type": "electric_bike", "fusion_lat": 0.0, "is_disabled": 0, "rental_uris": {"ios": "https://dc.lft.to/lastmile_qr_scan", "android": "https://dc.lft.to/lastmile_qr_scan"}, "bike_id": "185c49e090da3eeb41f0d8c08bcdca70", "lat": 38.82928016666666, "name": "185c49e090da3eeb41f0d8c08bcdca70", "lon": -77.06878333333333, "fusion_lon": 0.0}, {"is_reserved": 0, "type": "electric_scooter", "fusion_lat": 0.0, "is_disabled": 0, "rental_uris": {"ios": "https://dc.lft.to/lastmile_qr_scan", "android": "https://dc.lft.to/lastmile_qr_scan"}, "bike_id": "a6fe67ad7c7376b7cbcb86f3f23f24a3", "lat": 38.91477716666667, "name": "a6fe67ad7c7376b7cbcb86f3f23f24a3", "lon": -77.01451216666666, "fusion_lon": 0.0}, {"is_reserved": 0, "type": "electric_scooter", "fusion_lat": 0.0, "is_disabled": 0, "rental_uris": {"ios": "https://dc.lft.to/lastmile_qr_scan", "android": "https://dc.lft.to/lastmile_qr_scan"}, "bike_id": "2709c590615840c1408c8670039bac2f", "lat": 38.92385433333333, "name": "2709c590615840c1408c8670039bac2f", "lon": -77.02608316666667, "fusion_lon": 0.0}, {"is_reserved": 0, "type": "electric_scooter", "fusion_lat": 0.0, "is_disabled": 0, "rental_uris": {"ios": "https://dc.lft.to/lastmile_qr_scan", "android": "https://dc.lft.to/lastmile_qr_scan"}, "bike_id": "fb050b12df178ff855af01d092c4cf5a", "lat": 38.89908533333333, "name": "fb050b12df178ff855af01d092c4cf5a", "lon": -76.93392916666667, "fusion_lon": 0.0}, {"is_reserved": 0, "type": "electric_scooter", "fusion_lat": 0.0, "is_disabled": 0, "rental_uris": {"ios": "https://dc.lft.to/lastmile_qr_scan", "android": "https://dc.lft.to/lastmile_qr_scan"}, "bike_id": "922cf49d612776de9e17dd875bd656ac", "lat": 38.93178833333333, "name": "922cf49d612776de9e17dd875bd656ac", "lon": -77.031567, "fusion_lon": 0.0}, {"is_reserved": 0, "type": "electric_scooter", "fusion_lat": 0.0, "is_disabled": 0, "rental_uris": {"ios": "https://dc.lft.to/lastmile_qr_scan", "android": "https://dc.lft.to/lastmile_qr_scan"}, "bike_id": "c68e1d93413e0c4629d48471baf9b55d", "lat": 38.90144016666667, "name": "c68e1d93413e0c4629d48471baf9b55d", "lon": -76.9316325, "fusion_lon": 0.0}, {"is_reserved": 0, "type": "electric_bike", "fusion_lat": 0.0, "is_disabled": 0, "rental_uris": {"ios": "https://dc.lft.to/lastmile_qr_scan", "android": "https://dc.lft.to/lastmile_qr_scan"}, "bike_id": "ce37bac4629d54f60afc5e094c2b872f", "lat": 38.8133195, "name": "ce37bac4629d54f60afc5e094c2b872f", "lon": -77.0508815, "fusion_lon": 0.0}, {"is_reserved": 0, "type": "electric_scooter", "fusion_lat": 0.0, "is_disabled": 0, "rental_uris": {"ios": "https://dc.lft.to/lastmile_qr_scan", "android": "https://dc.lft.to/lastmile_qr_scan"}, "bike_id": "baadd3834974cc9551c8bd16e0bd218c", "lat": 38.92167516666667, "name": "baadd3834974cc9551c8bd16e0bd218c", "lon": -77.03822366666667, "fusion_lon": 0.0}, {"is_reserved": 0, "type": "electric_scooter", "fusion_lat": 0.0, "is_disabled": 0, "rental_uris": {"ios": "https://dc.lft.to/lastmile_qr_scan", "android": "https://dc.lft.to/lastmile_qr_scan"}, "bike_id": "5a53b200aed62cfcf445feedd6e1c253", "lat": 38.9010405, "name": "5a53b200aed62cfcf445feedd6e1c253", "lon": -77.01825983333333, "fusion_lon": 0.0}, {"is_reserved": 0, "type": "electric_scooter", "fusion_lat": 0.0, "is_disabled": 0, "rental_uris": {"ios": "https://dc.lft.to/lastmile_qr_scan", "android": "https://dc.lft.to/lastmile_qr_scan"}, "bike_id": "5e076f0b179215ee35f891dd07746d52", "lat": 38.9661885, "name": "5e076f0b179215ee35f891dd07746d52", "lon": -77.0200215, "fusion_lon": 0.0}, {"is_reserved": 0, "type": "electric_bike", "fusion_lat": 0.0, "is_disabled": 0, "rental_uris": {"ios": "https://dc.lft.to/lastmile_qr_scan", "android": "https://dc.lft.to/lastmile_qr_scan"}, "bike_id": "06ca267353868e3f4f618961fe5368ad", "lat": 38.90690633333333, "name": "06ca267353868e3f4f618961fe5368ad", "lon": -76.95252883333333, "fusion_lon": 0.0}, {"is_reserved": 0, "type": "electric_scooter", "fusion_lat": 0.0, "is_disabled": 0, "rental_uris": {"ios": "https://dc.lft.to/lastmile_qr_scan", "android": "https://dc.lft.to/lastmile_qr_scan"},