{"data": {"bikes": [{"lat": 38.9088325, "is_disabled": 0, "type": "electric_scooter", "lon": -77.04327733333334, "bike_id": "efef58f397982845b627262e4dd90332", "fusion_lat": 0.0, "name": "efef58f397982845b627262e4dd90332", "is_reserved": 0, "rental_uris": {"android": "https://dc.lft.to/lastmile_qr_scan", "ios": "https://dc.lft.to/lastmile_qr_scan"}, "fusion_lon": 0.0}, {"lat": 38.92487783333333, "is_disabled": 0, "type": "electric_scooter", "lon": -77.052097, "bike_id": "57c3e5b319401250906c3bf0bdc3d783", "fusion_lat": 0.0, "name": "57c3e5b319401250906c3bf0bdc3d783", "is_reserved": 0, "rental_uris": {"android": "https://dc.lft.to/lastmile_qr_scan", "ios": "https://dc.lft.to/lastmile_qr_scan"}, "fusion_lon": 0.0}, {"lat": 38.925982166666664, "is_disabled": 0, "type": "electric_scooter", "lon": -77.05692516666667, "bike_id": "4e6a3c994796c81f4b762cc45d69ca7a", "fusion_lat": 0.0, "name": "4e6a3c994796c81f4b762cc45d69ca7a", "is_reserved": 0, "rental_uris": {"android": "https://dc.lft.to/lastmile_qr_scan", "ios": "https://dc.lft.to/lastmile_qr_scan"}, "fusion_lon": 0.0}, {"lat": 38.90585866666667, "is_disabled": 0, "type": "electric_scooter", "lon": -77.044305, "bike_id": "3c032c52c7c434465c79e73bbfa1a7a2", "fusion_lat": 0.0, "name": "3c032c52c7c434465c79e73bbfa1a7a2", "is_reserved": 0, "rental_uris": {"android": "https://dc.lft.to/lastmile_qr_scan", "ios": "https://dc.lft.to/lastmile_qr_scan"}, "fusion_lon": 0.0}, {"lat": 38.92330033333333, "is_disabled": 0, "type": "electric_scooter", "lon": -77.03888116666667, "bike_id": "3cde45e47ec6e5239cbd0b3010bc9bd2", "fusion_lat": 0.0, "name": "3cde45e47ec6e5239cbd0b3010bc9bd2", "is_reserved": 0, "rental_uris": {"android": "https://dc.lft.to/lastmile_qr_scan", "ios": "https://dc.lft.to/lastmile_qr_scan"}, "fusion_lon": 0.0}, {"lat": 38.94503483333333, "is_disabled": 0, "type": "electric_scooter", "lon": -77.01546533333334, "bike_id": "9904f81ad262f3395f2214e755aa8a04", "fusion_lat": 0.0, "name": "9904f81ad262f3395f2214e755aa8a04", "is_reserved": 0, "rental_uris": {"android": "https://dc.lft.to/lastmile_qr_scan", "ios": "https://dc.lft.to/lastmile_qr_scan"}, "fusion_lon": 0.0}, {"lat": 38.92070616666667, "is_disabled": 0, "type": "electric_scooter", "lon": -77.02424766666667, "bike_id": "4d254608875bf38d55946ea333395f96", "fusion_lat": 0.0, "name": "4d254608875bf38d55946ea333395f96", "is_reserved": 0, "rental_uris": {"android": "https://dc.lft.to/lastmile_qr_scan", "ios": "https://dc.lft.to/lastmile_qr_scan"}, "fusion_lon": 0.0}, {"lat": 38.898545666666664, "is_disabled": 0, "type": "electric_scooter", "lon": -77.01881266666666, "bike_id": "77f2ae7f5b3dc1117da908993b8be526", "fusion_lat": 0.0, "name": "77f2ae7f5b3dc1117da908993b8be526", "is_reserved": 0, "rental_uris": {"android": "https://dc.lft.to/lastmile_qr_scan", "ios": "https://dc.lft.to/lastmile_qr_scan"}, "fusion_lon": 0.0}, {"lat": 38.90393183333333, "is_disabled": 0, "type": "electric_scooter", "lon": -77.0175475, "bike_id": "59a7d21acb8187b7041ee363eeb57ead", "fusion_lat": 0.0, "name": "59a7d21acb8187b7041ee363eeb57ead", "is_reserved": 0, "rental_uris": {"android": "https://dc.lft.to/lastmile_qr_scan", "ios": "https://dc.lft.to/lastmile_qr_scan"}, "fusion_lon": 0.0}, {"lat": 38.92191666666667, "is_disabled": 0, "type": "electric_scooter", "lon": -77.0297985, "bike_id": "e8c0f0e6a3468890a9b9dc4f345bd869", "fusion_lat": 0.0, "name": "e8c0f0e6a3468890a9b9dc4f345bd869", "is_reserved": 0, "rental_uris": {"android": "https://dc.lft.to/lastmile_qr_scan", "ios": "https://dc.lft.to/lastmile_qr_scan"}, "fusion_lon": 0.0}, {"lat": 38.91607366666667, "is_disabled": 0, "type": "electric_scooter", "lon": -77.03208033333334, "bike_id": "e8978647f53948339c189841cdf4771e", "fusion_lat": 0.0, "name": "e8978647f53948339c189841cdf4771e", "is_reserved": 0, "rental_uris": {"android": "https://dc.lft.to/lastmile_qr_scan", "ios": "https://dc.lft.to/lastmile_qr_scan"}, "fusion_lon": 0.0}, {"lat": 38.89499083333333, "is_disabled": 0, "type": "electric_scooter", "lon": -77.02290033333334, "bike_id": "bffa9f7a8f789cc7677a0cf538d3996d", "fusion_lat": 0.0, "name": "bffa9f7a8f789cc7677a0cf538d3996d", "is_reserved": 0, "rental_uris": {"android": "https://dc.lft.to/lastmile_qr_scan", "ios": "https://dc.lft.to/lastmile_qr_scan"}, "fusion_lon": 0.0}, {"lat": 38.93080833333333, "is_disabled": 0, "type": "electric_scooter", "lon": -77.01660216666667, "bike_id": "cdb18af9db958caadc6af3ab8767ef5b", "fusion_lat": 0.0, "name": "cdb18af9db958caadc6af3ab8767ef5b", "is_reserved": 0, "rental_uris": {"android": "https://dc.lft.to/lastmile_qr_scan", "ios": "https://dc.lft.to/lastmile_qr_scan"}, "fusion_lon": 0.0}, {"lat": 38.8968365, "is_disabled": 0, "type": "electric_scooter", "lon": -76.93608383333333, "bike_id": "69c2bdf3ac24994688ef09c4a411cf6a", "fusion_lat": 0.0, "name": "69c2bdf3ac24994688ef09c4a411cf6a", "is_reserved": 0, "rental_uris": {"android": "https://dc.lft.to/lastmile_qr_scan", "ios": "https://dc.lft.to/lastmile_qr_scan"}, "fusion_lon": 0.0}, {"lat": 38.9207855, "is_disabled": 0, "type": "electric_scooter", "lon": -77.04189983333333, "bike_id": "abb42d284daa0fe259ad8aac0efe3f40", "fusion_lat": 0.0, "name": "abb42d284daa0fe259ad8aac0efe3f40", "is_reserved": 0, "rental_uris": {"android": "https://dc.lft.to/lastmile_qr_scan", "ios": "https://dc.lft.to/lastmile_qr_scan"}, "fusion_lon": 0.0}, {"lat": 38.89570883333333, "is_disabled": 0, "type": "electric_scooter", "lon": -77.02175, "bike_id": "3bc83c7b49d989f83377c39b3609a2be", "fusion_lat": 0.0, "name": "3bc83c7b49d989f83377c39b3609a2be", "is_reserved": 0, "rental_uris": {"android": "https://dc.lft.to/lastmile_qr_scan", "ios": "https://dc.lft.to/lastmile_qr_scan"}, "fusion_lon": 0.0}, {"lat": 38.90709066666667, "is_disabled": 0, "type": "electric_scooter", "lon": -77.03441766666667, "bike_id": "0c67ea81f498fe7096f68e744b5fda03", "fusion_lat": 0.0, "name": "0c67ea81f498fe7096f68e744b5fda03", "is_reserved": 0, "rental_uris": {"android": "https://dc.lft.to/lastmile_qr_scan", "ios": "https://dc.lft.to/lastmile_qr_scan"}, "fusion_lon": 0.0}, {"lat": 38.887247, "is_disabled": 0, "type": "electric_scooter", "lon": -76.95480166666667, "bike_id": "ce13f0a7004a3edf10d1e8f0c734b1f8", "fusion_lat": 0.0, "name": "ce13f0a7004a3edf10d1e8f0c734b1f8", "is_reserved": 0, "rental_uris": {"android": "https://dc.lft.to/lastmile_qr_scan", "ios": "https://dc.lft.to/lastmile_qr_scan"}, "fusion_lon": 0.0}, {"lat": 38.92581716666667, "is_disabled": 0, "type": "electric_scooter", "lon": -77.02756116666667, "bike_id": "a23e3640b33e6798d4fce1bb084f8205", "fusion_lat": 0.0, "name": "a23e3640b33e6798d4fce1bb084f8205", "is_reserved": 0, "rental_uris": {"android": "https://dc.lft.to/lastmile_qr_scan", "ios": "https://dc.lft.to/lastmile_qr_scan"}, "fusion_lon": 0.0}, {"lat": 38.896862166666665, "is_disabled": 0, "type": "electric_scooter", "lon": -76.99619216666666, "bike_id": "3c0367c4f9390a7e4c19c977963d01a1", "fusion_lat": 0.0, "name": "3c0367c4f9390a7e4c19c977963d01a1", "is_reserved": 0, "rental_uris": {"android": "https://dc.lft.to/lastmile_qr_scan", "ios": "https://dc.lft.to/lastmile_qr_scan"}, "fusion_lon": 0.0}, {"lat": 38.85323866666667, "is_disabled": 0, "type": "electric_bike", "lon": -76.98009466666667, "bike_id": "9f5275f8ca7be9080e7c7eff90c83bef", "fusion_lat": 0.0, "name": "9f5275f8ca7be9080e7c7eff90c83bef", "is_reserved": 0, "rental_uris": {"android": "https://dc.lft.to/lastmile_qr_scan", "ios": "https://dc.lft.to/lastmile_qr_scan"}, "fusion_lon": 0.0}, {"lat": 38.924150833333336, "is_disabled": 0, "type": "electric_bike", "lon": -77.05042966666667, "bike_id": "8b2af05befada6f322ed4c78d252bf9a", "fusion_lat": 0.0, "name": "8b2af05befada6f322ed4c78d252bf9a", "is_reserved": 0, "rental_uris": {"android": "https://dc.lft.to/lastmile_qr_scan", "ios": "https://dc.lft.to/lastmile_qr_scan"}, "fusion_lon": 0.0}, {"lat": 38.92473316666667, "is_disabled": 0, "type": "electric_bike", "lon": -77.2084035, "bike_id": "9c03b49d1bd4eab9a9412cf6da26d303", "fusion_lat": 0.0, "name": "9c03b49d1bd4eab9a9412cf6da26d303", "is_reserved": 0, "rental_uris": {"android": "https://dc.lft.to/lastmile_qr_scan", "ios": "https://dc.lft.to/lastmile_qr_scan"}, "fusion_lon": 0.0}, {"lat": 38.900363666666664, "is_disabled": 0, "type": "electric_scooter", "lon": -77.00575783333333, "bike_id": "7967eaeaf1bfb1362e5d906c41ca0283", "fusion_lat": 0.0, "name": "7967eaeaf1bfb1362e5d906c41ca0283", "is_reserved": 0, "rental_uris": {"android": "https://dc.lft.to/lastmile_qr_scan", "ios": "https://dc.lft.to/lastmile_qr_scan"}, "fusion_lon": 0.0}, {"lat": 38.874480166666665, "is_disabled": 0, "type": "electric_bike", "lon": -77.1082205, "bike_id": "67704a257c87047b8dec27f547f5045f", "fusion_lat": 0.0, "name": "67704a257c87047b8dec27f547f5045f", "is_reserved": 0, "rental_uris": {"android": "https://dc.lft.to/lastmile_qr_scan", "ios": "https://dc.lft.to/lastmile_qr_scan"}, "fusion_lon": 0.0}, {"lat": 38.8937345, "is_disabled": 0, "type": "electric_scooter", "lon": -77.04793733333334, "bike_id": "6088ce928771112a28f03a3099b31971", "fusion_lat": 0.0, "name": "6088ce928771112a28f03a3099b31971", "is_reserved": 0, "rental_uris": {"android": "https://dc.lft.to/lastmile_qr_scan", "ios": "https://dc.lft.to/lastmile_qr_scan"}, "fusion_lon": 0.0}, {"lat": 38.858105333333334, "is_disabled": 0, "type": "electric_scooter", "lon": -76.98652833333334, "bike_id": "a7dc22c7a978d53a5d9bc7a7425b91aa", "fusion_lat": 0.0, "name": "a7dc22c7a978d53a5d9bc7a7425b91aa", "is_reserved": 0, "rental_uris": {"android": "https://dc.lft.to/lastmile_qr_scan", "ios": "https://dc.lft.to/lastmile_qr_scan"}, "fusion_lon": 0.0}, {"lat": 38.95279216666667, "is_disabled": 0, "type": "electric_scooter", "lon": -77.03657666666666, "bike_id": "da7a5e9151a6612faa905b5c2f24988e", "fusion_lat": 0.0, "name": "da7a5e9151a6612faa905b5c2f24988e", "is_reserved": 0, "rental_uris": {"android": "https://dc.lft.to/lastmile_qr_scan", "ios": "https://dc.lft.to/lastmile_qr_scan"}, "fusion_lon": 0.0}, {"lat": 38.9131375, "is_disabled": 0, "type": "electric_scooter", "lon": -77.0454195, "bike_id": "69bde5496dabcbaa4f0ebd44be172105", "fusion_lat": 0.0, "name": "69bde5496dabcbaa4f0ebd44be172105", "is_reserved": 0, "rental_uris": {"android": "https://dc.lft.to/lastmile_qr_scan", "ios": "https://dc.lft.to/lastmile_qr_scan"}, "fusion_lon": 0.0}, {"lat": 38.9178855, "is_disabled": 0, "type": "electric_scooter", "lon": -77.04147866666666, "bike_id": "db49d99f23fc040d4f30882b7a1e7c66", "fusion_lat": 0.0, "name": "db49d99f23fc040d4f30882b7a1e7c66", "is_reserved": 0, "rental_uris": {"android": "https://dc.lft.to/lastmile_qr_scan", "ios": "https://dc.lft.to/lastmile_qr_scan"}, "fusion_lon": 0.0}, {"lat": 38.944511166666665, "is_disabled": 0, "type": "electric_scooter", "lon": -77.03282766666666, "bike_id": "b2cde3789ee6a1089bc2572e40be5da4", "fusion_lat": 0.0, "name": "b2cde3789ee6a1089bc2572e40be5da4", "is_reserved": 0, "rental_uris": {"android": "https://dc.lft.to/lastmile_qr_scan", "ios": "https://dc.lft.to/lastmile_qr_scan"}, "fusion_lon": 0.0}, {"lat": 38.930842, "is_disabled": 0, "type": "electric_scooter", "lon": -77.027973, "bike_id": "ceae3473bbfa6d98885b1d3638c21cc4", "fusion_lat": 0.0, "name": "ceae3473bbfa6d98885b1d3638c21cc4", "is_reserved": 0, "rental_uris": {"android": "https://dc.lft.to/lastmile_qr_scan", "ios": "https://dc.lft.to/lastmile_qr_scan"}, "fusion_lon": 0.0}, {"lat": 38.916986666666666, "is_disabled": 0, "type": "electric_scooter", "lon": -77.043343, "bike_id": "931b0e19594eac431fe562bdefb93762", "fusion_lat": 0.0, "name": "931b0e19594eac431fe562bdefb93762", "is_reserved": 0, "rental_uris": {"android": "https://dc.lft.to/lastmile_qr_scan", "ios": "https://dc.lft.to/lastmile_qr_scan"}, "fusion_lon": 0.0}, {"lat": 38.9640025, "is_disabled": 0, "type": "electric_scooter", "lon": -77.02586633333334, "bike_id": "0180ebfc61b631b840b6870297919e70", "fusion_lat": 0.0, "name": "0180ebfc61b631b840b6870297919e70", "is_reserved": 0, "rental_uris": {"android": "https://dc.lft.to/lastmile_qr_scan", "ios": "https://dc.lft.to/lastmile_qr_scan"}, "fusion_lon": 0.0}, {"lat": 38.89099566666667, "is_disabled": 0, "type": "electric_scooter", "lon": -76.9429625, "bike_id": "011017e5aec8ea32fb0f659af96b7c62", "fusion_lat": 0.0, "name": "011017e5aec8ea32fb0f659af96b7c62", "is_reserved": 0, "rental_uris": {"android": "https://dc.lft.to/lastmile_qr_scan", "ios": "https://dc.lft.to/lastmile_qr_scan"}, "fusion_lon": 0.0}, {"lat": 38.923097, "is_disabled": 0, "type": "electric_scooter", "lon": -77.02013733333334, "bike_id": "053857f1350c445706908160de713b20", "fusion_lat": 0.0, "name": "053857f1350c445706908160de713b20", "is_reserved": 0, "rental_uris": {"android": "https://dc.lft.to/lastmile_qr_scan", "ios": "https://dc.lft.to/lastmile_qr_scan"}, "fusion_lon": 0.0}, {"lat": 38.919282333333335, "is_disabled": 0, "type": "electric_scooter", "lon": -77.03181816666667, "bike_id": "5cd04493b7aba5df94c69dacd8abb09b", "fusion_lat": 0.0, "name": "5cd04493b7aba5df94c69dacd8abb09b", "is_reserved": 0, "rental_uris": {"android": "https://dc.lft.to/lastmile_qr_scan", "ios": "https://dc.lft.to/lastmile_qr_scan"}, "fusion_lon": 0.0}, {"lat": 38.867116, "is_disabled": 0, "type": "electric_scooter", "lon": -76.98727833333334, "bike_id": "76f7daa4b3b6d9d73209b6f503e7af82", "fusion_lat": 0.0, "name": "76f7daa4b3b6d9d73209b6f503e7af82", "is_reserved": 0, "rental_uris": {"android": "https://dc.lft.to/lastmile_qr_scan", "ios": "https://dc.lft.to/lastmile_qr_scan"}, "fusion_lon": 0.0}, {"lat": 38.920340333333336, "is_disabled": 0, "type": "electric_scooter", "lon": -76.97803916666666, "bike_id": "7a65628ed463b282ea0a8b1627154c54", "fusion_lat": 0.0, "name": "7a65628ed463b282ea0a8b1627154c54", "is_reserved": 0, "rental_uris": {"android": "https://dc.lft.to/lastmile_qr_scan", "ios": "https://dc.lft.to/lastmile_qr_scan"}, "fusion_lon": 0.0}, {"lat": 38.9444025, "is_disabled": 0, "type": "electric_scooter", "lon": -77.06403866666666, "bike_id": "2b4c5fb19f0f4996f52fc45911ffafbf", "fusion_lat": 0.0, "name": "2b4c5fb19f0f4996f52fc45911ffafbf", "is_reserved": 0, "rental_uris": {"android": "https://dc.lft.to/lastmile_qr_scan", "ios": "https://dc.lft.to/lastmile_qr_scan"}, "fusion_lon": 0.0}, {"lat": 38.887469833333334, "is_disabled": 0, "type": "electric_scooter", "lon": -77.02072866666667, "bike_id": "163960123ef542aa54f5b6a658d71230", "fusion_lat": 0.0, "name": "163960123ef542aa54f5b6a658d71230", "is_reserved": 0, "rental_uris": {"android": "https://dc.lft.to/lastmile_qr_scan", "ios": "https://dc.lft.to/lastmile_qr_scan"}, "fusion_lon": 0.0}, {"lat": 38.89221716666667, "is_disabled": 0, "type": "electric_scooter", "lon": -77.03976183333333, "bike_id": "d516ea562b68e49d0e12ed044250380b", "fusion_lat": 0.0, "name": "d516ea562b68e49d0e12ed044250380b", "is_reserved": 0, "rental_uris": {"android": "https://dc.lft.to/lastmile_qr_scan", "ios": "https://dc.lft.to/lastmile_qr_scan"}, "fusion_lon": 0.0}, {"lat": 38.88742583333333, "is_disabled": 0, "type": "electric_scooter", "lon": -77.01533433333333, "bike_id": "4374ed6c45b88d18b7514d7676667971", "fusion_lat": 0.0, "name": "4374ed6c45b88d18b7514d7676667971", "is_reserved": 0, "rental_uris": {"android": "https://dc.lft.to/lastmile_qr_scan", "ios": "https://dc.lft.to/lastmile_qr_scan"}, "fusion_lon": 0.0}, {"lat": 38.866181, "is_disabled": 0, "type": "electric_scooter", "lon": -76.98664716666667, "bike_id": "f18e6f44142c3e8135b048e0e42c3651", "fusion_lat": 0.0, "name": "f18e6f44142c3e8135b048e0e42c3651", "is_reserved": 0, "rental_uris": {"android": "https://dc.lft.to/lastmile_qr_scan", "ios": "https://dc.lft.to/lastmile_qr_scan"}, "fusion_lon": 0.0}, {"lat": 38.93573966666666, "is_disabled": 0, "type": "electric_scooter", "lon": -77.03733666666666, "bike_id": "cce255dbf49be1e52ea486475dca4096", "fusion_lat": 0.0, "name": "cce255dbf49be1e52ea486475dca4096", "is_reserved": 0, "rental_uris": {"android": "https://dc.lft.to/lastmile_qr_scan", "ios": "https://dc.lft.to/lastmile_qr_scan"}, "fusion_lon": 0.0}, {"lat": 38.89486683333333, "is_disabled": 0, "type": "electric_scooter", "lon": -76.94953116666667, "bike_id": "07888ab4da7d038a33ed58c55d7cb78b", "fusion_lat": 0.0, "name": "07888ab4da7d038a33ed58c55d7cb78b", "is_reserved": 0, "rental_uris": {"android": "https://dc.lft.to/lastmile_qr_scan", "ios": "https://dc.lft.to/lastmile_qr_scan"}, "fusion_lon": 0.0}, {"lat": 38.9614555, "is_disabled": 0, "type": "electric_bike", "lon": -77.03237333333334, "bike_id": "d95bf6d46e2249ebf376203f8942efbb", "fusion_lat": 0.0, "name": "d95bf6d46e2249ebf376203f8942efbb", "is_reserved": 0, "rental_uris": {"android": "https://dc.lft.to/lastmile_qr_scan", "ios": "https://dc.lft.to/lastmile_qr_scan"}, "fusion_lon": 0.0}, {"lat": 38.89228333333333, "is_disabled": 0, "type": "electric_scooter", "lon": -77.0486395, "bike_id": "8ec8a9d018c0432c046dd718a4f4f63e", "fusion_lat": 0.0, "name": "8ec8a9d018c0432c046dd718a4f4f63e", "is_reserved": 0, "rental_uris": {"android": "https://dc.lft.to/lastmile_qr_scan", "ios": "https://dc.lft.to/lastmile_qr_scan"}, "fusion_lon": 0.0}, {"lat": 38.91012833333333, "is_disabled": 0, "type": "electric_scooter", "lon": -76.99387083333333, "bike_id": "60368c46265a5156ddb6b3fb6bcbced3", "fusion_lat": 0.0, "name": "60368c46265a5156ddb6b3fb6bcbced3", "is_reserved": 0, "rental_uris": {"android": "https://dc.lft.to/lastmile_qr_scan", "ios": "https://dc.lft.to/lastmile_qr_scan"}, "fusion_lon": 0.0}, {"lat": 38.87907083333333, "is_disabled": 0, "type": "electric_scooter", "lon": -77.00706816666667, "bike_id": "72b8f05761bb140a9de56787ebcfea38", "fusion_lat": 0.0, "name": "72b8f05761bb140a9de56787ebcfea38", "is_reserved": 0, "rental_uris": {"android": "https://dc.lft.to/lastmile_qr_scan", "ios": "https://dc.lft.to/lastmile_qr_scan"}, "fusion_lon": 0.0}, {"lat": 38.898793166666664, "is_disabled": 0, "type": "electric_scooter", "lon": -77.02938766666666, "bike_id": "ecee06a227fbd045205f15ab71c20c65", "fusion_lat": 0.0, "name": "ecee06a227fbd045205f15ab71c20c65", "is_reserved": 0, "rental_uris": {"android": "https://dc.lft.to/lastmile_qr_scan", "ios": "https://dc.lft.to/lastmile_qr_scan"}, "fusion_lon": 0.0}, {"lat": 38.9088635, "is_disabled": 0, "type": "electric_scooter", "lon": -77.03666033333333, "bike_id": "4b1a19d422ece19369b382963af500f2", "fusion_lat": 0.0, "name": "4b1a19d422ece19369b382963af500f2", "is_reserved": 0, "rental_uris": {"android": "https://dc.lft.to/lastmile_qr_scan", "ios": "https://dc.lft.to/lastmile_qr_scan"}, "fusion_lon": 0.0}, {"lat": 38.9033855, "is_disabled": 0, "type": "electric_scooter", "lon": -76.97054383333334, "bike_id": "0e0389b8f18d905053ba5f2b42ad0d75", "fusion_lat": 0.0, "name": "0e0389b8f18d905053ba5f2b42ad0d75", "is_reserved": 0, "rental_uris": {"android": "https://dc.lft.to/lastmile_qr_scan", "ios": "https://dc.lft.to/lastmile_qr_scan"}, "fusion_lon": 0.0}, {"lat": 38.91995133333333, "is_disabled": 0, "type": "electric_scooter", "lon": -77.02362516666666, "bike_id": "c8eb468a93b2e6d89cc1988106402e7d", "fusion_lat": 0.0, "name": "c8eb468a93b2e6d89cc1988106402e7d", "is_reserved": 0, "rental_uris": {"android": "https://dc.lft.to/lastmile_qr_scan", "ios": "https://dc.lft.to/lastmile_qr_scan"}, "fusion_lon": 0.0}, {"lat": 38.91566733333333, "is_disabled": 0, "type": "electric_scooter", "lon": -77.009772, "bike_id": "275874f35ec2912ac8f79b01c6096b0f", "fusion_lat": 0.0, "name": "275874f35ec2912ac8f79b01c6096b0f", "is_reserved": 0, "rental_uris": {"android": "https://dc.lft.to/lastmile_qr_scan", "ios": "https://dc.lft.to/lastmile_qr_scan"}, "fusion_lon": 0.0}, {"lat": 38.91257933333333, "is_disabled": 0, "type": "electric_scooter", "lon": -77.03498383333333, "bike_id": "0ee4a04c2c1c69fa0915b9d8c35d34b7", "fusion_lat": 0.0, "name": "0ee4a04c2c1c69fa0915b9d8c35d34b7", "is_reserved": 0, "rental_uris": {"android": "https://dc.lft.to/lastmile_qr_scan", "ios": "https://dc.lft.to/lastmile_qr_scan"}, "fusion_lon": 0.0}, {"lat": 38.90191333333333, "is_disabled": 0, "type": "electric_scooter", "lon": -77.02396316666666, "bike_id": "da85727287149b925b327546582c4ac2", "fusion_lat": 0.0, "name": "da85727287149b925b327546582c4ac2", "is_reserved": 0, "rental_uris": {"android": "https://dc.lft.to/lastmile_qr_scan", "ios": "https://dc.lft.to/lastmile_qr_scan"}, "fusion_lon": 0.0}, {"lat": 38.92048416666667, "is_disabled": 0, "type": "electric_scooter", "lon": -77.04181516666667, "bike_id": "629599439ad416ce6a1814428b7519ae", "fusion_lat": 0.0, "name": "629599439ad416ce6a1814428b7519ae", "is_reserved": 0, "rental_uris": {"android": "https://dc.lft.to/lastmile_qr_scan", "ios": "https://dc.lft.to/lastmile_qr_scan"}, "fusion_lon": 0.0}, {"lat": 38.92239716666667, "is_disabled": 0, "type": "electric_scooter", "lon": -77.0290935, "bike_id": "d5b73d649116153addf37c9df4fb5aa5", "fusion_lat": 0.0, "name": "d5b73d649116153addf37c9df4fb5aa5", "is_reserved": 0, "rental_uris": {"android": "https://dc.lft.to/lastmile_qr_scan", "ios": "https://dc.lft.to/lastmile_qr_scan"}, "fusion_lon": 0.0}, {"lat": 38.90565133333333, "is_disabled": 0, "type": "electric_scooter", "lon": -77.05697066666667, "bike_id": "0a714e8d0e2820013c6da468b144ebbd", "fusion_lat": 0.0, "name": "0a714e8d0e2820013c6da468b144ebbd", "is_reserved": 0, "rental_uris": {"android": "https://dc.lft.to/lastmile_qr_scan", "ios": "https://dc.lft.to/lastmile_qr_scan"}, "fusion_lon": 0.0}, {"lat": 38.916946833333334, "is_disabled": 0, "type": "electric_scooter", "lon": -77.02986, "bike_id": "7fa4078a6a7d6c47732135b62c1fdeec", "fusion_lat": 0.0, "name": "7fa4078a6a7d6c47732135b62c1fdeec", "is_reserved": 0, "rental_uris": {"android": "https://dc.lft.to/lastmile_qr_scan", "ios": "https://dc.lft.to/lastmile_qr_scan"}, "fusion_lon": 0.0}, {"lat": 38.86230166666667, "is_disabled": 0, "type": "electric_scooter", "lon": -76.98360166666667, "bike_id": "73fdcbf6df0ee694bb84c8363d0d5b44", "fusion_lat": 0.0, "name": "73fdcbf6df0ee694bb84c8363d0d5b44", "is_reserved": 0, "rental_uris": {"android": "https://dc.lft.to/lastmile_qr_scan", "ios": "https://dc.lft.to/lastmile_qr_scan"}, "fusion_lon": 0.0}, {"lat": 38.88280966666667, "is_disabled": 0, "type": "electric_bike", "lon": -76.9324335, "bike_id": "98fff4d0046805dd01bcde53768fdcba", "fusion_lat": 0.0, "name": "98fff4d0046805dd01bcde53768fdcba", "is_reserved": 0, "rental_uris": {"android": "https://dc.lft.to/lastmile_qr_scan", "ios": "https://dc.lft.to/lastmile_qr_scan"}, "fusion_lon": 0.0}, {"lat": 38.92379366666667, "is_disabled": 0, "type": "electric_scooter", "lon": -77.02763533333334, "bike_id": "b9c7997b0eec37fbfef9353ce28d7ac6", "fusion_lat": 0.0, "name": "b9c7997b0eec37fbfef9353ce28d7ac6", "is_reserved": 0, "rental_uris": {"android": "https://dc.lft.to/lastmile_qr_scan", "ios": "https://dc.lft.to/lastmile_qr_scan"}, "fusion_lon": 0.0}, {"lat": 38.87752866666666, "is_disabled": 0, "type": "electric_bike", "lon": -76.995172, "bike_id": "cfad565edf1d11d8f39380dbe0d2e9f1", "fusion_lat": 0.0, "name": "cfad565edf1d11d8f39380dbe0d2e9f1", "is_reserved": 0, "rental_uris": {"android": "https://dc.lft.to/lastmile_qr_scan", "ios": "https://dc.lft.to/lastmile_qr_scan"}, "fusion_lon": 0.0}, {"lat": 38.9210715, "is_disabled": 0, "type": "electric_scooter", "lon": -77.04219216666667, "bike_id": "01ea7e6c46f9ab5260b9f6dc74d5ba02", "fusion_lat": 0.0, "name": "01ea7e6c46f9ab5260b9f6dc74d5ba02", "is_reserved": 0, "rental_uris": {"android": "https://dc.lft.to/lastmile_qr_scan", "ios": "https://dc.lft.to/lastmile_qr_scan"}, "fusion_lon": 0.0}, {"lat": 38.81051466666667, "is_disabled": 0, "type": "electric_bike", "lon": -77.08509133333334, "bike_id": "4ac38d0e8a0154421ddafa2b7e71ff26", "fusion_lat": 0.0, "name": "4ac38d0e8a0154421ddafa2b7e71ff26", "is_reserved": 0, "rental_uris": {"android": "https://dc.lft.to/lastmile_qr_scan", "ios": "https://dc.lft.to/lastmile_qr_scan"}, "fusion_lon": 0.0}, {"lat": 38.918823333333336, "is_disabled": 0, "type": "electric_scooter", "lon": -77.0350105, "bike_id": "b338f36df8e1e880de690a5ac51056cc", "fusion_lat": 0.0, "name": "b338f36df8e1e880de690a5ac51056cc", "is_reserved": 0, "rental_uris": {"android": "https://dc.lft.to/lastmile_qr_scan", "ios": "https://dc.lft.to/lastmile_qr_scan"}, "fusion_lon": 0.0}, {"lat": 38.94607033333333, "is_disabled": 0, "type": "electric_scooter", "lon": -77.07032816666667, "bike_id": "b20cd573fca8665a93a0fa516f84db8d", "fusion_lat": 0.0, "name": "b20cd573fca8665a93a0fa516f84db8d", "is_reserved": 0, "rental_uris": {"android": "https://dc.lft.to/lastmile_qr_scan", "ios": "https://dc.lft.to/lastmile_qr_scan"}, "fusion_lon": 0.0}, {"lat": 38.84429516666667, "is_disabled": 0, "type": "electric_scooter", "lon": -76.99778666666667, "bike_id": "acca31123228eeae9c26b12d71e3114b", "fusion_lat": 0.0, "name": "acca31123228eeae9c26b12d71e3114b", "is_reserved": 0, "rental_uris": {"android": "https://dc.lft.to/lastmile_qr_scan", "ios": "https://dc.lft.to/lastmile_qr_scan"}, "fusion_lon": 0.0}, {"lat": 38.926033333333336, "is_disabled": 0, "type": "electric_scooter", "lon": -77.0569335, "bike_id": "9b94f98c2b289c412d5c48ed72c1e69d", "fusion_lat": 0.0, "name": "9b94f98c2b289c412d5c48ed72c1e69d", "is_reserved": 0, "rental_uris": {"android": "https://dc.lft.to/lastmile_qr_scan", "ios": "https://dc.lft.to/lastmile_qr_scan"}, "fusion_lon": 0.0}, {"lat": 38.893677, "is_disabled": 0, "type": "electric_scooter", "lon": -76.99108783333334, "bike_id": "9519f08ec3c8663712c686c96ce13e75", "fusion_lat": 0.0, "name": "9519f08ec3c8663712c686c96ce13e75", "is_reserved": 0, "rental_uris": {"android": "https://dc.lft.to/lastmile_qr_scan", "ios": "https://dc.lft.to/lastmile_qr_scan"}, "fusion_lon": 0.0}, {"lat": 38.903842833333336, "is_disabled": 0, "type": "electric_scooter", "lon": -77.05323683333333, "bike_id": "dfc0e9c69002b07703c91c23ffbe78c7", "fusion_lat": 0.0, "name": "dfc0e9c69002b07703c91c23ffbe78c7", "is_reserved": 0, "rental_uris": {"android": "https://dc.lft.to/lastmile_qr_scan", "ios": "https://dc.lft.to/lastmile_qr_scan"}, "fusion_lon": 0.0}, {"lat": 38.85431666666667, "is_disabled": 0, "type": "electric_bike", "lon": -76.9096935, "bike_id": "f0b017fc505102fa26b446842dd379c2", "fusion_lat": 0.0, "name": "f0b017fc505102fa26b446842dd379c2", "is_reserved": 0, "rental_uris": {"android": "https://dc.lft.to/lastmile_qr_scan", "ios": "https://dc.lft.to/lastmile_qr_scan"}, "fusion_lon": 0.0}, {"lat": 38.91559783333334, "is_disabled": 0, "type": "electric_scooter", "lon": -77.0097435, "bike_id": "668d5afd493daf8eff6eeb0539d999a9", "fusion_lat": 0.0, "name": "668d5afd493daf8eff6eeb0539d999a9", "is_reserved": 0, "rental_uris": {"android": "https://dc.lft.to/lastmile_qr_scan", "ios": "https://dc.lft.to/lastmile_qr_scan"}, "fusion_lon": 0.0}, {"lat": 38.904892, "is_disabled": 0, "type": "electric_scooter", "lon": -76.99541916666666, "bike_id": "ef47dcebdb6e44d4a12335fb32902dd3", "fusion_lat": 0.0, "name": "ef47dcebdb6e44d4a12335fb32902dd3", "is_reserved": 0, "rental_uris": {"android": "https://dc.lft.to/lastmile_qr_scan", "ios": "https://dc.lft.to/lastmile_qr_scan"}, "fusion_lon": 0.0}, {"lat": 38.956116333333334, "is_disabled": 0, "type": "electric_scooter", "lon": -77.0278405, "bike_id": "648eb86580225a89514c1fba4f3f962d", "fusion_lat": 0.0, "name": "648eb86580225a89514c1fba4f3f962d", "is_reserved": 0, "rental_uris": {"android": "https://dc.lft.to/lastmile_qr_scan", "ios": "https://dc.lft.to/lastmile_qr_scan"}, "fusion_lon": 0.0}, {"lat": 38.91269716666667, "is_disabled": 0, "type": "electric_scooter", "lon": -77.03203883333333, "bike_id": "5110ad14a9f4e206b3a768365fcc4e3f", "fusion_lat": 0.0, "name": "5110ad14a9f4e206b3a768365fcc4e3f", "is_reserved": 0, "rental_uris": {"android": "https://dc.lft.to/lastmile_qr_scan", "ios": "https://dc.lft.to/lastmile_qr_scan"}, "fusion_lon": 0.0}, {"lat": 38.92292416666667, "is_disabled": 0, "type": "electric_scooter", "lon": -77.02963683333333, "bike_id": "5aa26ae06c950a53492ab6a536aa9717", "fusion_lat": 0.0, "name": "5aa26ae06c950a53492ab6a536aa9717", "is_reserved": 0, "rental_uris": {"android": "https://dc.lft.to/lastmile_qr_scan", "ios": "https://dc.lft.to/lastmile_qr_scan"}, "fusion_lon": 0.0}, {"lat": 38.900378, "is_disabled": 0, "type": "electric_scooter", "lon": -77.001905, "bike_id": "dde28b1e474e854bac648473e4fbbc27", "fusion_lat": 0.0, "name": "dde28b1e474e854bac648473e4fbbc27", "is_reserved": 0, "rental_uris": {"android": "https://dc.lft.to/lastmile_qr_scan", "ios": "https://dc.lft.to/lastmile_qr_scan"}, "fusion_lon": 0.0}, {"lat": 38.92338783333334, "is_disabled": 0, "type": "electric_scooter", "lon": -77.0350175, "bike_id": "eaba35d3c2736666926158c4596780ba", "fusion_lat": 0.0, "name": "eaba35d3c2736666926158c4596780ba", "is_reserved": 0, "rental_uris": {"android": "https://dc.lft.to/lastmile_qr_scan", "ios": "https://dc.lft.to/lastmile_qr_scan"}, "fusion_lon": 0.0}, {"lat": 38.88745183333333, "is_disabled": 0, "type": "electric_scooter", "lon": -77.03152, "bike_id": "f1ac7c5b5e654661966366ea178c7009", "fusion_lat": 0.0, "name": "f1ac7c5b5e654661966366ea178c7009", "is_reserved": 0, "rental_uris": {"android": "https://dc.lft.to/lastmile_qr_scan", "ios": "https://dc.lft.to/lastmile_qr_scan"}, "fusion_lon": 0.0}, {"lat": 38.9348095, "is_disabled": 0, "type": "electric_scooter", "lon": -77.05788833333334, "bike_id": "2389b4faa30698bc03fa8380b3d4aa78", "fusion_lat": 0.0, "name": "2389b4faa30698bc03fa8380b3d4aa78", "is_reserved": 0, "rental_uris": {"android": "https://dc.lft.to/lastmile_qr_scan", "ios": "https://dc.lft.to/lastmile_qr_scan"}, "fusion_lon": 0.0}, {"lat": 38.942107166666666, "is_disabled": 0, "type": "electric_bike", "lon": -77.01824416666666, "bike_id": "e17fb70833daa9272f27919e3190d967", "fusion_lat": 0.0, "name": "e17fb70833daa9272f27919e3190d967", "is_reserved": 0, "rental_uris": {"android": "https://dc.lft.to/lastmile_qr_scan", "ios": "https://dc.lft.to/lastmile_qr_scan"}, "fusion_lon": 0.0}, {"lat": 38.85808516666667, "is_disabled": 0, "type": "electric_scooter", "lon": -76.98650583333334, "bike_id": "af3b4afe3d48b76e913ecf04949253c5", "fusion_lat": 0.0, "name": "af3b4afe3d48b76e913ecf04949253c5", "is_reserved": 0, "rental_uris": {"android": "https://dc.lft.to/lastmile_qr_scan", "ios": "https://dc.lft.to/lastmile_qr_scan"}, "fusion_lon": 0.0}, {"lat": 38.925449666666665, "is_disabled": 0, "type": "electric_scooter", "lon": -77.0344795, "bike_id": "4cb5f056c524911b0b93698b28854291", "fusion_lat": 0.0, "name": "4cb5f056c524911b0b93698b28854291", "is_reserved": 0, "rental_uris": {"android": "https://dc.lft.to/lastmile_qr_scan", "ios": "https://dc.lft.to/lastmile_qr_scan"}, "fusion_lon": 0.0}, {"lat": 38.940923166666664, "is_disabled": 0, "type": "electric_scooter", "lon": -77.023008, "bike_id": "ea9d9f0d82d6c34b2378d0e68f173f5c", "fusion_lat": 0.0, "name": "ea9d9f0d82d6c34b2378d0e68f173f5c", "is_reserved": 0, "rental_uris": {"android": "https://dc.lft.to/lastmile_qr_scan", "ios": "https://dc.lft.to/lastmile_qr_scan"}, "fusion_lon": 0.0}, {"lat": 38.907361, "is_disabled": 0, "type": "electric_scooter", "lon": -77.02534466666667, "bike_id": "aaa7665616336af2f01981e85aa45e1c", "fusion_lat": 0.0, "name": "aaa7665616336af2f01981e85aa45e1c", "is_reserved": 0, "rental_uris": {"android": "https://dc.lft.to/lastmile_qr_scan", "ios": "https://dc.lft.to/lastmile_qr_scan"}, "fusion_lon": 0.0}, {"lat": 38.866641666666666, "is_disabled": 0, "type": "electric_scooter", "lon": -76.9890005, "bike_id": "f9269f4427181b669e28e6bdaab039ec", "fusion_lat": 0.0, "name": "f9269f4427181b669e28e6bdaab039ec", "is_reserved": 0, "rental_uris": {"android": "https://dc.lft.to/lastmile_qr_scan", "ios": "https://dc.lft.to/lastmile_qr_scan"}, "fusion_lon": 0.0}, {"lat": 38.93220766666666, "is_disabled": 0, "type": "electric_scooter", "lon": -77.02733816666667, "bike_id": "2caba7f4291b1e4f0cd67eb5544ef7c5", "fusion_lat": 0.0, "name": "2caba7f4291b1e4f0cd67eb5544ef7c5", "is_reserved": 0, "rental_uris": {"android": "https://dc.lft.to/lastmile_qr_scan", "ios": "https://dc.lft.to/lastmile_qr_scan"}, "fusion_lon": 0.0}, {"lat": 38.86619983333333, "is_disabled": 0, "type": "electric_bike", "lon": -76.94570983333334, "bike_id": "231916fe4055d8f12657287a596a94b5", "fusion_lat": 0.0, "name": "231916fe4055d8f12657287a596a94b5", "is_reserved": 0, "rental_uris": {"android": "https://dc.lft.to/lastmile_qr_scan", "ios": "https://dc.lft.to/lastmile_qr_scan"}, "fusion_lon": 0.0}, {"lat": 38.9157155, "is_disabled": 0, "type": "electric_scooter", "lon": -77.01193516666666, "bike_id": "514bf1ace51ece6d6f92beea6c744e87", "fusion_lat": 0.0, "name": "514bf1ace51ece6d6f92beea6c744e87", "is_reserved": 0, "rental_uris": {"android": "https://dc.lft.to/lastmile_qr_scan", "ios": "https://dc.lft.to/lastmile_qr_scan"}, "fusion_lon": 0.0}, {"lat": 38.89228383333333, "is_disabled": 0, "type": "electric_scooter", "lon": -76.9329415, "bike_id": "71cda4a01a29cf56be4458093454f560", "fusion_lat": 0.0, "name": "71cda4a01a29cf56be4458093454f560", "is_reserved": 0, "rental_uris": {"android": "https://dc.lft.to/lastmile_qr_scan", "ios": "https://dc.lft.to/lastmile_qr_scan"}, "fusion_lon": 0.0}, {"lat": 38.88975966666667, "is_disabled": 0, "type": "electric_scooter", "lon": -76.93734183333333, "bike_id": "c7c035d650386e230093af28a6037648", "fusion_lat": 0.0, "name": "c7c035d650386e230093af28a6037648", "is_reserved": 0, "rental_uris": {"android": "https://dc.lft.to/lastmile_qr_scan", "ios": "https://dc.lft.to/lastmile_qr_scan"}, "fusion_lon": 0.0}, {"lat": 38.87462166666667, "is_disabled": 0, "type": "electric_scooter", "lon": -77.004941, "bike_id": "1a976848a6c6614391c441dde6f1f086", "fusion_lat": 0.0, "name": "1a976848a6c6614391c441dde6f1f086", "is_reserved": 0, "rental_uris": {"android": "https://dc.lft.to/lastmile_qr_scan", "ios": "https://dc.lft.to/lastmile_qr_scan"}, "fusion_lon": 0.0}, {"lat": 38.8843195, "is_disabled": 0, "type": "electric_scooter", "lon": -76.95753766666667, "bike_id": "db15108c8bcf75e86a59a9c0a1e00216", "fusion_lat": 0.0, "name": "db15108c8bcf75e86a59a9c0a1e00216", "is_reserved": 0, "rental_uris": {"android": "https://dc.lft.to/lastmile_qr_scan", "ios": "https://dc.lft.to/lastmile_qr_scan"}, "fusion_lon": 0.0}, {"lat": 38.911529333333334, "is_disabled": 0, "type": "electric_scooter", "lon": -77.0220215, "bike_id": "48f0ad852d2e455ccbdc71af246f2cb6", "fusion_lat": 0.0, "name": "48f0ad852d2e455ccbdc71af246f2cb6", "is_reserved": 0, "rental_uris": {"android": "https://dc.lft.to/lastmile_qr_scan", "ios": "https://dc.lft.to/lastmile_qr_scan"}, "fusion_lon": 0.0}, {"lat": 38.899633666666666, "is_disabled": 0, "type": "electric_scooter", "lon": -77.05515016666666, "bike_id": "51a0565229c67ec042874dfbceb0a638", "fusion_lat": 0.0, "name": "51a0565229c67ec042874dfbceb0a638", "is_reserved": 0, "rental_uris": {"android": "https://dc.lft.to/lastmile_qr_scan", "ios": "https://dc.lft.to/lastmile_qr_scan"}, "fusion_lon": 0.0}, {"lat": 38.964943, "is_disabled": 0, "type": "electric_bike", "lon": -77.06491866666667, "bike_id": "0c4b57e1a16997e758e45f6f45e98ca5", "fusion_lat": 0.0, "name": "0c4b57e1a16997e758e45f6f45e98ca5", "is_reserved": 0, "rental_uris": {"android": "https://dc.lft.to/lastmile_qr_scan", "ios": "https://dc.lft.to/lastmile_qr_scan"}, "fusion_lon": 0.0}, {"lat": 38.903900666666665, "is_disabled": 0, "type": "electric_scooter", "lon": -77.04390016666666, "bike_id": "30ca8010be6b43ac14b5fb07ee0acef9", "fusion_lat": 0.0, "name": "30ca8010be6b43ac14b5fb07ee0acef9", "is_reserved": 0, "rental_uris": {"android": "https://dc.lft.to/lastmile_qr_scan", "ios": "https://dc.lft.to/lastmile_qr_scan"}, "fusion_lon": 0.0}, {"lat": 38.8975195, "is_disabled": 0, "type": "electric_scooter", "lon": -77.01852633333333, "bike_id": "cf6d89042c91078209286631be5c7ad5", "fusion_lat": 0.0, "name": "cf6d89042c91078209286631be5c7ad5", "is_reserved": 0, "rental_uris": {"android": "https://dc.lft.to/lastmile_qr_scan", "ios": "https://dc.lft.to/lastmile_qr_scan"}, "fusion_lon": 0.0}, {"lat": 38.90297566666667, "is_disabled": 0, "type": "electric_scooter", "lon": -77.03833816666666, "bike_id": "94b13062369bf130a6ac0cb41cc401fd", "fusion_lat": 0.0, "name": "94b13062369bf130a6ac0cb41cc401fd", "is_reserved": 0, "rental_uris": {"android": "https://dc.lft.to/lastmile_qr_scan", "ios": "https://dc.lft.to/lastmile_qr_scan"}, "fusion_lon": 0.0}, {"lat": 38.92437116666667, "is_disabled": 0, "type": "electric_scooter", "lon": -77.0562365, "bike_id": "c85209d40270620fa9d40c37a45255c9", "fusion_lat": 0.0, "name": "c85209d40270620fa9d40c37a45255c9", "is_reserved": 0, "rental_uris": {"android": "https://dc.lft.to/lastmile_qr_scan", "ios": "https://dc.lft.to/lastmile_qr_scan"}, "fusion_lon": 0.0}, {"lat": 38.911854166666664, "is_disabled": 0, "type": "electric_scooter", "lon": -77.03505, "bike_id": "62b5833f8b405a75a439939b69e67250", "fusion_lat": 0.0, "name": "62b5833f8b405a75a439939b69e67250", "is_reserved": 0, "rental_uris": {"android": "https://dc.lft.to/lastmile_qr_scan", "ios": "https://dc.lft.to/lastmile_qr_scan"}, "fusion_lon": 0.0}, {"lat": 38.920400666666666, "is_disabled": 0, "type": "electric_scooter", "lon": -77.04207366666667, "bike_id": "7498f7445f7fc06bc43e7ae6c3cce3e9", "fusion_lat": 0.0, "name": "7498f7445f7fc06bc43e7ae6c3cce3e9", "is_reserved": 0, "rental_uris": {"android": "https://dc.lft.to/lastmile_qr_scan", "ios": "https://dc.lft.to/lastmile_qr_scan"}, "fusion_lon": 0.0}, {"lat": 38.900412833333334, "is_disabled": 0, "type": "electric_scooter", "lon": -77.00195566666666, "bike_id": "9ab7b1d695f53e3eb6cd0f31adbee23f", "fusion_lat": 0.0, "name": "9ab7b1d695f53e3eb6cd0f31adbee23f", "is_reserved": 0, "rental_uris": {"android": "https://dc.lft.to/lastmile_qr_scan", "ios": "https://dc.lft.to/lastmile_qr_scan"}, "fusion_lon": 0.0}, {"lat": 38.845889166666666, "is_disabled": 0, "type": "electric_scooter", "lon": -76.98160916666667, "bike_id": "4e12456fa25b01accf65032d01ee6b49", "fusion_lat": 0.0, "name": "4e12456fa25b01accf65032d01ee6b49", "is_reserved": 0, "rental_uris": {"android": "https://dc.lft.to/lastmile_qr_scan", "ios": "https://dc.lft.to/lastmile_qr_scan"}, "fusion_lon": 0.0}, {"lat": 38.90681566666667, "is_disabled": 0, "type": "electric_scooter", "lon": -77.06264566666667, "bike_id": "bd07bf76464b03108a69a02905d40b80", "fusion_lat": 0.0, "name": "bd07bf76464b03108a69a02905d40b80", "is_reserved": 0, "rental_uris": {"android": "https://dc.lft.to/lastmile_qr_scan", "ios": "https://dc.lft.to/lastmile_qr_scan"}, "fusion_lon": 0.0}, {"lat": 38.90154733333333, "is_disabled": 0, "type": "electric_scooter", "lon": -76.99031283333333, "bike_id": "831609185168fd2156e5659ac7d11517", "fusion_lat": 0.0, "name": "831609185168fd2156e5659ac7d11517", "is_reserved": 0, "rental_uris": {"android": "https://dc.lft.to/lastmile_qr_scan", "ios": "https://dc.lft.to/lastmile_qr_scan"}, "fusion_lon": 0.0}, {"lat": 38.964924, "is_disabled": 0, "type": "electric_scooter", "lon": -77.02787766666667, "bike_id": "4790050c7b06d705dec2766df750115a", "fusion_lat": 0.0, "name": "4790050c7b06d705dec2766df750115a", "is_reserved": 0, "rental_uris": {"android": "https://dc.lft.to/lastmile_qr_scan", "ios": "https://dc.lft.to/lastmile_qr_scan"}, "fusion_lon": 0.0}, {"lat": 38.92180716666667, "is_disabled": 0, "type": "electric_scooter", "lon": -77.04712316666667, "bike_id": "0448f05e7c36bfd5270264e7920b2894", "fusion_lat": 0.0, "name": "0448f05e7c36bfd5270264e7920b2894", "is_reserved": 0, "rental_uris": {"android": "https://dc.lft.to/lastmile_qr_scan", "ios": "https://dc.lft.to/lastmile_qr_scan"}, "fusion_lon": 0.0}, {"lat": 38.93244283333333, "is_disabled": 0, "type": "electric_scooter", "lon": -77.03262716666667, "bike_id": "7e44a91b3e2ca94007793d24578c76e6", "fusion_lat": 0.0, "name": "7e44a91b3e2ca94007793d24578c76e6", "is_reserved": 0, "rental_uris": {"android": "https://dc.lft.to/lastmile_qr_scan", "ios": "https://dc.lft.to/lastmile_qr_scan"}, "fusion_lon": 0.0}, {"lat": 38.92299516666667, "is_disabled": 0, "type": "electric_scooter", "lon": -77.041415, "bike_id": "8283ded9ec2ae15413db632f46ed8865", "fusion_lat": 0.0, "name": "8283ded9ec2ae15413db632f46ed8865", "is_reserved": 0, "rental_uris": {"android": "https://dc.lft.to/lastmile_qr_scan", "ios": "https://dc.lft.to/lastmile_qr_scan"}, "fusion_lon": 0.0}, {"lat": 38.903796666666665, "is_disabled": 0, "type": "electric_scooter", "lon": -77.00268466666667, "bike_id": "7cd88a7f45e35894f34a28a8318f9cc7", "fusion_lat": 0.0, "name": "7cd88a7f45e35894f34a28a8318f9cc7", "is_reserved": 0, "rental_uris": {"android": "https://dc.lft.to/lastmile_qr_scan", "ios": "https://dc.lft.to/lastmile_qr_scan"}, "fusion_lon": 0.0}, {"lat": 38.90528466666667, "is_disabled": 0, "type": "electric_scooter", "lon": -76.98618983333333, "bike_id": "4939569d7ffbccb1996fd90680cd05f1", "fusion_lat": 0.0, "name": "4939569d7ffbccb1996fd90680cd05f1", "is_reserved": 0, "rental_uris": {"android": "https://dc.lft.to/lastmile_qr_scan", "ios": "https://dc.lft.to/lastmile_qr_scan"}, "fusion_lon": 0.0}, {"lat": 38.866516833333336, "is_disabled": 0, "type": "electric_scooter", "lon": -76.98884083333333, "bike_id": "d9fb5e03051e796598bbf17c08eb64de", "fusion_lat": 0.0, "name": "d9fb5e03051e796598bbf17c08eb64de", "is_reserved": 0, "rental_uris": {"android": "https://dc.lft.to/lastmile_qr_scan", "ios": "https://dc.lft.to/lastmile_qr_scan"}, "fusion_lon": 0.0}, {"lat": 38.91580883333334, "is_disabled": 0, "type": "electric_scooter", "lon": -77.05017566666666, "bike_id": "f695d16b6e7929ac9ec5f448cc2bd7cd", "fusion_lat": 0.0, "name": "f695d16b6e7929ac9ec5f448cc2bd7cd", "is_reserved": 0, "rental_uris": {"android": "https://dc.lft.to/lastmile_qr_scan", "ios": "https://dc.lft.to/lastmile_qr_scan"}, "fusion_lon": 0.0}, {"lat": 38.9210665, "is_disabled": 0, "type": "electric_scooter", "lon": -77.04692166666666, "bike_id": "e929af6e8b3fd7a1769ade844cc3e527", "fusion_lat": 0.0, "name": "e929af6e8b3fd7a1769ade844cc3e527", "is_reserved": 0, "rental_uris": {"android": "https://dc.lft.to/lastmile_qr_scan", "ios": "https://dc.lft.to/lastmile_qr_scan"}, "fusion_lon": 0.0}, {"lat": 38.88492, "is_disabled": 0, "type": "electric_scooter", "lon": -77.0071045, "bike_id": "e4c8d2847b59ade5faf145fb86057d53", "fusion_lat": 0.0, "name": "e4c8d2847b59ade5faf145fb86057d53", "is_reserved": 0, "rental_uris": {"android": "https://dc.lft.to/lastmile_qr_scan", "ios": "https://dc.lft.to/lastmile_qr_scan"}, "fusion_lon": 0.0}, {"lat": 38.90523866666667, "is_disabled": 0, "type": "electric_scooter", "lon": -77.03441883333333, "bike_id": "898f2d9d7805a0435a7032ba821bc38b", "fusion_lat": 0.0, "name": "898f2d9d7805a0435a7032ba821bc38b", "is_reserved": 0, "rental_uris": {"android": "https://dc.lft.to/lastmile_qr_scan", "ios": "https://dc.lft.to/lastmile_qr_scan"}, "fusion_lon": 0.0}, {"lat": 38.92824133333333, "is_disabled": 0, "type": "electric_scooter", "lon": -77.022586, "bike_id": "272e0374bb4bb7219c72e5eedb43a352", "fusion_lat": 0.0, "name": "272e0374bb4bb7219c72e5eedb43a352", "is_reserved": 0, "rental_uris": {"android": "https://dc.lft.to/lastmile_qr_scan", "ios": "https://dc.lft.to/lastmile_qr_scan"}, "fusion_lon": 0.0}, {"lat": 38.895376166666665, "is_disabled": 0, "type": "electric_scooter", "lon": -76.948868, "bike_id": "e69d513bb519c24427d8bd13b74f0842", "fusion_lat": 0.0, "name": "e69d513bb519c24427d8bd13b74f0842", "is_reserved": 0, "rental_uris": {"android": "https://dc.lft.to/lastmile_qr_scan", "ios": "https://dc.lft.to/lastmile_qr_scan"}, "fusion_lon": 0.0}, {"lat": 38.9225305, "is_disabled": 0, "type": "electric_scooter", "lon": -77.01934666666666, "bike_id": "9dedf20a8cbbe7dfc9e8e48455f7725c", "fusion_lat": 0.0, "name": "9dedf20a8cbbe7dfc9e8e48455f7725c", "is_reserved": 0, "rental_uris": {"android": "https://dc.lft.to/lastmile_qr_scan", "ios": "https://dc.lft.to/lastmile_qr_scan"}, "fusion_lon": 0.0}, {"lat": 38.8724705, "is_disabled": 0, "type": "electric_scooter", "lon": -76.97726216666666, "bike_id": "80cf5471c0c93ab7b8c73c93487f5f2f", "fusion_lat": 0.0, "name": "80cf5471c0c93ab7b8c73c93487f5f2f", "is_reserved": 0, "rental_uris": {"android": "https://dc.lft.to/lastmile_qr_scan", "ios": "https://dc.lft.to/lastmile_qr_scan"}, "fusion_lon": 0.0}, {"lat": 38.943167, "is_disabled": 0, "type": "electric_scooter", "lon": -77.0612875, "bike_id": "bf6e54c970867eacfc77db670d01ca45", "fusion_lat": 0.0, "name": "bf6e54c970867eacfc77db670d01ca45", "is_reserved": 0, "rental_uris": {"android": "https://dc.lft.to/lastmile_qr_scan", "ios": "https://dc.lft.to/lastmile_qr_scan"}, "fusion_lon": 0.0}, {"lat": 38.928387, "is_disabled": 0, "type": "electric_scooter", "lon": -77.05427833333333, "bike_id": "6910a40a8d1778513b25a3c7746f8146", "fusion_lat": 0.0, "name": "6910a40a8d1778513b25a3c7746f8146", "is_reserved": 0, "rental_uris": {"android": "https://dc.lft.to/lastmile_qr_scan", "ios": "https://dc.lft.to/lastmile_qr_scan"}, "fusion_lon": 0.0}, {"lat": 38.93228366666666, "is_disabled": 0, "type": "electric_scooter", "lon": -77.03388616666666, "bike_id": "128f06176819ab96d23f727013ac7e07", "fusion_lat": 0.0, "name": "128f06176819ab96d23f727013ac7e07", "is_reserved": 0, "rental_uris": {"android": "https://dc.lft.to/lastmile_qr_scan", "ios": "https://dc.lft.to/lastmile_qr_scan"}, "fusion_lon": 0.0}, {"lat": 38.9064865, "is_disabled": 0, "type": "electric_scooter", "lon": -77.01406066666667, "bike_id": "b96dcd6ec9149ab1561d412aa5a6c4ef", "fusion_lat": 0.0, "name": "b96dcd6ec9149ab1561d412aa5a6c4ef", "is_reserved": 0, "rental_uris": {"android": "https://dc.lft.to/lastmile_qr_scan", "ios": "https://dc.lft.to/lastmile_qr_scan"}, "fusion_lon": 0.0}, {"lat": 38.86619566666667, "is_disabled": 0, "type": "electric_scooter", "lon": -76.986702, "bike_id": "89c5cf9378dcb62ad1d95be1437765d6", "fusion_lat": 0.0, "name": "89c5cf9378dcb62ad1d95be1437765d6", "is_reserved": 0, "rental_uris": {"android": "https://dc.lft.to/lastmile_qr_scan", "ios": "https://dc.lft.to/lastmile_qr_scan"}, "fusion_lon": 0.0}, {"lat": 38.876497, "is_disabled": 0, "type": "electric_scooter", "lon": -77.00430516666667, "bike_id": "c8373e3144c9a9be039b7dc7742d8884", "fusion_lat": 0.0, "name": "c8373e3144c9a9be039b7dc7742d8884", "is_reserved": 0, "rental_uris": {"android": "https://dc.lft.to/lastmile_qr_scan", "ios": "https://dc.lft.to/lastmile_qr_scan"}, "fusion_lon": 0.0}, {"lat": 38.93202216666667, "is_disabled": 0, "type": "electric_bike", "lon": -77.03875766666667, "bike_id": "744f3fe0f960d1d0f2a023a931783ab1", "fusion_lat": 0.0, "name": "744f3fe0f960d1d0f2a023a931783ab1", "is_reserved": 0, "rental_uris": {"android": "https://dc.lft.to/lastmile_qr_scan", "ios": "https://dc.lft.to/lastmile_qr_scan"}, "fusion_lon": 0.0}, {"lat": 38.8801195, "is_disabled": 0, "type": "electric_scooter", "lon": -77.0056295, "bike_id": "adf2d85b66a1fa09f74e2fb8a8e26f19", "fusion_lat": 0.0, "name": "adf2d85b66a1fa09f74e2fb8a8e26f19", "is_reserved": 0, "rental_uris": {"android": "https://dc.lft.to/lastmile_qr_scan", "ios": "https://dc.lft.to/lastmile_qr_scan"}, "fusion_lon": 0.0}, {"lat": 38.90846233333333, "is_disabled": 0, "type": "electric_scooter", "lon": -77.02955733333333, "bike_id": "159dd3d662733f51015fae754fb77373", "fusion_lat": 0.0, "name": "159dd3d662733f51015fae754fb77373", "is_reserved": 0, "rental_uris": {"android": "https://dc.lft.to/lastmile_qr_scan", "ios": "https://dc.lft.to/lastmile_qr_scan"}, "fusion_lon": 0.0}, {"lat": 38.90635416666667, "is_disabled": 0, "type": "electric_scooter", "lon": -77.01366433333334, "bike_id": "fac3f0eb6d55067e5c4eec38418af253", "fusion_lat": 0.0, "name": "fac3f0eb6d55067e5c4eec38418af253", "is_reserved": 0, "rental_uris": {"android": "https://dc.lft.to/lastmile_qr_scan", "ios": "https://dc.lft.to/lastmile_qr_scan"}, "fusion_lon": 0.0}, {"lat": 38.940379166666666, "is_disabled": 0, "type": "electric_scooter", "lon": -77.02908983333333, "bike_id": "44bf826bcf24c738bf38eb37682ac4ca", "fusion_lat": 0.0, "name": "44bf826bcf24c738bf38eb37682ac4ca", "is_reserved": 0, "rental_uris": {"android": "https://dc.lft.to/lastmile_qr_scan", "ios": "https://dc.lft.to/lastmile_qr_scan"}, "fusion_lon": 0.0}, {"lat": 38.90728466666667, "is_disabled": 0, "type": "electric_scooter", "lon": -77.00104916666666, "bike_id": "b278deef6d45c2b353111aba6f7b3ac1", "fusion_lat": 0.0, "name": "b278deef6d45c2b353111aba6f7b3ac1", "is_reserved": 0, "rental_uris": {"android": "https://dc.lft.to/lastmile_qr_scan", "ios": "https://dc.lft.to/lastmile_qr_scan"}, "fusion_lon": 0.0}, {"lat": 38.81222566666667, "is_disabled": 0, "type": "electric_bike", "lon": -77.10984316666666, "bike_id": "6a92359eafbc8457a5b90b7610bb7691", "fusion_lat": 0.0, "name": "6a92359eafbc8457a5b90b7610bb7691", "is_reserved": 0, "rental_uris": {"android": "https://dc.lft.to/lastmile_qr_scan", "ios": "https://dc.lft.to/lastmile_qr_scan"}, "fusion_lon": 0.0}, {"lat": 38.845897666666666, "is_disabled": 0, "type": "electric_bike", "lon": -77.07679283333333, "bike_id": "78bada80d713987be6aedb4e695abbfd", "fusion_lat": 0.0, "name": "78bada80d713987be6aedb4e695abbfd", "is_reserved": 0, "rental_uris": {"android": "https://dc.lft.to/lastmile_qr_scan", "ios": "https://dc.lft.to/lastmile_qr_scan"}, "fusion_lon": 0.0}, {"lat": 38.906535833333336, "is_disabled": 0, "type": "electric_scooter", "lon": -77.02944983333333, "bike_id": "247077492a57b8ed761f9120b5042351", "fusion_lat": 0.0, "name": "247077492a57b8ed761f9120b5042351", "is_reserved": 0, "rental_uris": {"android": "https://dc.lft.to/lastmile_qr_scan", "ios": "https://dc.lft.to/lastmile_qr_scan"}, "fusion_lon": 0.0}, {"lat": 38.88421966666667, "is_disabled": 0, "type": "electric_scooter", "lon": -77.0001845, "bike_id": "b64358d46db72c53a14760850804b43c", "fusion_lat": 0.0, "name": "b64358d46db72c53a14760850804b43c", "is_reserved": 0, "rental_uris": {"android": "https://dc.lft.to/lastmile_qr_scan", "ios": "https://dc.lft.to/lastmile_qr_scan"}, "fusion_lon": 0.0}, {"lat": 38.986579166666665, "is_disabled": 0, "type": "electric_bike", "lon": -77.0563745, "bike_id": "ebde97c61e3bec9f2600da876afe3ff4", "fusion_lat": 0.0, "name": "ebde97c61e3bec9f2600da876afe3ff4", "is_reserved": 0, "rental_uris": {"android": "https://dc.lft.to/lastmile_qr_scan", "ios": "https://dc.lft.to/lastmile_qr_scan"}, "fusion_lon": 0.0}, {"lat": 38.905901166666666, "is_disabled": 0, "type": "electric_scooter", "lon": -77.06519266666666, "bike_id": "1dbbefbbacfb4598e55e0093f86beb59", "fusion_lat": 0.0, "name": "1dbbefbbacfb4598e55e0093f86beb59", "is_reserved": 0, "rental_uris": {"android": "https://dc.lft.to/lastmile_qr_scan", "ios": "https://dc.lft.to/lastmile_qr_scan"}, "fusion_lon": 0.0}, {"lat": 38.8442655, "is_disabled": 0, "type": "electric_scooter", "lon": -76.99780133333333, "bike_id": "887c623b1cf8341fec2f5eed6010a4f9", "fusion_lat": 0.0, "name": "887c623b1cf8341fec2f5eed6010a4f9", "is_reserved": 0, "rental_uris": {"android": "https://dc.lft.to/lastmile_qr_scan", "ios": "https://dc.lft.to/lastmile_qr_scan"}, "fusion_lon": 0.0}, {"lat": 38.86922633333333, "is_disabled": 0, "type": "electric_scooter", "lon": -76.98303833333334, "bike_id": "f132279d94c0a2b7d73b78e9433212fc", "fusion_lat": 0.0, "name": "f132279d94c0a2b7d73b78e9433212fc", "is_reserved": 0, "rental_uris": {"android": "https://dc.lft.to/lastmile_qr_scan", "ios": "https://dc.lft.to/lastmile_qr_scan"}, "fusion_lon": 0.0}, {"lat": 38.92334266666667, "is_disabled": 0, "type": "electric_scooter", "lon": -77.03569516666667, "bike_id": "45e228d5b17b7bfd566efe94168b2ee8", "fusion_lat": 0.0, "name": "45e228d5b17b7bfd566efe94168b2ee8", "is_reserved": 0, "rental_uris": {"android": "https://dc.lft.to/lastmile_qr_scan", "ios": "https://dc.lft.to/lastmile_qr_scan"}, "fusion_lon": 0.0}, {"lat": 38.91330966666666, "is_disabled": 0, "type": "electric_scooter", "lon": -77.0312455, "bike_id": "6f8a07b7b1445249f7984c8f85fa4306", "fusion_lat": 0.0, "name": "6f8a07b7b1445249f7984c8f85fa4306", "is_reserved": 0, "rental_uris": {"android": "https://dc.lft.to/lastmile_qr_scan", "ios": "https://dc.lft.to/lastmile_qr_scan"}, "fusion_lon": 0.0}, {"lat": 38.886017, "is_disabled": 0, "type": "electric_scooter", "lon": -77.0021565, "bike_id": "ad9eaaa89d7230865c8bd1bfd5ca7da5", "fusion_lat": 0.0, "name": "ad9eaaa89d7230865c8bd1bfd5ca7da5", "is_reserved": 0, "rental_uris": {"android": "https://dc.lft.to/lastmile_qr_scan", "ios": "https://dc.lft.to/lastmile_qr_scan"}, "fusion_lon": 0.0}, {"lat": 38.90249816666667, "is_disabled": 0, "type": "electric_scooter", "lon": -77.0281755, "bike_id": "27e5c09d8bed5d317d4991322fd8e649", "fusion_lat": 0.0, "name": "27e5c09d8bed5d317d4991322fd8e649", "is_reserved": 0, "rental_uris": {"android": "https://dc.lft.to/lastmile_qr_scan", "ios": "https://dc.lft.to/lastmile_qr_scan"}, "fusion_lon": 0.0}, {"lat": 38.9227985, "is_disabled": 0, "type": "electric_scooter", "lon": -77.0424605, "bike_id": "16207c3db0e9d893be046c454190a06b", "fusion_lat": 0.0, "name": "16207c3db0e9d893be046c454190a06b", "is_reserved": 0, "rental_uris": {"android": "https://dc.lft.to/lastmile_qr_scan", "ios": "https://dc.lft.to/lastmile_qr_scan"}, "fusion_lon": 0.0}, {"lat": 38.91057216666667, "is_disabled": 0, "type": "electric_scooter", "lon": -77.0152515, "bike_id": "e2c5dae9272ec029032b458b738bb6c3", "fusion_lat": 0.0, "name": "e2c5dae9272ec029032b458b738bb6c3", "is_reserved": 0, "rental_uris": {"android": "https://dc.lft.to/lastmile_qr_scan", "ios": "https://dc.lft.to/lastmile_qr_scan"}, "fusion_lon": 0.0}, {"lat": 38.899516166666665, "is_disabled": 0, "type": "electric_scooter", "lon": -77.05171766666666, "bike_id": "9df47438f5c7cfbce06d6b81bb62051c", "fusion_lat": 0.0, "name": "9df47438f5c7cfbce06d6b81bb62051c", "is_reserved": 0, "rental_uris": {"android": "https://dc.lft.to/lastmile_qr_scan", "ios": "https://dc.lft.to/lastmile_qr_scan"}, "fusion_lon": 0.0}, {"lat": 38.897447, "is_disabled": 0, "type": "electric_scooter", "lon": -77.04682633333333, "bike_id": "6abab94fcc4b354f9ff8eb4dd3a3d6cd", "fusion_lat": 0.0, "name": "6abab94fcc4b354f9ff8eb4dd3a3d6cd", "is_reserved": 0, "rental_uris": {"android": "https://dc.lft.to/lastmile_qr_scan", "ios": "https://dc.lft.to/lastmile_qr_scan"}, "fusion_lon": 0.0}, {"lat": 38.92426733333333, "is_disabled": 0, "type": "electric_scooter", "lon": -77.04445033333333, "bike_id": "d83b0baddb91916e96af5730ae201442", "fusion_lat": 0.0, "name": "d83b0baddb91916e96af5730ae201442", "is_reserved": 0, "rental_uris": {"android": "https://dc.lft.to/lastmile_qr_scan", "ios": "https://dc.lft.to/lastmile_qr_scan"}, "fusion_lon": 0.0}, {"lat": 38.908171833333334, "is_disabled": 0, "type": "electric_scooter", "lon": -76.98560933333333, "bike_id": "130d4e6c1beb0da1a5ec153fb0687f32", "fusion_lat": 0.0, "name": "130d4e6c1beb0da1a5ec153fb0687f32", "is_reserved": 0, "rental_uris": {"android": "https://dc.lft.to/lastmile_qr_scan", "ios": "https://dc.lft.to/lastmile_qr_scan"}, "fusion_lon": 0.0}, {"lat": 38.94604966666667, "is_disabled": 0, "type": "electric_scooter", "lon": -77.029784, "bike_id": "848c411fee43709fac1f95a5fafa893e", "fusion_lat": 0.0, "name": "848c411fee43709fac1f95a5fafa893e", "is_reserved": 0, "rental_uris": {"android": "https://dc.lft.to/lastmile_qr_scan", "ios": "https://dc.lft.to/lastmile_qr_scan"}, "fusion_lon": 0.0}, {"lat": 38.865236333333335, "is_disabled": 0, "type": "electric_scooter", "lon": -76.9741425, "bike_id": "21f2ecf8f76009d28c623b052e423d4d", "fusion_lat": 0.0, "name": "21f2ecf8f76009d28c623b052e423d4d", "is_reserved": 0, "rental_uris": {"android": "https://dc.lft.to/lastmile_qr_scan", "ios": "https://dc.lft.to/lastmile_qr_scan"}, "fusion_lon": 0.0}, {"lat": 38.899509, "is_disabled": 0, "type": "electric_scooter", "lon": -77.05088883333333, "bike_id": "9ec5de7813ed7929ad25249dcb840887", "fusion_lat": 0.0, "name": "9ec5de7813ed7929ad25249dcb840887", "is_reserved": 0, "rental_uris": {"android": "https://dc.lft.to/lastmile_qr_scan", "ios": "https://dc.lft.to/lastmile_qr_scan"}, "fusion_lon": 0.0}, {"lat": 38.8747905, "is_disabled": 0, "type": "electric_scooter", "lon": -77.0107135, "bike_id": "55bee41ea2aa9aa929395722c860af2d", "fusion_lat": 0.0, "name": "55bee41ea2aa9aa929395722c860af2d", "is_reserved": 0, "rental_uris": {"android": "https://dc.lft.to/lastmile_qr_scan", "ios": "https://dc.lft.to/lastmile_qr_scan"}, "fusion_lon": 0.0}, {"lat": 38.8922215, "is_disabled": 0, "type": "electric_scooter", "lon": -77.0264395, "bike_id": "49ef72991253e209c39d4e367930d4ad", "fusion_lat": 0.0, "name": "49ef72991253e209c39d4e367930d4ad", "is_reserved": 0, "rental_uris": {"android": "https://dc.lft.to/lastmile_qr_scan", "ios": "https://dc.lft.to/lastmile_qr_scan"}, "fusion_lon": 0.0}, {"lat": 38.92625833333334, "is_disabled": 0, "type": "electric_scooter", "lon": -77.03789166666667, "bike_id": "0ed4ec776bfb1d2f8327672fd769aa82", "fusion_lat": 0.0, "name": "0ed4ec776bfb1d2f8327672fd769aa82", "is_reserved": 0, "rental_uris": {"android": "https://dc.lft.to/lastmile_qr_scan", "ios": "https://dc.lft.to/lastmile_qr_scan"}, "fusion_lon": 0.0}, {"lat": 38.87677633333333, "is_disabled": 0, "type": "electric_scooter", "lon": -77.01791883333334, "bike_id": "b9a99239129d022a9a27fde5596aab7e", "fusion_lat": 0.0, "name": "b9a99239129d022a9a27fde5596aab7e", "is_reserved": 0, "rental_uris": {"android": "https://dc.lft.to/lastmile_qr_scan", "ios": "https://dc.lft.to/lastmile_qr_scan"}, "fusion_lon": 0.0}, {"lat": 38.902904166666666, "is_disabled": 0, "type": "electric_scooter", "lon": -77.05326733333334, "bike_id": "588003ca2826b55884c101cfdaa13bb5", "fusion_lat": 0.0, "name": "588003ca2826b55884c101cfdaa13bb5", "is_reserved": 0, "rental_uris": {"android": "https://dc.lft.to/lastmile_qr_scan", "ios": "https://dc.lft.to/lastmile_qr_scan"}, "fusion_lon": 0.0}, {"lat": 38.91610766666667, "is_disabled": 0, "type": "electric_scooter", "lon": -77.032716, "bike_id": "32f2af174147fce4f6bdd2ef8a7c7411", "fusion_lat": 0.0, "name": "32f2af174147fce4f6bdd2ef8a7c7411", "is_reserved": 0, "rental_uris": {"android": "https://dc.lft.to/lastmile_qr_scan", "ios": "https://dc.lft.to/lastmile_qr_scan"}, "fusion_lon": 0.0}, {"lat": 38.919849166666665, "is_disabled": 0, "type": "electric_scooter", "lon": -77.03668916666666, "bike_id": "ede3b48f1478b73d43ba86c36369e978", "fusion_lat": 0.0, "name": "ede3b48f1478b73d43ba86c36369e978", "is_reserved": 0, "rental_uris": {"android": "https://dc.lft.to/lastmile_qr_scan", "ios": "https://dc.lft.to/lastmile_qr_scan"}, "fusion_lon": 0.0}, {"lat": 38.83684616666667, "is_disabled": 0, "type": "electric_scooter", "lon": -77.1030785, "bike_id": "c1239cd36df57ade7adf47ac5db4fe5d", "fusion_lat": 0.0, "name": "c1239cd36df57ade7adf47ac5db4fe5d", "is_reserved": 0, "rental_uris": {"android": "https://dc.lft.to/lastmile_qr_scan", "ios": "https://dc.lft.to/lastmile_qr_scan"}, "fusion_lon": 0.0}, {"lat": 38.930926, "is_disabled": 0, "type": "electric_scooter", "lon": -77.02510783333334, "bike_id": "fead16fcba43ee2fe860a67eaec9ad9d", "fusion_lat": 0.0, "name": "fead16fcba43ee2fe860a67eaec9ad9d", "is_reserved": 0, "rental_uris": {"android": "https://dc.lft.to/lastmile_qr_scan", "ios": "https://dc.lft.to/lastmile_qr_scan"}, "fusion_lon": 0.0}, {"lat": 38.84573233333333, "is_disabled": 0, "type": "electric_bike", "lon": -77.096225, "bike_id": "7e0067d4f9d64b64ebfd57e3d415751b", "fusion_lat": 0.0, "name": "7e0067d4f9d64b64ebfd57e3d415751b", "is_reserved": 0, "rental_uris": {"android": "https://dc.lft.to/lastmile_qr_scan", "ios": "https://dc.lft.to/lastmile_qr_scan"}, "fusion_lon": 0.0}, {"lat": 38.921575833333335, "is_disabled": 0, "type": "electric_scooter", "lon": -77.03320866666667, "bike_id": "9522e3dd213ed25054e15a652861f717", "fusion_lat": 0.0, "name": "9522e3dd213ed25054e15a652861f717", "is_reserved": 0, "rental_uris": {"android": "https://dc.lft.to/lastmile_qr_scan", "ios": "https://dc.lft.to/lastmile_qr_scan"}, "fusion_lon": 0.0}, {"lat": 38.9002845, "is_disabled": 0, "type": "electric_scooter", "lon": -76.98807433333333, "bike_id": "99b39a67106e023e30ba3b8f3955adda", "fusion_lat": 0.0, "name": "99b39a67106e023e30ba3b8f3955adda", "is_reserved": 0, "rental_uris": {"android": "https://dc.lft.to/lastmile_qr_scan", "ios": "https://dc.lft.to/lastmile_qr_scan"}, "fusion_lon": 0.0}, {"lat": 38.9016685, "is_disabled": 0, "type": "electric_scooter", "lon": -76.98067383333333, "bike_id": "03af25538d444b492486c4764943184e", "fusion_lat": 0.0, "name": "03af25538d444b492486c4764943184e", "is_reserved": 0, "rental_uris": {"android": "https://dc.lft.to/lastmile_qr_scan", "ios": "https://dc.lft.to/lastmile_qr_scan"}, "fusion_lon": 0.0}, {"lat": 38.871578, "is_disabled": 0, "type": "electric_scooter", "lon": -77.01308683333333, "bike_id": "2e990be47958790be53c418b7dc3fa87", "fusion_lat": 0.0, "name": "2e990be47958790be53c418b7dc3fa87", "is_reserved": 0, "rental_uris": {"android": "https://dc.lft.to/lastmile_qr_scan", "ios": "https://dc.lft.to/lastmile_qr_scan"}, "fusion_lon": 0.0}, {"lat": 38.920716166666665, "is_disabled": 0, "type": "electric_scooter", "lon": -77.024252, "bike_id": "6541ca3aeb43e3cbceb43ec96f4623a2", "fusion_lat": 0.0, "name": "6541ca3aeb43e3cbceb43ec96f4623a2", "is_reserved": 0, "rental_uris": {"android": "https://dc.lft.to/lastmile_qr_scan", "ios": "https://dc.lft.to/lastmile_qr_scan"}, "fusion_lon": 0.0}, {"lat": 38.87139783333333, "is_disabled": 0, "type": "electric_bike", "lon": -76.937042, "bike_id": "4a030e06331ccbf44fac0800420f80fa", "fusion_lat": 0.0, "name": "4a030e06331ccbf44fac0800420f80fa", "is_reserved": 0, "rental_uris": {"android": "https://dc.lft.to/lastmile_qr_scan", "ios": "https://dc.lft.to/lastmile_qr_scan"}, "fusion_lon": 0.0}, {"lat": 38.91104283333333, "is_disabled": 0, "type": "electric_scooter", "lon": -77.00753733333333, "bike_id": "e21624795a41b4475f5dd93589835523", "fusion_lat": 0.0, "name": "e21624795a41b4475f5dd93589835523", "is_reserved": 0, "rental_uris": {"android": "https://dc.lft.to/lastmile_qr_scan", "ios": "https://dc.lft.to/lastmile_qr_scan"}, "fusion_lon": 0.0}, {"lat": 38.884306, "is_disabled": 0, "type": "electric_bike", "lon": -76.95756066666667, "bike_id": "78b3398c1ea379f8b6c7f5bfd8e34edf", "fusion_lat": 0.0, "name": "78b3398c1ea379f8b6c7f5bfd8e34edf", "is_reserved": 0, "rental_uris": {"android": "https://dc.lft.to/lastmile_qr_scan", "ios": "https://dc.lft.to/lastmile_qr_scan"}, "fusion_lon": 0.0}, {"lat": 38.9023905, "is_disabled": 0, "type": "electric_scooter", "lon": -77.05329083333334, "bike_id": "d85585b5ec04b2ab5a10f7a52f334606", "fusion_lat": 0.0, "name": "d85585b5ec04b2ab5a10f7a52f334606", "is_reserved": 0, "rental_uris": {"android": "https://dc.lft.to/lastmile_qr_scan", "ios": "https://dc.lft.to/lastmile_qr_scan"}, "fusion_lon": 0.0}, {"lat": 38.86712416666667, "is_disabled": 0, "type": "electric_scooter", "lon": -76.98726133333334, "bike_id": "cbddb45df5e2cb9852736bb0293fe37b", "fusion_lat": 0.0, "name": "cbddb45df5e2cb9852736bb0293fe37b", "is_reserved": 0, "rental_uris": {"android": "https://dc.lft.to/lastmile_qr_scan", "ios": "https://dc.lft.to/lastmile_qr_scan"}, "fusion_lon": 0.0}, {"lat": 38.90476016666667, "is_disabled": 0, "type": "electric_scooter", "lon": -77.0072835, "bike_id": "f1aeb356d7981f74b3d78a4447d33444", "fusion_lat": 0.0, "name": "f1aeb356d7981f74b3d78a4447d33444", "is_reserved": 0, "rental_uris": {"android": "https://dc.lft.to/lastmile_qr_scan", "ios": "https://dc.lft.to/lastmile_qr_scan"}, "fusion_lon": 0.0}, {"lat": 38.9119095, "is_disabled": 0, "type": "electric_bike", "lon": -77.0027575, "bike_id": "931dabc756200268641e8a68826a7cec", "fusion_lat": 0.0, "name": "931dabc756200268641e8a68826a7cec", "is_reserved": 0, "rental_uris": {"android": "https://dc.lft.to/lastmile_qr_scan", "ios": "https://dc.lft.to/lastmile_qr_scan"}, "fusion_lon": 0.0}, {"lat": 38.914059333333334, "is_disabled": 0, "type": "electric_scooter", "lon": -77.02057466666666, "bike_id": "f9f3fb197a629ddc0ca230055a9178be", "fusion_lat": 0.0, "name": "f9f3fb197a629ddc0ca230055a9178be", "is_reserved": 0, "rental_uris": {"android": "https://dc.lft.to/lastmile_qr_scan", "ios": "https://dc.lft.to/lastmile_qr_scan"}, "fusion_lon": 0.0}, {"lat": 38.919888666666665, "is_disabled": 0, "type": "electric_scooter", "lon": -76.97300566666667, "bike_id": "a832478373fbb448bab563271f8eb739", "fusion_lat": 0.0, "name": "a832478373fbb448bab563271f8eb739", "is_reserved": 0, "rental_uris": {"android": "https://dc.lft.to/lastmile_qr_scan", "ios": "https://dc.lft.to/lastmile_qr_scan"}, "fusion_lon": 0.0}, {"lat": 38.96567866666667, "is_disabled": 0, "type": "electric_bike", "lon": -77.02298216666667, "bike_id": "06ea10e17adc098a1b349bbc2d52a72a", "fusion_lat": 0.0, "name": "06ea10e17adc098a1b349bbc2d52a72a", "is_reserved": 0, "rental_uris": {"android": "https://dc.lft.to/lastmile_qr_scan", "ios": "https://dc.lft.to/lastmile_qr_scan"}, "fusion_lon": 0.0}, {"lat": 38.90869, "is_disabled": 0, "type": "electric_scooter", "lon": -77.04655033333333, "bike_id": "a41d92e2ebee176431c24bf666759dbc", "fusion_lat": 0.0, "name": "a41d92e2ebee176431c24bf666759dbc", "is_reserved": 0, "rental_uris": {"android": "https://dc.lft.to/lastmile_qr_scan", "ios": "https://dc.lft.to/lastmile_qr_scan"}, "fusion_lon": 0.0}, {"lat": 38.85978033333333, "is_disabled": 0, "type": "electric_bike", "lon": -77.056263, "bike_id": "811f24243d2d117a32ca6cd0558b62b1", "fusion_lat": 0.0, "name": "811f24243d2d117a32ca6cd0558b62b1", "is_reserved": 0, "rental_uris": {"android": "https://dc.lft.to/lastmile_qr_scan", "ios": "https://dc.lft.to/lastmile_qr_scan"}, "fusion_lon": 0.0}, {"lat": 38.9287725, "is_disabled": 0, "type": "electric_bike", "lon": -77.036869, "bike_id": "f16a6e9824d82af01d0522dcd58d5bbb", "fusion_lat": 0.0, "name": "f16a6e9824d82af01d0522dcd58d5bbb", "is_reserved": 0, "rental_uris": {"android": "https://dc.lft.to/lastmile_qr_scan", "ios": "https://dc.lft.to/lastmile_qr_scan"}, "fusion_lon": 0.0}, {"lat": 38.91600916666667, "is_disabled": 0, "type": "electric_scooter", "lon": -77.023919, "bike_id": "160d9eefac18615cf0424dd00dfa9b40", "fusion_lat": 0.0, "name": "160d9eefac18615cf0424dd00dfa9b40", "is_reserved": 0, "rental_uris": {"android": "https://dc.lft.to/lastmile_qr_scan", "ios": "https://dc.lft.to/lastmile_qr_scan"}, "fusion_lon": 0.0}, {"lat": 38.917828166666666, "is_disabled": 0, "type": "electric_scooter", "lon": -77.04099983333333, "bike_id": "41c476faf91ec5217851bc9f2bfd7640", "fusion_lat": 0.0, "name": "41c476faf91ec5217851bc9f2bfd7640", "is_reserved": 0, "rental_uris": {"android": "https://dc.lft.to/lastmile_qr_scan", "ios": "https://dc.lft.to/lastmile_qr_scan"}, "fusion_lon": 0.0}, {"lat": 38.90532183333333, "is_disabled": 0, "type": "electric_scooter", "lon": -77.00542, "bike_id": "06ba2f9870e6c5a0dd775a4c6515b480", "fusion_lat": 0.0, "name": "06ba2f9870e6c5a0dd775a4c6515b480", "is_reserved": 0, "rental_uris": {"android": "https://dc.lft.to/lastmile_qr_scan", "ios": "https://dc.lft.to/lastmile_qr_scan"}, "fusion_lon": 0.0}, {"lat": 38.862808333333334, "is_disabled": 0, "type": "electric_scooter", "lon": -76.99239416666667, "bike_id": "f294cec77ce59eb78dfed7ff4117c547", "fusion_lat": 0.0, "name": "f294cec77ce59eb78dfed7ff4117c547", "is_reserved": 0, "rental_uris": {"android": "https://dc.lft.to/lastmile_qr_scan", "ios": "https://dc.lft.to/lastmile_qr_scan"}, "fusion_lon": 0.0}, {"lat": 38.94945966666667, "is_disabled": 0, "type": "electric_scooter", "lon": -77.020219, "bike_id": "f186cf5d302d2241e5526f4fa08ae484", "fusion_lat": 0.0, "name": "f186cf5d302d2241e5526f4fa08ae484", "is_reserved": 0, "rental_uris": {"android": "https://dc.lft.to/lastmile_qr_scan", "ios": "https://dc.lft.to/lastmile_qr_scan"}, "fusion_lon": 0.0}, {"lat": 38.9047045, "is_disabled": 0, "type": "electric_scooter", "lon": -77.02939366666666, "bike_id": "baaef3425e1a82ac9fdf9dc57c8c4d45", "fusion_lat": 0.0, "name": "baaef3425e1a82ac9fdf9dc57c8c4d45", "is_reserved": 0, "rental_uris": {"android": "https://dc.lft.to/lastmile_qr_scan", "ios": "https://dc.lft.to/lastmile_qr_scan"}, "fusion_lon": 0.0}, {"lat": 38.931465333333335, "is_disabled": 0, "type": "electric_scooter", "lon": -77.028234, "bike_id": "44c852c9394d9cdf8cbc5f0dcd6a95db", "fusion_lat": 0.0, "name": "44c852c9394d9cdf8cbc5f0dcd6a95db", "is_reserved": 0, "rental_uris": {"android": "https://dc.lft.to/lastmile_qr_scan", "ios": "https://dc.lft.to/lastmile_qr_scan"}, "fusion_lon": 0.0}, {"lat": 38.918421333333335, "is_disabled": 0, "type": "electric_scooter", "lon": -77.032209, "bike_id": "df7de87ad8bd2bd0f61d9a7c42a89f02", "fusion_lat": 0.0, "name": "df7de87ad8bd2bd0f61d9a7c42a89f02", "is_reserved": 0, "rental_uris": {"android": "https://dc.lft.to/lastmile_qr_scan", "ios": "https://dc.lft.to/lastmile_qr_scan"}, "fusion_lon": 0.0}, {"lat": 38.9357085, "is_disabled": 0, "type": "electric_scooter", "lon": -77.0326435, "bike_id": "4c289f12d047d6e78025f5911106cca7", "fusion_lat": 0.0, "name": "4c289f12d047d6e78025f5911106cca7", "is_reserved": 0, "rental_uris": {"android": "https://dc.lft.to/lastmile_qr_scan", "ios": "https://dc.lft.to/lastmile_qr_scan"}, "fusion_lon": 0.0}, {"lat": 38.9047995, "is_disabled": 0, "type": "electric_scooter", "lon": -77.057273, "bike_id": "85e8fb167be14e59abee8bc68a07885f", "fusion_lat": 0.0, "name": "85e8fb167be14e59abee8bc68a07885f", "is_reserved": 0, "rental_uris": {"android": "https://dc.lft.to/lastmile_qr_scan", "ios": "https://dc.lft.to/lastmile_qr_scan"}, "fusion_lon": 0.0}, {"lat": 38.872134, "is_disabled": 0, "type": "electric_bike", "lon": -77.0152625, "bike_id": "9183007eecc61ba1bf9fba678af83fcf", "fusion_lat": 0.0, "name": "9183007eecc61ba1bf9fba678af83fcf", "is_reserved": 0, "rental_uris": {"android": "https://dc.lft.to/lastmile_qr_scan", "ios": "https://dc.lft.to/lastmile_qr_scan"}, "fusion_lon": 0.0}, {"lat": 38.8964715, "is_disabled": 0, "type": "electric_scooter", "lon": -77.00783533333333, "bike_id": "9b265fd2a7b9cb11eade5a991a096d97", "fusion_lat": 0.0, "name": "9b265fd2a7b9cb11eade5a991a096d97", "is_reserved": 0, "rental_uris": {"android": "https://dc.lft.to/lastmile_qr_scan", "ios": "https://dc.lft.to/lastmile_qr_scan"}, "fusion_lon": 0.0}, {"lat": 38.931014833333336, "is_disabled": 0, "type": "electric_scooter", "lon": -76.96723533333333, "bike_id": "f921b3c3bbd2d5a7797f35725f0d54c7", "fusion_lat": 0.0, "name": "f921b3c3bbd2d5a7797f35725f0d54c7", "is_reserved": 0, "rental_uris": {"android": "https://dc.lft.to/lastmile_qr_scan", "ios": "https://dc.lft.to/lastmile_qr_scan"}, "fusion_lon": 0.0}, {"lat": 38.91716616666667, "is_disabled": 0, "type": "electric_scooter", "lon": -77.03264166666666, "bike_id": "0e190ff5fd3ed7ceefd7e615665cac1f", "fusion_lat": 0.0, "name": "0e190ff5fd3ed7ceefd7e615665cac1f", "is_reserved": 0, "rental_uris": {"android": "https://dc.lft.to/lastmile_qr_scan", "ios": "https://dc.lft.to/lastmile_qr_scan"}, "fusion_lon": 0.0}, {"lat": 38.909763, "is_disabled": 0, "type": "electric_scooter", "lon": -77.05257533333334, "bike_id": "f2e61f8176deebeb3e3173fcdca94dfc", "fusion_lat": 0.0, "name": "f2e61f8176deebeb3e3173fcdca94dfc", "is_reserved": 0, "rental_uris": {"android": "https://dc.lft.to/lastmile_qr_scan", "ios": "https://dc.lft.to/lastmile_qr_scan"}, "fusion_lon": 0.0}, {"lat": 38.897458, "is_disabled": 0, "type": "electric_scooter", "lon": -77.0000455, "bike_id": "4f000ebfd6470970e217bdf81757cd2d", "fusion_lat": 0.0, "name": "4f000ebfd6470970e217bdf81757cd2d", "is_reserved": 0, "rental_uris": {"android": "https://dc.lft.to/lastmile_qr_scan", "ios": "https://dc.lft.to/lastmile_qr_scan"}, "fusion_lon": 0.0}, {"lat": 38.916969333333334, "is_disabled": 0, "type": "electric_scooter", "lon": -77.02514283333333, "bike_id": "5ea615a8e0bc23738ef6ecb0d2703033", "fusion_lat": 0.0, "name": "5ea615a8e0bc23738ef6ecb0d2703033", "is_reserved": 0, "rental_uris": {"android": "https://dc.lft.to/lastmile_qr_scan", "ios": "https://dc.lft.to/lastmile_qr_scan"}, "fusion_lon": 0.0}, {"lat": 38.866619666666665, "is_disabled": 0, "type": "electric_scooter", "lon": -76.9890005, "bike_id": "69147756a2946dfa93bb96753ca30965", "fusion_lat": 0.0, "name": "69147756a2946dfa93bb96753ca30965", "is_reserved": 0, "rental_uris": {"android": "https://dc.lft.to/lastmile_qr_scan", "ios": "https://dc.lft.to/lastmile_qr_scan"}, "fusion_lon": 0.0}, {"lat": 38.9131235, "is_disabled": 0, "type": "electric_scooter", "lon": -77.0363375, "bike_id": "02ebaf2d9727379d8e9c359e38e6ca3f", "fusion_lat": 0.0, "name": "02ebaf2d9727379d8e9c359e38e6ca3f", "is_reserved": 0, "rental_uris": {"android": "https://dc.lft.to/lastmile_qr_scan", "ios": "https://dc.lft.to/lastmile_qr_scan"}, "fusion_lon": 0.0}, {"lat": 38.929648, "is_disabled": 0, "type": "electric_scooter", "lon": -77.03181116666667, "bike_id": "bb3397b5795bc4273855b023add788a2", "fusion_lat": 0.0, "name": "bb3397b5795bc4273855b023add788a2", "is_reserved": 0, "rental_uris": {"android": "https://dc.lft.to/lastmile_qr_scan", "ios": "https://dc.lft.to/lastmile_qr_scan"}, "fusion_lon": 0.0}, {"lat": 38.917238, "is_disabled": 0, "type": "electric_scooter", "lon": -77.0270605, "bike_id": "28c6c75e8b37c9e2b8b66f2d63861ce1", "fusion_lat": 0.0, "name": "28c6c75e8b37c9e2b8b66f2d63861ce1", "is_reserved": 0, "rental_uris": {"android": "https://dc.lft.to/lastmile_qr_scan", "ios": "https://dc.lft.to/lastmile_qr_scan"}, "fusion_lon": 0.0}, {"lat": 38.92844983333333, "is_disabled": 0, "type": "electric_scooter", "lon": -77.05422416666667, "bike_id": "5e458823ac2cff2d407facb4ac1f76a0", "fusion_lat": 0.0, "name": "5e458823ac2cff2d407facb4ac1f76a0", "is_reserved": 0, "rental_uris": {"android": "https://dc.lft.to/lastmile_qr_scan", "ios": "https://dc.lft.to/lastmile_qr_scan"}, "fusion_lon": 0.0}, {"lat": 38.92747466666667, "is_disabled": 0, "type": "electric_scooter", "lon": -77.035598, "bike_id": "b81ba4e8b5cef111d026534f7aedd6d5", "fusion_lat": 0.0, "name": "b81ba4e8b5cef111d026534f7aedd6d5", "is_reserved": 0, "rental_uris": {"android": "https://dc.lft.to/lastmile_qr_scan", "ios": "https://dc.lft.to/lastmile_qr_scan"}, "fusion_lon": 0.0}, {"lat": 38.920242333333334, "is_disabled": 0, "type": "electric_scooter", "lon": -77.03128283333334, "bike_id": "f6cfc6dc7b26d486699a7b41dc7141d0", "fusion_lat": 0.0, "name": "f6cfc6dc7b26d486699a7b41dc7141d0", "is_reserved": 0, "rental_uris": {"android": "https://dc.lft.to/lastmile_qr_scan", "ios": "https://dc.lft.to/lastmile_qr_scan"}, "fusion_lon": 0.0}, {"lat": 38.906688333333335, "is_disabled": 0, "type": "electric_scooter", "lon": -77.00844066666667, "bike_id": "5538dfe12d4971c0b2686b7dd03ad909", "fusion_lat": 0.0, "name": "5538dfe12d4971c0b2686b7dd03ad909", "is_reserved": 0, "rental_uris": {"android": "https://dc.lft.to/lastmile_qr_scan", "ios": "https://dc.lft.to/lastmile_qr_scan"}, "fusion_lon": 0.0}, {"lat": 38.91689366666667, "is_disabled": 0, "type": "electric_scooter", "lon": -77.0302945, "bike_id": "25cee7bebc422272afd69ef6c22e66fe", "fusion_lat": 0.0, "name": "25cee7bebc422272afd69ef6c22e66fe", "is_reserved": 0, "rental_uris": {"android": "https://dc.lft.to/lastmile_qr_scan", "ios": "https://dc.lft.to/lastmile_qr_scan"}, "fusion_lon": 0.0}, {"lat": 38.918497333333335, "is_disabled": 0, "type": "electric_scooter", "lon": -76.96537516666666, "bike_id": "f1425c3a1c427d63e62f535034443519", "fusion_lat": 0.0, "name": "f1425c3a1c427d63e62f535034443519", "is_reserved": 0, "rental_uris": {"android": "https://dc.lft.to/lastmile_qr_scan", "ios": "https://dc.lft.to/lastmile_qr_scan"}, "fusion_lon": 0.0}, {"lat": 38.9231205, "is_disabled": 0, "type": "electric_bike", "lon": -77.0365975, "bike_id": "2190cfc9b702c329a781ff4af7ea51e2", "fusion_lat": 0.0, "name": "2190cfc9b702c329a781ff4af7ea51e2", "is_reserved": 0, "rental_uris": {"android": "https://dc.lft.to/lastmile_qr_scan", "ios": "https://dc.lft.to/lastmile_qr_scan"}, "fusion_lon": 0.0}, {"lat": 38.8951165, "is_disabled": 0, "type": "electric_scooter", "lon": -77.0274605, "bike_id": "0a00ca0a20ab8b9b5a3d59bdeeef4d31", "fusion_lat": 0.0, "name": "0a00ca0a20ab8b9b5a3d59bdeeef4d31", "is_reserved": 0, "rental_uris": {"android": "https://dc.lft.to/lastmile_qr_scan", "ios": "https://dc.lft.to/lastmile_qr_scan"}, "fusion_lon": 0.0}, {"lat": 38.9185195, "is_disabled": 0, "type": "electric_scooter", "lon": -77.0243975, "bike_id": "08e358819947c9061ba01a7885bed63d", "fusion_lat": 0.0, "name": "08e358819947c9061ba01a7885bed63d", "is_reserved": 0, "rental_uris": {"android": "https://dc.lft.to/lastmile_qr_scan", "ios": "https://dc.lft.to/lastmile_qr_scan"}, "fusion_lon": 0.0}, {"lat": 38.846311166666666, "is_disabled": 0, "type": "electric_bike", "lon": -77.069369, "bike_id": "692e914faad31b127034f4451d89dfc2", "fusion_lat": 0.0, "name": "692e914faad31b127034f4451d89dfc2", "is_reserved": 0, "rental_uris": {"android": "https://dc.lft.to/lastmile_qr_scan", "ios": "https://dc.lft.to/lastmile_qr_scan"}, "fusion_lon": 0.0}, {"lat": 38.92383266666667, "is_disabled": 0, "type": "electric_scooter", "lon": -77.0307425, "bike_id": "c15976ddd422702f46128202a7e03aae", "fusion_lat": 0.0, "name": "c15976ddd422702f46128202a7e03aae", "is_reserved": 0, "rental_uris": {"android": "https://dc.lft.to/lastmile_qr_scan", "ios": "https://dc.lft.to/lastmile_qr_scan"}, "fusion_lon": 0.0}, {"lat": 38.919833833333335, "is_disabled": 0, "type": "electric_scooter", "lon": -77.04180433333333, "bike_id": "8770b506a22cce3d2b7b1e727affa9f4", "fusion_lat": 0.0, "name": "8770b506a22cce3d2b7b1e727affa9f4", "is_reserved": 0, "rental_uris": {"android": "https://dc.lft.to/lastmile_qr_scan", "ios": "https://dc.lft.to/lastmile_qr_scan"}, "fusion_lon": 0.0}, {"lat": 38.8927745, "is_disabled": 0, "type": "electric_scooter", "lon": -77.05030733333334, "bike_id": "c8b75c9a28a29d088eaccf65fca79d6b", "fusion_lat": 0.0, "name": "c8b75c9a28a29d088eaccf65fca79d6b", "is_reserved": 0, "rental_uris": {"android": "https://dc.lft.to/lastmile_qr_scan", "ios": "https://dc.lft.to/lastmile_qr_scan"}, "fusion_lon": 0.0}, {"lat": 38.8808645, "is_disabled": 0, "type": "electric_scooter", "lon": -76.9950255, "bike_id": "b5ff5dc6b15a6b955f318401848776cb", "fusion_lat": 0.0, "name": "b5ff5dc6b15a6b955f318401848776cb", "is_reserved": 0, "rental_uris": {"android": "https://dc.lft.to/lastmile_qr_scan", "ios": "https://dc.lft.to/lastmile_qr_scan"}, "fusion_lon": 0.0}, {"lat": 38.865631666666665, "is_disabled": 0, "type": "electric_scooter", "lon": -76.9894975, "bike_id": "61cce4931e737880df31fbf6e19e8dec", "fusion_lat": 0.0, "name": "61cce4931e737880df31fbf6e19e8dec", "is_reserved": 0, "rental_uris": {"android": "https://dc.lft.to/lastmile_qr_scan", "ios": "https://dc.lft.to/lastmile_qr_scan"}, "fusion_lon": 0.0}, {"lat": 38.88734483333333, "is_disabled": 0, "type": "electric_scooter", "lon": -77.03212416666666, "bike_id": "09ee203da5f0478cc19f273602e1503e", "fusion_lat": 0.0, "name": "09ee203da5f0478cc19f273602e1503e", "is_reserved": 0, "rental_uris": {"android": "https://dc.lft.to/lastmile_qr_scan", "ios": "https://dc.lft.to/lastmile_qr_scan"}, "fusion_lon": 0.0}, {"lat": 38.95563766666667, "is_disabled": 0, "type": "electric_scooter", "lon": -77.02239266666666, "bike_id": "ddfeca79900906450df86023fd3ac53a", "fusion_lat": 0.0, "name": "ddfeca79900906450df86023fd3ac53a", "is_reserved": 0, "rental_uris": {"android": "https://dc.lft.to/lastmile_qr_scan", "ios": "https://dc.lft.to/lastmile_qr_scan"}, "fusion_lon": 0.0}, {"lat": 38.9091455, "is_disabled": 0, "type": "electric_scooter", "lon": -77.03643166666667, "bike_id": "21446300e0230ab191cab61418a0f524", "fusion_lat": 0.0, "name": "21446300e0230ab191cab61418a0f524", "is_reserved": 0, "rental_uris": {"android": "https://dc.lft.to/lastmile_qr_scan", "ios": "https://dc.lft.to/lastmile_qr_scan"}, "fusion_lon": 0.0}, {"lat": 38.938770166666664, "is_disabled": 0, "type": "electric_scooter", "lon": -77.0244305, "bike_id": "bc3a0eb70a31aaca157b0b9e1c8b8df0", "fusion_lat": 0.0, "name": "bc3a0eb70a31aaca157b0b9e1c8b8df0", "is_reserved": 0, "rental_uris": {"android": "https://dc.lft.to/lastmile_qr_scan", "ios": "https://dc.lft.to/lastmile_qr_scan"}, "fusion_lon": 0.0}, {"lat": 38.90013416666667, "is_disabled": 0, "type": "electric_scooter", "lon": -77.033174, "bike_id": "093c4a9a788004e2a4a7c62f624be6be", "fusion_lat": 0.0, "name": "093c4a9a788004e2a4a7c62f624be6be", "is_reserved": 0, "rental_uris": {"android": "https://dc.lft.to/lastmile_qr_scan", "ios": "https://dc.lft.to/lastmile_qr_scan"}, "fusion_lon": 0.0}, {"lat": 38.900698, "is_disabled": 0, "type": "electric_scooter", "lon": -77.0506675, "bike_id": "cfd8b4a41f90c4641b6fe0c63872a0e6", "fusion_lat": 0.0, "name": "cfd8b4a41f90c4641b6fe0c63872a0e6", "is_reserved": 0, "rental_uris": {"android": "https://dc.lft.to/lastmile_qr_scan", "ios": "https://dc.lft.to/lastmile_qr_scan"}, "fusion_lon": 0.0}, {"lat": 38.939878, "is_disabled": 0, "type": "electric_scooter", "lon": -77.0716715, "bike_id": "7d66e8347f1522db13e7ea7492b7c586", "fusion_lat": 0.0, "name": "7d66e8347f1522db13e7ea7492b7c586", "is_reserved": 0, "rental_uris": {"android": "https://dc.lft.to/lastmile_qr_scan", "ios": "https://dc.lft.to/lastmile_qr_scan"}, "fusion_lon": 0.0}, {"lat": 38.900647666666664, "is_disabled": 0, "type": "electric_scooter", "lon": -77.04632366666667, "bike_id": "c84c934e8534c6a75bc553e7595b1386", "fusion_lat": 0.0, "name": "c84c934e8534c6a75bc553e7595b1386", "is_reserved": 0, "rental_uris": {"android": "https://dc.lft.to/lastmile_qr_scan", "ios": "https://dc.lft.to/lastmile_qr_scan"}, "fusion_lon": 0.0}, {"lat": 38.92014533333333, "is_disabled": 0, "type": "electric_scooter", "lon": -77.04176316666667, "bike_id": "b2436b44249b553e7ff20a776a2c578b", "fusion_lat": 0.0, "name": "b2436b44249b553e7ff20a776a2c578b", "is_reserved": 0, "rental_uris": {"android": "https://dc.lft.to/lastmile_qr_scan", "ios": "https://dc.lft.to/lastmile_qr_scan"}, "fusion_lon": 0.0}, {"lat": 38.898877666666664, "is_disabled": 0, "type": "electric_scooter", "lon": -76.931751, "bike_id": "05c996383c97054365646b3e6608a841", "fusion_lat": 0.0, "name": "05c996383c97054365646b3e6608a841", "is_reserved": 0, "rental_uris": {"android": "https://dc.lft.to/lastmile_qr_scan", "ios": "https://dc.lft.to/lastmile_qr_scan"}, "fusion_lon": 0.0}, {"lat": 38.92625983333333, "is_disabled": 0, "type": "electric_scooter", "lon": -77.037025, "bike_id": "06ac07b17431adf13777326ad828438a", "fusion_lat": 0.0, "name": "06ac07b17431adf13777326ad828438a", "is_reserved": 0, "rental_uris": {"android": "https://dc.lft.to/lastmile_qr_scan", "ios": "https://dc.lft.to/lastmile_qr_scan"}, "fusion_lon": 0.0}, {"lat": 38.89971633333333, "is_disabled": 0, "type": "electric_scooter", "lon": -77.0570115, "bike_id": "d61374d50f84b9c7ea202345c6396f1d", "fusion_lat": 0.0, "name": "d61374d50f84b9c7ea202345c6396f1d", "is_reserved": 0, "rental_uris": {"android": "https://dc.lft.to/lastmile_qr_scan", "ios": "https://dc.lft.to/lastmile_qr_scan"}, "fusion_lon": 0.0}, {"lat": 38.905131833333336, "is_disabled": 0, "type": "electric_scooter", "lon": -77.0620205, "bike_id": "ba947488f51fef35f723d5e28b707f39", "fusion_lat": 0.0, "name": "ba947488f51fef35f723d5e28b707f39", "is_reserved": 0, "rental_uris": {"android": "https://dc.lft.to/lastmile_qr_scan", "ios": "https://dc.lft.to/lastmile_qr_scan"}, "fusion_lon": 0.0}, {"lat": 38.92243533333333, "is_disabled": 0, "type": "electric_scooter", "lon": -77.04574916666667, "bike_id": "77cbbe58d34905c3f52c427d0cd28001", "fusion_lat": 0.0, "name": "77cbbe58d34905c3f52c427d0cd28001", "is_reserved": 0, "rental_uris": {"android": "https://dc.lft.to/lastmile_qr_scan", "ios": "https://dc.lft.to/lastmile_qr_scan"}, "fusion_lon": 0.0}, {"lat": 38.85056733333333, "is_disabled": 0, "type": "electric_bike", "lon": -76.97314616666667, "bike_id": "3830e269b5ad0ac7fef51b2de59e6ef9", "fusion_lat": 0.0, "name": "3830e269b5ad0ac7fef51b2de59e6ef9", "is_reserved": 0, "rental_uris": {"android": "https://dc.lft.to/lastmile_qr_scan", "ios": "https://dc.lft.to/lastmile_qr_scan"}, "fusion_lon": 0.0}, {"lat": 38.911884666666666, "is_disabled": 0, "type": "electric_scooter", "lon": -77.03834916666666, "bike_id": "b54ce33a72a34ee78e1741e5631f3096", "fusion_lat": 0.0, "name": "b54ce33a72a34ee78e1741e5631f3096", "is_reserved": 0, "rental_uris": {"android": "https://dc.lft.to/lastmile_qr_scan", "ios": "https://dc.lft.to/lastmile_qr_scan"}, "fusion_lon": 0.0}, {"lat": 38.9243865, "is_disabled": 0, "type": "electric_scooter", "lon": -77.034008, "bike_id": "ac36945c5ee6f4cc481739000ff40155", "fusion_lat": 0.0, "name": "ac36945c5ee6f4cc481739000ff40155", "is_reserved": 0, "rental_uris": {"android": "https://dc.lft.to/lastmile_qr_scan", "ios": "https://dc.lft.to/lastmile_qr_scan"}, "fusion_lon": 0.0}, {"lat": 38.91331616666667, "is_disabled": 0, "type": "electric_scooter", "lon": -77.03992666666667, "bike_id": "cdbbf3e43a54623df3ec51502993d18a", "fusion_lat": 0.0, "name": "cdbbf3e43a54623df3ec51502993d18a", "is_reserved": 0, "rental_uris": {"android": "https://dc.lft.to/lastmile_qr_scan", "ios": "https://dc.lft.to/lastmile_qr_scan"}, "fusion_lon": 0.0}, {"lat": 38.9103685, "is_disabled": 0, "type": "electric_scooter", "lon": -77.038372, "bike_id": "e0a2052f958fab34b5f138420404e56d", "fusion_lat": 0.0, "name": "e0a2052f958fab34b5f138420404e56d", "is_reserved": 0, "rental_uris": {"android": "https://dc.lft.to/lastmile_qr_scan", "ios": "https://dc.lft.to/lastmile_qr_scan"}, "fusion_lon": 0.0}, {"lat": 38.973286333333334, "is_disabled": 0, "type": "electric_bike", "lon": -77.0214795, "bike_id": "f4753dd64c7621f530f66d0866583196", "fusion_lat": 0.0, "name": "f4753dd64c7621f530f66d0866583196", "is_reserved": 0, "rental_uris": {"android": "https://dc.lft.to/lastmile_qr_scan", "ios": "https://dc.lft.to/lastmile_qr_scan"}, "fusion_lon": 0.0}, {"lat": 38.879410666666665, "is_disabled": 0, "type": "electric_bike", "lon": -76.98384016666667, "bike_id": "466512ece84813408fc3fa68eb187e15", "fusion_lat": 0.0, "name": "466512ece84813408fc3fa68eb187e15", "is_reserved": 0, "rental_uris": {"android": "https://dc.lft.to/lastmile_qr_scan", "ios": "https://dc.lft.to/lastmile_qr_scan"}, "fusion_lon": 0.0}, {"lat": 38.897674333333335, "is_disabled": 0, "type": "electric_scooter", "lon": -77.03207283333333, "bike_id": "3763e1ba601b3e148151d738211ffa38", "fusion_lat": 0.0, "name": "3763e1ba601b3e148151d738211ffa38", "is_reserved": 0, "rental_uris": {"android": "https://dc.lft.to/lastmile_qr_scan", "ios": "https://dc.lft.to/lastmile_qr_scan"}, "fusion_lon": 0.0}, {"lat": 38.916904833333334, "is_disabled": 0, "type": "electric_scooter", "lon": -77.0243735, "bike_id": "73bbaa11079a8a8f941086bbc088cf20", "fusion_lat": 0.0, "name": "73bbaa11079a8a8f941086bbc088cf20", "is_reserved": 0, "rental_uris": {"android": "https://dc.lft.to/lastmile_qr_scan", "ios": "https://dc.lft.to/lastmile_qr_scan"}, "fusion_lon": 0.0}, {"lat": 38.93660583333333, "is_disabled": 0, "type": "electric_bike", "lon": -76.95215516666667, "bike_id": "27fb9bb188556b026fa1fe6bb68d6968", "fusion_lat": 0.0, "name": "27fb9bb188556b026fa1fe6bb68d6968", "is_reserved": 0, "rental_uris": {"android": "https://dc.lft.to/lastmile_qr_scan", "ios": "https://dc.lft.to/lastmile_qr_scan"}, "fusion_lon": 0.0}, {"lat": 38.8443385, "is_disabled": 0, "type": "electric_scooter", "lon": -76.99774766666667, "bike_id": "35199afb8fd42065fdd60b154d0d5137", "fusion_lat": 0.0, "name": "35199afb8fd42065fdd60b154d0d5137", "is_reserved": 0, "rental_uris": {"android": "https://dc.lft.to/lastmile_qr_scan", "ios": "https://dc.lft.to/lastmile_qr_scan"}, "fusion_lon": 0.0}, {"lat": 38.900811, "is_disabled": 0, "type": "electric_scooter", "lon": -77.05013433333333, "bike_id": "b45e15cadda8e320ccaedf01dd712e83", "fusion_lat": 0.0, "name": "b45e15cadda8e320ccaedf01dd712e83", "is_reserved": 0, "rental_uris": {"android": "https://dc.lft.to/lastmile_qr_scan", "ios": "https://dc.lft.to/lastmile_qr_scan"}, "fusion_lon": 0.0}, {"lat": 38.880961166666665, "is_disabled": 0, "type": "electric_scooter", "lon": -76.99246666666667, "bike_id": "10f3a9f01e8f436a52c09dbfcb188456", "fusion_lat": 0.0, "name": "10f3a9f01e8f436a52c09dbfcb188456", "is_reserved": 0, "rental_uris": {"android": "https://dc.lft.to/lastmile_qr_scan", "ios": "https://dc.lft.to/lastmile_qr_scan"}, "fusion_lon": 0.0}, {"lat": 38.90936116666666, "is_disabled": 0, "type": "electric_scooter", "lon": -77.04468033333333, "bike_id": "5509a77f165f51804b5b3ac546a29359", "fusion_lat": 0.0, "name": "5509a77f165f51804b5b3ac546a29359", "is_reserved": 0, "rental_uris": {"android": "https://dc.lft.to/lastmile_qr_scan", "ios": "https://dc.lft.to/lastmile_qr_scan"}, "fusion_lon": 0.0}, {"lat": 38.935374833333334, "is_disabled": 0, "type": "electric_scooter", "lon": -77.02351633333333, "bike_id": "31df9c8a40a822655d3f558a25125a9f", "fusion_lat": 0.0, "name": "31df9c8a40a822655d3f558a25125a9f", "is_reserved": 0, "rental_uris": {"android": "https://dc.lft.to/lastmile_qr_scan", "ios": "https://dc.lft.to/lastmile_qr_scan"}, "fusion_lon": 0.0}, {"lat": 38.91419783333333, "is_disabled": 0, "type": "electric_scooter", "lon": -77.011162, "bike_id": "11802d688cfaecbd7c31bfa7c870828a", "fusion_lat": 0.0, "name": "11802d688cfaecbd7c31bfa7c870828a", "is_reserved": 0, "rental_uris": {"android": "https://dc.lft.to/lastmile_qr_scan", "ios": "https://dc.lft.to/lastmile_qr_scan"}, "fusion_lon": 0.0}, {"lat": 38.906348, "is_disabled": 0, "type": "electric_scooter", "lon": -77.03451083333333, "bike_id": "0a9d14c6498c568a14108fad4113df28", "fusion_lat": 0.0, "name": "0a9d14c6498c568a14108fad4113df28", "is_reserved": 0, "rental_uris": {"android": "https://dc.lft.to/lastmile_qr_scan", "ios": "https://dc.lft.to/lastmile_qr_scan"}, "fusion_lon": 0.0}, {"lat": 39.03425583333333, "is_disabled": 0, "type": "electric_bike", "lon": -77.04308683333333, "bike_id": "c2dba66139a451d16112a50d1bba93f3", "fusion_lat": 0.0, "name": "c2dba66139a451d16112a50d1bba93f3", "is_reserved": 0, "rental_uris": {"android": "https://dc.lft.to/lastmile_qr_scan", "ios": "https://dc.lft.to/lastmile_qr_scan"}, "fusion_lon": 0.0}, {"lat": 38.94948733333333, "is_disabled": 0, "type": "electric_scooter", "lon": -77.01607333333334, "bike_id": "1f92c7d73f394c1c7baef8d32001f758", "fusion_lat": 0.0, "name": "1f92c7d73f394c1c7baef8d32001f758", "is_reserved": 0, "rental_uris": {"android": "https://dc.lft.to/lastmile_qr_scan", "ios": "https://dc.lft.to/lastmile_qr_scan"}, "fusion_lon": 0.0}, {"lat": 38.923264, "is_disabled": 0, "type": "electric_bike", "lon": -77.05680083333333, "bike_id": "6cb0c7d4c1815cc4d23a9e9b46d1f121", "fusion_lat": 0.0, "name": "6cb0c7d4c1815cc4d23a9e9b46d1f121", "is_reserved": 0, "rental_uris": {"android": "https://dc.lft.to/lastmile_qr_scan", "ios": "https://dc.lft.to/lastmile_qr_scan"}, "fusion_lon": 0.0}, {"lat": 38.96282866666667, "is_disabled": 0, "type": "electric_bike", "lon": -77.03257116666667, "bike_id": "c422f715ddd4d6d52a7874ef02a8e1d6", "fusion_lat": 0.0, "name": "c422f715ddd4d6d52a7874ef02a8e1d6", "is_reserved": 0, "rental_uris": {"android": "https://dc.lft.to/lastmile_qr_scan", "ios": "https://dc.lft.to/lastmile_qr_scan"}, "fusion_lon": 0.0}, {"lat": 38.91321033333333, "is_disabled": 0, "type": "electric_scooter", "lon": -77.03654883333333, "bike_id": "2d9a50c5b87e575b6952f132ad590388", "fusion_lat": 0.0, "name": "2d9a50c5b87e575b6952f132ad590388", "is_reserved": 0, "rental_uris": {"android": "https://dc.lft.to/lastmile_qr_scan", "ios": "https://dc.lft.to/lastmile_qr_scan"}, "fusion_lon": 0.0}, {"lat": 38.91103833333333, "is_disabled": 0, "type": "electric_scooter", "lon": -77.0355795, "bike_id": "41c26499c65a20ea1d408f8330f528ef", "fusion_lat": 0.0, "name": "41c26499c65a20ea1d408f8330f528ef", "is_reserved": 0, "rental_uris": {"android": "https://dc.lft.to/lastmile_qr_scan", "ios": "https://dc.lft.to/lastmile_qr_scan"}, "fusion_lon": 0.0}, {"lat": 38.9076935, "is_disabled": 0, "type": "electric_scooter", "lon": -77.04353466666667, "bike_id": "845573a34ce33aa8dedd3bf3449a35dd", "fusion_lat": 0.0, "name": "845573a34ce33aa8dedd3bf3449a35dd", "is_reserved": 0, "rental_uris": {"android": "https://dc.lft.to/lastmile_qr_scan", "ios": "https://dc.lft.to/lastmile_qr_scan"}, "fusion_lon": 0.0}, {"lat": 38.91966583333333, "is_disabled": 0, "type": "electric_bike", "lon": -76.9726205, "bike_id": "5fa7a9287a5744f9d236a4d0e71f04c4", "fusion_lat": 0.0, "name": "5fa7a9287a5744f9d236a4d0e71f04c4", "is_reserved": 0, "rental_uris": {"android": "https://dc.lft.to/lastmile_qr_scan", "ios": "https://dc.lft.to/lastmile_qr_scan"}, "fusion_lon": 0.0}, {"lat": 38.915697, "is_disabled": 0, "type": "electric_scooter", "lon": -77.04673333333334, "bike_id": "50d7eac234a61ba3589087b81221d556", "fusion_lat": 0.0, "name": "50d7eac234a61ba3589087b81221d556", "is_reserved": 0, "rental_uris": {"android": "https://dc.lft.to/lastmile_qr_scan", "ios": "https://dc.lft.to/lastmile_qr_scan"}, "fusion_lon": 0.0}, {"lat": 38.902171833333334, "is_disabled": 0, "type": "electric_scooter", "lon": -76.9458665, "bike_id": "27249b65a420648cc549514d036bb25d", "fusion_lat": 0.0, "name": "27249b65a420648cc549514d036bb25d", "is_reserved": 0, "rental_uris": {"android": "https://dc.lft.to/lastmile_qr_scan", "ios": "https://dc.lft.to/lastmile_qr_scan"}, "fusion_lon": 0.0}, {"lat": 38.95539683333333, "is_disabled": 0, "type": "electric_bike", "lon": -77.01785316666667, "bike_id": "2c6d2ce55ea0595b9dbc04d612c2d28b", "fusion_lat": 0.0, "name": "2c6d2ce55ea0595b9dbc04d612c2d28b", "is_reserved": 0, "rental_uris": {"android": "https://dc.lft.to/lastmile_qr_scan", "ios": "https://dc.lft.to/lastmile_qr_scan"}, "fusion_lon": 0.0}, {"lat": 38.89779933333333, "is_disabled": 0, "type": "electric_scooter", "lon": -77.04346516666666, "bike_id": "e546cd5131f81bd49a3a97725c590403", "fusion_lat": 0.0, "name": "e546cd5131f81bd49a3a97725c590403", "is_reserved": 0, "rental_uris": {"android": "https://dc.lft.to/lastmile_qr_scan", "ios": "https://dc.lft.to/lastmile_qr_scan"}, "fusion_lon": 0.0}, {"lat": 38.902824833333334, "is_disabled": 0, "type": "electric_scooter", "lon": -77.03377233333333, "bike_id": "fa96504c3a0b65d1ac035ceeba2865f5", "fusion_lat": 0.0, "name": "fa96504c3a0b65d1ac035ceeba2865f5", "is_reserved": 0, "rental_uris": {"android": "https://dc.lft.to/lastmile_qr_scan", "ios": "https://dc.lft.to/lastmile_qr_scan"}, "fusion_lon": 0.0}, {"lat": 38.930142333333336, "is_disabled": 0, "type": "electric_bike", "lon": -77.216441, "bike_id": "2fb296ec23fb17dc4ea3735bf62aef9f", "fusion_lat": 0.0, "name": "2fb296ec23fb17dc4ea3735bf62aef9f", "is_reserved": 0, "rental_uris": {"android": "https://dc.lft.to/lastmile_qr_scan", "ios": "https://dc.lft.to/lastmile_qr_scan"}, "fusion_lon": 0.0}, {"lat": 38.89812383333334, "is_disabled": 0, "type": "electric_scooter", "lon": -77.03292, "bike_id": "cd6372441ac0590d65780d25f0f5e674", "fusion_lat": 0.0, "name": "cd6372441ac0590d65780d25f0f5e674", "is_reserved": 0, "rental_uris": {"android": "https://dc.lft.to/lastmile_qr_scan", "ios": "https://dc.lft.to/lastmile_qr_scan"}, "fusion_lon": 0.0}, {"lat": 38.91762383333333, "is_disabled": 0, "type": "electric_scooter", "lon": -77.03993983333334, "bike_id": "864706c3e9be17461e688e36f0335055", "fusion_lat": 0.0, "name": "864706c3e9be17461e688e36f0335055", "is_reserved": 0, "rental_uris": {"android": "https://dc.lft.to/lastmile_qr_scan", "ios": "https://dc.lft.to/lastmile_qr_scan"}, "fusion_lon": 0.0}, {"lat": 38.920066, "is_disabled": 0, "type": "electric_scooter", "lon": -77.04169366666666, "bike_id": "93e4a0637e1c7a28fed87aa30e5d017c", "fusion_lat": 0.0, "name": "93e4a0637e1c7a28fed87aa30e5d017c", "is_reserved": 0, "rental_uris": {"android": "https://dc.lft.to/lastmile_qr_scan", "ios": "https://dc.lft.to/lastmile_qr_scan"}, "fusion_lon": 0.0}, {"lat": 38.91218033333333, "is_disabled": 0, "type": "electric_scooter", "lon": -77.00443516666667, "bike_id": "487fc40129603d2ff111d91ae637531f", "fusion_lat": 0.0, "name": "487fc40129603d2ff111d91ae637531f", "is_reserved": 0, "rental_uris": {"android": "https://dc.lft.to/lastmile_qr_scan", "ios": "https://dc.lft.to/lastmile_qr_scan"}, "fusion_lon": 0.0}, {"lat": 38.91474316666667, "is_disabled": 0, "type": "electric_scooter", "lon": -77.03215433333334, "bike_id": "a4ac86d12881830024fe658989a59ac5", "fusion_lat": 0.0, "name": "a4ac86d12881830024fe658989a59ac5", "is_reserved": 0, "rental_uris": {"android": "https://dc.lft.to/lastmile_qr_scan", "ios": "https://dc.lft.to/lastmile_qr_scan"}, "fusion_lon": 0.0}, {"lat": 38.885185666666665, "is_disabled": 0, "type": "electric_scooter", "lon": -77.02105183333333, "bike_id": "c2a08dfbf1772845979629b76644e0b2", "fusion_lat": 0.0, "name": "c2a08dfbf1772845979629b76644e0b2", "is_reserved": 0, "rental_uris": {"android": "https://dc.lft.to/lastmile_qr_scan", "ios": "https://dc.lft.to/lastmile_qr_scan"}, "fusion_lon": 0.0}, {"lat": 38.89873883333333, "is_disabled": 0, "type": "electric_scooter", "lon": -77.02274483333333, "bike_id": "8e342a7962bc5e692280e0885d26ab74", "fusion_lat": 0.0, "name": "8e342a7962bc5e692280e0885d26ab74", "is_reserved": 0, "rental_uris": {"android": "https://dc.lft.to/lastmile_qr_scan", "ios": "https://dc.lft.to/lastmile_qr_scan"}, "fusion_lon": 0.0}, {"lat": 38.91122933333333, "is_disabled": 0, "type": "electric_scooter", "lon": -77.03824733333333, "bike_id": "59c570f0deeca8eed195f738e364e7a3", "fusion_lat": 0.0, "name": "59c570f0deeca8eed195f738e364e7a3", "is_reserved": 0, "rental_uris": {"android": "https://dc.lft.to/lastmile_qr_scan", "ios": "https://dc.lft.to/lastmile_qr_scan"}, "fusion_lon": 0.0}, {"lat": 38.892928833333336, "is_disabled": 0, "type": "electric_scooter", "lon": -77.002125, "bike_id": "9f2ffb9cd1bbb9f36099e5fc1bf7886d", "fusion_lat": 0.0, "name": "9f2ffb9cd1bbb9f36099e5fc1bf7886d", "is_reserved": 0, "rental_uris": {"android": "https://dc.lft.to/lastmile_qr_scan", "ios": "https://dc.lft.to/lastmile_qr_scan"}, "fusion_lon": 0.0}, {"lat": 38.802288833333336, "is_disabled": 0, "type": "electric_bike", "lon": -77.07917566666667, "bike_id": "f8eb1b88c0547d67a6f74d4dfe7562e8", "fusion_lat": 0.0, "name": "f8eb1b88c0547d67a6f74d4dfe7562e8", "is_reserved": 0, "rental_uris": {"android": "https://dc.lft.to/lastmile_qr_scan", "ios": "https://dc.lft.to/lastmile_qr_scan"}, "fusion_lon": 0.0}, {"lat": 38.857939, "is_disabled": 0, "type": "electric_bike", "lon": -76.98744733333334, "bike_id": "00bb5b707895fed24e5da36849244a82", "fusion_lat": 0.0, "name": "00bb5b707895fed24e5da36849244a82", "is_reserved": 0, "rental_uris": {"android": "https://dc.lft.to/lastmile_qr_scan", "ios": "https://dc.lft.to/lastmile_qr_scan"}, "fusion_lon": 0.0}, {"lat": 38.89819466666667, "is_disabled": 0, "type": "electric_scooter", "lon": -77.03291416666667, "bike_id": "c77852846b99a0dd0f53874867759f1e", "fusion_lat": 0.0, "name": "c77852846b99a0dd0f53874867759f1e", "is_reserved": 0, "rental_uris": {"android": "https://dc.lft.to/lastmile_qr_scan", "ios": "https://dc.lft.to/lastmile_qr_scan"}, "fusion_lon": 0.0}, {"lat": 38.937609333333334, "is_disabled": 0, "type": "electric_scooter", "lon": -77.03283766666667, "bike_id": "485ff84d28781f4bc3be28f7ba9894c6", "fusion_lat": 0.0, "name": "485ff84d28781f4bc3be28f7ba9894c6", "is_reserved": 0, "rental_uris": {"android": "https://dc.lft.to/lastmile_qr_scan", "ios": "https://dc.lft.to/lastmile_qr_scan"}, "fusion_lon": 0.0}, {"lat": 38.88718266666667, "is_disabled": 0, "type": "electric_bike", "lon": -77.1330235, "bike_id": "958d3fa5818aad73306617d56756bc81", "fusion_lat": 0.0, "name": "958d3fa5818aad73306617d56756bc81", "is_reserved": 0, "rental_uris": {"android": "https://dc.lft.to/lastmile_qr_scan", "ios": "https://dc.lft.to/lastmile_qr_scan"}, "fusion_lon": 0.0}, {"lat": 38.884595166666664, "is_disabled": 0, "type": "electric_scooter", "lon": -76.92958833333333, "bike_id": "e4397fe61177db3e53eb526e831c8476", "fusion_lat": 0.0, "name": "e4397fe61177db3e53eb526e831c8476", "is_reserved": 0, "rental_uris": {"android": "https://dc.lft.to/lastmile_qr_scan", "ios": "https://dc.lft.to/lastmile_qr_scan"}, "fusion_lon": 0.0}, {"lat": 38.9988505, "is_disabled": 0, "type": "electric_bike", "lon": -77.028702, "bike_id": "b82ee11f64b926ea8038fc3c1ac329c3", "fusion_lat": 0.0, "name": "b82ee11f64b926ea8038fc3c1ac329c3", "is_reserved": 0, "rental_uris": {"android": "https://dc.lft.to/lastmile_qr_scan", "ios": "https://dc.lft.to/lastmile_qr_scan"}, "fusion_lon": 0.0},