{"data": {"bikes": [{"name": "6057cc9d4edbbcae913f3fa22a72ce67", "lon": -77.00201316666667, "lat": 38.89346783333333, "type": "electric_scooter", "fusion_lon": 0.0, "is_reserved": 0, "bike_id": "6057cc9d4edbbcae913f3fa22a72ce67", "fusion_lat": 0.0, "is_disabled": 0, "rental_uris": {"ios": "https://dc.lft.to/lastmile_qr_scan", "android": "https://dc.lft.to/lastmile_qr_scan"}}, {"name": "cee3c213b0365b607fc33ba443debb00", "lon": -77.04193266666667, "lat": 38.89363683333333, "type": "electric_scooter", "fusion_lon": 0.0, "is_reserved": 0, "bike_id": "cee3c213b0365b607fc33ba443debb00", "fusion_lat": 0.0, "is_disabled": 0, "rental_uris": {"ios": "https://dc.lft.to/lastmile_qr_scan", "android": "https://dc.lft.to/lastmile_qr_scan"}}, {"name": "e3d893b11ae7449367583b179649c9fb", "lon": -77.04512616666666, "lat": 38.89225483333333, "type": "electric_scooter", "fusion_lon": 0.0, "is_reserved": 0, "bike_id": "e3d893b11ae7449367583b179649c9fb", "fusion_lat": 0.0, "is_disabled": 0, "rental_uris": {"ios": "https://dc.lft.to/lastmile_qr_scan", "android": "https://dc.lft.to/lastmile_qr_scan"}}, {"name": "828982951c3503252ec3fbc47fe43762", "lon": -77.03845583333333, "lat": 38.91018033333334, "type": "electric_scooter", "fusion_lon": 0.0, "is_reserved": 0, "bike_id": "828982951c3503252ec3fbc47fe43762", "fusion_lat": 0.0, "is_disabled": 0, "rental_uris": {"ios": "https://dc.lft.to/lastmile_qr_scan", "android": "https://dc.lft.to/lastmile_qr_scan"}}, {"name": "0fef332a2d8cf7b3bece231466876769", "lon": -77.0390525, "lat": 38.91762333333333, "type": "electric_scooter", "fusion_lon": 0.0, "is_reserved": 0, "bike_id": "0fef332a2d8cf7b3bece231466876769", "fusion_lat": 0.0, "is_disabled": 0, "rental_uris": {"ios": "https://dc.lft.to/lastmile_qr_scan", "android": "https://dc.lft.to/lastmile_qr_scan"}}, {"name": "f1a83540b8f2d243797955d9291a0191", "lon": -76.94187333333333, "lat": 38.897530833333334, "type": "electric_scooter", "fusion_lon": 0.0, "is_reserved": 0, "bike_id": "f1a83540b8f2d243797955d9291a0191", "fusion_lat": 0.0, "is_disabled": 0, "rental_uris": {"ios": "https://dc.lft.to/lastmile_qr_scan", "android": "https://dc.lft.to/lastmile_qr_scan"}}, {"name": "0a0c3d31efa1e17488180afc5c2be12a", "lon": -77.1202925, "lat": 38.855151, "type": "electric_bike", "fusion_lon": 0.0, "is_reserved": 0, "bike_id": "0a0c3d31efa1e17488180afc5c2be12a", "fusion_lat": 0.0, "is_disabled": 0, "rental_uris": {"ios": "https://dc.lft.to/lastmile_qr_scan", "android": "https://dc.lft.to/lastmile_qr_scan"}}, {"name": "b4a7938abb942b106c4837d9c313d7c7", "lon": -77.03662033333333, "lat": 38.9124855, "type": "electric_scooter", "fusion_lon": 0.0, "is_reserved": 0, "bike_id": "b4a7938abb942b106c4837d9c313d7c7", "fusion_lat": 0.0, "is_disabled": 0, "rental_uris": {"ios": "https://dc.lft.to/lastmile_qr_scan", "android": "https://dc.lft.to/lastmile_qr_scan"}}, {"name": "663cbc90acb73e5b3f03fe70d9b87890", "lon": -77.0446965, "lat": 38.91875916666667, "type": "electric_scooter", "fusion_lon": 0.0, "is_reserved": 0, "bike_id": "663cbc90acb73e5b3f03fe70d9b87890", "fusion_lat": 0.0, "is_disabled": 0, "rental_uris": {"ios": "https://dc.lft.to/lastmile_qr_scan", "android": "https://dc.lft.to/lastmile_qr_scan"}}, {"name": "6dbc86ddba80b01f28b3f61164a27838", "lon": -77.06399783333333, "lat": 38.90525216666666, "type": "electric_scooter", "fusion_lon": 0.0, "is_reserved": 0, "bike_id": "6dbc86ddba80b01f28b3f61164a27838", "fusion_lat": 0.0, "is_disabled": 0, "rental_uris": {"ios": "https://dc.lft.to/lastmile_qr_scan", "android": "https://dc.lft.to/lastmile_qr_scan"}}, {"name": "261b71a29fb5f3058ef1cb97082ffd1d", "lon": -77.004916, "lat": 38.89682, "type": "electric_scooter", "fusion_lon": 0.0, "is_reserved": 0, "bike_id": "261b71a29fb5f3058ef1cb97082ffd1d", "fusion_lat": 0.0, "is_disabled": 0, "rental_uris": {"ios": "https://dc.lft.to/lastmile_qr_scan", "android": "https://dc.lft.to/lastmile_qr_scan"}}, {"name": "801335d67b6e05b973d5263e84995420", "lon": -77.0175745, "lat": 38.87689, "type": "electric_scooter", "fusion_lon": 0.0, "is_reserved": 0, "bike_id": "801335d67b6e05b973d5263e84995420", "fusion_lat": 0.0, "is_disabled": 0, "rental_uris": {"ios": "https://dc.lft.to/lastmile_qr_scan", "android": "https://dc.lft.to/lastmile_qr_scan"}}, {"name": "375b0ca2d458af8110fca686201ae57f", "lon": -76.96778416666666, "lat": 38.8593065, "type": "electric_scooter", "fusion_lon": 0.0, "is_reserved": 0, "bike_id": "375b0ca2d458af8110fca686201ae57f", "fusion_lat": 0.0, "is_disabled": 0, "rental_uris": {"ios": "https://dc.lft.to/lastmile_qr_scan", "android": "https://dc.lft.to/lastmile_qr_scan"}}, {"name": "1a62247092e060fb56cb63a7ec8497a2", "lon": -77.03340566666667, "lat": 38.897471833333334, "type": "electric_scooter", "fusion_lon": 0.0, "is_reserved": 0, "bike_id": "1a62247092e060fb56cb63a7ec8497a2", "fusion_lat": 0.0, "is_disabled": 0, "rental_uris": {"ios": "https://dc.lft.to/lastmile_qr_scan", "android": "https://dc.lft.to/lastmile_qr_scan"}}, {"name": "7268a286e13dba92d6afb3ea685221e4", "lon": -77.03185183333333, "lat": 38.91352933333334, "type": "electric_scooter", "fusion_lon": 0.0, "is_reserved": 0, "bike_id": "7268a286e13dba92d6afb3ea685221e4", "fusion_lat": 0.0, "is_disabled": 0, "rental_uris": {"ios": "https://dc.lft.to/lastmile_qr_scan", "android": "https://dc.lft.to/lastmile_qr_scan"}}, {"name": "ec78e27155d47a67bb578cb8b1564e83", "lon": -76.9960675, "lat": 38.8855585, "type": "electric_scooter", "fusion_lon": 0.0, "is_reserved": 0, "bike_id": "ec78e27155d47a67bb578cb8b1564e83", "fusion_lat": 0.0, "is_disabled": 0, "rental_uris": {"ios": "https://dc.lft.to/lastmile_qr_scan", "android": "https://dc.lft.to/lastmile_qr_scan"}}, {"name": "a534e9077deb613621543f10725ba794", "lon": -77.00597383333333, "lat": 38.90571083333333, "type": "electric_scooter", "fusion_lon": 0.0, "is_reserved": 0, "bike_id": "a534e9077deb613621543f10725ba794", "fusion_lat": 0.0, "is_disabled": 0, "rental_uris": {"ios": "https://dc.lft.to/lastmile_qr_scan", "android": "https://dc.lft.to/lastmile_qr_scan"}}, {"name": "700450d8595c80679f447e657900fae1", "lon": -77.03187083333333, "lat": 38.9109905, "type": "electric_scooter", "fusion_lon": 0.0, "is_reserved": 0, "bike_id": "700450d8595c80679f447e657900fae1", "fusion_lat": 0.0, "is_disabled": 0, "rental_uris": {"ios": "https://dc.lft.to/lastmile_qr_scan", "android": "https://dc.lft.to/lastmile_qr_scan"}}, {"name": "54be6dc00aab688ea57d0e417ad3992b", "lon": -77.07234766666667, "lat": 38.94005516666667, "type": "electric_scooter", "fusion_lon": 0.0, "is_reserved": 0, "bike_id": "54be6dc00aab688ea57d0e417ad3992b", "fusion_lat": 0.0, "is_disabled": 0, "rental_uris": {"ios": "https://dc.lft.to/lastmile_qr_scan", "android": "https://dc.lft.to/lastmile_qr_scan"}}, {"name": "ea8125ac6e8e61563f1d2b33611e2efb", "lon": -77.017987, "lat": 38.876745666666665, "type": "electric_scooter", "fusion_lon": 0.0, "is_reserved": 0, "bike_id": "ea8125ac6e8e61563f1d2b33611e2efb", "fusion_lat": 0.0, "is_disabled": 0, "rental_uris": {"ios": "https://dc.lft.to/lastmile_qr_scan", "android": "https://dc.lft.to/lastmile_qr_scan"}}, {"name": "492b80da42cacad6b4c49b3d8e9a0e3d", "lon": -76.9837965, "lat": 38.8612595, "type": "electric_scooter", "fusion_lon": 0.0, "is_reserved": 0, "bike_id": "492b80da42cacad6b4c49b3d8e9a0e3d", "fusion_lat": 0.0, "is_disabled": 0, "rental_uris": {"ios": "https://dc.lft.to/lastmile_qr_scan", "android": "https://dc.lft.to/lastmile_qr_scan"}}, {"name": "57c72520ac6c544c476c8a939d763827", "lon": -76.99522716666667, "lat": 38.895469166666665, "type": "electric_scooter", "fusion_lon": 0.0, "is_reserved": 0, "bike_id": "57c72520ac6c544c476c8a939d763827", "fusion_lat": 0.0, "is_disabled": 0, "rental_uris": {"ios": "https://dc.lft.to/lastmile_qr_scan", "android": "https://dc.lft.to/lastmile_qr_scan"}}, {"name": "4109ecd88f7c150d5424d273b64533bb", "lon": -77.0281485, "lat": 38.960838833333334, "type": "electric_scooter", "fusion_lon": 0.0, "is_reserved": 0, "bike_id": "4109ecd88f7c150d5424d273b64533bb", "fusion_lat": 0.0, "is_disabled": 0, "rental_uris": {"ios": "https://dc.lft.to/lastmile_qr_scan", "android": "https://dc.lft.to/lastmile_qr_scan"}}, {"name": "6a28241eabf6d6f298fe8a81cc5d9eb2", "lon": -77.002218, "lat": 38.907959, "type": "electric_bike", "fusion_lon": 0.0, "is_reserved": 0, "bike_id": "6a28241eabf6d6f298fe8a81cc5d9eb2", "fusion_lat": 0.0, "is_disabled": 0, "rental_uris": {"ios": "https://dc.lft.to/lastmile_qr_scan", "android": "https://dc.lft.to/lastmile_qr_scan"}}, {"name": "f0594c9af00e6cb1061a7c82f4f7f03c", "lon": -76.96046383333334, "lat": 38.88402933333333, "type": "electric_bike", "fusion_lon": 0.0, "is_reserved": 0, "bike_id": "f0594c9af00e6cb1061a7c82f4f7f03c", "fusion_lat": 0.0, "is_disabled": 0, "rental_uris": {"ios": "https://dc.lft.to/lastmile_qr_scan", "android": "https://dc.lft.to/lastmile_qr_scan"}}, {"name": "0345229ba97eca98e575c2012e3a9906", "lon": -77.004835, "lat": 38.896863333333336, "type": "electric_scooter", "fusion_lon": 0.0, "is_reserved": 0, "bike_id": "0345229ba97eca98e575c2012e3a9906", "fusion_lat": 0.0, "is_disabled": 0, "rental_uris": {"ios": "https://dc.lft.to/lastmile_qr_scan", "android": "https://dc.lft.to/lastmile_qr_scan"}}, {"name": "42bddd7e219fe73f2048240c8c90f645", "lon": -77.00918616666667, "lat": 38.902374, "type": "electric_scooter", "fusion_lon": 0.0, "is_reserved": 0, "bike_id": "42bddd7e219fe73f2048240c8c90f645", "fusion_lat": 0.0, "is_disabled": 0, "rental_uris": {"ios": "https://dc.lft.to/lastmile_qr_scan", "android": "https://dc.lft.to/lastmile_qr_scan"}}, {"name": "268c36078a881830208f314532753606", "lon": -76.98501, "lat": 38.9106545, "type": "electric_scooter", "fusion_lon": 0.0, "is_reserved": 0, "bike_id": "268c36078a881830208f314532753606", "fusion_lat": 0.0, "is_disabled": 0, "rental_uris": {"ios": "https://dc.lft.to/lastmile_qr_scan", "android": "https://dc.lft.to/lastmile_qr_scan"}}, {"name": "d7ecd3b4a71cc8ecb16e805e003c9353", "lon": -76.95662316666667, "lat": 38.8941445, "type": "electric_scooter", "fusion_lon": 0.0, "is_reserved": 0, "bike_id": "d7ecd3b4a71cc8ecb16e805e003c9353", "fusion_lat": 0.0, "is_disabled": 0, "rental_uris": {"ios": "https://dc.lft.to/lastmile_qr_scan", "android": "https://dc.lft.to/lastmile_qr_scan"}}, {"name": "f1e4f474475aedb7807e064b9c3ca179", "lon": -77.0127125, "lat": 38.8974595, "type": "electric_scooter", "fusion_lon": 0.0, "is_reserved": 0, "bike_id": "f1e4f474475aedb7807e064b9c3ca179", "fusion_lat": 0.0, "is_disabled": 0, "rental_uris": {"ios": "https://dc.lft.to/lastmile_qr_scan", "android": "https://dc.lft.to/lastmile_qr_scan"}}, {"name": "828b46776ef843ef364ed176aaaa879d", "lon": -77.00335116666666, "lat": 38.891849666666666, "type": "electric_scooter", "fusion_lon": 0.0, "is_reserved": 0, "bike_id": "828b46776ef843ef364ed176aaaa879d", "fusion_lat": 0.0, "is_disabled": 0, "rental_uris": {"ios": "https://dc.lft.to/lastmile_qr_scan", "android": "https://dc.lft.to/lastmile_qr_scan"}}, {"name": "dfaf5bb286f3378d4f5782e18d340dbe", "lon": -77.06350366666666, "lat": 38.90741666666667, "type": "electric_scooter", "fusion_lon": 0.0, "is_reserved": 0, "bike_id": "dfaf5bb286f3378d4f5782e18d340dbe", "fusion_lat": 0.0, "is_disabled": 0, "rental_uris": {"ios": "https://dc.lft.to/lastmile_qr_scan", "android": "https://dc.lft.to/lastmile_qr_scan"}}, {"name": "b19abe213c69b01314218d341b3134b4", "lon": -76.99012866666666, "lat": 38.905037, "type": "electric_scooter", "fusion_lon": 0.0, "is_reserved": 0, "bike_id": "b19abe213c69b01314218d341b3134b4", "fusion_lat": 0.0, "is_disabled": 0, "rental_uris": {"ios": "https://dc.lft.to/lastmile_qr_scan", "android": "https://dc.lft.to/lastmile_qr_scan"}}, {"name": "18a522bedb586317b0078b9d0114bed6", "lon": -77.0243385, "lat": 38.909685833333334, "type": "electric_scooter", "fusion_lon": 0.0, "is_reserved": 0, "bike_id": "18a522bedb586317b0078b9d0114bed6", "fusion_lat": 0.0, "is_disabled": 0, "rental_uris": {"ios": "https://dc.lft.to/lastmile_qr_scan", "android": "https://dc.lft.to/lastmile_qr_scan"}}, {"name": "ef1c05e89ccec1a4ba998b23694411d7", "lon": -77.00192733333333, "lat": 38.89261966666667, "type": "electric_bike", "fusion_lon": 0.0, "is_reserved": 0, "bike_id": "ef1c05e89ccec1a4ba998b23694411d7", "fusion_lat": 0.0, "is_disabled": 0, "rental_uris": {"ios": "https://dc.lft.to/lastmile_qr_scan", "android": "https://dc.lft.to/lastmile_qr_scan"}}, {"name": "d2bcf8b8f27ab000ce7e06d9493a188a", "lon": -76.93645133333334, "lat": 38.871544, "type": "electric_bike", "fusion_lon": 0.0, "is_reserved": 0, "bike_id": "d2bcf8b8f27ab000ce7e06d9493a188a", "fusion_lat": 0.0, "is_disabled": 0, "rental_uris": {"ios": "https://dc.lft.to/lastmile_qr_scan", "android": "https://dc.lft.to/lastmile_qr_scan"}}, {"name": "d87c94e1de8d49296462edd14f6c10b9", "lon": -76.93728266666666, "lat": 38.89016766666667, "type": "electric_scooter", "fusion_lon": 0.0, "is_reserved": 0, "bike_id": "d87c94e1de8d49296462edd14f6c10b9", "fusion_lat": 0.0, "is_disabled": 0, "rental_uris": {"ios": "https://dc.lft.to/lastmile_qr_scan", "android": "https://dc.lft.to/lastmile_qr_scan"}}, {"name": "725574b0ec7b9c460f63c3fc113112b4", "lon": -77.0470435, "lat": 38.89735483333333, "type": "electric_scooter", "fusion_lon": 0.0, "is_reserved": 0, "bike_id": "725574b0ec7b9c460f63c3fc113112b4", "fusion_lat": 0.0, "is_disabled": 0, "rental_uris": {"ios": "https://dc.lft.to/lastmile_qr_scan", "android": "https://dc.lft.to/lastmile_qr_scan"}}, {"name": "f9e6dd086837eba2331a00a34d791414", "lon": -77.013628, "lat": 38.919307333333336, "type": "electric_scooter", "fusion_lon": 0.0, "is_reserved": 0, "bike_id": "f9e6dd086837eba2331a00a34d791414", "fusion_lat": 0.0, "is_disabled": 0, "rental_uris": {"ios": "https://dc.lft.to/lastmile_qr_scan", "android": "https://dc.lft.to/lastmile_qr_scan"}}, {"name": "6261729747270cee43cb12f8669a936e", "lon": -77.05912316666667, "lat": 38.9010405, "type": "electric_scooter", "fusion_lon": 0.0, "is_reserved": 0, "bike_id": "6261729747270cee43cb12f8669a936e", "fusion_lat": 0.0, "is_disabled": 0, "rental_uris": {"ios": "https://dc.lft.to/lastmile_qr_scan", "android": "https://dc.lft.to/lastmile_qr_scan"}}, {"name": "b5b556a5f32a8299b418c7a8a5da8a41", "lon": -77.04873283333333, "lat": 38.90159633333333, "type": "electric_scooter", "fusion_lon": 0.0, "is_reserved": 0, "bike_id": "b5b556a5f32a8299b418c7a8a5da8a41", "fusion_lat": 0.0, "is_disabled": 0, "rental_uris": {"ios": "https://dc.lft.to/lastmile_qr_scan", "android": "https://dc.lft.to/lastmile_qr_scan"}}, {"name": "00db620c0d37159903b2609f72b3e8c0", "lon": -77.040922, "lat": 38.923998166666664, "type": "electric_scooter", "fusion_lon": 0.0, "is_reserved": 0, "bike_id": "00db620c0d37159903b2609f72b3e8c0", "fusion_lat": 0.0, "is_disabled": 0, "rental_uris": {"ios": "https://dc.lft.to/lastmile_qr_scan", "android": "https://dc.lft.to/lastmile_qr_scan"}}, {"name": "db0d15592eca8b9a940b9d2cfa32b1d3", "lon": -77.021933, "lat": 38.91052833333333, "type": "electric_scooter", "fusion_lon": 0.0, "is_reserved": 0, "bike_id": "db0d15592eca8b9a940b9d2cfa32b1d3", "fusion_lat": 0.0, "is_disabled": 0, "rental_uris": {"ios": "https://dc.lft.to/lastmile_qr_scan", "android": "https://dc.lft.to/lastmile_qr_scan"}}, {"name": "eb1bd68a7b2205a0b4ea03fa56c26efc", "lon": -76.98968366666666, "lat": 38.86537083333333, "type": "electric_scooter", "fusion_lon": 0.0, "is_reserved": 0, "bike_id": "eb1bd68a7b2205a0b4ea03fa56c26efc", "fusion_lat": 0.0, "is_disabled": 0, "rental_uris": {"ios": "https://dc.lft.to/lastmile_qr_scan", "android": "https://dc.lft.to/lastmile_qr_scan"}}, {"name": "4bcd5252186f2d568f4808bf88c3eea7", "lon": -77.0469455, "lat": 38.921703, "type": "electric_scooter", "fusion_lon": 0.0, "is_reserved": 0, "bike_id": "4bcd5252186f2d568f4808bf88c3eea7", "fusion_lat": 0.0, "is_disabled": 0, "rental_uris": {"ios": "https://dc.lft.to/lastmile_qr_scan", "android": "https://dc.lft.to/lastmile_qr_scan"}}, {"name": "cae21f3a596b2e1885a4fb1f078577c1", "lon": -77.01109483333333, "lat": 38.929706833333334, "type": "electric_scooter", "fusion_lon": 0.0, "is_reserved": 0, "bike_id": "cae21f3a596b2e1885a4fb1f078577c1", "fusion_lat": 0.0, "is_disabled": 0, "rental_uris": {"ios": "https://dc.lft.to/lastmile_qr_scan", "android": "https://dc.lft.to/lastmile_qr_scan"}}, {"name": "27d804d0a6cd59c00e0416e9c2bf4c2f", "lon": -77.01750816666667, "lat": 38.88736983333333, "type": "electric_scooter", "fusion_lon": 0.0, "is_reserved": 0, "bike_id": "27d804d0a6cd59c00e0416e9c2bf4c2f", "fusion_lat": 0.0, "is_disabled": 0, "rental_uris": {"ios": "https://dc.lft.to/lastmile_qr_scan", "android": "https://dc.lft.to/lastmile_qr_scan"}}, {"name": "62387540f0b36b5270a6f1d800ba07d8", "lon": -76.966042, "lat": 38.873961333333334, "type": "electric_scooter", "fusion_lon": 0.0, "is_reserved": 0, "bike_id": "62387540f0b36b5270a6f1d800ba07d8", "fusion_lat": 0.0, "is_disabled": 0, "rental_uris": {"ios": "https://dc.lft.to/lastmile_qr_scan", "android": "https://dc.lft.to/lastmile_qr_scan"}}, {"name": "f8559c8fd30ebcef5ade8d39c11511cc", "lon": -76.96865133333333, "lat": 38.87097883333333, "type": "electric_scooter", "fusion_lon": 0.0, "is_reserved": 0, "bike_id": "f8559c8fd30ebcef5ade8d39c11511cc", "fusion_lat": 0.0, "is_disabled": 0, "rental_uris": {"ios": "https://dc.lft.to/lastmile_qr_scan", "android": "https://dc.lft.to/lastmile_qr_scan"}}, {"name": "55aadd19421e1a4e23e62eb76e975b75", "lon": -77.03470016666667, "lat": 38.90293833333333, "type": "electric_scooter", "fusion_lon": 0.0, "is_reserved": 0, "bike_id": "55aadd19421e1a4e23e62eb76e975b75", "fusion_lat": 0.0, "is_disabled": 0, "rental_uris": {"ios": "https://dc.lft.to/lastmile_qr_scan", "android": "https://dc.lft.to/lastmile_qr_scan"}}, {"name": "880fc7e25306730a0c015f234c478f2e", "lon": -77.03197266666666, "lat": 38.910860166666666, "type": "electric_scooter", "fusion_lon": 0.0, "is_reserved": 0, "bike_id": "880fc7e25306730a0c015f234c478f2e", "fusion_lat": 0.0, "is_disabled": 0, "rental_uris": {"ios": "https://dc.lft.to/lastmile_qr_scan", "android": "https://dc.lft.to/lastmile_qr_scan"}}, {"name": "14025094272f3f57a182be4569eb9418", "lon": -76.980894, "lat": 38.9535965, "type": "electric_bike", "fusion_lon": 0.0, "is_reserved": 0, "bike_id": "14025094272f3f57a182be4569eb9418", "fusion_lat": 0.0, "is_disabled": 0, "rental_uris": {"ios": "https://dc.lft.to/lastmile_qr_scan", "android": "https://dc.lft.to/lastmile_qr_scan"}}, {"name": "35137d80419a22df2b08a1b0a6e0f1e3", "lon": -76.96009, "lat": 38.89649933333333, "type": "electric_scooter", "fusion_lon": 0.0, "is_reserved": 0, "bike_id": "35137d80419a22df2b08a1b0a6e0f1e3", "fusion_lat": 0.0, "is_disabled": 0, "rental_uris": {"ios": "https://dc.lft.to/lastmile_qr_scan", "android": "https://dc.lft.to/lastmile_qr_scan"}}, {"name": "4ba62e7dcec47f61e75ef21e9a48454c", "lon": -77.102897, "lat": 38.926672833333335, "type": "electric_bike", "fusion_lon": 0.0, "is_reserved": 0, "bike_id": "4ba62e7dcec47f61e75ef21e9a48454c", "fusion_lat": 0.0, "is_disabled": 0, "rental_uris": {"ios": "https://dc.lft.to/lastmile_qr_scan", "android": "https://dc.lft.to/lastmile_qr_scan"}}, {"name": "ab9e02e4cb827f960354a329ae2925be", "lon": -77.06415633333333, "lat": 38.94557283333333, "type": "electric_scooter", "fusion_lon": 0.0, "is_reserved": 0, "bike_id": "ab9e02e4cb827f960354a329ae2925be", "fusion_lat": 0.0, "is_disabled": 0, "rental_uris": {"ios": "https://dc.lft.to/lastmile_qr_scan", "android": "https://dc.lft.to/lastmile_qr_scan"}}, {"name": "d6b47a73f5fcbc5132424c162b000505", "lon": -77.02967183333334, "lat": 38.91686033333333, "type": "electric_scooter", "fusion_lon": 0.0, "is_reserved": 0, "bike_id": "d6b47a73f5fcbc5132424c162b000505", "fusion_lat": 0.0, "is_disabled": 0, "rental_uris": {"ios": "https://dc.lft.to/lastmile_qr_scan", "android": "https://dc.lft.to/lastmile_qr_scan"}}, {"name": "e931d9cac5cbfece78c5c00b6a7fb0b9", "lon": -77.01740916666667, "lat": 38.87500416666666, "type": "electric_scooter", "fusion_lon": 0.0, "is_reserved": 0, "bike_id": "e931d9cac5cbfece78c5c00b6a7fb0b9", "fusion_lat": 0.0, "is_disabled": 0, "rental_uris": {"ios": "https://dc.lft.to/lastmile_qr_scan", "android": "https://dc.lft.to/lastmile_qr_scan"}}, {"name": "0550b3f30988f0472dc6832b979cb015", "lon": -77.05122066666667, "lat": 38.92362633333333, "type": "electric_scooter", "fusion_lon": 0.0, "is_reserved": 0, "bike_id": "0550b3f30988f0472dc6832b979cb015", "fusion_lat": 0.0, "is_disabled": 0, "rental_uris": {"ios": "https://dc.lft.to/lastmile_qr_scan", "android": "https://dc.lft.to/lastmile_qr_scan"}}, {"name": "8dcc2d7c77d29be1972ff4153182f4f1", "lon": -77.038815, "lat": 38.9326135, "type": "electric_scooter", "fusion_lon": 0.0, "is_reserved": 0, "bike_id": "8dcc2d7c77d29be1972ff4153182f4f1", "fusion_lat": 0.0, "is_disabled": 0, "rental_uris": {"ios": "https://dc.lft.to/lastmile_qr_scan", "android": "https://dc.lft.to/lastmile_qr_scan"}}, {"name": "d27349f8318392dac5458bc625b1e865", "lon": -77.01749433333333, "lat": 38.872785, "type": "electric_scooter", "fusion_lon": 0.0, "is_reserved": 0, "bike_id": "d27349f8318392dac5458bc625b1e865", "fusion_lat": 0.0, "is_disabled": 0, "rental_uris": {"ios": "https://dc.lft.to/lastmile_qr_scan", "android": "https://dc.lft.to/lastmile_qr_scan"}}, {"name": "274b29b5cf784c7ce5649c780ee39cf8", "lon": -77.03327216666666, "lat": 38.8983335, "type": "electric_scooter", "fusion_lon": 0.0, "is_reserved": 0, "bike_id": "274b29b5cf784c7ce5649c780ee39cf8", "fusion_lat": 0.0, "is_disabled": 0, "rental_uris": {"ios": "https://dc.lft.to/lastmile_qr_scan", "android": "https://dc.lft.to/lastmile_qr_scan"}}, {"name": "7b978a598292bb0866d3b9c9b64b6bbd", "lon": -77.0398005, "lat": 38.90596383333333, "type": "electric_scooter", "fusion_lon": 0.0, "is_reserved": 0, "bike_id": "7b978a598292bb0866d3b9c9b64b6bbd", "fusion_lat": 0.0, "is_disabled": 0, "rental_uris": {"ios": "https://dc.lft.to/lastmile_qr_scan", "android": "https://dc.lft.to/lastmile_qr_scan"}}, {"name": "9be0d94bfac18dc7c5ce2fc73926b7b9", "lon": -77.01619033333333, "lat": 38.883287333333335, "type": "electric_scooter", "fusion_lon": 0.0, "is_reserved": 0, "bike_id": "9be0d94bfac18dc7c5ce2fc73926b7b9", "fusion_lat": 0.0, "is_disabled": 0, "rental_uris": {"ios": "https://dc.lft.to/lastmile_qr_scan", "android": "https://dc.lft.to/lastmile_qr_scan"}}, {"name": "93b8802585280a0293de9daa2995dfff", "lon": -77.03432866666667, "lat": 38.93096966666667, "type": "electric_scooter", "fusion_lon": 0.0, "is_reserved": 0, "bike_id": "93b8802585280a0293de9daa2995dfff", "fusion_lat": 0.0, "is_disabled": 0, "rental_uris": {"ios": "https://dc.lft.to/lastmile_qr_scan", "android": "https://dc.lft.to/lastmile_qr_scan"}}, {"name": "aba947404a5d5f630eea0dd1390ce1c1", "lon": -77.03238066666667, "lat": 38.905449, "type": "electric_scooter", "fusion_lon": 0.0, "is_reserved": 0, "bike_id": "aba947404a5d5f630eea0dd1390ce1c1", "fusion_lat": 0.0, "is_disabled": 0, "rental_uris": {"ios": "https://dc.lft.to/lastmile_qr_scan", "android": "https://dc.lft.to/lastmile_qr_scan"}}, {"name": "2dcbc3702c2c43f4727a978c4360eeb0", "lon": -77.0380265, "lat": 38.930696, "type": "electric_scooter", "fusion_lon": 0.0, "is_reserved": 0, "bike_id": "2dcbc3702c2c43f4727a978c4360eeb0", "fusion_lat": 0.0, "is_disabled": 0, "rental_uris": {"ios": "https://dc.lft.to/lastmile_qr_scan", "android": "https://dc.lft.to/lastmile_qr_scan"}}, {"name": "d1ad7456f8fa1f753bfff046d6dc5a2f", "lon": -77.0238915, "lat": 38.89634816666667, "type": "electric_scooter", "fusion_lon": 0.0, "is_reserved": 0, "bike_id": "d1ad7456f8fa1f753bfff046d6dc5a2f", "fusion_lat": 0.0, "is_disabled": 0, "rental_uris": {"ios": "https://dc.lft.to/lastmile_qr_scan", "android": "https://dc.lft.to/lastmile_qr_scan"}}, {"name": "b44577e52524bcfe1883951674e1a758", "lon": -77.0298095, "lat": 38.93452466666667, "type": "electric_scooter", "fusion_lon": 0.0, "is_reserved": 0, "bike_id": "b44577e52524bcfe1883951674e1a758", "fusion_lat": 0.0, "is_disabled": 0, "rental_uris": {"ios": "https://dc.lft.to/lastmile_qr_scan", "android": "https://dc.lft.to/lastmile_qr_scan"}}, {"name": "85ecb95d7c85dac6612e686b4d4b8eae", "lon": -76.98357683333333, "lat": 38.915526666666665, "type": "electric_scooter", "fusion_lon": 0.0, "is_reserved": 0, "bike_id": "85ecb95d7c85dac6612e686b4d4b8eae", "fusion_lat": 0.0, "is_disabled": 0, "rental_uris": {"ios": "https://dc.lft.to/lastmile_qr_scan", "android": "https://dc.lft.to/lastmile_qr_scan"}}, {"name": "f716eba99e4dbb27ba9afbc1494de7bb", "lon": -77.05240916666666, "lat": 38.92360566666667, "type": "electric_scooter", "fusion_lon": 0.0, "is_reserved": 0, "bike_id": "f716eba99e4dbb27ba9afbc1494de7bb", "fusion_lat": 0.0, "is_disabled": 0, "rental_uris": {"ios": "https://dc.lft.to/lastmile_qr_scan", "android": "https://dc.lft.to/lastmile_qr_scan"}}, {"name": "871eddf080d670af363b027da9cff040", "lon": -77.02791183333333, "lat": 38.95408166666667, "type": "electric_scooter", "fusion_lon": 0.0, "is_reserved": 0, "bike_id": "871eddf080d670af363b027da9cff040", "fusion_lat": 0.0, "is_disabled": 0, "rental_uris": {"ios": "https://dc.lft.to/lastmile_qr_scan", "android": "https://dc.lft.to/lastmile_qr_scan"}}, {"name": "b1a7e22622109e35903b6d773598b9fc", "lon": -77.035411, "lat": 38.92706483333333, "type": "electric_scooter", "fusion_lon": 0.0, "is_reserved": 0, "bike_id": "b1a7e22622109e35903b6d773598b9fc", "fusion_lat": 0.0, "is_disabled": 0, "rental_uris": {"ios": "https://dc.lft.to/lastmile_qr_scan", "android": "https://dc.lft.to/lastmile_qr_scan"}}, {"name": "82ffbc699555978d781e4d3ba24466cb", "lon": -77.0209985, "lat": 38.92173433333333, "type": "electric_scooter", "fusion_lon": 0.0, "is_reserved": 0, "bike_id": "82ffbc699555978d781e4d3ba24466cb", "fusion_lat": 0.0, "is_disabled": 0, "rental_uris": {"ios": "https://dc.lft.to/lastmile_qr_scan", "android": "https://dc.lft.to/lastmile_qr_scan"}}, {"name": "efd0355624e56cebb797c148f6d2ae91", "lon": -77.0396725, "lat": 38.893533166666664, "type": "electric_scooter", "fusion_lon": 0.0, "is_reserved": 0, "bike_id": "efd0355624e56cebb797c148f6d2ae91", "fusion_lat": 0.0, "is_disabled": 0, "rental_uris": {"ios": "https://dc.lft.to/lastmile_qr_scan", "android": "https://dc.lft.to/lastmile_qr_scan"}}, {"name": "bb85ddc8a1628091bb4d63d0eaf55bfe", "lon": -77.04237483333333, "lat": 38.92218733333333, "type": "electric_scooter", "fusion_lon": 0.0, "is_reserved": 0, "bike_id": "bb85ddc8a1628091bb4d63d0eaf55bfe", "fusion_lat": 0.0, "is_disabled": 0, "rental_uris": {"ios": "https://dc.lft.to/lastmile_qr_scan", "android": "https://dc.lft.to/lastmile_qr_scan"}}, {"name": "6583d7a4e40873e3de4fa52b594c4cdb", "lon": -77.04366366666666, "lat": 38.90426033333333, "type": "electric_scooter", "fusion_lon": 0.0, "is_reserved": 0, "bike_id": "6583d7a4e40873e3de4fa52b594c4cdb", "fusion_lat": 0.0, "is_disabled": 0, "rental_uris": {"ios": "https://dc.lft.to/lastmile_qr_scan", "android": "https://dc.lft.to/lastmile_qr_scan"}}, {"name": "b8372d34cccb501c58818d5c39c11b06", "lon": -77.02488383333333, "lat": 38.9386255, "type": "electric_scooter", "fusion_lon": 0.0, "is_reserved": 0, "bike_id": "b8372d34cccb501c58818d5c39c11b06", "fusion_lat": 0.0, "is_disabled": 0, "rental_uris": {"ios": "https://dc.lft.to/lastmile_qr_scan", "android": "https://dc.lft.to/lastmile_qr_scan"}}, {"name": "5a88ae485ff8de2c7b276d043b871c5f", "lon": -76.97626716666667, "lat": 38.905764166666664, "type": "electric_scooter", "fusion_lon": 0.0, "is_reserved": 0, "bike_id": "5a88ae485ff8de2c7b276d043b871c5f", "fusion_lat": 0.0, "is_disabled": 0, "rental_uris": {"ios": "https://dc.lft.to/lastmile_qr_scan", "android": "https://dc.lft.to/lastmile_qr_scan"}}, {"name": "589aba6303a4dceb9cbdbf33869a3c20", "lon": -77.00582933333334, "lat": 38.9057885, "type": "electric_scooter", "fusion_lon": 0.0, "is_reserved": 0, "bike_id": "589aba6303a4dceb9cbdbf33869a3c20", "fusion_lat": 0.0, "is_disabled": 0, "rental_uris": {"ios": "https://dc.lft.to/lastmile_qr_scan", "android": "https://dc.lft.to/lastmile_qr_scan"}}, {"name": "79e54cc2d481bf8c330cb7e5d6b492c3", "lon": -77.03310133333333, "lat": 38.956173166666666, "type": "electric_scooter", "fusion_lon": 0.0, "is_reserved": 0, "bike_id": "79e54cc2d481bf8c330cb7e5d6b492c3", "fusion_lat": 0.0, "is_disabled": 0, "rental_uris": {"ios": "https://dc.lft.to/lastmile_qr_scan", "android": "https://dc.lft.to/lastmile_qr_scan"}}, {"name": "57ea86a765edcd1c394dd497ef0c8a22", "lon": -77.0074665, "lat": 38.898510333333334, "type": "electric_scooter", "fusion_lon": 0.0, "is_reserved": 0, "bike_id": "57ea86a765edcd1c394dd497ef0c8a22", "fusion_lat": 0.0, "is_disabled": 0, "rental_uris": {"ios": "https://dc.lft.to/lastmile_qr_scan", "android": "https://dc.lft.to/lastmile_qr_scan"}}, {"name": "35d68747120af5dfea173891e98bc769", "lon": -76.98606916666667, "lat": 38.86525683333333, "type": "electric_scooter", "fusion_lon": 0.0, "is_reserved": 0, "bike_id": "35d68747120af5dfea173891e98bc769", "fusion_lat": 0.0, "is_disabled": 0, "rental_uris": {"ios": "https://dc.lft.to/lastmile_qr_scan", "android": "https://dc.lft.to/lastmile_qr_scan"}}, {"name": "6bccf1c676035701081bd390d676fc95", "lon": -77.05696216666666, "lat": 38.906156333333335, "type": "electric_scooter", "fusion_lon": 0.0, "is_reserved": 0, "bike_id": "6bccf1c676035701081bd390d676fc95", "fusion_lat": 0.0, "is_disabled": 0, "rental_uris": {"ios": "https://dc.lft.to/lastmile_qr_scan", "android": "https://dc.lft.to/lastmile_qr_scan"}}, {"name": "8d7870e1bd7d34a574484cca1c7bc548", "lon": -76.94635866666667, "lat": 38.89844733333334, "type": "electric_scooter", "fusion_lon": 0.0, "is_reserved": 0, "bike_id": "8d7870e1bd7d34a574484cca1c7bc548", "fusion_lat": 0.0, "is_disabled": 0, "rental_uris": {"ios": "https://dc.lft.to/lastmile_qr_scan", "android": "https://dc.lft.to/lastmile_qr_scan"}}, {"name": "f65771713b6baf810ad44865b14fa2c2", "lon": -77.02391466666667, "lat": 38.919920166666664, "type": "electric_scooter", "fusion_lon": 0.0, "is_reserved": 0, "bike_id": "f65771713b6baf810ad44865b14fa2c2", "fusion_lat": 0.0, "is_disabled": 0, "rental_uris": {"ios": "https://dc.lft.to/lastmile_qr_scan", "android": "https://dc.lft.to/lastmile_qr_scan"}}, {"name": "206b70d14a890212a8e96ecad91023f6", "lon": -77.02155283333333, "lat": 38.9261105, "type": "electric_scooter", "fusion_lon": 0.0, "is_reserved": 0, "bike_id": "206b70d14a890212a8e96ecad91023f6", "fusion_lat": 0.0, "is_disabled": 0, "rental_uris": {"ios": "https://dc.lft.to/lastmile_qr_scan", "android": "https://dc.lft.to/lastmile_qr_scan"}}, {"name": "0bbdf79d87befee7898483062b83e376", "lon": -77.03803183333333, "lat": 38.906802, "type": "electric_scooter", "fusion_lon": 0.0, "is_reserved": 0, "bike_id": "0bbdf79d87befee7898483062b83e376", "fusion_lat": 0.0, "is_disabled": 0, "rental_uris": {"ios": "https://dc.lft.to/lastmile_qr_scan", "android": "https://dc.lft.to/lastmile_qr_scan"}}, {"name": "86eced5ccd59f72a2a15b580ed426b20", "lon": -77.12529966666666, "lat": 39.05640316666667, "type": "electric_bike", "fusion_lon": 0.0, "is_reserved": 0, "bike_id": "86eced5ccd59f72a2a15b580ed426b20", "fusion_lat": 0.0, "is_disabled": 0, "rental_uris": {"ios": "https://dc.lft.to/lastmile_qr_scan", "android": "https://dc.lft.to/lastmile_qr_scan"}}, {"name": "aac977c08e1860f1f79796645e6f56de", "lon": -77.04767833333334, "lat": 38.90516233333334, "type": "electric_scooter", "fusion_lon": 0.0, "is_reserved": 0, "bike_id": "aac977c08e1860f1f79796645e6f56de", "fusion_lat": 0.0, "is_disabled": 0, "rental_uris": {"ios": "https://dc.lft.to/lastmile_qr_scan", "android": "https://dc.lft.to/lastmile_qr_scan"}}, {"name": "bdf248e8ab555f9aad0858e5a9402dc2", "lon": -77.04175133333334, "lat": 38.915586833333336, "type": "electric_scooter", "fusion_lon": 0.0, "is_reserved": 0, "bike_id": "bdf248e8ab555f9aad0858e5a9402dc2", "fusion_lat": 0.0, "is_disabled": 0, "rental_uris": {"ios": "https://dc.lft.to/lastmile_qr_scan", "android": "https://dc.lft.to/lastmile_qr_scan"}}, {"name": "9967482d5430d1ed2083b59cdc05878e", "lon": -77.05296866666667, "lat": 38.8984975, "type": "electric_bike", "fusion_lon": 0.0, "is_reserved": 0, "bike_id": "9967482d5430d1ed2083b59cdc05878e", "fusion_lat": 0.0, "is_disabled": 0, "rental_uris": {"ios": "https://dc.lft.to/lastmile_qr_scan", "android": "https://dc.lft.to/lastmile_qr_scan"}}, {"name": "129cfba1245b02f73e0a696347305eb6", "lon": -77.03804233333334, "lat": 38.9206705, "type": "electric_scooter", "fusion_lon": 0.0, "is_reserved": 0, "bike_id": "129cfba1245b02f73e0a696347305eb6", "fusion_lat": 0.0, "is_disabled": 0, "rental_uris": {"ios": "https://dc.lft.to/lastmile_qr_scan", "android": "https://dc.lft.to/lastmile_qr_scan"}}, {"name": "30781f0a06614e947ad4ae71a4c2bea7", "lon": -77.0503815, "lat": 38.9235895, "type": "electric_scooter", "fusion_lon": 0.0, "is_reserved": 0, "bike_id": "30781f0a06614e947ad4ae71a4c2bea7", "fusion_lat": 0.0, "is_disabled": 0, "rental_uris": {"ios": "https://dc.lft.to/lastmile_qr_scan", "android": "https://dc.lft.to/lastmile_qr_scan"}}, {"name": "4f82e9ead8f9ee82bb6720441aee05db", "lon": -77.04254616666667, "lat": 38.92072433333333, "type": "electric_scooter", "fusion_lon": 0.0, "is_reserved": 0, "bike_id": "4f82e9ead8f9ee82bb6720441aee05db", "fusion_lat": 0.0, "is_disabled": 0, "rental_uris": {"ios": "https://dc.lft.to/lastmile_qr_scan", "android": "https://dc.lft.to/lastmile_qr_scan"}}, {"name": "3bbcbc118c386a78df3a1ef6b3469779", "lon": -77.01753833333333, "lat": 38.917164, "type": "electric_scooter", "fusion_lon": 0.0, "is_reserved": 0, "bike_id": "3bbcbc118c386a78df3a1ef6b3469779", "fusion_lat": 0.0, "is_disabled": 0, "rental_uris": {"ios": "https://dc.lft.to/lastmile_qr_scan", "android": "https://dc.lft.to/lastmile_qr_scan"}}, {"name": "79208b1dea71ac53ab01b127f09a1d4c", "lon": -76.998681, "lat": 38.90133616666667, "type": "electric_scooter", "fusion_lon": 0.0, "is_reserved": 0, "bike_id": "79208b1dea71ac53ab01b127f09a1d4c", "fusion_lat": 0.0, "is_disabled": 0, "rental_uris": {"ios": "https://dc.lft.to/lastmile_qr_scan", "android": "https://dc.lft.to/lastmile_qr_scan"}}, {"name": "6eed125ee11a356cfd1bbeac0c5849ab", "lon": -77.03858216666667, "lat": 38.910447, "type": "electric_scooter", "fusion_lon": 0.0, "is_reserved": 0, "bike_id": "6eed125ee11a356cfd1bbeac0c5849ab", "fusion_lat": 0.0, "is_disabled": 0, "rental_uris": {"ios": "https://dc.lft.to/lastmile_qr_scan", "android": "https://dc.lft.to/lastmile_qr_scan"}}, {"name": "56af7f2d1be91e61ea34c80bf9c62220", "lon": -77.0290445, "lat": 38.92818333333334, "type": "electric_scooter", "fusion_lon": 0.0, "is_reserved": 0, "bike_id": "56af7f2d1be91e61ea34c80bf9c62220", "fusion_lat": 0.0, "is_disabled": 0, "rental_uris": {"ios": "https://dc.lft.to/lastmile_qr_scan", "android": "https://dc.lft.to/lastmile_qr_scan"}}, {"name": "d55ea8c10da7d889ae6c8a629f4ef147", "lon": -77.02885716666667, "lat": 38.8969645, "type": "electric_scooter", "fusion_lon": 0.0, "is_reserved": 0, "bike_id": "d55ea8c10da7d889ae6c8a629f4ef147", "fusion_lat": 0.0, "is_disabled": 0, "rental_uris": {"ios": "https://dc.lft.to/lastmile_qr_scan", "android": "https://dc.lft.to/lastmile_qr_scan"}}, {"name": "1491b9d36779f46a6f13381d3cf738c4", "lon": -77.006522, "lat": 38.8970885, "type": "electric_scooter", "fusion_lon": 0.0, "is_reserved": 0, "bike_id": "1491b9d36779f46a6f13381d3cf738c4", "fusion_lat": 0.0, "is_disabled": 0, "rental_uris": {"ios": "https://dc.lft.to/lastmile_qr_scan", "android": "https://dc.lft.to/lastmile_qr_scan"}}, {"name": "8628767917d77dc87fd3faf4cacc49e5", "lon": -77.0294895, "lat": 38.90533, "type": "electric_scooter", "fusion_lon": 0.0, "is_reserved": 0, "bike_id": "8628767917d77dc87fd3faf4cacc49e5", "fusion_lat": 0.0, "is_disabled": 0, "rental_uris": {"ios": "https://dc.lft.to/lastmile_qr_scan", "android": "https://dc.lft.to/lastmile_qr_scan"}}, {"name": "da6b65e2c9fdc5977a1f1cc1983007f4", "lon": -76.98991783333334, "lat": 38.8639115, "type": "electric_bike", "fusion_lon": 0.0, "is_reserved": 0, "bike_id": "da6b65e2c9fdc5977a1f1cc1983007f4", "fusion_lat": 0.0, "is_disabled": 0, "rental_uris": {"ios": "https://dc.lft.to/lastmile_qr_scan", "android": "https://dc.lft.to/lastmile_qr_scan"}}, {"name": "7d7847e34297286e9daff8efec2b6568", "lon": -77.02309566666666, "lat": 38.9161035, "type": "electric_bike", "fusion_lon": 0.0, "is_reserved": 0, "bike_id": "7d7847e34297286e9daff8efec2b6568", "fusion_lat": 0.0, "is_disabled": 0, "rental_uris": {"ios": "https://dc.lft.to/lastmile_qr_scan", "android": "https://dc.lft.to/lastmile_qr_scan"}}, {"name": "86a160bbe6be82789625d62344d090d7", "lon": -77.05884583333334, "lat": 38.9430205, "type": "electric_scooter", "fusion_lon": 0.0, "is_reserved": 0, "bike_id": "86a160bbe6be82789625d62344d090d7", "fusion_lat": 0.0, "is_disabled": 0, "rental_uris": {"ios": "https://dc.lft.to/lastmile_qr_scan", "android": "https://dc.lft.to/lastmile_qr_scan"}}, {"name": "790dae66f259068b5a44ad202ae6d41a", "lon": -77.02767166666666, "lat": 38.954305166666664, "type": "electric_scooter", "fusion_lon": 0.0, "is_reserved": 0, "bike_id": "790dae66f259068b5a44ad202ae6d41a", "fusion_lat": 0.0, "is_disabled": 0, "rental_uris": {"ios": "https://dc.lft.to/lastmile_qr_scan", "android": "https://dc.lft.to/lastmile_qr_scan"}}, {"name": "924016a83db96b2a30d3cba4b09c6207", "lon": -76.937344, "lat": 38.89017166666667, "type": "electric_scooter", "fusion_lon": 0.0, "is_reserved": 0, "bike_id": "924016a83db96b2a30d3cba4b09c6207", "fusion_lat": 0.0, "is_disabled": 0, "rental_uris": {"ios": "https://dc.lft.to/lastmile_qr_scan", "android": "https://dc.lft.to/lastmile_qr_scan"}}, {"name": "6e1a6e0626566d21feb169f9aef4b4ca", "lon": -76.99080233333333, "lat": 38.86240733333333, "type": "electric_bike", "fusion_lon": 0.0, "is_reserved": 0, "bike_id": "6e1a6e0626566d21feb169f9aef4b4ca", "fusion_lat": 0.0, "is_disabled": 0, "rental_uris": {"ios": "https://dc.lft.to/lastmile_qr_scan", "android": "https://dc.lft.to/lastmile_qr_scan"}}, {"name": "efe88bab6b03377dedb957b885ce0fcb", "lon": -77.028203, "lat": 38.88737833333333, "type": "electric_scooter", "fusion_lon": 0.0, "is_reserved": 0, "bike_id": "efe88bab6b03377dedb957b885ce0fcb", "fusion_lat": 0.0, "is_disabled": 0, "rental_uris": {"ios": "https://dc.lft.to/lastmile_qr_scan", "android": "https://dc.lft.to/lastmile_qr_scan"}}, {"name": "5044367b2615267a0cc976bd87cf71f4", "lon": -77.04606283333334, "lat": 38.9027245, "type": "electric_scooter", "fusion_lon": 0.0, "is_reserved": 0, "bike_id": "5044367b2615267a0cc976bd87cf71f4", "fusion_lat": 0.0, "is_disabled": 0, "rental_uris": {"ios": "https://dc.lft.to/lastmile_qr_scan", "android": "https://dc.lft.to/lastmile_qr_scan"}}, {"name": "5a75731e76eaf756d3d0824c8e77bd72", "lon": -77.03306133333334, "lat": 38.9563955, "type": "electric_scooter", "fusion_lon": 0.0, "is_reserved": 0, "bike_id": "5a75731e76eaf756d3d0824c8e77bd72", "fusion_lat": 0.0, "is_disabled": 0, "rental_uris": {"ios": "https://dc.lft.to/lastmile_qr_scan", "android": "https://dc.lft.to/lastmile_qr_scan"}}, {"name": "866652bcd0bbb7a528a5a7cceb1e6282", "lon": -77.0259265, "lat": 38.963962333333335, "type": "electric_scooter", "fusion_lon": 0.0, "is_reserved": 0, "bike_id": "866652bcd0bbb7a528a5a7cceb1e6282", "fusion_lat": 0.0, "is_disabled": 0, "rental_uris": {"ios": "https://dc.lft.to/lastmile_qr_scan", "android": "https://dc.lft.to/lastmile_qr_scan"}}, {"name": "c2a95a3a34e81e8c17e3249be7e50db6", "lon": -77.028816, "lat": 38.901294166666666, "type": "electric_scooter", "fusion_lon": 0.0, "is_reserved": 0, "bike_id": "c2a95a3a34e81e8c17e3249be7e50db6", "fusion_lat": 0.0, "is_disabled": 0, "rental_uris": {"ios": "https://dc.lft.to/lastmile_qr_scan", "android": "https://dc.lft.to/lastmile_qr_scan"}}, {"name": "e7fee82de307fdf6969bbb0674f0c721", "lon": -77.09476033333334, "lat": 39.030529, "type": "electric_bike", "fusion_lon": 0.0, "is_reserved": 0, "bike_id": "e7fee82de307fdf6969bbb0674f0c721", "fusion_lat": 0.0, "is_disabled": 0, "rental_uris": {"ios": "https://dc.lft.to/lastmile_qr_scan", "android": "https://dc.lft.to/lastmile_qr_scan"}}, {"name": "1715992f6bd61304722d97148237b5a1", "lon": -76.99728333333333, "lat": 38.900460833333334, "type": "electric_scooter", "fusion_lon": 0.0, "is_reserved": 0, "bike_id": "1715992f6bd61304722d97148237b5a1", "fusion_lat": 0.0, "is_disabled": 0, "rental_uris": {"ios": "https://dc.lft.to/lastmile_qr_scan", "android": "https://dc.lft.to/lastmile_qr_scan"}}, {"name": "886dd42374d7297705633c3231c237fa", "lon": -77.0255085, "lat": 38.942267, "type": "electric_scooter", "fusion_lon": 0.0, "is_reserved": 0, "bike_id": "886dd42374d7297705633c3231c237fa", "fusion_lat": 0.0, "is_disabled": 0, "rental_uris": {"ios": "https://dc.lft.to/lastmile_qr_scan", "android": "https://dc.lft.to/lastmile_qr_scan"}}, {"name": "5bfee72824baeb5403df5e293e6db280", "lon": -77.04292483333333, "lat": 38.92326, "type": "electric_scooter", "fusion_lon": 0.0, "is_reserved": 0, "bike_id": "5bfee72824baeb5403df5e293e6db280", "fusion_lat": 0.0, "is_disabled": 0, "rental_uris": {"ios": "https://dc.lft.to/lastmile_qr_scan", "android": "https://dc.lft.to/lastmile_qr_scan"}}, {"name": "0db6460c5844cc5d16a1b0a78a7549b4", "lon": -77.06074083333333, "lat": 38.885898166666664, "type": "electric_bike", "fusion_lon": 0.0, "is_reserved": 0, "bike_id": "0db6460c5844cc5d16a1b0a78a7549b4", "fusion_lat": 0.0, "is_disabled": 0, "rental_uris": {"ios": "https://dc.lft.to/lastmile_qr_scan", "android": "https://dc.lft.to/lastmile_qr_scan"}}, {"name": "44d5f42eb5776a311569dc5dc5f25a7a", "lon": -77.02432366666666, "lat": 38.93716383333334, "type": "electric_scooter", "fusion_lon": 0.0, "is_reserved": 0, "bike_id": "44d5f42eb5776a311569dc5dc5f25a7a", "fusion_lat": 0.0, "is_disabled": 0, "rental_uris": {"ios": "https://dc.lft.to/lastmile_qr_scan", "android": "https://dc.lft.to/lastmile_qr_scan"}}, {"name": "a4bb33f2d1d9418ce1d6311378f6c64b", "lon": -77.131, "lat": 39.0243945, "type": "electric_bike", "fusion_lon": 0.0, "is_reserved": 0, "bike_id": "a4bb33f2d1d9418ce1d6311378f6c64b", "fusion_lat": 0.0, "is_disabled": 0, "rental_uris": {"ios": "https://dc.lft.to/lastmile_qr_scan", "android": "https://dc.lft.to/lastmile_qr_scan"}}, {"name": "5c28a5beab49ddb5032dde2eb4c2db3a", "lon": -77.000676, "lat": 38.9013535, "type": "electric_scooter", "fusion_lon": 0.0, "is_reserved": 0, "bike_id": "5c28a5beab49ddb5032dde2eb4c2db3a", "fusion_lat": 0.0, "is_disabled": 0, "rental_uris": {"ios": "https://dc.lft.to/lastmile_qr_scan", "android": "https://dc.lft.to/lastmile_qr_scan"}}, {"name": "f827ab98d4937e9805ab85f022171bb2", "lon": -77.0138635, "lat": 38.88735116666667, "type": "electric_scooter", "fusion_lon": 0.0, "is_reserved": 0, "bike_id": "f827ab98d4937e9805ab85f022171bb2", "fusion_lat": 0.0, "is_disabled": 0, "rental_uris": {"ios": "https://dc.lft.to/lastmile_qr_scan", "android": "https://dc.lft.to/lastmile_qr_scan"}}, {"name": "d3afcbc0595740e88486175672df9b11", "lon": -76.93732483333334, "lat": 38.890148833333335, "type": "electric_scooter", "fusion_lon": 0.0, "is_reserved": 0, "bike_id": "d3afcbc0595740e88486175672df9b11", "fusion_lat": 0.0, "is_disabled": 0, "rental_uris": {"ios": "https://dc.lft.to/lastmile_qr_scan", "android": "https://dc.lft.to/lastmile_qr_scan"}}, {"name": "c5fd79ae57a8546b89482e97f525601a", "lon": -77.02836983333333, "lat": 38.9264525, "type": "electric_bike", "fusion_lon": 0.0, "is_reserved": 0, "bike_id": "c5fd79ae57a8546b89482e97f525601a", "fusion_lat": 0.0, "is_disabled": 0, "rental_uris": {"ios": "https://dc.lft.to/lastmile_qr_scan", "android": "https://dc.lft.to/lastmile_qr_scan"}}, {"name": "43809f59f10baee95dd9f94e9e20689a", "lon": -77.03473716666667, "lat": 38.90581533333334, "type": "electric_scooter", "fusion_lon": 0.0, "is_reserved": 0, "bike_id": "43809f59f10baee95dd9f94e9e20689a", "fusion_lat": 0.0, "is_disabled": 0, "rental_uris": {"ios": "https://dc.lft.to/lastmile_qr_scan", "android": "https://dc.lft.to/lastmile_qr_scan"}}, {"name": "a6001ed69afa486cf6de35f4ee7cc995", "lon": -76.99832566666667, "lat": 38.88320316666667, "type": "electric_scooter", "fusion_lon": 0.0, "is_reserved": 0, "bike_id": "a6001ed69afa486cf6de35f4ee7cc995", "fusion_lat": 0.0, "is_disabled": 0, "rental_uris": {"ios": "https://dc.lft.to/lastmile_qr_scan", "android": "https://dc.lft.to/lastmile_qr_scan"}}, {"name": "c6cba224fc1935e46134381c822b389b", "lon": -77.0488815, "lat": 38.90303183333333, "type": "electric_scooter", "fusion_lon": 0.0, "is_reserved": 0, "bike_id": "c6cba224fc1935e46134381c822b389b", "fusion_lat": 0.0, "is_disabled": 0, "rental_uris": {"ios": "https://dc.lft.to/lastmile_qr_scan", "android": "https://dc.lft.to/lastmile_qr_scan"}}, {"name": "a0d1657df804a04ba213cb80fa8e1bf3", "lon": -77.02683233333333, "lat": 38.89949516666667, "type": "electric_scooter", "fusion_lon": 0.0, "is_reserved": 0, "bike_id": "a0d1657df804a04ba213cb80fa8e1bf3", "fusion_lat": 0.0, "is_disabled": 0, "rental_uris": {"ios": "https://dc.lft.to/lastmile_qr_scan", "android": "https://dc.lft.to/lastmile_qr_scan"}}, {"name": "1c23546c34427b69dddf2bf07e47c576", "lon": -77.03065733333334, "lat": 38.9272465, "type": "electric_scooter", "fusion_lon": 0.0, "is_reserved": 0, "bike_id": "1c23546c34427b69dddf2bf07e47c576", "fusion_lat": 0.0, "is_disabled": 0, "rental_uris": {"ios": "https://dc.lft.to/lastmile_qr_scan", "android": "https://dc.lft.to/lastmile_qr_scan"}}, {"name": "83bf8c352e89f1444999a232da8906a0", "lon": -77.03366966666667, "lat": 38.920518333333334, "type": "electric_scooter", "fusion_lon": 0.0, "is_reserved": 0, "bike_id": "83bf8c352e89f1444999a232da8906a0", "fusion_lat": 0.0, "is_disabled": 0, "rental_uris": {"ios": "https://dc.lft.to/lastmile_qr_scan", "android": "https://dc.lft.to/lastmile_qr_scan"}}, {"name": "79118a58c31127ad50a72dfb2944920f", "lon": -77.04988516666667, "lat": 38.901114166666666, "type": "electric_scooter", "fusion_lon": 0.0, "is_reserved": 0, "bike_id": "79118a58c31127ad50a72dfb2944920f", "fusion_lat": 0.0, "is_disabled": 0, "rental_uris": {"ios": "https://dc.lft.to/lastmile_qr_scan", "android": "https://dc.lft.to/lastmile_qr_scan"}}, {"name": "0e6be827493d4c86181a947ae9416adf", "lon": -77.0012225, "lat": 38.878027, "type": "electric_scooter", "fusion_lon": 0.0, "is_reserved": 0, "bike_id": "0e6be827493d4c86181a947ae9416adf", "fusion_lat": 0.0, "is_disabled": 0, "rental_uris": {"ios": "https://dc.lft.to/lastmile_qr_scan", "android": "https://dc.lft.to/lastmile_qr_scan"}}, {"name": "95746af1986376cc78d42da23da6b7bb", "lon": -77.04000933333333, "lat": 38.88868883333333, "type": "electric_scooter", "fusion_lon": 0.0, "is_reserved": 0, "bike_id": "95746af1986376cc78d42da23da6b7bb", "fusion_lat": 0.0, "is_disabled": 0, "rental_uris": {"ios": "https://dc.lft.to/lastmile_qr_scan", "android": "https://dc.lft.to/lastmile_qr_scan"}}, {"name": "2421a6397cf7337deba2e54ffa76227a", "lon": -76.99351566666667, "lat": 38.84510183333333, "type": "electric_bike", "fusion_lon": 0.0, "is_reserved": 0, "bike_id": "2421a6397cf7337deba2e54ffa76227a", "fusion_lat": 0.0, "is_disabled": 0, "rental_uris": {"ios": "https://dc.lft.to/lastmile_qr_scan", "android": "https://dc.lft.to/lastmile_qr_scan"}}, {"name": "0ed43c2a10295add424608fe9284e374", "lon": -77.08956916666666, "lat": 38.8429955, "type": "electric_bike", "fusion_lon": 0.0, "is_reserved": 0, "bike_id": "0ed43c2a10295add424608fe9284e374", "fusion_lat": 0.0, "is_disabled": 0, "rental_uris": {"ios": "https://dc.lft.to/lastmile_qr_scan", "android": "https://dc.lft.to/lastmile_qr_scan"}}, {"name": "9d9cfa928e0068201d2ee6d9ae40a669", "lon": -77.03164316666667, "lat": 38.894539, "type": "electric_bike", "fusion_lon": 0.0, "is_reserved": 0, "bike_id": "9d9cfa928e0068201d2ee6d9ae40a669", "fusion_lat": 0.0, "is_disabled": 0, "rental_uris": {"ios": "https://dc.lft.to/lastmile_qr_scan", "android": "https://dc.lft.to/lastmile_qr_scan"}}, {"name": "786ac3dec12b48c118b4e2b62f12a191", "lon": -76.94960633333334, "lat": 38.90491933333333, "type": "electric_scooter", "fusion_lon": 0.0, "is_reserved": 0, "bike_id": "786ac3dec12b48c118b4e2b62f12a191", "fusion_lat": 0.0, "is_disabled": 0, "rental_uris": {"ios": "https://dc.lft.to/lastmile_qr_scan", "android": "https://dc.lft.to/lastmile_qr_scan"}}, {"name": "9c78125cb977b78611670e4530777b6a", "lon": -76.97591966666667, "lat": 38.903347333333336, "type": "electric_bike", "fusion_lon": 0.0, "is_reserved": 0, "bike_id": "9c78125cb977b78611670e4530777b6a", "fusion_lat": 0.0, "is_disabled": 0, "rental_uris": {"ios": "https://dc.lft.to/lastmile_qr_scan", "android": "https://dc.lft.to/lastmile_qr_scan"}}, {"name": "c7006e6a83fc7b8b40b67b02418fc24a", "lon": -77.03794666666667, "lat": 38.930507, "type": "electric_scooter", "fusion_lon": 0.0, "is_reserved": 0, "bike_id": "c7006e6a83fc7b8b40b67b02418fc24a", "fusion_lat": 0.0, "is_disabled": 0, "rental_uris": {"ios": "https://dc.lft.to/lastmile_qr_scan", "android": "https://dc.lft.to/lastmile_qr_scan"}}, {"name": "c0ad419406ed23b8641dfd8d2f020f1a", "lon": -77.04419833333333, "lat": 38.92129683333334, "type": "electric_scooter", "fusion_lon": 0.0, "is_reserved": 0, "bike_id": "c0ad419406ed23b8641dfd8d2f020f1a", "fusion_lat": 0.0, "is_disabled": 0, "rental_uris": {"ios": "https://dc.lft.to/lastmile_qr_scan", "android": "https://dc.lft.to/lastmile_qr_scan"}}, {"name": "71e330f126590a3804c46ba86ab485de", "lon": -77.03124233333334, "lat": 38.914973333333336, "type": "electric_scooter", "fusion_lon": 0.0, "is_reserved": 0, "bike_id": "71e330f126590a3804c46ba86ab485de", "fusion_lat": 0.0, "is_disabled": 0, "rental_uris": {"ios": "https://dc.lft.to/lastmile_qr_scan", "android": "https://dc.lft.to/lastmile_qr_scan"}}, {"name": "f3af9b3f8697bdce002367f10c16cefd", "lon": -77.03837733333333, "lat": 38.907158333333335, "type": "electric_scooter", "fusion_lon": 0.0, "is_reserved": 0, "bike_id": "f3af9b3f8697bdce002367f10c16cefd", "fusion_lat": 0.0, "is_disabled": 0, "rental_uris": {"ios": "https://dc.lft.to/lastmile_qr_scan", "android": "https://dc.lft.to/lastmile_qr_scan"}}, {"name": "6ba67b2e7a775469da8273d12cd27817", "lon": -76.95111733333333, "lat": 38.8878135, "type": "electric_scooter", "fusion_lon": 0.0, "is_reserved": 0, "bike_id": "6ba67b2e7a775469da8273d12cd27817", "fusion_lat": 0.0, "is_disabled": 0, "rental_uris": {"ios": "https://dc.lft.to/lastmile_qr_scan", "android": "https://dc.lft.to/lastmile_qr_scan"}}, {"name": "5976ac219fe9c74f17798fbc6ebe80e4", "lon": -77.05057966666666, "lat": 38.92422916666666, "type": "electric_scooter", "fusion_lon": 0.0, "is_reserved": 0, "bike_id": "5976ac219fe9c74f17798fbc6ebe80e4", "fusion_lat": 0.0, "is_disabled": 0, "rental_uris": {"ios": "https://dc.lft.to/lastmile_qr_scan", "android": "https://dc.lft.to/lastmile_qr_scan"}}, {"name": "574536e578e518cc81c32e62120e002b", "lon": -77.02719833333333, "lat": 38.94091383333333, "type": "electric_scooter", "fusion_lon": 0.0, "is_reserved": 0, "bike_id": "574536e578e518cc81c32e62120e002b", "fusion_lat": 0.0, "is_disabled": 0, "rental_uris": {"ios": "https://dc.lft.to/lastmile_qr_scan", "android": "https://dc.lft.to/lastmile_qr_scan"}}, {"name": "3061e6aeebec3607bf0bffdc93ffb25a", "lon": -76.99727033333333, "lat": 38.9003805, "type": "electric_scooter", "fusion_lon": 0.0, "is_reserved": 0, "bike_id": "3061e6aeebec3607bf0bffdc93ffb25a", "fusion_lat": 0.0, "is_disabled": 0, "rental_uris": {"ios": "https://dc.lft.to/lastmile_qr_scan", "android": "https://dc.lft.to/lastmile_qr_scan"}}, {"name": "4156598b5e78dad21f3e338847dba562", "lon": -77.03213866666667, "lat": 38.936155, "type": "electric_scooter", "fusion_lon": 0.0, "is_reserved": 0, "bike_id": "4156598b5e78dad21f3e338847dba562", "fusion_lat": 0.0, "is_disabled": 0, "rental_uris": {"ios": "https://dc.lft.to/lastmile_qr_scan", "android": "https://dc.lft.to/lastmile_qr_scan"}}, {"name": "d807d9297bb6a0ff0062b98eb40b10ef", "lon": -77.10090633333333, "lat": 38.959574, "type": "electric_bike", "fusion_lon": 0.0, "is_reserved": 0, "bike_id": "d807d9297bb6a0ff0062b98eb40b10ef", "fusion_lat": 0.0, "is_disabled": 0, "rental_uris": {"ios": "https://dc.lft.to/lastmile_qr_scan", "android": "https://dc.lft.to/lastmile_qr_scan"}}, {"name": "2c44ea6244b4bb2bf172b793ad279f46", "lon": -77.03459333333333, "lat": 38.92062416666667, "type": "electric_scooter", "fusion_lon": 0.0, "is_reserved": 0, "bike_id": "2c44ea6244b4bb2bf172b793ad279f46", "fusion_lat": 0.0, "is_disabled": 0, "rental_uris": {"ios": "https://dc.lft.to/lastmile_qr_scan", "android": "https://dc.lft.to/lastmile_qr_scan"}}, {"name": "cdfbfb01a0a40de90c4fe0a405159f1c", "lon": -76.95018766666666, "lat": 38.89391283333333, "type": "electric_scooter", "fusion_lon": 0.0, "is_reserved": 0, "bike_id": "cdfbfb01a0a40de90c4fe0a405159f1c", "fusion_lat": 0.0, "is_disabled": 0, "rental_uris": {"ios": "https://dc.lft.to/lastmile_qr_scan", "android": "https://dc.lft.to/lastmile_qr_scan"}}, {"name": "ccab32ac8fe66aaca7d08be07322d9a2", "lon": -76.93374066666667, "lat": 38.899163, "type": "electric_scooter", "fusion_lon": 0.0, "is_reserved": 0, "bike_id": "ccab32ac8fe66aaca7d08be07322d9a2", "fusion_lat": 0.0, "is_disabled": 0, "rental_uris": {"ios": "https://dc.lft.to/lastmile_qr_scan", "android": "https://dc.lft.to/lastmile_qr_scan"}}, {"name": "d947c47e57913bc3c937bc938a10119a", "lon": -77.0358855, "lat": 38.92803683333333, "type": "electric_scooter", "fusion_lon": 0.0, "is_reserved": 0, "bike_id": "d947c47e57913bc3c937bc938a10119a", "fusion_lat": 0.0, "is_disabled": 0, "rental_uris": {"ios": "https://dc.lft.to/lastmile_qr_scan", "android": "https://dc.lft.to/lastmile_qr_scan"}}, {"name": "73eaec0ade9bff8b5101e4c1dc21ae39", "lon": -77.0215795, "lat": 38.926156166666665, "type": "electric_scooter", "fusion_lon": 0.0, "is_reserved": 0, "bike_id": "73eaec0ade9bff8b5101e4c1dc21ae39", "fusion_lat": 0.0, "is_disabled": 0, "rental_uris": {"ios": "https://dc.lft.to/lastmile_qr_scan", "android": "https://dc.lft.to/lastmile_qr_scan"}}, {"name": "80a24c903ea2c6a3e46b9d14262251f9", "lon": -77.03258383333333, "lat": 38.928363166666664, "type": "electric_scooter", "fusion_lon": 0.0, "is_reserved": 0, "bike_id": "80a24c903ea2c6a3e46b9d14262251f9", "fusion_lat": 0.0, "is_disabled": 0, "rental_uris": {"ios": "https://dc.lft.to/lastmile_qr_scan", "android": "https://dc.lft.to/lastmile_qr_scan"}}, {"name": "ecd603367ed89ac749190862a2f7e17f", "lon": -77.01651883333334, "lat": 38.881549166666666, "type": "electric_scooter", "fusion_lon": 0.0, "is_reserved": 0, "bike_id": "ecd603367ed89ac749190862a2f7e17f", "fusion_lat": 0.0, "is_disabled": 0, "rental_uris": {"ios": "https://dc.lft.to/lastmile_qr_scan", "android": "https://dc.lft.to/lastmile_qr_scan"}}, {"name": "28b367ceed0ea1e0f34f9ed0b2fbadd6", "lon": -77.03784516666667, "lat": 38.924801, "type": "electric_scooter", "fusion_lon": 0.0, "is_reserved": 0, "bike_id": "28b367ceed0ea1e0f34f9ed0b2fbadd6", "fusion_lat": 0.0, "is_disabled": 0, "rental_uris": {"ios": "https://dc.lft.to/lastmile_qr_scan", "android": "https://dc.lft.to/lastmile_qr_scan"}}, {"name": "49002043a1f57d34bc5d12656c63ed73", "lon": -77.03407883333334, "lat": 38.92049733333333, "type": "electric_scooter", "fusion_lon": 0.0, "is_reserved": 0, "bike_id": "49002043a1f57d34bc5d12656c63ed73", "fusion_lat": 0.0, "is_disabled": 0, "rental_uris": {"ios": "https://dc.lft.to/lastmile_qr_scan", "android": "https://dc.lft.to/lastmile_qr_scan"}}, {"name": "74ef632a596aaeca4af43933fdba9d6d", "lon": -76.95096416666667, "lat": 38.884536, "type": "electric_scooter", "fusion_lon": 0.0, "is_reserved": 0, "bike_id": "74ef632a596aaeca4af43933fdba9d6d", "fusion_lat": 0.0, "is_disabled": 0, "rental_uris": {"ios": "https://dc.lft.to/lastmile_qr_scan", "android": "https://dc.lft.to/lastmile_qr_scan"}}, {"name": "5c3b3135aab776876e41cd0f96d51e60", "lon": -77.03655216666667, "lat": 38.923403, "type": "electric_scooter", "fusion_lon": 0.0, "is_reserved": 0, "bike_id": "5c3b3135aab776876e41cd0f96d51e60", "fusion_lat": 0.0, "is_disabled": 0, "rental_uris": {"ios": "https://dc.lft.to/lastmile_qr_scan", "android": "https://dc.lft.to/lastmile_qr_scan"}}, {"name": "22d614650555d277556a48da887b5ecb", "lon": -77.01797316666666, "lat": 38.92025566666667, "type": "electric_scooter", "fusion_lon": 0.0, "is_reserved": 0, "bike_id": "22d614650555d277556a48da887b5ecb", "fusion_lat": 0.0, "is_disabled": 0, "rental_uris": {"ios": "https://dc.lft.to/lastmile_qr_scan", "android": "https://dc.lft.to/lastmile_qr_scan"}}, {"name": "62501234afe633663ca317f6cfd9058e", "lon": -77.0136525, "lat": 38.887078833333334, "type": "electric_scooter", "fusion_lon": 0.0, "is_reserved": 0, "bike_id": "62501234afe633663ca317f6cfd9058e", "fusion_lat": 0.0, "is_disabled": 0, "rental_uris": {"ios": "https://dc.lft.to/lastmile_qr_scan", "android": "https://dc.lft.to/lastmile_qr_scan"}}, {"name": "be36dd4ee0feec3ae4ecce6f82add481", "lon": -77.00203883333333, "lat": 38.819415, "type": "electric_bike", "fusion_lon": 0.0, "is_reserved": 0, "bike_id": "be36dd4ee0feec3ae4ecce6f82add481", "fusion_lat": 0.0, "is_disabled": 0, "rental_uris": {"ios": "https://dc.lft.to/lastmile_qr_scan", "android": "https://dc.lft.to/lastmile_qr_scan"}}, {"name": "4c882ada0821d9afeab0ac3dec3600b1", "lon": -77.0354495, "lat": 38.90837666666667, "type": "electric_scooter", "fusion_lon": 0.0, "is_reserved": 0, "bike_id": "4c882ada0821d9afeab0ac3dec3600b1", "fusion_lat": 0.0, "is_disabled": 0, "rental_uris": {"ios": "https://dc.lft.to/lastmile_qr_scan", "android": "https://dc.lft.to/lastmile_qr_scan"}}, {"name": "0b34296a4350fc2f6f87eede49b09ca2", "lon": -77.04132916666667, "lat": 38.80505683333333, "type": "electric_bike", "fusion_lon": 0.0, "is_reserved": 0, "bike_id": "0b34296a4350fc2f6f87eede49b09ca2", "fusion_lat": 0.0, "is_disabled": 0, "rental_uris": {"ios": "https://dc.lft.to/lastmile_qr_scan", "android": "https://dc.lft.to/lastmile_qr_scan"}}, {"name": "e1518f7e0ec23fc3ed1aaba4a001b4c9", "lon": -77.04229783333334, "lat": 38.921794, "type": "electric_scooter", "fusion_lon": 0.0, "is_reserved": 0, "bike_id": "e1518f7e0ec23fc3ed1aaba4a001b4c9", "fusion_lat": 0.0, "is_disabled": 0, "rental_uris": {"ios": "https://dc.lft.to/lastmile_qr_scan", "android": "https://dc.lft.to/lastmile_qr_scan"}}, {"name": "e65108dfd2feab48eb7937faceeae5db", "lon": -77.040267, "lat": 38.922730333333334, "type": "electric_scooter", "fusion_lon": 0.0, "is_reserved": 0, "bike_id": "e65108dfd2feab48eb7937faceeae5db", "fusion_lat": 0.0, "is_disabled": 0, "rental_uris": {"ios": "https://dc.lft.to/lastmile_qr_scan", "android": "https://dc.lft.to/lastmile_qr_scan"}}, {"name": "4560417ab370b4e54fd79422bbd406d5", "lon": -77.03101433333333, "lat": 38.90764133333333, "type": "electric_scooter", "fusion_lon": 0.0, "is_reserved": 0, "bike_id": "4560417ab370b4e54fd79422bbd406d5", "fusion_lat": 0.0, "is_disabled": 0, "rental_uris": {"ios": "https://dc.lft.to/lastmile_qr_scan", "android": "https://dc.lft.to/lastmile_qr_scan"}}, {"name": "56db72810eb6a3f97f347158bb209f18", "lon": -77.02220366666667, "lat": 38.905387833333336, "type": "electric_scooter", "fusion_lon": 0.0, "is_reserved": 0, "bike_id": "56db72810eb6a3f97f347158bb209f18", "fusion_lat": 0.0, "is_disabled": 0, "rental_uris": {"ios": "https://dc.lft.to/lastmile_qr_scan", "android": "https://dc.lft.to/lastmile_qr_scan"}}, {"name": "65b5963fdd133b1ea55704dc1bfe9b94", "lon": -76.933674, "lat": 38.89917283333333, "type": "electric_scooter", "fusion_lon": 0.0, "is_reserved": 0, "bike_id": "65b5963fdd133b1ea55704dc1bfe9b94", "fusion_lat": 0.0, "is_disabled": 0, "rental_uris": {"ios": "https://dc.lft.to/lastmile_qr_scan", "android": "https://dc.lft.to/lastmile_qr_scan"}}, {"name": "3682d3f0b9deac6f71a691b8137422f5", "lon": -77.02302016666667, "lat": 38.91552083333333, "type": "electric_scooter", "fusion_lon": 0.0, "is_reserved": 0, "bike_id": "3682d3f0b9deac6f71a691b8137422f5", "fusion_lat": 0.0, "is_disabled": 0, "rental_uris": {"ios": "https://dc.lft.to/lastmile_qr_scan", "android": "https://dc.lft.to/lastmile_qr_scan"}}, {"name": "b702c3d9e6271b94e208421b7ae1c17d", "lon": -77.003603, "lat": 38.90758266666667, "type": "electric_scooter", "fusion_lon": 0.0, "is_reserved": 0, "bike_id": "b702c3d9e6271b94e208421b7ae1c17d", "fusion_lat": 0.0, "is_disabled": 0, "rental_uris": {"ios": "https://dc.lft.to/lastmile_qr_scan", "android": "https://dc.lft.to/lastmile_qr_scan"}}, {"name": "02069a1586852b649282f6e5232f6b96", "lon": -77.02291066666666, "lat": 38.91694533333333, "type": "electric_scooter", "fusion_lon": 0.0, "is_reserved": 0, "bike_id": "02069a1586852b649282f6e5232f6b96", "fusion_lat": 0.0, "is_disabled": 0, "rental_uris": {"ios": "https://dc.lft.to/lastmile_qr_scan", "android": "https://dc.lft.to/lastmile_qr_scan"}}, {"name": "e42c735d8c3346c06aa327a678cf191b", "lon": -77.06330433333333, "lat": 38.944256, "type": "electric_scooter", "fusion_lon": 0.0, "is_reserved": 0, "bike_id": "e42c735d8c3346c06aa327a678cf191b", "fusion_lat": 0.0, "is_disabled": 0, "rental_uris": {"ios": "https://dc.lft.to/lastmile_qr_scan", "android": "https://dc.lft.to/lastmile_qr_scan"}}, {"name": "ae08cc8f4e6b8c8bb83b3c8edcd8a040", "lon": -77.0107875, "lat": 38.898218666666665, "type": "electric_scooter", "fusion_lon": 0.0, "is_reserved": 0, "bike_id": "ae08cc8f4e6b8c8bb83b3c8edcd8a040", "fusion_lat": 0.0, "is_disabled": 0, "rental_uris": {"ios": "https://dc.lft.to/lastmile_qr_scan", "android": "https://dc.lft.to/lastmile_qr_scan"}}, {"name": "7620ba96bdf599e7f0ab56cc034ff9f7", "lon": -76.98402233333333, "lat": 38.855111666666666, "type": "electric_bike", "fusion_lon": 0.0, "is_reserved": 0, "bike_id": "7620ba96bdf599e7f0ab56cc034ff9f7", "fusion_lat": 0.0, "is_disabled": 0, "rental_uris": {"ios": "https://dc.lft.to/lastmile_qr_scan", "android": "https://dc.lft.to/lastmile_qr_scan"}}, {"name": "f4ebe790d02971e0441c35b8b8de6fb7", "lon": -77.027298, "lat": 38.940848333333335, "type": "electric_scooter", "fusion_lon": 0.0, "is_reserved": 0, "bike_id": "f4ebe790d02971e0441c35b8b8de6fb7", "fusion_lat": 0.0, "is_disabled": 0, "rental_uris": {"ios": "https://dc.lft.to/lastmile_qr_scan", "android": "https://dc.lft.to/lastmile_qr_scan"}}, {"name": "08e8e6804c887163230ec7a31215aba7", "lon": -77.04495666666666, "lat": 38.90292183333333, "type": "electric_scooter", "fusion_lon": 0.0, "is_reserved": 0, "bike_id": "08e8e6804c887163230ec7a31215aba7", "fusion_lat": 0.0, "is_disabled": 0, "rental_uris": {"ios": "https://dc.lft.to/lastmile_qr_scan", "android": "https://dc.lft.to/lastmile_qr_scan"}}, {"name": "850c64b88c38754d4d825244cacf49c9", "lon": -77.06353116666666, "lat": 38.944512, "type": "electric_scooter", "fusion_lon": 0.0, "is_reserved": 0, "bike_id": "850c64b88c38754d4d825244cacf49c9", "fusion_lat": 0.0, "is_disabled": 0, "rental_uris": {"ios": "https://dc.lft.to/lastmile_qr_scan", "android": "https://dc.lft.to/lastmile_qr_scan"}}, {"name": "5debd6cd8751131a97fb46e7bba72536", "lon": -77.03256566666667, "lat": 38.9397695, "type": "electric_scooter", "fusion_lon": 0.0, "is_reserved": 0, "bike_id": "5debd6cd8751131a97fb46e7bba72536", "fusion_lat": 0.0, "is_disabled": 0, "rental_uris": {"ios": "https://dc.lft.to/lastmile_qr_scan", "android": "https://dc.lft.to/lastmile_qr_scan"}}, {"name": "f3a518eb03f1bbab7c0f37388aa94025", "lon": -77.02807783333333, "lat": 38.923641, "type": "electric_scooter", "fusion_lon": 0.0, "is_reserved": 0, "bike_id": "f3a518eb03f1bbab7c0f37388aa94025", "fusion_lat": 0.0, "is_disabled": 0, "rental_uris": {"ios": "https://dc.lft.to/lastmile_qr_scan", "android": "https://dc.lft.to/lastmile_qr_scan"}}, {"name": "41383624b98faec7f5968ddf61894335", "lon": -77.06863233333333, "lat": 38.80582233333333, "type": "electric_bike", "fusion_lon": 0.0, "is_reserved": 0, "bike_id": "41383624b98faec7f5968ddf61894335", "fusion_lat": 0.0, "is_disabled": 0, "rental_uris": {"ios": "https://dc.lft.to/lastmile_qr_scan", "android": "https://dc.lft.to/lastmile_qr_scan"}}, {"name": "56ba496d88f25815d279500376863e82", "lon": -77.022945, "lat": 38.9184075, "type": "electric_scooter", "fusion_lon": 0.0, "is_reserved": 0, "bike_id": "56ba496d88f25815d279500376863e82", "fusion_lat": 0.0, "is_disabled": 0, "rental_uris": {"ios": "https://dc.lft.to/lastmile_qr_scan", "android": "https://dc.lft.to/lastmile_qr_scan"}}, {"name": "f8b4794abc69b2eec3979d674bcb9b42", "lon": -77.04311883333334, "lat": 38.92885183333333, "type": "electric_bike", "fusion_lon": 0.0, "is_reserved": 0, "bike_id": "f8b4794abc69b2eec3979d674bcb9b42", "fusion_lat": 0.0, "is_disabled": 0, "rental_uris": {"ios": "https://dc.lft.to/lastmile_qr_scan", "android": "https://dc.lft.to/lastmile_qr_scan"}}, {"name": "2b6c2bf78b9d1b40e7fa4d68f52057d6", "lon": -76.895431, "lat": 38.94559366666667, "type": "electric_bike", "fusion_lon": 0.0, "is_reserved": 0, "bike_id": "2b6c2bf78b9d1b40e7fa4d68f52057d6", "fusion_lat": 0.0, "is_disabled": 0, "rental_uris": {"ios": "https://dc.lft.to/lastmile_qr_scan", "android": "https://dc.lft.to/lastmile_qr_scan"}}, {"name": "279455a69df535e1dcdc22f76ac347c8", "lon": -77.02385, "lat": 38.916325, "type": "electric_scooter", "fusion_lon": 0.0, "is_reserved": 0, "bike_id": "279455a69df535e1dcdc22f76ac347c8", "fusion_lat": 0.0, "is_disabled": 0, "rental_uris": {"ios": "https://dc.lft.to/lastmile_qr_scan", "android": "https://dc.lft.to/lastmile_qr_scan"}}, {"name": "17d5b93c3d282892cfe78a17591ed6be", "lon": -77.03329983333333, "lat": 38.8984825, "type": "electric_scooter", "fusion_lon": 0.0, "is_reserved": 0, "bike_id": "17d5b93c3d282892cfe78a17591ed6be", "fusion_lat": 0.0, "is_disabled": 0, "rental_uris": {"ios": "https://dc.lft.to/lastmile_qr_scan", "android": "https://dc.lft.to/lastmile_qr_scan"}}, {"name": "889309c9bc9792eb44147b260e81bbc8", "lon": -77.04142283333333, "lat": 38.89364533333333, "type": "electric_scooter", "fusion_lon": 0.0, "is_reserved": 0, "bike_id": "889309c9bc9792eb44147b260e81bbc8", "fusion_lat": 0.0, "is_disabled": 0, "rental_uris": {"ios": "https://dc.lft.to/lastmile_qr_scan", "android": "https://dc.lft.to/lastmile_qr_scan"}}, {"name": "44ef9579dfc54d0252dceea35832fe3e", "lon": -77.01666283333333, "lat": 38.881293, "type": "electric_scooter", "fusion_lon": 0.0, "is_reserved": 0, "bike_id": "44ef9579dfc54d0252dceea35832fe3e", "fusion_lat": 0.0, "is_disabled": 0, "rental_uris": {"ios": "https://dc.lft.to/lastmile_qr_scan", "android": "https://dc.lft.to/lastmile_qr_scan"}}, {"name": "0eeb0139f844e72ad358829f3f932321", "lon": -77.04512633333333, "lat": 38.90146333333333, "type": "electric_scooter", "fusion_lon": 0.0, "is_reserved": 0, "bike_id": "0eeb0139f844e72ad358829f3f932321", "fusion_lat": 0.0, "is_disabled": 0, "rental_uris": {"ios": "https://dc.lft.to/lastmile_qr_scan", "android": "https://dc.lft.to/lastmile_qr_scan"}}, {"name": "3dc92ac803f236eea2725c64a8845b6f", "lon": -76.93734416666666, "lat": 38.890193833333335, "type": "electric_scooter", "fusion_lon": 0.0, "is_reserved": 0, "bike_id": "3dc92ac803f236eea2725c64a8845b6f", "fusion_lat": 0.0, "is_disabled": 0, "rental_uris": {"ios": "https://dc.lft.to/lastmile_qr_scan", "android": "https://dc.lft.to/lastmile_qr_scan"}}, {"name": "7a34bbcc2c64ab6c7b514c2760761e91", "lon": -77.04643066666667, "lat": 38.919421666666665, "type": "electric_scooter", "fusion_lon": 0.0, "is_reserved": 0, "bike_id": "7a34bbcc2c64ab6c7b514c2760761e91", "fusion_lat": 0.0, "is_disabled": 0, "rental_uris": {"ios": "https://dc.lft.to/lastmile_qr_scan", "android": "https://dc.lft.to/lastmile_qr_scan"}}, {"name": "26f58356a6b8caf15759712ed6e9ff53", "lon": -77.00581966666667, "lat": 38.876677, "type": "electric_scooter", "fusion_lon": 0.0, "is_reserved": 0, "bike_id": "26f58356a6b8caf15759712ed6e9ff53", "fusion_lat": 0.0, "is_disabled": 0, "rental_uris": {"ios": "https://dc.lft.to/lastmile_qr_scan", "android": "https://dc.lft.to/lastmile_qr_scan"}}, {"name": "ced3fdb2e8550206ff4df2d866406bbc", "lon": -77.01415133333333, "lat": 38.906523666666665, "type": "electric_scooter", "fusion_lon": 0.0, "is_reserved": 0, "bike_id": "ced3fdb2e8550206ff4df2d866406bbc", "fusion_lat": 0.0, "is_disabled": 0, "rental_uris": {"ios": "https://dc.lft.to/lastmile_qr_scan", "android": "https://dc.lft.to/lastmile_qr_scan"}}, {"name": "79991ca9a33da4c7b59c3ac1e7b8d259", "lon": -77.01697566666667, "lat": 38.9749905, "type": "electric_scooter", "fusion_lon": 0.0, "is_reserved": 0, "bike_id": "79991ca9a33da4c7b59c3ac1e7b8d259", "fusion_lat": 0.0, "is_disabled": 0, "rental_uris": {"ios": "https://dc.lft.to/lastmile_qr_scan", "android": "https://dc.lft.to/lastmile_qr_scan"}}, {"name": "d66a4631e01c6ab0a5bb1717648c1697", "lon": -76.97422016666667, "lat": 38.9324525, "type": "electric_bike", "fusion_lon": 0.0, "is_reserved": 0, "bike_id": "d66a4631e01c6ab0a5bb1717648c1697", "fusion_lat": 0.0, "is_disabled": 0, "rental_uris": {"ios": "https://dc.lft.to/lastmile_qr_scan", "android": "https://dc.lft.to/lastmile_qr_scan"}}, {"name": "b45827e400419629f9122e1a1c4d21d3", "lon": -77.04292066666666, "lat": 38.90565016666667, "type": "electric_scooter", "fusion_lon": 0.0, "is_reserved": 0, "bike_id": "b45827e400419629f9122e1a1c4d21d3", "fusion_lat": 0.0, "is_disabled": 0, "rental_uris": {"ios": "https://dc.lft.to/lastmile_qr_scan", "android": "https://dc.lft.to/lastmile_qr_scan"}}, {"name": "973cb5a85c0292153a7bfce6a98dd848", "lon": -77.0320395, "lat": 38.895312833333335, "type": "electric_scooter", "fusion_lon": 0.0, "is_reserved": 0, "bike_id": "973cb5a85c0292153a7bfce6a98dd848", "fusion_lat": 0.0, "is_disabled": 0, "rental_uris": {"ios": "https://dc.lft.to/lastmile_qr_scan", "android": "https://dc.lft.to/lastmile_qr_scan"}}, {"name": "60dcb5e3697d7a2a8c92d1878c0b0225", "lon": -77.04830616666666, "lat": 38.911029, "type": "electric_scooter", "fusion_lon": 0.0, "is_reserved": 0, "bike_id": "60dcb5e3697d7a2a8c92d1878c0b0225", "fusion_lat": 0.0, "is_disabled": 0, "rental_uris": {"ios": "https://dc.lft.to/lastmile_qr_scan", "android": "https://dc.lft.to/lastmile_qr_scan"}}, {"name": "41ffd0a45903bacc190f294033cef00d", "lon": -77.02502016666666, "lat": 38.9064105, "type": "electric_scooter", "fusion_lon": 0.0, "is_reserved": 0, "bike_id": "41ffd0a45903bacc190f294033cef00d", "fusion_lat": 0.0, "is_disabled": 0, "rental_uris": {"ios": "https://dc.lft.to/lastmile_qr_scan", "android": "https://dc.lft.to/lastmile_qr_scan"}}, {"name": "f11963e098ef905533d35bc3d068cf72", "lon": -76.99544866666666, "lat": 38.862572666666665, "type": "electric_scooter", "fusion_lon": 0.0, "is_reserved": 0, "bike_id": "f11963e098ef905533d35bc3d068cf72", "fusion_lat": 0.0, "is_disabled": 0, "rental_uris": {"ios": "https://dc.lft.to/lastmile_qr_scan", "android": "https://dc.lft.to/lastmile_qr_scan"}}, {"name": "36f13a503d46dece6890d99f2d24de65", "lon": -77.00202083333333, "lat": 38.902387, "type": "electric_scooter", "fusion_lon": 0.0, "is_reserved": 0, "bike_id": "36f13a503d46dece6890d99f2d24de65", "fusion_lat": 0.0, "is_disabled": 0, "rental_uris": {"ios": "https://dc.lft.to/lastmile_qr_scan", "android": "https://dc.lft.to/lastmile_qr_scan"}}, {"name": "b00e444c4031864a1659abb084ad1a36", "lon": -77.09521633333334, "lat": 38.83811816666667, "type": "electric_bike", "fusion_lon": 0.0, "is_reserved": 0, "bike_id": "b00e444c4031864a1659abb084ad1a36", "fusion_lat": 0.0, "is_disabled": 0, "rental_uris": {"ios": "https://dc.lft.to/lastmile_qr_scan", "android": "https://dc.lft.to/lastmile_qr_scan"}}, {"name": "165330d6a866b2c106f2d097cf21d306", "lon": -77.01099533333333, "lat": 38.89517466666667, "type": "electric_scooter", "fusion_lon": 0.0, "is_reserved": 0, "bike_id": "165330d6a866b2c106f2d097cf21d306", "fusion_lat": 0.0, "is_disabled": 0, "rental_uris": {"ios": "https://dc.lft.to/lastmile_qr_scan", "android": "https://dc.lft.to/lastmile_qr_scan"}}, {"name": "686111e435ffd62417cef64af010f490", "lon": -77.0433155, "lat": 38.903692666666664, "type": "electric_scooter", "fusion_lon": 0.0, "is_reserved": 0, "bike_id": "686111e435ffd62417cef64af010f490", "fusion_lat": 0.0, "is_disabled": 0, "rental_uris": {"ios": "https://dc.lft.to/lastmile_qr_scan", "android": "https://dc.lft.to/lastmile_qr_scan"}}, {"name": "f145ce3ac7790cc4208b276a407d32ff", "lon": -77.04163583333333, "lat": 38.919379166666666, "type": "electric_scooter", "fusion_lon": 0.0, "is_reserved": 0, "bike_id": "f145ce3ac7790cc4208b276a407d32ff", "fusion_lat": 0.0, "is_disabled": 0, "rental_uris": {"ios": "https://dc.lft.to/lastmile_qr_scan", "android": "https://dc.lft.to/lastmile_qr_scan"}}, {"name": "33188cfc8c57a3733e8059bdcca91990", "lon": -77.22798433333334, "lat": 38.91013733333333, "type": "electric_bike", "fusion_lon": 0.0, "is_reserved": 0, "bike_id": "33188cfc8c57a3733e8059bdcca91990", "fusion_lat": 0.0, "is_disabled": 0, "rental_uris": {"ios": "https://dc.lft.to/lastmile_qr_scan", "android": "https://dc.lft.to/lastmile_qr_scan"}}, {"name": "3ee3fc61c5edcdda4def2b861321ed63", "lon": -76.97556083333333, "lat": 38.92462533333333, "type": "electric_bike", "fusion_lon": 0.0, "is_reserved": 0, "bike_id": "3ee3fc61c5edcdda4def2b861321ed63", "fusion_lat": 0.0, "is_disabled": 0, "rental_uris": {"ios": "https://dc.lft.to/lastmile_qr_scan", "android": "https://dc.lft.to/lastmile_qr_scan"}}, {"name": "19c14f12f0b01cf690d73ae68175fda2", "lon": -77.04079433333334, "lat": 38.91053216666667, "type": "electric_scooter", "fusion_lon": 0.0, "is_reserved": 0, "bike_id": "19c14f12f0b01cf690d73ae68175fda2", "fusion_lat": 0.0, "is_disabled": 0, "rental_uris": {"ios": "https://dc.lft.to/lastmile_qr_scan", "android": "https://dc.lft.to/lastmile_qr_scan"}}, {"name": "f7b018bc891d6d674f16d51789c46fe1", "lon": -76.99629116666667, "lat": 38.90043283333333, "type": "electric_scooter", "fusion_lon": 0.0, "is_reserved": 0, "bike_id": "f7b018bc891d6d674f16d51789c46fe1", "fusion_lat": 0.0, "is_disabled": 0, "rental_uris": {"ios": "https://dc.lft.to/lastmile_qr_scan", "android": "https://dc.lft.to/lastmile_qr_scan"}}, {"name": "cd7a63c37b6b693df27f17d6f387a5f1", "lon": -77.03394016666667, "lat": 38.928715333333336, "type": "electric_scooter", "fusion_lon": 0.0, "is_reserved": 0, "bike_id": "cd7a63c37b6b693df27f17d6f387a5f1", "fusion_lat": 0.0, "is_disabled": 0, "rental_uris": {"ios": "https://dc.lft.to/lastmile_qr_scan", "android": "https://dc.lft.to/lastmile_qr_scan"}}, {"name": "4e2cdad09e392d9f92784f4cd7fc8d84", "lon": -76.99407216666667, "lat": 38.921042166666666, "type": "electric_scooter", "fusion_lon": 0.0, "is_reserved": 0, "bike_id": "4e2cdad09e392d9f92784f4cd7fc8d84", "fusion_lat": 0.0, "is_disabled": 0, "rental_uris": {"ios": "https://dc.lft.to/lastmile_qr_scan", "android": "https://dc.lft.to/lastmile_qr_scan"}}, {"name": "7575020b049f53df7ec8440d74a5a3a1", "lon": -77.03205666666666, "lat": 38.91428333333333, "type": "electric_scooter", "fusion_lon": 0.0, "is_reserved": 0, "bike_id": "7575020b049f53df7ec8440d74a5a3a1", "fusion_lat": 0.0, "is_disabled": 0, "rental_uris": {"ios": "https://dc.lft.to/lastmile_qr_scan", "android": "https://dc.lft.to/lastmile_qr_scan"}}, {"name": "d6cd4fadfeff0ace8da13bf1e3c5c848", "lon": -77.046821, "lat": 38.89742316666667, "type": "electric_scooter", "fusion_lon": 0.0, "is_reserved": 0, "bike_id": "d6cd4fadfeff0ace8da13bf1e3c5c848", "fusion_lat": 0.0, "is_disabled": 0, "rental_uris": {"ios": "https://dc.lft.to/lastmile_qr_scan", "android": "https://dc.lft.to/lastmile_qr_scan"}}, {"name": "ffd51b7dc5e8ff18a7a864825c2e1802", "lon": -77.02796216666667, "lat": 38.93182066666667, "type": "electric_scooter", "fusion_lon": 0.0, "is_reserved": 0, "bike_id": "ffd51b7dc5e8ff18a7a864825c2e1802", "fusion_lat": 0.0, "is_disabled": 0, "rental_uris": {"ios": "https://dc.lft.to/lastmile_qr_scan", "android": "https://dc.lft.to/lastmile_qr_scan"}}, {"name": "39a0a6f351836dcc57c19faf3fd64ced", "lon": -77.00236616666666, "lat": 38.95723183333333, "type": "electric_scooter", "fusion_lon": 0.0, "is_reserved": 0, "bike_id": "39a0a6f351836dcc57c19faf3fd64ced", "fusion_lat": 0.0, "is_disabled": 0, "rental_uris": {"ios": "https://dc.lft.to/lastmile_qr_scan", "android": "https://dc.lft.to/lastmile_qr_scan"}}, {"name": "f6144e36fb0b55b237689d67b709be38", "lon": -77.03992783333334, "lat": 38.912600166666664, "type": "electric_scooter", "fusion_lon": 0.0, "is_reserved": 0, "bike_id": "f6144e36fb0b55b237689d67b709be38", "fusion_lat": 0.0, "is_disabled": 0, "rental_uris": {"ios": "https://dc.lft.to/lastmile_qr_scan", "android": "https://dc.lft.to/lastmile_qr_scan"}}, {"name": "01f9616949d2f3b0a9caf7384ee7043a", "lon": -76.9575735, "lat": 38.884303, "type": "electric_scooter", "fusion_lon": 0.0, "is_reserved": 0, "bike_id": "01f9616949d2f3b0a9caf7384ee7043a", "fusion_lat": 0.0, "is_disabled": 0, "rental_uris": {"ios": "https://dc.lft.to/lastmile_qr_scan", "android": "https://dc.lft.to/lastmile_qr_scan"}}, {"name": "fa0f72507703456747a5756234bd61d8", "lon": -77.02708216666667, "lat": 38.9176605, "type": "electric_scooter", "fusion_lon": 0.0, "is_reserved": 0, "bike_id": "fa0f72507703456747a5756234bd61d8", "fusion_lat": 0.0, "is_disabled": 0, "rental_uris": {"ios": "https://dc.lft.to/lastmile_qr_scan", "android": "https://dc.lft.to/lastmile_qr_scan"}}, {"name": "7f387d1e97b5e9afb2a83c1500e7b424", "lon": -77.0453925, "lat": 38.913056, "type": "electric_scooter", "fusion_lon": 0.0, "is_reserved": 0, "bike_id": "7f387d1e97b5e9afb2a83c1500e7b424", "fusion_lat": 0.0, "is_disabled": 0, "rental_uris": {"ios": "https://dc.lft.to/lastmile_qr_scan", "android": "https://dc.lft.to/lastmile_qr_scan"}}, {"name": "4ab5babaffda31022341f5388dbb8b20", "lon": -77.00340216666666, "lat": 38.89358083333333, "type": "electric_scooter", "fusion_lon": 0.0, "is_reserved": 0, "bike_id": "4ab5babaffda31022341f5388dbb8b20", "fusion_lat": 0.0, "is_disabled": 0, "rental_uris": {"ios": "https://dc.lft.to/lastmile_qr_scan", "android": "https://dc.lft.to/lastmile_qr_scan"}}, {"name": "458d0fefdfb825ecd62354dac9e58a61", "lon": -77.0452665, "lat": 38.902418, "type": "electric_scooter", "fusion_lon": 0.0, "is_reserved": 0, "bike_id": "458d0fefdfb825ecd62354dac9e58a61", "fusion_lat": 0.0, "is_disabled": 0, "rental_uris": {"ios": "https://dc.lft.to/lastmile_qr_scan", "android": "https://dc.lft.to/lastmile_qr_scan"}}, {"name": "0f5d3da7f903e59aa701e51d1696d13b", "lon": -77.02920416666667, "lat": 38.93340383333334, "type": "electric_scooter", "fusion_lon": 0.0, "is_reserved": 0, "bike_id": "0f5d3da7f903e59aa701e51d1696d13b", "fusion_lat": 0.0, "is_disabled": 0, "rental_uris": {"ios": "https://dc.lft.to/lastmile_qr_scan", "android": "https://dc.lft.to/lastmile_qr_scan"}}, {"name": "ff55cd60f847e91242dbd0f0df7f1c33", "lon": -77.04486983333334, "lat": 38.9098425, "type": "electric_scooter", "fusion_lon": 0.0, "is_reserved": 0, "bike_id": "ff55cd60f847e91242dbd0f0df7f1c33", "fusion_lat": 0.0, "is_disabled": 0, "rental_uris": {"ios": "https://dc.lft.to/lastmile_qr_scan", "android": "https://dc.lft.to/lastmile_qr_scan"}}, {"name": "22f317efe8fdcdac5d45dbb9cab8b5db", "lon": -76.997745, "lat": 38.844291166666665, "type": "electric_scooter", "fusion_lon": 0.0, "is_reserved": 0, "bike_id": "22f317efe8fdcdac5d45dbb9cab8b5db", "fusion_lat": 0.0, "is_disabled": 0, "rental_uris": {"ios": "https://dc.lft.to/lastmile_qr_scan", "android": "https://dc.lft.to/lastmile_qr_scan"}}, {"name": "d50ae800a37179fd8059e14e84e7e3cb", "lon": -77.02320683333333, "lat": 38.930589833333336, "type": "electric_scooter", "fusion_lon": 0.0, "is_reserved": 0, "bike_id": "d50ae800a37179fd8059e14e84e7e3cb", "fusion_lat": 0.0, "is_disabled": 0, "rental_uris": {"ios": "https://dc.lft.to/lastmile_qr_scan", "android": "https://dc.lft.to/lastmile_qr_scan"}}, {"name": "8a8db801dc2862f1c533fac0856a0898", "lon": -77.0327725, "lat": 38.932506000000004, "type": "electric_scooter", "fusion_lon": 0.0, "is_reserved": 0, "bike_id": "8a8db801dc2862f1c533fac0856a0898", "fusion_lat": 0.0, "is_disabled": 0, "rental_uris": {"ios": "https://dc.lft.to/lastmile_qr_scan", "android": "https://dc.lft.to/lastmile_qr_scan"}}, {"name": "5cd96730817e7b28c66dcdaa398f6d1e", "lon": -77.00770233333333, "lat": 38.90572433333333, "type": "electric_scooter", "fusion_lon": 0.0, "is_reserved": 0, "bike_id": "5cd96730817e7b28c66dcdaa398f6d1e", "fusion_lat": 0.0, "is_disabled": 0, "rental_uris": {"ios": "https://dc.lft.to/lastmile_qr_scan", "android": "https://dc.lft.to/lastmile_qr_scan"}}, {"name": "32c2b834e04d4a1e350be3a0861ed6d0", "lon": -77.04485516666666, "lat": 38.8995525, "type": "electric_scooter", "fusion_lon": 0.0, "is_reserved": 0, "bike_id": "32c2b834e04d4a1e350be3a0861ed6d0", "fusion_lat": 0.0, "is_disabled": 0, "rental_uris": {"ios": "https://dc.lft.to/lastmile_qr_scan", "android": "https://dc.lft.to/lastmile_qr_scan"}}, {"name": "fad51844dcf62648db5881b1fe54b064", "lon": -77.10598533333334, "lat": 38.92898233333333, "type": "electric_bike", "fusion_lon": 0.0, "is_reserved": 0, "bike_id": "fad51844dcf62648db5881b1fe54b064", "fusion_lat": 0.0, "is_disabled": 0, "rental_uris": {"ios": "https://dc.lft.to/lastmile_qr_scan", "android": "https://dc.lft.to/lastmile_qr_scan"}}, {"name": "e7a4b66051353e622d3b1f62b848f49e", "lon": -77.00627733333333, "lat": 38.832701666666665, "type": "electric_scooter", "fusion_lon": 0.0, "is_reserved": 0, "bike_id": "e7a4b66051353e622d3b1f62b848f49e", "fusion_lat": 0.0, "is_disabled": 0, "rental_uris": {"ios": "https://dc.lft.to/lastmile_qr_scan", "android": "https://dc.lft.to/lastmile_qr_scan"}}, {"name": "23614c58ab7b3f3e5b2f9af223140273", "lon": -76.98402383333334, "lat": 38.8670145, "type": "electric_scooter", "fusion_lon": 0.0, "is_reserved": 0, "bike_id": "23614c58ab7b3f3e5b2f9af223140273", "fusion_lat": 0.0, "is_disabled": 0, "rental_uris": {"ios": "https://dc.lft.to/lastmile_qr_scan", "android": "https://dc.lft.to/lastmile_qr_scan"}}, {"name": "292100a0c4fe171fff9dd75451c269ed", "lon": -77.04352433333334, "lat": 38.902257, "type": "electric_scooter", "fusion_lon": 0.0, "is_reserved": 0, "bike_id": "292100a0c4fe171fff9dd75451c269ed", "fusion_lat": 0.0, "is_disabled": 0, "rental_uris": {"ios": "https://dc.lft.to/lastmile_qr_scan", "android": "https://dc.lft.to/lastmile_qr_scan"}}, {"name": "24490da04a0eaf36f624a7fc3cba623c", "lon": -77.0396885, "lat": 38.898383, "type": "electric_scooter", "fusion_lon": 0.0, "is_reserved": 0, "bike_id": "24490da04a0eaf36f624a7fc3cba623c", "fusion_lat": 0.0, "is_disabled": 0, "rental_uris": {"ios": "https://dc.lft.to/lastmile_qr_scan", "android": "https://dc.lft.to/lastmile_qr_scan"}}, {"name": "72d65f0780c8d04752f960fb95515e4f", "lon": -77.0742105, "lat": 38.913063, "type": "electric_scooter", "fusion_lon": 0.0, "is_reserved": 0, "bike_id": "72d65f0780c8d04752f960fb95515e4f", "fusion_lat": 0.0, "is_disabled": 0, "rental_uris": {"ios": "https://dc.lft.to/lastmile_qr_scan", "android": "https://dc.lft.to/lastmile_qr_scan"}}, {"name": "a20df466a9d83284dc6b1d623cf8589a", "lon": -77.0421115, "lat": 38.907491, "type": "electric_scooter", "fusion_lon": 0.0, "is_reserved": 0, "bike_id": "a20df466a9d83284dc6b1d623cf8589a", "fusion_lat": 0.0, "is_disabled": 0, "rental_uris": {"ios": "https://dc.lft.to/lastmile_qr_scan", "android": "https://dc.lft.to/lastmile_qr_scan"}}, {"name": "2191809d855ec5d10e0f68776521106f", "lon": -77.0468045, "lat": 38.90043933333333, "type": "electric_scooter", "fusion_lon": 0.0, "is_reserved": 0, "bike_id": "2191809d855ec5d10e0f68776521106f", "fusion_lat": 0.0, "is_disabled": 0, "rental_uris": {"ios": "https://dc.lft.to/lastmile_qr_scan", "android": "https://dc.lft.to/lastmile_qr_scan"}}, {"name": "9aa61ffab15017c7525115c15d77d41a", "lon": -77.04029216666666, "lat": 38.904561, "type": "electric_scooter", "fusion_lon": 0.0, "is_reserved": 0, "bike_id": "9aa61ffab15017c7525115c15d77d41a", "fusion_lat": 0.0, "is_disabled": 0, "rental_uris": {"ios": "https://dc.lft.to/lastmile_qr_scan", "android": "https://dc.lft.to/lastmile_qr_scan"}}, {"name": "6f2e0c88ef820b44f528024445ab53d3", "lon": -77.026464, "lat": 38.896884666666665, "type": "electric_scooter", "fusion_lon": 0.0, "is_reserved": 0, "bike_id": "6f2e0c88ef820b44f528024445ab53d3", "fusion_lat": 0.0, "is_disabled": 0, "rental_uris": {"ios": "https://dc.lft.to/lastmile_qr_scan", "android": "https://dc.lft.to/lastmile_qr_scan"}}, {"name": "3fd6c4d7c4183a44380887c974cea1ef", "lon": -76.93616516666667, "lat": 38.88670416666667, "type": "electric_scooter", "fusion_lon": 0.0, "is_reserved": 0, "bike_id": "3fd6c4d7c4183a44380887c974cea1ef", "fusion_lat": 0.0, "is_disabled": 0, "rental_uris": {"ios": "https://dc.lft.to/lastmile_qr_scan", "android": "https://dc.lft.to/lastmile_qr_scan"}}, {"name": "a2923d57bb7355f6ea2e2094834d5761", "lon": -76.94633166666667, "lat": 38.898485, "type": "electric_scooter", "fusion_lon": 0.0, "is_reserved": 0, "bike_id": "a2923d57bb7355f6ea2e2094834d5761", "fusion_lat": 0.0, "is_disabled": 0, "rental_uris": {"ios": "https://dc.lft.to/lastmile_qr_scan", "android": "https://dc.lft.to/lastmile_qr_scan"}}, {"name": "4f91f273dba48a227061891ef5049467", "lon": -77.02494683333333, "lat": 38.930542333333335, "type": "electric_scooter", "fusion_lon": 0.0, "is_reserved": 0, "bike_id": "4f91f273dba48a227061891ef5049467", "fusion_lat": 0.0, "is_disabled": 0, "rental_uris": {"ios": "https://dc.lft.to/lastmile_qr_scan", "android": "https://dc.lft.to/lastmile_qr_scan"}}, {"name": "35db098c3f12a6cecf0575b1109f1bad", "lon": -77.045552, "lat": 38.92425866666667, "type": "electric_scooter", "fusion_lon": 0.0, "is_reserved": 0, "bike_id": "35db098c3f12a6cecf0575b1109f1bad", "fusion_lat": 0.0, "is_disabled": 0, "rental_uris": {"ios": "https://dc.lft.to/lastmile_qr_scan", "android": "https://dc.lft.to/lastmile_qr_scan"}}, {"name": "89314662f3f0db82f6d09cdbee7e15c7", "lon": -77.0439875, "lat": 38.9203565, "type": "electric_scooter", "fusion_lon": 0.0, "is_reserved": 0, "bike_id": "89314662f3f0db82f6d09cdbee7e15c7", "fusion_lat": 0.0, "is_disabled": 0, "rental_uris": {"ios": "https://dc.lft.to/lastmile_qr_scan", "android": "https://dc.lft.to/lastmile_qr_scan"}}, {"name": "cbcba04a0900b223fb9ec3eb14045ca4", "lon": -77.05306133333333, "lat": 38.898575, "type": "electric_scooter", "fusion_lon": 0.0, "is_reserved": 0, "bike_id": "cbcba04a0900b223fb9ec3eb14045ca4", "fusion_lat": 0.0, "is_disabled": 0, "rental_uris": {"ios": "https://dc.lft.to/lastmile_qr_scan", "android": "https://dc.lft.to/lastmile_qr_scan"}}, {"name": "66e2240a3d2f352462994c8b2f6360db", "lon": -77.041119, "lat": 38.902818833333335, "type": "electric_scooter", "fusion_lon": 0.0, "is_reserved": 0, "bike_id": "66e2240a3d2f352462994c8b2f6360db", "fusion_lat": 0.0, "is_disabled": 0, "rental_uris": {"ios": "https://dc.lft.to/lastmile_qr_scan", "android": "https://dc.lft.to/lastmile_qr_scan"}}, {"name": "fb370230f5335f99a28bd1c3bd46c900", "lon": -76.9836365, "lat": 38.915538, "type": "electric_scooter", "fusion_lon": 0.0, "is_reserved": 0, "bike_id": "fb370230f5335f99a28bd1c3bd46c900", "fusion_lat": 0.0, "is_disabled": 0, "rental_uris": {"ios": "https://dc.lft.to/lastmile_qr_scan", "android": "https://dc.lft.to/lastmile_qr_scan"}}, {"name": "04471b90043ff4b137ab2356b81697b4", "lon": -77.00714383333333, "lat": 38.905359833333335, "type": "electric_scooter", "fusion_lon": 0.0, "is_reserved": 0, "bike_id": "04471b90043ff4b137ab2356b81697b4", "fusion_lat": 0.0, "is_disabled": 0, "rental_uris": {"ios": "https://dc.lft.to/lastmile_qr_scan", "android": "https://dc.lft.to/lastmile_qr_scan"}}, {"name": "58ae6b70c64feea63295393a808cfee7", "lon": -77.12956466666667, "lat": 38.852208833333336, "type": "electric_bike", "fusion_lon": 0.0, "is_reserved": 0, "bike_id": "58ae6b70c64feea63295393a808cfee7", "fusion_lat": 0.0, "is_disabled": 0, "rental_uris": {"ios": "https://dc.lft.to/lastmile_qr_scan", "android": "https://dc.lft.to/lastmile_qr_scan"}}, {"name": "976f3228c6cc54aaed6a70e780ac6762", "lon": -77.00755666666667, "lat": 38.926779, "type": "electric_scooter", "fusion_lon": 0.0, "is_reserved": 0, "bike_id": "976f3228c6cc54aaed6a70e780ac6762", "fusion_lat": 0.0, "is_disabled": 0, "rental_uris": {"ios": "https://dc.lft.to/lastmile_qr_scan", "android": "https://dc.lft.to/lastmile_qr_scan"}}, {"name": "a9726de0c999430ecc79e826fff213ba", "lon": -77.02792616666666, "lat": 38.93083683333333, "type": "electric_scooter", "fusion_lon": 0.0, "is_reserved": 0, "bike_id": "a9726de0c999430ecc79e826fff213ba", "fusion_lat": 0.0, "is_disabled": 0, "rental_uris": {"ios": "https://dc.lft.to/lastmile_qr_scan", "android": "https://dc.lft.to/lastmile_qr_scan"}}, {"name": "55691b69de59f8b61700609a87365578", "lon": -76.9971535, "lat": 38.9081635, "type": "electric_scooter", "fusion_lon": 0.0, "is_reserved": 0, "bike_id": "55691b69de59f8b61700609a87365578", "fusion_lat": 0.0, "is_disabled": 0, "rental_uris": {"ios": "https://dc.lft.to/lastmile_qr_scan", "android": "https://dc.lft.to/lastmile_qr_scan"}}, {"name": "5d9107cd5f1fde82b3a62d40b3a0c5e8", "lon": -77.01914166666667, "lat": 38.92371583333333, "type": "electric_scooter", "fusion_lon": 0.0, "is_reserved": 0, "bike_id": "5d9107cd5f1fde82b3a62d40b3a0c5e8", "fusion_lat": 0.0, "is_disabled": 0, "rental_uris": {"ios": "https://dc.lft.to/lastmile_qr_scan", "android": "https://dc.lft.to/lastmile_qr_scan"}}, {"name": "662f5a6165fbb5df71a80449d6b8e4b9", "lon": -77.08934666666667, "lat": 38.862668, "type": "electric_bike", "fusion_lon": 0.0, "is_reserved": 0, "bike_id": "662f5a6165fbb5df71a80449d6b8e4b9", "fusion_lat": 0.0, "is_disabled": 0, "rental_uris": {"ios": "https://dc.lft.to/lastmile_qr_scan", "android": "https://dc.lft.to/lastmile_qr_scan"}}, {"name": "3fc5bc8913b8af4dc4f3b978e2e4c8ee", "lon": -77.04340766666667, "lat": 38.90782216666667, "type": "electric_scooter", "fusion_lon": 0.0, "is_reserved": 0, "bike_id": "3fc5bc8913b8af4dc4f3b978e2e4c8ee", "fusion_lat": 0.0, "is_disabled": 0, "rental_uris": {"ios": "https://dc.lft.to/lastmile_qr_scan", "android": "https://dc.lft.to/lastmile_qr_scan"}}, {"name": "379afa10d9f2fd4e2627fdfba6b25cf5", "lon": -77.03226216666667, "lat": 38.900229, "type": "electric_scooter", "fusion_lon": 0.0, "is_reserved": 0, "bike_id": "379afa10d9f2fd4e2627fdfba6b25cf5", "fusion_lat": 0.0, "is_disabled": 0, "rental_uris": {"ios": "https://dc.lft.to/lastmile_qr_scan", "android": "https://dc.lft.to/lastmile_qr_scan"}}, {"name": "3c0ca027d65bd7ba1dec2ce050a3d7fc", "lon": -77.012019, "lat": 38.86419983333333, "type": "electric_scooter", "fusion_lon": 0.0, "is_reserved": 0, "bike_id": "3c0ca027d65bd7ba1dec2ce050a3d7fc", "fusion_lat": 0.0, "is_disabled": 0, "rental_uris": {"ios": "https://dc.lft.to/lastmile_qr_scan", "android": "https://dc.lft.to/lastmile_qr_scan"}}, {"name": "ce76b350f16f070ac8d35dcfc0a74094", "lon": -77.07618066666667, "lat": 38.91273433333333, "type": "electric_scooter", "fusion_lon": 0.0, "is_reserved": 0, "bike_id": "ce76b350f16f070ac8d35dcfc0a74094", "fusion_lat": 0.0, "is_disabled": 0, "rental_uris": {"ios": "https://dc.lft.to/lastmile_qr_scan", "android": "https://dc.lft.to/lastmile_qr_scan"}}, {"name": "544a338dad0956309f166cb047d4e3a7", "lon": -76.99548666666666, "lat": 38.862610333333336, "type": "electric_scooter", "fusion_lon": 0.0, "is_reserved": 0, "bike_id": "544a338dad0956309f166cb047d4e3a7", "fusion_lat": 0.0, "is_disabled": 0, "rental_uris": {"ios": "https://dc.lft.to/lastmile_qr_scan", "android": "https://dc.lft.to/lastmile_qr_scan"}}, {"name": "f8030eb5bd5dfce8fac3fa2fdee8a5c2", "lon": -77.04372316666667, "lat": 38.89861, "type": "electric_scooter", "fusion_lon": 0.0, "is_reserved": 0, "bike_id": "f8030eb5bd5dfce8fac3fa2fdee8a5c2", "fusion_lat": 0.0, "is_disabled": 0, "rental_uris": {"ios": "https://dc.lft.to/lastmile_qr_scan", "android": "https://dc.lft.to/lastmile_qr_scan"}}, {"name": "06676197ec70437fc7ea1d4f2b1b43fd", "lon": -77.02809966666666, "lat": 38.96084583333333, "type": "electric_scooter", "fusion_lon": 0.0, "is_reserved": 0, "bike_id": "06676197ec70437fc7ea1d4f2b1b43fd", "fusion_lat": 0.0, "is_disabled": 0, "rental_uris": {"ios": "https://dc.lft.to/lastmile_qr_scan", "android": "https://dc.lft.to/lastmile_qr_scan"}}, {"name": "0c21704f5013625f58922d2f3aec5ca3", "lon": -77.0154485, "lat": 38.944181, "type": "electric_bike", "fusion_lon": 0.0, "is_reserved": 0, "bike_id": "0c21704f5013625f58922d2f3aec5ca3", "fusion_lat": 0.0, "is_disabled": 0, "rental_uris": {"ios": "https://dc.lft.to/lastmile_qr_scan", "android": "https://dc.lft.to/lastmile_qr_scan"}}, {"name": "9655dbe7f44e4be640762d076ceb9c27", "lon": -77.04119866666667, "lat": 38.934049, "type": "electric_scooter", "fusion_lon": 0.0, "is_reserved": 0, "bike_id": "9655dbe7f44e4be640762d076ceb9c27", "fusion_lat": 0.0, "is_disabled": 0, "rental_uris": {"ios": "https://dc.lft.to/lastmile_qr_scan", "android": "https://dc.lft.to/lastmile_qr_scan"}}, {"name": "e74e40f84ced3a57048aef523834a355", "lon": -77.032884, "lat": 38.920496, "type": "electric_scooter", "fusion_lon": 0.0, "is_reserved": 0, "bike_id": "e74e40f84ced3a57048aef523834a355", "fusion_lat": 0.0, "is_disabled": 0, "rental_uris": {"ios": "https://dc.lft.to/lastmile_qr_scan", "android": "https://dc.lft.to/lastmile_qr_scan"}}, {"name": "e7571501047c52d8fc44351caa06e57a", "lon": -77.0287335, "lat": 38.92826683333333, "type": "electric_scooter", "fusion_lon": 0.0, "is_reserved": 0, "bike_id": "e7571501047c52d8fc44351caa06e57a", "fusion_lat": 0.0, "is_disabled": 0, "rental_uris": {"ios": "https://dc.lft.to/lastmile_qr_scan", "android": "https://dc.lft.to/lastmile_qr_scan"}}, {"name": "548b1dc50965f57e050e7c08e33f93de", "lon": -77.03158533333334, "lat": 38.999474666666664, "type": "electric_bike", "fusion_lon": 0.0, "is_reserved": 0, "bike_id": "548b1dc50965f57e050e7c08e33f93de", "fusion_lat": 0.0, "is_disabled": 0, "rental_uris": {"ios": "https://dc.lft.to/lastmile_qr_scan", "android": "https://dc.lft.to/lastmile_qr_scan"}}, {"name": "41f179491ce5e27ac1b159f917344dad", "lon": -77.02515383333333, "lat": 38.92125166666667, "type": "electric_scooter", "fusion_lon": 0.0, "is_reserved": 0, "bike_id": "41f179491ce5e27ac1b159f917344dad", "fusion_lat": 0.0, "is_disabled": 0, "rental_uris": {"ios": "https://dc.lft.to/lastmile_qr_scan", "android": "https://dc.lft.to/lastmile_qr_scan"}}, {"name": "ba24fe4e9c0ca370a82a2d4e7bbc9c9b", "lon": -77.04555333333333, "lat": 38.906015833333335, "type": "electric_scooter", "fusion_lon": 0.0, "is_reserved": 0, "bike_id": "ba24fe4e9c0ca370a82a2d4e7bbc9c9b", "fusion_lat": 0.0, "is_disabled": 0, "rental_uris": {"ios": "https://dc.lft.to/lastmile_qr_scan", "android": "https://dc.lft.to/lastmile_qr_scan"}}, {"name": "6674747760a9527880d03774d6df33b0", "lon": -77.03257966666666, "lat": 38.89843066666667, "type": "electric_scooter", "fusion_lon": 0.0, "is_reserved": 0, "bike_id": "6674747760a9527880d03774d6df33b0", "fusion_lat": 0.0, "is_disabled": 0, "rental_uris": {"ios": "https://dc.lft.to/lastmile_qr_scan", "android": "https://dc.lft.to/lastmile_qr_scan"}}, {"name": "af7f8f0e05320634ff53bb2ab67740c0", "lon": -77.0416175, "lat": 38.91831233333333, "type": "electric_scooter", "fusion_lon": 0.0, "is_reserved": 0, "bike_id": "af7f8f0e05320634ff53bb2ab67740c0", "fusion_lat": 0.0, "is_disabled": 0, "rental_uris": {"ios": "https://dc.lft.to/lastmile_qr_scan", "android": "https://dc.lft.to/lastmile_qr_scan"}}, {"name": "2882b67d35376d33d16ac55633004dbe", "lon": -77.08623683333333, "lat": 38.88182166666667, "type": "electric_bike", "fusion_lon": 0.0, "is_reserved": 0, "bike_id": "2882b67d35376d33d16ac55633004dbe", "fusion_lat": 0.0, "is_disabled": 0, "rental_uris": {"ios": "https://dc.lft.to/lastmile_qr_scan", "android": "https://dc.lft.to/lastmile_qr_scan"}}, {"name": "66d25750d9274852353abfe0a6329fc1", "lon": -76.95640383333334, "lat": 38.8955815, "type": "electric_scooter", "fusion_lon": 0.0, "is_reserved": 0, "bike_id": "66d25750d9274852353abfe0a6329fc1", "fusion_lat": 0.0, "is_disabled": 0, "rental_uris": {"ios": "https://dc.lft.to/lastmile_qr_scan", "android": "https://dc.lft.to/lastmile_qr_scan"}}, {"name": "8c216af2d95fbc63207bff83087a7172", "lon": -77.03471983333333, "lat": 38.9058085, "type": "electric_scooter", "fusion_lon": 0.0, "is_reserved": 0, "bike_id": "8c216af2d95fbc63207bff83087a7172", "fusion_lat": 0.0, "is_disabled": 0, "rental_uris": {"ios": "https://dc.lft.to/lastmile_qr_scan", "android": "https://dc.lft.to/lastmile_qr_scan"}}, {"name": "64144a1ea3a37a5b893953c8f8e7efc7", "lon": -77.00967616666667, "lat": 38.907998166666665, "type": "electric_scooter", "fusion_lon": 0.0, "is_reserved": 0, "bike_id": "64144a1ea3a37a5b893953c8f8e7efc7", "fusion_lat": 0.0, "is_disabled": 0, "rental_uris": {"ios": "https://dc.lft.to/lastmile_qr_scan", "android": "https://dc.lft.to/lastmile_qr_scan"}}, {"name": "0c5496a6b4e386aac683f26301ac097c", "lon": -77.022081, "lat": 38.899932, "type": "electric_scooter", "fusion_lon": 0.0, "is_reserved": 0, "bike_id": "0c5496a6b4e386aac683f26301ac097c", "fusion_lat": 0.0, "is_disabled": 0, "rental_uris": {"ios": "https://dc.lft.to/lastmile_qr_scan", "android": "https://dc.lft.to/lastmile_qr_scan"}}, {"name": "6a4cf93ea5d218c9eb76786fe334eae2", "lon": -77.04346683333333, "lat": 38.917061, "type": "electric_scooter", "fusion_lon": 0.0, "is_reserved": 0, "bike_id": "6a4cf93ea5d218c9eb76786fe334eae2", "fusion_lat": 0.0, "is_disabled": 0, "rental_uris": {"ios": "https://dc.lft.to/lastmile_qr_scan", "android": "https://dc.lft.to/lastmile_qr_scan"}}, {"name": "948f69490d1ebd018f0fb5b474d65742", "lon": -77.03262916666667, "lat": 38.932614, "type": "electric_scooter", "fusion_lon": 0.0, "is_reserved": 0, "bike_id": "948f69490d1ebd018f0fb5b474d65742", "fusion_lat": 0.0, "is_disabled": 0, "rental_uris": {"ios": "https://dc.lft.to/lastmile_qr_scan", "android": "https://dc.lft.to/lastmile_qr_scan"}}, {"name": "afb06c7d33ee8295dcdfc051a14a42d0", "lon": -76.9648945, "lat": 38.87554216666667, "type": "electric_bike", "fusion_lon": 0.0, "is_reserved": 0, "bike_id": "afb06c7d33ee8295dcdfc051a14a42d0", "fusion_lat": 0.0, "is_disabled": 0, "rental_uris": {"ios": "https://dc.lft.to/lastmile_qr_scan", "android": "https://dc.lft.to/lastmile_qr_scan"}}, {"name": "8e366774c22d92a979f50c4fd4834dda", "lon": -77.0326235, "lat": 38.9357285, "type": "electric_scooter", "fusion_lon": 0.0, "is_reserved": 0, "bike_id": "8e366774c22d92a979f50c4fd4834dda", "fusion_lat": 0.0, "is_disabled": 0, "rental_uris": {"ios": "https://dc.lft.to/lastmile_qr_scan", "android": "https://dc.lft.to/lastmile_qr_scan"}}, {"name": "6d2bb7c6d8dafe149007ed1521720537", "lon": -77.03198133333333, "lat": 38.917839666666666, "type": "electric_scooter", "fusion_lon": 0.0, "is_reserved": 0, "bike_id": "6d2bb7c6d8dafe149007ed1521720537", "fusion_lat": 0.0, "is_disabled": 0, "rental_uris": {"ios": "https://dc.lft.to/lastmile_qr_scan", "android": "https://dc.lft.to/lastmile_qr_scan"}}, {"name": "9eaef209a50a0f557fdc7cf1534a69e9", "lon": -76.9916515, "lat": 38.89803466666667, "type": "electric_scooter", "fusion_lon": 0.0, "is_reserved": 0, "bike_id": "9eaef209a50a0f557fdc7cf1534a69e9", "fusion_lat": 0.0, "is_disabled": 0, "rental_uris": {"ios": "https://dc.lft.to/lastmile_qr_scan", "android": "https://dc.lft.to/lastmile_qr_scan"}}, {"name": "e12447fe7937bd59a3c4128eb581f726", "lon": -77.17844, "lat": 39.0885935, "type": "electric_bike", "fusion_lon": 0.0, "is_reserved": 0, "bike_id": "e12447fe7937bd59a3c4128eb581f726", "fusion_lat": 0.0, "is_disabled": 0, "rental_uris": {"ios": "https://dc.lft.to/lastmile_qr_scan", "android": "https://dc.lft.to/lastmile_qr_scan"}}, {"name": "d323ada9d9832864d152dd7bf5b40563", "lon": -77.026951, "lat": 38.90686916666667, "type": "electric_scooter", "fusion_lon": 0.0, "is_reserved": 0, "bike_id": "d323ada9d9832864d152dd7bf5b40563", "fusion_lat": 0.0, "is_disabled": 0, "rental_uris": {"ios": "https://dc.lft.to/lastmile_qr_scan", "android": "https://dc.lft.to/lastmile_qr_scan"}}, {"name": "d1c0e00a633c39af5c1ac9f776e5e5ef", "lon": -77.01940166666667, "lat": 38.94705016666666, "type": "electric_scooter", "fusion_lon": 0.0, "is_reserved": 0, "bike_id": "d1c0e00a633c39af5c1ac9f776e5e5ef", "fusion_lat": 0.0, "is_disabled": 0, "rental_uris": {"ios": "https://dc.lft.to/lastmile_qr_scan", "android": "https://dc.lft.to/lastmile_qr_scan"}},