{"data": {"bikes": [{"fusion_lat": 0.0, "name": "896b4fed4bcc5495473e9b36f3d8ed54", "is_disabled": 0, "rental_uris": {"android": "https://dc.lft.to/lastmile_qr_scan", "ios": "https://dc.lft.to/lastmile_qr_scan"}, "fusion_lon": 0.0, "lat": 38.904507333333335, "bike_id": "896b4fed4bcc5495473e9b36f3d8ed54", "type": "electric_scooter", "is_reserved": 0, "lon": -76.97426383333334}, {"fusion_lat": 0.0, "name": "0d9644a420e9c006409dc68a582273b5", "is_disabled": 0, "rental_uris": {"android": "https://dc.lft.to/lastmile_qr_scan", "ios": "https://dc.lft.to/lastmile_qr_scan"}, "fusion_lon": 0.0, "lat": 38.9191795, "bike_id": "0d9644a420e9c006409dc68a582273b5", "type": "electric_scooter", "is_reserved": 0, "lon": -77.02507116666666}, {"fusion_lat": 0.0, "name": "3753c40da0bc9ca6349f2157cf4b541d", "is_disabled": 0, "rental_uris": {"android": "https://dc.lft.to/lastmile_qr_scan", "ios": "https://dc.lft.to/lastmile_qr_scan"}, "fusion_lon": 0.0, "lat": 38.902238, "bike_id": "3753c40da0bc9ca6349f2157cf4b541d", "type": "electric_scooter", "is_reserved": 0, "lon": -76.995063}, {"fusion_lat": 0.0, "name": "85dc546068a0406e63c00021e45b38df", "is_disabled": 0, "rental_uris": {"android": "https://dc.lft.to/lastmile_qr_scan", "ios": "https://dc.lft.to/lastmile_qr_scan"}, "fusion_lon": 0.0, "lat": 38.9286185, "bike_id": "85dc546068a0406e63c00021e45b38df", "type": "electric_scooter", "is_reserved": 0, "lon": -77.03222366666667}, {"fusion_lat": 0.0, "name": "82daa1d914346856edf07ecb47f65794", "is_disabled": 0, "rental_uris": {"android": "https://dc.lft.to/lastmile_qr_scan", "ios": "https://dc.lft.to/lastmile_qr_scan"}, "fusion_lon": 0.0, "lat": 38.9077285, "bike_id": "82daa1d914346856edf07ecb47f65794", "type": "electric_scooter", "is_reserved": 0, "lon": -77.03862666666667}, {"fusion_lat": 0.0, "name": "5e06ab1f9f93db20a2a8ec7e67728e1d", "is_disabled": 0, "rental_uris": {"android": "https://dc.lft.to/lastmile_qr_scan", "ios": "https://dc.lft.to/lastmile_qr_scan"}, "fusion_lon": 0.0, "lat": 38.9206365, "bike_id": "5e06ab1f9f93db20a2a8ec7e67728e1d", "type": "electric_scooter", "is_reserved": 0, "lon": -77.04213033333333}, {"fusion_lat": 0.0, "name": "afc91407cd7876fec2015518236380c1", "is_disabled": 0, "rental_uris": {"android": "https://dc.lft.to/lastmile_qr_scan", "ios": "https://dc.lft.to/lastmile_qr_scan"}, "fusion_lon": 0.0, "lat": 38.90149266666667, "bike_id": "afc91407cd7876fec2015518236380c1", "type": "electric_scooter", "is_reserved": 0, "lon": -77.0092695}, {"fusion_lat": 0.0, "name": "f61e0bb67877e934f463effecbfe98af", "is_disabled": 0, "rental_uris": {"android": "https://dc.lft.to/lastmile_qr_scan", "ios": "https://dc.lft.to/lastmile_qr_scan"}, "fusion_lon": 0.0, "lat": 38.933959, "bike_id": "f61e0bb67877e934f463effecbfe98af", "type": "electric_scooter", "is_reserved": 0, "lon": -77.05771866666667}, {"fusion_lat": 0.0, "name": "a528609200ab14ff614476b984454cba", "is_disabled": 0, "rental_uris": {"android": "https://dc.lft.to/lastmile_qr_scan", "ios": "https://dc.lft.to/lastmile_qr_scan"}, "fusion_lon": 0.0, "lat": 38.9156195, "bike_id": "a528609200ab14ff614476b984454cba", "type": "electric_scooter", "is_reserved": 0, "lon": -77.0222495}, {"fusion_lat": 0.0, "name": "5d467c450cb10c896424958ca5b1ab11", "is_disabled": 0, "rental_uris": {"android": "https://dc.lft.to/lastmile_qr_scan", "ios": "https://dc.lft.to/lastmile_qr_scan"}, "fusion_lon": 0.0, "lat": 38.91537783333333, "bike_id": "5d467c450cb10c896424958ca5b1ab11", "type": "electric_scooter", "is_reserved": 0, "lon": -76.98238716666667}, {"fusion_lat": 0.0, "name": "90648cf8ce979416597727917d081325", "is_disabled": 0, "rental_uris": {"android": "https://dc.lft.to/lastmile_qr_scan", "ios": "https://dc.lft.to/lastmile_qr_scan"}, "fusion_lon": 0.0, "lat": 38.89914866666667, "bike_id": "90648cf8ce979416597727917d081325", "type": "electric_scooter", "is_reserved": 0, "lon": -77.03923383333333}, {"fusion_lat": 0.0, "name": "107e06e70b59ff30779d4b69e59fbdd2", "is_disabled": 0, "rental_uris": {"android": "https://dc.lft.to/lastmile_qr_scan", "ios": "https://dc.lft.to/lastmile_qr_scan"}, "fusion_lon": 0.0, "lat": 38.89235766666667, "bike_id": "107e06e70b59ff30779d4b69e59fbdd2", "type": "electric_scooter", "is_reserved": 0, "lon": -77.03354533333334}, {"fusion_lat": 0.0, "name": "91ce8a3838d8e4f33b95d3a7ad5aa3c8", "is_disabled": 0, "rental_uris": {"android": "https://dc.lft.to/lastmile_qr_scan", "ios": "https://dc.lft.to/lastmile_qr_scan"}, "fusion_lon": 0.0, "lat": 38.92497383333333, "bike_id": "91ce8a3838d8e4f33b95d3a7ad5aa3c8", "type": "electric_scooter", "is_reserved": 0, "lon": -77.051093}, {"fusion_lat": 0.0, "name": "424acd9658cabd622dbbdecd46fbfd8a", "is_disabled": 0, "rental_uris": {"android": "https://dc.lft.to/lastmile_qr_scan", "ios": "https://dc.lft.to/lastmile_qr_scan"}, "fusion_lon": 0.0, "lat": 38.94450483333333, "bike_id": "424acd9658cabd622dbbdecd46fbfd8a", "type": "electric_scooter", "is_reserved": 0, "lon": -77.023421}, {"fusion_lat": 0.0, "name": "261d77d265e003ac1b9396a41712c32e", "is_disabled": 0, "rental_uris": {"android": "https://dc.lft.to/lastmile_qr_scan", "ios": "https://dc.lft.to/lastmile_qr_scan"}, "fusion_lon": 0.0, "lat": 38.919126166666665, "bike_id": "261d77d265e003ac1b9396a41712c32e", "type": "electric_scooter", "is_reserved": 0, "lon": -77.02516816666666}, {"fusion_lat": 0.0, "name": "701e1841aa2e725bf6741c62791888de", "is_disabled": 0, "rental_uris": {"android": "https://dc.lft.to/lastmile_qr_scan", "ios": "https://dc.lft.to/lastmile_qr_scan"}, "fusion_lon": 0.0, "lat": 38.9313785, "bike_id": "701e1841aa2e725bf6741c62791888de", "type": "electric_scooter", "is_reserved": 0, "lon": -77.07855116666667}, {"fusion_lat": 0.0, "name": "9acf24e8073637fe5b3024ed0ec6480c", "is_disabled": 0, "rental_uris": {"android": "https://dc.lft.to/lastmile_qr_scan", "ios": "https://dc.lft.to/lastmile_qr_scan"}, "fusion_lon": 0.0, "lat": 38.866288, "bike_id": "9acf24e8073637fe5b3024ed0ec6480c", "type": "electric_scooter", "is_reserved": 0, "lon": -76.987153}, {"fusion_lat": 0.0, "name": "f64cc0042447f9a12e91f45195b698ad", "is_disabled": 0, "rental_uris": {"android": "https://dc.lft.to/lastmile_qr_scan", "ios": "https://dc.lft.to/lastmile_qr_scan"}, "fusion_lon": 0.0, "lat": 38.919929, "bike_id": "f64cc0042447f9a12e91f45195b698ad", "type": "electric_scooter", "is_reserved": 0, "lon": -77.0238475}, {"fusion_lat": 0.0, "name": "aa155849e802238188ceb6cd6b4bb014", "is_disabled": 0, "rental_uris": {"android": "https://dc.lft.to/lastmile_qr_scan", "ios": "https://dc.lft.to/lastmile_qr_scan"}, "fusion_lon": 0.0, "lat": 38.900899833333334, "bike_id": "aa155849e802238188ceb6cd6b4bb014", "type": "electric_scooter", "is_reserved": 0, "lon": -77.058307}, {"fusion_lat": 0.0, "name": "2ecf55d1119677b3b8ba4f74d436c9b9", "is_disabled": 0, "rental_uris": {"android": "https://dc.lft.to/lastmile_qr_scan", "ios": "https://dc.lft.to/lastmile_qr_scan"}, "fusion_lon": 0.0, "lat": 38.8922375, "bike_id": "2ecf55d1119677b3b8ba4f74d436c9b9", "type": "electric_scooter", "is_reserved": 0, "lon": -77.0469145}, {"fusion_lat": 0.0, "name": "a7c1b417f1c724b67c8a7ed5334e13cf", "is_disabled": 0, "rental_uris": {"android": "https://dc.lft.to/lastmile_qr_scan", "ios": "https://dc.lft.to/lastmile_qr_scan"}, "fusion_lon": 0.0, "lat": 38.8664275, "bike_id": "a7c1b417f1c724b67c8a7ed5334e13cf", "type": "electric_scooter", "is_reserved": 0, "lon": -76.9852775}, {"fusion_lat": 0.0, "name": "3979ab351d7eabe0b9627ab0d65d0a95", "is_disabled": 0, "rental_uris": {"android": "https://dc.lft.to/lastmile_qr_scan", "ios": "https://dc.lft.to/lastmile_qr_scan"}, "fusion_lon": 0.0, "lat": 38.9232615, "bike_id": "3979ab351d7eabe0b9627ab0d65d0a95", "type": "electric_scooter", "is_reserved": 0, "lon": -77.02961583333334}, {"fusion_lat": 0.0, "name": "d5944758a67e920fb40a78c4292c0d16", "is_disabled": 0, "rental_uris": {"android": "https://dc.lft.to/lastmile_qr_scan", "ios": "https://dc.lft.to/lastmile_qr_scan"}, "fusion_lon": 0.0, "lat": 38.897177, "bike_id": "d5944758a67e920fb40a78c4292c0d16", "type": "electric_scooter", "is_reserved": 0, "lon": -77.00793666666667}, {"fusion_lat": 0.0, "name": "a40490f39b730d4020a14840e897b72d", "is_disabled": 0, "rental_uris": {"android": "https://dc.lft.to/lastmile_qr_scan", "ios": "https://dc.lft.to/lastmile_qr_scan"}, "fusion_lon": 0.0, "lat": 38.93268616666667, "bike_id": "a40490f39b730d4020a14840e897b72d", "type": "electric_scooter", "is_reserved": 0, "lon": -77.04535116666666}, {"fusion_lat": 0.0, "name": "337d777f7fb01371ceefeeef54a9a408", "is_disabled": 0, "rental_uris": {"android": "https://dc.lft.to/lastmile_qr_scan", "ios": "https://dc.lft.to/lastmile_qr_scan"}, "fusion_lon": 0.0, "lat": 38.86517, "bike_id": "337d777f7fb01371ceefeeef54a9a408", "type": "electric_bike", "is_reserved": 0, "lon": -76.97334716666667}, {"fusion_lat": 0.0, "name": "eaf51df56dd2b2d56cfce33868f8b415", "is_disabled": 0, "rental_uris": {"android": "https://dc.lft.to/lastmile_qr_scan", "ios": "https://dc.lft.to/lastmile_qr_scan"}, "fusion_lon": 0.0, "lat": 38.93647516666667, "bike_id": "eaf51df56dd2b2d56cfce33868f8b415", "type": "electric_scooter", "is_reserved": 0, "lon": -77.03687933333333}, {"fusion_lat": 0.0, "name": "41caf5fef6f71d396aa02dbfa3a47d47", "is_disabled": 0, "rental_uris": {"android": "https://dc.lft.to/lastmile_qr_scan", "ios": "https://dc.lft.to/lastmile_qr_scan"}, "fusion_lon": 0.0, "lat": 38.920682166666666, "bike_id": "41caf5fef6f71d396aa02dbfa3a47d47", "type": "electric_scooter", "is_reserved": 0, "lon": -77.03463816666667}, {"fusion_lat": 0.0, "name": "28f59939a5094ad6884d59c455110e79", "is_disabled": 0, "rental_uris": {"android": "https://dc.lft.to/lastmile_qr_scan", "ios": "https://dc.lft.to/lastmile_qr_scan"}, "fusion_lon": 0.0, "lat": 38.9002225, "bike_id": "28f59939a5094ad6884d59c455110e79", "type": "electric_scooter", "is_reserved": 0, "lon": -77.04105583333333}, {"fusion_lat": 0.0, "name": "0349b23ac0e99ba7cd7d48e2c0de3e5b", "is_disabled": 0, "rental_uris": {"android": "https://dc.lft.to/lastmile_qr_scan", "ios": "https://dc.lft.to/lastmile_qr_scan"}, "fusion_lon": 0.0, "lat": 38.91542583333333, "bike_id": "0349b23ac0e99ba7cd7d48e2c0de3e5b", "type": "electric_scooter", "is_reserved": 0, "lon": -77.03845366666667}, {"fusion_lat": 0.0, "name": "220ec60b974ac82c6c786297c7c95a4f", "is_disabled": 0, "rental_uris": {"android": "https://dc.lft.to/lastmile_qr_scan", "ios": "https://dc.lft.to/lastmile_qr_scan"}, "fusion_lon": 0.0, "lat": 38.921003, "bike_id": "220ec60b974ac82c6c786297c7c95a4f", "type": "electric_scooter", "is_reserved": 0, "lon": -77.074717}, {"fusion_lat": 0.0, "name": "96377011747c1b698e3c4b5ba40b75f7", "is_disabled": 0, "rental_uris": {"android": "https://dc.lft.to/lastmile_qr_scan", "ios": "https://dc.lft.to/lastmile_qr_scan"}, "fusion_lon": 0.0, "lat": 38.92606933333333, "bike_id": "96377011747c1b698e3c4b5ba40b75f7", "type": "electric_scooter", "is_reserved": 0, "lon": -77.039558}, {"fusion_lat": 0.0, "name": "c090ced585e216af92a26e205f18ea61", "is_disabled": 0, "rental_uris": {"android": "https://dc.lft.to/lastmile_qr_scan", "ios": "https://dc.lft.to/lastmile_qr_scan"}, "fusion_lon": 0.0, "lat": 38.8737335, "bike_id": "c090ced585e216af92a26e205f18ea61", "type": "electric_scooter", "is_reserved": 0, "lon": -77.000944}, {"fusion_lat": 0.0, "name": "491fc1942a23ced40b84025b6ba04e27", "is_disabled": 0, "rental_uris": {"android": "https://dc.lft.to/lastmile_qr_scan", "ios": "https://dc.lft.to/lastmile_qr_scan"}, "fusion_lon": 0.0, "lat": 38.92057116666667, "bike_id": "491fc1942a23ced40b84025b6ba04e27", "type": "electric_scooter", "is_reserved": 0, "lon": -76.99880083333333}, {"fusion_lat": 0.0, "name": "27e505482bb480840f409f7dbc959d43", "is_disabled": 0, "rental_uris": {"android": "https://dc.lft.to/lastmile_qr_scan", "ios": "https://dc.lft.to/lastmile_qr_scan"}, "fusion_lon": 0.0, "lat": 38.924953333333335, "bike_id": "27e505482bb480840f409f7dbc959d43", "type": "electric_bike", "is_reserved": 0, "lon": -77.05759333333333}, {"fusion_lat": 0.0, "name": "7046e63787679dc8588510a2130c26a6", "is_disabled": 0, "rental_uris": {"android": "https://dc.lft.to/lastmile_qr_scan", "ios": "https://dc.lft.to/lastmile_qr_scan"}, "fusion_lon": 0.0, "lat": 38.884511833333335, "bike_id": "7046e63787679dc8588510a2130c26a6", "type": "electric_scooter", "is_reserved": 0, "lon": -76.99392366666666}, {"fusion_lat": 0.0, "name": "d085af4d07e401b6b78bec66e2a85767", "is_disabled": 0, "rental_uris": {"android": "https://dc.lft.to/lastmile_qr_scan", "ios": "https://dc.lft.to/lastmile_qr_scan"}, "fusion_lon": 0.0, "lat": 38.887504666666665, "bike_id": "d085af4d07e401b6b78bec66e2a85767", "type": "electric_scooter", "is_reserved": 0, "lon": -76.9983635}, {"fusion_lat": 0.0, "name": "c24c48b993f43832c7df0a10cc49eecf", "is_disabled": 0, "rental_uris": {"android": "https://dc.lft.to/lastmile_qr_scan", "ios": "https://dc.lft.to/lastmile_qr_scan"}, "fusion_lon": 0.0, "lat": 38.806679833333334, "bike_id": "c24c48b993f43832c7df0a10cc49eecf", "type": "electric_bike", "is_reserved": 0, "lon": -77.06920633333333}, {"fusion_lat": 0.0, "name": "baaae3ba3c766539c1a02f67c6d5495f", "is_disabled": 0, "rental_uris": {"android": "https://dc.lft.to/lastmile_qr_scan", "ios": "https://dc.lft.to/lastmile_qr_scan"}, "fusion_lon": 0.0, "lat": 38.90031316666666, "bike_id": "baaae3ba3c766539c1a02f67c6d5495f", "type": "electric_scooter", "is_reserved": 0, "lon": -77.001951}, {"fusion_lat": 0.0, "name": "3bf67bbaa06dff82e23838d6ecec2f19", "is_disabled": 0, "rental_uris": {"android": "https://dc.lft.to/lastmile_qr_scan", "ios": "https://dc.lft.to/lastmile_qr_scan"}, "fusion_lon": 0.0, "lat": 38.907859, "bike_id": "3bf67bbaa06dff82e23838d6ecec2f19", "type": "electric_scooter", "is_reserved": 0, "lon": -77.009676}, {"fusion_lat": 0.0, "name": "a96a4265ecb6bbb2aa8caae12bdc1cc7", "is_disabled": 0, "rental_uris": {"android": "https://dc.lft.to/lastmile_qr_scan", "ios": "https://dc.lft.to/lastmile_qr_scan"}, "fusion_lon": 0.0, "lat": 38.920646166666664, "bike_id": "a96a4265ecb6bbb2aa8caae12bdc1cc7", "type": "electric_scooter", "is_reserved": 0, "lon": -77.02417433333333}, {"fusion_lat": 0.0, "name": "3a045a505883e7b11cdffc69c7e2fa4d", "is_disabled": 0, "rental_uris": {"android": "https://dc.lft.to/lastmile_qr_scan", "ios": "https://dc.lft.to/lastmile_qr_scan"}, "fusion_lon": 0.0, "lat": 38.92252083333333, "bike_id": "3a045a505883e7b11cdffc69c7e2fa4d", "type": "electric_bike", "is_reserved": 0, "lon": -77.0221725}, {"fusion_lat": 0.0, "name": "881fc1837f09e3d3ca388610ab625627", "is_disabled": 0, "rental_uris": {"android": "https://dc.lft.to/lastmile_qr_scan", "ios": "https://dc.lft.to/lastmile_qr_scan"}, "fusion_lon": 0.0, "lat": 38.988244333333334, "bike_id": "881fc1837f09e3d3ca388610ab625627", "type": "electric_bike", "is_reserved": 0, "lon": -76.99647433333334}, {"fusion_lat": 0.0, "name": "9534c6e0f46e15a4f1e77d66af1b3489", "is_disabled": 0, "rental_uris": {"android": "https://dc.lft.to/lastmile_qr_scan", "ios": "https://dc.lft.to/lastmile_qr_scan"}, "fusion_lon": 0.0, "lat": 38.910539166666666, "bike_id": "9534c6e0f46e15a4f1e77d66af1b3489", "type": "electric_scooter", "is_reserved": 0, "lon": -76.98525716666667}, {"fusion_lat": 0.0, "name": "a0007a8931cf6600939e3b8968f330e2", "is_disabled": 0, "rental_uris": {"android": "https://dc.lft.to/lastmile_qr_scan", "ios": "https://dc.lft.to/lastmile_qr_scan"}, "fusion_lon": 0.0, "lat": 38.907306, "bike_id": "a0007a8931cf6600939e3b8968f330e2", "type": "electric_scooter", "is_reserved": 0, "lon": -77.01117516666666}, {"fusion_lat": 0.0, "name": "c06eb5da315947fed97d7a4fd191fb0f", "is_disabled": 0, "rental_uris": {"android": "https://dc.lft.to/lastmile_qr_scan", "ios": "https://dc.lft.to/lastmile_qr_scan"}, "fusion_lon": 0.0, "lat": 38.9015205, "bike_id": "c06eb5da315947fed97d7a4fd191fb0f", "type": "electric_scooter", "is_reserved": 0, "lon": -76.93063616666667}, {"fusion_lat": 0.0, "name": "03a702e48aa5eb2343b5ee3fec7690af", "is_disabled": 0, "rental_uris": {"android": "https://dc.lft.to/lastmile_qr_scan", "ios": "https://dc.lft.to/lastmile_qr_scan"}, "fusion_lon": 0.0, "lat": 38.9845965, "bike_id": "03a702e48aa5eb2343b5ee3fec7690af", "type": "electric_bike", "is_reserved": 0, "lon": -76.97054716666666}, {"fusion_lat": 0.0, "name": "d81cd909cf6f5b5721790b9401ad9d70", "is_disabled": 0, "rental_uris": {"android": "https://dc.lft.to/lastmile_qr_scan", "ios": "https://dc.lft.to/lastmile_qr_scan"}, "fusion_lon": 0.0, "lat": 38.887618333333336, "bike_id": "d81cd909cf6f5b5721790b9401ad9d70", "type": "electric_scooter", "is_reserved": 0, "lon": -76.97746666666667}, {"fusion_lat": 0.0, "name": "ae33555babe4615d2cfe64878615df30", "is_disabled": 0, "rental_uris": {"android": "https://dc.lft.to/lastmile_qr_scan", "ios": "https://dc.lft.to/lastmile_qr_scan"}, "fusion_lon": 0.0, "lat": 38.90683666666666, "bike_id": "ae33555babe4615d2cfe64878615df30", "type": "electric_bike", "is_reserved": 0, "lon": -76.94495233333333}, {"fusion_lat": 0.0, "name": "ed0e3ce8c46a39e9d1ffebd7b69e841b", "is_disabled": 0, "rental_uris": {"android": "https://dc.lft.to/lastmile_qr_scan", "ios": "https://dc.lft.to/lastmile_qr_scan"}, "fusion_lon": 0.0, "lat": 38.9057395, "bike_id": "ed0e3ce8c46a39e9d1ffebd7b69e841b", "type": "electric_scooter", "is_reserved": 0, "lon": -77.04433833333333}, {"fusion_lat": 0.0, "name": "b0e5ea6878885952dd5fd2c3ebe0a737", "is_disabled": 0, "rental_uris": {"android": "https://dc.lft.to/lastmile_qr_scan", "ios": "https://dc.lft.to/lastmile_qr_scan"}, "fusion_lon": 0.0, "lat": 38.89818016666667, "bike_id": "b0e5ea6878885952dd5fd2c3ebe0a737", "type": "electric_scooter", "is_reserved": 0, "lon": -77.00762666666667}, {"fusion_lat": 0.0, "name": "2dafc818cfbf5a9e78446a218717a75c", "is_disabled": 0, "rental_uris": {"android": "https://dc.lft.to/lastmile_qr_scan", "ios": "https://dc.lft.to/lastmile_qr_scan"}, "fusion_lon": 0.0, "lat": 38.878468, "bike_id": "2dafc818cfbf5a9e78446a218717a75c", "type": "electric_bike", "is_reserved": 0, "lon": -77.03021533333333}, {"fusion_lat": 0.0, "name": "63e68fc6e878d57d4d9a1d8eff6acc1c", "is_disabled": 0, "rental_uris": {"android": "https://dc.lft.to/lastmile_qr_scan", "ios": "https://dc.lft.to/lastmile_qr_scan"}, "fusion_lon": 0.0, "lat": 38.95086283333333, "bike_id": "63e68fc6e878d57d4d9a1d8eff6acc1c", "type": "electric_scooter", "is_reserved": 0, "lon": -77.028207}, {"fusion_lat": 0.0, "name": "3f5afd06ec8cd55e336f712f4cd0dc3f", "is_disabled": 0, "rental_uris": {"android": "https://dc.lft.to/lastmile_qr_scan", "ios": "https://dc.lft.to/lastmile_qr_scan"}, "fusion_lon": 0.0, "lat": 38.898347666666666, "bike_id": "3f5afd06ec8cd55e336f712f4cd0dc3f", "type": "electric_scooter", "is_reserved": 0, "lon": -76.93182316666666}, {"fusion_lat": 0.0, "name": "bfc4240a39eddfc5c49cf8c1fdd04241", "is_disabled": 0, "rental_uris": {"android": "https://dc.lft.to/lastmile_qr_scan", "ios": "https://dc.lft.to/lastmile_qr_scan"}, "fusion_lon": 0.0, "lat": 38.84053766666667, "bike_id": "bfc4240a39eddfc5c49cf8c1fdd04241", "type": "electric_scooter", "is_reserved": 0, "lon": -76.9766795}, {"fusion_lat": 0.0, "name": "7bb0b5e9c4f253be0673723e0ae39d55", "is_disabled": 0, "rental_uris": {"android": "https://dc.lft.to/lastmile_qr_scan", "ios": "https://dc.lft.to/lastmile_qr_scan"}, "fusion_lon": 0.0, "lat": 38.89827533333333, "bike_id": "7bb0b5e9c4f253be0673723e0ae39d55", "type": "electric_scooter", "is_reserved": 0, "lon": -76.94652333333333}, {"fusion_lat": 0.0, "name": "ff5f5e4556ce9e9bc60f2a26279103e5", "is_disabled": 0, "rental_uris": {"android": "https://dc.lft.to/lastmile_qr_scan", "ios": "https://dc.lft.to/lastmile_qr_scan"}, "fusion_lon": 0.0, "lat": 38.904528166666665, "bike_id": "ff5f5e4556ce9e9bc60f2a26279103e5", "type": "electric_bike", "is_reserved": 0, "lon": -76.974253}, {"fusion_lat": 0.0, "name": "d044af1c3c49181de9048e12aa473a42", "is_disabled": 0, "rental_uris": {"android": "https://dc.lft.to/lastmile_qr_scan", "ios": "https://dc.lft.to/lastmile_qr_scan"}, "fusion_lon": 0.0, "lat": 38.8971265, "bike_id": "d044af1c3c49181de9048e12aa473a42", "type": "electric_scooter", "is_reserved": 0, "lon": -77.007984}, {"fusion_lat": 0.0, "name": "b7788f95820d9f4683f8b29912c05378", "is_disabled": 0, "rental_uris": {"android": "https://dc.lft.to/lastmile_qr_scan", "ios": "https://dc.lft.to/lastmile_qr_scan"}, "fusion_lon": 0.0, "lat": 38.904279333333335, "bike_id": "b7788f95820d9f4683f8b29912c05378", "type": "electric_scooter", "is_reserved": 0, "lon": -76.98183116666667}, {"fusion_lat": 0.0, "name": "a8e0d5d72152ab444f334d0d0a97d48b", "is_disabled": 0, "rental_uris": {"android": "https://dc.lft.to/lastmile_qr_scan", "ios": "https://dc.lft.to/lastmile_qr_scan"}, "fusion_lon": 0.0, "lat": 38.885607, "bike_id": "a8e0d5d72152ab444f334d0d0a97d48b", "type": "electric_scooter", "is_reserved": 0, "lon": -76.997851}, {"fusion_lat": 0.0, "name": "86579fee2bc2958fa8956855e4d82d6a", "is_disabled": 0, "rental_uris": {"android": "https://dc.lft.to/lastmile_qr_scan", "ios": "https://dc.lft.to/lastmile_qr_scan"}, "fusion_lon": 0.0, "lat": 38.90407233333333, "bike_id": "86579fee2bc2958fa8956855e4d82d6a", "type": "electric_scooter", "is_reserved": 0, "lon": -76.97331366666667}, {"fusion_lat": 0.0, "name": "918471abdbf6b6ddd162aa0e21077f7e", "is_disabled": 0, "rental_uris": {"android": "https://dc.lft.to/lastmile_qr_scan", "ios": "https://dc.lft.to/lastmile_qr_scan"}, "fusion_lon": 0.0, "lat": 38.919839833333334, "bike_id": "918471abdbf6b6ddd162aa0e21077f7e", "type": "electric_scooter", "is_reserved": 0, "lon": -77.02397466666666}, {"fusion_lat": 0.0, "name": "d9ece849c6a15a1ab1e7cb5c9e00289c", "is_disabled": 0, "rental_uris": {"android": "https://dc.lft.to/lastmile_qr_scan", "ios": "https://dc.lft.to/lastmile_qr_scan"}, "fusion_lon": 0.0, "lat": 38.924341166666665, "bike_id": "d9ece849c6a15a1ab1e7cb5c9e00289c", "type": "electric_scooter", "is_reserved": 0, "lon": -77.00066566666666}, {"fusion_lat": 0.0, "name": "e01374a151599790c5a29979fcfa1996", "is_disabled": 0, "rental_uris": {"android": "https://dc.lft.to/lastmile_qr_scan", "ios": "https://dc.lft.to/lastmile_qr_scan"}, "fusion_lon": 0.0, "lat": 38.917691166666664, "bike_id": "e01374a151599790c5a29979fcfa1996", "type": "electric_scooter", "is_reserved": 0, "lon": -77.02285033333334}, {"fusion_lat": 0.0, "name": "4604952aa7a4f5073a5caee2041b3dea", "is_disabled": 0, "rental_uris": {"android": "https://dc.lft.to/lastmile_qr_scan", "ios": "https://dc.lft.to/lastmile_qr_scan"}, "fusion_lon": 0.0, "lat": 38.91801433333333, "bike_id": "4604952aa7a4f5073a5caee2041b3dea", "type": "electric_scooter", "is_reserved": 0, "lon": -77.045938}, {"fusion_lat": 0.0, "name": "30f9538450ddbb5175aee6f2a6b2ffee", "is_disabled": 0, "rental_uris": {"android": "https://dc.lft.to/lastmile_qr_scan", "ios": "https://dc.lft.to/lastmile_qr_scan"}, "fusion_lon": 0.0, "lat": 38.92343316666667, "bike_id": "30f9538450ddbb5175aee6f2a6b2ffee", "type": "electric_scooter", "is_reserved": 0, "lon": -77.051325}, {"fusion_lat": 0.0, "name": "a83040fae5a6cd6772879ed2e53367d0", "is_disabled": 0, "rental_uris": {"android": "https://dc.lft.to/lastmile_qr_scan", "ios": "https://dc.lft.to/lastmile_qr_scan"}, "fusion_lon": 0.0, "lat": 38.86683216666667, "bike_id": "a83040fae5a6cd6772879ed2e53367d0", "type": "electric_scooter", "is_reserved": 0, "lon": -76.98571983333333}, {"fusion_lat": 0.0, "name": "53052fde176cc5a13b2c45a934411cdf", "is_disabled": 0, "rental_uris": {"android": "https://dc.lft.to/lastmile_qr_scan", "ios": "https://dc.lft.to/lastmile_qr_scan"}, "fusion_lon": 0.0, "lat": 38.920204, "bike_id": "53052fde176cc5a13b2c45a934411cdf", "type": "electric_bike", "is_reserved": 0, "lon": -77.07708216666667}, {"fusion_lat": 0.0, "name": "8040eb3ec8322ffa7eb0818006ad2ff6", "is_disabled": 0, "rental_uris": {"android": "https://dc.lft.to/lastmile_qr_scan", "ios": "https://dc.lft.to/lastmile_qr_scan"}, "fusion_lon": 0.0, "lat": 38.89798316666667, "bike_id": "8040eb3ec8322ffa7eb0818006ad2ff6", "type": "electric_scooter", "is_reserved": 0, "lon": -77.02421033333333}, {"fusion_lat": 0.0, "name": "10a40ad2e3763f9fb4f91f0b9d43c4bc", "is_disabled": 0, "rental_uris": {"android": "https://dc.lft.to/lastmile_qr_scan", "ios": "https://dc.lft.to/lastmile_qr_scan"}, "fusion_lon": 0.0, "lat": 38.93186033333333, "bike_id": "10a40ad2e3763f9fb4f91f0b9d43c4bc", "type": "electric_scooter", "is_reserved": 0, "lon": -77.0430095}, {"fusion_lat": 0.0, "name": "1c0513cc00de697485712dab85e4d7e0", "is_disabled": 0, "rental_uris": {"android": "https://dc.lft.to/lastmile_qr_scan", "ios": "https://dc.lft.to/lastmile_qr_scan"}, "fusion_lon": 0.0, "lat": 38.92113166666667, "bike_id": "1c0513cc00de697485712dab85e4d7e0", "type": "electric_scooter", "is_reserved": 0, "lon": -77.041782}, {"fusion_lat": 0.0, "name": "3f46ff2e95d560e299a7e573a7a2e76a", "is_disabled": 0, "rental_uris": {"android": "https://dc.lft.to/lastmile_qr_scan", "ios": "https://dc.lft.to/lastmile_qr_scan"}, "fusion_lon": 0.0, "lat": 38.95926016666667, "bike_id": "3f46ff2e95d560e299a7e573a7a2e76a", "type": "electric_bike", "is_reserved": 0, "lon": -77.03122}, {"fusion_lat": 0.0, "name": "03a2f2b7822fc6dacca66713ed8b7548", "is_disabled": 0, "rental_uris": {"android": "https://dc.lft.to/lastmile_qr_scan", "ios": "https://dc.lft.to/lastmile_qr_scan"}, "fusion_lon": 0.0, "lat": 38.90893966666667, "bike_id": "03a2f2b7822fc6dacca66713ed8b7548", "type": "electric_scooter", "is_reserved": 0, "lon": -76.99864183333334}, {"fusion_lat": 0.0, "name": "38a429dcffe2fdcc40eefa3f96f7792f", "is_disabled": 0, "rental_uris": {"android": "https://dc.lft.to/lastmile_qr_scan", "ios": "https://dc.lft.to/lastmile_qr_scan"}, "fusion_lon": 0.0, "lat": 38.90516316666667, "bike_id": "38a429dcffe2fdcc40eefa3f96f7792f", "type": "electric_scooter", "is_reserved": 0, "lon": -77.068863}, {"fusion_lat": 0.0, "name": "711e3d81ed009c6c7f7f1f9e99ffde98", "is_disabled": 0, "rental_uris": {"android": "https://dc.lft.to/lastmile_qr_scan", "ios": "https://dc.lft.to/lastmile_qr_scan"}, "fusion_lon": 0.0, "lat": 38.886328166666665, "bike_id": "711e3d81ed009c6c7f7f1f9e99ffde98", "type": "electric_scooter", "is_reserved": 0, "lon": -77.01952116666666}, {"fusion_lat": 0.0, "name": "f20b29e531ac545475ea8ebfdde715ad", "is_disabled": 0, "rental_uris": {"android": "https://dc.lft.to/lastmile_qr_scan", "ios": "https://dc.lft.to/lastmile_qr_scan"}, "fusion_lon": 0.0, "lat": 38.91115816666667, "bike_id": "f20b29e531ac545475ea8ebfdde715ad", "type": "electric_scooter", "is_reserved": 0, "lon": -76.99765366666666}, {"fusion_lat": 0.0, "name": "9333c42b05bdd638ecbe55dc6803f6b4", "is_disabled": 0, "rental_uris": {"android": "https://dc.lft.to/lastmile_qr_scan", "ios": "https://dc.lft.to/lastmile_qr_scan"}, "fusion_lon": 0.0, "lat": 38.88616233333333, "bike_id": "9333c42b05bdd638ecbe55dc6803f6b4", "type": "electric_scooter", "is_reserved": 0, "lon": -77.01250616666667}, {"fusion_lat": 0.0, "name": "84b9fec03ccb2528720ebc58e7cece14", "is_disabled": 0, "rental_uris": {"android": "https://dc.lft.to/lastmile_qr_scan", "ios": "https://dc.lft.to/lastmile_qr_scan"}, "fusion_lon": 0.0, "lat": 38.899514833333335, "bike_id": "84b9fec03ccb2528720ebc58e7cece14", "type": "electric_scooter", "is_reserved": 0, "lon": -77.0067795}, {"fusion_lat": 0.0, "name": "b63a9f598ca19598cdff28f4efbc439c", "is_disabled": 0, "rental_uris": {"android": "https://dc.lft.to/lastmile_qr_scan", "ios": "https://dc.lft.to/lastmile_qr_scan"}, "fusion_lon": 0.0, "lat": 38.91672666666667, "bike_id": "b63a9f598ca19598cdff28f4efbc439c", "type": "electric_scooter", "is_reserved": 0, "lon": -77.02258083333334}, {"fusion_lat": 0.0, "name": "a48c66e8da3e56a4cf136aea4d684274", "is_disabled": 0, "rental_uris": {"android": "https://dc.lft.to/lastmile_qr_scan", "ios": "https://dc.lft.to/lastmile_qr_scan"}, "fusion_lon": 0.0, "lat": 38.90032266666667, "bike_id": "a48c66e8da3e56a4cf136aea4d684274", "type": "electric_scooter", "is_reserved": 0, "lon": -77.03208833333333}, {"fusion_lat": 0.0, "name": "fb23a52c3018b60385363575ed4b8dc3", "is_disabled": 0, "rental_uris": {"android": "https://dc.lft.to/lastmile_qr_scan", "ios": "https://dc.lft.to/lastmile_qr_scan"}, "fusion_lon": 0.0, "lat": 38.92960516666667, "bike_id": "fb23a52c3018b60385363575ed4b8dc3", "type": "electric_scooter", "is_reserved": 0, "lon": -77.02977683333333}, {"fusion_lat": 0.0, "name": "355d519953a00f053b47a88bb6cbd5e2", "is_disabled": 0, "rental_uris": {"android": "https://dc.lft.to/lastmile_qr_scan", "ios": "https://dc.lft.to/lastmile_qr_scan"}, "fusion_lon": 0.0, "lat": 38.92315216666667, "bike_id": "355d519953a00f053b47a88bb6cbd5e2", "type": "electric_scooter", "is_reserved": 0, "lon": -77.02906466666667}, {"fusion_lat": 0.0, "name": "da397cd524d25ec237359480349e5584", "is_disabled": 0, "rental_uris": {"android": "https://dc.lft.to/lastmile_qr_scan", "ios": "https://dc.lft.to/lastmile_qr_scan"}, "fusion_lon": 0.0, "lat": 38.932174, "bike_id": "da397cd524d25ec237359480349e5584", "type": "electric_scooter", "is_reserved": 0, "lon": -77.03517833333333}, {"fusion_lat": 0.0, "name": "849dc83052b29853fc8db3e5a08ca7dc", "is_disabled": 0, "rental_uris": {"android": "https://dc.lft.to/lastmile_qr_scan", "ios": "https://dc.lft.to/lastmile_qr_scan"}, "fusion_lon": 0.0, "lat": 38.88560616666667, "bike_id": "849dc83052b29853fc8db3e5a08ca7dc", "type": "electric_scooter", "is_reserved": 0, "lon": -76.97717716666666}, {"fusion_lat": 0.0, "name": "ec53d8d1ccc65c05310ed04e41ba9da4", "is_disabled": 0, "rental_uris": {"android": "https://dc.lft.to/lastmile_qr_scan", "ios": "https://dc.lft.to/lastmile_qr_scan"}, "fusion_lon": 0.0, "lat": 38.9166275, "bike_id": "ec53d8d1ccc65c05310ed04e41ba9da4", "type": "electric_scooter", "is_reserved": 0, "lon": -77.02818683333334}, {"fusion_lat": 0.0, "name": "0c1088569c10a31403fd08752c1a36e2", "is_disabled": 0, "rental_uris": {"android": "https://dc.lft.to/lastmile_qr_scan", "ios": "https://dc.lft.to/lastmile_qr_scan"}, "fusion_lon": 0.0, "lat": 38.919212333333334, "bike_id": "0c1088569c10a31403fd08752c1a36e2", "type": "electric_scooter", "is_reserved": 0, "lon": -77.00970633333333}, {"fusion_lat": 0.0, "name": "4637d288a1fad4af6c62f39b9668169c", "is_disabled": 0, "rental_uris": {"android": "https://dc.lft.to/lastmile_qr_scan", "ios": "https://dc.lft.to/lastmile_qr_scan"}, "fusion_lon": 0.0, "lat": 38.900655, "bike_id": "4637d288a1fad4af6c62f39b9668169c", "type": "electric_scooter", "is_reserved": 0, "lon": -77.05426366666667}, {"fusion_lat": 0.0, "name": "3cdfe96de46f3dac1dff810bd626cd8e", "is_disabled": 0, "rental_uris": {"android": "https://dc.lft.to/lastmile_qr_scan", "ios": "https://dc.lft.to/lastmile_qr_scan"}, "fusion_lon": 0.0, "lat": 38.94408033333333, "bike_id": "3cdfe96de46f3dac1dff810bd626cd8e", "type": "electric_scooter", "is_reserved": 0, "lon": -77.03210683333333}, {"fusion_lat": 0.0, "name": "025b9e0804e2cd5994bd54ed8b50ddc5", "is_disabled": 0, "rental_uris": {"android": "https://dc.lft.to/lastmile_qr_scan", "ios": "https://dc.lft.to/lastmile_qr_scan"}, "fusion_lon": 0.0, "lat": 38.92961916666667, "bike_id": "025b9e0804e2cd5994bd54ed8b50ddc5", "type": "electric_scooter", "is_reserved": 0, "lon": -77.03103583333333}, {"fusion_lat": 0.0, "name": "711035d50a66de38f98409ce00cc4bd6", "is_disabled": 0, "rental_uris": {"android": "https://dc.lft.to/lastmile_qr_scan", "ios": "https://dc.lft.to/lastmile_qr_scan"}, "fusion_lon": 0.0, "lat": 38.8982785, "bike_id": "711035d50a66de38f98409ce00cc4bd6", "type": "electric_scooter", "is_reserved": 0, "lon": -76.946525}, {"fusion_lat": 0.0, "name": "744796ba9f241264195d39ee58be02de", "is_disabled": 0, "rental_uris": {"android": "https://dc.lft.to/lastmile_qr_scan", "ios": "https://dc.lft.to/lastmile_qr_scan"}, "fusion_lon": 0.0, "lat": 38.906875, "bike_id": "744796ba9f241264195d39ee58be02de", "type": "electric_scooter", "is_reserved": 0, "lon": -77.04733816666666}, {"fusion_lat": 0.0, "name": "73f1c47279874d4399df1ba0e548bdd1", "is_disabled": 0, "rental_uris": {"android": "https://dc.lft.to/lastmile_qr_scan", "ios": "https://dc.lft.to/lastmile_qr_scan"}, "fusion_lon": 0.0, "lat": 38.878969, "bike_id": "73f1c47279874d4399df1ba0e548bdd1", "type": "electric_scooter", "is_reserved": 0, "lon": -77.01362733333333}, {"fusion_lat": 0.0, "name": "00decdaf36a69f908a84649564e14993", "is_disabled": 0, "rental_uris": {"android": "https://dc.lft.to/lastmile_qr_scan", "ios": "https://dc.lft.to/lastmile_qr_scan"}, "fusion_lon": 0.0, "lat": 38.904971833333335, "bike_id": "00decdaf36a69f908a84649564e14993", "type": "electric_scooter", "is_reserved": 0, "lon": -77.010164}, {"fusion_lat": 0.0, "name": "ca2ad78092c387dd0a5dffd98d6c7cca", "is_disabled": 0, "rental_uris": {"android": "https://dc.lft.to/lastmile_qr_scan", "ios": "https://dc.lft.to/lastmile_qr_scan"}, "fusion_lon": 0.0, "lat": 38.917727, "bike_id": "ca2ad78092c387dd0a5dffd98d6c7cca", "type": "electric_scooter", "is_reserved": 0, "lon": -77.01490783333334}, {"fusion_lat": 0.0, "name": "740fb36c0b6e428597487ee4acc45f4d", "is_disabled": 0, "rental_uris": {"android": "https://dc.lft.to/lastmile_qr_scan", "ios": "https://dc.lft.to/lastmile_qr_scan"}, "fusion_lon": 0.0, "lat": 38.93950366666667, "bike_id": "740fb36c0b6e428597487ee4acc45f4d", "type": "electric_scooter", "is_reserved": 0, "lon": -77.03322733333333}, {"fusion_lat": 0.0, "name": "ecb127c763bf673a2674377798e6998a", "is_disabled": 0, "rental_uris": {"android": "https://dc.lft.to/lastmile_qr_scan", "ios": "https://dc.lft.to/lastmile_qr_scan"}, "fusion_lon": 0.0, "lat": 38.88331816666667, "bike_id": "ecb127c763bf673a2674377798e6998a", "type": "electric_scooter", "is_reserved": 0, "lon": -77.017727}, {"fusion_lat": 0.0, "name": "591fcdab8b4ce487b22b08b0d4187aa4", "is_disabled": 0, "rental_uris": {"android": "https://dc.lft.to/lastmile_qr_scan", "ios": "https://dc.lft.to/lastmile_qr_scan"}, "fusion_lon": 0.0, "lat": 38.905756833333335, "bike_id": "591fcdab8b4ce487b22b08b0d4187aa4", "type": "electric_scooter", "is_reserved": 0, "lon": -77.022041}, {"fusion_lat": 0.0, "name": "f076d2b4c599b4f98e00901c241234f2", "is_disabled": 0, "rental_uris": {"android": "https://dc.lft.to/lastmile_qr_scan", "ios": "https://dc.lft.to/lastmile_qr_scan"}, "fusion_lon": 0.0, "lat": 38.872869666666666, "bike_id": "f076d2b4c599b4f98e00901c241234f2", "type": "electric_scooter", "is_reserved": 0, "lon": -77.00989916666667}, {"fusion_lat": 0.0, "name": "9ed3197c71a81ad3eac66e578bdd8bb5", "is_disabled": 0, "rental_uris": {"android": "https://dc.lft.to/lastmile_qr_scan", "ios": "https://dc.lft.to/lastmile_qr_scan"}, "fusion_lon": 0.0, "lat": 38.92713916666666, "bike_id": "9ed3197c71a81ad3eac66e578bdd8bb5", "type": "electric_scooter", "is_reserved": 0, "lon": -77.02107866666667}, {"fusion_lat": 0.0, "name": "70503e81f1d701932b77f36caf159a7a", "is_disabled": 0, "rental_uris": {"android": "https://dc.lft.to/lastmile_qr_scan", "ios": "https://dc.lft.to/lastmile_qr_scan"}, "fusion_lon": 0.0, "lat": 38.884930833333335, "bike_id": "70503e81f1d701932b77f36caf159a7a", "type": "electric_scooter", "is_reserved": 0, "lon": -77.02097466666666}, {"fusion_lat": 0.0, "name": "2e5d9cff1f8c8c32254ab465b69e3588", "is_disabled": 0, "rental_uris": {"android": "https://dc.lft.to/lastmile_qr_scan", "ios": "https://dc.lft.to/lastmile_qr_scan"}, "fusion_lon": 0.0, "lat": 38.90264466666667, "bike_id": "2e5d9cff1f8c8c32254ab465b69e3588", "type": "electric_scooter", "is_reserved": 0, "lon": -77.029365}, {"fusion_lat": 0.0, "name": "056837c42a2ae7f7934ace46a5d30f17", "is_disabled": 0, "rental_uris": {"android": "https://dc.lft.to/lastmile_qr_scan", "ios": "https://dc.lft.to/lastmile_qr_scan"}, "fusion_lon": 0.0, "lat": 38.909312, "bike_id": "056837c42a2ae7f7934ace46a5d30f17", "type": "electric_scooter", "is_reserved": 0, "lon": -77.0212835}, {"fusion_lat": 0.0, "name": "006378168c12d1eb8caa6e6a78a05f72", "is_disabled": 0, "rental_uris": {"android": "https://dc.lft.to/lastmile_qr_scan", "ios": "https://dc.lft.to/lastmile_qr_scan"}, "fusion_lon": 0.0, "lat": 38.88985, "bike_id": "006378168c12d1eb8caa6e6a78a05f72", "type": "electric_scooter", "is_reserved": 0, "lon": -76.98734033333334}, {"fusion_lat": 0.0, "name": "091536c6a79df8f7afefb0a8800b813c", "is_disabled": 0, "rental_uris": {"android": "https://dc.lft.to/lastmile_qr_scan", "ios": "https://dc.lft.to/lastmile_qr_scan"}, "fusion_lon": 0.0, "lat": 38.903872666666665, "bike_id": "091536c6a79df8f7afefb0a8800b813c", "type": "electric_scooter", "is_reserved": 0, "lon": -76.99003266666666}, {"fusion_lat": 0.0, "name": "220506e7f3b6aa9c2ca49ded4d8f0595", "is_disabled": 0, "rental_uris": {"android": "https://dc.lft.to/lastmile_qr_scan", "ios": "https://dc.lft.to/lastmile_qr_scan"}, "fusion_lon": 0.0, "lat": 38.8984655, "bike_id": "220506e7f3b6aa9c2ca49ded4d8f0595", "type": "electric_scooter", "is_reserved": 0, "lon": -77.03157033333333}, {"fusion_lat": 0.0, "name": "a7d58c25f87a28d187f05368d12ab84a", "is_disabled": 0, "rental_uris": {"android": "https://dc.lft.to/lastmile_qr_scan", "ios": "https://dc.lft.to/lastmile_qr_scan"}, "fusion_lon": 0.0, "lat": 38.87492116666667, "bike_id": "a7d58c25f87a28d187f05368d12ab84a", "type": "electric_bike", "is_reserved": 0, "lon": -77.21124366666666}, {"fusion_lat": 0.0, "name": "901c86b3c350009f98703e494ec6d4bf", "is_disabled": 0, "rental_uris": {"android": "https://dc.lft.to/lastmile_qr_scan", "ios": "https://dc.lft.to/lastmile_qr_scan"}, "fusion_lon": 0.0, "lat": 38.948286833333334, "bike_id": "901c86b3c350009f98703e494ec6d4bf", "type": "electric_scooter", "is_reserved": 0, "lon": -77.08002583333334}, {"fusion_lat": 0.0, "name": "f80901212d25950fa2e410163ac01dff", "is_disabled": 0, "rental_uris": {"android": "https://dc.lft.to/lastmile_qr_scan", "ios": "https://dc.lft.to/lastmile_qr_scan"}, "fusion_lon": 0.0, "lat": 38.8900275, "bike_id": "f80901212d25950fa2e410163ac01dff", "type": "electric_scooter", "is_reserved": 0, "lon": -76.937394}, {"fusion_lat": 0.0, "name": "36244378092dbff292f3dd3668f0043a", "is_disabled": 0, "rental_uris": {"android": "https://dc.lft.to/lastmile_qr_scan", "ios": "https://dc.lft.to/lastmile_qr_scan"}, "fusion_lon": 0.0, "lat": 38.928242, "bike_id": "36244378092dbff292f3dd3668f0043a", "type": "electric_scooter", "is_reserved": 0, "lon": -77.02261033333333}, {"fusion_lat": 0.0, "name": "9712a46c9801f2b0d66a8d589501ea40", "is_disabled": 0, "rental_uris": {"android": "https://dc.lft.to/lastmile_qr_scan", "ios": "https://dc.lft.to/lastmile_qr_scan"}, "fusion_lon": 0.0, "lat": 38.923279666666666, "bike_id": "9712a46c9801f2b0d66a8d589501ea40", "type": "electric_scooter", "is_reserved": 0, "lon": -77.0296795}, {"fusion_lat": 0.0, "name": "16ccd1aa2a0c44bfeb3e95e2b71f3c49", "is_disabled": 0, "rental_uris": {"android": "https://dc.lft.to/lastmile_qr_scan", "ios": "https://dc.lft.to/lastmile_qr_scan"}, "fusion_lon": 0.0, "lat": 38.92676016666667, "bike_id": "16ccd1aa2a0c44bfeb3e95e2b71f3c49", "type": "electric_scooter", "is_reserved": 0, "lon": -77.0363605}, {"fusion_lat": 0.0, "name": "a8f35d99a114f1039421dd422be5b563", "is_disabled": 0, "rental_uris": {"android": "https://dc.lft.to/lastmile_qr_scan", "ios": "https://dc.lft.to/lastmile_qr_scan"}, "fusion_lon": 0.0, "lat": 38.877504, "bike_id": "a8f35d99a114f1039421dd422be5b563", "type": "electric_scooter", "is_reserved": 0, "lon": -77.00264466666667}, {"fusion_lat": 0.0, "name": "209b98499802c047c2e1fc2b79bfdbbd", "is_disabled": 0, "rental_uris": {"android": "https://dc.lft.to/lastmile_qr_scan", "ios": "https://dc.lft.to/lastmile_qr_scan"}, "fusion_lon": 0.0, "lat": 38.896981, "bike_id": "209b98499802c047c2e1fc2b79bfdbbd", "type": "electric_scooter", "is_reserved": 0, "lon": -77.043484}, {"fusion_lat": 0.0, "name": "3dd9d7436402e2233fffac213b681b74", "is_disabled": 0, "rental_uris": {"android": "https://dc.lft.to/lastmile_qr_scan", "ios": "https://dc.lft.to/lastmile_qr_scan"}, "fusion_lon": 0.0, "lat": 38.94620533333333, "bike_id": "3dd9d7436402e2233fffac213b681b74", "type": "electric_scooter", "is_reserved": 0, "lon": -77.08018233333334}, {"fusion_lat": 0.0, "name": "d1136106b0e6411273d8d60a3db1d66a", "is_disabled": 0, "rental_uris": {"android": "https://dc.lft.to/lastmile_qr_scan", "ios": "https://dc.lft.to/lastmile_qr_scan"}, "fusion_lon": 0.0, "lat": 38.922728666666664, "bike_id": "d1136106b0e6411273d8d60a3db1d66a", "type": "electric_scooter", "is_reserved": 0, "lon": -77.02968416666667}, {"fusion_lat": 0.0, "name": "82c010abe259d7fc269be148f5ef2f76", "is_disabled": 0, "rental_uris": {"android": "https://dc.lft.to/lastmile_qr_scan", "ios": "https://dc.lft.to/lastmile_qr_scan"}, "fusion_lon": 0.0, "lat": 38.91564966666667, "bike_id": "82c010abe259d7fc269be148f5ef2f76", "type": "electric_scooter", "is_reserved": 0, "lon": -77.0317795}, {"fusion_lat": 0.0, "name": "9baa4be77369c0984d2edaa1e9ef818d", "is_disabled": 0, "rental_uris": {"android": "https://dc.lft.to/lastmile_qr_scan", "ios": "https://dc.lft.to/lastmile_qr_scan"}, "fusion_lon": 0.0, "lat": 38.95890516666667, "bike_id": "9baa4be77369c0984d2edaa1e9ef818d", "type": "electric_bike", "is_reserved": 0, "lon": -76.92471233333333}, {"fusion_lat": 0.0, "name": "cf37402172c4cb8c62355d8a58875a55", "is_disabled": 0, "rental_uris": {"android": "https://dc.lft.to/lastmile_qr_scan", "ios": "https://dc.lft.to/lastmile_qr_scan"}, "fusion_lon": 0.0, "lat": 38.896137833333334, "bike_id": "cf37402172c4cb8c62355d8a58875a55", "type": "electric_bike", "is_reserved": 0, "lon": -76.90742983333334}, {"fusion_lat": 0.0, "name": "6c9ac4fc0291463d4c6baec84bd831d9", "is_disabled": 0, "rental_uris": {"android": "https://dc.lft.to/lastmile_qr_scan", "ios": "https://dc.lft.to/lastmile_qr_scan"}, "fusion_lon": 0.0, "lat": 38.8461325, "bike_id": "6c9ac4fc0291463d4c6baec84bd831d9", "type": "electric_bike", "is_reserved": 0, "lon": -76.96908466666666}, {"fusion_lat": 0.0, "name": "060df7db94b288afcf66f1fe83f5c2c2", "is_disabled": 0, "rental_uris": {"android": "https://dc.lft.to/lastmile_qr_scan", "ios": "https://dc.lft.to/lastmile_qr_scan"}, "fusion_lon": 0.0, "lat": 38.915186166666665, "bike_id": "060df7db94b288afcf66f1fe83f5c2c2", "type": "electric_scooter", "is_reserved": 0, "lon": -77.075595}, {"fusion_lat": 0.0, "name": "71d11b52e26d106ff8a05fb9b0a32a38", "is_disabled": 0, "rental_uris": {"android": "https://dc.lft.to/lastmile_qr_scan", "ios": "https://dc.lft.to/lastmile_qr_scan"}, "fusion_lon": 0.0, "lat": 38.92250833333333, "bike_id": "71d11b52e26d106ff8a05fb9b0a32a38", "type": "electric_scooter", "is_reserved": 0, "lon": -77.029732}, {"fusion_lat": 0.0, "name": "e5d858fde5aa363fe34e0309ee97b6f4", "is_disabled": 0, "rental_uris": {"android": "https://dc.lft.to/lastmile_qr_scan", "ios": "https://dc.lft.to/lastmile_qr_scan"}, "fusion_lon": 0.0, "lat": 38.91117233333333, "bike_id": "e5d858fde5aa363fe34e0309ee97b6f4", "type": "electric_scooter", "is_reserved": 0, "lon": -77.00666266666667}, {"fusion_lat": 0.0, "name": "7f3af8fa7fd049b62b013600b1760b97", "is_disabled": 0, "rental_uris": {"android": "https://dc.lft.to/lastmile_qr_scan", "ios": "https://dc.lft.to/lastmile_qr_scan"}, "fusion_lon": 0.0, "lat": 38.8976475, "bike_id": "7f3af8fa7fd049b62b013600b1760b97", "type": "electric_scooter", "is_reserved": 0, "lon": -76.94769383333333}, {"fusion_lat": 0.0, "name": "07b25e97a883e1748a387cf6e1a7c8b6", "is_disabled": 0, "rental_uris": {"android": "https://dc.lft.to/lastmile_qr_scan", "ios": "https://dc.lft.to/lastmile_qr_scan"}, "fusion_lon": 0.0, "lat": 38.889134166666665, "bike_id": "07b25e97a883e1748a387cf6e1a7c8b6", "type": "electric_bike", "is_reserved": 0, "lon": -77.0493295}, {"fusion_lat": 0.0, "name": "f3f80c67d05f3e08ff3370830227ca49", "is_disabled": 0, "rental_uris": {"android": "https://dc.lft.to/lastmile_qr_scan", "ios": "https://dc.lft.to/lastmile_qr_scan"}, "fusion_lon": 0.0, "lat": 38.89351766666667, "bike_id": "f3f80c67d05f3e08ff3370830227ca49", "type": "electric_bike", "is_reserved": 0, "lon": -77.187441}, {"fusion_lat": 0.0, "name": "d3aaaa7d5bedaba44e459634a807f630", "is_disabled": 0, "rental_uris": {"android": "https://dc.lft.to/lastmile_qr_scan", "ios": "https://dc.lft.to/lastmile_qr_scan"}, "fusion_lon": 0.0, "lat": 38.93068783333333, "bike_id": "d3aaaa7d5bedaba44e459634a807f630", "type": "electric_scooter", "is_reserved": 0, "lon": -77.0195795}, {"fusion_lat": 0.0, "name": "ced7b507df4c6c81511dd4ad6e831443", "is_disabled": 0, "rental_uris": {"android": "https://dc.lft.to/lastmile_qr_scan", "ios": "https://dc.lft.to/lastmile_qr_scan"}, "fusion_lon": 0.0, "lat": 38.96226433333333, "bike_id": "ced7b507df4c6c81511dd4ad6e831443", "type": "electric_bike", "is_reserved": 0, "lon": -76.92761383333334}, {"fusion_lat": 0.0, "name": "513fe45e5b160a2121d01b4f32a080ab", "is_disabled": 0, "rental_uris": {"android": "https://dc.lft.to/lastmile_qr_scan", "ios": "https://dc.lft.to/lastmile_qr_scan"}, "fusion_lon": 0.0, "lat": 38.94949916666667, "bike_id": "513fe45e5b160a2121d01b4f32a080ab", "type": "electric_scooter", "is_reserved": 0, "lon": -77.02311516666667}, {"fusion_lat": 0.0, "name": "f2ffba8726aeef48dce9c8f5bfccf514", "is_disabled": 0, "rental_uris": {"android": "https://dc.lft.to/lastmile_qr_scan", "ios": "https://dc.lft.to/lastmile_qr_scan"}, "fusion_lon": 0.0, "lat": 38.8942805, "bike_id": "f2ffba8726aeef48dce9c8f5bfccf514", "type": "electric_scooter", "is_reserved": 0, "lon": -77.00105366666666}, {"fusion_lat": 0.0, "name": "9d579aaee27345bc01794ab9ee9f10f0", "is_disabled": 0, "rental_uris": {"android": "https://dc.lft.to/lastmile_qr_scan", "ios": "https://dc.lft.to/lastmile_qr_scan"}, "fusion_lon": 0.0, "lat": 38.89247966666667, "bike_id": "9d579aaee27345bc01794ab9ee9f10f0", "type": "electric_bike", "is_reserved": 0, "lon": -76.985433}, {"fusion_lat": 0.0, "name": "af4f3a7d3f0b80e90159e8e8877efc3a", "is_disabled": 0, "rental_uris": {"android": "https://dc.lft.to/lastmile_qr_scan", "ios": "https://dc.lft.to/lastmile_qr_scan"}, "fusion_lon": 0.0, "lat": 38.88906216666667, "bike_id": "af4f3a7d3f0b80e90159e8e8877efc3a", "type": "electric_scooter", "is_reserved": 0, "lon": -76.99204316666666}, {"fusion_lat": 0.0, "name": "0481a1f389ba5f6464802c3acb5fd183", "is_disabled": 0, "rental_uris": {"android": "https://dc.lft.to/lastmile_qr_scan", "ios": "https://dc.lft.to/lastmile_qr_scan"}, "fusion_lon": 0.0, "lat": 38.898418666666664, "bike_id": "0481a1f389ba5f6464802c3acb5fd183", "type": "electric_scooter", "is_reserved": 0, "lon": -76.94626933333333}, {"fusion_lat": 0.0, "name": "d2a672fc5ec1281205cb16fd6d70ff1e", "is_disabled": 0, "rental_uris": {"android": "https://dc.lft.to/lastmile_qr_scan", "ios": "https://dc.lft.to/lastmile_qr_scan"}, "fusion_lon": 0.0, "lat": 38.97521916666667, "bike_id": "d2a672fc5ec1281205cb16fd6d70ff1e", "type": "electric_scooter", "is_reserved": 0, "lon": -77.01735983333333}, {"fusion_lat": 0.0, "name": "e86ef473e0666391d98796f448db1d91", "is_disabled": 0, "rental_uris": {"android": "https://dc.lft.to/lastmile_qr_scan", "ios": "https://dc.lft.to/lastmile_qr_scan"}, "fusion_lon": 0.0, "lat": 38.91769033333333, "bike_id": "e86ef473e0666391d98796f448db1d91", "type": "electric_scooter", "is_reserved": 0, "lon": -77.02284483333334}, {"fusion_lat": 0.0, "name": "9ccd2b429913652cea71dfb990140f09", "is_disabled": 0, "rental_uris": {"android": "https://dc.lft.to/lastmile_qr_scan", "ios": "https://dc.lft.to/lastmile_qr_scan"}, "fusion_lon": 0.0, "lat": 38.92357766666667, "bike_id": "9ccd2b429913652cea71dfb990140f09", "type": "electric_scooter", "is_reserved": 0, "lon": -77.0336845}, {"fusion_lat": 0.0, "name": "f4a6cb8e1e0ac303773828a2d4f1da74", "is_disabled": 0, "rental_uris": {"android": "https://dc.lft.to/lastmile_qr_scan", "ios": "https://dc.lft.to/lastmile_qr_scan"}, "fusion_lon": 0.0, "lat": 38.90369033333333, "bike_id": "f4a6cb8e1e0ac303773828a2d4f1da74", "type": "electric_bike", "is_reserved": 0, "lon": -76.97922466666667}, {"fusion_lat": 0.0, "name": "423c33c5a9c94f50c4716435a8cde378", "is_disabled": 0, "rental_uris": {"android": "https://dc.lft.to/lastmile_qr_scan", "ios": "https://dc.lft.to/lastmile_qr_scan"}, "fusion_lon": 0.0, "lat": 38.93598816666667, "bike_id": "423c33c5a9c94f50c4716435a8cde378", "type": "electric_scooter", "is_reserved": 0, "lon": -77.0241785}, {"fusion_lat": 0.0, "name": "0ed950b7d6d7dfc354f209ec693c57f2", "is_disabled": 0, "rental_uris": {"android": "https://dc.lft.to/lastmile_qr_scan", "ios": "https://dc.lft.to/lastmile_qr_scan"}, "fusion_lon": 0.0, "lat": 38.943065, "bike_id": "0ed950b7d6d7dfc354f209ec693c57f2", "type": "electric_scooter", "is_reserved": 0, "lon": -77.06063366666666}, {"fusion_lat": 0.0, "name": "6ddf7801c7cbcee6728a2a78276f0518", "is_disabled": 0, "rental_uris": {"android": "https://dc.lft.to/lastmile_qr_scan", "ios": "https://dc.lft.to/lastmile_qr_scan"}, "fusion_lon": 0.0, "lat": 38.90728633333333, "bike_id": "6ddf7801c7cbcee6728a2a78276f0518", "type": "electric_scooter", "is_reserved": 0, "lon": -77.02967366666667}, {"fusion_lat": 0.0, "name": "ed64177edc70acffed4d30bc0b549397", "is_disabled": 0, "rental_uris": {"android": "https://dc.lft.to/lastmile_qr_scan", "ios": "https://dc.lft.to/lastmile_qr_scan"}, "fusion_lon": 0.0, "lat": 38.96129283333333, "bike_id": "ed64177edc70acffed4d30bc0b549397", "type": "electric_scooter", "is_reserved": 0, "lon": -77.02783083333334}, {"fusion_lat": 0.0, "name": "9449cc8878cafe49aa59d34f3d85bab4", "is_disabled": 0, "rental_uris": {"android": "https://dc.lft.to/lastmile_qr_scan", "ios": "https://dc.lft.to/lastmile_qr_scan"}, "fusion_lon": 0.0, "lat": 38.910321333333336, "bike_id": "9449cc8878cafe49aa59d34f3d85bab4", "type": "electric_scooter", "is_reserved": 0, "lon": -77.0151375}, {"fusion_lat": 0.0, "name": "469c7f99978b085e5eaec9e241e43e9a", "is_disabled": 0, "rental_uris": {"android": "https://dc.lft.to/lastmile_qr_scan", "ios": "https://dc.lft.to/lastmile_qr_scan"}, "fusion_lon": 0.0, "lat": 38.9229875, "bike_id": "469c7f99978b085e5eaec9e241e43e9a", "type": "electric_scooter", "is_reserved": 0, "lon": -77.04269316666667}, {"fusion_lat": 0.0, "name": "17c99f932b5bbdd130f8c5d8595262fc", "is_disabled": 0, "rental_uris": {"android": "https://dc.lft.to/lastmile_qr_scan", "ios": "https://dc.lft.to/lastmile_qr_scan"}, "fusion_lon": 0.0, "lat": 38.920327, "bike_id": "17c99f932b5bbdd130f8c5d8595262fc", "type": "electric_scooter", "is_reserved": 0, "lon": -77.01024466666667}, {"fusion_lat": 0.0, "name": "6b830eab6be62efefae677289e614215", "is_disabled": 0, "rental_uris": {"android": "https://dc.lft.to/lastmile_qr_scan", "ios": "https://dc.lft.to/lastmile_qr_scan"}, "fusion_lon": 0.0, "lat": 38.9183865, "bike_id": "6b830eab6be62efefae677289e614215", "type": "electric_scooter", "is_reserved": 0, "lon": -77.02299366666666}, {"fusion_lat": 0.0, "name": "bb00fea2bdbf6f432e47d89a79b209fa", "is_disabled": 0, "rental_uris": {"android": "https://dc.lft.to/lastmile_qr_scan", "ios": "https://dc.lft.to/lastmile_qr_scan"}, "fusion_lon": 0.0, "lat": 38.9236065, "bike_id": "bb00fea2bdbf6f432e47d89a79b209fa", "type": "electric_scooter", "is_reserved": 0, "lon": -77.05051533333334}, {"fusion_lat": 0.0, "name": "baf7eff8bcc2c4ad6a857c9c4aac710d", "is_disabled": 0, "rental_uris": {"android": "https://dc.lft.to/lastmile_qr_scan", "ios": "https://dc.lft.to/lastmile_qr_scan"}, "fusion_lon": 0.0, "lat": 38.88530166666666, "bike_id": "baf7eff8bcc2c4ad6a857c9c4aac710d", "type": "electric_scooter", "is_reserved": 0, "lon": -77.01529383333333}, {"fusion_lat": 0.0, "name": "efa2f2e352f4e7778d70543101a7d363", "is_disabled": 0, "rental_uris": {"android": "https://dc.lft.to/lastmile_qr_scan", "ios": "https://dc.lft.to/lastmile_qr_scan"}, "fusion_lon": 0.0, "lat": 38.92319716666667, "bike_id": "efa2f2e352f4e7778d70543101a7d363", "type": "electric_scooter", "is_reserved": 0, "lon": -77.026945}, {"fusion_lat": 0.0, "name": "fd6b64b3b243683ccb23c01a8d8ddccb", "is_disabled": 0, "rental_uris": {"android": "https://dc.lft.to/lastmile_qr_scan", "ios": "https://dc.lft.to/lastmile_qr_scan"}, "fusion_lon": 0.0, "lat": 38.93648533333333, "bike_id": "fd6b64b3b243683ccb23c01a8d8ddccb", "type": "electric_scooter", "is_reserved": 0, "lon": -77.03049133333333}, {"fusion_lat": 0.0, "name": "bac00fe88093405ff797f30424dd2e0a", "is_disabled": 0, "rental_uris": {"android": "https://dc.lft.to/lastmile_qr_scan", "ios": "https://dc.lft.to/lastmile_qr_scan"}, "fusion_lon": 0.0, "lat": 38.92078083333333, "bike_id": "bac00fe88093405ff797f30424dd2e0a", "type": "electric_bike", "is_reserved": 0, "lon": -76.9894705}, {"fusion_lat": 0.0, "name": "93c4ee68ec95b2f76d63505f9d32afe3", "is_disabled": 0, "rental_uris": {"android": "https://dc.lft.to/lastmile_qr_scan", "ios": "https://dc.lft.to/lastmile_qr_scan"}, "fusion_lon": 0.0, "lat": 38.9024925, "bike_id": "93c4ee68ec95b2f76d63505f9d32afe3", "type": "electric_scooter", "is_reserved": 0, "lon": -77.05935966666667}, {"fusion_lat": 0.0, "name": "38ee5397ad3687040c6d47965856743d", "is_disabled": 0, "rental_uris": {"android": "https://dc.lft.to/lastmile_qr_scan", "ios": "https://dc.lft.to/lastmile_qr_scan"}, "fusion_lon": 0.0, "lat": 38.918047, "bike_id": "38ee5397ad3687040c6d47965856743d", "type": "electric_scooter", "is_reserved": 0, "lon": -77.0444595}, {"fusion_lat": 0.0, "name": "f5599d38545eb0f6ac0fcdf8a889ffa1", "is_disabled": 0, "rental_uris": {"android": "https://dc.lft.to/lastmile_qr_scan", "ios": "https://dc.lft.to/lastmile_qr_scan"}, "fusion_lon": 0.0, "lat": 38.89506466666667, "bike_id": "f5599d38545eb0f6ac0fcdf8a889ffa1", "type": "electric_scooter", "is_reserved": 0, "lon": -77.021778}, {"fusion_lat": 0.0, "name": "1c569d4378613e408c64d793e5b29cba", "is_disabled": 0, "rental_uris": {"android": "https://dc.lft.to/lastmile_qr_scan", "ios": "https://dc.lft.to/lastmile_qr_scan"}, "fusion_lon": 0.0, "lat": 38.942264333333334, "bike_id": "1c569d4378613e408c64d793e5b29cba", "type": "electric_scooter", "is_reserved": 0, "lon": -77.01384566666667}, {"fusion_lat": 0.0, "name": "061967d3f57770fd079267b0b76cfd57", "is_disabled": 0, "rental_uris": {"android": "https://dc.lft.to/lastmile_qr_scan", "ios": "https://dc.lft.to/lastmile_qr_scan"}, "fusion_lon": 0.0, "lat": 38.93715316666667, "bike_id": "061967d3f57770fd079267b0b76cfd57", "type": "electric_scooter", "is_reserved": 0, "lon": -77.02451116666667}, {"fusion_lat": 0.0, "name": "cae7b10bb2e55ba0da2fcff067111405", "is_disabled": 0, "rental_uris": {"android": "https://dc.lft.to/lastmile_qr_scan", "ios": "https://dc.lft.to/lastmile_qr_scan"}, "fusion_lon": 0.0, "lat": 38.89831233333334, "bike_id": "cae7b10bb2e55ba0da2fcff067111405", "type": "electric_scooter", "is_reserved": 0, "lon": -77.04681216666667}, {"fusion_lat": 0.0, "name": "98ab5f7414464c5293cddec707c4d1f7", "is_disabled": 0, "rental_uris": {"android": "https://dc.lft.to/lastmile_qr_scan", "ios": "https://dc.lft.to/lastmile_qr_scan"}, "fusion_lon": 0.0, "lat": 38.842832, "bike_id": "98ab5f7414464c5293cddec707c4d1f7", "type": "electric_bike", "is_reserved": 0, "lon": -77.04496}, {"fusion_lat": 0.0, "name": "71f3df8470f3c42aeb66c79fea1f9eab", "is_disabled": 0, "rental_uris": {"android": "https://dc.lft.to/lastmile_qr_scan", "ios": "https://dc.lft.to/lastmile_qr_scan"}, "fusion_lon": 0.0, "lat": 38.8848715, "bike_id": "71f3df8470f3c42aeb66c79fea1f9eab", "type": "electric_scooter", "is_reserved": 0, "lon": -77.00710166666667}, {"fusion_lat": 0.0, "name": "8ff62fb3f0739cc1c88e76ee20a15a2d", "is_disabled": 0, "rental_uris": {"android": "https://dc.lft.to/lastmile_qr_scan", "ios": "https://dc.lft.to/lastmile_qr_scan"}, "fusion_lon": 0.0, "lat": 38.92250516666667, "bike_id": "8ff62fb3f0739cc1c88e76ee20a15a2d", "type": "electric_scooter", "is_reserved": 0, "lon": -77.04210466666666}, {"fusion_lat": 0.0, "name": "87d45a96eb3a66cf484ea3ed05c75b5e", "is_disabled": 0, "rental_uris": {"android": "https://dc.lft.to/lastmile_qr_scan", "ios": "https://dc.lft.to/lastmile_qr_scan"}, "fusion_lon": 0.0, "lat": 38.900036166666666, "bike_id": "87d45a96eb3a66cf484ea3ed05c75b5e", "type": "electric_scooter", "is_reserved": 0, "lon": -76.93150666666666}, {"fusion_lat": 0.0, "name": "3c6ce24df7491229e62dcdab70f7ca99", "is_disabled": 0, "rental_uris": {"android": "https://dc.lft.to/lastmile_qr_scan", "ios": "https://dc.lft.to/lastmile_qr_scan"}, "fusion_lon": 0.0, "lat": 38.91536, "bike_id": "3c6ce24df7491229e62dcdab70f7ca99", "type": "electric_scooter", "is_reserved": 0, "lon": -77.03207266666666}, {"fusion_lat": 0.0, "name": "c39562659e71c43c33478dd092883ca3", "is_disabled": 0, "rental_uris": {"android": "https://dc.lft.to/lastmile_qr_scan", "ios": "https://dc.lft.to/lastmile_qr_scan"}, "fusion_lon": 0.0, "lat": 38.89731066666667, "bike_id": "c39562659e71c43c33478dd092883ca3", "type": "electric_scooter", "is_reserved": 0, "lon": -77.04349766666667}, {"fusion_lat": 0.0, "name": "791b1a14c7af2ee9c617697cdad08d1c", "is_disabled": 0, "rental_uris": {"android": "https://dc.lft.to/lastmile_qr_scan", "ios": "https://dc.lft.to/lastmile_qr_scan"}, "fusion_lon": 0.0, "lat": 38.93527433333333, "bike_id": "791b1a14c7af2ee9c617697cdad08d1c", "type": "electric_scooter", "is_reserved": 0, "lon": -77.03658783333333}, {"fusion_lat": 0.0, "name": "a534f72ca6ea1302743f4b3dde15e9be", "is_disabled": 0, "rental_uris": {"android": "https://dc.lft.to/lastmile_qr_scan", "ios": "https://dc.lft.to/lastmile_qr_scan"}, "fusion_lon": 0.0, "lat": 38.9284025, "bike_id": "a534f72ca6ea1302743f4b3dde15e9be", "type": "electric_scooter", "is_reserved": 0, "lon": -77.03278566666667}, {"fusion_lat": 0.0, "name": "df9763402c23c7687d70fdb42a99f5ef", "is_disabled": 0, "rental_uris": {"android": "https://dc.lft.to/lastmile_qr_scan", "ios": "https://dc.lft.to/lastmile_qr_scan"}, "fusion_lon": 0.0, "lat": 38.900135, "bike_id": "df9763402c23c7687d70fdb42a99f5ef", "type": "electric_scooter", "is_reserved": 0, "lon": -77.00692033333333}, {"fusion_lat": 0.0, "name": "d5d2cfb73a72122928b846197573b7ef", "is_disabled": 0, "rental_uris": {"android": "https://dc.lft.to/lastmile_qr_scan", "ios": "https://dc.lft.to/lastmile_qr_scan"}, "fusion_lon": 0.0, "lat": 38.93456833333333, "bike_id": "d5d2cfb73a72122928b846197573b7ef", "type": "electric_scooter", "is_reserved": 0, "lon": -77.04123416666667}, {"fusion_lat": 0.0, "name": "e125e4db5e1ca993799e91e77d3d87b2", "is_disabled": 0, "rental_uris": {"android": "https://dc.lft.to/lastmile_qr_scan", "ios": "https://dc.lft.to/lastmile_qr_scan"}, "fusion_lon": 0.0, "lat": 38.86681266666667, "bike_id": "e125e4db5e1ca993799e91e77d3d87b2", "type": "electric_scooter", "is_reserved": 0, "lon": -76.98562433333333}, {"fusion_lat": 0.0, "name": "e23cafe67e6bef977d1a22e60d48e123", "is_disabled": 0, "rental_uris": {"android": "https://dc.lft.to/lastmile_qr_scan", "ios": "https://dc.lft.to/lastmile_qr_scan"}, "fusion_lon": 0.0, "lat": 38.910448333333335, "bike_id": "e23cafe67e6bef977d1a22e60d48e123", "type": "electric_scooter", "is_reserved": 0, "lon": -77.034389}, {"fusion_lat": 0.0, "name": "1482e5820e5948479078e2893352bdec", "is_disabled": 0, "rental_uris": {"android": "https://dc.lft.to/lastmile_qr_scan", "ios": "https://dc.lft.to/lastmile_qr_scan"}, "fusion_lon": 0.0, "lat": 38.842762, "bike_id": "1482e5820e5948479078e2893352bdec", "type": "electric_bike", "is_reserved": 0, "lon": -76.9884285}, {"fusion_lat": 0.0, "name": "58ba8e2d13db9f53e9874c2fcb543b07", "is_disabled": 0, "rental_uris": {"android": "https://dc.lft.to/lastmile_qr_scan", "ios": "https://dc.lft.to/lastmile_qr_scan"}, "fusion_lon": 0.0, "lat": 38.92454983333333, "bike_id": "58ba8e2d13db9f53e9874c2fcb543b07", "type": "electric_scooter", "is_reserved": 0, "lon": -77.02411116666667}, {"fusion_lat": 0.0, "name": "33e376fdb44f8ffd578676e244055c4d", "is_disabled": 0, "rental_uris": {"android": "https://dc.lft.to/lastmile_qr_scan", "ios": "https://dc.lft.to/lastmile_qr_scan"}, "fusion_lon": 0.0, "lat": 38.9336855, "bike_id": "33e376fdb44f8ffd578676e244055c4d", "type": "electric_scooter", "is_reserved": 0, "lon": -77.030818}, {"fusion_lat": 0.0, "name": "10093a0cefc44b9bbed3035364693293", "is_disabled": 0, "rental_uris": {"android": "https://dc.lft.to/lastmile_qr_scan", "ios": "https://dc.lft.to/lastmile_qr_scan"}, "fusion_lon": 0.0, "lat": 38.922549, "bike_id": "10093a0cefc44b9bbed3035364693293", "type": "electric_bike", "is_reserved": 0, "lon": -77.07032466666666}, {"fusion_lat": 0.0, "name": "a7dcf681a5369eb17b309ccb12d13f8f", "is_disabled": 0, "rental_uris": {"android": "https://dc.lft.to/lastmile_qr_scan", "ios": "https://dc.lft.to/lastmile_qr_scan"}, "fusion_lon": 0.0, "lat": 38.9206725, "bike_id": "a7dcf681a5369eb17b309ccb12d13f8f", "type": "electric_scooter", "is_reserved": 0, "lon": -77.04215533333333}, {"fusion_lat": 0.0, "name": "e56efe887de8d59363c01766b85ee914", "is_disabled": 0, "rental_uris": {"android": "https://dc.lft.to/lastmile_qr_scan", "ios": "https://dc.lft.to/lastmile_qr_scan"}, "fusion_lon": 0.0, "lat": 38.91134266666667, "bike_id": "e56efe887de8d59363c01766b85ee914", "type": "electric_scooter", "is_reserved": 0, "lon": -77.0220245}, {"fusion_lat": 0.0, "name": "d52a120eac67bfdda85cb9dcc59ccac2", "is_disabled": 0, "rental_uris": {"android": "https://dc.lft.to/lastmile_qr_scan", "ios": "https://dc.lft.to/lastmile_qr_scan"}, "fusion_lon": 0.0, "lat": 38.908563666666666, "bike_id": "d52a120eac67bfdda85cb9dcc59ccac2", "type": "electric_scooter", "is_reserved": 0, "lon": -77.04397616666667}, {"fusion_lat": 0.0, "name": "368a9133246597cdc1b948975d9efbec", "is_disabled": 0, "rental_uris": {"android": "https://dc.lft.to/lastmile_qr_scan", "ios": "https://dc.lft.to/lastmile_qr_scan"}, "fusion_lon": 0.0, "lat": 38.92025316666667, "bike_id": "368a9133246597cdc1b948975d9efbec", "type": "electric_scooter", "is_reserved": 0, "lon": -77.03072533333334}, {"fusion_lat": 0.0, "name": "c280ebcf7d539740877e0bbd4956008d", "is_disabled": 0, "rental_uris": {"android": "https://dc.lft.to/lastmile_qr_scan", "ios": "https://dc.lft.to/lastmile_qr_scan"}, "fusion_lon": 0.0, "lat": 38.917589, "bike_id": "c280ebcf7d539740877e0bbd4956008d", "type": "electric_scooter", "is_reserved": 0, "lon": -77.02386833333334}, {"fusion_lat": 0.0, "name": "00cc6ebc380db6e8be6688d0cd45ac76", "is_disabled": 0, "rental_uris": {"android": "https://dc.lft.to/lastmile_qr_scan", "ios": "https://dc.lft.to/lastmile_qr_scan"}, "fusion_lon": 0.0, "lat": 38.9181755, "bike_id": "00cc6ebc380db6e8be6688d0cd45ac76", "type": "electric_scooter", "is_reserved": 0, "lon": -77.03272216666667}, {"fusion_lat": 0.0, "name": "684122c0d9a3ba6ef11a94746fcc6a5a", "is_disabled": 0, "rental_uris": {"android": "https://dc.lft.to/lastmile_qr_scan", "ios": "https://dc.lft.to/lastmile_qr_scan"}, "fusion_lon": 0.0, "lat": 38.916672, "bike_id": "684122c0d9a3ba6ef11a94746fcc6a5a", "type": "electric_scooter", "is_reserved": 0, "lon": -77.04200616666667}, {"fusion_lat": 0.0, "name": "516d12a0505732e9539d237dbc7d5c84", "is_disabled": 0, "rental_uris": {"android": "https://dc.lft.to/lastmile_qr_scan", "ios": "https://dc.lft.to/lastmile_qr_scan"}, "fusion_lon": 0.0, "lat": 38.93461033333333, "bike_id": "516d12a0505732e9539d237dbc7d5c84", "type": "electric_scooter", "is_reserved": 0, "lon": -77.0577975}, {"fusion_lat": 0.0, "name": "0847f5e43d1fa3ed85e4b114adc6b729", "is_disabled": 0, "rental_uris": {"android": "https://dc.lft.to/lastmile_qr_scan", "ios": "https://dc.lft.to/lastmile_qr_scan"}, "fusion_lon": 0.0, "lat": 38.89738783333333, "bike_id": "0847f5e43d1fa3ed85e4b114adc6b729", "type": "electric_scooter", "is_reserved": 0, "lon": -77.03208033333334}, {"fusion_lat": 0.0, "name": "fd063afa08fccd462c1ed9a64ec19e71", "is_disabled": 0, "rental_uris": {"android": "https://dc.lft.to/lastmile_qr_scan", "ios": "https://dc.lft.to/lastmile_qr_scan"}, "fusion_lon": 0.0, "lat": 38.935348833333336, "bike_id": "fd063afa08fccd462c1ed9a64ec19e71", "type": "electric_scooter", "is_reserved": 0, "lon": -77.0234875}, {"fusion_lat": 0.0, "name": "7d309c8c25f2d89327962d0fe2ff066b", "is_disabled": 0, "rental_uris": {"android": "https://dc.lft.to/lastmile_qr_scan", "ios": "https://dc.lft.to/lastmile_qr_scan"}, "fusion_lon": 0.0, "lat": 38.9210885, "bike_id": "7d309c8c25f2d89327962d0fe2ff066b", "type": "electric_scooter", "is_reserved": 0, "lon": -77.0468385}, {"fusion_lat": 0.0, "name": "8bbd131bb5a296e8696a2daca73ff543", "is_disabled": 0, "rental_uris": {"android": "https://dc.lft.to/lastmile_qr_scan", "ios": "https://dc.lft.to/lastmile_qr_scan"}, "fusion_lon": 0.0, "lat": 38.912401333333335, "bike_id": "8bbd131bb5a296e8696a2daca73ff543", "type": "electric_scooter", "is_reserved": 0, "lon": -77.04885316666666}, {"fusion_lat": 0.0, "name": "c6b1d42d62cdbaca237c471c01ba4194", "is_disabled": 0, "rental_uris": {"android": "https://dc.lft.to/lastmile_qr_scan", "ios": "https://dc.lft.to/lastmile_qr_scan"}, "fusion_lon": 0.0, "lat": 38.924405666666665, "bike_id": "c6b1d42d62cdbaca237c471c01ba4194", "type": "electric_scooter", "is_reserved": 0, "lon": -77.08040333333334}, {"fusion_lat": 0.0, "name": "4bdf0f102117a1e111562568fd5d1487", "is_disabled": 0, "rental_uris": {"android": "https://dc.lft.to/lastmile_qr_scan", "ios": "https://dc.lft.to/lastmile_qr_scan"}, "fusion_lon": 0.0, "lat": 38.9067565, "bike_id": "4bdf0f102117a1e111562568fd5d1487", "type": "electric_scooter", "is_reserved": 0, "lon": -77.04899583333334}, {"fusion_lat": 0.0, "name": "98d2bfb17c567d7b655983cca8ec5bb3", "is_disabled": 0, "rental_uris": {"android": "https://dc.lft.to/lastmile_qr_scan", "ios": "https://dc.lft.to/lastmile_qr_scan"}, "fusion_lon": 0.0, "lat": 38.92317033333333, "bike_id": "98d2bfb17c567d7b655983cca8ec5bb3", "type": "electric_scooter", "is_reserved": 0, "lon": -77.02960933333334}, {"fusion_lat": 0.0, "name": "610d157415850275cb35b0cb938f5642", "is_disabled": 0, "rental_uris": {"android": "https://dc.lft.to/lastmile_qr_scan", "ios": "https://dc.lft.to/lastmile_qr_scan"}, "fusion_lon": 0.0, "lat": 38.984743, "bike_id": "610d157415850275cb35b0cb938f5642", "type": "electric_scooter", "is_reserved": 0, "lon": -77.026455}, {"fusion_lat": 0.0, "name": "be4c77bf951d28d76ad94ce47703ff6b", "is_disabled": 0, "rental_uris": {"android": "https://dc.lft.to/lastmile_qr_scan", "ios": "https://dc.lft.to/lastmile_qr_scan"}, "fusion_lon": 0.0, "lat": 38.915541166666664, "bike_id": "be4c77bf951d28d76ad94ce47703ff6b", "type": "electric_scooter", "is_reserved": 0, "lon": -77.032217}, {"fusion_lat": 0.0, "name": "002ebc0f91533e11dc6c4cdca83524e7", "is_disabled": 0, "rental_uris": {"android": "https://dc.lft.to/lastmile_qr_scan", "ios": "https://dc.lft.to/lastmile_qr_scan"}, "fusion_lon": 0.0, "lat": 38.9181955, "bike_id": "002ebc0f91533e11dc6c4cdca83524e7", "type": "electric_scooter", "is_reserved": 0, "lon": -77.00260916666667}, {"fusion_lat": 0.0, "name": "d9b740694fb6dac3501b80bd0768c276", "is_disabled": 0, "rental_uris": {"android": "https://dc.lft.to/lastmile_qr_scan", "ios": "https://dc.lft.to/lastmile_qr_scan"}, "fusion_lon": 0.0, "lat": 38.9166275, "bike_id": "d9b740694fb6dac3501b80bd0768c276", "type": "electric_scooter", "is_reserved": 0, "lon": -77.02825566666667}, {"fusion_lat": 0.0, "name": "40f32c3bbbff2393353dfc8efa1b7fef", "is_disabled": 0, "rental_uris": {"android": "https://dc.lft.to/lastmile_qr_scan", "ios": "https://dc.lft.to/lastmile_qr_scan"}, "fusion_lon": 0.0, "lat": 38.936477833333335, "bike_id": "40f32c3bbbff2393353dfc8efa1b7fef", "type": "electric_scooter", "is_reserved": 0, "lon": -77.036961}, {"fusion_lat": 0.0, "name": "65d5f4218bc14563ea5aacff83426c75", "is_disabled": 0, "rental_uris": {"android": "https://dc.lft.to/lastmile_qr_scan", "ios": "https://dc.lft.to/lastmile_qr_scan"}, "fusion_lon": 0.0, "lat": 38.92596966666667, "bike_id": "65d5f4218bc14563ea5aacff83426c75", "type": "electric_scooter", "is_reserved": 0, "lon": -77.025846}, {"fusion_lat": 0.0, "name": "8808838bcb695f38b1870268af2d359f", "is_disabled": 0, "rental_uris": {"android": "https://dc.lft.to/lastmile_qr_scan", "ios": "https://dc.lft.to/lastmile_qr_scan"}, "fusion_lon": 0.0, "lat": 38.9583165, "bike_id": "8808838bcb695f38b1870268af2d359f", "type": "electric_bike", "is_reserved": 0, "lon": -77.0151265}, {"fusion_lat": 0.0, "name": "a73dc0725dfe8877ce56b94bd0da6f2c", "is_disabled": 0, "rental_uris": {"android": "https://dc.lft.to/lastmile_qr_scan", "ios": "https://dc.lft.to/lastmile_qr_scan"}, "fusion_lon": 0.0, "lat": 38.8876485, "bike_id": "a73dc0725dfe8877ce56b94bd0da6f2c", "type": "electric_scooter", "is_reserved": 0, "lon": -76.994694}, {"fusion_lat": 0.0, "name": "c48b47e770489ce2a961a1423b472903", "is_disabled": 0, "rental_uris": {"android": "https://dc.lft.to/lastmile_qr_scan", "ios": "https://dc.lft.to/lastmile_qr_scan"}, "fusion_lon": 0.0, "lat": 38.921563166666665, "bike_id": "c48b47e770489ce2a961a1423b472903", "type": "electric_scooter", "is_reserved": 0, "lon": -77.03662133333333}, {"fusion_lat": 0.0, "name": "5b2169b06179edfadc73894fe1512043", "is_disabled": 0, "rental_uris": {"android": "https://dc.lft.to/lastmile_qr_scan", "ios": "https://dc.lft.to/lastmile_qr_scan"}, "fusion_lon": 0.0, "lat": 38.952913, "bike_id": "5b2169b06179edfadc73894fe1512043", "type": "electric_scooter", "is_reserved": 0, "lon": -76.99898366666666}, {"fusion_lat": 0.0, "name": "a62efba3120fae7545a79cb077a11268", "is_disabled": 0, "rental_uris": {"android": "https://dc.lft.to/lastmile_qr_scan", "ios": "https://dc.lft.to/lastmile_qr_scan"}, "fusion_lon": 0.0, "lat": 38.95404083333333, "bike_id": "a62efba3120fae7545a79cb077a11268", "type": "electric_scooter", "is_reserved": 0, "lon": -77.027481}, {"fusion_lat": 0.0, "name": "d7285ecc2b3f0a3e5dcea9673b0fb13b", "is_disabled": 0, "rental_uris": {"android": "https://dc.lft.to/lastmile_qr_scan", "ios": "https://dc.lft.to/lastmile_qr_scan"}, "fusion_lon": 0.0, "lat": 38.90970816666667, "bike_id": "d7285ecc2b3f0a3e5dcea9673b0fb13b", "type": "electric_scooter", "is_reserved": 0, "lon": -77.00882683333333}, {"fusion_lat": 0.0, "name": "5a4e064aac5e75038bfceb8f53fdefc8", "is_disabled": 0, "rental_uris": {"android": "https://dc.lft.to/lastmile_qr_scan", "ios": "https://dc.lft.to/lastmile_qr_scan"}, "fusion_lon": 0.0, "lat": 38.862446, "bike_id": "5a4e064aac5e75038bfceb8f53fdefc8", "type": "electric_scooter", "is_reserved": 0, "lon": -76.9949775}, {"fusion_lat": 0.0, "name": "5517486afbb3641e40c8f4a0b78d0a47", "is_disabled": 0, "rental_uris": {"android": "https://dc.lft.to/lastmile_qr_scan", "ios": "https://dc.lft.to/lastmile_qr_scan"}, "fusion_lon": 0.0, "lat": 38.9058075, "bike_id": "5517486afbb3641e40c8f4a0b78d0a47", "type": "electric_scooter", "is_reserved": 0, "lon": -77.008812}, {"fusion_lat": 0.0, "name": "5566afa5755978509fd11b11e0e786f3", "is_disabled": 0, "rental_uris": {"android": "https://dc.lft.to/lastmile_qr_scan", "ios": "https://dc.lft.to/lastmile_qr_scan"}, "fusion_lon": 0.0, "lat": 38.918316, "bike_id": "5566afa5755978509fd11b11e0e786f3", "type": "electric_scooter", "is_reserved": 0, "lon": -77.03513483333333}, {"fusion_lat": 0.0, "name": "b44a224277b19817ebda7a353730962b", "is_disabled": 0, "rental_uris": {"android": "https://dc.lft.to/lastmile_qr_scan", "ios": "https://dc.lft.to/lastmile_qr_scan"}, "fusion_lon": 0.0, "lat": 38.9050695, "bike_id": "b44a224277b19817ebda7a353730962b", "type": "electric_scooter", "is_reserved": 0, "lon": -77.063868}, {"fusion_lat": 0.0, "name": "cf0b1f9dacd9317473f4350d515e0987", "is_disabled": 0, "rental_uris": {"android": "https://dc.lft.to/lastmile_qr_scan", "ios": "https://dc.lft.to/lastmile_qr_scan"}, "fusion_lon": 0.0, "lat": 38.90572383333333, "bike_id": "cf0b1f9dacd9317473f4350d515e0987", "type": "electric_scooter", "is_reserved": 0, "lon": -77.034471}, {"fusion_lat": 0.0, "name": "dd78ec30338c62cfb05f3941b874003a", "is_disabled": 0, "rental_uris": {"android": "https://dc.lft.to/lastmile_qr_scan", "ios": "https://dc.lft.to/lastmile_qr_scan"}, "fusion_lon": 0.0, "lat": 38.917049166666665, "bike_id": "dd78ec30338c62cfb05f3941b874003a", "type": "electric_scooter", "is_reserved": 0, "lon": -77.0462225}, {"fusion_lat": 0.0, "name": "88224ef90c4e0d4ca5b7b136d199ad92", "is_disabled": 0, "rental_uris": {"android": "https://dc.lft.to/lastmile_qr_scan", "ios": "https://dc.lft.to/lastmile_qr_scan"}, "fusion_lon": 0.0, "lat": 38.92245316666666, "bike_id": "88224ef90c4e0d4ca5b7b136d199ad92", "type": "electric_scooter", "is_reserved": 0, "lon": -77.07477333333334}, {"fusion_lat": 0.0, "name": "634d1e2ad3b4ae7f8fcf39afb3c8f5c4", "is_disabled": 0, "rental_uris": {"android": "https://dc.lft.to/lastmile_qr_scan", "ios": "https://dc.lft.to/lastmile_qr_scan"}, "fusion_lon": 0.0, "lat": 38.920668666666664, "bike_id": "634d1e2ad3b4ae7f8fcf39afb3c8f5c4", "type": "electric_scooter", "is_reserved": 0, "lon": -77.0425695}, {"fusion_lat": 0.0, "name": "1ee0ff86a99fc1c2f404a06e92b817f2", "is_disabled": 0, "rental_uris": {"android": "https://dc.lft.to/lastmile_qr_scan", "ios": "https://dc.lft.to/lastmile_qr_scan"}, "fusion_lon": 0.0, "lat": 38.935110333333334, "bike_id": "1ee0ff86a99fc1c2f404a06e92b817f2", "type": "electric_scooter", "is_reserved": 0, "lon": -77.03267683333333}, {"fusion_lat": 0.0, "name": "f226f428f55bd6656ba4111c4cfed999", "is_disabled": 0, "rental_uris": {"android": "https://dc.lft.to/lastmile_qr_scan", "ios": "https://dc.lft.to/lastmile_qr_scan"}, "fusion_lon": 0.0, "lat": 38.920136, "bike_id": "f226f428f55bd6656ba4111c4cfed999", "type": "electric_scooter", "is_reserved": 0, "lon": -77.03140533333334}, {"fusion_lat": 0.0, "name": "9b46de9cc44949017e0f0e3edff4a88b", "is_disabled": 0, "rental_uris": {"android": "https://dc.lft.to/lastmile_qr_scan", "ios": "https://dc.lft.to/lastmile_qr_scan"}, "fusion_lon": 0.0, "lat": 38.8133375, "bike_id": "9b46de9cc44949017e0f0e3edff4a88b", "type": "electric_bike", "is_reserved": 0, "lon": -77.05097033333334}, {"fusion_lat": 0.0, "name": "6f99b0a6c8811b58e043b602a898e4c6", "is_disabled": 0, "rental_uris": {"android": "https://dc.lft.to/lastmile_qr_scan", "ios": "https://dc.lft.to/lastmile_qr_scan"}, "fusion_lon": 0.0, "lat": 38.883253, "bike_id": "6f99b0a6c8811b58e043b602a898e4c6", "type": "electric_scooter", "is_reserved": 0, "lon": -77.01769816666666}, {"fusion_lat": 0.0, "name": "da26f9468a6e1f885e46e3501ba0fb6d", "is_disabled": 0, "rental_uris": {"android": "https://dc.lft.to/lastmile_qr_scan", "ios": "https://dc.lft.to/lastmile_qr_scan"}, "fusion_lon": 0.0, "lat": 38.931892166666664, "bike_id": "da26f9468a6e1f885e46e3501ba0fb6d", "type": "electric_bike", "is_reserved": 0, "lon": -77.22925983333333}, {"fusion_lat": 0.0, "name": "46697af880596aca07c027c2c3fb103d", "is_disabled": 0, "rental_uris": {"android": "https://dc.lft.to/lastmile_qr_scan", "ios": "https://dc.lft.to/lastmile_qr_scan"}, "fusion_lon": 0.0, "lat": 38.900370833333334, "bike_id": "46697af880596aca07c027c2c3fb103d", "type": "electric_scooter", "is_reserved": 0, "lon": -77.0023985}, {"fusion_lat": 0.0, "name": "91ab8792893e5b05072d5667e5cd2850", "is_disabled": 0, "rental_uris": {"android": "https://dc.lft.to/lastmile_qr_scan", "ios": "https://dc.lft.to/lastmile_qr_scan"}, "fusion_lon": 0.0, "lat": 38.914232, "bike_id": "91ab8792893e5b05072d5667e5cd2850", "type": "electric_scooter", "is_reserved": 0, "lon": -77.03466}, {"fusion_lat": 0.0, "name": "336fd8baae4262cfe1558ef60e48f893", "is_disabled": 0, "rental_uris": {"android": "https://dc.lft.to/lastmile_qr_scan", "ios": "https://dc.lft.to/lastmile_qr_scan"}, "fusion_lon": 0.0, "lat": 38.92478933333334, "bike_id": "336fd8baae4262cfe1558ef60e48f893", "type": "electric_scooter", "is_reserved": 0, "lon": -77.02627416666667}, {"fusion_lat": 0.0, "name": "747b58547a579cdaf34a3e09d00f5950", "is_disabled": 0, "rental_uris": {"android": "https://dc.lft.to/lastmile_qr_scan", "ios": "https://dc.lft.to/lastmile_qr_scan"}, "fusion_lon": 0.0, "lat": 38.8919795, "bike_id": "747b58547a579cdaf34a3e09d00f5950", "type": "electric_scooter", "is_reserved": 0, "lon": -77.0212645}, {"fusion_lat": 0.0, "name": "b18825c870a5b34bf3ad4fa750d7b0f4", "is_disabled": 0, "rental_uris": {"android": "https://dc.lft.to/lastmile_qr_scan", "ios": "https://dc.lft.to/lastmile_qr_scan"}, "fusion_lon": 0.0, "lat": 38.920832, "bike_id": "b18825c870a5b34bf3ad4fa750d7b0f4", "type": "electric_scooter", "is_reserved": 0, "lon": -76.994762}, {"fusion_lat": 0.0, "name": "f8406323a2c7105b41dbf20901469f4a", "is_disabled": 0, "rental_uris": {"android": "https://dc.lft.to/lastmile_qr_scan", "ios": "https://dc.lft.to/lastmile_qr_scan"}, "fusion_lon": 0.0, "lat": 38.90699633333333, "bike_id": "f8406323a2c7105b41dbf20901469f4a", "type": "electric_scooter", "is_reserved": 0, "lon": -76.98699483333333}, {"fusion_lat": 0.0, "name": "e12b05660deae19eb87d875b4322a086", "is_disabled": 0, "rental_uris": {"android": "https://dc.lft.to/lastmile_qr_scan", "ios": "https://dc.lft.to/lastmile_qr_scan"}, "fusion_lon": 0.0, "lat": 38.990932, "bike_id": "e12b05660deae19eb87d875b4322a086", "type": "electric_bike", "is_reserved": 0, "lon": -76.993773}, {"fusion_lat": 0.0, "name": "b93d8cc56cb2a36785d77c159b65893e", "is_disabled": 0, "rental_uris": {"android": "https://dc.lft.to/lastmile_qr_scan", "ios": "https://dc.lft.to/lastmile_qr_scan"}, "fusion_lon": 0.0, "lat": 38.896088666666664, "bike_id": "b93d8cc56cb2a36785d77c159b65893e", "type": "electric_scooter", "is_reserved": 0, "lon": -77.00332066666667}, {"fusion_lat": 0.0, "name": "b32d14d3b98a508bf1aff1b1e7f9b166", "is_disabled": 0, "rental_uris": {"android": "https://dc.lft.to/lastmile_qr_scan", "ios": "https://dc.lft.to/lastmile_qr_scan"}, "fusion_lon": 0.0, "lat": 38.89896266666667, "bike_id": "b32d14d3b98a508bf1aff1b1e7f9b166", "type": "electric_bike", "is_reserved": 0, "lon": -77.09625233333334}, {"fusion_lat": 0.0, "name": "8f1493ddd88df97e05804c58a90001e9", "is_disabled": 0, "rental_uris": {"android": "https://dc.lft.to/lastmile_qr_scan", "ios": "https://dc.lft.to/lastmile_qr_scan"}, "fusion_lon": 0.0, "lat": 38.900261, "bike_id": "8f1493ddd88df97e05804c58a90001e9", "type": "electric_scooter", "is_reserved": 0, "lon": -77.00211466666667}, {"fusion_lat": 0.0, "name": "7c8ae05f5e3ad5fcb7279a7b74f81671", "is_disabled": 0, "rental_uris": {"android": "https://dc.lft.to/lastmile_qr_scan", "ios": "https://dc.lft.to/lastmile_qr_scan"}, "fusion_lon": 0.0, "lat": 38.91918283333333, "bike_id": "7c8ae05f5e3ad5fcb7279a7b74f81671", "type": "electric_scooter", "is_reserved": 0, "lon": -77.03311983333333}, {"fusion_lat": 0.0, "name": "61f9341117b487720121a5bdb39e1a9d", "is_disabled": 0, "rental_uris": {"android": "https://dc.lft.to/lastmile_qr_scan", "ios": "https://dc.lft.to/lastmile_qr_scan"}, "fusion_lon": 0.0, "lat": 38.9330025, "bike_id": "61f9341117b487720121a5bdb39e1a9d", "type": "electric_scooter", "is_reserved": 0, "lon": -77.02467016666667}, {"fusion_lat": 0.0, "name": "0f6298381301d41c720c956703874c06", "is_disabled": 0, "rental_uris": {"android": "https://dc.lft.to/lastmile_qr_scan", "ios": "https://dc.lft.to/lastmile_qr_scan"}, "fusion_lon": 0.0, "lat": 38.9207775, "bike_id": "0f6298381301d41c720c956703874c06", "type": "electric_scooter", "is_reserved": 0, "lon": -77.00458183333333}, {"fusion_lat": 0.0, "name": "1288e476e920f033d793513c45e63287", "is_disabled": 0, "rental_uris": {"android": "https://dc.lft.to/lastmile_qr_scan", "ios": "https://dc.lft.to/lastmile_qr_scan"}, "fusion_lon": 0.0, "lat": 38.9307525, "bike_id": "1288e476e920f033d793513c45e63287", "type": "electric_scooter", "is_reserved": 0, "lon": -77.0218945}, {"fusion_lat": 0.0, "name": "5bf16608a3f17f4b34c733c9b6a1ecb3", "is_disabled": 0, "rental_uris": {"android": "https://dc.lft.to/lastmile_qr_scan", "ios": "https://dc.lft.to/lastmile_qr_scan"}, "fusion_lon": 0.0, "lat": 38.9176585, "bike_id": "5bf16608a3f17f4b34c733c9b6a1ecb3", "type": "electric_scooter", "is_reserved": 0, "lon": -77.0190805}, {"fusion_lat": 0.0, "name": "244f7a2eec10d32d419a453d3efe7dfc", "is_disabled": 0, "rental_uris": {"android": "https://dc.lft.to/lastmile_qr_scan", "ios": "https://dc.lft.to/lastmile_qr_scan"}, "fusion_lon": 0.0, "lat": 38.88509116666667, "bike_id": "244f7a2eec10d32d419a453d3efe7dfc", "type": "electric_scooter", "is_reserved": 0, "lon": -76.9295495}, {"fusion_lat": 0.0, "name": "f0f0fdca6b64da39114747cd18cc93f7", "is_disabled": 0, "rental_uris": {"android": "https://dc.lft.to/lastmile_qr_scan", "ios": "https://dc.lft.to/lastmile_qr_scan"}, "fusion_lon": 0.0, "lat": 38.91711166666666, "bike_id": "f0f0fdca6b64da39114747cd18cc93f7", "type": "electric_scooter", "is_reserved": 0, "lon": -77.01216516666666}, {"fusion_lat": 0.0, "name": "aa389f9b1bd805e63d9466f86a2bffe8", "is_disabled": 0, "rental_uris": {"android": "https://dc.lft.to/lastmile_qr_scan", "ios": "https://dc.lft.to/lastmile_qr_scan"}, "fusion_lon": 0.0, "lat": 38.9082015, "bike_id": "aa389f9b1bd805e63d9466f86a2bffe8", "type": "electric_scooter", "is_reserved": 0, "lon": -77.0549785}, {"fusion_lat": 0.0, "name": "e869976d61a6df9526cd1052d5e1ea46", "is_disabled": 0, "rental_uris": {"android": "https://dc.lft.to/lastmile_qr_scan", "ios": "https://dc.lft.to/lastmile_qr_scan"}, "fusion_lon": 0.0, "lat": 38.946447166666665, "bike_id": "e869976d61a6df9526cd1052d5e1ea46", "type": "electric_bike", "is_reserved": 0, "lon": -77.03048583333333}, {"fusion_lat": 0.0, "name": "6e1895c87e3fbd68edef4e5d9f870e9f", "is_disabled": 0, "rental_uris": {"android": "https://dc.lft.to/lastmile_qr_scan", "ios": "https://dc.lft.to/lastmile_qr_scan"}, "fusion_lon": 0.0, "lat": 38.918083833333334, "bike_id": "6e1895c87e3fbd68edef4e5d9f870e9f", "type": "electric_scooter", "is_reserved": 0, "lon": -76.9998045}, {"fusion_lat": 0.0, "name": "a2dd4bd37a8b01248401d272100f1661", "is_disabled": 0, "rental_uris": {"android": "https://dc.lft.to/lastmile_qr_scan", "ios": "https://dc.lft.to/lastmile_qr_scan"}, "fusion_lon": 0.0, "lat": 38.961148666666666, "bike_id": "a2dd4bd37a8b01248401d272100f1661", "type": "electric_scooter", "is_reserved": 0, "lon": -77.02865666666666}, {"fusion_lat": 0.0, "name": "483eb007e94657f7855b43c771b1402c", "is_disabled": 0, "rental_uris": {"android": "https://dc.lft.to/lastmile_qr_scan", "ios": "https://dc.lft.to/lastmile_qr_scan"}, "fusion_lon": 0.0, "lat": 38.9511895, "bike_id": "483eb007e94657f7855b43c771b1402c", "type": "electric_scooter", "is_reserved": 0, "lon": -77.01365716666666}, {"fusion_lat": 0.0, "name": "5a392be191a2cbf3896e5a7397371c78", "is_disabled": 0, "rental_uris": {"android": "https://dc.lft.to/lastmile_qr_scan", "ios": "https://dc.lft.to/lastmile_qr_scan"}, "fusion_lon": 0.0, "lat": 38.93673616666667, "bike_id": "5a392be191a2cbf3896e5a7397371c78", "type": "electric_scooter", "is_reserved": 0, "lon": -77.03593066666667}, {"fusion_lat": 0.0, "name": "bd409fa573b526293fdba10a4028dea5", "is_disabled": 0, "rental_uris": {"android": "https://dc.lft.to/lastmile_qr_scan", "ios": "https://dc.lft.to/lastmile_qr_scan"}, "fusion_lon": 0.0, "lat": 38.97495833333333, "bike_id": "bd409fa573b526293fdba10a4028dea5", "type": "electric_scooter", "is_reserved": 0, "lon": -77.01695016666666}, {"fusion_lat": 0.0, "name": "5c2a4f82c108d40e851224a688bed5a5", "is_disabled": 0, "rental_uris": {"android": "https://dc.lft.to/lastmile_qr_scan", "ios": "https://dc.lft.to/lastmile_qr_scan"}, "fusion_lon": 0.0, "lat": 38.93782316666667, "bike_id": "5c2a4f82c108d40e851224a688bed5a5", "type": "electric_scooter", "is_reserved": 0, "lon": -77.02475966666667}, {"fusion_lat": 0.0, "name": "2e765f70933866f3f928e28c2b1fbbcc", "is_disabled": 0, "rental_uris": {"android": "https://dc.lft.to/lastmile_qr_scan", "ios": "https://dc.lft.to/lastmile_qr_scan"}, "fusion_lon": 0.0, "lat": 38.915606333333336, "bike_id": "2e765f70933866f3f928e28c2b1fbbcc", "type": "electric_scooter", "is_reserved": 0, "lon": -77.03215833333333}, {"fusion_lat": 0.0, "name": "71c231ce281de1c3be296b1de5750eb3", "is_disabled": 0, "rental_uris": {"android": "https://dc.lft.to/lastmile_qr_scan", "ios": "https://dc.lft.to/lastmile_qr_scan"}, "fusion_lon": 0.0, "lat": 38.947087, "bike_id": "71c231ce281de1c3be296b1de5750eb3", "type": "electric_scooter", "is_reserved": 0, "lon": -77.01939183333333}, {"fusion_lat": 0.0, "name": "13db78b79b53c314e094c9c0ae2c0fe2", "is_disabled": 0, "rental_uris": {"android": "https://dc.lft.to/lastmile_qr_scan", "ios": "https://dc.lft.to/lastmile_qr_scan"}, "fusion_lon": 0.0, "lat": 38.931929333333336, "bike_id": "13db78b79b53c314e094c9c0ae2c0fe2", "type": "electric_scooter", "is_reserved": 0, "lon": -77.04293}, {"fusion_lat": 0.0, "name": "381b057d8287d1870112a2db4d60ce45", "is_disabled": 0, "rental_uris": {"android": "https://dc.lft.to/lastmile_qr_scan", "ios": "https://dc.lft.to/lastmile_qr_scan"}, "fusion_lon": 0.0, "lat": 38.884553333333336, "bike_id": "381b057d8287d1870112a2db4d60ce45", "type": "electric_scooter", "is_reserved": 0, "lon": -76.99837483333333}, {"fusion_lat": 0.0, "name": "a745bb3cbc9754715a240753f977dbf3", "is_disabled": 0, "rental_uris": {"android": "https://dc.lft.to/lastmile_qr_scan", "ios": "https://dc.lft.to/lastmile_qr_scan"}, "fusion_lon": 0.0, "lat": 38.8947085, "bike_id": "a745bb3cbc9754715a240753f977dbf3", "type": "electric_scooter", "is_reserved": 0, "lon": -77.01522783333333}, {"fusion_lat": 0.0, "name": "fbc93c594eb1a5d567d6d6853b405143", "is_disabled": 0, "rental_uris": {"android": "https://dc.lft.to/lastmile_qr_scan", "ios": "https://dc.lft.to/lastmile_qr_scan"}, "fusion_lon": 0.0, "lat": 38.911254, "bike_id": "fbc93c594eb1a5d567d6d6853b405143", "type": "electric_scooter", "is_reserved": 0, "lon": -77.0208725}, {"fusion_lat": 0.0, "name": "bd713f3faa338108797521a57dccdca8", "is_disabled": 0, "rental_uris": {"android": "https://dc.lft.to/lastmile_qr_scan", "ios": "https://dc.lft.to/lastmile_qr_scan"}, "fusion_lon": 0.0, "lat": 38.90836733333333, "bike_id": "bd713f3faa338108797521a57dccdca8", "type": "electric_scooter", "is_reserved": 0, "lon": -76.98427649999999}, {"fusion_lat": 0.0, "name": "5c2b4f3d122661867a2fd7aa316d783c", "is_disabled": 0, "rental_uris": {"android": "https://dc.lft.to/lastmile_qr_scan", "ios": "https://dc.lft.to/lastmile_qr_scan"}, "fusion_lon": 0.0, "lat": 38.89673483333333, "bike_id": "5c2b4f3d122661867a2fd7aa316d783c", "type": "electric_scooter", "is_reserved": 0, "lon": -77.005183}, {"fusion_lat": 0.0, "name": "f02b67f8744268a8d983ff4ff84e3333", "is_disabled": 0, "rental_uris": {"android": "https://dc.lft.to/lastmile_qr_scan", "ios": "https://dc.lft.to/lastmile_qr_scan"}, "fusion_lon": 0.0, "lat": 38.8859405, "bike_id": "f02b67f8744268a8d983ff4ff84e3333", "type": "electric_scooter", "is_reserved": 0, "lon": -77.01720766666666}, {"fusion_lat": 0.0, "name": "9978eabf2b9925db5ca0cf3ad2ffb35c", "is_disabled": 0, "rental_uris": {"android": "https://dc.lft.to/lastmile_qr_scan", "ios": "https://dc.lft.to/lastmile_qr_scan"}, "fusion_lon": 0.0, "lat": 38.9107075, "bike_id": "9978eabf2b9925db5ca0cf3ad2ffb35c", "type": "electric_scooter", "is_reserved": 0, "lon": -77.04109066666666}, {"fusion_lat": 0.0, "name": "d19d5e62646695c21ecf7b0dce87cd30", "is_disabled": 0, "rental_uris": {"android": "https://dc.lft.to/lastmile_qr_scan", "ios": "https://dc.lft.to/lastmile_qr_scan"}, "fusion_lon": 0.0, "lat": 38.95054366666667, "bike_id": "d19d5e62646695c21ecf7b0dce87cd30", "type": "electric_scooter", "is_reserved": 0, "lon": -77.0803125}, {"fusion_lat": 0.0, "name": "6447593f863bf2d6b15cdd7d3c722b8b", "is_disabled": 0, "rental_uris": {"android": "https://dc.lft.to/lastmile_qr_scan", "ios": "https://dc.lft.to/lastmile_qr_scan"}, "fusion_lon": 0.0, "lat": 38.934051333333336, "bike_id": "6447593f863bf2d6b15cdd7d3c722b8b", "type": "electric_scooter", "is_reserved": 0, "lon": -77.05747733333334}, {"fusion_lat": 0.0, "name": "ad639ace0c3b94767d865c5fe40ef99b", "is_disabled": 0, "rental_uris": {"android": "https://dc.lft.to/lastmile_qr_scan", "ios": "https://dc.lft.to/lastmile_qr_scan"}, "fusion_lon": 0.0, "lat": 38.89796416666667, "bike_id": "ad639ace0c3b94767d865c5fe40ef99b", "type": "electric_scooter", "is_reserved": 0, "lon": -77.02827233333333}, {"fusion_lat": 0.0, "name": "6aad4d2c70ef108e578344cb78ae360c", "is_disabled": 0, "rental_uris": {"android": "https://dc.lft.to/lastmile_qr_scan", "ios": "https://dc.lft.to/lastmile_qr_scan"}, "fusion_lon": 0.0, "lat": 38.94072833333333, "bike_id": "6aad4d2c70ef108e578344cb78ae360c", "type": "electric_scooter", "is_reserved": 0, "lon": -77.01703466666666}, {"fusion_lat": 0.0, "name": "a6738d47544950e2409860b5e89f1ec0", "is_disabled": 0, "rental_uris": {"android": "https://dc.lft.to/lastmile_qr_scan", "ios": "https://dc.lft.to/lastmile_qr_scan"}, "fusion_lon": 0.0, "lat": 38.90996416666667, "bike_id": "a6738d47544950e2409860b5e89f1ec0", "type": "electric_scooter", "is_reserved": 0, "lon": -77.04484533333333}, {"fusion_lat": 0.0, "name": "da7ca1e850eb20b2e8c27aeeb10272bd", "is_disabled": 0, "rental_uris": {"android": "https://dc.lft.to/lastmile_qr_scan", "ios": "https://dc.lft.to/lastmile_qr_scan"}, "fusion_lon": 0.0, "lat": 38.86556816666667, "bike_id": "da7ca1e850eb20b2e8c27aeeb10272bd", "type": "electric_scooter", "is_reserved": 0, "lon": -76.98356116666666}, {"fusion_lat": 0.0, "name": "aa2a67a6f23a87732d3e768164b925dd", "is_disabled": 0, "rental_uris": {"android": "https://dc.lft.to/lastmile_qr_scan", "ios": "https://dc.lft.to/lastmile_qr_scan"}, "fusion_lon": 0.0, "lat": 38.89613216666667, "bike_id": "aa2a67a6f23a87732d3e768164b925dd", "type": "electric_scooter", "is_reserved": 0, "lon": -76.94815133333333}, {"fusion_lat": 0.0, "name": "a7587b733e1332fbea75620455dbd42c", "is_disabled": 0, "rental_uris": {"android": "https://dc.lft.to/lastmile_qr_scan", "ios": "https://dc.lft.to/lastmile_qr_scan"}, "fusion_lon": 0.0, "lat": 38.91702316666667, "bike_id": "a7587b733e1332fbea75620455dbd42c", "type": "electric_scooter", "is_reserved": 0, "lon": -77.031048}, {"fusion_lat": 0.0, "name": "0f8f82ebcd41109d9267d344fc4e6d06", "is_disabled": 0, "rental_uris": {"android": "https://dc.lft.to/lastmile_qr_scan", "ios": "https://dc.lft.to/lastmile_qr_scan"}, "fusion_lon": 0.0, "lat": 38.86332983333333, "bike_id": "0f8f82ebcd41109d9267d344fc4e6d06", "type": "electric_bike", "is_reserved": 0, "lon": -76.98723933333333}, {"fusion_lat": 0.0, "name": "a380aa44f76761c0fcb45519a78e274a", "is_disabled": 0, "rental_uris": {"android": "https://dc.lft.to/lastmile_qr_scan", "ios": "https://dc.lft.to/lastmile_qr_scan"}, "fusion_lon": 0.0, "lat": 38.90825566666667, "bike_id": "a380aa44f76761c0fcb45519a78e274a", "type": "electric_scooter", "is_reserved": 0, "lon": -77.03850433333334}, {"fusion_lat": 0.0, "name": "0a95cbd303e89a30fc834f56dd9cf462", "is_disabled": 0, "rental_uris": {"android": "https://dc.lft.to/lastmile_qr_scan", "ios": "https://dc.lft.to/lastmile_qr_scan"}, "fusion_lon": 0.0, "lat": 38.905726333333334, "bike_id": "0a95cbd303e89a30fc834f56dd9cf462", "type": "electric_scooter", "is_reserved": 0, "lon": -77.04155616666667}, {"fusion_lat": 0.0, "name": "6469674de1c86949d7f3c6aec39d6244", "is_disabled": 0, "rental_uris": {"android": "https://dc.lft.to/lastmile_qr_scan", "ios": "https://dc.lft.to/lastmile_qr_scan"}, "fusion_lon": 0.0, "lat": 38.9125905, "bike_id": "6469674de1c86949d7f3c6aec39d6244", "type": "electric_scooter", "is_reserved": 0, "lon": -77.04737183333333}, {"fusion_lat": 0.0, "name": "9810dc09086222e809d6ac48673b5fc7", "is_disabled": 0, "rental_uris": {"android": "https://dc.lft.to/lastmile_qr_scan", "ios": "https://dc.lft.to/lastmile_qr_scan"}, "fusion_lon": 0.0, "lat": 38.8825585, "bike_id": "9810dc09086222e809d6ac48673b5fc7", "type": "electric_scooter", "is_reserved": 0, "lon": -76.99493233333334}, {"fusion_lat": 0.0, "name": "9ac279878c5ea84bbaafe5ff6e4e1a2a", "is_disabled": 0, "rental_uris": {"android": "https://dc.lft.to/lastmile_qr_scan", "ios": "https://dc.lft.to/lastmile_qr_scan"}, "fusion_lon": 0.0, "lat": 38.905211, "bike_id": "9ac279878c5ea84bbaafe5ff6e4e1a2a", "type": "electric_scooter", "is_reserved": 0, "lon": -77.022059}, {"fusion_lat": 0.0, "name": "80698b557c46dc62a4599ca3df7b7802", "is_disabled": 0, "rental_uris": {"android": "https://dc.lft.to/lastmile_qr_scan", "ios": "https://dc.lft.to/lastmile_qr_scan"}, "fusion_lon": 0.0, "lat": 38.9023255, "bike_id": "80698b557c46dc62a4599ca3df7b7802", "type": "electric_scooter", "is_reserved": 0, "lon": -77.06046366666666}, {"fusion_lat": 0.0, "name": "0c5cfe35eb7f2ef69384416ca94b8966", "is_disabled": 0, "rental_uris": {"android": "https://dc.lft.to/lastmile_qr_scan", "ios": "https://dc.lft.to/lastmile_qr_scan"}, "fusion_lon": 0.0, "lat": 38.92825466666667, "bike_id": "0c5cfe35eb7f2ef69384416ca94b8966", "type": "electric_scooter", "is_reserved": 0, "lon": -77.02256816666667}, {"fusion_lat": 0.0, "name": "c0962d4010a1f6283639f9869d6ab460", "is_disabled": 0, "rental_uris": {"android": "https://dc.lft.to/lastmile_qr_scan", "ios": "https://dc.lft.to/lastmile_qr_scan"}, "fusion_lon": 0.0, "lat": 38.907459833333334, "bike_id": "c0962d4010a1f6283639f9869d6ab460", "type": "electric_scooter", "is_reserved": 0, "lon": -77.00700316666666}, {"fusion_lat": 0.0, "name": "55fd37b898c313f50d05aab9f21191f3", "is_disabled": 0, "rental_uris": {"android": "https://dc.lft.to/lastmile_qr_scan", "ios": "https://dc.lft.to/lastmile_qr_scan"}, "fusion_lon": 0.0, "lat": 38.9262935, "bike_id": "55fd37b898c313f50d05aab9f21191f3", "type": "electric_scooter", "is_reserved": 0, "lon": -77.0392635}, {"fusion_lat": 0.0, "name": "2afa8c55d313b251d3fbc445bc27b4cd", "is_disabled": 0, "rental_uris": {"android": "https://dc.lft.to/lastmile_qr_scan", "ios": "https://dc.lft.to/lastmile_qr_scan"}, "fusion_lon": 0.0, "lat": 38.922978, "bike_id": "2afa8c55d313b251d3fbc445bc27b4cd", "type": "electric_scooter", "is_reserved": 0, "lon": -76.997764}, {"fusion_lat": 0.0, "name": "07e10abfdc1671590b34e18396156d64", "is_disabled": 0, "rental_uris": {"android": "https://dc.lft.to/lastmile_qr_scan", "ios": "https://dc.lft.to/lastmile_qr_scan"}, "fusion_lon": 0.0, "lat": 38.9256685, "bike_id": "07e10abfdc1671590b34e18396156d64", "type": "electric_scooter", "is_reserved": 0, "lon": -77.03774416666667}, {"fusion_lat": 0.0, "name": "e4925d39abc698f8e0372bb6530752b7", "is_disabled": 0, "rental_uris": {"android": "https://dc.lft.to/lastmile_qr_scan", "ios": "https://dc.lft.to/lastmile_qr_scan"}, "fusion_lon": 0.0, "lat": 38.90156366666667, "bike_id": "e4925d39abc698f8e0372bb6530752b7", "type": "electric_scooter", "is_reserved": 0, "lon": -76.97406166666667}, {"fusion_lat": 0.0, "name": "f414e9bfe786110deab43e654cff880b", "is_disabled": 0, "rental_uris": {"android": "https://dc.lft.to/lastmile_qr_scan", "ios": "https://dc.lft.to/lastmile_qr_scan"}, "fusion_lon": 0.0, "lat": 38.94523016666667, "bike_id": "f414e9bfe786110deab43e654cff880b", "type": "electric_scooter", "is_reserved": 0, "lon": -77.02271966666666}, {"fusion_lat": 0.0, "name": "ccac95ab0397682954136a0697374868", "is_disabled": 0, "rental_uris": {"android": "https://dc.lft.to/lastmile_qr_scan", "ios": "https://dc.lft.to/lastmile_qr_scan"}, "fusion_lon": 0.0, "lat": 38.9155905, "bike_id": "ccac95ab0397682954136a0697374868", "type": "electric_scooter", "is_reserved": 0, "lon": -77.0322315}, {"fusion_lat": 0.0, "name": "3021dd4e8ae12b43885f847f39c75bcd", "is_disabled": 0, "rental_uris": {"android": "https://dc.lft.to/lastmile_qr_scan", "ios": "https://dc.lft.to/lastmile_qr_scan"}, "fusion_lon": 0.0, "lat": 38.913298833333336, "bike_id": "3021dd4e8ae12b43885f847f39c75bcd", "type": "electric_scooter", "is_reserved": 0, "lon": -77.04859583333334}, {"fusion_lat": 0.0, "name": "2ed978064d64f77997088b957bce6493", "is_disabled": 0, "rental_uris": {"android": "https://dc.lft.to/lastmile_qr_scan", "ios": "https://dc.lft.to/lastmile_qr_scan"}, "fusion_lon": 0.0, "lat": 38.911091, "bike_id": "2ed978064d64f77997088b957bce6493", "type": "electric_scooter", "is_reserved": 0, "lon": -77.03825166666667}, {"fusion_lat": 0.0, "name": "e8690485d2402fa5d2739807e3b7bd2d", "is_disabled": 0, "rental_uris": {"android": "https://dc.lft.to/lastmile_qr_scan", "ios": "https://dc.lft.to/lastmile_qr_scan"}, "fusion_lon": 0.0, "lat": 38.9019015, "bike_id": "e8690485d2402fa5d2739807e3b7bd2d", "type": "electric_scooter", "is_reserved": 0, "lon": -77.01612666666666}, {"fusion_lat": 0.0, "name": "8706392d1dbcd6ff4eb6890df7b6afba", "is_disabled": 0, "rental_uris": {"android": "https://dc.lft.to/lastmile_qr_scan", "ios": "https://dc.lft.to/lastmile_qr_scan"}, "fusion_lon": 0.0, "lat": 38.91067866666667, "bike_id": "8706392d1dbcd6ff4eb6890df7b6afba", "type": "electric_scooter", "is_reserved": 0, "lon": -77.03665266666667}, {"fusion_lat": 0.0, "name": "f6e20ff7ce847735c143742a98b389cb", "is_disabled": 0, "rental_uris": {"android": "https://dc.lft.to/lastmile_qr_scan", "ios": "https://dc.lft.to/lastmile_qr_scan"}, "fusion_lon": 0.0, "lat": 38.89350983333333, "bike_id": "f6e20ff7ce847735c143742a98b389cb", "type": "electric_scooter", "is_reserved": 0, "lon": -77.0280295}, {"fusion_lat": 0.0, "name": "4750c143b99d32de6313938ab10c8f6c", "is_disabled": 0, "rental_uris": {"android": "https://dc.lft.to/lastmile_qr_scan", "ios": "https://dc.lft.to/lastmile_qr_scan"}, "fusion_lon": 0.0, "lat": 38.90694583333333, "bike_id": "4750c143b99d32de6313938ab10c8f6c", "type": "electric_scooter", "is_reserved": 0, "lon": -77.07477266666666}, {"fusion_lat": 0.0, "name": "39b21a8f916dc85a9cadc7a97d42cb0b", "is_disabled": 0, "rental_uris": {"android": "https://dc.lft.to/lastmile_qr_scan", "ios": "https://dc.lft.to/lastmile_qr_scan"}, "fusion_lon": 0.0, "lat": 38.91977216666667, "bike_id": "39b21a8f916dc85a9cadc7a97d42cb0b", "type": "electric_scooter", "is_reserved": 0, "lon": -77.02343}, {"fusion_lat": 0.0, "name": "84af4efd1dc2584970f53ded7b4c97aa", "is_disabled": 0, "rental_uris": {"android": "https://dc.lft.to/lastmile_qr_scan", "ios": "https://dc.lft.to/lastmile_qr_scan"}, "fusion_lon": 0.0, "lat": 38.93108016666667, "bike_id": "84af4efd1dc2584970f53ded7b4c97aa", "type": "electric_scooter", "is_reserved": 0, "lon": -77.02396033333333}, {"fusion_lat": 0.0, "name": "4f4c0e21bcbb0dc0a11f5717d9acd5a3", "is_disabled": 0, "rental_uris": {"android": "https://dc.lft.to/lastmile_qr_scan", "ios": "https://dc.lft.to/lastmile_qr_scan"}, "fusion_lon": 0.0, "lat": 38.91564266666666, "bike_id": "4f4c0e21bcbb0dc0a11f5717d9acd5a3", "type": "electric_scooter", "is_reserved": 0, "lon": -77.02088866666666}, {"fusion_lat": 0.0, "name": "e7d812aad73cbb6786493d9812ab9b0b", "is_disabled": 0, "rental_uris": {"android": "https://dc.lft.to/lastmile_qr_scan", "ios": "https://dc.lft.to/lastmile_qr_scan"}, "fusion_lon": 0.0, "lat": 38.90562833333333, "bike_id": "e7d812aad73cbb6786493d9812ab9b0b", "type": "electric_scooter", "is_reserved": 0, "lon": -77.005794}, {"fusion_lat": 0.0, "name": "30bcc49fb2292120885fd604974eb449", "is_disabled": 0, "rental_uris": {"android": "https://dc.lft.to/lastmile_qr_scan", "ios": "https://dc.lft.to/lastmile_qr_scan"}, "fusion_lon": 0.0, "lat": 38.907297, "bike_id": "30bcc49fb2292120885fd604974eb449", "type": "electric_scooter", "is_reserved": 0, "lon": -77.0297175}, {"fusion_lat": 0.0, "name": "1012c517a11f4a077ddee9a3cf4bf475", "is_disabled": 0, "rental_uris": {"android": "https://dc.lft.to/lastmile_qr_scan", "ios": "https://dc.lft.to/lastmile_qr_scan"}, "fusion_lon": 0.0, "lat": 38.91131383333333, "bike_id": "1012c517a11f4a077ddee9a3cf4bf475", "type": "electric_bike", "is_reserved": 0, "lon": -77.065744}, {"fusion_lat": 0.0, "name": "493b243b7af99b029c64a00d19a8433c", "is_disabled": 0, "rental_uris": {"android": "https://dc.lft.to/lastmile_qr_scan", "ios": "https://dc.lft.to/lastmile_qr_scan"}, "fusion_lon": 0.0, "lat": 38.94166533333333, "bike_id": "493b243b7af99b029c64a00d19a8433c", "type": "electric_scooter", "is_reserved": 0, "lon": -77.0251685}, {"fusion_lat": 0.0, "name": "1371e04167e6790fc2ab3a2c8c19eccc", "is_disabled": 0, "rental_uris": {"android": "https://dc.lft.to/lastmile_qr_scan", "ios": "https://dc.lft.to/lastmile_qr_scan"}, "fusion_lon": 0.0, "lat": 38.8881785, "bike_id": "1371e04167e6790fc2ab3a2c8c19eccc", "type": "electric_scooter", "is_reserved": 0, "lon": -76.9836085}, {"fusion_lat": 0.0, "name": "ff13d6ed650a6b76a3fd1f4c9c9a763a", "is_disabled": 0, "rental_uris": {"android": "https://dc.lft.to/lastmile_qr_scan", "ios": "https://dc.lft.to/lastmile_qr_scan"},