{"data": {"bikes": [{"lat": 38.91038183333333, "fusion_lat": 0.0, "type": "electric_scooter", "bike_id": "fd880d4d73d7d07a59e5b0bf8103a464", "is_reserved": 0, "rental_uris": {"ios": "https://dc.lft.to/lastmile_qr_scan", "android": "https://dc.lft.to/lastmile_qr_scan"}, "is_disabled": 0, "lon": -77.0486715, "name": "fd880d4d73d7d07a59e5b0bf8103a464", "fusion_lon": 0.0}, {"lat": 38.9202325, "fusion_lat": 0.0, "type": "electric_scooter", "bike_id": "70b598ef7a9fcb067f3ae5ae76b62106", "is_reserved": 0, "rental_uris": {"ios": "https://dc.lft.to/lastmile_qr_scan", "android": "https://dc.lft.to/lastmile_qr_scan"}, "is_disabled": 0, "lon": -77.02064066666667, "name": "70b598ef7a9fcb067f3ae5ae76b62106", "fusion_lon": 0.0}, {"lat": 38.92740966666667, "fusion_lat": 0.0, "type": "electric_scooter", "bike_id": "c662ec1e2211f02e6d5406772f4f6dd4", "is_reserved": 0, "rental_uris": {"ios": "https://dc.lft.to/lastmile_qr_scan", "android": "https://dc.lft.to/lastmile_qr_scan"}, "is_disabled": 0, "lon": -77.02263216666667, "name": "c662ec1e2211f02e6d5406772f4f6dd4", "fusion_lon": 0.0}, {"lat": 38.9002925, "fusion_lat": 0.0, "type": "electric_scooter", "bike_id": "c34db224b8a7abd297ac5ed11bf6485b", "is_reserved": 0, "rental_uris": {"ios": "https://dc.lft.to/lastmile_qr_scan", "android": "https://dc.lft.to/lastmile_qr_scan"}, "is_disabled": 0, "lon": -76.99858216666667, "name": "c34db224b8a7abd297ac5ed11bf6485b", "fusion_lon": 0.0}, {"lat": 38.8623515, "fusion_lat": 0.0, "type": "electric_scooter", "bike_id": "c8c088f355b24bb9e179f6a1681c5622", "is_reserved": 0, "rental_uris": {"ios": "https://dc.lft.to/lastmile_qr_scan", "android": "https://dc.lft.to/lastmile_qr_scan"}, "is_disabled": 0, "lon": -76.995169, "name": "c8c088f355b24bb9e179f6a1681c5622", "fusion_lon": 0.0}, {"lat": 38.89220616666667, "fusion_lat": 0.0, "type": "electric_scooter", "bike_id": "a127bbd2390c851b9af21223660c4eaa", "is_reserved": 0, "rental_uris": {"ios": "https://dc.lft.to/lastmile_qr_scan", "android": "https://dc.lft.to/lastmile_qr_scan"}, "is_disabled": 0, "lon": -77.02311616666667, "name": "a127bbd2390c851b9af21223660c4eaa", "fusion_lon": 0.0}, {"lat": 38.904677, "fusion_lat": 0.0, "type": "electric_scooter", "bike_id": "227bc13d92a9dfc4df1eecdbdc8ef93c", "is_reserved": 0, "rental_uris": {"ios": "https://dc.lft.to/lastmile_qr_scan", "android": "https://dc.lft.to/lastmile_qr_scan"}, "is_disabled": 0, "lon": -77.0355405, "name": "227bc13d92a9dfc4df1eecdbdc8ef93c", "fusion_lon": 0.0}, {"lat": 38.93476116666667, "fusion_lat": 0.0, "type": "electric_scooter", "bike_id": "04efdf9824ce294af7c5a08028be885d", "is_reserved": 0, "rental_uris": {"ios": "https://dc.lft.to/lastmile_qr_scan", "android": "https://dc.lft.to/lastmile_qr_scan"}, "is_disabled": 0, "lon": -77.03577516666667, "name": "04efdf9824ce294af7c5a08028be885d", "fusion_lon": 0.0}, {"lat": 38.90501366666667, "fusion_lat": 0.0, "type": "electric_scooter", "bike_id": "d2c11cb8985a443f89f989688dd65dd7", "is_reserved": 0, "rental_uris": {"ios": "https://dc.lft.to/lastmile_qr_scan", "android": "https://dc.lft.to/lastmile_qr_scan"}, "is_disabled": 0, "lon": -77.0294755, "name": "d2c11cb8985a443f89f989688dd65dd7", "fusion_lon": 0.0}, {"lat": 38.79981566666667, "fusion_lat": 0.0, "type": "electric_bike", "bike_id": "64110228f3aade10099cda4d9c79bcae", "is_reserved": 0, "rental_uris": {"ios": "https://dc.lft.to/lastmile_qr_scan", "android": "https://dc.lft.to/lastmile_qr_scan"}, "is_disabled": 0, "lon": -77.12977933333333, "name": "64110228f3aade10099cda4d9c79bcae", "fusion_lon": 0.0}, {"lat": 38.916774333333336, "fusion_lat": 0.0, "type": "electric_scooter", "bike_id": "e80c10e874995afbfa2306b98dc56133", "is_reserved": 0, "rental_uris": {"ios": "https://dc.lft.to/lastmile_qr_scan", "android": "https://dc.lft.to/lastmile_qr_scan"}, "is_disabled": 0, "lon": -77.03692333333333, "name": "e80c10e874995afbfa2306b98dc56133", "fusion_lon": 0.0}, {"lat": 38.898467833333335, "fusion_lat": 0.0, "type": "electric_scooter", "bike_id": "0a8ce2fd2d3b7d8654e33c500f0eb341", "is_reserved": 0, "rental_uris": {"ios": "https://dc.lft.to/lastmile_qr_scan", "android": "https://dc.lft.to/lastmile_qr_scan"}, "is_disabled": 0, "lon": -77.02195833333333, "name": "0a8ce2fd2d3b7d8654e33c500f0eb341", "fusion_lon": 0.0}, {"lat": 38.900278166666666, "fusion_lat": 0.0, "type": "electric_scooter", "bike_id": "2ac2bb16068eeec56c6014f1c3f005ec", "is_reserved": 0, "rental_uris": {"ios": "https://dc.lft.to/lastmile_qr_scan", "android": "https://dc.lft.to/lastmile_qr_scan"}, "is_disabled": 0, "lon": -77.0071495, "name": "2ac2bb16068eeec56c6014f1c3f005ec", "fusion_lon": 0.0}, {"lat": 38.91918833333333, "fusion_lat": 0.0, "type": "electric_scooter", "bike_id": "36127a19dd8e1eacb771b503e6d6a43e", "is_reserved": 0, "rental_uris": {"ios": "https://dc.lft.to/lastmile_qr_scan", "android": "https://dc.lft.to/lastmile_qr_scan"}, "is_disabled": 0, "lon": -77.02615733333333, "name": "36127a19dd8e1eacb771b503e6d6a43e", "fusion_lon": 0.0}, {"lat": 38.92454466666667, "fusion_lat": 0.0, "type": "electric_scooter", "bike_id": "362e85d8911f75e308f6dbfa2b21e8cb", "is_reserved": 0, "rental_uris": {"ios": "https://dc.lft.to/lastmile_qr_scan", "android": "https://dc.lft.to/lastmile_qr_scan"}, "is_disabled": 0, "lon": -77.04114883333334, "name": "362e85d8911f75e308f6dbfa2b21e8cb", "fusion_lon": 0.0}, {"lat": 38.93674683333333, "fusion_lat": 0.0, "type": "electric_scooter", "bike_id": "e4cfe2d49962625e95fb7c5cdf71f4e1", "is_reserved": 0, "rental_uris": {"ios": "https://dc.lft.to/lastmile_qr_scan", "android": "https://dc.lft.to/lastmile_qr_scan"}, "is_disabled": 0, "lon": -77.035905, "name": "e4cfe2d49962625e95fb7c5cdf71f4e1", "fusion_lon": 0.0}, {"lat": 38.89541666666667, "fusion_lat": 0.0, "type": "electric_scooter", "bike_id": "3e0f1252fd4d404962f63cc21e7bce86", "is_reserved": 0, "rental_uris": {"ios": "https://dc.lft.to/lastmile_qr_scan", "android": "https://dc.lft.to/lastmile_qr_scan"}, "is_disabled": 0, "lon": -76.9492715, "name": "3e0f1252fd4d404962f63cc21e7bce86", "fusion_lon": 0.0}, {"lat": 38.9291525, "fusion_lat": 0.0, "type": "electric_scooter", "bike_id": "e953d52242d3b0fe859fdd3566367cc5", "is_reserved": 0, "rental_uris": {"ios": "https://dc.lft.to/lastmile_qr_scan", "android": "https://dc.lft.to/lastmile_qr_scan"}, "is_disabled": 0, "lon": -77.03474233333333, "name": "e953d52242d3b0fe859fdd3566367cc5", "fusion_lon": 0.0}, {"lat": 38.897928, "fusion_lat": 0.0, "type": "electric_scooter", "bike_id": "55d9fa694f397c600925019ee51fcca5", "is_reserved": 0, "rental_uris": {"ios": "https://dc.lft.to/lastmile_qr_scan", "android": "https://dc.lft.to/lastmile_qr_scan"}, "is_disabled": 0, "lon": -77.01192766666667, "name": "55d9fa694f397c600925019ee51fcca5", "fusion_lon": 0.0}, {"lat": 38.900971166666665, "fusion_lat": 0.0, "type": "electric_scooter", "bike_id": "18bb594644e6edd26338e5acc4acff83", "is_reserved": 0, "rental_uris": {"ios": "https://dc.lft.to/lastmile_qr_scan", "android": "https://dc.lft.to/lastmile_qr_scan"}, "is_disabled": 0, "lon": -77.03214816666667, "name": "18bb594644e6edd26338e5acc4acff83", "fusion_lon": 0.0}, {"lat": 38.925006333333336, "fusion_lat": 0.0, "type": "electric_scooter", "bike_id": "7b527e688dd586bde97375ce5910562e", "is_reserved": 0, "rental_uris": {"ios": "https://dc.lft.to/lastmile_qr_scan", "android": "https://dc.lft.to/lastmile_qr_scan"}, "is_disabled": 0, "lon": -77.00889083333334, "name": "7b527e688dd586bde97375ce5910562e", "fusion_lon": 0.0}, {"lat": 38.9148445, "fusion_lat": 0.0, "type": "electric_scooter", "bike_id": "7e47d1240bae67c01e90073f127564b9", "is_reserved": 0, "rental_uris": {"ios": "https://dc.lft.to/lastmile_qr_scan", "android": "https://dc.lft.to/lastmile_qr_scan"}, "is_disabled": 0, "lon": -76.98563266666666, "name": "7e47d1240bae67c01e90073f127564b9", "fusion_lon": 0.0}, {"lat": 38.90782266666667, "fusion_lat": 0.0, "type": "electric_scooter", "bike_id": "9e2a6d195a0526ada59682ddde987f1a", "is_reserved": 0, "rental_uris": {"ios": "https://dc.lft.to/lastmile_qr_scan", "android": "https://dc.lft.to/lastmile_qr_scan"}, "is_disabled": 0, "lon": -77.03820433333334, "name": "9e2a6d195a0526ada59682ddde987f1a", "fusion_lon": 0.0}, {"lat": 38.91986983333334, "fusion_lat": 0.0, "type": "electric_scooter", "bike_id": "270719e9d1f289ff475893ba435d3e1e", "is_reserved": 0, "rental_uris": {"ios": "https://dc.lft.to/lastmile_qr_scan", "android": "https://dc.lft.to/lastmile_qr_scan"}, "is_disabled": 0, "lon": -76.9730375, "name": "270719e9d1f289ff475893ba435d3e1e", "fusion_lon": 0.0}, {"lat": 38.907271333333334, "fusion_lat": 0.0, "type": "electric_scooter", "bike_id": "177ffa8163a49e89de666d569a3e1156", "is_reserved": 0, "rental_uris": {"ios": "https://dc.lft.to/lastmile_qr_scan", "android": "https://dc.lft.to/lastmile_qr_scan"}, "is_disabled": 0, "lon": -77.03358666666666, "name": "177ffa8163a49e89de666d569a3e1156", "fusion_lon": 0.0}, {"lat": 38.92108483333333, "fusion_lat": 0.0, "type": "electric_scooter", "bike_id": "2b438a2a9d87e05386b23ebef854a743", "is_reserved": 0, "rental_uris": {"ios": "https://dc.lft.to/lastmile_qr_scan", "android": "https://dc.lft.to/lastmile_qr_scan"}, "is_disabled": 0, "lon": -77.033311, "name": "2b438a2a9d87e05386b23ebef854a743", "fusion_lon": 0.0}, {"lat": 38.917768833333334, "fusion_lat": 0.0, "type": "electric_scooter", "bike_id": "7daba5b8f1db9e6e2265e6e425dff548", "is_reserved": 0, "rental_uris": {"ios": "https://dc.lft.to/lastmile_qr_scan", "android": "https://dc.lft.to/lastmile_qr_scan"}, "is_disabled": 0, "lon": -77.03212683333334, "name": "7daba5b8f1db9e6e2265e6e425dff548", "fusion_lon": 0.0}, {"lat": 38.91150533333333, "fusion_lat": 0.0, "type": "electric_scooter", "bike_id": "b6c468ba1b59cc37cbdcd27416db5272", "is_reserved": 0, "rental_uris": {"ios": "https://dc.lft.to/lastmile_qr_scan", "android": "https://dc.lft.to/lastmile_qr_scan"}, "is_disabled": 0, "lon": -77.0383665, "name": "b6c468ba1b59cc37cbdcd27416db5272", "fusion_lon": 0.0}, {"lat": 38.8952085, "fusion_lat": 0.0, "type": "electric_scooter", "bike_id": "16e9f5f22f4f082811dc9ebff3018558", "is_reserved": 0, "rental_uris": {"ios": "https://dc.lft.to/lastmile_qr_scan", "android": "https://dc.lft.to/lastmile_qr_scan"}, "is_disabled": 0, "lon": -76.988161, "name": "16e9f5f22f4f082811dc9ebff3018558", "fusion_lon": 0.0}, {"lat": 38.93525616666667, "fusion_lat": 0.0, "type": "electric_scooter", "bike_id": "3c9ce0677ace23c7b95ec4e3c94c8a1a", "is_reserved": 0, "rental_uris": {"ios": "https://dc.lft.to/lastmile_qr_scan", "android": "https://dc.lft.to/lastmile_qr_scan"}, "is_disabled": 0, "lon": -77.054468, "name": "3c9ce0677ace23c7b95ec4e3c94c8a1a", "fusion_lon": 0.0}, {"lat": 38.87457716666667, "fusion_lat": 0.0, "type": "electric_scooter", "bike_id": "7e47c5267ec6853bbcbfbf27997781c5", "is_reserved": 0, "rental_uris": {"ios": "https://dc.lft.to/lastmile_qr_scan", "android": "https://dc.lft.to/lastmile_qr_scan"}, "is_disabled": 0, "lon": -77.00546083333333, "name": "7e47c5267ec6853bbcbfbf27997781c5", "fusion_lon": 0.0}, {"lat": 38.92358683333333, "fusion_lat": 0.0, "type": "electric_scooter", "bike_id": "db47adb8f8041e84b172e8173e28f1de", "is_reserved": 0, "rental_uris": {"ios": "https://dc.lft.to/lastmile_qr_scan", "android": "https://dc.lft.to/lastmile_qr_scan"}, "is_disabled": 0, "lon": -77.050737, "name": "db47adb8f8041e84b172e8173e28f1de", "fusion_lon": 0.0}, {"lat": 38.862132333333335, "fusion_lat": 0.0, "type": "electric_scooter", "bike_id": "494a3d3eaf378bf639ce41badc0e72c9", "is_reserved": 0, "rental_uris": {"ios": "https://dc.lft.to/lastmile_qr_scan", "android": "https://dc.lft.to/lastmile_qr_scan"}, "is_disabled": 0, "lon": -76.99478933333333, "name": "494a3d3eaf378bf639ce41badc0e72c9", "fusion_lon": 0.0}, {"lat": 38.92421066666667, "fusion_lat": 0.0, "type": "electric_scooter", "bike_id": "454819a91ce8de13d51780d59473b18b", "is_reserved": 0, "rental_uris": {"ios": "https://dc.lft.to/lastmile_qr_scan", "android": "https://dc.lft.to/lastmile_qr_scan"}, "is_disabled": 0, "lon": -77.05057066666667, "name": "454819a91ce8de13d51780d59473b18b", "fusion_lon": 0.0}, {"lat": 38.93511483333333, "fusion_lat": 0.0, "type": "electric_scooter", "bike_id": "a44602d600332ea81a39de13d7466810", "is_reserved": 0, "rental_uris": {"ios": "https://dc.lft.to/lastmile_qr_scan", "android": "https://dc.lft.to/lastmile_qr_scan"}, "is_disabled": 0, "lon": -77.03290716666666, "name": "a44602d600332ea81a39de13d7466810", "fusion_lon": 0.0}, {"lat": 38.90022716666667, "fusion_lat": 0.0, "type": "electric_scooter", "bike_id": "bade3254c67bdc1090e296da55255e01", "is_reserved": 0, "rental_uris": {"ios": "https://dc.lft.to/lastmile_qr_scan", "android": "https://dc.lft.to/lastmile_qr_scan"}, "is_disabled": 0, "lon": -77.02601966666667, "name": "bade3254c67bdc1090e296da55255e01", "fusion_lon": 0.0}, {"lat": 38.91493716666667, "fusion_lat": 0.0, "type": "electric_scooter", "bike_id": "1a0a7681a7a5399e48db8c12b939ff83", "is_reserved": 0, "rental_uris": {"ios": "https://dc.lft.to/lastmile_qr_scan", "android": "https://dc.lft.to/lastmile_qr_scan"}, "is_disabled": 0, "lon": -76.98358966666666, "name": "1a0a7681a7a5399e48db8c12b939ff83", "fusion_lon": 0.0}, {"lat": 38.85787716666667, "fusion_lat": 0.0, "type": "electric_bike", "bike_id": "0907de466a24f3d242769f70cb914143", "is_reserved": 0, "rental_uris": {"ios": "https://dc.lft.to/lastmile_qr_scan", "android": "https://dc.lft.to/lastmile_qr_scan"}, "is_disabled": 0, "lon": -77.1201895, "name": "0907de466a24f3d242769f70cb914143", "fusion_lon": 0.0}, {"lat": 38.89541233333333, "fusion_lat": 0.0, "type": "electric_scooter", "bike_id": "1c5133b685814006b3131e546566f021", "is_reserved": 0, "rental_uris": {"ios": "https://dc.lft.to/lastmile_qr_scan", "android": "https://dc.lft.to/lastmile_qr_scan"}, "is_disabled": 0, "lon": -76.92952916666667, "name": "1c5133b685814006b3131e546566f021", "fusion_lon": 0.0}, {"lat": 38.90944133333333, "fusion_lat": 0.0, "type": "electric_scooter", "bike_id": "c839221a31b2a3b277c339fd975bec77", "is_reserved": 0, "rental_uris": {"ios": "https://dc.lft.to/lastmile_qr_scan", "android": "https://dc.lft.to/lastmile_qr_scan"}, "is_disabled": 0, "lon": -77.02698633333333, "name": "c839221a31b2a3b277c339fd975bec77", "fusion_lon": 0.0}, {"lat": 38.86265, "fusion_lat": 0.0, "type": "electric_bike", "bike_id": "c95b1f66e8ff616025caaa2c6ddd485f", "is_reserved": 0, "rental_uris": {"ios": "https://dc.lft.to/lastmile_qr_scan", "android": "https://dc.lft.to/lastmile_qr_scan"}, "is_disabled": 0, "lon": -76.98346633333334, "name": "c95b1f66e8ff616025caaa2c6ddd485f", "fusion_lon": 0.0}, {"lat": 38.90530866666667, "fusion_lat": 0.0, "type": "electric_scooter", "bike_id": "d9f65683f492d023bac0eb0350848999", "is_reserved": 0, "rental_uris": {"ios": "https://dc.lft.to/lastmile_qr_scan", "android": "https://dc.lft.to/lastmile_qr_scan"}, "is_disabled": 0, "lon": -76.98095616666667, "name": "d9f65683f492d023bac0eb0350848999", "fusion_lon": 0.0}, {"lat": 38.90629916666666, "fusion_lat": 0.0, "type": "electric_scooter", "bike_id": "cfbae4c781b183900046df8f3f277627", "is_reserved": 0, "rental_uris": {"ios": "https://dc.lft.to/lastmile_qr_scan", "android": "https://dc.lft.to/lastmile_qr_scan"}, "is_disabled": 0, "lon": -77.03858966666667, "name": "cfbae4c781b183900046df8f3f277627", "fusion_lon": 0.0}, {"lat": 38.919421166666666, "fusion_lat": 0.0, "type": "electric_scooter", "bike_id": "872cd5dc16237efe7678c4c75f1d4b11", "is_reserved": 0, "rental_uris": {"ios": "https://dc.lft.to/lastmile_qr_scan", "android": "https://dc.lft.to/lastmile_qr_scan"}, "is_disabled": 0, "lon": -77.0318535, "name": "872cd5dc16237efe7678c4c75f1d4b11", "fusion_lon": 0.0}, {"lat": 38.938911833333336, "fusion_lat": 0.0, "type": "electric_scooter", "bike_id": "25b2f44d42154e30a6b8a71e7bc042dc", "is_reserved": 0, "rental_uris": {"ios": "https://dc.lft.to/lastmile_qr_scan", "android": "https://dc.lft.to/lastmile_qr_scan"}, "is_disabled": 0, "lon": -77.02470233333334, "name": "25b2f44d42154e30a6b8a71e7bc042dc", "fusion_lon": 0.0}, {"lat": 38.91635083333333, "fusion_lat": 0.0, "type": "electric_scooter", "bike_id": "e637b8f417c75c39c00ba43de9a8a09f", "is_reserved": 0, "rental_uris": {"ios": "https://dc.lft.to/lastmile_qr_scan", "android": "https://dc.lft.to/lastmile_qr_scan"}, "is_disabled": 0, "lon": -77.039944, "name": "e637b8f417c75c39c00ba43de9a8a09f", "fusion_lon": 0.0}, {"lat": 38.924077, "fusion_lat": 0.0, "type": "electric_scooter", "bike_id": "68563eefe14758958e235e7ba1659231", "is_reserved": 0, "rental_uris": {"ios": "https://dc.lft.to/lastmile_qr_scan", "android": "https://dc.lft.to/lastmile_qr_scan"}, "is_disabled": 0, "lon": -77.05167333333333, "name": "68563eefe14758958e235e7ba1659231", "fusion_lon": 0.0}, {"lat": 38.905774666666666, "fusion_lat": 0.0, "type": "electric_scooter", "bike_id": "f755b6462a63c3e7b8e8e6b5e782df6f", "is_reserved": 0, "rental_uris": {"ios": "https://dc.lft.to/lastmile_qr_scan", "android": "https://dc.lft.to/lastmile_qr_scan"}, "is_disabled": 0, "lon": -77.00291383333334, "name": "f755b6462a63c3e7b8e8e6b5e782df6f", "fusion_lon": 0.0}, {"lat": 38.882688333333334, "fusion_lat": 0.0, "type": "electric_scooter", "bike_id": "2164337e9d72ceda979bcb1571dc60fa", "is_reserved": 0, "rental_uris": {"ios": "https://dc.lft.to/lastmile_qr_scan", "android": "https://dc.lft.to/lastmile_qr_scan"}, "is_disabled": 0, "lon": -76.99251766666667, "name": "2164337e9d72ceda979bcb1571dc60fa", "fusion_lon": 0.0}, {"lat": 38.92570716666667, "fusion_lat": 0.0, "type": "electric_scooter", "bike_id": "576b26578139e18063c3d7f743c3c5ba", "is_reserved": 0, "rental_uris": {"ios": "https://dc.lft.to/lastmile_qr_scan", "android": "https://dc.lft.to/lastmile_qr_scan"}, "is_disabled": 0, "lon": -77.05264783333334, "name": "576b26578139e18063c3d7f743c3c5ba", "fusion_lon": 0.0}, {"lat": 38.92228733333334, "fusion_lat": 0.0, "type": "electric_scooter", "bike_id": "73c633f5acfb2c7584f66ea8fd049fc9", "is_reserved": 0, "rental_uris": {"ios": "https://dc.lft.to/lastmile_qr_scan", "android": "https://dc.lft.to/lastmile_qr_scan"}, "is_disabled": 0, "lon": -77.04247033333333, "name": "73c633f5acfb2c7584f66ea8fd049fc9", "fusion_lon": 0.0}, {"lat": 38.90817533333333, "fusion_lat": 0.0, "type": "electric_scooter", "bike_id": "47c73e88b0b360172f9e75b96e82064b", "is_reserved": 0, "rental_uris": {"ios": "https://dc.lft.to/lastmile_qr_scan", "android": "https://dc.lft.to/lastmile_qr_scan"}, "is_disabled": 0, "lon": -77.02374366666666, "name": "47c73e88b0b360172f9e75b96e82064b", "fusion_lon": 0.0}, {"lat": 38.90823733333333, "fusion_lat": 0.0, "type": "electric_scooter", "bike_id": "a33c2a6e27221a0bdaeee139549e4996", "is_reserved": 0, "rental_uris": {"ios": "https://dc.lft.to/lastmile_qr_scan", "android": "https://dc.lft.to/lastmile_qr_scan"}, "is_disabled": 0, "lon": -77.043425, "name": "a33c2a6e27221a0bdaeee139549e4996", "fusion_lon": 0.0}, {"lat": 38.909436666666664, "fusion_lat": 0.0, "type": "electric_scooter", "bike_id": "11114f87fff3f3cddeb98fcc11913c17", "is_reserved": 0, "rental_uris": {"ios": "https://dc.lft.to/lastmile_qr_scan", "android": "https://dc.lft.to/lastmile_qr_scan"}, "is_disabled": 0, "lon": -77.0320725, "name": "11114f87fff3f3cddeb98fcc11913c17", "fusion_lon": 0.0}, {"lat": 38.887312, "fusion_lat": 0.0, "type": "electric_scooter", "bike_id": "3a20aed21f0b35478fc61fe0460470e6", "is_reserved": 0, "rental_uris": {"ios": "https://dc.lft.to/lastmile_qr_scan", "android": "https://dc.lft.to/lastmile_qr_scan"}, "is_disabled": 0, "lon": -77.0321475, "name": "3a20aed21f0b35478fc61fe0460470e6", "fusion_lon": 0.0}, {"lat": 38.904322, "fusion_lat": 0.0, "type": "electric_scooter", "bike_id": "930870eb4fbe5ab297aaad9455aaa694", "is_reserved": 0, "rental_uris": {"ios": "https://dc.lft.to/lastmile_qr_scan", "android": "https://dc.lft.to/lastmile_qr_scan"}, "is_disabled": 0, "lon": -77.0240615, "name": "930870eb4fbe5ab297aaad9455aaa694", "fusion_lon": 0.0}, {"lat": 38.90887633333333, "fusion_lat": 0.0, "type": "electric_scooter", "bike_id": "a28b4cbba9d8fec21d0a0ecc5bbfdf03", "is_reserved": 0, "rental_uris": {"ios": "https://dc.lft.to/lastmile_qr_scan", "android": "https://dc.lft.to/lastmile_qr_scan"}, "is_disabled": 0, "lon": -77.07273633333334, "name": "a28b4cbba9d8fec21d0a0ecc5bbfdf03", "fusion_lon": 0.0}, {"lat": 38.90402516666666, "fusion_lat": 0.0, "type": "electric_scooter", "bike_id": "4716749eec730f8553e7bdf8abcfbe92", "is_reserved": 0, "rental_uris": {"ios": "https://dc.lft.to/lastmile_qr_scan", "android": "https://dc.lft.to/lastmile_qr_scan"}, "is_disabled": 0, "lon": -77.01628816666667, "name": "4716749eec730f8553e7bdf8abcfbe92", "fusion_lon": 0.0}, {"lat": 38.92208566666667, "fusion_lat": 0.0, "type": "electric_scooter", "bike_id": "9b8f754da7783f885369105b412a9e51", "is_reserved": 0, "rental_uris": {"ios": "https://dc.lft.to/lastmile_qr_scan", "android": "https://dc.lft.to/lastmile_qr_scan"}, "is_disabled": 0, "lon": -77.032882, "name": "9b8f754da7783f885369105b412a9e51", "fusion_lon": 0.0}, {"lat": 38.92888116666666, "fusion_lat": 0.0, "type": "electric_scooter", "bike_id": "48e95c403a11192d10566adc3ad1872d", "is_reserved": 0, "rental_uris": {"ios": "https://dc.lft.to/lastmile_qr_scan", "android": "https://dc.lft.to/lastmile_qr_scan"}, "is_disabled": 0, "lon": -77.03229266666666, "name": "48e95c403a11192d10566adc3ad1872d", "fusion_lon": 0.0}, {"lat": 38.91875616666667, "fusion_lat": 0.0, "type": "electric_scooter", "bike_id": "b69ca83a5b6ef6cb86ffcdbc740b0fdf", "is_reserved": 0, "rental_uris": {"ios": "https://dc.lft.to/lastmile_qr_scan", "android": "https://dc.lft.to/lastmile_qr_scan"}, "is_disabled": 0, "lon": -77.029605, "name": "b69ca83a5b6ef6cb86ffcdbc740b0fdf", "fusion_lon": 0.0}, {"lat": 38.92158933333333, "fusion_lat": 0.0, "type": "electric_scooter", "bike_id": "a5b8193a0fc7e4eefc722e57fc2d6c43", "is_reserved": 0, "rental_uris": {"ios": "https://dc.lft.to/lastmile_qr_scan", "android": "https://dc.lft.to/lastmile_qr_scan"}, "is_disabled": 0, "lon": -77.03234583333334, "name": "a5b8193a0fc7e4eefc722e57fc2d6c43", "fusion_lon": 0.0}, {"lat": 38.945275, "fusion_lat": 0.0, "type": "electric_scooter", "bike_id": "f65ba459f19f716926b94b3c163826ae", "is_reserved": 0, "rental_uris": {"ios": "https://dc.lft.to/lastmile_qr_scan", "android": "https://dc.lft.to/lastmile_qr_scan"}, "is_disabled": 0, "lon": -77.02090733333333, "name": "f65ba459f19f716926b94b3c163826ae", "fusion_lon": 0.0}, {"lat": 38.92434016666667, "fusion_lat": 0.0, "type": "electric_scooter", "bike_id": "fce1977532a3e53996ce6f0c439ee6ec", "is_reserved": 0, "rental_uris": {"ios": "https://dc.lft.to/lastmile_qr_scan", "android": "https://dc.lft.to/lastmile_qr_scan"}, "is_disabled": 0, "lon": -77.0424705, "name": "fce1977532a3e53996ce6f0c439ee6ec", "fusion_lon": 0.0}, {"lat": 38.9171795, "fusion_lat": 0.0, "type": "electric_scooter", "bike_id": "ad2da4597249e0b29dba2a9633da90f6", "is_reserved": 0, "rental_uris": {"ios": "https://dc.lft.to/lastmile_qr_scan", "android": "https://dc.lft.to/lastmile_qr_scan"}, "is_disabled": 0, "lon": -77.02972383333334, "name": "ad2da4597249e0b29dba2a9633da90f6", "fusion_lon": 0.0}, {"lat": 38.89289633333333, "fusion_lat": 0.0, "type": "electric_bike", "bike_id": "ef4cef96662e0da7127b8a6950f40f3c", "is_reserved": 0, "rental_uris": {"ios": "https://dc.lft.to/lastmile_qr_scan", "android": "https://dc.lft.to/lastmile_qr_scan"}, "is_disabled": 0, "lon": -76.97618266666667, "name": "ef4cef96662e0da7127b8a6950f40f3c", "fusion_lon": 0.0}, {"lat": 38.91104383333333, "fusion_lat": 0.0, "type": "electric_scooter", "bike_id": "2eea88e1cc647741c264de33efd19d17", "is_reserved": 0, "rental_uris": {"ios": "https://dc.lft.to/lastmile_qr_scan", "android": "https://dc.lft.to/lastmile_qr_scan"}, "is_disabled": 0, "lon": -77.025067, "name": "2eea88e1cc647741c264de33efd19d17", "fusion_lon": 0.0}, {"lat": 38.90283433333333, "fusion_lat": 0.0, "type": "electric_scooter", "bike_id": "f8f523d4ee6bca15f1a7d50baf05507c", "is_reserved": 0, "rental_uris": {"ios": "https://dc.lft.to/lastmile_qr_scan", "android": "https://dc.lft.to/lastmile_qr_scan"}, "is_disabled": 0, "lon": -77.0227495, "name": "f8f523d4ee6bca15f1a7d50baf05507c", "fusion_lon": 0.0}, {"lat": 38.9094385, "fusion_lat": 0.0, "type": "electric_scooter", "bike_id": "dd86c2b613846994ab95b8a25639c075", "is_reserved": 0, "rental_uris": {"ios": "https://dc.lft.to/lastmile_qr_scan", "android": "https://dc.lft.to/lastmile_qr_scan"}, "is_disabled": 0, "lon": -77.049411, "name": "dd86c2b613846994ab95b8a25639c075", "fusion_lon": 0.0}, {"lat": 38.906771166666665, "fusion_lat": 0.0, "type": "electric_scooter", "bike_id": "7afa05cd25365c861f509d6fc8d1c5cd", "is_reserved": 0, "rental_uris": {"ios": "https://dc.lft.to/lastmile_qr_scan", "android": "https://dc.lft.to/lastmile_qr_scan"}, "is_disabled": 0, "lon": -77.0375555, "name": "7afa05cd25365c861f509d6fc8d1c5cd", "fusion_lon": 0.0}, {"lat": 38.91133083333333, "fusion_lat": 0.0, "type": "electric_scooter", "bike_id": "2db8e52168f99d873ebcaefab6a7cf42", "is_reserved": 0, "rental_uris": {"ios": "https://dc.lft.to/lastmile_qr_scan", "android": "https://dc.lft.to/lastmile_qr_scan"}, "is_disabled": 0, "lon": -77.03834316666666, "name": "2db8e52168f99d873ebcaefab6a7cf42", "fusion_lon": 0.0}, {"lat": 38.928774833333335, "fusion_lat": 0.0, "type": "electric_scooter", "bike_id": "46d248575ab9d0e1184abd15e2bfca18", "is_reserved": 0, "rental_uris": {"ios": "https://dc.lft.to/lastmile_qr_scan", "android": "https://dc.lft.to/lastmile_qr_scan"}, "is_disabled": 0, "lon": -77.01366316666666, "name": "46d248575ab9d0e1184abd15e2bfca18", "fusion_lon": 0.0}, {"lat": 38.928758, "fusion_lat": 0.0, "type": "electric_scooter", "bike_id": "b591df9350e7af20f3073c5a7d4924a2", "is_reserved": 0, "rental_uris": {"ios": "https://dc.lft.to/lastmile_qr_scan", "android": "https://dc.lft.to/lastmile_qr_scan"}, "is_disabled": 0, "lon": -77.03410083333333, "name": "b591df9350e7af20f3073c5a7d4924a2", "fusion_lon": 0.0}, {"lat": 38.896113166666666, "fusion_lat": 0.0, "type": "electric_scooter", "bike_id": "5c9c6db4332abc76e93773c6a67e5f43", "is_reserved": 0, "rental_uris": {"ios": "https://dc.lft.to/lastmile_qr_scan", "android": "https://dc.lft.to/lastmile_qr_scan"}, "is_disabled": 0, "lon": -77.02202516666667, "name": "5c9c6db4332abc76e93773c6a67e5f43", "fusion_lon": 0.0}, {"lat": 38.915633666666665, "fusion_lat": 0.0, "type": "electric_scooter", "bike_id": "3521caaabaf9a1e8ca6d0563389a753b", "is_reserved": 0, "rental_uris": {"ios": "https://dc.lft.to/lastmile_qr_scan", "android": "https://dc.lft.to/lastmile_qr_scan"}, "is_disabled": 0, "lon": -77.04288883333334, "name": "3521caaabaf9a1e8ca6d0563389a753b", "fusion_lon": 0.0}, {"lat": 38.92478166666667, "fusion_lat": 0.0, "type": "electric_scooter", "bike_id": "06ed5111bea9afdb484a60407d118c89", "is_reserved": 0, "rental_uris": {"ios": "https://dc.lft.to/lastmile_qr_scan", "android": "https://dc.lft.to/lastmile_qr_scan"}, "is_disabled": 0, "lon": -77.02667733333334, "name": "06ed5111bea9afdb484a60407d118c89", "fusion_lon": 0.0}, {"lat": 38.87624116666667, "fusion_lat": 0.0, "type": "electric_scooter", "bike_id": "eb7ed3beda84f09acc589a0bd4fa1bec", "is_reserved": 0, "rental_uris": {"ios": "https://dc.lft.to/lastmile_qr_scan", "android": "https://dc.lft.to/lastmile_qr_scan"}, "is_disabled": 0, "lon": -77.003823, "name": "eb7ed3beda84f09acc589a0bd4fa1bec", "fusion_lon": 0.0}, {"lat": 38.905641, "fusion_lat": 0.0, "type": "electric_scooter", "bike_id": "d2373db79ecc3b8febd0bdcea11773cc", "is_reserved": 0, "rental_uris": {"ios": "https://dc.lft.to/lastmile_qr_scan", "android": "https://dc.lft.to/lastmile_qr_scan"}, "is_disabled": 0, "lon": -77.03451133333333, "name": "d2373db79ecc3b8febd0bdcea11773cc", "fusion_lon": 0.0}, {"lat": 38.8935915, "fusion_lat": 0.0, "type": "electric_scooter", "bike_id": "a73f2afbbba923db29c1d1991a9bf058", "is_reserved": 0, "rental_uris": {"ios": "https://dc.lft.to/lastmile_qr_scan", "android": "https://dc.lft.to/lastmile_qr_scan"}, "is_disabled": 0, "lon": -77.0033285, "name": "a73f2afbbba923db29c1d1991a9bf058", "fusion_lon": 0.0}, {"lat": 38.90730033333333, "fusion_lat": 0.0, "type": "electric_scooter", "bike_id": "2d5bf27e690b26d384da840647bd7e19", "is_reserved": 0, "rental_uris": {"ios": "https://dc.lft.to/lastmile_qr_scan", "android": "https://dc.lft.to/lastmile_qr_scan"}, "is_disabled": 0, "lon": -77.029792, "name": "2d5bf27e690b26d384da840647bd7e19", "fusion_lon": 0.0}, {"lat": 38.89846583333333, "fusion_lat": 0.0, "type": "electric_scooter", "bike_id": "017957bae28cb335b8452a341e3edbb0", "is_reserved": 0, "rental_uris": {"ios": "https://dc.lft.to/lastmile_qr_scan", "android": "https://dc.lft.to/lastmile_qr_scan"}, "is_disabled": 0, "lon": -77.033252, "name": "017957bae28cb335b8452a341e3edbb0", "fusion_lon": 0.0}, {"lat": 38.93361816666667, "fusion_lat": 0.0, "type": "electric_scooter", "bike_id": "f8a7c90ba3e183ec444c85e41a323356", "is_reserved": 0, "rental_uris": {"ios": "https://dc.lft.to/lastmile_qr_scan", "android": "https://dc.lft.to/lastmile_qr_scan"}, "is_disabled": 0, "lon": -77.08855116666666, "name": "f8a7c90ba3e183ec444c85e41a323356", "fusion_lon": 0.0}, {"lat": 38.902722833333335, "fusion_lat": 0.0, "type": "electric_scooter", "bike_id": "951276c715993a1954c9a177f706ddda", "is_reserved": 0, "rental_uris": {"ios": "https://dc.lft.to/lastmile_qr_scan", "android": "https://dc.lft.to/lastmile_qr_scan"}, "is_disabled": 0, "lon": -77.028291, "name": "951276c715993a1954c9a177f706ddda", "fusion_lon": 0.0}, {"lat": 38.90375083333333, "fusion_lat": 0.0, "type": "electric_scooter", "bike_id": "77c0b1f49d5cc63eefa857c4b602a326", "is_reserved": 0, "rental_uris": {"ios": "https://dc.lft.to/lastmile_qr_scan", "android": "https://dc.lft.to/lastmile_qr_scan"}, "is_disabled": 0, "lon": -77.044891, "name": "77c0b1f49d5cc63eefa857c4b602a326", "fusion_lon": 0.0}, {"lat": 38.909437, "fusion_lat": 0.0, "type": "electric_scooter", "bike_id": "6144e97237a80d9ca7ccc18b810b421b", "is_reserved": 0, "rental_uris": {"ios": "https://dc.lft.to/lastmile_qr_scan", "android": "https://dc.lft.to/lastmile_qr_scan"}, "is_disabled": 0, "lon": -77.03187733333333, "name": "6144e97237a80d9ca7ccc18b810b421b", "fusion_lon": 0.0}, {"lat": 38.9079465, "fusion_lat": 0.0, "type": "electric_scooter", "bike_id": "f0f7428121e2a046cb384787e900dad3", "is_reserved": 0, "rental_uris": {"ios": "https://dc.lft.to/lastmile_qr_scan", "android": "https://dc.lft.to/lastmile_qr_scan"}, "is_disabled": 0, "lon": -77.0110905, "name": "f0f7428121e2a046cb384787e900dad3", "fusion_lon": 0.0}, {"lat": 38.933883333333334, "fusion_lat": 0.0, "type": "electric_scooter", "bike_id": "4cb4a685d7750483f7da66eba252b3e2", "is_reserved": 0, "rental_uris": {"ios": "https://dc.lft.to/lastmile_qr_scan", "android": "https://dc.lft.to/lastmile_qr_scan"}, "is_disabled": 0, "lon": -77.03095683333333, "name": "4cb4a685d7750483f7da66eba252b3e2", "fusion_lon": 0.0}, {"lat": 38.903710833333335, "fusion_lat": 0.0, "type": "electric_scooter", "bike_id": "5d2c13824acd019a34d84245997077d5", "is_reserved": 0, "rental_uris": {"ios": "https://dc.lft.to/lastmile_qr_scan", "android": "https://dc.lft.to/lastmile_qr_scan"}, "is_disabled": 0, "lon": -77.04496966666666, "name": "5d2c13824acd019a34d84245997077d5", "fusion_lon": 0.0}, {"lat": 38.89668066666667, "fusion_lat": 0.0, "type": "electric_scooter", "bike_id": "b21fcdf8568d91720d61ae9ee791e2cd", "is_reserved": 0, "rental_uris": {"ios": "https://dc.lft.to/lastmile_qr_scan", "android": "https://dc.lft.to/lastmile_qr_scan"}, "is_disabled": 0, "lon": -77.03232216666666, "name": "b21fcdf8568d91720d61ae9ee791e2cd", "fusion_lon": 0.0}, {"lat": 38.90788216666667, "fusion_lat": 0.0, "type": "electric_scooter", "bike_id": "3e5751bdd3c3852fbffc21db1b60ce65", "is_reserved": 0, "rental_uris": {"ios": "https://dc.lft.to/lastmile_qr_scan", "android": "https://dc.lft.to/lastmile_qr_scan"}, "is_disabled": 0, "lon": -77.0346775, "name": "3e5751bdd3c3852fbffc21db1b60ce65", "fusion_lon": 0.0}, {"lat": 38.8935705, "fusion_lat": 0.0, "type": "electric_scooter", "bike_id": "11eddf8ff0de817e0dbe409f3477f8d6", "is_reserved": 0, "rental_uris": {"ios": "https://dc.lft.to/lastmile_qr_scan", "android": "https://dc.lft.to/lastmile_qr_scan"}, "is_disabled": 0, "lon": -77.019948, "name": "11eddf8ff0de817e0dbe409f3477f8d6", "fusion_lon": 0.0}, {"lat": 38.92077916666667, "fusion_lat": 0.0, "type": "electric_scooter", "bike_id": "8ab094c549812bdf1f9e2794d06ab557", "is_reserved": 0, "rental_uris": {"ios": "https://dc.lft.to/lastmile_qr_scan", "android": "https://dc.lft.to/lastmile_qr_scan"}, "is_disabled": 0, "lon": -77.02428733333333, "name": "8ab094c549812bdf1f9e2794d06ab557", "fusion_lon": 0.0}, {"lat": 38.882433666666664, "fusion_lat": 0.0, "type": "electric_bike", "bike_id": "7182e521dad3b460e64b460fccf2268e", "is_reserved": 0, "rental_uris": {"ios": "https://dc.lft.to/lastmile_qr_scan", "android": "https://dc.lft.to/lastmile_qr_scan"}, "is_disabled": 0, "lon": -76.96254483333334, "name": "7182e521dad3b460e64b460fccf2268e", "fusion_lon": 0.0}, {"lat": 38.90591533333333, "fusion_lat": 0.0, "type": "electric_scooter", "bike_id": "a88ca373b04832c6dcdca2aee0dda4d6", "is_reserved": 0, "rental_uris": {"ios": "https://dc.lft.to/lastmile_qr_scan", "android": "https://dc.lft.to/lastmile_qr_scan"}, "is_disabled": 0, "lon": -77.02191066666667, "name": "a88ca373b04832c6dcdca2aee0dda4d6", "fusion_lon": 0.0}, {"lat": 38.908279666666665, "fusion_lat": 0.0, "type": "electric_scooter", "bike_id": "d3e05e89e8f6761a26f839a4475ab196", "is_reserved": 0, "rental_uris": {"ios": "https://dc.lft.to/lastmile_qr_scan", "android": "https://dc.lft.to/lastmile_qr_scan"}, "is_disabled": 0, "lon": -76.93448216666667, "name": "d3e05e89e8f6761a26f839a4475ab196", "fusion_lon": 0.0}, {"lat": 38.907925166666665, "fusion_lat": 0.0, "type": "electric_scooter", "bike_id": "13f3e251b8d5e655b180a5b6f9a99a90", "is_reserved": 0, "rental_uris": {"ios": "https://dc.lft.to/lastmile_qr_scan", "android": "https://dc.lft.to/lastmile_qr_scan"}, "is_disabled": 0, "lon": -77.03212616666667, "name": "13f3e251b8d5e655b180a5b6f9a99a90", "fusion_lon": 0.0}, {"lat": 38.920657, "fusion_lat": 0.0, "type": "electric_scooter", "bike_id": "ce2325c09a287eaf254c776f2a6b8d83", "is_reserved": 0, "rental_uris": {"ios": "https://dc.lft.to/lastmile_qr_scan", "android": "https://dc.lft.to/lastmile_qr_scan"}, "is_disabled": 0, "lon": -77.04184583333333, "name": "ce2325c09a287eaf254c776f2a6b8d83", "fusion_lon": 0.0}, {"lat": 38.90097333333333, "fusion_lat": 0.0, "type": "electric_scooter", "bike_id": "c7274b8c9cd0813e57f4608b1bd2fef0", "is_reserved": 0, "rental_uris": {"ios": "https://dc.lft.to/lastmile_qr_scan", "android": "https://dc.lft.to/lastmile_qr_scan"}, "is_disabled": 0, "lon": -76.97638266666667, "name": "c7274b8c9cd0813e57f4608b1bd2fef0", "fusion_lon": 0.0}, {"lat": 38.87415333333333, "fusion_lat": 0.0, "type": "electric_scooter", "bike_id": "8cd1231aa570d4fd0643939be8c49120", "is_reserved": 0, "rental_uris": {"ios": "https://dc.lft.to/lastmile_qr_scan", "android": "https://dc.lft.to/lastmile_qr_scan"}, "is_disabled": 0, "lon": -76.97112683333333, "name": "8cd1231aa570d4fd0643939be8c49120", "fusion_lon": 0.0}, {"lat": 38.89503916666666, "fusion_lat": 0.0, "type": "electric_scooter", "bike_id": "f2e3375ae13b5a53f2c78ee1d2e30869", "is_reserved": 0, "rental_uris": {"ios": "https://dc.lft.to/lastmile_qr_scan", "android": "https://dc.lft.to/lastmile_qr_scan"}, "is_disabled": 0, "lon": -77.0032895, "name": "f2e3375ae13b5a53f2c78ee1d2e30869", "fusion_lon": 0.0}, {"lat": 38.90523666666667, "fusion_lat": 0.0, "type": "electric_scooter", "bike_id": "b622b6b251bce3ea0ac47c4da8f95192", "is_reserved": 0, "rental_uris": {"ios": "https://dc.lft.to/lastmile_qr_scan", "android": "https://dc.lft.to/lastmile_qr_scan"}, "is_disabled": 0, "lon": -77.04182816666666, "name": "b622b6b251bce3ea0ac47c4da8f95192", "fusion_lon": 0.0}, {"lat": 38.9565715, "fusion_lat": 0.0, "type": "electric_scooter", "bike_id": "4f41aff744852af6e51acfd0c94b7962", "is_reserved": 0, "rental_uris": {"ios": "https://dc.lft.to/lastmile_qr_scan", "android": "https://dc.lft.to/lastmile_qr_scan"}, "is_disabled": 0, "lon": -77.0332435, "name": "4f41aff744852af6e51acfd0c94b7962", "fusion_lon": 0.0}, {"lat": 38.9357965, "fusion_lat": 0.0, "type": "electric_scooter", "bike_id": "277c3b9877a9a28ac68d532be07374a7", "is_reserved": 0, "rental_uris": {"ios": "https://dc.lft.to/lastmile_qr_scan", "android": "https://dc.lft.to/lastmile_qr_scan"}, "is_disabled": 0, "lon": -77.021124, "name": "277c3b9877a9a28ac68d532be07374a7", "fusion_lon": 0.0}, {"lat": 38.921614166666664, "fusion_lat": 0.0, "type": "electric_scooter", "bike_id": "d8d5723fe237da96e92b085ad020d6a9", "is_reserved": 0, "rental_uris": {"ios": "https://dc.lft.to/lastmile_qr_scan", "android": "https://dc.lft.to/lastmile_qr_scan"}, "is_disabled": 0, "lon": -77.02533833333334, "name": "d8d5723fe237da96e92b085ad020d6a9", "fusion_lon": 0.0}, {"lat": 38.936293666666664, "fusion_lat": 0.0, "type": "electric_scooter", "bike_id": "ae69c18a166abd308411999c91911777", "is_reserved": 0, "rental_uris": {"ios": "https://dc.lft.to/lastmile_qr_scan", "android": "https://dc.lft.to/lastmile_qr_scan"}, "is_disabled": 0, "lon": -77.03650133333333, "name": "ae69c18a166abd308411999c91911777", "fusion_lon": 0.0}, {"lat": 38.9170935, "fusion_lat": 0.0, "type": "electric_scooter", "bike_id": "cd18bcf0a7abf94a17a9f8bab7799577", "is_reserved": 0, "rental_uris": {"ios": "https://dc.lft.to/lastmile_qr_scan", "android": "https://dc.lft.to/lastmile_qr_scan"}, "is_disabled": 0, "lon": -77.028937, "name": "cd18bcf0a7abf94a17a9f8bab7799577", "fusion_lon": 0.0}, {"lat": 38.90502516666667, "fusion_lat": 0.0, "type": "electric_scooter", "bike_id": "547422cd26880b6c2209e95d370565d1", "is_reserved": 0, "rental_uris": {"ios": "https://dc.lft.to/lastmile_qr_scan", "android": "https://dc.lft.to/lastmile_qr_scan"}, "is_disabled": 0, "lon": -77.02949033333333, "name": "547422cd26880b6c2209e95d370565d1", "fusion_lon": 0.0}, {"lat": 38.861987666666664, "fusion_lat": 0.0, "type": "electric_bike", "bike_id": "d93af78664676d7c2f84bc2f77734409", "is_reserved": 0, "rental_uris": {"ios": "https://dc.lft.to/lastmile_qr_scan", "android": "https://dc.lft.to/lastmile_qr_scan"}, "is_disabled": 0, "lon": -76.94810116666666, "name": "d93af78664676d7c2f84bc2f77734409", "fusion_lon": 0.0}, {"lat": 38.903766, "fusion_lat": 0.0, "type": "electric_scooter", "bike_id": "c8d3aacc585daf07c864306f5116cc9a", "is_reserved": 0, "rental_uris": {"ios": "https://dc.lft.to/lastmile_qr_scan", "android": "https://dc.lft.to/lastmile_qr_scan"}, "is_disabled": 0, "lon": -77.0490365, "name": "c8d3aacc585daf07c864306f5116cc9a", "fusion_lon": 0.0}, {"lat": 38.914955, "fusion_lat": 0.0, "type": "electric_scooter", "bike_id": "d087528c4259bf63588189de9c36f3e0", "is_reserved": 0, "rental_uris": {"ios": "https://dc.lft.to/lastmile_qr_scan", "android": "https://dc.lft.to/lastmile_qr_scan"}, "is_disabled": 0, "lon": -76.98371183333333, "name": "d087528c4259bf63588189de9c36f3e0", "fusion_lon": 0.0}, {"lat": 38.95204316666667, "fusion_lat": 0.0, "type": "electric_scooter", "bike_id": "c064ee902ecaf18ab6d68c59d62012f8", "is_reserved": 0, "rental_uris": {"ios": "https://dc.lft.to/lastmile_qr_scan", "android": "https://dc.lft.to/lastmile_qr_scan"}, "is_disabled": 0, "lon": -77.027333, "name": "c064ee902ecaf18ab6d68c59d62012f8", "fusion_lon": 0.0}, {"lat": 38.901284, "fusion_lat": 0.0, "type": "electric_scooter", "bike_id": "8116eeb8fd20eab04e02f20081da5d3b", "is_reserved": 0, "rental_uris": {"ios": "https://dc.lft.to/lastmile_qr_scan", "android": "https://dc.lft.to/lastmile_qr_scan"}, "is_disabled": 0, "lon": -77.00853266666667, "name": "8116eeb8fd20eab04e02f20081da5d3b", "fusion_lon": 0.0}, {"lat": 38.94040066666667, "fusion_lat": 0.0, "type": "electric_scooter", "bike_id": "5fa68e2af7314a2bff39ac382b02cbc3", "is_reserved": 0, "rental_uris": {"ios": "https://dc.lft.to/lastmile_qr_scan", "android": "https://dc.lft.to/lastmile_qr_scan"}, "is_disabled": 0, "lon": -77.02905766666667, "name": "5fa68e2af7314a2bff39ac382b02cbc3", "fusion_lon": 0.0}, {"lat": 38.907477666666665, "fusion_lat": 0.0, "type": "electric_scooter", "bike_id": "84dcb414e2cc8df0ebfe72dc1ab9f6f9", "is_reserved": 0, "rental_uris": {"ios": "https://dc.lft.to/lastmile_qr_scan", "android": "https://dc.lft.to/lastmile_qr_scan"}, "is_disabled": 0, "lon": -77.031828, "name": "84dcb414e2cc8df0ebfe72dc1ab9f6f9", "fusion_lon": 0.0}, {"lat": 38.92721183333333, "fusion_lat": 0.0, "type": "electric_scooter", "bike_id": "16fd385e4241e8d4fc62867f9309dbf2", "is_reserved": 0, "rental_uris": {"ios": "https://dc.lft.to/lastmile_qr_scan", "android": "https://dc.lft.to/lastmile_qr_scan"}, "is_disabled": 0, "lon": -77.0399595, "name": "16fd385e4241e8d4fc62867f9309dbf2", "fusion_lon": 0.0}, {"lat": 38.91092883333334, "fusion_lat": 0.0, "type": "electric_scooter", "bike_id": "81bd48e147306b4092099edf8cb3dc20", "is_reserved": 0, "rental_uris": {"ios": "https://dc.lft.to/lastmile_qr_scan", "android": "https://dc.lft.to/lastmile_qr_scan"}, "is_disabled": 0, "lon": -77.03841316666667, "name": "81bd48e147306b4092099edf8cb3dc20", "fusion_lon": 0.0}, {"lat": 38.900855666666665, "fusion_lat": 0.0, "type": "electric_scooter", "bike_id": "86cc077beb643b74675861c88b8fd508", "is_reserved": 0, "rental_uris": {"ios": "https://dc.lft.to/lastmile_qr_scan", "android": "https://dc.lft.to/lastmile_qr_scan"}, "is_disabled": 0, "lon": -77.04755616666667, "name": "86cc077beb643b74675861c88b8fd508", "fusion_lon": 0.0}, {"lat": 38.8977055, "fusion_lat": 0.0, "type": "electric_scooter", "bike_id": "f3df5eec75d3a87025c98af9e1beafc7", "is_reserved": 0, "rental_uris": {"ios": "https://dc.lft.to/lastmile_qr_scan", "android": "https://dc.lft.to/lastmile_qr_scan"}, "is_disabled": 0, "lon": -77.01226833333334, "name": "f3df5eec75d3a87025c98af9e1beafc7", "fusion_lon": 0.0}, {"lat": 38.9138025, "fusion_lat": 0.0, "type": "electric_scooter", "bike_id": "452c6fe28766d844dd0b337379e7467c", "is_reserved": 0, "rental_uris": {"ios": "https://dc.lft.to/lastmile_qr_scan", "android": "https://dc.lft.to/lastmile_qr_scan"}, "is_disabled": 0, "lon": -77.0413715, "name": "452c6fe28766d844dd0b337379e7467c", "fusion_lon": 0.0}, {"lat": 38.908274, "fusion_lat": 0.0, "type": "electric_scooter", "bike_id": "50a72eb46564be33a2b52d23bab2b2cb", "is_reserved": 0, "rental_uris": {"ios": "https://dc.lft.to/lastmile_qr_scan", "android": "https://dc.lft.to/lastmile_qr_scan"}, "is_disabled": 0, "lon": -76.941575, "name": "50a72eb46564be33a2b52d23bab2b2cb", "fusion_lon": 0.0}, {"lat": 38.964663, "fusion_lat": 0.0, "type": "electric_bike", "bike_id": "d24178da7a738ddb1200527285688afb", "is_reserved": 0, "rental_uris": {"ios": "https://dc.lft.to/lastmile_qr_scan", "android": "https://dc.lft.to/lastmile_qr_scan"}, "is_disabled": 0, "lon": -77.03557133333334, "name": "d24178da7a738ddb1200527285688afb", "fusion_lon": 0.0}, {"lat": 38.90152033333333, "fusion_lat": 0.0, "type": "electric_scooter", "bike_id": "6e3bc436feccd4d86b8ff688e1c93999", "is_reserved": 0, "rental_uris": {"ios": "https://dc.lft.to/lastmile_qr_scan", "android": "https://dc.lft.to/lastmile_qr_scan"}, "is_disabled": 0, "lon": -77.06017783333333, "name": "6e3bc436feccd4d86b8ff688e1c93999", "fusion_lon": 0.0}, {"lat": 38.907464833333336, "fusion_lat": 0.0, "type": "electric_scooter", "bike_id": "9998e95b0562d17e52797c2e59953a7c", "is_reserved": 0, "rental_uris": {"ios": "https://dc.lft.to/lastmile_qr_scan", "android": "https://dc.lft.to/lastmile_qr_scan"}, "is_disabled": 0, "lon": -77.03477216666667, "name": "9998e95b0562d17e52797c2e59953a7c", "fusion_lon": 0.0}, {"lat": 38.87274383333333, "fusion_lat": 0.0, "type": "electric_bike", "bike_id": "e5f44497bfaee81bddb02031da08100a", "is_reserved": 0, "rental_uris": {"ios": "https://dc.lft.to/lastmile_qr_scan", "android": "https://dc.lft.to/lastmile_qr_scan"}, "is_disabled": 0, "lon": -77.2332785, "name": "e5f44497bfaee81bddb02031da08100a", "fusion_lon": 0.0}, {"lat": 38.92898, "fusion_lat": 0.0, "type": "electric_scooter", "bike_id": "0d6aad8950950ea45a85c2d95fcd4ebe", "is_reserved": 0, "rental_uris": {"ios": "https://dc.lft.to/lastmile_qr_scan", "android": "https://dc.lft.to/lastmile_qr_scan"}, "is_disabled": 0, "lon": -77.0163765, "name": "0d6aad8950950ea45a85c2d95fcd4ebe", "fusion_lon": 0.0}, {"lat": 38.9002385, "fusion_lat": 0.0, "type": "electric_scooter", "bike_id": "6388174ea722ab5e02273051f9f82a88", "is_reserved": 0, "rental_uris": {"ios": "https://dc.lft.to/lastmile_qr_scan", "android": "https://dc.lft.to/lastmile_qr_scan"}, "is_disabled": 0, "lon": -77.0071045, "name": "6388174ea722ab5e02273051f9f82a88", "fusion_lon": 0.0}, {"lat": 38.91641683333334, "fusion_lat": 0.0, "type": "electric_scooter", "bike_id": "2342ee9f69dc9ce055c3dc5f60746d13", "is_reserved": 0, "rental_uris": {"ios": "https://dc.lft.to/lastmile_qr_scan", "android": "https://dc.lft.to/lastmile_qr_scan"}, "is_disabled": 0, "lon": -77.0424725, "name": "2342ee9f69dc9ce055c3dc5f60746d13", "fusion_lon": 0.0}, {"lat": 38.902028, "fusion_lat": 0.0, "type": "electric_scooter", "bike_id": "91e9c6cda06146301207c80d1d99dfaa", "is_reserved": 0, "rental_uris": {"ios": "https://dc.lft.to/lastmile_qr_scan", "android": "https://dc.lft.to/lastmile_qr_scan"}, "is_disabled": 0, "lon": -77.02369283333333, "name": "91e9c6cda06146301207c80d1d99dfaa", "fusion_lon": 0.0}, {"lat": 38.95153533333333, "fusion_lat": 0.0, "type": "electric_scooter", "bike_id": "e2aabe81d600b87a119d020355fd1278", "is_reserved": 0, "rental_uris": {"ios": "https://dc.lft.to/lastmile_qr_scan", "android": "https://dc.lft.to/lastmile_qr_scan"}, "is_disabled": 0, "lon": -77.01867116666666, "name": "e2aabe81d600b87a119d020355fd1278", "fusion_lon": 0.0}, {"lat": 38.92176116666667, "fusion_lat": 0.0, "type": "electric_scooter", "bike_id": "65bb057ff01b48352b7a27484a344410", "is_reserved": 0, "rental_uris": {"ios": "https://dc.lft.to/lastmile_qr_scan", "android": "https://dc.lft.to/lastmile_qr_scan"}, "is_disabled": 0, "lon": -77.043417, "name": "65bb057ff01b48352b7a27484a344410", "fusion_lon": 0.0}, {"lat": 38.893243166666664, "fusion_lat": 0.0, "type": "electric_scooter", "bike_id": "8eb9f172d267248a8ab9d56d23323768", "is_reserved": 0, "rental_uris": {"ios": "https://dc.lft.to/lastmile_qr_scan", "android": "https://dc.lft.to/lastmile_qr_scan"}, "is_disabled": 0, "lon": -77.04877333333333, "name": "8eb9f172d267248a8ab9d56d23323768", "fusion_lon": 0.0}, {"lat": 38.90832433333333, "fusion_lat": 0.0, "type": "electric_scooter", "bike_id": "505d6d5dfc6850028a872455cd29023d", "is_reserved": 0, "rental_uris": {"ios": "https://dc.lft.to/lastmile_qr_scan", "android": "https://dc.lft.to/lastmile_qr_scan"}, "is_disabled": 0, "lon": -77.0021885, "name": "505d6d5dfc6850028a872455cd29023d", "fusion_lon": 0.0}, {"lat": 38.9056325, "fusion_lat": 0.0, "type": "electric_scooter", "bike_id": "73e6d6b24c3b64ed20eb008e0da26c0b", "is_reserved": 0, "rental_uris": {"ios": "https://dc.lft.to/lastmile_qr_scan", "android": "https://dc.lft.to/lastmile_qr_scan"}, "is_disabled": 0, "lon": -77.02963066666666, "name": "73e6d6b24c3b64ed20eb008e0da26c0b", "fusion_lon": 0.0}, {"lat": 38.874157833333335, "fusion_lat": 0.0, "type": "electric_scooter", "bike_id": "9745b96f17684044ebc99470fefa884c", "is_reserved": 0, "rental_uris": {"ios": "https://dc.lft.to/lastmile_qr_scan", "android": "https://dc.lft.to/lastmile_qr_scan"}, "is_disabled": 0, "lon": -76.971159, "name": "9745b96f17684044ebc99470fefa884c", "fusion_lon": 0.0}, {"lat": 38.9238855, "fusion_lat": 0.0, "type": "electric_scooter", "bike_id": "bb0a7338bed1e7fc1be891e1acebf0ec", "is_reserved": 0, "rental_uris": {"ios": "https://dc.lft.to/lastmile_qr_scan", "android": "https://dc.lft.to/lastmile_qr_scan"}, "is_disabled": 0, "lon": -77.0305995, "name": "bb0a7338bed1e7fc1be891e1acebf0ec", "fusion_lon": 0.0}, {"lat": 38.907271, "fusion_lat": 0.0, "type": "electric_scooter", "bike_id": "9e8db6d5cc4275210d06936aeff95344", "is_reserved": 0, "rental_uris": {"ios": "https://dc.lft.to/lastmile_qr_scan", "android": "https://dc.lft.to/lastmile_qr_scan"}, "is_disabled": 0, "lon": -77.02981933333334, "name": "9e8db6d5cc4275210d06936aeff95344", "fusion_lon": 0.0}, {"lat": 38.87573533333333, "fusion_lat": 0.0, "type": "electric_scooter", "bike_id": "770544ed6646d288bff7f783184f65e6", "is_reserved": 0, "rental_uris": {"ios": "https://dc.lft.to/lastmile_qr_scan", "android": "https://dc.lft.to/lastmile_qr_scan"}, "is_disabled": 0, "lon": -77.00594833333334, "name": "770544ed6646d288bff7f783184f65e6", "fusion_lon": 0.0}, {"lat": 38.931019166666665, "fusion_lat": 0.0, "type": "electric_scooter", "bike_id": "c5aab1f1fb08e17724f89fd5c8d3c9b5", "is_reserved": 0, "rental_uris": {"ios": "https://dc.lft.to/lastmile_qr_scan", "android": "https://dc.lft.to/lastmile_qr_scan"}, "is_disabled": 0, "lon": -77.02474166666667, "name": "c5aab1f1fb08e17724f89fd5c8d3c9b5", "fusion_lon": 0.0}, {"lat": 38.9478955, "fusion_lat": 0.0, "type": "electric_scooter", "bike_id": "ee681d80e6ff37fdd0cd792e6ebc7c07", "is_reserved": 0, "rental_uris": {"ios": "https://dc.lft.to/lastmile_qr_scan", "android": "https://dc.lft.to/lastmile_qr_scan"}, "is_disabled": 0, "lon": -77.07936983333333, "name": "ee681d80e6ff37fdd0cd792e6ebc7c07", "fusion_lon": 0.0}, {"lat": 38.873465, "fusion_lat": 0.0, "type": "electric_scooter", "bike_id": "229dc446a408d05093efb98edd7bbea1", "is_reserved": 0, "rental_uris": {"ios": "https://dc.lft.to/lastmile_qr_scan", "android": "https://dc.lft.to/lastmile_qr_scan"}, "is_disabled": 0, "lon": -77.00259016666666, "name": "229dc446a408d05093efb98edd7bbea1", "fusion_lon": 0.0}, {"lat": 38.860947833333334, "fusion_lat": 0.0, "type": "electric_scooter", "bike_id": "a33b34d2530b20b879be5d64af478025", "is_reserved": 0, "rental_uris": {"ios": "https://dc.lft.to/lastmile_qr_scan", "android": "https://dc.lft.to/lastmile_qr_scan"}, "is_disabled": 0, "lon": -76.96880433333334, "name": "a33b34d2530b20b879be5d64af478025", "fusion_lon": 0.0}, {"lat": 38.90479066666666, "fusion_lat": 0.0, "type": "electric_scooter", "bike_id": "3a80ba8ca5e14bb9186ccd71c0a59182", "is_reserved": 0, "rental_uris": {"ios": "https://dc.lft.to/lastmile_qr_scan", "android": "https://dc.lft.to/lastmile_qr_scan"}, "is_disabled": 0, "lon": -77.05331266666667, "name": "3a80ba8ca5e14bb9186ccd71c0a59182", "fusion_lon": 0.0}, {"lat": 38.92240416666667, "fusion_lat": 0.0, "type": "electric_scooter", "bike_id": "ea4f877568c7509b537105ebd74f48df", "is_reserved": 0, "rental_uris": {"ios": "https://dc.lft.to/lastmile_qr_scan", "android": "https://dc.lft.to/lastmile_qr_scan"}, "is_disabled": 0, "lon": -77.02236416666666, "name": "ea4f877568c7509b537105ebd74f48df", "fusion_lon": 0.0}, {"lat": 38.8990365, "fusion_lat": 0.0, "type": "electric_scooter", "bike_id": "90503e67525292fa55ba2320f151ab36", "is_reserved": 0, "rental_uris": {"ios": "https://dc.lft.to/lastmile_qr_scan", "android": "https://dc.lft.to/lastmile_qr_scan"}, "is_disabled": 0, "lon": -77.01515433333333, "name": "90503e67525292fa55ba2320f151ab36", "fusion_lon": 0.0}, {"lat": 38.87465233333333, "fusion_lat": 0.0, "type": "electric_scooter", "bike_id": "f363ce3fc469b10fd37ba78f2cbd1334", "is_reserved": 0, "rental_uris": {"ios": "https://dc.lft.to/lastmile_qr_scan", "android": "https://dc.lft.to/lastmile_qr_scan"}, "is_disabled": 0, "lon": -77.015894, "name": "f363ce3fc469b10fd37ba78f2cbd1334", "fusion_lon": 0.0}, {"lat": 38.908675333333335, "fusion_lat": 0.0, "type": "electric_scooter", "bike_id": "0040cefca849e26ab4575c1bc2196a0d", "is_reserved": 0, "rental_uris": {"ios": "https://dc.lft.to/lastmile_qr_scan", "android": "https://dc.lft.to/lastmile_qr_scan"}, "is_disabled": 0, "lon": -77.032204, "name": "0040cefca849e26ab4575c1bc2196a0d", "fusion_lon": 0.0}, {"lat": 38.899647, "fusion_lat": 0.0, "type": "electric_scooter", "bike_id": "a292d29ea1f2e5033eae9082fb9cbeb7", "is_reserved": 0, "rental_uris": {"ios": "https://dc.lft.to/lastmile_qr_scan", "android": "https://dc.lft.to/lastmile_qr_scan"}, "is_disabled": 0, "lon": -77.01509816666666, "name": "a292d29ea1f2e5033eae9082fb9cbeb7", "fusion_lon": 0.0}, {"lat": 38.897322, "fusion_lat": 0.0, "type": "electric_scooter", "bike_id": "45813c3a812e4dcfa5915684695ee776", "is_reserved": 0, "rental_uris": {"ios": "https://dc.lft.to/lastmile_qr_scan", "android": "https://dc.lft.to/lastmile_qr_scan"}, "is_disabled": 0, "lon": -77.02694633333333, "name": "45813c3a812e4dcfa5915684695ee776", "fusion_lon": 0.0}, {"lat": 38.9327045, "fusion_lat": 0.0, "type": "electric_scooter", "bike_id": "c752e895b2cf00c16633a525a7279c9e", "is_reserved": 0, "rental_uris": {"ios": "https://dc.lft.to/lastmile_qr_scan", "android": "https://dc.lft.to/lastmile_qr_scan"}, "is_disabled": 0, "lon": -77.045323, "name": "c752e895b2cf00c16633a525a7279c9e", "fusion_lon": 0.0}, {"lat": 38.86386983333333, "fusion_lat": 0.0, "type": "electric_scooter", "bike_id": "c865da5e64746e9bfa2d553fdc086eed", "is_reserved": 0, "rental_uris": {"ios": "https://dc.lft.to/lastmile_qr_scan", "android": "https://dc.lft.to/lastmile_qr_scan"}, "is_disabled": 0, "lon": -76.99045733333334, "name": "c865da5e64746e9bfa2d553fdc086eed", "fusion_lon": 0.0}, {"lat": 38.98140333333333, "fusion_lat": 0.0, "type": "electric_bike", "bike_id": "55e25e0a47d0a4574b95a369705ec620", "is_reserved": 0, "rental_uris": {"ios": "https://dc.lft.to/lastmile_qr_scan", "android": "https://dc.lft.to/lastmile_qr_scan"}, "is_disabled": 0, "lon": -77.09254433333334, "name": "55e25e0a47d0a4574b95a369705ec620", "fusion_lon": 0.0}, {"lat": 38.916563, "fusion_lat": 0.0, "type": "electric_scooter", "bike_id": "e6693082f1a0a8c245e82533769bb497", "is_reserved": 0, "rental_uris": {"ios": "https://dc.lft.to/lastmile_qr_scan", "android": "https://dc.lft.to/lastmile_qr_scan"}, "is_disabled": 0, "lon": -77.02005133333333, "name": "e6693082f1a0a8c245e82533769bb497", "fusion_lon": 0.0}, {"lat": 38.908278333333335, "fusion_lat": 0.0, "type": "electric_scooter", "bike_id": "0c59602e29d90a87c8e7c1ffdd98d7c1", "is_reserved": 0, "rental_uris": {"ios": "https://dc.lft.to/lastmile_qr_scan", "android": "https://dc.lft.to/lastmile_qr_scan"}, "is_disabled": 0, "lon": -77.0433755, "name": "0c59602e29d90a87c8e7c1ffdd98d7c1", "fusion_lon": 0.0}, {"lat": 38.90720783333333, "fusion_lat": 0.0, "type": "electric_scooter", "bike_id": "14cf7b4c6b81923dfdee3cb74f4db062", "is_reserved": 0, "rental_uris": {"ios": "https://dc.lft.to/lastmile_qr_scan", "android": "https://dc.lft.to/lastmile_qr_scan"}, "is_disabled": 0, "lon": -77.03207416666666, "name": "14cf7b4c6b81923dfdee3cb74f4db062", "fusion_lon": 0.0}, {"lat": 38.924936333333335, "fusion_lat": 0.0, "type": "electric_scooter", "bike_id": "e2fe10514dbad193d99f0eda2ef818e2", "is_reserved": 0, "rental_uris": {"ios": "https://dc.lft.to/lastmile_qr_scan", "android": "https://dc.lft.to/lastmile_qr_scan"}, "is_disabled": 0, "lon": -77.05254283333333, "name": "e2fe10514dbad193d99f0eda2ef818e2", "fusion_lon": 0.0}, {"lat": 38.90967, "fusion_lat": 0.0, "type": "electric_scooter", "bike_id": "9184f6c01c7f1545d62467813ce86181", "is_reserved": 0, "rental_uris": {"ios": "https://dc.lft.to/lastmile_qr_scan", "android": "https://dc.lft.to/lastmile_qr_scan"}, "is_disabled": 0, "lon": -77.03944616666666, "name": "9184f6c01c7f1545d62467813ce86181", "fusion_lon": 0.0}, {"lat": 38.907837, "fusion_lat": 0.0, "type": "electric_scooter", "bike_id": "86573e940e376c05810c8ecf3dbe346d", "is_reserved": 0, "rental_uris": {"ios": "https://dc.lft.to/lastmile_qr_scan", "android": "https://dc.lft.to/lastmile_qr_scan"}, "is_disabled": 0, "lon": -77.06446283333334, "name": "86573e940e376c05810c8ecf3dbe346d", "fusion_lon": 0.0}, {"lat": 38.90044683333333, "fusion_lat": 0.0, "type": "electric_scooter", "bike_id": "8b4a2bb4af51c7fd2e3fb602391949b5", "is_reserved": 0, "rental_uris": {"ios": "https://dc.lft.to/lastmile_qr_scan", "android": "https://dc.lft.to/lastmile_qr_scan"}, "is_disabled": 0, "lon": -76.98825883333333, "name": "8b4a2bb4af51c7fd2e3fb602391949b5", "fusion_lon": 0.0}, {"lat": 38.9163475, "fusion_lat": 0.0, "type": "electric_scooter", "bike_id": "a3a3077d7894f1af762db75f0c808afa", "is_reserved": 0, "rental_uris": {"ios": "https://dc.lft.to/lastmile_qr_scan", "android": "https://dc.lft.to/lastmile_qr_scan"}, "is_disabled": 0, "lon": -77.0255185, "name": "a3a3077d7894f1af762db75f0c808afa", "fusion_lon": 0.0}, {"lat": 38.91021416666667, "fusion_lat": 0.0, "type": "electric_scooter", "bike_id": "9ba6fd667bf5f75996aa53c325a59613", "is_reserved": 0, "rental_uris": {"ios": "https://dc.lft.to/lastmile_qr_scan", "android": "https://dc.lft.to/lastmile_qr_scan"}, "is_disabled": 0, "lon": -77.03665333333333, "name": "9ba6fd667bf5f75996aa53c325a59613", "fusion_lon": 0.0}, {"lat": 38.906671, "fusion_lat": 0.0, "type": "electric_scooter", "bike_id": "4a0b9d314b6ec4f3076340cc573e7ae0", "is_reserved": 0, "rental_uris": {"ios": "https://dc.lft.to/lastmile_qr_scan", "android": "https://dc.lft.to/lastmile_qr_scan"}, "is_disabled": 0, "lon": -77.00208033333334, "name": "4a0b9d314b6ec4f3076340cc573e7ae0", "fusion_lon": 0.0}, {"lat": 38.91963483333333, "fusion_lat": 0.0, "type": "electric_scooter", "bike_id": "219687a048120d3c9f79ecb72e305018", "is_reserved": 0, "rental_uris": {"ios": "https://dc.lft.to/lastmile_qr_scan", "android": "https://dc.lft.to/lastmile_qr_scan"}, "is_disabled": 0, "lon": -77.01213116666666, "name": "219687a048120d3c9f79ecb72e305018", "fusion_lon": 0.0}, {"lat": 38.9288485, "fusion_lat": 0.0, "type": "electric_scooter", "bike_id": "15af9c91adbbd357ba02cee048799eef", "is_reserved": 0, "rental_uris": {"ios": "https://dc.lft.to/lastmile_qr_scan", "android": "https://dc.lft.to/lastmile_qr_scan"}, "is_disabled": 0, "lon": -77.032756, "name": "15af9c91adbbd357ba02cee048799eef", "fusion_lon": 0.0}, {"lat": 38.89383816666667, "fusion_lat": 0.0, "type": "electric_scooter", "bike_id": "ccc93fb9e5693de0d0ebe3d69a098ac4", "is_reserved": 0, "rental_uris": {"ios": "https://dc.lft.to/lastmile_qr_scan", "android": "https://dc.lft.to/lastmile_qr_scan"}, "is_disabled": 0, "lon": -77.03175916666666, "name": "ccc93fb9e5693de0d0ebe3d69a098ac4", "fusion_lon": 0.0}, {"lat": 38.8946365, "fusion_lat": 0.0, "type": "electric_scooter", "bike_id": "639f598fe9d096c0d85f68f82773a44a", "is_reserved": 0, "rental_uris": {"ios": "https://dc.lft.to/lastmile_qr_scan", "android": "https://dc.lft.to/lastmile_qr_scan"}, "is_disabled": 0, "lon": -77.02798283333334, "name": "639f598fe9d096c0d85f68f82773a44a", "fusion_lon": 0.0}, {"lat": 38.892581166666666, "fusion_lat": 0.0, "type": "electric_scooter", "bike_id": "d490ce18246636e64bbe8f5874c92631", "is_reserved": 0, "rental_uris": {"ios": "https://dc.lft.to/lastmile_qr_scan", "android": "https://dc.lft.to/lastmile_qr_scan"}, "is_disabled": 0, "lon": -77.00348833333334, "name": "d490ce18246636e64bbe8f5874c92631", "fusion_lon": 0.0}, {"lat": 38.90268733333333, "fusion_lat": 0.0, "type": "electric_bike", "bike_id": "cf86c535a087ea5936040bb71724be7b", "is_reserved": 0, "rental_uris": {"ios": "https://dc.lft.to/lastmile_qr_scan", "android": "https://dc.lft.to/lastmile_qr_scan"}, "is_disabled": 0, "lon": -77.01757916666666, "name": "cf86c535a087ea5936040bb71724be7b", "fusion_lon": 0.0}, {"lat": 38.8320585, "fusion_lat": 0.0, "type": "electric_scooter", "bike_id": "71a9794dd31ba864e5ff89432e67e267", "is_reserved": 0, "rental_uris": {"ios": "https://dc.lft.to/lastmile_qr_scan", "android": "https://dc.lft.to/lastmile_qr_scan"}, "is_disabled": 0, "lon": -77.00796483333333, "name": "71a9794dd31ba864e5ff89432e67e267", "fusion_lon": 0.0}, {"lat": 38.91681783333333, "fusion_lat": 0.0, "type": "electric_scooter", "bike_id": "800832494684967340d1a39537297207", "is_reserved": 0, "rental_uris": {"ios": "https://dc.lft.to/lastmile_qr_scan", "android": "https://dc.lft.to/lastmile_qr_scan"}, "is_disabled": 0, "lon": -77.02522816666666, "name": "800832494684967340d1a39537297207", "fusion_lon": 0.0}, {"lat": 38.9053875, "fusion_lat": 0.0, "type": "electric_scooter", "bike_id": "a3e42d22bfab62b221acf0a4b92e92f6", "is_reserved": 0, "rental_uris": {"ios": "https://dc.lft.to/lastmile_qr_scan", "android": "https://dc.lft.to/lastmile_qr_scan"}, "is_disabled": 0, "lon": -76.98107533333334, "name": "a3e42d22bfab62b221acf0a4b92e92f6", "fusion_lon": 0.0}, {"lat": 38.90543683333333, "fusion_lat": 0.0, "type": "electric_bike", "bike_id": "125e7c37b3eba3a70e743103f1891450", "is_reserved": 0, "rental_uris": {"ios": "https://dc.lft.to/lastmile_qr_scan", "android": "https://dc.lft.to/lastmile_qr_scan"}, "is_disabled": 0, "lon": -77.06521033333334, "name": "125e7c37b3eba3a70e743103f1891450", "fusion_lon": 0.0}, {"lat": 38.86057916666667, "fusion_lat": 0.0, "type": "electric_scooter", "bike_id": "aba311044774bbccab64dc89cad67e27", "is_reserved": 0, "rental_uris": {"ios": "https://dc.lft.to/lastmile_qr_scan", "android": "https://dc.lft.to/lastmile_qr_scan"}, "is_disabled": 0, "lon": -76.98422, "name": "aba311044774bbccab64dc89cad67e27", "fusion_lon": 0.0}, {"lat": 38.8935955, "fusion_lat": 0.0, "type": "electric_scooter", "bike_id": "6de9933330293d509c9262a20543c786", "is_reserved": 0, "rental_uris": {"ios": "https://dc.lft.to/lastmile_qr_scan", "android": "https://dc.lft.to/lastmile_qr_scan"}, "is_disabled": 0, "lon": -77.00334816666667, "name": "6de9933330293d509c9262a20543c786", "fusion_lon": 0.0}, {"lat": 38.89960516666667, "fusion_lat": 0.0, "type": "electric_scooter", "bike_id": "515f5b05154c95667a9165835b4ba481", "is_reserved": 0, "rental_uris": {"ios": "https://dc.lft.to/lastmile_qr_scan", "android": "https://dc.lft.to/lastmile_qr_scan"}, "is_disabled": 0, "lon": -77.01614783333333, "name": "515f5b05154c95667a9165835b4ba481", "fusion_lon": 0.0}, {"lat": 38.887400666666665, "fusion_lat": 0.0, "type": "electric_scooter", "bike_id": "f99ac70d26a3a42100e92a4c5297c90f", "is_reserved": 0, "rental_uris": {"ios": "https://dc.lft.to/lastmile_qr_scan", "android": "https://dc.lft.to/lastmile_qr_scan"}, "is_disabled": 0, "lon": -77.01534433333333, "name": "f99ac70d26a3a42100e92a4c5297c90f", "fusion_lon": 0.0}, {"lat": 38.87642483333333, "fusion_lat": 0.0, "type": "electric_scooter", "bike_id": "33b4a4522eb768c857e2603806bccd7b", "is_reserved": 0, "rental_uris": {"ios": "https://dc.lft.to/lastmile_qr_scan", "android": "https://dc.lft.to/lastmile_qr_scan"}, "is_disabled": 0, "lon": -77.0045535, "name": "33b4a4522eb768c857e2603806bccd7b", "fusion_lon": 0.0}, {"lat": 38.8757515, "fusion_lat": 0.0, "type": "electric_scooter", "bike_id": "273775d2281eef1278c7e63194264b09", "is_reserved": 0, "rental_uris": {"ios": "https://dc.lft.to/lastmile_qr_scan", "android": "https://dc.lft.to/lastmile_qr_scan"}, "is_disabled": 0, "lon": -77.00601883333333, "name": "273775d2281eef1278c7e63194264b09", "fusion_lon": 0.0}, {"lat": 38.92452316666667, "fusion_lat": 0.0, "type": "electric_scooter", "bike_id": "d5776dbcd0b0cdc7969fb6cbff6a7678", "is_reserved": 0, "rental_uris": {"ios": "https://dc.lft.to/lastmile_qr_scan", "android": "https://dc.lft.to/lastmile_qr_scan"}, "is_disabled": 0, "lon": -77.04102633333333, "name": "d5776dbcd0b0cdc7969fb6cbff6a7678", "fusion_lon": 0.0}, {"lat": 38.88780416666667, "fusion_lat": 0.0, "type": "electric_scooter", "bike_id": "ac2cd79227245c19ebccb0e48bb971e8", "is_reserved": 0, "rental_uris": {"ios": "https://dc.lft.to/lastmile_qr_scan", "android": "https://dc.lft.to/lastmile_qr_scan"}, "is_disabled": 0, "lon": -76.95527383333334, "name": "ac2cd79227245c19ebccb0e48bb971e8", "fusion_lon": 0.0}, {"lat": 38.917862166666666, "fusion_lat": 0.0, "type": "electric_scooter", "bike_id": "233084c2ba139c082898bcfc9842f7dc", "is_reserved": 0, "rental_uris": {"ios": "https://dc.lft.to/lastmile_qr_scan", "android": "https://dc.lft.to/lastmile_qr_scan"}, "is_disabled": 0, "lon": -77.04211916666667, "name": "233084c2ba139c082898bcfc9842f7dc", "fusion_lon": 0.0}, {"lat": 38.898270833333335, "fusion_lat": 0.0, "type": "electric_scooter", "bike_id": "6c7152cc69c881588375d7ad0af2e52f", "is_reserved": 0, "rental_uris": {"ios": "https://dc.lft.to/lastmile_qr_scan", "android": "https://dc.lft.to/lastmile_qr_scan"}, "is_disabled": 0, "lon": -77.02582683333333, "name": "6c7152cc69c881588375d7ad0af2e52f", "fusion_lon": 0.0}, {"lat": 38.90417083333333, "fusion_lat": 0.0, "type": "electric_scooter", "bike_id": "834e2e2cb26c72566fe514c8a4ec4440", "is_reserved": 0, "rental_uris": {"ios": "https://dc.lft.to/lastmile_qr_scan", "android": "https://dc.lft.to/lastmile_qr_scan"}, "is_disabled": 0, "lon": -77.04989016666667, "name": "834e2e2cb26c72566fe514c8a4ec4440", "fusion_lon": 0.0}, {"lat": 38.900921333333336, "fusion_lat": 0.0, "type": "electric_scooter", "bike_id": "f0017d0119ee07489feb064e0fdc6c2d", "is_reserved": 0, "rental_uris": {"ios": "https://dc.lft.to/lastmile_qr_scan", "android": "https://dc.lft.to/lastmile_qr_scan"}, "is_disabled": 0, "lon": -77.04990283333333, "name": "f0017d0119ee07489feb064e0fdc6c2d", "fusion_lon": 0.0}, {"lat": 38.90664616666667, "fusion_lat": 0.0, "type": "electric_scooter", "bike_id": "95b128e9daa2ce4e28a421f36d0c9a7b", "is_reserved": 0, "rental_uris": {"ios": "https://dc.lft.to/lastmile_qr_scan", "android": "https://dc.lft.to/lastmile_qr_scan"}, "is_disabled": 0, "lon": -77.0386205, "name": "95b128e9daa2ce4e28a421f36d0c9a7b", "fusion_lon": 0.0}, {"lat": 38.91299583333333, "fusion_lat": 0.0, "type": "electric_scooter", "bike_id": "70690b652811b8726e92c4275e0ceea8", "is_reserved": 0, "rental_uris": {"ios": "https://dc.lft.to/lastmile_qr_scan", "android": "https://dc.lft.to/lastmile_qr_scan"}, "is_disabled": 0, "lon": -77.066804, "name": "70690b652811b8726e92c4275e0ceea8", "fusion_lon": 0.0}, {"lat": 38.900266, "fusion_lat": 0.0, "type": "electric_scooter", "bike_id": "90716251ab03d13f81f027a25c7da053", "is_reserved": 0, "rental_uris": {"ios": "https://dc.lft.to/lastmile_qr_scan", "android": "https://dc.lft.to/lastmile_qr_scan"}, "is_disabled": 0, "lon": -76.98737766666666, "name": "90716251ab03d13f81f027a25c7da053", "fusion_lon": 0.0}, {"lat": 38.904124, "fusion_lat": 0.0, "type": "electric_scooter", "bike_id": "7e94277669ed0e8bf137f2e6df626768", "is_reserved": 0, "rental_uris": {"ios": "https://dc.lft.to/lastmile_qr_scan", "android": "https://dc.lft.to/lastmile_qr_scan"}, "is_disabled": 0, "lon": -76.97332383333334, "name": "7e94277669ed0e8bf137f2e6df626768", "fusion_lon": 0.0}, {"lat": 38.921826333333335, "fusion_lat": 0.0, "type": "electric_scooter", "bike_id": "fb84fe7677765f431b2556ca36e6cc52", "is_reserved": 0, "rental_uris": {"ios": "https://dc.lft.to/lastmile_qr_scan", "android": "https://dc.lft.to/lastmile_qr_scan"}, "is_disabled": 0, "lon": -77.01911183333333, "name": "fb84fe7677765f431b2556ca36e6cc52", "fusion_lon": 0.0}, {"lat": 38.957338666666665, "fusion_lat": 0.0, "type": "electric_scooter", "bike_id": "0b20f5912b3504d009358037ea89becd", "is_reserved": 0, "rental_uris": {"ios": "https://dc.lft.to/lastmile_qr_scan", "android": "https://dc.lft.to/lastmile_qr_scan"}, "is_disabled": 0, "lon": -77.02402633333334, "name": "0b20f5912b3504d009358037ea89becd", "fusion_lon": 0.0}, {"lat": 38.917092, "fusion_lat": 0.0, "type": "electric_scooter", "bike_id": "3944ceb3da1d936af40d32cd22e21b7e", "is_reserved": 0, "rental_uris": {"ios": "https://dc.lft.to/lastmile_qr_scan", "android": "https://dc.lft.to/lastmile_qr_scan"}, "is_disabled": 0, "lon": -77.09579033333333, "name": "3944ceb3da1d936af40d32cd22e21b7e", "fusion_lon": 0.0}, {"lat": 38.95153216666667, "fusion_lat": 0.0, "type": "electric_scooter", "bike_id": "3a892026cd8478bfca5bfc43cc43e01f", "is_reserved": 0, "rental_uris": {"ios": "https://dc.lft.to/lastmile_qr_scan", "android": "https://dc.lft.to/lastmile_qr_scan"}, "is_disabled": 0, "lon": -77.01868116666667, "name": "3a892026cd8478bfca5bfc43cc43e01f", "fusion_lon": 0.0}, {"lat": 38.9087835, "fusion_lat": 0.0, "type": "electric_scooter", "bike_id": "65dd1b03c44a9a709a4cfdfd3b671a3a", "is_reserved": 0, "rental_uris": {"ios": "https://dc.lft.to/lastmile_qr_scan", "android": "https://dc.lft.to/lastmile_qr_scan"}, "is_disabled": 0, "lon": -77.02340283333334, "name": "65dd1b03c44a9a709a4cfdfd3b671a3a", "fusion_lon": 0.0}, {"lat": 38.9235965, "fusion_lat": 0.0, "type": "electric_scooter", "bike_id": "492f34589ed62c9b3468b0738ab115b4", "is_reserved": 0, "rental_uris": {"ios": "https://dc.lft.to/lastmile_qr_scan", "android": "https://dc.lft.to/lastmile_qr_scan"}, "is_disabled": 0, "lon": -77.04247, "name": "492f34589ed62c9b3468b0738ab115b4", "fusion_lon": 0.0}, {"lat": 38.90415766666667, "fusion_lat": 0.0, "type": "electric_scooter", "bike_id": "e49459e710a122354bd3640e3a093e9b", "is_reserved": 0, "rental_uris": {"ios": "https://dc.lft.to/lastmile_qr_scan", "android": "https://dc.lft.to/lastmile_qr_scan"}, "is_disabled": 0, "lon": -77.043691, "name": "e49459e710a122354bd3640e3a093e9b", "fusion_lon": 0.0}, {"lat": 38.920107, "fusion_lat": 0.0, "type": "electric_scooter", "bike_id": "8f6d2d1fb9bd4896bedc3fec8ab34e64", "is_reserved": 0, "rental_uris": {"ios": "https://dc.lft.to/lastmile_qr_scan", "android": "https://dc.lft.to/lastmile_qr_scan"}, "is_disabled": 0, "lon": -77.03886166666666, "name": "8f6d2d1fb9bd4896bedc3fec8ab34e64", "fusion_lon": 0.0}, {"lat": 38.91888933333333, "fusion_lat": 0.0, "type": "electric_scooter", "bike_id": "b21e184d5196b75829826dfdfdbd54ce", "is_reserved": 0, "rental_uris": {"ios": "https://dc.lft.to/lastmile_qr_scan", "android": "https://dc.lft.to/lastmile_qr_scan"}, "is_disabled": 0, "lon": -77.02485366666667, "name": "b21e184d5196b75829826dfdfdbd54ce", "fusion_lon": 0.0}, {"lat": 38.87735166666667, "fusion_lat": 0.0, "type": "electric_bike", "bike_id": "3c74c7f5f0b23d4f6ab0136f89c30cea", "is_reserved": 0, "rental_uris": {"ios": "https://dc.lft.to/lastmile_qr_scan", "android": "https://dc.lft.to/lastmile_qr_scan"}, "is_disabled": 0, "lon": -77.11850116666666, "name": "3c74c7f5f0b23d4f6ab0136f89c30cea", "fusion_lon": 0.0}, {"lat": 38.80425133333333, "fusion_lat": 0.0, "type": "electric_bike", "bike_id": "cb269bced4b8ef7123ed4f8b8ca82938", "is_reserved": 0, "rental_uris": {"ios": "https://dc.lft.to/lastmile_qr_scan", "android": "https://dc.lft.to/lastmile_qr_scan"}, "is_disabled": 0, "lon": -77.05567766666667, "name": "cb269bced4b8ef7123ed4f8b8ca82938", "fusion_lon": 0.0}, {"lat": 38.90258466666667, "fusion_lat": 0.0, "type": "electric_scooter", "bike_id": "db987d0086bd04896e4419ee6e8affdb", "is_reserved": 0, "rental_uris": {"ios": "https://dc.lft.to/lastmile_qr_scan", "android": "https://dc.lft.to/lastmile_qr_scan"}, "is_disabled": 0, "lon": -77.02048833333333, "name": "db987d0086bd04896e4419ee6e8affdb", "fusion_lon": 0.0}, {"lat": 38.909619666666664, "fusion_lat": 0.0, "type": "electric_scooter", "bike_id": "4e9d148ea464e882dee7ff04cd9f4137", "is_reserved": 0, "rental_uris": {"ios": "https://dc.lft.to/lastmile_qr_scan", "android": "https://dc.lft.to/lastmile_qr_scan"}, "is_disabled": 0, "lon": -77.02688383333333, "name": "4e9d148ea464e882dee7ff04cd9f4137", "fusion_lon": 0.0}, {"lat": 38.94919733333333, "fusion_lat": 0.0, "type": "electric_bike", "bike_id": "186b6e2bbe54de50f5aed33a29ee824c", "is_reserved": 0, "rental_uris": {"ios": "https://dc.lft.to/lastmile_qr_scan", "android": "https://dc.lft.to/lastmile_qr_scan"}, "is_disabled": 0, "lon": -77.00799216666667, "name": "186b6e2bbe54de50f5aed33a29ee824c", "fusion_lon": 0.0}, {"lat": 38.93639316666667, "fusion_lat": 0.0, "type": "electric_scooter", "bike_id": "0968d821ddcc9108e02aad49fe32f66e", "is_reserved": 0, "rental_uris": {"ios": "https://dc.lft.to/lastmile_qr_scan", "android": "https://dc.lft.to/lastmile_qr_scan"}, "is_disabled": 0, "lon": -77.058849, "name": "0968d821ddcc9108e02aad49fe32f66e", "fusion_lon": 0.0}, {"lat": 38.9165505, "fusion_lat": 0.0, "type": "electric_scooter", "bike_id": "f6dc9a5dcc5c0c1b091a12e64918a355", "is_reserved": 0, "rental_uris": {"ios": "https://dc.lft.to/lastmile_qr_scan", "android": "https://dc.lft.to/lastmile_qr_scan"}, "is_disabled": 0, "lon": -77.029623, "name": "f6dc9a5dcc5c0c1b091a12e64918a355", "fusion_lon": 0.0}, {"lat": 38.86244416666667, "fusion_lat": 0.0, "type": "electric_scooter", "bike_id": "c6c06b6a31a7cc49f226c25510b95d14", "is_reserved": 0, "rental_uris": {"ios": "https://dc.lft.to/lastmile_qr_scan", "android": "https://dc.lft.to/lastmile_qr_scan"}, "is_disabled": 0, "lon": -76.9950125, "name": "c6c06b6a31a7cc49f226c25510b95d14", "fusion_lon": 0.0}, {"lat": 38.876624, "fusion_lat": 0.0, "type": "electric_scooter", "bike_id": "853b86da452d50780680ddf79417d219", "is_reserved": 0, "rental_uris": {"ios": "https://dc.lft.to/lastmile_qr_scan", "android": "https://dc.lft.to/lastmile_qr_scan"}, "is_disabled": 0, "lon": -77.01827333333334, "name": "853b86da452d50780680ddf79417d219", "fusion_lon": 0.0}, {"lat": 38.89538566666667, "fusion_lat": 0.0, "type": "electric_scooter", "bike_id": "5faf872a910e9a5bfc3c79a351d97049", "is_reserved": 0, "rental_uris": {"ios": "https://dc.lft.to/lastmile_qr_scan", "android": "https://dc.lft.to/lastmile_qr_scan"}, "is_disabled": 0, "lon": -77.01086383333333, "name": "5faf872a910e9a5bfc3c79a351d97049", "fusion_lon": 0.0}, {"lat": 38.90419, "fusion_lat": 0.0, "type": "electric_scooter", "bike_id": "9da0f352648df9b5ec7fd37073be7313", "is_reserved": 0, "rental_uris": {"ios": "https://dc.lft.to/lastmile_qr_scan", "android": "https://dc.lft.to/lastmile_qr_scan"}, "is_disabled": 0, "lon": -77.0499195, "name": "9da0f352648df9b5ec7fd37073be7313", "fusion_lon": 0.0}, {"lat": 38.905530666666664, "fusion_lat": 0.0, "type": "electric_scooter", "bike_id": "13acc3554a13d3fd73d3f8a62fbbeac4", "is_reserved": 0, "rental_uris": {"ios": "https://dc.lft.to/lastmile_qr_scan", "android": "https://dc.lft.to/lastmile_qr_scan"}, "is_disabled": 0, "lon": -76.99613566666666, "name": "13acc3554a13d3fd73d3f8a62fbbeac4", "fusion_lon": 0.0}, {"lat": 38.885540166666665, "fusion_lat": 0.0, "type": "electric_scooter", "bike_id": "2fb24d2c3581631072a1f6a206641fd0", "is_reserved": 0, "rental_uris": {"ios": "https://dc.lft.to/lastmile_qr_scan", "android": "https://dc.lft.to/lastmile_qr_scan"}, "is_disabled": 0, "lon": -77.021977, "name": "2fb24d2c3581631072a1f6a206641fd0", "fusion_lon": 0.0}, {"lat": 38.89918466666666, "fusion_lat": 0.0, "type": "electric_scooter", "bike_id": "dc28c4a5849ded8ba8b054d17738ab59", "is_reserved": 0, "rental_uris": {"ios": "https://dc.lft.to/lastmile_qr_scan", "android": "https://dc.lft.to/lastmile_qr_scan"}, "is_disabled": 0, "lon": -76.95064433333333, "name": "dc28c4a5849ded8ba8b054d17738ab59", "fusion_lon": 0.0}, {"lat": 38.917168, "fusion_lat": 0.0, "type": "electric_scooter", "bike_id": "4c5e251595022559fee1f6e5c71eda38", "is_reserved": 0, "rental_uris": {"ios": "https://dc.lft.to/lastmile_qr_scan", "android": "https://dc.lft.to/lastmile_qr_scan"}, "is_disabled": 0, "lon": -77.0344065, "name": "4c5e251595022559fee1f6e5c71eda38", "fusion_lon": 0.0}, {"lat": 38.8995665, "fusion_lat": 0.0, "type": "electric_bike", "bike_id": "140c63f628d859ba48e48d3433d97779", "is_reserved": 0, "rental_uris": {"ios": "https://dc.lft.to/lastmile_qr_scan", "android": "https://dc.lft.to/lastmile_qr_scan"}, "is_disabled": 0, "lon": -76.98567783333333, "name": "140c63f628d859ba48e48d3433d97779", "fusion_lon": 0.0}, {"lat": 38.916358333333335, "fusion_lat": 0.0, "type": "electric_scooter", "bike_id": "af40c23e6ff8591ade8fa1ecfb683df8", "is_reserved": 0, "rental_uris": {"ios": "https://dc.lft.to/lastmile_qr_scan", "android": "https://dc.lft.to/lastmile_qr_scan"}, "is_disabled": 0, "lon": -77.03970066666666, "name": "af40c23e6ff8591ade8fa1ecfb683df8", "fusion_lon": 0.0}, {"lat": 38.911016000000004, "fusion_lat": 0.0, "type": "electric_scooter", "bike_id": "31e7d3f1dde850c33da4df6bdf58eafa", "is_reserved": 0, "rental_uris": {"ios": "https://dc.lft.to/lastmile_qr_scan", "android": "https://dc.lft.to/lastmile_qr_scan"}, "is_disabled": 0, "lon": -77.02505566666666, "name": "31e7d3f1dde850c33da4df6bdf58eafa", "fusion_lon": 0.0}, {"lat": 38.85894, "fusion_lat": 0.0, "type": "electric_scooter", "bike_id": "51646f328b0b82f3ee77494f7868579a", "is_reserved": 0, "rental_uris": {"ios": "https://dc.lft.to/lastmile_qr_scan", "android": "https://dc.lft.to/lastmile_qr_scan"}, "is_disabled": 0, "lon": -76.99727166666666, "name": "51646f328b0b82f3ee77494f7868579a", "fusion_lon": 0.0}, {"lat": 38.92945116666667, "fusion_lat": 0.0, "type": "electric_scooter", "bike_id": "738cabcbe07a279bde988979950c84da", "is_reserved": 0, "rental_uris": {"ios": "https://dc.lft.to/lastmile_qr_scan", "android": "https://dc.lft.to/lastmile_qr_scan"}, "is_disabled": 0, "lon": -77.01987983333333, "name": "738cabcbe07a279bde988979950c84da", "fusion_lon": 0.0}, {"lat": 38.86235333333333, "fusion_lat": 0.0, "type": "electric_scooter", "bike_id": "b77a259ebd484c7c852e4116eee184e0", "is_reserved": 0, "rental_uris": {"ios": "https://dc.lft.to/lastmile_qr_scan", "android": "https://dc.lft.to/lastmile_qr_scan"}, "is_disabled": 0, "lon": -76.99517316666666, "name": "b77a259ebd484c7c852e4116eee184e0", "fusion_lon": 0.0}, {"lat": 38.91689266666667, "fusion_lat": 0.0, "type": "electric_scooter", "bike_id": "cd593bbee9ca7c9214ea5c6c362297ce", "is_reserved": 0, "rental_uris": {"ios": "https://dc.lft.to/lastmile_qr_scan", "android": "https://dc.lft.to/lastmile_qr_scan"}, "is_disabled": 0, "lon": -77.02954266666667, "name": "cd593bbee9ca7c9214ea5c6c362297ce", "fusion_lon": 0.0}, {"lat": 38.94961383333333, "fusion_lat": 0.0, "type": "electric_bike", "bike_id": "c3bc896cc9f0555929bf46519e18d142", "is_reserved": 0, "rental_uris": {"ios": "https://dc.lft.to/lastmile_qr_scan", "android": "https://dc.lft.to/lastmile_qr_scan"}, "is_disabled": 0, "lon": -77.06622133333333, "name": "c3bc896cc9f0555929bf46519e18d142", "fusion_lon": 0.0}, {"lat": 38.922300166666666, "fusion_lat": 0.0, "type": "electric_scooter", "bike_id": "745ee52e20f6ea915fdc0c5d657aacfa", "is_reserved": 0, "rental_uris": {"ios": "https://dc.lft.to/lastmile_qr_scan", "android": "https://dc.lft.to/lastmile_qr_scan"}, "is_disabled": 0, "lon": -77.02968333333334, "name": "745ee52e20f6ea915fdc0c5d657aacfa", "fusion_lon": 0.0}, {"lat": 38.907278, "fusion_lat": 0.0, "type": "electric_scooter", "bike_id": "3f88cce4b9879ddd0d402996430c9290", "is_reserved": 0, "rental_uris": {"ios": "https://dc.lft.to/lastmile_qr_scan", "android": "https://dc.lft.to/lastmile_qr_scan"}, "is_disabled": 0, "lon": -77.01135666666667, "name": "3f88cce4b9879ddd0d402996430c9290", "fusion_lon": 0.0}, {"lat": 38.868615, "fusion_lat": 0.0, "type": "electric_bike", "bike_id": "383a0dd0f6f06507ad4f52c22edc94b5", "is_reserved": 0, "rental_uris": {"ios": "https://dc.lft.to/lastmile_qr_scan", "android": "https://dc.lft.to/lastmile_qr_scan"}, "is_disabled": 0, "lon": -76.95834766666667, "name": "383a0dd0f6f06507ad4f52c22edc94b5", "fusion_lon": 0.0}, {"lat": 38.88912883333333, "fusion_lat": 0.0, "type": "electric_scooter", "bike_id": "e82ecc22c328e5e9024ce3dab9c34d3d", "is_reserved": 0, "rental_uris": {"ios": "https://dc.lft.to/lastmile_qr_scan", "android": "https://dc.lft.to/lastmile_qr_scan"}, "is_disabled": 0, "lon": -77.05219916666667, "name": "e82ecc22c328e5e9024ce3dab9c34d3d", "fusion_lon": 0.0}, {"lat": 38.908645, "fusion_lat": 0.0, "type": "electric_scooter", "bike_id": "246f19881122e905a8bbb6a01cc8b70b", "is_reserved": 0, "rental_uris": {"ios": "https://dc.lft.to/lastmile_qr_scan", "android": "https://dc.lft.to/lastmile_qr_scan"}, "is_disabled": 0, "lon": -77.02412683333333, "name": "246f19881122e905a8bbb6a01cc8b70b", "fusion_lon": 0.0}, {"lat": 38.896745, "fusion_lat": 0.0, "type": "electric_scooter", "bike_id": "1a99f7957b1ddb3bd92a87f8c24baff3", "is_reserved": 0, "rental_uris": {"ios": "https://dc.lft.to/lastmile_qr_scan", "android": "https://dc.lft.to/lastmile_qr_scan"}, "is_disabled": 0, "lon": -77.02610583333333, "name": "1a99f7957b1ddb3bd92a87f8c24baff3", "fusion_lon": 0.0}, {"lat": 38.90313666666667, "fusion_lat": 0.0, "type": "electric_scooter", "bike_id": "27c3df21790721609e1b63e2bcdc51bf", "is_reserved": 0, "rental_uris": {"ios": "https://dc.lft.to/lastmile_qr_scan", "android": "https://dc.lft.to/lastmile_qr_scan"}, "is_disabled": 0, "lon": -76.97799516666667, "name": "27c3df21790721609e1b63e2bcdc51bf", "fusion_lon": 0.0}, {"lat": 38.91950466666667, "fusion_lat": 0.0, "type": "electric_scooter", "bike_id": "c3c531614485cb57ac7460f8210e6630", "is_reserved": 0, "rental_uris": {"ios": "https://dc.lft.to/lastmile_qr_scan", "android": "https://dc.lft.to/lastmile_qr_scan"}, "is_disabled": 0, "lon": -77.04493733333334, "name": "c3c531614485cb57ac7460f8210e6630", "fusion_lon": 0.0}, {"lat": 38.908544666666664, "fusion_lat": 0.0, "type": "electric_scooter", "bike_id": "0cbe57daed7529581d49cdbef4364817", "is_reserved": 0, "rental_uris": {"ios": "https://dc.lft.to/lastmile_qr_scan", "android": "https://dc.lft.to/lastmile_qr_scan"}, "is_disabled": 0, "lon": -77.04763433333333, "name": "0cbe57daed7529581d49cdbef4364817", "fusion_lon": 0.0}, {"lat": 38.913420333333335, "fusion_lat": 0.0, "type": "electric_scooter", "bike_id": "a8609f1055fc0c1c718053dc80b8a591", "is_reserved": 0, "rental_uris": {"ios": "https://dc.lft.to/lastmile_qr_scan", "android": "https://dc.lft.to/lastmile_qr_scan"}, "is_disabled": 0, "lon": -77.04231216666666, "name": "a8609f1055fc0c1c718053dc80b8a591", "fusion_lon": 0.0}, {"lat": 38.945133166666665, "fusion_lat": 0.0, "type": "electric_scooter", "bike_id": "8227b0d38cd8d9e8becf8b346e8b16d5", "is_reserved": 0, "rental_uris": {"ios": "https://dc.lft.to/lastmile_qr_scan", "android": "https://dc.lft.to/lastmile_qr_scan"}, "is_disabled": 0, "lon": -77.03316233333334, "name": "8227b0d38cd8d9e8becf8b346e8b16d5", "fusion_lon": 0.0}, {"lat": 38.906066333333335, "fusion_lat": 0.0, "type": "electric_scooter", "bike_id": "429b17579c2b0aea8dd463302e9020d7", "is_reserved": 0, "rental_uris": {"ios": "https://dc.lft.to/lastmile_qr_scan", "android": "https://dc.lft.to/lastmile_qr_scan"}, "is_disabled": 0, "lon": -76.9926635, "name": "429b17579c2b0aea8dd463302e9020d7", "fusion_lon": 0.0}, {"lat": 38.930945333333334, "fusion_lat": 0.0, "type": "electric_scooter", "bike_id": "d9ca50f5765ddc23783b3f1be41e14a1", "is_reserved": 0, "rental_uris": {"ios": "https://dc.lft.to/lastmile_qr_scan", "android": "https://dc.lft.to/lastmile_qr_scan"}, "is_disabled": 0, "lon": -77.024683, "name": "d9ca50f5765ddc23783b3f1be41e14a1", "fusion_lon": 0.0}, {"lat": 38.900383833333336, "fusion_lat": 0.0, "type": "electric_bike", "bike_id": "70208db9c9f57574720c9fe3ff2866fa", "is_reserved": 0, "rental_uris": {"ios": "https://dc.lft.to/lastmile_qr_scan", "android": "https://dc.lft.to/lastmile_qr_scan"}, "is_disabled": 0, "lon": -76.9722775, "name": "70208db9c9f57574720c9fe3ff2866fa", "fusion_lon": 0.0}, {"lat": 38.8589405, "fusion_lat": 0.0, "type": "electric_bike", "bike_id": "358207baf0d5c7fce671ebc8076f0129", "is_reserved": 0, "rental_uris": {"ios": "https://dc.lft.to/lastmile_qr_scan", "android": "https://dc.lft.to/lastmile_qr_scan"}, "is_disabled": 0, "lon": -77.1186285, "name": "358207baf0d5c7fce671ebc8076f0129", "fusion_lon": 0.0}, {"lat": 38.884587333333336, "fusion_lat": 0.0, "type": "electric_scooter", "bike_id": "636e904967cb65a13088787799948c0e", "is_reserved": 0, "rental_uris": {"ios": "https://dc.lft.to/lastmile_qr_scan", "android": "https://dc.lft.to/lastmile_qr_scan"}, "is_disabled": 0, "lon": -76.95747466666667, "name": "636e904967cb65a13088787799948c0e", "fusion_lon": 0.0}, {"lat": 38.885576666666665, "fusion_lat": 0.0, "type": "electric_scooter", "bike_id": "db75417f91317844ef03febcacdbd5cc", "is_reserved": 0, "rental_uris": {"ios": "https://dc.lft.to/lastmile_qr_scan", "android": "https://dc.lft.to/lastmile_qr_scan"}, "is_disabled": 0, "lon": -77.020034, "name": "db75417f91317844ef03febcacdbd5cc", "fusion_lon": 0.0}, {"lat": 38.912515666666664, "fusion_lat": 0.0, "type": "electric_scooter", "bike_id": "43e208a4ee93247b14a3b03652b9f222", "is_reserved": 0, "rental_uris": {"ios": "https://dc.lft.to/lastmile_qr_scan", "android": "https://dc.lft.to/lastmile_qr_scan"}, "is_disabled": 0, "lon": -77.00798216666666, "name": "43e208a4ee93247b14a3b03652b9f222", "fusion_lon": 0.0}, {"lat": 38.896241833333335, "fusion_lat": 0.0, "type": "electric_scooter", "bike_id": "0eafb9b1c30ef6fe8015a7e0edb70b01", "is_reserved": 0, "rental_uris": {"ios": "https://dc.lft.to/lastmile_qr_scan", "android": "https://dc.lft.to/lastmile_qr_scan"}, "is_disabled": 0, "lon": -77.028537, "name": "0eafb9b1c30ef6fe8015a7e0edb70b01", "fusion_lon": 0.0}, {"lat": 38.88814433333334, "fusion_lat": 0.0, "type": "electric_scooter", "bike_id": "60adea353aef3191f8fb78125678efb6", "is_reserved": 0, "rental_uris": {"ios": "https://dc.lft.to/lastmile_qr_scan", "android": "https://dc.lft.to/lastmile_qr_scan"}, "is_disabled": 0, "lon": -76.93343416666667, "name": "60adea353aef3191f8fb78125678efb6", "fusion_lon": 0.0}, {"lat": 38.9076355, "fusion_lat": 0.0, "type": "electric_scooter", "bike_id": "47615223e7db1d70821b247b268b81f3", "is_reserved": 0, "rental_uris": {"ios": "https://dc.lft.to/lastmile_qr_scan", "android": "https://dc.lft.to/lastmile_qr_scan"}, "is_disabled": 0, "lon": -77.0320245, "name": "47615223e7db1d70821b247b268b81f3", "fusion_lon": 0.0}, {"lat": 38.897515166666665, "fusion_lat": 0.0, "type": "electric_scooter", "bike_id": "11536eba443aa95a01ee685b4a074738", "is_reserved": 0, "rental_uris": {"ios": "https://dc.lft.to/lastmile_qr_scan", "android": "https://dc.lft.to/lastmile_qr_scan"}, "is_disabled": 0, "lon": -77.04286816666666, "name": "11536eba443aa95a01ee685b4a074738", "fusion_lon": 0.0}, {"lat": 38.910414, "fusion_lat": 0.0, "type": "electric_scooter", "bike_id": "a2a83cfc3d6e3ee0d1f81c3ccf809594", "is_reserved": 0, "rental_uris": {"ios": "https://dc.lft.to/lastmile_qr_scan", "android": "https://dc.lft.to/lastmile_qr_scan"}, "is_disabled": 0, "lon": -77.0162035, "name": "a2a83cfc3d6e3ee0d1f81c3ccf809594", "fusion_lon": 0.0}, {"lat": 38.92211533333333, "fusion_lat": 0.0, "type": "electric_bike", "bike_id": "0a9aafb97fbec884b22089368e01f7da", "is_reserved": 0, "rental_uris": {"ios": "https://dc.lft.to/lastmile_qr_scan", "android": "https://dc.lft.to/lastmile_qr_scan"}, "is_disabled": 0, "lon": -76.98798433333333, "name": "0a9aafb97fbec884b22089368e01f7da", "fusion_lon": 0.0}, {"lat": 38.90840433333334, "fusion_lat": 0.0, "type": "electric_scooter", "bike_id": "e51fcd58d76dbb2bb8369f8812966384", "is_reserved": 0, "rental_uris": {"ios": "https://dc.lft.to/lastmile_qr_scan", "android": "https://dc.lft.to/lastmile_qr_scan"}, "is_disabled": 0, "lon": -77.04004883333333, "name": "e51fcd58d76dbb2bb8369f8812966384", "fusion_lon": 0.0}, {"lat": 38.920363, "fusion_lat": 0.0, "type": "electric_scooter", "bike_id": "d5375912db41ac79617a2ec4d58d4a9a", "is_reserved": 0, "rental_uris": {"ios": "https://dc.lft.to/lastmile_qr_scan", "android": "https://dc.lft.to/lastmile_qr_scan"}, "is_disabled": 0, "lon": -77.01220666666667, "name": "d5375912db41ac79617a2ec4d58d4a9a", "fusion_lon": 0.0}, {"lat": 38.87859566666667, "fusion_lat": 0.0, "type": "electric_scooter", "bike_id": "13639f8e9683cac04ad9e3245be7ba39", "is_reserved": 0, "rental_uris": {"ios": "https://dc.lft.to/lastmile_qr_scan", "android": "https://dc.lft.to/lastmile_qr_scan"}, "is_disabled": 0, "lon": -77.01972, "name": "13639f8e9683cac04ad9e3245be7ba39", "fusion_lon": 0.0}, {"lat": 38.92725433333333, "fusion_lat": 0.0, "type": "electric_scooter", "bike_id": "618074742bb98d5ab130566b53552517", "is_reserved": 0, "rental_uris": {"ios": "https://dc.lft.to/lastmile_qr_scan", "android": "https://dc.lft.to/lastmile_qr_scan"}, "is_disabled": 0, "lon": -77.02272416666666, "name": "618074742bb98d5ab130566b53552517", "fusion_lon": 0.0}, {"lat": 38.90114, "fusion_lat": 0.0, "type": "electric_scooter", "bike_id": "aef83cb2bf3c464e1daad8799f8a73b6", "is_reserved": 0, "rental_uris": {"ios": "https://dc.lft.to/lastmile_qr_scan", "android": "https://dc.lft.to/lastmile_qr_scan"}, "is_disabled": 0, "lon": -77.01753866666667, "name": "aef83cb2bf3c464e1daad8799f8a73b6", "fusion_lon": 0.0}, {"lat": 38.903767333333334, "fusion_lat": 0.0, "type": "electric_scooter", "bike_id": "0339a27ccbc3553542f1ff3b54cd4e19", "is_reserved": 0, "rental_uris": {"ios": "https://dc.lft.to/lastmile_qr_scan", "android": "https://dc.lft.to/lastmile_qr_scan"}, "is_disabled": 0, "lon": -77.0464185, "name": "0339a27ccbc3553542f1ff3b54cd4e19", "fusion_lon": 0.0}, {"lat": 38.8609395, "fusion_lat": 0.0, "type": "electric_bike", "bike_id": "08857fde697c4f8adc54704791a76252", "is_reserved": 0, "rental_uris": {"ios": "https://dc.lft.to/lastmile_qr_scan", "android": "https://dc.lft.to/lastmile_qr_scan"}, "is_disabled": 0, "lon": -77.09590183333333, "name": "08857fde697c4f8adc54704791a76252", "fusion_lon": 0.0}, {"lat": 38.91720483333334, "fusion_lat": 0.0, "type": "electric_scooter", "bike_id": "c8fdce6e6e64b5a2fa7a45b5392b582c", "is_reserved": 0, "rental_uris": {"ios": "https://dc.lft.to/lastmile_qr_scan", "android": "https://dc.lft.to/lastmile_qr_scan"}, "is_disabled": 0, "lon": -77.029691, "name": "c8fdce6e6e64b5a2fa7a45b5392b582c", "fusion_lon": 0.0}, {"lat": 38.8990525, "fusion_lat": 0.0, "type": "electric_scooter", "bike_id": "90547824d9a00d2ce208aa4d939e2add", "is_reserved": 0, "rental_uris": {"ios": "https://dc.lft.to/lastmile_qr_scan", "android": "https://dc.lft.to/lastmile_qr_scan"}, "is_disabled": 0, "lon": -77.03344183333333, "name": "90547824d9a00d2ce208aa4d939e2add", "fusion_lon": 0.0}, {"lat": 38.93674166666667, "fusion_lat": 0.0, "type": "electric_scooter", "bike_id": "0dd48fbca3c51abf75205c84d5f1c598", "is_reserved": 0, "rental_uris": {"ios": "https://dc.lft.to/lastmile_qr_scan", "android": "https://dc.lft.to/lastmile_qr_scan"}, "is_disabled": 0, "lon": -77.03588566666667, "name": "0dd48fbca3c51abf75205c84d5f1c598", "fusion_lon": 0.0}, {"lat": 38.935638, "fusion_lat": 0.0, "type": "electric_scooter", "bike_id": "5ca6568add1ebc8c3a7852fe4488e601", "is_reserved": 0, "rental_uris": {"ios": "https://dc.lft.to/lastmile_qr_scan", "android": "https://dc.lft.to/lastmile_qr_scan"}, "is_disabled": 0, "lon": -77.05840583333334, "name": "5ca6568add1ebc8c3a7852fe4488e601", "fusion_lon": 0.0}, {"lat": 38.872990333333334, "fusion_lat": 0.0, "type": "electric_bike", "bike_id": "9e8d3e176a7b7fa563c042cd478f9a39", "is_reserved": 0, "rental_uris": {"ios": "https://dc.lft.to/lastmile_qr_scan", "android": "https://dc.lft.to/lastmile_qr_scan"}, "is_disabled": 0, "lon": -77.139318, "name": "9e8d3e176a7b7fa563c042cd478f9a39", "fusion_lon": 0.0}, {"lat": 38.897422666666664, "fusion_lat": 0.0, "type": "electric_scooter", "bike_id": "b0ceadd99cecba55993feb8cb630e01b", "is_reserved": 0, "rental_uris": {"ios": "https://dc.lft.to/lastmile_qr_scan", "android": "https://dc.lft.to/lastmile_qr_scan"}, "is_disabled": 0, "lon": -77.0440255, "name": "b0ceadd99cecba55993feb8cb630e01b", "fusion_lon": 0.0}, {"lat": 38.91053316666667, "fusion_lat": 0.0, "type": "electric_scooter", "bike_id": "25a596661abbfc252a8897f916485e4f", "is_reserved": 0, "rental_uris": {"ios": "https://dc.lft.to/lastmile_qr_scan", "android": "https://dc.lft.to/lastmile_qr_scan"}, "is_disabled": 0, "lon": -77.04492683333334, "name": "25a596661abbfc252a8897f916485e4f", "fusion_lon": 0.0}, {"lat": 38.912762666666666, "fusion_lat": 0.0, "type": "electric_scooter", "bike_id": "93731135a87c5efc6e3f814472ea4ca9", "is_reserved": 0, "rental_uris": {"ios": "https://dc.lft.to/lastmile_qr_scan", "android": "https://dc.lft.to/lastmile_qr_scan"}, "is_disabled": 0, "lon": -77.02590866666667, "name": "93731135a87c5efc6e3f814472ea4ca9", "fusion_lon": 0.0}, {"lat": 38.929289833333335, "fusion_lat": 0.0, "type": "electric_scooter", "bike_id": "eaee7ce8c00175e72c613a72faba57db", "is_reserved": 0, "rental_uris": {"ios": "https://dc.lft.to/lastmile_qr_scan", "android": "https://dc.lft.to/lastmile_qr_scan"}, "is_disabled": 0, "lon": -77.02054183333334, "name": "eaee7ce8c00175e72c613a72faba57db", "fusion_lon": 0.0}, {"lat": 38.902697833333335, "fusion_lat": 0.0, "type": "electric_scooter", "bike_id": "6f43dc480779718e614bd15fd5fd2e75", "is_reserved": 0, "rental_uris": {"ios": "https://dc.lft.to/lastmile_qr_scan", "android": "https://dc.lft.to/lastmile_qr_scan"}, "is_disabled": 0, "lon": -77.0396725, "name": "6f43dc480779718e614bd15fd5fd2e75", "fusion_lon": 0.0}, {"lat": 38.91775916666667, "fusion_lat": 0.0, "type": "electric_scooter", "bike_id": "764adc0bc3f091e30192e5882cb2e2d3", "is_reserved": 0, "rental_uris": {"ios": "https://dc.lft.to/lastmile_qr_scan", "android": "https://dc.lft.to/lastmile_qr_scan"}, "is_disabled": 0, "lon": -77.03641683333333, "name": "764adc0bc3f091e30192e5882cb2e2d3", "fusion_lon": 0.0}, {"lat": 38.93618466666667, "fusion_lat": 0.0, "type": "electric_scooter", "bike_id": "8717ada81849773f9f9a1c35db3b3c42", "is_reserved": 0, "rental_uris": {"ios": "https://dc.lft.to/lastmile_qr_scan", "android": "https://dc.lft.to/lastmile_qr_scan"}, "is_disabled": 0, "lon": -77.06754133333334, "name": "8717ada81849773f9f9a1c35db3b3c42", "fusion_lon": 0.0}, {"lat": 38.90358916666667, "fusion_lat": 0.0, "type": "electric_scooter", "bike_id": "d2c07521f2fe54a662ce532d691b7a59", "is_reserved": 0, "rental_uris": {"ios": "https://dc.lft.to/lastmile_qr_scan", "android": "https://dc.lft.to/lastmile_qr_scan"}, "is_disabled": 0, "lon": -77.0333025, "name": "d2c07521f2fe54a662ce532d691b7a59", "fusion_lon": 0.0}, {"lat": 38.9077415, "fusion_lat": 0.0, "type": "electric_scooter", "bike_id": "3f662ead5851d5fd60173843468c92c3", "is_reserved": 0, "rental_uris": {"ios": "https://dc.lft.to/lastmile_qr_scan", "android": "https://dc.lft.to/lastmile_qr_scan"}, "is_disabled": 0, "lon": -77.01214633333333, "name": "3f662ead5851d5fd60173843468c92c3", "fusion_lon": 0.0}, {"lat": 38.90879866666667, "fusion_lat": 0.0, "type": "electric_scooter", "bike_id": "8a4c6775ec1f5a0053ce58e82fe6c09d", "is_reserved": 0, "rental_uris": {"ios": "https://dc.lft.to/lastmile_qr_scan", "android": "https://dc.lft.to/lastmile_qr_scan"}, "is_disabled": 0, "lon": -77.07534033333333, "name": "8a4c6775ec1f5a0053ce58e82fe6c09d", "fusion_lon": 0.0}, {"lat": 38.9215035, "fusion_lat": 0.0, "type": "electric_scooter", "bike_id": "b47dba8ce647c8a7f930f79cf9460202", "is_reserved": 0, "rental_uris": {"ios": "https://dc.lft.to/lastmile_qr_scan", "android": "https://dc.lft.to/lastmile_qr_scan"}, "is_disabled": 0, "lon": -77.01813583333333, "name": "b47dba8ce647c8a7f930f79cf9460202", "fusion_lon": 0.0}, {"lat": 38.89898933333333, "fusion_lat": 0.0, "type": "electric_scooter", "bike_id": "2ced2793585ed0c89c305b1214356f07", "is_reserved": 0, "rental_uris": {"ios": "https://dc.lft.to/lastmile_qr_scan", "android": "https://dc.lft.to/lastmile_qr_scan"}, "is_disabled": 0, "lon": -77.03919616666667, "name": "2ced2793585ed0c89c305b1214356f07", "fusion_lon": 0.0}, {"lat": 38.92694266666667, "fusion_lat": 0.0, "type": "electric_scooter", "bike_id": "2db2ed614826429fe0cb1182733043fd", "is_reserved": 0, "rental_uris": {"ios": "https://dc.lft.to/lastmile_qr_scan", "android": "https://dc.lft.to/lastmile_qr_scan"}, "is_disabled": 0, "lon": -77.0212975, "name": "2db2ed614826429fe0cb1182733043fd", "fusion_lon": 0.0}, {"lat": 38.9002665, "fusion_lat": 0.0, "type": "electric_scooter", "bike_id": "02fab719a304fbbce256d4ac6590bb3c", "is_reserved": 0, "rental_uris": {"ios": "https://dc.lft.to/lastmile_qr_scan", "android": "https://dc.lft.to/lastmile_qr_scan"}, "is_disabled": 0, "lon": -76.998581, "name": "02fab719a304fbbce256d4ac6590bb3c", "fusion_lon": 0.0}, {"lat": 38.829449833333335, "fusion_lat": 0.0, "type": "electric_bike", "bike_id": "58262abfdbf31b10137fea7dd13e0b67", "is_reserved": 0, "rental_uris": {"ios": "https://dc.lft.to/lastmile_qr_scan", "android": "https://dc.lft.to/lastmile_qr_scan"}, "is_disabled": 0, "lon": -77.12360116666666, "name": "58262abfdbf31b10137fea7dd13e0b67", "fusion_lon": 0.0}, {"lat": 38.85919283333333, "fusion_lat": 0.0, "type": "electric_scooter", "bike_id": "32f14a2c43746a27ecc0598461475249", "is_reserved": 0, "rental_uris": {"ios": "https://dc.lft.to/lastmile_qr_scan", "android": "https://dc.lft.to/lastmile_qr_scan"}, "is_disabled": 0, "lon": -76.989801, "name": "32f14a2c43746a27ecc0598461475249", "fusion_lon": 0.0}, {"lat": 38.92047133333333, "fusion_lat": 0.0, "type": "electric_scooter", "bike_id": "952fb3ff6b0407d35e0ffbdc5fe62d85", "is_reserved": 0, "rental_uris": {"ios": "https://dc.lft.to/lastmile_qr_scan", "android": "https://dc.lft.to/lastmile_qr_scan"}, "is_disabled": 0, "lon": -76.98942683333334, "name": "952fb3ff6b0407d35e0ffbdc5fe62d85", "fusion_lon": 0.0}, {"lat": 38.90584033333333, "fusion_lat": 0.0, "type": "electric_scooter", "bike_id": "2275a4d2633626c45142165842202207", "is_reserved": 0, "rental_uris": {"ios": "https://dc.lft.to/lastmile_qr_scan", "android": "https://dc.lft.to/lastmile_qr_scan"}, "is_disabled": 0, "lon": -77.051213, "name": "2275a4d2633626c45142165842202207", "fusion_lon": 0.0}, {"lat": 38.903497333333334, "fusion_lat": 0.0, "type": "electric_scooter", "bike_id": "9a2eb3fc316b5243d64356628bc668dc", "is_reserved": 0, "rental_uris": {"ios": "https://dc.lft.to/lastmile_qr_scan", "android": "https://dc.lft.to/lastmile_qr_scan"}, "is_disabled": 0, "lon": -77.04262466666667, "name": "9a2eb3fc316b5243d64356628bc668dc", "fusion_lon": 0.0}, {"lat": 38.921491, "fusion_lat": 0.0, "type": "electric_scooter", "bike_id": "ae8a86d2c9532577a90e7961f9485588", "is_reserved": 0, "rental_uris": {"ios": "https://dc.lft.to/lastmile_qr_scan", "android": "https://dc.lft.to/lastmile_qr_scan"}, "is_disabled": 0, "lon": -77.0435375, "name": "ae8a86d2c9532577a90e7961f9485588", "fusion_lon": 0.0}, {"lat": 38.8975195, "fusion_lat": 0.0, "type": "electric_scooter", "bike_id": "557d2ae9606b8f6900c35f7094b6528a", "is_reserved": 0, "rental_uris": {"ios": "https://dc.lft.to/lastmile_qr_scan", "android": "https://dc.lft.to/lastmile_qr_scan"}, "is_disabled": 0, "lon": -77.02989416666667, "name": "557d2ae9606b8f6900c35f7094b6528a", "fusion_lon": 0.0}, {"lat": 38.90715683333333, "fusion_lat": 0.0, "type": "electric_scooter", "bike_id": "457ee404a1954e37dfed4e81734020f0", "is_reserved": 0, "rental_uris": {"ios": "https://dc.lft.to/lastmile_qr_scan", "android": "https://dc.lft.to/lastmile_qr_scan"}, "is_disabled": 0, "lon": -76.98924216666667, "name": "457ee404a1954e37dfed4e81734020f0", "fusion_lon": 0.0}, {"lat": 38.92610233333333, "fusion_lat": 0.0, "type": "electric_scooter", "bike_id": "bea7b211c1374e90b2b4df7b70033b42", "is_reserved": 0, "rental_uris": {"ios": "https://dc.lft.to/lastmile_qr_scan", "android": "https://dc.lft.to/lastmile_qr_scan"}, "is_disabled": 0, "lon": -77.02413083333333, "name": "bea7b211c1374e90b2b4df7b70033b42", "fusion_lon": 0.0}, {"lat": 38.923212166666666, "fusion_lat": 0.0, "type": "electric_scooter", "bike_id": "9298b272ff86e8414c498b6ae523e4e9", "is_reserved": 0, "rental_uris": {"ios": "https://dc.lft.to/lastmile_qr_scan", "android": "https://dc.lft.to/lastmile_qr_scan"}, "is_disabled": 0, "lon": -77.0213845, "name": "9298b272ff86e8414c498b6ae523e4e9", "fusion_lon": 0.0}, {"lat": 38.900297333333334, "fusion_lat": 0.0, "type": "electric_scooter", "bike_id": "6b6911ab59d7e8927525781ca76771bf", "is_reserved": 0, "rental_uris": {"ios": "https://dc.lft.to/lastmile_qr_scan", "android": "https://dc.lft.to/lastmile_qr_scan"}, "is_disabled": 0, "lon": -77.00024733333333, "name": "6b6911ab59d7e8927525781ca76771bf", "fusion_lon": 0.0}, {"lat": 38.904202, "fusion_lat": 0.0, "type": "electric_scooter", "bike_id": "58098e2877839ac6259a0f50a1e9a521", "is_reserved": 0, "rental_uris": {"ios": "https://dc.lft.to/lastmile_qr_scan", "android": "https://dc.lft.to/lastmile_qr_scan"}, "is_disabled": 0, "lon": -77.04355633333333, "name": "58098e2877839ac6259a0f50a1e9a521", "fusion_lon": 0.0}, {"lat": 38.925508666666666, "fusion_lat": 0.0, "type": "electric_scooter", "bike_id": "079b4b638f15e492ef939548513f5f00", "is_reserved": 0, "rental_uris": {"ios": "https://dc.lft.to/lastmile_qr_scan", "android": "https://dc.lft.to/lastmile_qr_scan"}, "is_disabled": 0, "lon": -76.97219933333334, "name": "079b4b638f15e492ef939548513f5f00", "fusion_lon": 0.0},