{"data": {"bikes": [{"name": "23559fc7bcb6afbe9599015d959d4a46", "fusion_lat": 0.0, "type": "electric_scooter", "lat": 38.931450166666664, "is_reserved": 0, "is_disabled": 0, "fusion_lon": 0.0, "bike_id": "23559fc7bcb6afbe9599015d959d4a46", "lon": -77.03826766666667, "rental_uris": {"ios": "https://dc.lft.to/lastmile_qr_scan", "android": "https://dc.lft.to/lastmile_qr_scan"}}, {"name": "91df28493ecfb6b93c5fa1e496b80d47", "fusion_lat": 0.0, "type": "electric_scooter", "lat": 38.915670666666664, "is_reserved": 0, "is_disabled": 0, "fusion_lon": 0.0, "bike_id": "91df28493ecfb6b93c5fa1e496b80d47", "lon": -77.04693916666666, "rental_uris": {"ios": "https://dc.lft.to/lastmile_qr_scan", "android": "https://dc.lft.to/lastmile_qr_scan"}}, {"name": "649ec9a6c87f35674d4d1d9cb9582662", "fusion_lat": 0.0, "type": "electric_scooter", "lat": 38.90238633333333, "is_reserved": 0, "is_disabled": 0, "fusion_lon": 0.0, "bike_id": "649ec9a6c87f35674d4d1d9cb9582662", "lon": -77.01933216666667, "rental_uris": {"ios": "https://dc.lft.to/lastmile_qr_scan", "android": "https://dc.lft.to/lastmile_qr_scan"}}, {"name": "72c8154d7e6a8d9c78110048a7b1f59c", "fusion_lat": 0.0, "type": "electric_scooter", "lat": 38.9192145, "is_reserved": 0, "is_disabled": 0, "fusion_lon": 0.0, "bike_id": "72c8154d7e6a8d9c78110048a7b1f59c", "lon": -77.03221783333333, "rental_uris": {"ios": "https://dc.lft.to/lastmile_qr_scan", "android": "https://dc.lft.to/lastmile_qr_scan"}}, {"name": "657d1e63a5a7f0a5dd3379539f0b8aae", "fusion_lat": 0.0, "type": "electric_bike", "lat": 38.920073, "is_reserved": 0, "is_disabled": 0, "fusion_lon": 0.0, "bike_id": "657d1e63a5a7f0a5dd3379539f0b8aae", "lon": -76.97490866666666, "rental_uris": {"ios": "https://dc.lft.to/lastmile_qr_scan", "android": "https://dc.lft.to/lastmile_qr_scan"}}, {"name": "b782f38457cc58afb8b272b29e417199", "fusion_lat": 0.0, "type": "electric_scooter", "lat": 38.880687, "is_reserved": 0, "is_disabled": 0, "fusion_lon": 0.0, "bike_id": "b782f38457cc58afb8b272b29e417199", "lon": -76.93532316666666, "rental_uris": {"ios": "https://dc.lft.to/lastmile_qr_scan", "android": "https://dc.lft.to/lastmile_qr_scan"}}, {"name": "f1bfa9a807ea61c89fb3ea7f0e32ca80", "fusion_lat": 0.0, "type": "electric_scooter", "lat": 38.885065833333336, "is_reserved": 0, "is_disabled": 0, "fusion_lon": 0.0, "bike_id": "f1bfa9a807ea61c89fb3ea7f0e32ca80", "lon": -77.02194833333333, "rental_uris": {"ios": "https://dc.lft.to/lastmile_qr_scan", "android": "https://dc.lft.to/lastmile_qr_scan"}}, {"name": "4bdcd1dc6a693661f51f58f22441bce9", "fusion_lat": 0.0, "type": "electric_bike", "lat": 38.93698416666667, "is_reserved": 0, "is_disabled": 0, "fusion_lon": 0.0, "bike_id": "4bdcd1dc6a693661f51f58f22441bce9", "lon": -77.03286283333334, "rental_uris": {"ios": "https://dc.lft.to/lastmile_qr_scan", "android": "https://dc.lft.to/lastmile_qr_scan"}}, {"name": "fa237fa2d3519f956f6a4b0768fbb86f", "fusion_lat": 0.0, "type": "electric_scooter", "lat": 38.91924983333333, "is_reserved": 0, "is_disabled": 0, "fusion_lon": 0.0, "bike_id": "fa237fa2d3519f956f6a4b0768fbb86f", "lon": -77.03258583333333, "rental_uris": {"ios": "https://dc.lft.to/lastmile_qr_scan", "android": "https://dc.lft.to/lastmile_qr_scan"}}, {"name": "347c9b67c22cc9ed18e3831b93ec859f", "fusion_lat": 0.0, "type": "electric_scooter", "lat": 38.9180315, "is_reserved": 0, "is_disabled": 0, "fusion_lon": 0.0, "bike_id": "347c9b67c22cc9ed18e3831b93ec859f", "lon": -77.06827766666666, "rental_uris": {"ios": "https://dc.lft.to/lastmile_qr_scan", "android": "https://dc.lft.to/lastmile_qr_scan"}}, {"name": "97eacbb8e67cba40b66c4cde270564fc", "fusion_lat": 0.0, "type": "electric_bike", "lat": 38.92730616666667, "is_reserved": 0, "is_disabled": 0, "fusion_lon": 0.0, "bike_id": "97eacbb8e67cba40b66c4cde270564fc", "lon": -77.01340916666666, "rental_uris": {"ios": "https://dc.lft.to/lastmile_qr_scan", "android": "https://dc.lft.to/lastmile_qr_scan"}}, {"name": "d30c3c185a6a3fe0d96b0a3acb990546", "fusion_lat": 0.0, "type": "electric_scooter", "lat": 38.917499666666664, "is_reserved": 0, "is_disabled": 0, "fusion_lon": 0.0, "bike_id": "d30c3c185a6a3fe0d96b0a3acb990546", "lon": -77.03644216666666, "rental_uris": {"ios": "https://dc.lft.to/lastmile_qr_scan", "android": "https://dc.lft.to/lastmile_qr_scan"}}, {"name": "41ea34f8a02c653783546f4de30acbc7", "fusion_lat": 0.0, "type": "electric_scooter", "lat": 38.914041166666664, "is_reserved": 0, "is_disabled": 0, "fusion_lon": 0.0, "bike_id": "41ea34f8a02c653783546f4de30acbc7", "lon": -77.03216566666667, "rental_uris": {"ios": "https://dc.lft.to/lastmile_qr_scan", "android": "https://dc.lft.to/lastmile_qr_scan"}}, {"name": "b08767877f50a75d1c9b3d2248cae4d3", "fusion_lat": 0.0, "type": "electric_scooter", "lat": 38.93595333333333, "is_reserved": 0, "is_disabled": 0, "fusion_lon": 0.0, "bike_id": "b08767877f50a75d1c9b3d2248cae4d3", "lon": -77.03523283333334, "rental_uris": {"ios": "https://dc.lft.to/lastmile_qr_scan", "android": "https://dc.lft.to/lastmile_qr_scan"}}, {"name": "650a3f78b4ce643ca23e967a0809f655", "fusion_lat": 0.0, "type": "electric_scooter", "lat": 38.909041, "is_reserved": 0, "is_disabled": 0, "fusion_lon": 0.0, "bike_id": "650a3f78b4ce643ca23e967a0809f655", "lon": -77.027151, "rental_uris": {"ios": "https://dc.lft.to/lastmile_qr_scan", "android": "https://dc.lft.to/lastmile_qr_scan"}}, {"name": "ac5e82cd091e32bb7ba371b1a9a7f2ad", "fusion_lat": 0.0, "type": "electric_scooter", "lat": 38.89588216666667, "is_reserved": 0, "is_disabled": 0, "fusion_lon": 0.0, "bike_id": "ac5e82cd091e32bb7ba371b1a9a7f2ad", "lon": -76.93714883333334, "rental_uris": {"ios": "https://dc.lft.to/lastmile_qr_scan", "android": "https://dc.lft.to/lastmile_qr_scan"}}, {"name": "bed20fe368dbd1689e2a2c67b90f6b7d", "fusion_lat": 0.0, "type": "electric_scooter", "lat": 38.90373666666667, "is_reserved": 0, "is_disabled": 0, "fusion_lon": 0.0, "bike_id": "bed20fe368dbd1689e2a2c67b90f6b7d", "lon": -77.00733866666667, "rental_uris": {"ios": "https://dc.lft.to/lastmile_qr_scan", "android": "https://dc.lft.to/lastmile_qr_scan"}}, {"name": "184ad31e54632abce4696b3f0cbf4341", "fusion_lat": 0.0, "type": "electric_scooter", "lat": 38.901588, "is_reserved": 0, "is_disabled": 0, "fusion_lon": 0.0, "bike_id": "184ad31e54632abce4696b3f0cbf4341", "lon": -76.97407033333333, "rental_uris": {"ios": "https://dc.lft.to/lastmile_qr_scan", "android": "https://dc.lft.to/lastmile_qr_scan"}}, {"name": "5f64341ad6c2a9f664833b4e8442b39e", "fusion_lat": 0.0, "type": "electric_scooter", "lat": 38.9141655, "is_reserved": 0, "is_disabled": 0, "fusion_lon": 0.0, "bike_id": "5f64341ad6c2a9f664833b4e8442b39e", "lon": -77.00890816666667, "rental_uris": {"ios": "https://dc.lft.to/lastmile_qr_scan", "android": "https://dc.lft.to/lastmile_qr_scan"}}, {"name": "06233e3530819368e4b2f18894a065a3", "fusion_lat": 0.0, "type": "electric_scooter", "lat": 38.9127085, "is_reserved": 0, "is_disabled": 0, "fusion_lon": 0.0, "bike_id": "06233e3530819368e4b2f18894a065a3", "lon": -77.06082166666667, "rental_uris": {"ios": "https://dc.lft.to/lastmile_qr_scan", "android": "https://dc.lft.to/lastmile_qr_scan"}}, {"name": "7b9686b342fc722b3e48f14fd62ef51b", "fusion_lat": 0.0, "type": "electric_bike", "lat": 38.968359, "is_reserved": 0, "is_disabled": 0, "fusion_lon": 0.0, "bike_id": "7b9686b342fc722b3e48f14fd62ef51b", "lon": -77.03334516666666, "rental_uris": {"ios": "https://dc.lft.to/lastmile_qr_scan", "android": "https://dc.lft.to/lastmile_qr_scan"}}, {"name": "ba0d1cd2490dd68411ddde4e36cf6e9e", "fusion_lat": 0.0, "type": "electric_scooter", "lat": 38.874972, "is_reserved": 0, "is_disabled": 0, "fusion_lon": 0.0, "bike_id": "ba0d1cd2490dd68411ddde4e36cf6e9e", "lon": -77.001762, "rental_uris": {"ios": "https://dc.lft.to/lastmile_qr_scan", "android": "https://dc.lft.to/lastmile_qr_scan"}}, {"name": "47bbdd5f510f61d08e2bb2c1d8bf15fa", "fusion_lat": 0.0, "type": "electric_scooter", "lat": 38.8990675, "is_reserved": 0, "is_disabled": 0, "fusion_lon": 0.0, "bike_id": "47bbdd5f510f61d08e2bb2c1d8bf15fa", "lon": -77.03925183333334, "rental_uris": {"ios": "https://dc.lft.to/lastmile_qr_scan", "android": "https://dc.lft.to/lastmile_qr_scan"}}, {"name": "341359fa233e66c7ed9bb9a4f58c6487", "fusion_lat": 0.0, "type": "electric_scooter", "lat": 38.912244333333334, "is_reserved": 0, "is_disabled": 0, "fusion_lon": 0.0, "bike_id": "341359fa233e66c7ed9bb9a4f58c6487", "lon": -77.04486216666666, "rental_uris": {"ios": "https://dc.lft.to/lastmile_qr_scan", "android": "https://dc.lft.to/lastmile_qr_scan"}}, {"name": "171b59e0b04d07ddf92e8410cce97643", "fusion_lat": 0.0, "type": "electric_scooter", "lat": 38.932065, "is_reserved": 0, "is_disabled": 0, "fusion_lon": 0.0, "bike_id": "171b59e0b04d07ddf92e8410cce97643", "lon": -77.0273005, "rental_uris": {"ios": "https://dc.lft.to/lastmile_qr_scan", "android": "https://dc.lft.to/lastmile_qr_scan"}}, {"name": "385519f0189881156d0ba0e71c12dfce", "fusion_lat": 0.0, "type": "electric_scooter", "lat": 38.89531683333333, "is_reserved": 0, "is_disabled": 0, "fusion_lon": 0.0, "bike_id": "385519f0189881156d0ba0e71c12dfce", "lon": -77.01089733333333, "rental_uris": {"ios": "https://dc.lft.to/lastmile_qr_scan", "android": "https://dc.lft.to/lastmile_qr_scan"}}, {"name": "138aabb877b800f023aee360a984d031", "fusion_lat": 0.0, "type": "electric_scooter", "lat": 38.89957, "is_reserved": 0, "is_disabled": 0, "fusion_lon": 0.0, "bike_id": "138aabb877b800f023aee360a984d031", "lon": -77.0310725, "rental_uris": {"ios": "https://dc.lft.to/lastmile_qr_scan", "android": "https://dc.lft.to/lastmile_qr_scan"}}, {"name": "478866882f62c7bceaeb79dd85888fa9", "fusion_lat": 0.0, "type": "electric_scooter", "lat": 38.9306975, "is_reserved": 0, "is_disabled": 0, "fusion_lon": 0.0, "bike_id": "478866882f62c7bceaeb79dd85888fa9", "lon": -77.0396055, "rental_uris": {"ios": "https://dc.lft.to/lastmile_qr_scan", "android": "https://dc.lft.to/lastmile_qr_scan"}}, {"name": "30e05353846a67461b744bdb425dd8ae", "fusion_lat": 0.0, "type": "electric_scooter", "lat": 38.903167333333336, "is_reserved": 0, "is_disabled": 0, "fusion_lon": 0.0, "bike_id": "30e05353846a67461b744bdb425dd8ae", "lon": -77.04171283333334, "rental_uris": {"ios": "https://dc.lft.to/lastmile_qr_scan", "android": "https://dc.lft.to/lastmile_qr_scan"}}, {"name": "58f850a3266f1c123c8727d43e80c92e", "fusion_lat": 0.0, "type": "electric_scooter", "lat": 38.9134385, "is_reserved": 0, "is_disabled": 0, "fusion_lon": 0.0, "bike_id": "58f850a3266f1c123c8727d43e80c92e", "lon": -77.03117833333333, "rental_uris": {"ios": "https://dc.lft.to/lastmile_qr_scan", "android": "https://dc.lft.to/lastmile_qr_scan"}}, {"name": "cfee2421a892986438affebeda745b92", "fusion_lat": 0.0, "type": "electric_scooter", "lat": 38.89605483333333, "is_reserved": 0, "is_disabled": 0, "fusion_lon": 0.0, "bike_id": "cfee2421a892986438affebeda745b92", "lon": -77.04686483333333, "rental_uris": {"ios": "https://dc.lft.to/lastmile_qr_scan", "android": "https://dc.lft.to/lastmile_qr_scan"}}, {"name": "6264743e2f1d299d0c0031b8b458b4cf", "fusion_lat": 0.0, "type": "electric_scooter", "lat": 38.90073133333333, "is_reserved": 0, "is_disabled": 0, "fusion_lon": 0.0, "bike_id": "6264743e2f1d299d0c0031b8b458b4cf", "lon": -77.05194616666667, "rental_uris": {"ios": "https://dc.lft.to/lastmile_qr_scan", "android": "https://dc.lft.to/lastmile_qr_scan"}}, {"name": "e52977732310e774c3395262bec5f108", "fusion_lat": 0.0, "type": "electric_scooter", "lat": 38.9177775, "is_reserved": 0, "is_disabled": 0, "fusion_lon": 0.0, "bike_id": "e52977732310e774c3395262bec5f108", "lon": -77.02951483333334, "rental_uris": {"ios": "https://dc.lft.to/lastmile_qr_scan", "android": "https://dc.lft.to/lastmile_qr_scan"}}, {"name": "f0b21b9c2e33406fe2ecbb2c6ffc75c0", "fusion_lat": 0.0, "type": "electric_scooter", "lat": 38.90529133333333, "is_reserved": 0, "is_disabled": 0, "fusion_lon": 0.0, "bike_id": "f0b21b9c2e33406fe2ecbb2c6ffc75c0", "lon": -77.04998883333333, "rental_uris": {"ios": "https://dc.lft.to/lastmile_qr_scan", "android": "https://dc.lft.to/lastmile_qr_scan"}}, {"name": "21c2ad9437b189360ec46b23f2e41aa1", "fusion_lat": 0.0, "type": "electric_scooter", "lat": 38.9123925, "is_reserved": 0, "is_disabled": 0, "fusion_lon": 0.0, "bike_id": "21c2ad9437b189360ec46b23f2e41aa1", "lon": -77.009212, "rental_uris": {"ios": "https://dc.lft.to/lastmile_qr_scan", "android": "https://dc.lft.to/lastmile_qr_scan"}}, {"name": "2e6e8a8a9ad8c128d70e35dbbc9fbb82", "fusion_lat": 0.0, "type": "electric_scooter", "lat": 38.92603183333333, "is_reserved": 0, "is_disabled": 0, "fusion_lon": 0.0, "bike_id": "2e6e8a8a9ad8c128d70e35dbbc9fbb82", "lon": -77.02354366666667, "rental_uris": {"ios": "https://dc.lft.to/lastmile_qr_scan", "android": "https://dc.lft.to/lastmile_qr_scan"}}, {"name": "78dbe07327c7bef2d0e528254028a82e", "fusion_lat": 0.0, "type": "electric_bike", "lat": 38.96492083333333, "is_reserved": 0, "is_disabled": 0, "fusion_lon": 0.0, "bike_id": "78dbe07327c7bef2d0e528254028a82e", "lon": -77.06490283333333, "rental_uris": {"ios": "https://dc.lft.to/lastmile_qr_scan", "android": "https://dc.lft.to/lastmile_qr_scan"}}, {"name": "694680ffceb990975113872c65896ea7", "fusion_lat": 0.0, "type": "electric_scooter", "lat": 38.9212495, "is_reserved": 0, "is_disabled": 0, "fusion_lon": 0.0, "bike_id": "694680ffceb990975113872c65896ea7", "lon": -77.04127033333333, "rental_uris": {"ios": "https://dc.lft.to/lastmile_qr_scan", "android": "https://dc.lft.to/lastmile_qr_scan"}}, {"name": "3cdce20f4ea6647e6c9331a5c92fb521", "fusion_lat": 0.0, "type": "electric_scooter", "lat": 38.907404, "is_reserved": 0, "is_disabled": 0, "fusion_lon": 0.0, "bike_id": "3cdce20f4ea6647e6c9331a5c92fb521", "lon": -77.03442316666667, "rental_uris": {"ios": "https://dc.lft.to/lastmile_qr_scan", "android": "https://dc.lft.to/lastmile_qr_scan"}}, {"name": "7c740a0490846dcdf6d188c4df4e2edc", "fusion_lat": 0.0, "type": "electric_scooter", "lat": 38.907062833333335, "is_reserved": 0, "is_disabled": 0, "fusion_lon": 0.0, "bike_id": "7c740a0490846dcdf6d188c4df4e2edc", "lon": -77.04140366666667, "rental_uris": {"ios": "https://dc.lft.to/lastmile_qr_scan", "android": "https://dc.lft.to/lastmile_qr_scan"}}, {"name": "baab5c4e88b7d6d7a84f61239aca5ed0", "fusion_lat": 0.0, "type": "electric_scooter", "lat": 38.902702833333336, "is_reserved": 0, "is_disabled": 0, "fusion_lon": 0.0, "bike_id": "baab5c4e88b7d6d7a84f61239aca5ed0", "lon": -76.9985175, "rental_uris": {"ios": "https://dc.lft.to/lastmile_qr_scan", "android": "https://dc.lft.to/lastmile_qr_scan"}}, {"name": "6e015e505e913eb9cebe8c0ab210eafe", "fusion_lat": 0.0, "type": "electric_scooter", "lat": 38.9423585, "is_reserved": 0, "is_disabled": 0, "fusion_lon": 0.0, "bike_id": "6e015e505e913eb9cebe8c0ab210eafe", "lon": -77.015399, "rental_uris": {"ios": "https://dc.lft.to/lastmile_qr_scan", "android": "https://dc.lft.to/lastmile_qr_scan"}}, {"name": "a471d422c0fed42fea3cdd18cdc2dc0c", "fusion_lat": 0.0, "type": "electric_scooter", "lat": 38.8979185, "is_reserved": 0, "is_disabled": 0, "fusion_lon": 0.0, "bike_id": "a471d422c0fed42fea3cdd18cdc2dc0c", "lon": -76.94419266666667, "rental_uris": {"ios": "https://dc.lft.to/lastmile_qr_scan", "android": "https://dc.lft.to/lastmile_qr_scan"}}, {"name": "c7ef6bd704145552f7c946164135cb3c", "fusion_lat": 0.0, "type": "electric_scooter", "lat": 38.92582266666667, "is_reserved": 0, "is_disabled": 0, "fusion_lon": 0.0, "bike_id": "c7ef6bd704145552f7c946164135cb3c", "lon": -77.03780566666667, "rental_uris": {"ios": "https://dc.lft.to/lastmile_qr_scan", "android": "https://dc.lft.to/lastmile_qr_scan"}}, {"name": "b97ac3a4ffdc49a43fdcdac642c4196d", "fusion_lat": 0.0, "type": "electric_bike", "lat": 38.87234016666667, "is_reserved": 0, "is_disabled": 0, "fusion_lon": 0.0, "bike_id": "b97ac3a4ffdc49a43fdcdac642c4196d", "lon": -77.0116355, "rental_uris": {"ios": "https://dc.lft.to/lastmile_qr_scan", "android": "https://dc.lft.to/lastmile_qr_scan"}}, {"name": "c1215ffef04f6d63f1ff5bb5ac861b2f", "fusion_lat": 0.0, "type": "electric_scooter", "lat": 38.904047166666665, "is_reserved": 0, "is_disabled": 0, "fusion_lon": 0.0, "bike_id": "c1215ffef04f6d63f1ff5bb5ac861b2f", "lon": -77.02880183333333, "rental_uris": {"ios": "https://dc.lft.to/lastmile_qr_scan", "android": "https://dc.lft.to/lastmile_qr_scan"}}, {"name": "0e2891f7d41a9d86da62362d5e442b08", "fusion_lat": 0.0, "type": "electric_bike", "lat": 38.994543, "is_reserved": 0, "is_disabled": 0, "fusion_lon": 0.0, "bike_id": "0e2891f7d41a9d86da62362d5e442b08", "lon": -76.90815616666667, "rental_uris": {"ios": "https://dc.lft.to/lastmile_qr_scan", "android": "https://dc.lft.to/lastmile_qr_scan"}}, {"name": "83868b113e41aa850ed19f598c296bc9", "fusion_lat": 0.0, "type": "electric_scooter", "lat": 38.92413716666667, "is_reserved": 0, "is_disabled": 0, "fusion_lon": 0.0, "bike_id": "83868b113e41aa850ed19f598c296bc9", "lon": -77.02272, "rental_uris": {"ios": "https://dc.lft.to/lastmile_qr_scan", "android": "https://dc.lft.to/lastmile_qr_scan"}}, {"name": "263e18f13f562cb11170d0c2b7d82f40", "fusion_lat": 0.0, "type": "electric_scooter", "lat": 38.90511866666667, "is_reserved": 0, "is_disabled": 0, "fusion_lon": 0.0, "bike_id": "263e18f13f562cb11170d0c2b7d82f40", "lon": -77.05147733333334, "rental_uris": {"ios": "https://dc.lft.to/lastmile_qr_scan", "android": "https://dc.lft.to/lastmile_qr_scan"}}, {"name": "e5da2e2e7583d75d1e12769f591c7090", "fusion_lat": 0.0, "type": "electric_scooter", "lat": 38.905053333333335, "is_reserved": 0, "is_disabled": 0, "fusion_lon": 0.0, "bike_id": "e5da2e2e7583d75d1e12769f591c7090", "lon": -77.02763183333333, "rental_uris": {"ios": "https://dc.lft.to/lastmile_qr_scan", "android": "https://dc.lft.to/lastmile_qr_scan"}}, {"name": "07cba8d311f71f93969a763f18fbd155", "fusion_lat": 0.0, "type": "electric_scooter", "lat": 38.90029233333333, "is_reserved": 0, "is_disabled": 0, "fusion_lon": 0.0, "bike_id": "07cba8d311f71f93969a763f18fbd155", "lon": -77.0019305, "rental_uris": {"ios": "https://dc.lft.to/lastmile_qr_scan", "android": "https://dc.lft.to/lastmile_qr_scan"}}, {"name": "705f74377fd93644d5f534104cf8cb5d", "fusion_lat": 0.0, "type": "electric_scooter", "lat": 38.908653666666666, "is_reserved": 0, "is_disabled": 0, "fusion_lon": 0.0, "bike_id": "705f74377fd93644d5f534104cf8cb5d", "lon": -76.99952016666667, "rental_uris": {"ios": "https://dc.lft.to/lastmile_qr_scan", "android": "https://dc.lft.to/lastmile_qr_scan"}}, {"name": "e6168d88317c6fdc9a56d5a01d493fd7", "fusion_lat": 0.0, "type": "electric_scooter", "lat": 38.895536, "is_reserved": 0, "is_disabled": 0, "fusion_lon": 0.0, "bike_id": "e6168d88317c6fdc9a56d5a01d493fd7", "lon": -76.98375316666667, "rental_uris": {"ios": "https://dc.lft.to/lastmile_qr_scan", "android": "https://dc.lft.to/lastmile_qr_scan"}}, {"name": "6dee389b4646ba5005823fc84c6c9a5a", "fusion_lat": 0.0, "type": "electric_scooter", "lat": 38.8804, "is_reserved": 0, "is_disabled": 0, "fusion_lon": 0.0, "bike_id": "6dee389b4646ba5005823fc84c6c9a5a", "lon": -76.95987416666667, "rental_uris": {"ios": "https://dc.lft.to/lastmile_qr_scan", "android": "https://dc.lft.to/lastmile_qr_scan"}}, {"name": "2322bef6e18a6f8198056bfe912d8edf", "fusion_lat": 0.0, "type": "electric_scooter", "lat": 38.878545833333334, "is_reserved": 0, "is_disabled": 0, "fusion_lon": 0.0, "bike_id": "2322bef6e18a6f8198056bfe912d8edf", "lon": -77.02261683333333, "rental_uris": {"ios": "https://dc.lft.to/lastmile_qr_scan", "android": "https://dc.lft.to/lastmile_qr_scan"}}, {"name": "980f2f00630433e1eff905555809e65c", "fusion_lat": 0.0, "type": "electric_scooter", "lat": 38.93917916666667, "is_reserved": 0, "is_disabled": 0, "fusion_lon": 0.0, "bike_id": "980f2f00630433e1eff905555809e65c", "lon": -77.03659466666667, "rental_uris": {"ios": "https://dc.lft.to/lastmile_qr_scan", "android": "https://dc.lft.to/lastmile_qr_scan"}}, {"name": "1dd2c5f33e05799793a31e7704e86dbb", "fusion_lat": 0.0, "type": "electric_scooter", "lat": 38.9305925, "is_reserved": 0, "is_disabled": 0, "fusion_lon": 0.0, "bike_id": "1dd2c5f33e05799793a31e7704e86dbb", "lon": -77.02320866666666, "rental_uris": {"ios": "https://dc.lft.to/lastmile_qr_scan", "android": "https://dc.lft.to/lastmile_qr_scan"}}, {"name": "4ee5e64cba9c05204635cf4bcd7ad27b", "fusion_lat": 0.0, "type": "electric_bike", "lat": 38.984606666666664, "is_reserved": 0, "is_disabled": 0, "fusion_lon": 0.0, "bike_id": "4ee5e64cba9c05204635cf4bcd7ad27b", "lon": -76.9552595, "rental_uris": {"ios": "https://dc.lft.to/lastmile_qr_scan", "android": "https://dc.lft.to/lastmile_qr_scan"}}, {"name": "f2677d6bb9bb14ab3cdb5fc52c3623f9", "fusion_lat": 0.0, "type": "electric_scooter", "lat": 38.903366, "is_reserved": 0, "is_disabled": 0, "fusion_lon": 0.0, "bike_id": "f2677d6bb9bb14ab3cdb5fc52c3623f9", "lon": -76.97104533333334, "rental_uris": {"ios": "https://dc.lft.to/lastmile_qr_scan", "android": "https://dc.lft.to/lastmile_qr_scan"}}, {"name": "be90ccb88877af205dc93a55aa960a59", "fusion_lat": 0.0, "type": "electric_scooter", "lat": 38.900283333333334, "is_reserved": 0, "is_disabled": 0, "fusion_lon": 0.0, "bike_id": "be90ccb88877af205dc93a55aa960a59", "lon": -77.00199683333334, "rental_uris": {"ios": "https://dc.lft.to/lastmile_qr_scan", "android": "https://dc.lft.to/lastmile_qr_scan"}}, {"name": "a590ebe8a36423e17ad5270a211af776", "fusion_lat": 0.0, "type": "electric_bike", "lat": 38.8659225, "is_reserved": 0, "is_disabled": 0, "fusion_lon": 0.0, "bike_id": "a590ebe8a36423e17ad5270a211af776", "lon": -76.9322625, "rental_uris": {"ios": "https://dc.lft.to/lastmile_qr_scan", "android": "https://dc.lft.to/lastmile_qr_scan"}}, {"name": "86eb7d80d5021b026a984d2d1d8194ba", "fusion_lat": 0.0, "type": "electric_bike", "lat": 38.85215783333334, "is_reserved": 0, "is_disabled": 0, "fusion_lon": 0.0, "bike_id": "86eb7d80d5021b026a984d2d1d8194ba", "lon": -77.12959866666667, "rental_uris": {"ios": "https://dc.lft.to/lastmile_qr_scan", "android": "https://dc.lft.to/lastmile_qr_scan"}}, {"name": "d990af48a39355ae56d4bcb8a47e9132", "fusion_lat": 0.0, "type": "electric_scooter", "lat": 38.878354, "is_reserved": 0, "is_disabled": 0, "fusion_lon": 0.0, "bike_id": "d990af48a39355ae56d4bcb8a47e9132", "lon": -77.0228495, "rental_uris": {"ios": "https://dc.lft.to/lastmile_qr_scan", "android": "https://dc.lft.to/lastmile_qr_scan"}}, {"name": "aa0e3ed329e4df6cf7259d7d394f65a6", "fusion_lat": 0.0, "type": "electric_scooter", "lat": 38.90054766666667, "is_reserved": 0, "is_disabled": 0, "fusion_lon": 0.0, "bike_id": "aa0e3ed329e4df6cf7259d7d394f65a6", "lon": -76.947563, "rental_uris": {"ios": "https://dc.lft.to/lastmile_qr_scan", "android": "https://dc.lft.to/lastmile_qr_scan"}}, {"name": "cd4a08bce5d4fbfa17d26bf0481cd90b", "fusion_lat": 0.0, "type": "electric_scooter", "lat": 38.883912, "is_reserved": 0, "is_disabled": 0, "fusion_lon": 0.0, "bike_id": "cd4a08bce5d4fbfa17d26bf0481cd90b", "lon": -76.98549416666667, "rental_uris": {"ios": "https://dc.lft.to/lastmile_qr_scan", "android": "https://dc.lft.to/lastmile_qr_scan"}}, {"name": "af88e1e4a3d66995bd69b3cd8e4093f1", "fusion_lat": 0.0, "type": "electric_scooter", "lat": 38.893897333333335, "is_reserved": 0, "is_disabled": 0, "fusion_lon": 0.0, "bike_id": "af88e1e4a3d66995bd69b3cd8e4093f1", "lon": -77.05474, "rental_uris": {"ios": "https://dc.lft.to/lastmile_qr_scan", "android": "https://dc.lft.to/lastmile_qr_scan"}}, {"name": "eb668d4d51d286f638e82d9f51895edf", "fusion_lat": 0.0, "type": "electric_scooter", "lat": 38.9116735, "is_reserved": 0, "is_disabled": 0, "fusion_lon": 0.0, "bike_id": "eb668d4d51d286f638e82d9f51895edf", "lon": -77.0112995, "rental_uris": {"ios": "https://dc.lft.to/lastmile_qr_scan", "android": "https://dc.lft.to/lastmile_qr_scan"}}, {"name": "62242bbc2a48ee489b82d4b9e7889ad7", "fusion_lat": 0.0, "type": "electric_scooter", "lat": 38.931143666666664, "is_reserved": 0, "is_disabled": 0, "fusion_lon": 0.0, "bike_id": "62242bbc2a48ee489b82d4b9e7889ad7", "lon": -77.038404, "rental_uris": {"ios": "https://dc.lft.to/lastmile_qr_scan", "android": "https://dc.lft.to/lastmile_qr_scan"}}, {"name": "047e50d95ff06531b241445eeb810401", "fusion_lat": 0.0, "type": "electric_scooter", "lat": 38.887628, "is_reserved": 0, "is_disabled": 0, "fusion_lon": 0.0, "bike_id": "047e50d95ff06531b241445eeb810401", "lon": -76.95599, "rental_uris": {"ios": "https://dc.lft.to/lastmile_qr_scan", "android": "https://dc.lft.to/lastmile_qr_scan"}}, {"name": "2d69eb1295f8f58da2bcd77b088dc52f", "fusion_lat": 0.0, "type": "electric_scooter", "lat": 38.918186, "is_reserved": 0, "is_disabled": 0, "fusion_lon": 0.0, "bike_id": "2d69eb1295f8f58da2bcd77b088dc52f", "lon": -77.03211516666667, "rental_uris": {"ios": "https://dc.lft.to/lastmile_qr_scan", "android": "https://dc.lft.to/lastmile_qr_scan"}}, {"name": "e1f0b06167b6a14252a4066ea7d9613b", "fusion_lat": 0.0, "type": "electric_scooter", "lat": 38.878113166666665, "is_reserved": 0, "is_disabled": 0, "fusion_lon": 0.0, "bike_id": "e1f0b06167b6a14252a4066ea7d9613b", "lon": -77.017592, "rental_uris": {"ios": "https://dc.lft.to/lastmile_qr_scan", "android": "https://dc.lft.to/lastmile_qr_scan"}}, {"name": "27ca077e29e54b47c696c39b12aadcb6", "fusion_lat": 0.0, "type": "electric_scooter", "lat": 38.903637833333335, "is_reserved": 0, "is_disabled": 0, "fusion_lon": 0.0, "bike_id": "27ca077e29e54b47c696c39b12aadcb6", "lon": -77.003444, "rental_uris": {"ios": "https://dc.lft.to/lastmile_qr_scan", "android": "https://dc.lft.to/lastmile_qr_scan"}}, {"name": "63db6332d4c6a2fa1b92f00886fd74e0", "fusion_lat": 0.0, "type": "electric_scooter", "lat": 38.93267066666667, "is_reserved": 0, "is_disabled": 0, "fusion_lon": 0.0, "bike_id": "63db6332d4c6a2fa1b92f00886fd74e0", "lon": -77.03898383333333, "rental_uris": {"ios": "https://dc.lft.to/lastmile_qr_scan", "android": "https://dc.lft.to/lastmile_qr_scan"}}, {"name": "717dd7c6bb6f2f7bc13fe85938db1ab5", "fusion_lat": 0.0, "type": "electric_scooter", "lat": 38.904034833333334, "is_reserved": 0, "is_disabled": 0, "fusion_lon": 0.0, "bike_id": "717dd7c6bb6f2f7bc13fe85938db1ab5", "lon": -77.06434, "rental_uris": {"ios": "https://dc.lft.to/lastmile_qr_scan", "android": "https://dc.lft.to/lastmile_qr_scan"}}, {"name": "d6ef6af8db97d0ed61cdf06b70c7975e", "fusion_lat": 0.0, "type": "electric_scooter", "lat": 38.936156, "is_reserved": 0, "is_disabled": 0, "fusion_lon": 0.0, "bike_id": "d6ef6af8db97d0ed61cdf06b70c7975e", "lon": -77.03218016666666, "rental_uris": {"ios": "https://dc.lft.to/lastmile_qr_scan", "android": "https://dc.lft.to/lastmile_qr_scan"}}, {"name": "b483035332dd50e1c7e7177e22539864", "fusion_lat": 0.0, "type": "electric_scooter", "lat": 38.906989333333335, "is_reserved": 0, "is_disabled": 0, "fusion_lon": 0.0, "bike_id": "b483035332dd50e1c7e7177e22539864", "lon": -77.02390066666666, "rental_uris": {"ios": "https://dc.lft.to/lastmile_qr_scan", "android": "https://dc.lft.to/lastmile_qr_scan"}}, {"name": "c67cdaff103bd9fc635d1d99697823cb", "fusion_lat": 0.0, "type": "electric_scooter", "lat": 38.88368583333333, "is_reserved": 0, "is_disabled": 0, "fusion_lon": 0.0, "bike_id": "c67cdaff103bd9fc635d1d99697823cb", "lon": -77.0263215, "rental_uris": {"ios": "https://dc.lft.to/lastmile_qr_scan", "android": "https://dc.lft.to/lastmile_qr_scan"}}, {"name": "5be26b38b89cf30f332be4be93b451e2", "fusion_lat": 0.0, "type": "electric_bike", "lat": 38.95557933333333, "is_reserved": 0, "is_disabled": 0, "fusion_lon": 0.0, "bike_id": "5be26b38b89cf30f332be4be93b451e2", "lon": -77.07082666666666, "rental_uris": {"ios": "https://dc.lft.to/lastmile_qr_scan", "android": "https://dc.lft.to/lastmile_qr_scan"}}, {"name": "ca7f3b56f525043a3ad98cb1878c7682", "fusion_lat": 0.0, "type": "electric_scooter", "lat": 38.9205865, "is_reserved": 0, "is_disabled": 0, "fusion_lon": 0.0, "bike_id": "ca7f3b56f525043a3ad98cb1878c7682", "lon": -77.042574, "rental_uris": {"ios": "https://dc.lft.to/lastmile_qr_scan", "android": "https://dc.lft.to/lastmile_qr_scan"}}, {"name": "7594ba08c65c8b0f2bcc153103b31ed1", "fusion_lat": 0.0, "type": "electric_scooter", "lat": 38.90714833333333, "is_reserved": 0, "is_disabled": 0, "fusion_lon": 0.0, "bike_id": "7594ba08c65c8b0f2bcc153103b31ed1", "lon": -77.0344145, "rental_uris": {"ios": "https://dc.lft.to/lastmile_qr_scan", "android": "https://dc.lft.to/lastmile_qr_scan"}}, {"name": "0552141e609e5da2c50f8edcf922eb52", "fusion_lat": 0.0, "type": "electric_scooter", "lat": 38.942292, "is_reserved": 0, "is_disabled": 0, "fusion_lon": 0.0, "bike_id": "0552141e609e5da2c50f8edcf922eb52", "lon": -77.02152366666667, "rental_uris": {"ios": "https://dc.lft.to/lastmile_qr_scan", "android": "https://dc.lft.to/lastmile_qr_scan"}}, {"name": "e6bbcf15b4ec1e39a8ebd5bc31a5a3ff", "fusion_lat": 0.0, "type": "electric_scooter", "lat": 38.9274235, "is_reserved": 0, "is_disabled": 0, "fusion_lon": 0.0, "bike_id": "e6bbcf15b4ec1e39a8ebd5bc31a5a3ff", "lon": -77.0347675, "rental_uris": {"ios": "https://dc.lft.to/lastmile_qr_scan", "android": "https://dc.lft.to/lastmile_qr_scan"}}, {"name": "b0dd2f0e3ad3777f894264a7dc6e0400", "fusion_lat": 0.0, "type": "electric_scooter", "lat": 38.866601833333334, "is_reserved": 0, "is_disabled": 0, "fusion_lon": 0.0, "bike_id": "b0dd2f0e3ad3777f894264a7dc6e0400", "lon": -76.98884116666666, "rental_uris": {"ios": "https://dc.lft.to/lastmile_qr_scan", "android": "https://dc.lft.to/lastmile_qr_scan"}}, {"name": "5213e0814bd353dcd8996efae738cc41", "fusion_lat": 0.0, "type": "electric_scooter", "lat": 38.92054433333333, "is_reserved": 0, "is_disabled": 0, "fusion_lon": 0.0, "bike_id": "5213e0814bd353dcd8996efae738cc41", "lon": -76.99885583333334, "rental_uris": {"ios": "https://dc.lft.to/lastmile_qr_scan", "android": "https://dc.lft.to/lastmile_qr_scan"}}, {"name": "4115a57b8be363d132c801f734a369a4", "fusion_lat": 0.0, "type": "electric_bike", "lat": 38.942767333333336, "is_reserved": 0, "is_disabled": 0, "fusion_lon": 0.0, "bike_id": "4115a57b8be363d132c801f734a369a4", "lon": -76.98073483333333, "rental_uris": {"ios": "https://dc.lft.to/lastmile_qr_scan", "android": "https://dc.lft.to/lastmile_qr_scan"}}, {"name": "a1f8364ee4782090b6505666dacbd2f5", "fusion_lat": 0.0, "type": "electric_scooter", "lat": 38.90579, "is_reserved": 0, "is_disabled": 0, "fusion_lon": 0.0, "bike_id": "a1f8364ee4782090b6505666dacbd2f5", "lon": -77.0220865, "rental_uris": {"ios": "https://dc.lft.to/lastmile_qr_scan", "android": "https://dc.lft.to/lastmile_qr_scan"}}, {"name": "d7f566f339e4a5c27ca18856c2984ade", "fusion_lat": 0.0, "type": "electric_scooter", "lat": 38.90207733333333, "is_reserved": 0, "is_disabled": 0, "fusion_lon": 0.0, "bike_id": "d7f566f339e4a5c27ca18856c2984ade", "lon": -77.01519783333333, "rental_uris": {"ios": "https://dc.lft.to/lastmile_qr_scan", "android": "https://dc.lft.to/lastmile_qr_scan"}}, {"name": "5c4220aa3206e1b6e5d86934bbe37ecc", "fusion_lat": 0.0, "type": "electric_scooter", "lat": 38.8860695, "is_reserved": 0, "is_disabled": 0, "fusion_lon": 0.0, "bike_id": "5c4220aa3206e1b6e5d86934bbe37ecc", "lon": -77.01941316666667, "rental_uris": {"ios": "https://dc.lft.to/lastmile_qr_scan", "android": "https://dc.lft.to/lastmile_qr_scan"}}, {"name": "37eec1e0b9c40284ab927be986dbad22", "fusion_lat": 0.0, "type": "electric_scooter", "lat": 38.9217945, "is_reserved": 0, "is_disabled": 0, "fusion_lon": 0.0, "bike_id": "37eec1e0b9c40284ab927be986dbad22", "lon": -77.02665883333333, "rental_uris": {"ios": "https://dc.lft.to/lastmile_qr_scan", "android": "https://dc.lft.to/lastmile_qr_scan"}}, {"name": "c7f34ec29156378c8bbf2c998481d5ee", "fusion_lat": 0.0, "type": "electric_scooter", "lat": 38.898878833333335, "is_reserved": 0, "is_disabled": 0, "fusion_lon": 0.0, "bike_id": "c7f34ec29156378c8bbf2c998481d5ee", "lon": -76.931723, "rental_uris": {"ios": "https://dc.lft.to/lastmile_qr_scan", "android": "https://dc.lft.to/lastmile_qr_scan"}}, {"name": "a8e6f03428f280053decf27b1a43444e", "fusion_lat": 0.0, "type": "electric_scooter", "lat": 38.91775783333333, "is_reserved": 0, "is_disabled": 0, "fusion_lon": 0.0, "bike_id": "a8e6f03428f280053decf27b1a43444e", "lon": -77.0234735, "rental_uris": {"ios": "https://dc.lft.to/lastmile_qr_scan", "android": "https://dc.lft.to/lastmile_qr_scan"}}, {"name": "f6d7125e9570935417bbf2c4537dfc67", "fusion_lat": 0.0, "type": "electric_scooter", "lat": 38.931446, "is_reserved": 0, "is_disabled": 0, "fusion_lon": 0.0, "bike_id": "f6d7125e9570935417bbf2c4537dfc67", "lon": -77.03874116666667, "rental_uris": {"ios": "https://dc.lft.to/lastmile_qr_scan", "android": "https://dc.lft.to/lastmile_qr_scan"}}, {"name": "460d936132b74b94720b3a5ab9acac63", "fusion_lat": 0.0, "type": "electric_bike", "lat": 38.874748, "is_reserved": 0, "is_disabled": 0, "fusion_lon": 0.0, "bike_id": "460d936132b74b94720b3a5ab9acac63", "lon": -76.96527933333333, "rental_uris": {"ios": "https://dc.lft.to/lastmile_qr_scan", "android": "https://dc.lft.to/lastmile_qr_scan"}}, {"name": "b14d75cbd550b447b6c9aa2e91935995", "fusion_lat": 0.0, "type": "electric_scooter", "lat": 38.892184666666665, "is_reserved": 0, "is_disabled": 0, "fusion_lon": 0.0, "bike_id": "b14d75cbd550b447b6c9aa2e91935995", "lon": -77.02224333333334, "rental_uris": {"ios": "https://dc.lft.to/lastmile_qr_scan", "android": "https://dc.lft.to/lastmile_qr_scan"}}, {"name": "b0b952e86dd854d5e46b01cbbec933bc", "fusion_lat": 0.0, "type": "electric_scooter", "lat": 38.875784333333335, "is_reserved": 0, "is_disabled": 0, "fusion_lon": 0.0, "bike_id": "b0b952e86dd854d5e46b01cbbec933bc", "lon": -77.0106075, "rental_uris": {"ios": "https://dc.lft.to/lastmile_qr_scan", "android": "https://dc.lft.to/lastmile_qr_scan"}}, {"name": "3fba96a206c7a54454938de2719f03f1", "fusion_lat": 0.0, "type": "electric_scooter", "lat": 38.90700016666667, "is_reserved": 0, "is_disabled": 0, "fusion_lon": 0.0, "bike_id": "3fba96a206c7a54454938de2719f03f1", "lon": -77.02380183333334, "rental_uris": {"ios": "https://dc.lft.to/lastmile_qr_scan", "android": "https://dc.lft.to/lastmile_qr_scan"}}, {"name": "6e94bf2a51e25ac37f4d8ec9191089d2", "fusion_lat": 0.0, "type": "electric_bike", "lat": 38.807562833333336, "is_reserved": 0, "is_disabled": 0, "fusion_lon": 0.0, "bike_id": "6e94bf2a51e25ac37f4d8ec9191089d2", "lon": -77.09452866666666, "rental_uris": {"ios": "https://dc.lft.to/lastmile_qr_scan", "android": "https://dc.lft.to/lastmile_qr_scan"}}, {"name": "0d120907aab4a9e96a74d5294d013f1f", "fusion_lat": 0.0, "type": "electric_scooter", "lat": 38.918093999999996, "is_reserved": 0, "is_disabled": 0, "fusion_lon": 0.0, "bike_id": "0d120907aab4a9e96a74d5294d013f1f", "lon": -77.02812233333333, "rental_uris": {"ios": "https://dc.lft.to/lastmile_qr_scan", "android": "https://dc.lft.to/lastmile_qr_scan"}}, {"name": "d58915b91894ec01d126376882827f52", "fusion_lat": 0.0, "type": "electric_scooter", "lat": 38.93632916666667, "is_reserved": 0, "is_disabled": 0, "fusion_lon": 0.0, "bike_id": "d58915b91894ec01d126376882827f52", "lon": -77.03656433333333, "rental_uris": {"ios": "https://dc.lft.to/lastmile_qr_scan", "android": "https://dc.lft.to/lastmile_qr_scan"}}, {"name": "7b6b5c2a6240b8774d60d78c9c5844e7", "fusion_lat": 0.0, "type": "electric_scooter", "lat": 38.900406333333336, "is_reserved": 0, "is_disabled": 0, "fusion_lon": 0.0, "bike_id": "7b6b5c2a6240b8774d60d78c9c5844e7", "lon": -77.03275833333333, "rental_uris": {"ios": "https://dc.lft.to/lastmile_qr_scan", "android": "https://dc.lft.to/lastmile_qr_scan"}}, {"name": "f50d41b5a103e42bbd8370306fb734cb", "fusion_lat": 0.0, "type": "electric_scooter", "lat": 38.92011183333334, "is_reserved": 0, "is_disabled": 0, "fusion_lon": 0.0, "bike_id": "f50d41b5a103e42bbd8370306fb734cb", "lon": -77.014114, "rental_uris": {"ios": "https://dc.lft.to/lastmile_qr_scan", "android": "https://dc.lft.to/lastmile_qr_scan"}}, {"name": "77cbd0e9ac3abdd7047ffbcdd3f5508f", "fusion_lat": 0.0, "type": "electric_scooter", "lat": 38.93475166666666, "is_reserved": 0, "is_disabled": 0, "fusion_lon": 0.0, "bike_id": "77cbd0e9ac3abdd7047ffbcdd3f5508f", "lon": -77.03260666666667, "rental_uris": {"ios": "https://dc.lft.to/lastmile_qr_scan", "android": "https://dc.lft.to/lastmile_qr_scan"}}, {"name": "c6d0d7967784b3a0a93101832a870b64", "fusion_lat": 0.0, "type": "electric_scooter", "lat": 38.9004675, "is_reserved": 0, "is_disabled": 0, "fusion_lon": 0.0, "bike_id": "c6d0d7967784b3a0a93101832a870b64", "lon": -77.02976016666666, "rental_uris": {"ios": "https://dc.lft.to/lastmile_qr_scan", "android": "https://dc.lft.to/lastmile_qr_scan"}}, {"name": "456f437728056cdb33ba19d6d0033148", "fusion_lat": 0.0, "type": "electric_scooter", "lat": 38.883636, "is_reserved": 0, "is_disabled": 0, "fusion_lon": 0.0, "bike_id": "456f437728056cdb33ba19d6d0033148", "lon": -77.0316655, "rental_uris": {"ios": "https://dc.lft.to/lastmile_qr_scan", "android": "https://dc.lft.to/lastmile_qr_scan"}}, {"name": "0f83b90847262239f48189db824f0b6f", "fusion_lat": 0.0, "type": "electric_scooter", "lat": 38.912557, "is_reserved": 0, "is_disabled": 0, "fusion_lon": 0.0, "bike_id": "0f83b90847262239f48189db824f0b6f", "lon": -77.00958366666667, "rental_uris": {"ios": "https://dc.lft.to/lastmile_qr_scan", "android": "https://dc.lft.to/lastmile_qr_scan"}}, {"name": "b9f84e752207ea58e4882df6d3b1c03e", "fusion_lat": 0.0, "type": "electric_scooter", "lat": 38.91676916666667, "is_reserved": 0, "is_disabled": 0, "fusion_lon": 0.0, "bike_id": "b9f84e752207ea58e4882df6d3b1c03e", "lon": -77.02944316666667, "rental_uris": {"ios": "https://dc.lft.to/lastmile_qr_scan", "android": "https://dc.lft.to/lastmile_qr_scan"}}, {"name": "c9ec51f2d292782ee7a8ac1bbd597405", "fusion_lat": 0.0, "type": "electric_bike", "lat": 38.96624083333333, "is_reserved": 0, "is_disabled": 0, "fusion_lon": 0.0, "bike_id": "c9ec51f2d292782ee7a8ac1bbd597405", "lon": -76.97665616666667, "rental_uris": {"ios": "https://dc.lft.to/lastmile_qr_scan", "android": "https://dc.lft.to/lastmile_qr_scan"}}, {"name": "e0eb8da4dccc52071ff3a8a93ba80fc2", "fusion_lat": 0.0, "type": "electric_scooter", "lat": 38.91977416666667, "is_reserved": 0, "is_disabled": 0, "fusion_lon": 0.0, "bike_id": "e0eb8da4dccc52071ff3a8a93ba80fc2", "lon": -77.03967366666667, "rental_uris": {"ios": "https://dc.lft.to/lastmile_qr_scan", "android": "https://dc.lft.to/lastmile_qr_scan"}}, {"name": "2548d0b3d15ac066400575efeba67895", "fusion_lat": 0.0, "type": "electric_scooter", "lat": 38.91698933333333, "is_reserved": 0, "is_disabled": 0, "fusion_lon": 0.0, "bike_id": "2548d0b3d15ac066400575efeba67895", "lon": -77.039325, "rental_uris": {"ios": "https://dc.lft.to/lastmile_qr_scan", "android": "https://dc.lft.to/lastmile_qr_scan"}}, {"name": "b726a2e8c983d1f251d9d0aa10ca949f", "fusion_lat": 0.0, "type": "electric_scooter", "lat": 38.914086833333336, "is_reserved": 0, "is_disabled": 0, "fusion_lon": 0.0, "bike_id": "b726a2e8c983d1f251d9d0aa10ca949f", "lon": -77.0095985, "rental_uris": {"ios": "https://dc.lft.to/lastmile_qr_scan", "android": "https://dc.lft.to/lastmile_qr_scan"}}, {"name": "a06efa28c106c2e41ebabffd795ae1b4", "fusion_lat": 0.0, "type": "electric_scooter", "lat": 38.918800166666664, "is_reserved": 0, "is_disabled": 0, "fusion_lon": 0.0, "bike_id": "a06efa28c106c2e41ebabffd795ae1b4", "lon": -77.0350525, "rental_uris": {"ios": "https://dc.lft.to/lastmile_qr_scan", "android": "https://dc.lft.to/lastmile_qr_scan"}}, {"name": "59f005ec5320a70eb7a96e161a5bfad6", "fusion_lat": 0.0, "type": "electric_bike", "lat": 38.86870033333334, "is_reserved": 0, "is_disabled": 0, "fusion_lon": 0.0, "bike_id": "59f005ec5320a70eb7a96e161a5bfad6", "lon": -76.91662766666667, "rental_uris": {"ios": "https://dc.lft.to/lastmile_qr_scan", "android": "https://dc.lft.to/lastmile_qr_scan"}}, {"name": "095f80e5589797f4c55615dcb4b3099c", "fusion_lat": 0.0, "type": "electric_scooter", "lat": 38.90392766666667, "is_reserved": 0, "is_disabled": 0, "fusion_lon": 0.0, "bike_id": "095f80e5589797f4c55615dcb4b3099c", "lon": -76.99001433333333, "rental_uris": {"ios": "https://dc.lft.to/lastmile_qr_scan", "android": "https://dc.lft.to/lastmile_qr_scan"}}, {"name": "43b0d0ce82615990a67a4926e3e4eb37", "fusion_lat": 0.0, "type": "electric_scooter", "lat": 38.92180916666667, "is_reserved": 0, "is_disabled": 0, "fusion_lon": 0.0, "bike_id": "43b0d0ce82615990a67a4926e3e4eb37", "lon": -77.02412883333334, "rental_uris": {"ios": "https://dc.lft.to/lastmile_qr_scan", "android": "https://dc.lft.to/lastmile_qr_scan"}}, {"name": "c50ddc30003ddecd924c534c47046d3a", "fusion_lat": 0.0, "type": "electric_scooter", "lat": 38.874734333333336, "is_reserved": 0, "is_disabled": 0, "fusion_lon": 0.0, "bike_id": "c50ddc30003ddecd924c534c47046d3a", "lon": -77.01059316666667, "rental_uris": {"ios": "https://dc.lft.to/lastmile_qr_scan", "android": "https://dc.lft.to/lastmile_qr_scan"}}, {"name": "626f612e12fe17c565ed81ed58a45d8c", "fusion_lat": 0.0, "type": "electric_scooter", "lat": 38.92352916666667, "is_reserved": 0, "is_disabled": 0, "fusion_lon": 0.0, "bike_id": "626f612e12fe17c565ed81ed58a45d8c", "lon": -77.05048683333334, "rental_uris": {"ios": "https://dc.lft.to/lastmile_qr_scan", "android": "https://dc.lft.to/lastmile_qr_scan"}}, {"name": "137833743df6d49d41a0d9a083407aa9", "fusion_lat": 0.0, "type": "electric_scooter", "lat": 38.91539733333333, "is_reserved": 0, "is_disabled": 0, "fusion_lon": 0.0, "bike_id": "137833743df6d49d41a0d9a083407aa9", "lon": -77.0384545, "rental_uris": {"ios": "https://dc.lft.to/lastmile_qr_scan", "android": "https://dc.lft.to/lastmile_qr_scan"}}, {"name": "9e10446de07f6e7345704281ea6824c5", "fusion_lat": 0.0, "type": "electric_scooter", "lat": 38.895936666666664, "is_reserved": 0, "is_disabled": 0, "fusion_lon": 0.0, "bike_id": "9e10446de07f6e7345704281ea6824c5", "lon": -76.9485735, "rental_uris": {"ios": "https://dc.lft.to/lastmile_qr_scan", "android": "https://dc.lft.to/lastmile_qr_scan"}}, {"name": "1a4fed52c63796b71e132cd2be339607", "fusion_lat": 0.0, "type": "electric_bike", "lat": 38.89650433333333, "is_reserved": 0, "is_disabled": 0, "fusion_lon": 0.0, "bike_id": "1a4fed52c63796b71e132cd2be339607", "lon": -77.1045175, "rental_uris": {"ios": "https://dc.lft.to/lastmile_qr_scan", "android": "https://dc.lft.to/lastmile_qr_scan"}}, {"name": "77143f4a32bf30248138307d7da1a63a", "fusion_lat": 0.0, "type": "electric_scooter", "lat": 38.86826816666667, "is_reserved": 0, "is_disabled": 0, "fusion_lon": 0.0, "bike_id": "77143f4a32bf30248138307d7da1a63a", "lon": -76.98612483333334, "rental_uris": {"ios": "https://dc.lft.to/lastmile_qr_scan", "android": "https://dc.lft.to/lastmile_qr_scan"}}, {"name": "5ae85330476141942e2933f31124198a", "fusion_lat": 0.0, "type": "electric_scooter", "lat": 38.914155666666666, "is_reserved": 0, "is_disabled": 0, "fusion_lon": 0.0, "bike_id": "5ae85330476141942e2933f31124198a", "lon": -77.0310305, "rental_uris": {"ios": "https://dc.lft.to/lastmile_qr_scan", "android": "https://dc.lft.to/lastmile_qr_scan"}}, {"name": "b014faff89d91eaeff37a4864dac9498", "fusion_lat": 0.0, "type": "electric_scooter", "lat": 38.91190683333333, "is_reserved": 0, "is_disabled": 0, "fusion_lon": 0.0, "bike_id": "b014faff89d91eaeff37a4864dac9498", "lon": -77.0450355, "rental_uris": {"ios": "https://dc.lft.to/lastmile_qr_scan", "android": "https://dc.lft.to/lastmile_qr_scan"}}, {"name": "2b9abab017bf2e6a317ce445381ca1c9", "fusion_lat": 0.0, "type": "electric_scooter", "lat": 38.91580533333333, "is_reserved": 0, "is_disabled": 0, "fusion_lon": 0.0, "bike_id": "2b9abab017bf2e6a317ce445381ca1c9", "lon": -77.04250433333333, "rental_uris": {"ios": "https://dc.lft.to/lastmile_qr_scan", "android": "https://dc.lft.to/lastmile_qr_scan"}}, {"name": "4c92c77929719cfed9377d1d369a897d", "fusion_lat": 0.0, "type": "electric_scooter", "lat": 38.938696166666666, "is_reserved": 0, "is_disabled": 0, "fusion_lon": 0.0, "bike_id": "4c92c77929719cfed9377d1d369a897d", "lon": -77.02218416666666, "rental_uris": {"ios": "https://dc.lft.to/lastmile_qr_scan", "android": "https://dc.lft.to/lastmile_qr_scan"}}, {"name": "e59f696d9e4b1ba212e5dc8c6e27b9fe", "fusion_lat": 0.0, "type": "electric_scooter", "lat": 38.87631666666667, "is_reserved": 0, "is_disabled": 0, "fusion_lon": 0.0, "bike_id": "e59f696d9e4b1ba212e5dc8c6e27b9fe", "lon": -77.01475866666667, "rental_uris": {"ios": "https://dc.lft.to/lastmile_qr_scan", "android": "https://dc.lft.to/lastmile_qr_scan"}}, {"name": "a90a0e9ad20f80a6e49f8b9104301c9d", "fusion_lat": 0.0, "type": "electric_scooter", "lat": 38.914034666666666, "is_reserved": 0, "is_disabled": 0, "fusion_lon": 0.0, "bike_id": "a90a0e9ad20f80a6e49f8b9104301c9d", "lon": -77.03949516666667, "rental_uris": {"ios": "https://dc.lft.to/lastmile_qr_scan", "android": "https://dc.lft.to/lastmile_qr_scan"}}, {"name": "44b81f7f31b770384b72f95773b9d2a7", "fusion_lat": 0.0, "type": "electric_scooter", "lat": 38.9206615, "is_reserved": 0, "is_disabled": 0, "fusion_lon": 0.0, "bike_id": "44b81f7f31b770384b72f95773b9d2a7", "lon": -77.03466616666667, "rental_uris": {"ios": "https://dc.lft.to/lastmile_qr_scan", "android": "https://dc.lft.to/lastmile_qr_scan"}}, {"name": "2046c7eaf9e8f5edebd64e3a793e4f8f", "fusion_lat": 0.0, "type": "electric_scooter", "lat": 38.93633666666667, "is_reserved": 0, "is_disabled": 0, "fusion_lon": 0.0, "bike_id": "2046c7eaf9e8f5edebd64e3a793e4f8f", "lon": -77.03658516666667, "rental_uris": {"ios": "https://dc.lft.to/lastmile_qr_scan", "android": "https://dc.lft.to/lastmile_qr_scan"}}, {"name": "6cc470e8902c5763e8856afaf88521ad", "fusion_lat": 0.0, "type": "electric_scooter", "lat": 38.905665666666664, "is_reserved": 0, "is_disabled": 0, "fusion_lon": 0.0, "bike_id": "6cc470e8902c5763e8856afaf88521ad", "lon": -77.0372015, "rental_uris": {"ios": "https://dc.lft.to/lastmile_qr_scan", "android": "https://dc.lft.to/lastmile_qr_scan"}}, {"name": "6e8d95fecbb8e604312dd16c46b25d1a", "fusion_lat": 0.0, "type": "electric_scooter", "lat": 38.900316333333336, "is_reserved": 0, "is_disabled": 0, "fusion_lon": 0.0, "bike_id": "6e8d95fecbb8e604312dd16c46b25d1a", "lon": -76.99859816666667, "rental_uris": {"ios": "https://dc.lft.to/lastmile_qr_scan", "android": "https://dc.lft.to/lastmile_qr_scan"}}, {"name": "042a2367dd3d740dfbb40923d1ea2f3c", "fusion_lat": 0.0, "type": "electric_scooter", "lat": 38.90721166666667, "is_reserved": 0, "is_disabled": 0, "fusion_lon": 0.0, "bike_id": "042a2367dd3d740dfbb40923d1ea2f3c", "lon": -77.0077055, "rental_uris": {"ios": "https://dc.lft.to/lastmile_qr_scan", "android": "https://dc.lft.to/lastmile_qr_scan"}}, {"name": "b25e764773eb0763fa675013b5a9f775", "fusion_lat": 0.0, "type": "electric_scooter", "lat": 38.906783833333336, "is_reserved": 0, "is_disabled": 0, "fusion_lon": 0.0, "bike_id": "b25e764773eb0763fa675013b5a9f775", "lon": -77.03639266666667, "rental_uris": {"ios": "https://dc.lft.to/lastmile_qr_scan", "android": "https://dc.lft.to/lastmile_qr_scan"}}, {"name": "299c91cb1585eb3fc48aa6d8cc9cf89a", "fusion_lat": 0.0, "type": "electric_scooter", "lat": 38.92251016666667, "is_reserved": 0, "is_disabled": 0, "fusion_lon": 0.0, "bike_id": "299c91cb1585eb3fc48aa6d8cc9cf89a", "lon": -77.07237616666667, "rental_uris": {"ios": "https://dc.lft.to/lastmile_qr_scan", "android": "https://dc.lft.to/lastmile_qr_scan"}}, {"name": "836b156224b1b3004dc2af5d3755f200", "fusion_lat": 0.0, "type": "electric_scooter", "lat": 38.901182666666664, "is_reserved": 0, "is_disabled": 0, "fusion_lon": 0.0, "bike_id": "836b156224b1b3004dc2af5d3755f200", "lon": -77.05138416666667, "rental_uris": {"ios": "https://dc.lft.to/lastmile_qr_scan", "android": "https://dc.lft.to/lastmile_qr_scan"}}, {"name": "76f5d6320cc48b01dc3eec6e6c1340ee", "fusion_lat": 0.0, "type": "electric_scooter", "lat": 38.83836816666667, "is_reserved": 0, "is_disabled": 0, "fusion_lon": 0.0, "bike_id": "76f5d6320cc48b01dc3eec6e6c1340ee", "lon": -76.99977883333334, "rental_uris": {"ios": "https://dc.lft.to/lastmile_qr_scan", "android": "https://dc.lft.to/lastmile_qr_scan"}}, {"name": "ccc73573fcd8d4e394809821bc7908fc", "fusion_lat": 0.0, "type": "electric_scooter", "lat": 38.90567166666666, "is_reserved": 0, "is_disabled": 0, "fusion_lon": 0.0, "bike_id": "ccc73573fcd8d4e394809821bc7908fc", "lon": -77.02492516666666, "rental_uris": {"ios": "https://dc.lft.to/lastmile_qr_scan", "android": "https://dc.lft.to/lastmile_qr_scan"}}, {"name": "b1ff12f22e947fe663bf039420d0120d", "fusion_lat": 0.0, "type": "electric_bike", "lat": 39.0000365, "is_reserved": 0, "is_disabled": 0, "fusion_lon": 0.0, "bike_id": "b1ff12f22e947fe663bf039420d0120d", "lon": -76.99498516666667, "rental_uris": {"ios": "https://dc.lft.to/lastmile_qr_scan", "android": "https://dc.lft.to/lastmile_qr_scan"}}, {"name": "bd27b01fbc74a9a35cbb518bb5a70ba5", "fusion_lat": 0.0, "type": "electric_scooter", "lat": 38.95485816666667, "is_reserved": 0, "is_disabled": 0, "fusion_lon": 0.0, "bike_id": "bd27b01fbc74a9a35cbb518bb5a70ba5", "lon": -77.0698315, "rental_uris": {"ios": "https://dc.lft.to/lastmile_qr_scan", "android": "https://dc.lft.to/lastmile_qr_scan"}}, {"name": "006daa39d2f715fb32e4a8e60a0d9d3c", "fusion_lat": 0.0, "type": "electric_scooter", "lat": 38.90240716666667, "is_reserved": 0, "is_disabled": 0, "fusion_lon": 0.0, "bike_id": "006daa39d2f715fb32e4a8e60a0d9d3c", "lon": -77.00205216666667, "rental_uris": {"ios": "https://dc.lft.to/lastmile_qr_scan", "android": "https://dc.lft.to/lastmile_qr_scan"}}, {"name": "9f84d5eeb1c3437f6e0b97680a6984ff", "fusion_lat": 0.0, "type": "electric_scooter", "lat": 38.878641, "is_reserved": 0, "is_disabled": 0, "fusion_lon": 0.0, "bike_id": "9f84d5eeb1c3437f6e0b97680a6984ff", "lon": -76.96522766666666, "rental_uris": {"ios": "https://dc.lft.to/lastmile_qr_scan", "android": "https://dc.lft.to/lastmile_qr_scan"}}, {"name": "8340cc8db17a77891583e391af943fc4", "fusion_lat": 0.0, "type": "electric_scooter", "lat": 38.9002355, "is_reserved": 0, "is_disabled": 0, "fusion_lon": 0.0, "bike_id": "8340cc8db17a77891583e391af943fc4", "lon": -76.99644816666667, "rental_uris": {"ios": "https://dc.lft.to/lastmile_qr_scan", "android": "https://dc.lft.to/lastmile_qr_scan"}}, {"name": "a38bc7c81642ba724100c3400299c609", "fusion_lat": 0.0, "type": "electric_scooter", "lat": 38.9001565, "is_reserved": 0, "is_disabled": 0, "fusion_lon": 0.0, "bike_id": "a38bc7c81642ba724100c3400299c609", "lon": -77.04668716666667, "rental_uris": {"ios": "https://dc.lft.to/lastmile_qr_scan", "android": "https://dc.lft.to/lastmile_qr_scan"}}, {"name": "fb063e4a050802b96cbd126ddb1c4e97", "fusion_lat": 0.0, "type": "electric_scooter", "lat": 38.9180635, "is_reserved": 0, "is_disabled": 0, "fusion_lon": 0.0, "bike_id": "fb063e4a050802b96cbd126ddb1c4e97", "lon": -77.02494216666666, "rental_uris": {"ios": "https://dc.lft.to/lastmile_qr_scan", "android": "https://dc.lft.to/lastmile_qr_scan"}}, {"name": "2e76e450508504208a3f92c8735f02bc", "fusion_lat": 0.0, "type": "electric_scooter", "lat": 38.8979865, "is_reserved": 0, "is_disabled": 0, "fusion_lon": 0.0, "bike_id": "2e76e450508504208a3f92c8735f02bc", "lon": -76.99164616666667, "rental_uris": {"ios": "https://dc.lft.to/lastmile_qr_scan", "android": "https://dc.lft.to/lastmile_qr_scan"}}, {"name": "4f46106b41194275cb50409e8c20d2bf", "fusion_lat": 0.0, "type": "electric_scooter", "lat": 38.91124333333333, "is_reserved": 0, "is_disabled": 0, "fusion_lon": 0.0, "bike_id": "4f46106b41194275cb50409e8c20d2bf", "lon": -77.02195816666666, "rental_uris": {"ios": "https://dc.lft.to/lastmile_qr_scan", "android": "https://dc.lft.to/lastmile_qr_scan"}}, {"name": "10f309a6645c637497701ed9a4e63fb7", "fusion_lat": 0.0, "type": "electric_scooter", "lat": 38.923762833333335, "is_reserved": 0, "is_disabled": 0, "fusion_lon": 0.0, "bike_id": "10f309a6645c637497701ed9a4e63fb7", "lon": -77.0409885, "rental_uris": {"ios": "https://dc.lft.to/lastmile_qr_scan", "android": "https://dc.lft.to/lastmile_qr_scan"}}, {"name": "9319d41e7f12469ed285ab92014dd09c", "fusion_lat": 0.0, "type": "electric_scooter", "lat": 38.86262033333333, "is_reserved": 0, "is_disabled": 0, "fusion_lon": 0.0, "bike_id": "9319d41e7f12469ed285ab92014dd09c", "lon": -76.98714033333333, "rental_uris": {"ios": "https://dc.lft.to/lastmile_qr_scan", "android": "https://dc.lft.to/lastmile_qr_scan"}}, {"name": "12bde3aab8d0c2a20afd95001f06e6fc", "fusion_lat": 0.0, "type": "electric_scooter", "lat": 38.918323, "is_reserved": 0, "is_disabled": 0, "fusion_lon": 0.0, "bike_id": "12bde3aab8d0c2a20afd95001f06e6fc", "lon": -77.02284816666666, "rental_uris": {"ios": "https://dc.lft.to/lastmile_qr_scan", "android": "https://dc.lft.to/lastmile_qr_scan"}}, {"name": "74f6a48ffcd9b03705354803525bcb70", "fusion_lat": 0.0, "type": "electric_scooter", "lat": 38.889944, "is_reserved": 0, "is_disabled": 0, "fusion_lon": 0.0, "bike_id": "74f6a48ffcd9b03705354803525bcb70", "lon": -76.954114, "rental_uris": {"ios": "https://dc.lft.to/lastmile_qr_scan", "android": "https://dc.lft.to/lastmile_qr_scan"}}, {"name": "aa02a8f62405667bdaf1a11fa2d3c1cd", "fusion_lat": 0.0, "type": "electric_scooter", "lat": 38.935253, "is_reserved": 0, "is_disabled": 0, "fusion_lon": 0.0, "bike_id": "aa02a8f62405667bdaf1a11fa2d3c1cd", "lon": -77.032635, "rental_uris": {"ios": "https://dc.lft.to/lastmile_qr_scan", "android": "https://dc.lft.to/lastmile_qr_scan"}}, {"name": "cf0c22cf7be29bea531fa2dbdec996fd", "fusion_lat": 0.0, "type": "electric_scooter", "lat": 38.909737666666665, "is_reserved": 0, "is_disabled": 0, "fusion_lon": 0.0, "bike_id": "cf0c22cf7be29bea531fa2dbdec996fd", "lon": -77.046746, "rental_uris": {"ios": "https://dc.lft.to/lastmile_qr_scan", "android": "https://dc.lft.to/lastmile_qr_scan"}}, {"name": "8e76cefed9b2de01446f948a48d520f3", "fusion_lat": 0.0, "type": "electric_scooter", "lat": 38.92010466666667, "is_reserved": 0, "is_disabled": 0, "fusion_lon": 0.0, "bike_id": "8e76cefed9b2de01446f948a48d520f3", "lon": -77.03183316666667, "rental_uris": {"ios": "https://dc.lft.to/lastmile_qr_scan", "android": "https://dc.lft.to/lastmile_qr_scan"}}, {"name": "8afa0cff68fc719cd7367308be86a4d4", "fusion_lat": 0.0, "type": "electric_scooter", "lat": 38.882183833333336, "is_reserved": 0, "is_disabled": 0, "fusion_lon": 0.0, "bike_id": "8afa0cff68fc719cd7367308be86a4d4", "lon": -76.94175583333333, "rental_uris": {"ios": "https://dc.lft.to/lastmile_qr_scan", "android": "https://dc.lft.to/lastmile_qr_scan"}}, {"name": "c97f9bcc7c30eba177639e22744d2a02", "fusion_lat": 0.0, "type": "electric_scooter", "lat": 38.92136, "is_reserved": 0, "is_disabled": 0, "fusion_lon": 0.0, "bike_id": "c97f9bcc7c30eba177639e22744d2a02", "lon": -77.04569833333333, "rental_uris": {"ios": "https://dc.lft.to/lastmile_qr_scan", "android": "https://dc.lft.to/lastmile_qr_scan"}}, {"name": "0738f42012a52baf6668cea690b08dae", "fusion_lat": 0.0, "type": "electric_scooter", "lat": 38.8735645, "is_reserved": 0, "is_disabled": 0, "fusion_lon": 0.0, "bike_id": "0738f42012a52baf6668cea690b08dae", "lon": -77.00093466666667, "rental_uris": {"ios": "https://dc.lft.to/lastmile_qr_scan", "android": "https://dc.lft.to/lastmile_qr_scan"}}, {"name": "63c4077801fcbad9b09c97163d279087", "fusion_lat": 0.0, "type": "electric_scooter", "lat": 38.920972, "is_reserved": 0, "is_disabled": 0, "fusion_lon": 0.0, "bike_id": "63c4077801fcbad9b09c97163d279087", "lon": -77.05468933333333, "rental_uris": {"ios": "https://dc.lft.to/lastmile_qr_scan", "android": "https://dc.lft.to/lastmile_qr_scan"}}, {"name": "b725795c6fed8ccb6d0720295726cd42", "fusion_lat": 0.0, "type": "electric_scooter", "lat": 38.90045116666667, "is_reserved": 0, "is_disabled": 0, "fusion_lon": 0.0, "bike_id": "b725795c6fed8ccb6d0720295726cd42", "lon": -76.99135966666667, "rental_uris": {"ios": "https://dc.lft.to/lastmile_qr_scan", "android": "https://dc.lft.to/lastmile_qr_scan"}}, {"name": "d3886692b04072d3a4d42611ffd5882b", "fusion_lat": 0.0, "type": "electric_bike", "lat": 38.970946166666664, "is_reserved": 0, "is_disabled": 0, "fusion_lon": 0.0, "bike_id": "d3886692b04072d3a4d42611ffd5882b", "lon": -77.06963783333333, "rental_uris": {"ios": "https://dc.lft.to/lastmile_qr_scan", "android": "https://dc.lft.to/lastmile_qr_scan"}}, {"name": "ba27c9837d8cb9e6769c74730e513fb7", "fusion_lat": 0.0, "type": "electric_scooter", "lat": 38.89243916666667, "is_reserved": 0, "is_disabled": 0, "fusion_lon": 0.0, "bike_id": "ba27c9837d8cb9e6769c74730e513fb7", "lon": -77.01518916666667, "rental_uris": {"ios": "https://dc.lft.to/lastmile_qr_scan", "android": "https://dc.lft.to/lastmile_qr_scan"}}, {"name": "68907ecbcb1bbef40f9a4f0fdabc685e", "fusion_lat": 0.0, "type": "electric_scooter", "lat": 38.905567, "is_reserved": 0, "is_disabled": 0, "fusion_lon": 0.0, "bike_id": "68907ecbcb1bbef40f9a4f0fdabc685e", "lon": -76.98377933333333, "rental_uris": {"ios": "https://dc.lft.to/lastmile_qr_scan", "android": "https://dc.lft.to/lastmile_qr_scan"}}, {"name": "cf6090c503a720243e18c5b63d625013", "fusion_lat": 0.0, "type": "electric_scooter", "lat": 38.912512166666666, "is_reserved": 0, "is_disabled": 0, "fusion_lon": 0.0, "bike_id": "cf6090c503a720243e18c5b63d625013", "lon": -77.032097, "rental_uris": {"ios": "https://dc.lft.to/lastmile_qr_scan", "android": "https://dc.lft.to/lastmile_qr_scan"}}, {"name": "73e922a2bee6fd02f8819e87b536264c", "fusion_lat": 0.0, "type": "electric_scooter", "lat": 38.92624683333333, "is_reserved": 0, "is_disabled": 0, "fusion_lon": 0.0, "bike_id": "73e922a2bee6fd02f8819e87b536264c", "lon": -77.03781316666667, "rental_uris": {"ios": "https://dc.lft.to/lastmile_qr_scan", "android": "https://dc.lft.to/lastmile_qr_scan"}}, {"name": "fb45f1a6010ca3120dd7957a24bc5fa5", "fusion_lat": 0.0, "type": "electric_scooter", "lat": 38.91696816666666, "is_reserved": 0, "is_disabled": 0, "fusion_lon": 0.0, "bike_id": "fb45f1a6010ca3120dd7957a24bc5fa5", "lon": -77.02278083333333, "rental_uris": {"ios": "https://dc.lft.to/lastmile_qr_scan", "android": "https://dc.lft.to/lastmile_qr_scan"}}, {"name": "e4e5487ef2a59baf5abc8da7292cf57d", "fusion_lat": 0.0, "type": "electric_bike", "lat": 38.915492666666665, "is_reserved": 0, "is_disabled": 0, "fusion_lon": 0.0, "bike_id": "e4e5487ef2a59baf5abc8da7292cf57d", "lon": -77.06762766666667, "rental_uris": {"ios": "https://dc.lft.to/lastmile_qr_scan", "android": "https://dc.lft.to/lastmile_qr_scan"}}, {"name": "f99ecb2d44956e2bee1f6993bc3811db", "fusion_lat": 0.0, "type": "electric_scooter", "lat": 38.88823766666667, "is_reserved": 0, "is_disabled": 0, "fusion_lon": 0.0, "bike_id": "f99ecb2d44956e2bee1f6993bc3811db", "lon": -77.04938066666666, "rental_uris": {"ios": "https://dc.lft.to/lastmile_qr_scan", "android": "https://dc.lft.to/lastmile_qr_scan"}}, {"name": "c5d2fddfc41359aee10ae5a1601fcd3a", "fusion_lat": 0.0, "type": "electric_scooter", "lat": 38.91066683333333, "is_reserved": 0, "is_disabled": 0, "fusion_lon": 0.0, "bike_id": "c5d2fddfc41359aee10ae5a1601fcd3a", "lon": -77.0085595, "rental_uris": {"ios": "https://dc.lft.to/lastmile_qr_scan", "android": "https://dc.lft.to/lastmile_qr_scan"}}, {"name": "2fc499f5e89a96569baf21ab27011784", "fusion_lat": 0.0, "type": "electric_bike", "lat": 38.8637455, "is_reserved": 0, "is_disabled": 0, "fusion_lon": 0.0, "bike_id": "2fc499f5e89a96569baf21ab27011784", "lon": -77.12896216666667, "rental_uris": {"ios": "https://dc.lft.to/lastmile_qr_scan", "android": "https://dc.lft.to/lastmile_qr_scan"}}, {"name": "a0a4a83002e7c18a1414685ef6445e4e", "fusion_lat": 0.0, "type": "electric_scooter", "lat": 38.92027016666667, "is_reserved": 0, "is_disabled": 0, "fusion_lon": 0.0, "bike_id": "a0a4a83002e7c18a1414685ef6445e4e", "lon": -77.03120183333333, "rental_uris": {"ios": "https://dc.lft.to/lastmile_qr_scan", "android": "https://dc.lft.to/lastmile_qr_scan"}}, {"name": "ce302307836d35dbe5ec8276c8e7478c", "fusion_lat": 0.0, "type": "electric_bike", "lat": 38.92704616666666, "is_reserved": 0, "is_disabled": 0, "fusion_lon": 0.0, "bike_id": "ce302307836d35dbe5ec8276c8e7478c", "lon": -77.02281883333333, "rental_uris": {"ios": "https://dc.lft.to/lastmile_qr_scan", "android": "https://dc.lft.to/lastmile_qr_scan"}}, {"name": "5674901470980742cea6f61e3e45f38a", "fusion_lat": 0.0, "type": "electric_scooter", "lat": 38.93035783333333, "is_reserved": 0, "is_disabled": 0, "fusion_lon": 0.0, "bike_id": "5674901470980742cea6f61e3e45f38a", "lon": -77.08362366666667, "rental_uris": {"ios": "https://dc.lft.to/lastmile_qr_scan", "android": "https://dc.lft.to/lastmile_qr_scan"}}, {"name": "21c40c8e0d23d433252f892a77967035", "fusion_lat": 0.0, "type": "electric_scooter", "lat": 38.91817783333333, "is_reserved": 0, "is_disabled": 0, "fusion_lon": 0.0, "bike_id": "21c40c8e0d23d433252f892a77967035", "lon": -77.03210133333333, "rental_uris": {"ios": "https://dc.lft.to/lastmile_qr_scan", "android": "https://dc.lft.to/lastmile_qr_scan"}}, {"name": "b5b6d26aadce02b58e39e5e0d5c5fdf2", "fusion_lat": 0.0, "type": "electric_scooter", "lat": 38.902302666666664, "is_reserved": 0, "is_disabled": 0, "fusion_lon": 0.0, "bike_id": "b5b6d26aadce02b58e39e5e0d5c5fdf2", "lon": -77.0513245, "rental_uris": {"ios": "https://dc.lft.to/lastmile_qr_scan", "android": "https://dc.lft.to/lastmile_qr_scan"}}, {"name": "d8e22c7261d06808b8ff745d185ef1cd", "fusion_lat": 0.0, "type": "electric_scooter", "lat": 38.924771666666665, "is_reserved": 0, "is_disabled": 0, "fusion_lon": 0.0, "bike_id": "d8e22c7261d06808b8ff745d185ef1cd", "lon": -77.02993116666667, "rental_uris": {"ios": "https://dc.lft.to/lastmile_qr_scan", "android": "https://dc.lft.to/lastmile_qr_scan"}}, {"name": "8960b8b729eb8b7e2be5e5250e1771d4", "fusion_lat": 0.0, "type": "electric_bike", "lat": 38.8882555, "is_reserved": 0, "is_disabled": 0, "fusion_lon": 0.0, "bike_id": "8960b8b729eb8b7e2be5e5250e1771d4", "lon": -77.12740233333334, "rental_uris": {"ios": "https://dc.lft.to/lastmile_qr_scan", "android": "https://dc.lft.to/lastmile_qr_scan"}}, {"name": "928f2ab090c58a9152f2c432a6f69e0b", "fusion_lat": 0.0, "type": "electric_scooter", "lat": 38.89757616666667, "is_reserved": 0, "is_disabled": 0, "fusion_lon": 0.0, "bike_id": "928f2ab090c58a9152f2c432a6f69e0b", "lon": -77.05153516666667, "rental_uris": {"ios": "https://dc.lft.to/lastmile_qr_scan", "android": "https://dc.lft.to/lastmile_qr_scan"}}, {"name": "4b9799a35fdbb660eb82e1e98ff4d38e", "fusion_lat": 0.0, "type": "electric_scooter", "lat": 38.938941666666665, "is_reserved": 0, "is_disabled": 0, "fusion_lon": 0.0, "bike_id": "4b9799a35fdbb660eb82e1e98ff4d38e", "lon": -77.017537, "rental_uris": {"ios": "https://dc.lft.to/lastmile_qr_scan", "android": "https://dc.lft.to/lastmile_qr_scan"}}, {"name": "5ca16db59fda94a71608182f68b12eac", "fusion_lat": 0.0, "type": "electric_scooter", "lat": 38.91174566666667, "is_reserved": 0, "is_disabled": 0, "fusion_lon": 0.0, "bike_id": "5ca16db59fda94a71608182f68b12eac", "lon": -76.98772816666667, "rental_uris": {"ios": "https://dc.lft.to/lastmile_qr_scan", "android": "https://dc.lft.to/lastmile_qr_scan"}}, {"name": "ecf39ecd351e12841f1eff0658c307f1", "fusion_lat": 0.0, "type": "electric_scooter", "lat": 38.9155935, "is_reserved": 0, "is_disabled": 0, "fusion_lon": 0.0, "bike_id": "ecf39ecd351e12841f1eff0658c307f1", "lon": -77.032424, "rental_uris": {"ios": "https://dc.lft.to/lastmile_qr_scan", "android": "https://dc.lft.to/lastmile_qr_scan"}}, {"name": "b0e252c28fd61fe5eb20ed694bb6e5ac", "fusion_lat": 0.0, "type": "electric_scooter", "lat": 38.8921965, "is_reserved": 0, "is_disabled": 0, "fusion_lon": 0.0, "bike_id": "b0e252c28fd61fe5eb20ed694bb6e5ac", "lon": -77.02226266666666, "rental_uris": {"ios": "https://dc.lft.to/lastmile_qr_scan", "android": "https://dc.lft.to/lastmile_qr_scan"}}, {"name": "4cc2646096558da0a41f2a5bc630770a", "fusion_lat": 0.0, "type": "electric_scooter", "lat": 38.91280833333333, "is_reserved": 0, "is_disabled": 0, "fusion_lon": 0.0, "bike_id": "4cc2646096558da0a41f2a5bc630770a", "lon": -76.93796666666667, "rental_uris": {"ios": "https://dc.lft.to/lastmile_qr_scan", "android": "https://dc.lft.to/lastmile_qr_scan"}}, {"name": "ad03cf3c04300ed801037fcc25a5958c", "fusion_lat": 0.0, "type": "electric_scooter", "lat": 38.9174975, "is_reserved": 0, "is_disabled": 0, "fusion_lon": 0.0, "bike_id": "ad03cf3c04300ed801037fcc25a5958c", "lon": -77.0364205, "rental_uris": {"ios": "https://dc.lft.to/lastmile_qr_scan", "android": "https://dc.lft.to/lastmile_qr_scan"}}, {"name": "0c6508e61a456880115fedd1c564b9e8", "fusion_lat": 0.0, "type": "electric_scooter", "lat": 38.899662666666664, "is_reserved": 0, "is_disabled": 0, "fusion_lon": 0.0, "bike_id": "0c6508e61a456880115fedd1c564b9e8", "lon": -77.03914516666667, "rental_uris": {"ios": "https://dc.lft.to/lastmile_qr_scan", "android": "https://dc.lft.to/lastmile_qr_scan"}}, {"name": "398187e30c2a59d62234a32dc8782cbb", "fusion_lat": 0.0, "type": "electric_scooter", "lat": 38.916907333333334, "is_reserved": 0, "is_disabled": 0, "fusion_lon": 0.0, "bike_id": "398187e30c2a59d62234a32dc8782cbb", "lon": -77.0261125, "rental_uris": {"ios": "https://dc.lft.to/lastmile_qr_scan", "android": "https://dc.lft.to/lastmile_qr_scan"}}, {"name": "849e56eaac5382cfdcd8c0fcdcfe57c9", "fusion_lat": 0.0, "type": "electric_scooter", "lat": 38.925921333333335, "is_reserved": 0, "is_disabled": 0, "fusion_lon": 0.0, "bike_id": "849e56eaac5382cfdcd8c0fcdcfe57c9", "lon": -77.00850816666667, "rental_uris": {"ios": "https://dc.lft.to/lastmile_qr_scan", "android": "https://dc.lft.to/lastmile_qr_scan"}}, {"name": "a9d60f6d307f861c807ce8678bedd29b", "fusion_lat": 0.0, "type": "electric_scooter", "lat": 38.9266795, "is_reserved": 0, "is_disabled": 0, "fusion_lon": 0.0, "bike_id": "a9d60f6d307f861c807ce8678bedd29b", "lon": -76.9953355, "rental_uris": {"ios": "https://dc.lft.to/lastmile_qr_scan", "android": "https://dc.lft.to/lastmile_qr_scan"}}, {"name": "6f8009ec059f0dea8621cce2d04ea5ce", "fusion_lat": 0.0, "type": "electric_scooter", "lat": 38.907148166666666, "is_reserved": 0, "is_disabled": 0, "fusion_lon": 0.0, "bike_id": "6f8009ec059f0dea8621cce2d04ea5ce", "lon": -77.03442916666667, "rental_uris": {"ios": "https://dc.lft.to/lastmile_qr_scan", "android": "https://dc.lft.to/lastmile_qr_scan"}}, {"name": "590f2e080a56ef38c923fd7a3f5f8429", "fusion_lat": 0.0, "type": "electric_scooter", "lat": 38.9339715, "is_reserved": 0, "is_disabled": 0, "fusion_lon": 0.0, "bike_id": "590f2e080a56ef38c923fd7a3f5f8429", "lon": -77.0272215, "rental_uris": {"ios": "https://dc.lft.to/lastmile_qr_scan", "android": "https://dc.lft.to/lastmile_qr_scan"}}, {"name": "5a97b823bcb394bfadb95fbf8331d0da", "fusion_lat": 0.0, "type": "electric_bike", "lat": 38.852284833333336, "is_reserved": 0, "is_disabled": 0, "fusion_lon": 0.0, "bike_id": "5a97b823bcb394bfadb95fbf8331d0da", "lon": -77.10336, "rental_uris": {"ios": "https://dc.lft.to/lastmile_qr_scan", "android": "https://dc.lft.to/lastmile_qr_scan"}}, {"name": "c603bb3a1c29fda5f6c35f284fa5cb16", "fusion_lat": 0.0, "type": "electric_scooter", "lat": 38.88039716666667, "is_reserved": 0, "is_disabled": 0, "fusion_lon": 0.0, "bike_id": "c603bb3a1c29fda5f6c35f284fa5cb16", "lon": -76.92721983333334, "rental_uris": {"ios": "https://dc.lft.to/lastmile_qr_scan", "android": "https://dc.lft.to/lastmile_qr_scan"}}, {"name": "b2b083c5eaff60ccf116586ae78c1b24", "fusion_lat": 0.0, "type": "electric_scooter", "lat": 38.90629833333333, "is_reserved": 0, "is_disabled": 0, "fusion_lon": 0.0, "bike_id": "b2b083c5eaff60ccf116586ae78c1b24", "lon": -77.0343345, "rental_uris": {"ios": "https://dc.lft.to/lastmile_qr_scan", "android": "https://dc.lft.to/lastmile_qr_scan"}}, {"name": "dae5c1efa9d877226726cea523e65b66", "fusion_lat": 0.0, "type": "electric_scooter", "lat": 38.904086, "is_reserved": 0, "is_disabled": 0, "fusion_lon": 0.0, "bike_id": "dae5c1efa9d877226726cea523e65b66", "lon": -77.00133583333333, "rental_uris": {"ios": "https://dc.lft.to/lastmile_qr_scan", "android": "https://dc.lft.to/lastmile_qr_scan"}}, {"name": "e28522f9f58949a96a87250ccd907732", "fusion_lat": 0.0, "type": "electric_scooter", "lat": 38.96227366666667, "is_reserved": 0, "is_disabled": 0, "fusion_lon": 0.0, "bike_id": "e28522f9f58949a96a87250ccd907732", "lon": -77.02977683333333, "rental_uris": {"ios": "https://dc.lft.to/lastmile_qr_scan", "android": "https://dc.lft.to/lastmile_qr_scan"}}, {"name": "a710ee2aeda86ff1aab42c07a26a20ef", "fusion_lat": 0.0, "type": "electric_bike", "lat": 38.8804085, "is_reserved": 0, "is_disabled": 0, "fusion_lon": 0.0, "bike_id": "a710ee2aeda86ff1aab42c07a26a20ef", "lon": -77.013228, "rental_uris": {"ios": "https://dc.lft.to/lastmile_qr_scan", "android": "https://dc.lft.to/lastmile_qr_scan"}}, {"name": "c93587a54cd5ba9bb9cea792071ad4c5", "fusion_lat": 0.0, "type": "electric_bike", "lat": 38.9881735, "is_reserved": 0, "is_disabled": 0, "fusion_lon": 0.0, "bike_id": "c93587a54cd5ba9bb9cea792071ad4c5", "lon": -77.0265035, "rental_uris": {"ios": "https://dc.lft.to/lastmile_qr_scan", "android": "https://dc.lft.to/lastmile_qr_scan"}}, {"name": "a13becf9d20b4d23d070adc09615a72c", "fusion_lat": 0.0, "type": "electric_scooter", "lat": 38.91924566666667, "is_reserved": 0, "is_disabled": 0, "fusion_lon": 0.0, "bike_id": "a13becf9d20b4d23d070adc09615a72c", "lon": -77.02378316666666, "rental_uris": {"ios": "https://dc.lft.to/lastmile_qr_scan", "android": "https://dc.lft.to/lastmile_qr_scan"}}, {"name": "27c281d88abf9c6232dd0e90528726a9", "fusion_lat": 0.0, "type": "electric_scooter", "lat": 38.87641833333333, "is_reserved": 0, "is_disabled": 0, "fusion_lon": 0.0, "bike_id": "27c281d88abf9c6232dd0e90528726a9", "lon": -77.007688, "rental_uris": {"ios": "https://dc.lft.to/lastmile_qr_scan", "android": "https://dc.lft.to/lastmile_qr_scan"}}, {"name": "e55d5917697cd2a78c3fef0e1c101335", "fusion_lat": 0.0, "type": "electric_scooter", "lat": 38.884561, "is_reserved": 0, "is_disabled": 0, "fusion_lon": 0.0, "bike_id": "e55d5917697cd2a78c3fef0e1c101335", "lon": -76.92471116666667, "rental_uris": {"ios": "https://dc.lft.to/lastmile_qr_scan", "android": "https://dc.lft.to/lastmile_qr_scan"}}, {"name": "9fe55c412d196598248c06c2f8977404", "fusion_lat": 0.0, "type": "electric_bike", "lat": 39.094598, "is_reserved": 0, "is_disabled": 0, "fusion_lon": 0.0, "bike_id": "9fe55c412d196598248c06c2f8977404", "lon": -77.14990933333333, "rental_uris": {"ios": "https://dc.lft.to/lastmile_qr_scan", "android": "https://dc.lft.to/lastmile_qr_scan"}}, {"name": "5f9b16bda0884549125d7b8a9328a415", "fusion_lat": 0.0, "type": "electric_scooter", "lat": 38.91630633333333, "is_reserved": 0, "is_disabled": 0, "fusion_lon": 0.0, "bike_id": "5f9b16bda0884549125d7b8a9328a415", "lon": -77.04803716666666, "rental_uris": {"ios": "https://dc.lft.to/lastmile_qr_scan", "android": "https://dc.lft.to/lastmile_qr_scan"}}, {"name": "a56d8b378ad3b40671d341031c149d32", "fusion_lat": 0.0, "type": "electric_scooter", "lat": 38.879224, "is_reserved": 0, "is_disabled": 0, "fusion_lon": 0.0, "bike_id": "a56d8b378ad3b40671d341031c149d32", "lon": -77.0210125, "rental_uris": {"ios": "https://dc.lft.to/lastmile_qr_scan", "android": "https://dc.lft.to/lastmile_qr_scan"}}, {"name": "e33c81a9e281680f4a3937c1760c8367", "fusion_lat": 0.0, "type": "electric_scooter", "lat": 38.92731, "is_reserved": 0, "is_disabled": 0, "fusion_lon": 0.0, "bike_id": "e33c81a9e281680f4a3937c1760c8367", "lon": -77.00561283333333, "rental_uris": {"ios": "https://dc.lft.to/lastmile_qr_scan", "android": "https://dc.lft.to/lastmile_qr_scan"}}, {"name": "ef9357c0f52dc3e83a553c358be38d14", "fusion_lat": 0.0, "type": "electric_scooter", "lat": 38.900713833333334, "is_reserved": 0, "is_disabled": 0, "fusion_lon": 0.0, "bike_id": "ef9357c0f52dc3e83a553c358be38d14", "lon": -77.04889033333333, "rental_uris": {"ios": "https://dc.lft.to/lastmile_qr_scan", "android": "https://dc.lft.to/lastmile_qr_scan"}}, {"name": "ad21e5a1207251f0514f3e9ee41d30e4", "fusion_lat": 0.0, "type": "electric_bike", "lat": 38.87527633333333, "is_reserved": 0, "is_disabled": 0, "fusion_lon": 0.0, "bike_id": "ad21e5a1207251f0514f3e9ee41d30e4", "lon": -77.19903033333334, "rental_uris": {"ios": "https://dc.lft.to/lastmile_qr_scan", "android": "https://dc.lft.to/lastmile_qr_scan"}}, {"name": "097e449694128ece35e5de84b4dde7fc", "fusion_lat": 0.0, "type": "electric_scooter", "lat": 38.915635, "is_reserved": 0, "is_disabled": 0, "fusion_lon": 0.0, "bike_id": "097e449694128ece35e5de84b4dde7fc", "lon": -77.03162333333333, "rental_uris": {"ios": "https://dc.lft.to/lastmile_qr_scan", "android": "https://dc.lft.to/lastmile_qr_scan"}}, {"name": "234b2d8b690124e172231250f9d06cd3", "fusion_lat": 0.0, "type": "electric_bike", "lat": 38.8578755, "is_reserved": 0, "is_disabled": 0, "fusion_lon": 0.0, "bike_id": "234b2d8b690124e172231250f9d06cd3", "lon": -77.0995885, "rental_uris": {"ios": "https://dc.lft.to/lastmile_qr_scan", "android": "https://dc.lft.to/lastmile_qr_scan"}}, {"name": "1d1e912e210b85d0d4a15297ef314da2", "fusion_lat": 0.0, "type": "electric_scooter", "lat": 38.89909266666667, "is_reserved": 0, "is_disabled": 0, "fusion_lon": 0.0, "bike_id": "1d1e912e210b85d0d4a15297ef314da2", "lon": -76.93371833333333, "rental_uris": {"ios": "https://dc.lft.to/lastmile_qr_scan", "android": "https://dc.lft.to/lastmile_qr_scan"}}, {"name": "038ae268ab190c0a1fac335059634e73", "fusion_lat": 0.0, "type": "electric_scooter", "lat": 38.91824866666666, "is_reserved": 0, "is_disabled": 0, "fusion_lon": 0.0, "bike_id": "038ae268ab190c0a1fac335059634e73", "lon": -77.02800583333334, "rental_uris": {"ios": "https://dc.lft.to/lastmile_qr_scan", "android": "https://dc.lft.to/lastmile_qr_scan"}}, {"name": "4ecf8f5e1568635481c01391a62c589e", "fusion_lat": 0.0, "type": "electric_scooter", "lat": 38.91065616666667, "is_reserved": 0, "is_disabled": 0, "fusion_lon": 0.0, "bike_id": "4ecf8f5e1568635481c01391a62c589e", "lon": -77.0532535, "rental_uris": {"ios": "https://dc.lft.to/lastmile_qr_scan", "android": "https://dc.lft.to/lastmile_qr_scan"}}, {"name": "886d9dc259ab395602a3e1a7e8d6c44c", "fusion_lat": 0.0, "type": "electric_scooter", "lat": 38.89230383333334, "is_reserved": 0, "is_disabled": 0, "fusion_lon": 0.0, "bike_id": "886d9dc259ab395602a3e1a7e8d6c44c", "lon": -77.05002966666666, "rental_uris": {"ios": "https://dc.lft.to/lastmile_qr_scan", "android": "https://dc.lft.to/lastmile_qr_scan"}}, {"name": "bfc61c8bc4f6c5f449cf0fa089dd816f", "fusion_lat": 0.0, "type": "electric_scooter", "lat": 38.90227766666667, "is_reserved": 0, "is_disabled": 0, "fusion_lon": 0.0, "bike_id": "bfc61c8bc4f6c5f449cf0fa089dd816f", "lon": -77.05120866666667, "rental_uris": {"ios": "https://dc.lft.to/lastmile_qr_scan", "android": "https://dc.lft.to/lastmile_qr_scan"}}, {"name": "9f1911f16068a6da3b5cc0ab450369c2", "fusion_lat": 0.0, "type": "electric_scooter", "lat": 38.920689833333334, "is_reserved": 0, "is_disabled": 0, "fusion_lon": 0.0, "bike_id": "9f1911f16068a6da3b5cc0ab450369c2", "lon": -77.04383833333333, "rental_uris": {"ios": "https://dc.lft.to/lastmile_qr_scan", "android": "https://dc.lft.to/lastmile_qr_scan"}}, {"name": "0b4dfa44104d7ad6ba039004bcf42c6a", "fusion_lat": 0.0, "type": "electric_scooter", "lat": 38.920662166666666, "is_reserved": 0, "is_disabled": 0, "fusion_lon": 0.0, "bike_id": "0b4dfa44104d7ad6ba039004bcf42c6a", "lon": -77.043749, "rental_uris": {"ios": "https://dc.lft.to/lastmile_qr_scan", "android": "https://dc.lft.to/lastmile_qr_scan"}}, {"name": "3dbbc2e4a5ae4fe5e71c87d5a75d7e4b", "fusion_lat": 0.0, "type": "electric_scooter", "lat": 38.916847833333335, "is_reserved": 0, "is_disabled": 0, "fusion_lon": 0.0, "bike_id": "3dbbc2e4a5ae4fe5e71c87d5a75d7e4b", "lon": -77.02899183333334, "rental_uris": {"ios": "https://dc.lft.to/lastmile_qr_scan", "android": "https://dc.lft.to/lastmile_qr_scan"}}, {"name": "43f91b0d83f392ffa2eae92ae1f7efde", "fusion_lat": 0.0, "type": "electric_scooter", "lat": 38.915944833333334, "is_reserved": 0, "is_disabled": 0, "fusion_lon": 0.0, "bike_id": "43f91b0d83f392ffa2eae92ae1f7efde", "lon": -77.04486333333334, "rental_uris": {"ios": "https://dc.lft.to/lastmile_qr_scan", "android": "https://dc.lft.to/lastmile_qr_scan"}}, {"name": "6d02e3f662c5e33481663cd035fa6094", "fusion_lat": 0.0, "type": "electric_scooter", "lat": 38.93360416666667, "is_reserved": 0, "is_disabled": 0, "fusion_lon": 0.0, "bike_id": "6d02e3f662c5e33481663cd035fa6094", "lon": -77.03728016666666, "rental_uris": {"ios": "https://dc.lft.to/lastmile_qr_scan", "android": "https://dc.lft.to/lastmile_qr_scan"}}, {"name": "b590ae6f849eae0fefc3ad6ad76d7603", "fusion_lat": 0.0, "type": "electric_scooter", "lat": 38.917486, "is_reserved": 0, "is_disabled": 0, "fusion_lon": 0.0, "bike_id": "b590ae6f849eae0fefc3ad6ad76d7603", "lon": -77.0364135, "rental_uris": {"ios": "https://dc.lft.to/lastmile_qr_scan", "android": "https://dc.lft.to/lastmile_qr_scan"}}, {"name": "5dead68046fdfef36cee6b11a2bcbd73", "fusion_lat": 0.0, "type": "electric_bike", "lat": 38.89190516666667, "is_reserved": 0, "is_disabled": 0, "fusion_lon": 0.0, "bike_id": "5dead68046fdfef36cee6b11a2bcbd73", "lon": -77.12264183333333, "rental_uris": {"ios": "https://dc.lft.to/lastmile_qr_scan", "android": "https://dc.lft.to/lastmile_qr_scan"}}, {"name": "78aea99bc17941ef0d7cc7c264e04e89", "fusion_lat": 0.0, "type": "electric_scooter", "lat": 38.90674683333334, "is_reserved": 0, "is_disabled": 0, "fusion_lon": 0.0, "bike_id": "78aea99bc17941ef0d7cc7c264e04e89", "lon": -76.97812616666667, "rental_uris": {"ios": "https://dc.lft.to/lastmile_qr_scan", "android": "https://dc.lft.to/lastmile_qr_scan"}}, {"name": "8e694643f614e32a8dc5e495e6768f8a", "fusion_lat": 0.0, "type": "electric_bike", "lat": 38.813056, "is_reserved": 0, "is_disabled": 0, "fusion_lon": 0.0, "bike_id": "8e694643f614e32a8dc5e495e6768f8a", "lon": -77.11203533333334, "rental_uris": {"ios": "https://dc.lft.to/lastmile_qr_scan", "android": "https://dc.lft.to/lastmile_qr_scan"}}, {"name": "f088a6b6499613a37b419b19e5633a8a", "fusion_lat": 0.0, "type": "electric_scooter", "lat": 38.88870333333333, "is_reserved": 0, "is_disabled": 0, "fusion_lon": 0.0, "bike_id": "f088a6b6499613a37b419b19e5633a8a", "lon": -76.99032116666666, "rental_uris": {"ios": "https://dc.lft.to/lastmile_qr_scan", "android": "https://dc.lft.to/lastmile_qr_scan"}}, {"name": "5c1854585e3aa58064d7f76a8a242131", "fusion_lat": 0.0, "type": "electric_bike", "lat": 38.95548983333333, "is_reserved": 0, "is_disabled": 0, "fusion_lon": 0.0, "bike_id": "5c1854585e3aa58064d7f76a8a242131", "lon": -76.93542016666666, "rental_uris": {"ios": "https://dc.lft.to/lastmile_qr_scan", "android": "https://dc.lft.to/lastmile_qr_scan"}}, {"name": "9a11f1b15345309b706cc8ee1577f5cc", "fusion_lat": 0.0, "type": "electric_scooter", "lat": 38.92583583333333, "is_reserved": 0, "is_disabled": 0, "fusion_lon": 0.0, "bike_id": "9a11f1b15345309b706cc8ee1577f5cc", "lon": -77.03223183333333, "rental_uris": {"ios": "https://dc.lft.to/lastmile_qr_scan", "android": "https://dc.lft.to/lastmile_qr_scan"}}, {"name": "69027094f876928cec043d70c39566a3", "fusion_lat": 0.0, "type": "electric_scooter", "lat": 38.921196333333334, "is_reserved": 0, "is_disabled": 0, "fusion_lon": 0.0, "bike_id": "69027094f876928cec043d70c39566a3", "lon": -77.017778, "rental_uris": {"ios": "https://dc.lft.to/lastmile_qr_scan", "android": "https://dc.lft.to/lastmile_qr_scan"}}, {"name": "9be47194c00703e0729beb8f3170777f", "fusion_lat": 0.0, "type": "electric_bike", "lat": 38.83192183333333, "is_reserved": 0, "is_disabled": 0, "fusion_lon": 0.0, "bike_id": "9be47194c00703e0729beb8f3170777f", "lon": -77.07680966666666, "rental_uris": {"ios": "https://dc.lft.to/lastmile_qr_scan", "android": "https://dc.lft.to/lastmile_qr_scan"}}, {"name": "50c26b0b775e7d0ad2685b9c3a937cf5", "fusion_lat": 0.0, "type": "electric_scooter", "lat": 38.89222566666667, "is_reserved": 0, "is_disabled": 0, "fusion_lon": 0.0, "bike_id": "50c26b0b775e7d0ad2685b9c3a937cf5", "lon": -77.0241385, "rental_uris": {"ios": "https://dc.lft.to/lastmile_qr_scan", "android": "https://dc.lft.to/lastmile_qr_scan"}}, {"name": "6aa083b4e4a788a5aedf3ccdca606eb3", "fusion_lat": 0.0, "type": "electric_bike", "lat": 38.95688166666667, "is_reserved": 0, "is_disabled": 0, "fusion_lon": 0.0, "bike_id": "6aa083b4e4a788a5aedf3ccdca606eb3", "lon": -77.02223133333334, "rental_uris": {"ios": "https://dc.lft.to/lastmile_qr_scan", "android": "https://dc.lft.to/lastmile_qr_scan"}}, {"name": "6131e3892721fd54d25cade0be5e4be3", "fusion_lat": 0.0, "type": "electric_scooter", "lat": 38.903263333333335, "is_reserved": 0, "is_disabled": 0, "fusion_lon": 0.0, "bike_id": "6131e3892721fd54d25cade0be5e4be3", "lon": -77.02883333333334, "rental_uris": {"ios": "https://dc.lft.to/lastmile_qr_scan", "android": "https://dc.lft.to/lastmile_qr_scan"}}, {"name": "3e7ef1b43b84002049ce5e0b111600cd", "fusion_lat": 0.0, "type": "electric_bike", "lat": 38.936741166666664, "is_reserved": 0, "is_disabled": 0, "fusion_lon": 0.0, "bike_id": "3e7ef1b43b84002049ce5e0b111600cd", "lon": -76.95209933333334, "rental_uris": {"ios": "https://dc.lft.to/lastmile_qr_scan", "android": "https://dc.lft.to/lastmile_qr_scan"}}, {"name": "3e66d5197797b155c0b523c3705ecb3f", "fusion_lat": 0.0, "type": "electric_scooter", "lat": 38.914851, "is_reserved": 0, "is_disabled": 0, "fusion_lon": 0.0, "bike_id": "3e66d5197797b155c0b523c3705ecb3f", "lon": -77.02179416666667, "rental_uris": {"ios": "https://dc.lft.to/lastmile_qr_scan", "android": "https://dc.lft.to/lastmile_qr_scan"}}, {"name": "c77ea2ef612a678952f5a21391fe26a0", "fusion_lat": 0.0, "type": "electric_scooter", "lat": 38.9177305, "is_reserved": 0, "is_disabled": 0, "fusion_lon": 0.0, "bike_id": "c77ea2ef612a678952f5a21391fe26a0", "lon": -77.02310566666667, "rental_uris": {"ios": "https://dc.lft.to/lastmile_qr_scan", "android": "https://dc.lft.to/lastmile_qr_scan"}}, {"name": "78c0e32c79cfaab136f8335692427f12", "fusion_lat": 0.0, "type": "electric_scooter", "lat": 38.896599, "is_reserved": 0, "is_disabled": 0, "fusion_lon": 0.0, "bike_id": "78c0e32c79cfaab136f8335692427f12", "lon": -77.009167, "rental_uris": {"ios": "https://dc.lft.to/lastmile_qr_scan", "android": "https://dc.lft.to/lastmile_qr_scan"}}, {"name": "1150acebaa9106b64b17fb57a9686e59", "fusion_lat": 0.0, "type": "electric_scooter", "lat": 38.8747385, "is_reserved": 0, "is_disabled": 0, "fusion_lon": 0.0, "bike_id": "1150acebaa9106b64b17fb57a9686e59", "lon": -77.0061655, "rental_uris": {"ios": "https://dc.lft.to/lastmile_qr_scan", "android": "https://dc.lft.to/lastmile_qr_scan"}}, {"name": "63c32d7288081af3655787cdfa4f4185", "fusion_lat": 0.0, "type": "electric_scooter", "lat": 38.90168233333333, "is_reserved": 0, "is_disabled": 0, "fusion_lon": 0.0, "bike_id": "63c32d7288081af3655787cdfa4f4185", "lon": -77.01597233333334, "rental_uris": {"ios": "https://dc.lft.to/lastmile_qr_scan", "android": "https://dc.lft.to/lastmile_qr_scan"}}, {"name": "2d4e1ac880d95a25a08b1a62ecb2c130", "fusion_lat": 0.0, "type": "electric_bike", "lat": 38.8879355, "is_reserved": 0, "is_disabled": 0, "fusion_lon": 0.0, "bike_id": "2d4e1ac880d95a25a08b1a62ecb2c130", "lon": -76.9299255, "rental_uris": {"ios": "https://dc.lft.to/lastmile_qr_scan", "android": "https://dc.lft.to/lastmile_qr_scan"}}, {"name": "2246a90fddd878238b0d90f103549c24", "fusion_lat": 0.0, "type": "electric_scooter", "lat": 38.87107233333333, "is_reserved": 0, "is_disabled": 0, "fusion_lon": 0.0, "bike_id": "2246a90fddd878238b0d90f103549c24", "lon": -76.9659525, "rental_uris": {"ios": "https://dc.lft.to/lastmile_qr_scan", "android": "https://dc.lft.to/lastmile_qr_scan"}}, {"name": "abd4635d741918908b08abff2bd22714", "fusion_lat": 0.0, "type": "electric_scooter", "lat": 38.894149666666664, "is_reserved": 0, "is_disabled": 0, "fusion_lon": 0.0, "bike_id": "abd4635d741918908b08abff2bd22714", "lon": -76.93957183333333, "rental_uris": {"ios": "https://dc.lft.to/lastmile_qr_scan", "android": "https://dc.lft.to/lastmile_qr_scan"}}, {"name": "414c0b0c5f8d81c2fc7ab15402987e05", "fusion_lat": 0.0, "type": "electric_scooter", "lat": 38.9274785, "is_reserved": 0, "is_disabled": 0, "fusion_lon": 0.0, "bike_id": "414c0b0c5f8d81c2fc7ab15402987e05", "lon": -77.022921, "rental_uris": {"ios": "https://dc.lft.to/lastmile_qr_scan", "android": "https://dc.lft.to/lastmile_qr_scan"}}, {"name": "64925630c6f291ecdf059d46dae83114", "fusion_lat": 0.0, "type": "electric_scooter", "lat": 38.93068133333333, "is_reserved": 0, "is_disabled": 0, "fusion_lon": 0.0, "bike_id": "64925630c6f291ecdf059d46dae83114", "lon": -77.02979833333333, "rental_uris": {"ios": "https://dc.lft.to/lastmile_qr_scan", "android": "https://dc.lft.to/lastmile_qr_scan"}}, {"name": "22d645f007aeb2850efc317c4fc7457a", "fusion_lat": 0.0, "type": "electric_scooter", "lat": 38.88500466666667, "is_reserved": 0, "is_disabled": 0, "fusion_lon": 0.0, "bike_id": "22d645f007aeb2850efc317c4fc7457a", "lon": -77.02194616666667, "rental_uris": {"ios": "https://dc.lft.to/lastmile_qr_scan", "android": "https://dc.lft.to/lastmile_qr_scan"}}, {"name": "16b2fcfb19c9294c99184429ae71ce37", "fusion_lat": 0.0, "type": "electric_bike", "lat": 38.9491965, "is_reserved": 0, "is_disabled": 0, "fusion_lon": 0.0, "bike_id": "16b2fcfb19c9294c99184429ae71ce37", "lon": -77.00793566666667, "rental_uris": {"ios": "https://dc.lft.to/lastmile_qr_scan", "android": "https://dc.lft.to/lastmile_qr_scan"}}, {"name": "0a655a7031834638fd64c8e8d6fc404c", "fusion_lat": 0.0, "type": "electric_bike", "lat": 38.85852916666666, "is_reserved": 0, "is_disabled": 0, "fusion_lon": 0.0, "bike_id": "0a655a7031834638fd64c8e8d6fc404c", "lon": -77.097568, "rental_uris": {"ios": "https://dc.lft.to/lastmile_qr_scan", "android": "https://dc.lft.to/lastmile_qr_scan"}}, {"name": "5d2a0b717d92d6d9c9198b500ba02741", "fusion_lat": 0.0, "type": "electric_scooter", "lat": 38.916357, "is_reserved": 0, "is_disabled": 0, "fusion_lon": 0.0, "bike_id": "5d2a0b717d92d6d9c9198b500ba02741", "lon": -77.00101233333334, "rental_uris": {"ios": "https://dc.lft.to/lastmile_qr_scan", "android": "https://dc.lft.to/lastmile_qr_scan"}}, {"name": "3c0f40f68c559c0abe733288cfbc2eed", "fusion_lat": 0.0, "type": "electric_scooter", "lat": 38.917774, "is_reserved": 0, "is_disabled": 0, "fusion_lon": 0.0, "bike_id": "3c0f40f68c559c0abe733288cfbc2eed", "lon": -77.0234905, "rental_uris": {"ios": "https://dc.lft.to/lastmile_qr_scan", "android": "https://dc.lft.to/lastmile_qr_scan"}}, {"name": "0185dc628ffec0ff6597b8f980eb0e35", "fusion_lat": 0.0, "type": "electric_bike", "lat": 39.000171, "is_reserved": 0, "is_disabled": 0, "fusion_lon": 0.0, "bike_id": "0185dc628ffec0ff6597b8f980eb0e35", "lon": -77.01741866666667, "rental_uris": {"ios": "https://dc.lft.to/lastmile_qr_scan", "android": "https://dc.lft.to/lastmile_qr_scan"}}, {"name": "4d2e62b66f76392e31464b1b0690121d", "fusion_lat": 0.0, "type": "electric_scooter", "lat": 38.89234366666667, "is_reserved": 0, "is_disabled": 0, "fusion_lon": 0.0, "bike_id": "4d2e62b66f76392e31464b1b0690121d", "lon": -77.01506066666667, "rental_uris": {"ios": "https://dc.lft.to/lastmile_qr_scan", "android": "https://dc.lft.to/lastmile_qr_scan"}}, {"name": "baa4308326eb521f4a22622cef447aea", "fusion_lat": 0.0, "type": "electric_scooter", "lat": 38.93962616666666, "is_reserved": 0, "is_disabled": 0, "fusion_lon": 0.0, "bike_id": "baa4308326eb521f4a22622cef447aea", "lon": -77.027498, "rental_uris": {"ios": "https://dc.lft.to/lastmile_qr_scan", "android": "https://dc.lft.to/lastmile_qr_scan"}}, {"name": "0707425983a56050f9ac4c2ec6b702ee", "fusion_lat": 0.0, "type": "electric_scooter", "lat": 38.9623045, "is_reserved": 0, "is_disabled": 0, "fusion_lon": 0.0, "bike_id": "0707425983a56050f9ac4c2ec6b702ee", "lon": -77.0298035, "rental_uris": {"ios": "https://dc.lft.to/lastmile_qr_scan", "android": "https://dc.lft.to/lastmile_qr_scan"}}, {"name": "eafc6b3b6249ee8b6a1f9365cc949afe", "fusion_lat": 0.0, "type": "electric_scooter", "lat": 38.9257975, "is_reserved": 0, "is_disabled": 0, "fusion_lon": 0.0, "bike_id": "eafc6b3b6249ee8b6a1f9365cc949afe", "lon": -76.99491116666667, "rental_uris": {"ios": "https://dc.lft.to/lastmile_qr_scan", "android": "https://dc.lft.to/lastmile_qr_scan"}}, {"name": "23a25de0e13db58be17ad240aa9bd1b5", "fusion_lat": 0.0, "type": "electric_scooter", "lat": 38.88231066666667, "is_reserved": 0, "is_disabled": 0, "fusion_lon": 0.0, "bike_id": "23a25de0e13db58be17ad240aa9bd1b5", "lon": -77.02582083333333, "rental_uris": {"ios": "https://dc.lft.to/lastmile_qr_scan", "android": "https://dc.lft.to/lastmile_qr_scan"}}, {"name": "52a233a99353269524ae4f4629612392", "fusion_lat": 0.0, "type": "electric_scooter", "lat": 38.92551316666667, "is_reserved": 0, "is_disabled": 0, "fusion_lon": 0.0, "bike_id": "52a233a99353269524ae4f4629612392", "lon": -77.03223966666667, "rental_uris": {"ios": "https://dc.lft.to/lastmile_qr_scan", "android": "https://dc.lft.to/lastmile_qr_scan"}}, {"name": "cc4071f0e421d464b5349af8f95f3a8d", "fusion_lat": 0.0, "type": "electric_scooter", "lat": 38.91133633333333, "is_reserved": 0, "is_disabled": 0, "fusion_lon": 0.0, "bike_id": "cc4071f0e421d464b5349af8f95f3a8d", "lon": -77.04186516666667, "rental_uris": {"ios": "https://dc.lft.to/lastmile_qr_scan", "android": "https://dc.lft.to/lastmile_qr_scan"}}, {"name": "7337a74f6bcaee16e228195a893eb901", "fusion_lat": 0.0, "type": "electric_scooter", "lat": 38.90572866666667, "is_reserved": 0, "is_disabled": 0, "fusion_lon": 0.0, "bike_id": "7337a74f6bcaee16e228195a893eb901", "lon": -77.0486075, "rental_uris": {"ios": "https://dc.lft.to/lastmile_qr_scan", "android": "https://dc.lft.to/lastmile_qr_scan"}}, {"name": "07da978369751e180b68ca84714ed315", "fusion_lat": 0.0, "type": "electric_scooter", "lat": 38.861095166666665, "is_reserved": 0, "is_disabled": 0, "fusion_lon": 0.0, "bike_id": "07da978369751e180b68ca84714ed315", "lon": -76.98906766666667, "rental_uris": {"ios": "https://dc.lft.to/lastmile_qr_scan", "android": "https://dc.lft.to/lastmile_qr_scan"}}, {"name": "30ed742f8fc93ca63adfa7f5940f1607", "fusion_lat": 0.0, "type": "electric_bike", "lat": 38.90625716666667, "is_reserved": 0, "is_disabled": 0, "fusion_lon": 0.0, "bike_id": "30ed742f8fc93ca63adfa7f5940f1607", "lon": -76.986135, "rental_uris": {"ios": "https://dc.lft.to/lastmile_qr_scan", "android": "https://dc.lft.to/lastmile_qr_scan"}}, {"name": "968b6b1a2ca4b9187d8941b0d2a7327a", "fusion_lat": 0.0, "type": "electric_scooter", "lat": 38.938695, "is_reserved": 0, "is_disabled": 0, "fusion_lon": 0.0, "bike_id": "968b6b1a2ca4b9187d8941b0d2a7327a", "lon": -77.03259916666667, "rental_uris": {"ios": "https://dc.lft.to/lastmile_qr_scan", "android": "https://dc.lft.to/lastmile_qr_scan"}}, {"name": "b15cd3c3a00d3b8958e55a9173e02a03", "fusion_lat": 0.0, "type": "electric_scooter", "lat": 38.90025516666667, "is_reserved": 0, "is_disabled": 0, "fusion_lon": 0.0, "bike_id": "b15cd3c3a00d3b8958e55a9173e02a03", "lon": -77.0260225, "rental_uris": {"ios": "https://dc.lft.to/lastmile_qr_scan", "android": "https://dc.lft.to/lastmile_qr_scan"}}, {"name": "476b638b1389d70cb93535a19a7f9cbd", "fusion_lat": 0.0, "type": "electric_scooter", "lat": 38.880342166666665, "is_reserved": 0, "is_disabled": 0, "fusion_lon": 0.0, "bike_id": "476b638b1389d70cb93535a19a7f9cbd", "lon": -77.03080416666667, "rental_uris": {"ios": "https://dc.lft.to/lastmile_qr_scan", "android": "https://dc.lft.to/lastmile_qr_scan"}}, {"name": "20f066428670f71b7d76236b3bf39522", "fusion_lat": 0.0, "type": "electric_bike", "lat": 38.96011583333333, "is_reserved": 0, "is_disabled": 0, "fusion_lon": 0.0, "bike_id": "20f066428670f71b7d76236b3bf39522", "lon": -76.9986615, "rental_uris": {"ios": "https://dc.lft.to/lastmile_qr_scan", "android": "https://dc.lft.to/lastmile_qr_scan"}}, {"name": "7c2a6e66992663f5f2f4bb4eb37c38ef", "fusion_lat": 0.0, "type": "electric_scooter", "lat": 38.91914833333333, "is_reserved": 0, "is_disabled": 0, "fusion_lon": 0.0, "bike_id": "7c2a6e66992663f5f2f4bb4eb37c38ef", "lon": -77.03624233333333, "rental_uris": {"ios": "https://dc.lft.to/lastmile_qr_scan", "android": "https://dc.lft.to/lastmile_qr_scan"}}, {"name": "ddf1498b16ba1b3f2e8f9f68a2dc3320", "fusion_lat": 0.0, "type": "electric_scooter", "lat": 38.922338333333336, "is_reserved": 0, "is_disabled": 0, "fusion_lon": 0.0, "bike_id": "ddf1498b16ba1b3f2e8f9f68a2dc3320", "lon": -77.0471535, "rental_uris": {"ios": "https://dc.lft.to/lastmile_qr_scan", "android": "https://dc.lft.to/lastmile_qr_scan"}}, {"name": "1b1af5fc26b5aff608409dc68516a7ae", "fusion_lat": 0.0, "type": "electric_scooter", "lat": 38.9346445, "is_reserved": 0, "is_disabled": 0, "fusion_lon": 0.0, "bike_id": "1b1af5fc26b5aff608409dc68516a7ae", "lon": -77.035277, "rental_uris": {"ios": "https://dc.lft.to/lastmile_qr_scan", "android": "https://dc.lft.to/lastmile_qr_scan"}}, {"name": "fc68a95cbabc31bacfbbcb6a419fdae8", "fusion_lat": 0.0, "type": "electric_scooter", "lat": 38.92824433333333, "is_reserved": 0, "is_disabled": 0, "fusion_lon": 0.0, "bike_id": "fc68a95cbabc31bacfbbcb6a419fdae8", "lon": -77.02259616666667, "rental_uris": {"ios": "https://dc.lft.to/lastmile_qr_scan", "android": "https://dc.lft.to/lastmile_qr_scan"}}, {"name": "815b83c3faa645e257823bbbf9d5f723", "fusion_lat": 0.0, "type": "electric_scooter", "lat": 38.9097555, "is_reserved": 0, "is_disabled": 0, "fusion_lon": 0.0, "bike_id": "815b83c3faa645e257823bbbf9d5f723", "lon": -77.0487035, "rental_uris": {"ios": "https://dc.lft.to/lastmile_qr_scan", "android": "https://dc.lft.to/lastmile_qr_scan"}}, {"name": "8f9ca8f8f2c06e01fdbec77a0b428d6d", "fusion_lat": 0.0, "type": "electric_scooter", "lat": 38.912573, "is_reserved": 0, "is_disabled": 0, "fusion_lon": 0.0, "bike_id": "8f9ca8f8f2c06e01fdbec77a0b428d6d", "lon": -77.045295, "rental_uris": {"ios": "https://dc.lft.to/lastmile_qr_scan", "android": "https://dc.lft.to/lastmile_qr_scan"}}, {"name": "74c436b89b3d56566a38e7e0f20c5ebe", "fusion_lat": 0.0, "type": "electric_scooter", "lat": 38.90610316666667, "is_reserved": 0, "is_disabled": 0, "fusion_lon": 0.0, "bike_id": "74c436b89b3d56566a38e7e0f20c5ebe", "lon": -77.05622983333333, "rental_uris": {"ios": "https://dc.lft.to/lastmile_qr_scan", "android": "https://dc.lft.to/lastmile_qr_scan"}}, {"name": "460753ee23602d50385833bdf3115b40", "fusion_lat": 0.0, "type": "electric_scooter", "lat": 38.900080833333334, "is_reserved": 0, "is_disabled": 0, "fusion_lon": 0.0, "bike_id": "460753ee23602d50385833bdf3115b40", "lon": -77.04129883333333, "rental_uris": {"ios": "https://dc.lft.to/lastmile_qr_scan", "android": "https://dc.lft.to/lastmile_qr_scan"}}, {"name": "0512778b48593e766e80294eb92cf518", "fusion_lat": 0.0, "type": "electric_scooter", "lat": 38.88431116666667, "is_reserved": 0, "is_disabled": 0, "fusion_lon": 0.0, "bike_id": "0512778b48593e766e80294eb92cf518", "lon": -76.95756433333334, "rental_uris": {"ios": "https://dc.lft.to/lastmile_qr_scan", "android": "https://dc.lft.to/lastmile_qr_scan"}}, {"name": "41cd7bf7da644a607ce0a78362e19e2e", "fusion_lat": 0.0, "type": "electric_scooter", "lat": 38.961754166666665, "is_reserved": 0, "is_disabled": 0, "fusion_lon": 0.0, "bike_id": "41cd7bf7da644a607ce0a78362e19e2e", "lon": -77.0322385, "rental_uris": {"ios": "https://dc.lft.to/lastmile_qr_scan", "android": "https://dc.lft.to/lastmile_qr_scan"}}, {"name": "7ebb114c24cc4dfbf0d478ce925cb9d1", "fusion_lat": 0.0, "type": "electric_scooter", "lat": 38.922648, "is_reserved": 0, "is_disabled": 0, "fusion_lon": 0.0, "bike_id": "7ebb114c24cc4dfbf0d478ce925cb9d1", "lon": -77.034044, "rental_uris": {"ios": "https://dc.lft.to/lastmile_qr_scan", "android": "https://dc.lft.to/lastmile_qr_scan"}}, {"name": "473111f7fecce9ecd37313f1a19f987e", "fusion_lat": 0.0, "type": "electric_scooter", "lat": 38.925934166666664, "is_reserved": 0, "is_disabled": 0, "fusion_lon": 0.0, "bike_id": "473111f7fecce9ecd37313f1a19f987e", "lon": -77.05221333333333, "rental_uris": {"ios": "https://dc.lft.to/lastmile_qr_scan", "android": "https://dc.lft.to/lastmile_qr_scan"}}, {"name": "08e357eb6e5f7c7f2288db9ed9734c41", "fusion_lat": 0.0, "type": "electric_scooter", "lat": 38.9155115, "is_reserved": 0, "is_disabled": 0, "fusion_lon": 0.0, "bike_id": "08e357eb6e5f7c7f2288db9ed9734c41", "lon": -77.03829983333334, "rental_uris": {"ios": "https://dc.lft.to/lastmile_qr_scan", "android": "https://dc.lft.to/lastmile_qr_scan"}}, {"name": "2c07826bbdd4d7832307f4c60ca53a4e", "fusion_lat": 0.0, "type": "electric_bike", "lat": 38.9662005, "is_reserved": 0, "is_disabled": 0, "fusion_lon": 0.0, "bike_id": "2c07826bbdd4d7832307f4c60ca53a4e", "lon": -76.94422533333334, "rental_uris": {"ios": "https://dc.lft.to/lastmile_qr_scan", "android": "https://dc.lft.to/lastmile_qr_scan"}}, {"name": "60278d1b2b7b0a2f85332c43d380808f", "fusion_lat": 0.0, "type": "electric_bike", "lat": 39.024244333333336, "is_reserved": 0, "is_disabled": 0, "fusion_lon": 0.0, "bike_id": "60278d1b2b7b0a2f85332c43d380808f", "lon": -77.12507066666667, "rental_uris": {"ios": "https://dc.lft.to/lastmile_qr_scan", "android": "https://dc.lft.to/lastmile_qr_scan"}}, {"name": "d694da6ffe76db8b870308487992c5c4", "fusion_lat": 0.0, "type": "electric_scooter", "lat": 38.894890833333335, "is_reserved": 0, "is_disabled": 0, "fusion_lon": 0.0, "bike_id": "d694da6ffe76db8b870308487992c5c4", "lon": -77.01019433333333, "rental_uris": {"ios": "https://dc.lft.to/lastmile_qr_scan", "android": "https://dc.lft.to/lastmile_qr_scan"}}, {"name": "fbf01a3d61cab978a3701c0a63a8f292", "fusion_lat": 0.0, "type": "electric_bike", "lat": 38.81939283333333, "is_reserved": 0, "is_disabled": 0, "fusion_lon": 0.0, "bike_id": "fbf01a3d61cab978a3701c0a63a8f292", "lon": -77.002052, "rental_uris": {"ios": "https://dc.lft.to/lastmile_qr_scan", "android": "https://dc.lft.to/lastmile_qr_scan"}}, {"name": "1654c9f81a22dc03f1bd69eed2f83f72", "fusion_lat": 0.0, "type": "electric_bike", "lat": 38.96536966666667, "is_reserved": 0, "is_disabled": 0, "fusion_lon": 0.0, "bike_id": "1654c9f81a22dc03f1bd69eed2f83f72", "lon": -77.03517933333333, "rental_uris": {"ios": "https://dc.lft.to/lastmile_qr_scan", "android": "https://dc.lft.to/lastmile_qr_scan"}}, {"name": "56e8d7f07860c2a1ff71c6205539519a", "fusion_lat": 0.0, "type": "electric_scooter", "lat": 38.915593666666666, "is_reserved": 0, "is_disabled": 0, "fusion_lon": 0.0, "bike_id": "56e8d7f07860c2a1ff71c6205539519a", "lon": -77.04286516666667, "rental_uris": {"ios": "https://dc.lft.to/lastmile_qr_scan", "android": "https://dc.lft.to/lastmile_qr_scan"}}, {"name": "6cbdaaef5658567684cafe617cb44fbb", "fusion_lat": 0.0, "type": "electric_scooter", "lat": 38.93904466666667, "is_reserved": 0, "is_disabled": 0, "fusion_lon": 0.0, "bike_id": "6cbdaaef5658567684cafe617cb44fbb", "lon": -77.03263966666667, "rental_uris": {"ios": "https://dc.lft.to/lastmile_qr_scan", "android": "https://dc.lft.to/lastmile_qr_scan"}}, {"name": "7693fe73e6cae6ce6f3e7fa64fbcd849", "fusion_lat": 0.0, "type": "electric_scooter", "lat": 38.903190333333335, "is_reserved": 0, "is_disabled": 0, "fusion_lon": 0.0, "bike_id": "7693fe73e6cae6ce6f3e7fa64fbcd849", "lon": -77.05312783333333, "rental_uris": {"ios": "https://dc.lft.to/lastmile_qr_scan", "android": "https://dc.lft.to/lastmile_qr_scan"}}, {"name": "f123f24a0ea9c28ad3d60a96b19dd4ff", "fusion_lat": 0.0, "type": "electric_scooter", "lat": 38.8851215, "is_reserved": 0, "is_disabled": 0, "fusion_lon": 0.0, "bike_id": "f123f24a0ea9c28ad3d60a96b19dd4ff", "lon": -76.97880983333333, "rental_uris": {"ios": "https://dc.lft.to/lastmile_qr_scan", "android": "https://dc.lft.to/lastmile_qr_scan"}}, {"name": "28c97f16aae53a4188962c97ce928932", "fusion_lat": 0.0, "type": "electric_scooter", "lat": 38.9027825, "is_reserved": 0, "is_disabled": 0, "fusion_lon": 0.0, "bike_id": "28c97f16aae53a4188962c97ce928932", "lon": -77.04064983333333, "rental_uris": {"ios": "https://dc.lft.to/lastmile_qr_scan", "android": "https://dc.lft.to/lastmile_qr_scan"}}, {"name": "1a3481b644e47a60528f60c07a64c61c", "fusion_lat": 0.0, "type": "electric_scooter", "lat": 38.894412333333335, "is_reserved": 0, "is_disabled": 0, "fusion_lon": 0.0, "bike_id": "1a3481b644e47a60528f60c07a64c61c", "lon": -77.010915, "rental_uris": {"ios": "https://dc.lft.to/lastmile_qr_scan", "android": "https://dc.lft.to/lastmile_qr_scan"}},