{"data": {"bikes": [{"bike_id": "811083d719a1a765144d11af1bb5555f", "fusion_lon": 0.0, "name": "811083d719a1a765144d11af1bb5555f", "lat": 38.9013995, "is_disabled": 0, "is_reserved": 0, "lon": -77.02278216666667, "type": "electric_scooter", "fusion_lat": 0.0, "rental_uris": {"android": "https://dc.lft.to/lastmile_qr_scan", "ios": "https://dc.lft.to/lastmile_qr_scan"}}, {"bike_id": "5ed64ec08fb4d5994d438fc762925d58", "fusion_lon": 0.0, "name": "5ed64ec08fb4d5994d438fc762925d58", "lat": 38.905485666666664, "is_disabled": 0, "is_reserved": 0, "lon": -77.00583833333333, "type": "electric_scooter", "fusion_lat": 0.0, "rental_uris": {"android": "https://dc.lft.to/lastmile_qr_scan", "ios": "https://dc.lft.to/lastmile_qr_scan"}}, {"bike_id": "ec3e769733a9c4220d159a13a0856fbc", "fusion_lon": 0.0, "name": "ec3e769733a9c4220d159a13a0856fbc", "lat": 38.90389, "is_disabled": 0, "is_reserved": 0, "lon": -77.04371766666667, "type": "electric_scooter", "fusion_lat": 0.0, "rental_uris": {"android": "https://dc.lft.to/lastmile_qr_scan", "ios": "https://dc.lft.to/lastmile_qr_scan"}}, {"bike_id": "6cf48fa79d35d6e145ac64ebd2aebc59", "fusion_lon": 0.0, "name": "6cf48fa79d35d6e145ac64ebd2aebc59", "lat": 38.9422875, "is_disabled": 0, "is_reserved": 0, "lon": -77.07680416666666, "type": "electric_scooter", "fusion_lat": 0.0, "rental_uris": {"android": "https://dc.lft.to/lastmile_qr_scan", "ios": "https://dc.lft.to/lastmile_qr_scan"}}, {"bike_id": "6bee951002af4453c30693a05372a872", "fusion_lon": 0.0, "name": "6bee951002af4453c30693a05372a872", "lat": 38.91690116666667, "is_disabled": 0, "is_reserved": 0, "lon": -77.02594016666667, "type": "electric_scooter", "fusion_lat": 0.0, "rental_uris": {"android": "https://dc.lft.to/lastmile_qr_scan", "ios": "https://dc.lft.to/lastmile_qr_scan"}}, {"bike_id": "a93781888e40ddf98bbaf3bd70317bba", "fusion_lon": 0.0, "name": "a93781888e40ddf98bbaf3bd70317bba", "lat": 38.897374666666664, "is_disabled": 0, "is_reserved": 0, "lon": -77.04541316666666, "type": "electric_scooter", "fusion_lat": 0.0, "rental_uris": {"android": "https://dc.lft.to/lastmile_qr_scan", "ios": "https://dc.lft.to/lastmile_qr_scan"}}, {"bike_id": "39eee17d32df75b2a71405352afabd6f", "fusion_lon": 0.0, "name": "39eee17d32df75b2a71405352afabd6f", "lat": 38.91411516666667, "is_disabled": 0, "is_reserved": 0, "lon": -77.0390935, "type": "electric_scooter", "fusion_lat": 0.0, "rental_uris": {"android": "https://dc.lft.to/lastmile_qr_scan", "ios": "https://dc.lft.to/lastmile_qr_scan"}}, {"bike_id": "659e6b8835058e5015b8bed8e6f8ba2f", "fusion_lon": 0.0, "name": "659e6b8835058e5015b8bed8e6f8ba2f", "lat": 38.874918, "is_disabled": 0, "is_reserved": 0, "lon": -77.211235, "type": "electric_bike", "fusion_lat": 0.0, "rental_uris": {"android": "https://dc.lft.to/lastmile_qr_scan", "ios": "https://dc.lft.to/lastmile_qr_scan"}}, {"bike_id": "567b03a8c0445f92236b318e9fde8c49", "fusion_lon": 0.0, "name": "567b03a8c0445f92236b318e9fde8c49", "lat": 38.9188645, "is_disabled": 0, "is_reserved": 0, "lon": -77.02972, "type": "electric_scooter", "fusion_lat": 0.0, "rental_uris": {"android": "https://dc.lft.to/lastmile_qr_scan", "ios": "https://dc.lft.to/lastmile_qr_scan"}}, {"bike_id": "4d56c2e8111b832b1bb22b32dde47d0a", "fusion_lon": 0.0, "name": "4d56c2e8111b832b1bb22b32dde47d0a", "lat": 38.89611216666667, "is_disabled": 0, "is_reserved": 0, "lon": -76.90739216666667, "type": "electric_bike", "fusion_lat": 0.0, "rental_uris": {"android": "https://dc.lft.to/lastmile_qr_scan", "ios": "https://dc.lft.to/lastmile_qr_scan"}}, {"bike_id": "b8f928fe71d888813d8f75c81a697ab4", "fusion_lon": 0.0, "name": "b8f928fe71d888813d8f75c81a697ab4", "lat": 38.846120666666664, "is_disabled": 0, "is_reserved": 0, "lon": -76.96905516666666, "type": "electric_bike", "fusion_lat": 0.0, "rental_uris": {"android": "https://dc.lft.to/lastmile_qr_scan", "ios": "https://dc.lft.to/lastmile_qr_scan"}}, {"bike_id": "14467d52a62ce656b50464da4656bc48", "fusion_lon": 0.0, "name": "14467d52a62ce656b50464da4656bc48", "lat": 38.892222833333335, "is_disabled": 0, "is_reserved": 0, "lon": -77.04308733333333, "type": "electric_scooter", "fusion_lat": 0.0, "rental_uris": {"android": "https://dc.lft.to/lastmile_qr_scan", "ios": "https://dc.lft.to/lastmile_qr_scan"}}, {"bike_id": "af6370c274b6d8ec1bddb1cc7e3a64ec", "fusion_lon": 0.0, "name": "af6370c274b6d8ec1bddb1cc7e3a64ec", "lat": 38.913812166666666, "is_disabled": 0, "is_reserved": 0, "lon": -77.02954066666666, "type": "electric_scooter", "fusion_lat": 0.0, "rental_uris": {"android": "https://dc.lft.to/lastmile_qr_scan", "ios": "https://dc.lft.to/lastmile_qr_scan"}}, {"bike_id": "1e91e42b112c958b9c2e964119233cd3", "fusion_lon": 0.0, "name": "1e91e42b112c958b9c2e964119233cd3", "lat": 38.905510666666665, "is_disabled": 0, "is_reserved": 0, "lon": -77.0029035, "type": "electric_scooter", "fusion_lat": 0.0, "rental_uris": {"android": "https://dc.lft.to/lastmile_qr_scan", "ios": "https://dc.lft.to/lastmile_qr_scan"}}, {"bike_id": "7bc7d2fcb6f8471b82e85173756f360e", "fusion_lon": 0.0, "name": "7bc7d2fcb6f8471b82e85173756f360e", "lat": 38.90560383333333, "is_disabled": 0, "is_reserved": 0, "lon": -77.0039705, "type": "electric_scooter", "fusion_lat": 0.0, "rental_uris": {"android": "https://dc.lft.to/lastmile_qr_scan", "ios": "https://dc.lft.to/lastmile_qr_scan"}}, {"bike_id": "e2ca65951caf81a67cd3a898bee69131", "fusion_lon": 0.0, "name": "e2ca65951caf81a67cd3a898bee69131", "lat": 38.839448833333336, "is_disabled": 0, "is_reserved": 0, "lon": -77.08755783333334, "type": "electric_bike", "fusion_lat": 0.0, "rental_uris": {"android": "https://dc.lft.to/lastmile_qr_scan", "ios": "https://dc.lft.to/lastmile_qr_scan"}}, {"bike_id": "fa76201c622f9ac956de2627b2b25268", "fusion_lon": 0.0, "name": "fa76201c622f9ac956de2627b2b25268", "lat": 38.9141695, "is_disabled": 0, "is_reserved": 0, "lon": -77.031478, "type": "electric_scooter", "fusion_lat": 0.0, "rental_uris": {"android": "https://dc.lft.to/lastmile_qr_scan", "ios": "https://dc.lft.to/lastmile_qr_scan"}}, {"bike_id": "0e3a9d74f3449e9ed1ed7de79c59c757", "fusion_lon": 0.0, "name": "0e3a9d74f3449e9ed1ed7de79c59c757", "lat": 38.92132516666667, "is_disabled": 0, "is_reserved": 0, "lon": -77.04114083333333, "type": "electric_scooter", "fusion_lat": 0.0, "rental_uris": {"android": "https://dc.lft.to/lastmile_qr_scan", "ios": "https://dc.lft.to/lastmile_qr_scan"}}, {"bike_id": "cdd265502639029797353bf060110bc4", "fusion_lon": 0.0, "name": "cdd265502639029797353bf060110bc4", "lat": 38.9111355, "is_disabled": 0, "is_reserved": 0, "lon": -77.03435383333333, "type": "electric_scooter", "fusion_lat": 0.0, "rental_uris": {"android": "https://dc.lft.to/lastmile_qr_scan", "ios": "https://dc.lft.to/lastmile_qr_scan"}}, {"bike_id": "25d135848e086fe8749190297ad9d094", "fusion_lon": 0.0, "name": "25d135848e086fe8749190297ad9d094", "lat": 38.91173883333333, "is_disabled": 0, "is_reserved": 0, "lon": -77.02829716666666, "type": "electric_scooter", "fusion_lat": 0.0, "rental_uris": {"android": "https://dc.lft.to/lastmile_qr_scan", "ios": "https://dc.lft.to/lastmile_qr_scan"}}, {"bike_id": "c3165d50df8318be062c720b44a21af7", "fusion_lon": 0.0, "name": "c3165d50df8318be062c720b44a21af7", "lat": 38.93531816666667, "is_disabled": 0, "is_reserved": 0, "lon": -77.02346433333334, "type": "electric_scooter", "fusion_lat": 0.0, "rental_uris": {"android": "https://dc.lft.to/lastmile_qr_scan", "ios": "https://dc.lft.to/lastmile_qr_scan"}}, {"bike_id": "82fbd248ae74e68f40000da9001e0c68", "fusion_lon": 0.0, "name": "82fbd248ae74e68f40000da9001e0c68", "lat": 38.91616466666667, "is_disabled": 0, "is_reserved": 0, "lon": -77.048796, "type": "electric_scooter", "fusion_lat": 0.0, "rental_uris": {"android": "https://dc.lft.to/lastmile_qr_scan", "ios": "https://dc.lft.to/lastmile_qr_scan"}}, {"bike_id": "2ae83caba8750d4f996820fb42ca03cb", "fusion_lon": 0.0, "name": "2ae83caba8750d4f996820fb42ca03cb", "lat": 38.838684666666666, "is_disabled": 0, "is_reserved": 0, "lon": -76.99694033333333, "type": "electric_scooter", "fusion_lat": 0.0, "rental_uris": {"android": "https://dc.lft.to/lastmile_qr_scan", "ios": "https://dc.lft.to/lastmile_qr_scan"}}, {"bike_id": "76a5ab3b2b43ae48f383e38566ef8e42", "fusion_lon": 0.0, "name": "76a5ab3b2b43ae48f383e38566ef8e42", "lat": 38.92701433333333, "is_disabled": 0, "is_reserved": 0, "lon": -77.02440333333334, "type": "electric_scooter", "fusion_lat": 0.0, "rental_uris": {"android": "https://dc.lft.to/lastmile_qr_scan", "ios": "https://dc.lft.to/lastmile_qr_scan"}}, {"bike_id": "74cb94e27c186c2bf28a968370523f17", "fusion_lon": 0.0, "name": "74cb94e27c186c2bf28a968370523f17", "lat": 38.90798, "is_disabled": 0, "is_reserved": 0, "lon": -77.04339916666666, "type": "electric_scooter", "fusion_lat": 0.0, "rental_uris": {"android": "https://dc.lft.to/lastmile_qr_scan", "ios": "https://dc.lft.to/lastmile_qr_scan"}}, {"bike_id": "af2d09c8bf4561ac44905b49f54c74b0", "fusion_lon": 0.0, "name": "af2d09c8bf4561ac44905b49f54c74b0", "lat": 38.87813116666667, "is_disabled": 0, "is_reserved": 0, "lon": -76.99006183333333, "type": "electric_scooter", "fusion_lat": 0.0, "rental_uris": {"android": "https://dc.lft.to/lastmile_qr_scan", "ios": "https://dc.lft.to/lastmile_qr_scan"}}, {"bike_id": "56561f13ccae78fe79198e768b551b92", "fusion_lon": 0.0, "name": "56561f13ccae78fe79198e768b551b92", "lat": 38.884933333333336, "is_disabled": 0, "is_reserved": 0, "lon": -76.9564245, "type": "electric_scooter", "fusion_lat": 0.0, "rental_uris": {"android": "https://dc.lft.to/lastmile_qr_scan", "ios": "https://dc.lft.to/lastmile_qr_scan"}}, {"bike_id": "7f42d9e7d4be6965f7533a18eb5aca29", "fusion_lon": 0.0, "name": "7f42d9e7d4be6965f7533a18eb5aca29", "lat": 38.93098116666667, "is_disabled": 0, "is_reserved": 0, "lon": -77.02479966666667, "type": "electric_scooter", "fusion_lat": 0.0, "rental_uris": {"android": "https://dc.lft.to/lastmile_qr_scan", "ios": "https://dc.lft.to/lastmile_qr_scan"}}, {"bike_id": "cde65ed0c2f7cb24ea5f7ff1943db339", "fusion_lon": 0.0, "name": "cde65ed0c2f7cb24ea5f7ff1943db339", "lat": 38.91336416666667, "is_disabled": 0, "is_reserved": 0, "lon": -77.03172933333333, "type": "electric_scooter", "fusion_lat": 0.0, "rental_uris": {"android": "https://dc.lft.to/lastmile_qr_scan", "ios": "https://dc.lft.to/lastmile_qr_scan"}}, {"bike_id": "47ee8716fcf5d2e7113d4da46c5da946", "fusion_lon": 0.0, "name": "47ee8716fcf5d2e7113d4da46c5da946", "lat": 38.8557755, "is_disabled": 0, "is_reserved": 0, "lon": -76.96658733333334, "type": "electric_scooter", "fusion_lat": 0.0, "rental_uris": {"android": "https://dc.lft.to/lastmile_qr_scan", "ios": "https://dc.lft.to/lastmile_qr_scan"}}, {"bike_id": "a6f9474bc3662bec70d16b6ce4fa2f15", "fusion_lon": 0.0, "name": "a6f9474bc3662bec70d16b6ce4fa2f15", "lat": 38.9136305, "is_disabled": 0, "is_reserved": 0, "lon": -77.03841333333334, "type": "electric_scooter", "fusion_lat": 0.0, "rental_uris": {"android": "https://dc.lft.to/lastmile_qr_scan", "ios": "https://dc.lft.to/lastmile_qr_scan"}}, {"bike_id": "33789727f852df8db728575949a9b00e", "fusion_lon": 0.0, "name": "33789727f852df8db728575949a9b00e", "lat": 38.8922475, "is_disabled": 0, "is_reserved": 0, "lon": -77.02779766666667, "type": "electric_scooter", "fusion_lat": 0.0, "rental_uris": {"android": "https://dc.lft.to/lastmile_qr_scan", "ios": "https://dc.lft.to/lastmile_qr_scan"}}, {"bike_id": "7f09745e1e6ec770ca6fa148e80c8258", "fusion_lon": 0.0, "name": "7f09745e1e6ec770ca6fa148e80c8258", "lat": 38.903036166666666, "is_disabled": 0, "is_reserved": 0, "lon": -77.0446575, "type": "electric_scooter", "fusion_lat": 0.0, "rental_uris": {"android": "https://dc.lft.to/lastmile_qr_scan", "ios": "https://dc.lft.to/lastmile_qr_scan"}}, {"bike_id": "0bf2b9b941a36fd6c4c0e7df5030165e", "fusion_lon": 0.0, "name": "0bf2b9b941a36fd6c4c0e7df5030165e", "lat": 38.90439116666667, "is_disabled": 0, "is_reserved": 0, "lon": -77.04072933333333, "type": "electric_scooter", "fusion_lat": 0.0, "rental_uris": {"android": "https://dc.lft.to/lastmile_qr_scan", "ios": "https://dc.lft.to/lastmile_qr_scan"}}, {"bike_id": "4c26ed8a34bfb2bcf6e245b7d3fc0755", "fusion_lon": 0.0, "name": "4c26ed8a34bfb2bcf6e245b7d3fc0755", "lat": 38.92031466666667, "is_disabled": 0, "is_reserved": 0, "lon": -77.0408585, "type": "electric_scooter", "fusion_lat": 0.0, "rental_uris": {"android": "https://dc.lft.to/lastmile_qr_scan", "ios": "https://dc.lft.to/lastmile_qr_scan"}}, {"bike_id": "cc25e2480ad965f1995537d2e54b2577", "fusion_lon": 0.0, "name": "cc25e2480ad965f1995537d2e54b2577", "lat": 38.923638833333335, "is_disabled": 0, "is_reserved": 0, "lon": -77.05025933333333, "type": "electric_scooter", "fusion_lat": 0.0, "rental_uris": {"android": "https://dc.lft.to/lastmile_qr_scan", "ios": "https://dc.lft.to/lastmile_qr_scan"}}, {"bike_id": "f6c5523ad15325bbef11cb92a75ed44a", "fusion_lon": 0.0, "name": "f6c5523ad15325bbef11cb92a75ed44a", "lat": 38.895867, "is_disabled": 0, "is_reserved": 0, "lon": -77.0263525, "type": "electric_scooter", "fusion_lat": 0.0, "rental_uris": {"android": "https://dc.lft.to/lastmile_qr_scan", "ios": "https://dc.lft.to/lastmile_qr_scan"}}, {"bike_id": "56362bed373f2599e571cb163ff6af56", "fusion_lon": 0.0, "name": "56362bed373f2599e571cb163ff6af56", "lat": 38.89846816666667, "is_disabled": 0, "is_reserved": 0, "lon": -77.02856683333333, "type": "electric_scooter", "fusion_lat": 0.0, "rental_uris": {"android": "https://dc.lft.to/lastmile_qr_scan", "ios": "https://dc.lft.to/lastmile_qr_scan"}}, {"bike_id": "7e66c7ba31196f913b9470a83c03b6c1", "fusion_lon": 0.0, "name": "7e66c7ba31196f913b9470a83c03b6c1", "lat": 38.899204833333336, "is_disabled": 0, "is_reserved": 0, "lon": -76.98537516666667, "type": "electric_scooter", "fusion_lat": 0.0, "rental_uris": {"android": "https://dc.lft.to/lastmile_qr_scan", "ios": "https://dc.lft.to/lastmile_qr_scan"}}, {"bike_id": "e5e50e7f82ce871d87b7be0846f933be", "fusion_lon": 0.0, "name": "e5e50e7f82ce871d87b7be0846f933be", "lat": 38.88428116666667, "is_disabled": 0, "is_reserved": 0, "lon": -76.95757083333334, "type": "electric_scooter", "fusion_lat": 0.0, "rental_uris": {"android": "https://dc.lft.to/lastmile_qr_scan", "ios": "https://dc.lft.to/lastmile_qr_scan"}}, {"bike_id": "cdc5a889161e131de07832b224744389", "fusion_lon": 0.0, "name": "cdc5a889161e131de07832b224744389", "lat": 38.92062216666667, "is_disabled": 0, "is_reserved": 0, "lon": -77.04224216666667, "type": "electric_scooter", "fusion_lat": 0.0, "rental_uris": {"android": "https://dc.lft.to/lastmile_qr_scan", "ios": "https://dc.lft.to/lastmile_qr_scan"}}, {"bike_id": "4fabf90802f3a8c81469b5fff734cc39", "fusion_lon": 0.0, "name": "4fabf90802f3a8c81469b5fff734cc39", "lat": 38.92413883333333, "is_disabled": 0, "is_reserved": 0, "lon": -76.99746216666666, "type": "electric_scooter", "fusion_lat": 0.0, "rental_uris": {"android": "https://dc.lft.to/lastmile_qr_scan", "ios": "https://dc.lft.to/lastmile_qr_scan"}}, {"bike_id": "aa54f1d42431c51ac8a719802bb84286", "fusion_lon": 0.0, "name": "aa54f1d42431c51ac8a719802bb84286", "lat": 38.91997683333334, "is_disabled": 0, "is_reserved": 0, "lon": -77.07189283333334, "type": "electric_scooter", "fusion_lat": 0.0, "rental_uris": {"android": "https://dc.lft.to/lastmile_qr_scan", "ios": "https://dc.lft.to/lastmile_qr_scan"}}, {"bike_id": "dcc057d87420bfde762ad7afccd0c5e6", "fusion_lon": 0.0, "name": "dcc057d87420bfde762ad7afccd0c5e6", "lat": 38.901929, "is_disabled": 0, "is_reserved": 0, "lon": -77.025932, "type": "electric_scooter", "fusion_lat": 0.0, "rental_uris": {"android": "https://dc.lft.to/lastmile_qr_scan", "ios": "https://dc.lft.to/lastmile_qr_scan"}}, {"bike_id": "8397e8fab2ed1fe982960695a1451782", "fusion_lon": 0.0, "name": "8397e8fab2ed1fe982960695a1451782", "lat": 38.917127, "is_disabled": 0, "is_reserved": 0, "lon": -77.0317505, "type": "electric_scooter", "fusion_lat": 0.0, "rental_uris": {"android": "https://dc.lft.to/lastmile_qr_scan", "ios": "https://dc.lft.to/lastmile_qr_scan"}}, {"bike_id": "c2ea1a77a0ea0d63f4ebaa3dfe691606", "fusion_lon": 0.0, "name": "c2ea1a77a0ea0d63f4ebaa3dfe691606", "lat": 38.898405833333335, "is_disabled": 0, "is_reserved": 0, "lon": -77.01338616666666, "type": "electric_scooter", "fusion_lat": 0.0, "rental_uris": {"android": "https://dc.lft.to/lastmile_qr_scan", "ios": "https://dc.lft.to/lastmile_qr_scan"}}, {"bike_id": "5e33b8cb1454a090294eec8cb6433df3", "fusion_lon": 0.0, "name": "5e33b8cb1454a090294eec8cb6433df3", "lat": 38.88302866666667, "is_disabled": 0, "is_reserved": 0, "lon": -76.948567, "type": "electric_scooter", "fusion_lat": 0.0, "rental_uris": {"android": "https://dc.lft.to/lastmile_qr_scan", "ios": "https://dc.lft.to/lastmile_qr_scan"}}, {"bike_id": "d71fe8ca06a225e139db92dff0ab3021", "fusion_lon": 0.0, "name": "d71fe8ca06a225e139db92dff0ab3021", "lat": 38.96682766666667, "is_disabled": 0, "is_reserved": 0, "lon": -77.02252483333334, "type": "electric_bike", "fusion_lat": 0.0, "rental_uris": {"android": "https://dc.lft.to/lastmile_qr_scan", "ios": "https://dc.lft.to/lastmile_qr_scan"}}, {"bike_id": "b8df8a30d1edc6fcb19a7ca9eafa9447", "fusion_lon": 0.0, "name": "b8df8a30d1edc6fcb19a7ca9eafa9447", "lat": 38.89232883333333, "is_disabled": 0, "is_reserved": 0, "lon": -77.0260845, "type": "electric_scooter", "fusion_lat": 0.0, "rental_uris": {"android": "https://dc.lft.to/lastmile_qr_scan", "ios": "https://dc.lft.to/lastmile_qr_scan"}}, {"bike_id": "bb778131f76c45c8e2cd37655bb6df61", "fusion_lon": 0.0, "name": "bb778131f76c45c8e2cd37655bb6df61", "lat": 38.925184333333334, "is_disabled": 0, "is_reserved": 0, "lon": -77.022887, "type": "electric_scooter", "fusion_lat": 0.0, "rental_uris": {"android": "https://dc.lft.to/lastmile_qr_scan", "ios": "https://dc.lft.to/lastmile_qr_scan"}}, {"bike_id": "d3a13dc9ac423623522a1567463a45f3", "fusion_lon": 0.0, "name": "d3a13dc9ac423623522a1567463a45f3", "lat": 38.901386333333335, "is_disabled": 0, "is_reserved": 0, "lon": -77.02884466666667, "type": "electric_scooter", "fusion_lat": 0.0, "rental_uris": {"android": "https://dc.lft.to/lastmile_qr_scan", "ios": "https://dc.lft.to/lastmile_qr_scan"}}, {"bike_id": "974dc1717642771438292a7970b67707", "fusion_lon": 0.0, "name": "974dc1717642771438292a7970b67707", "lat": 38.9522045, "is_disabled": 0, "is_reserved": 0, "lon": -77.082166, "type": "electric_scooter", "fusion_lat": 0.0, "rental_uris": {"android": "https://dc.lft.to/lastmile_qr_scan", "ios": "https://dc.lft.to/lastmile_qr_scan"}}, {"bike_id": "2e4bbd3257c310fd0ef9028c5d1602a3", "fusion_lon": 0.0, "name": "2e4bbd3257c310fd0ef9028c5d1602a3", "lat": 38.938705666666664, "is_disabled": 0, "is_reserved": 0, "lon": -77.0248465, "type": "electric_scooter", "fusion_lat": 0.0, "rental_uris": {"android": "https://dc.lft.to/lastmile_qr_scan", "ios": "https://dc.lft.to/lastmile_qr_scan"}}, {"bike_id": "e4e8629617c5a7f47cef7a015a3c74df", "fusion_lon": 0.0, "name": "e4e8629617c5a7f47cef7a015a3c74df", "lat": 38.8793245, "is_disabled": 0, "is_reserved": 0, "lon": -77.00922433333334, "type": "electric_scooter", "fusion_lat": 0.0, "rental_uris": {"android": "https://dc.lft.to/lastmile_qr_scan", "ios": "https://dc.lft.to/lastmile_qr_scan"}}, {"bike_id": "6890b30493c4152630f808ebadfc5777", "fusion_lon": 0.0, "name": "6890b30493c4152630f808ebadfc5777", "lat": 38.85415716666667, "is_disabled": 0, "is_reserved": 0, "lon": -77.120791, "type": "electric_bike", "fusion_lat": 0.0, "rental_uris": {"android": "https://dc.lft.to/lastmile_qr_scan", "ios": "https://dc.lft.to/lastmile_qr_scan"}}, {"bike_id": "faf7bc060a181eb31d282f6e0e06cda0", "fusion_lon": 0.0, "name": "faf7bc060a181eb31d282f6e0e06cda0", "lat": 38.898774, "is_disabled": 0, "is_reserved": 0, "lon": -77.0528285, "type": "electric_scooter", "fusion_lat": 0.0, "rental_uris": {"android": "https://dc.lft.to/lastmile_qr_scan", "ios": "https://dc.lft.to/lastmile_qr_scan"}}, {"bike_id": "62e4ec207e72bb7ee8ee62fbdb62110d", "fusion_lon": 0.0, "name": "62e4ec207e72bb7ee8ee62fbdb62110d", "lat": 38.895436, "is_disabled": 0, "is_reserved": 0, "lon": -76.982092, "type": "electric_scooter", "fusion_lat": 0.0, "rental_uris": {"android": "https://dc.lft.to/lastmile_qr_scan", "ios": "https://dc.lft.to/lastmile_qr_scan"}}, {"bike_id": "5c7e87ffc49e50a58e7f929dec29cbc8", "fusion_lon": 0.0, "name": "5c7e87ffc49e50a58e7f929dec29cbc8", "lat": 38.919879333333334, "is_disabled": 0, "is_reserved": 0, "lon": -77.0182695, "type": "electric_scooter", "fusion_lat": 0.0, "rental_uris": {"android": "https://dc.lft.to/lastmile_qr_scan", "ios": "https://dc.lft.to/lastmile_qr_scan"}}, {"bike_id": "7020b083fb891da53c6383c77eb24ef6", "fusion_lon": 0.0, "name": "7020b083fb891da53c6383c77eb24ef6", "lat": 38.897095166666666, "is_disabled": 0, "is_reserved": 0, "lon": -77.00843533333334, "type": "electric_scooter", "fusion_lat": 0.0, "rental_uris": {"android": "https://dc.lft.to/lastmile_qr_scan", "ios": "https://dc.lft.to/lastmile_qr_scan"}}, {"bike_id": "213467a06ed2257f2b5a1cf844f89713", "fusion_lon": 0.0, "name": "213467a06ed2257f2b5a1cf844f89713", "lat": 38.81603033333333, "is_disabled": 0, "is_reserved": 0, "lon": -77.05059116666666, "type": "electric_bike", "fusion_lat": 0.0, "rental_uris": {"android": "https://dc.lft.to/lastmile_qr_scan", "ios": "https://dc.lft.to/lastmile_qr_scan"}}, {"bike_id": "d8ae8055eae45da94012555dc9858da4", "fusion_lon": 0.0, "name": "d8ae8055eae45da94012555dc9858da4", "lat": 38.907918333333335, "is_disabled": 0, "is_reserved": 0, "lon": -77.045023, "type": "electric_scooter", "fusion_lat": 0.0, "rental_uris": {"android": "https://dc.lft.to/lastmile_qr_scan", "ios": "https://dc.lft.to/lastmile_qr_scan"}}, {"bike_id": "969f73493b6554d2d21cb53df673cfc1", "fusion_lon": 0.0, "name": "969f73493b6554d2d21cb53df673cfc1", "lat": 38.902145, "is_disabled": 0, "is_reserved": 0, "lon": -77.02226616666667, "type": "electric_scooter", "fusion_lat": 0.0, "rental_uris": {"android": "https://dc.lft.to/lastmile_qr_scan", "ios": "https://dc.lft.to/lastmile_qr_scan"}}, {"bike_id": "03bc338d9fc191cbc16d9b784815756b", "fusion_lon": 0.0, "name": "03bc338d9fc191cbc16d9b784815756b", "lat": 38.90837466666667, "is_disabled": 0, "is_reserved": 0, "lon": -77.02337483333334, "type": "electric_scooter", "fusion_lat": 0.0, "rental_uris": {"android": "https://dc.lft.to/lastmile_qr_scan", "ios": "https://dc.lft.to/lastmile_qr_scan"}}, {"bike_id": "8fe5d3eeb1788c2a47d37a42f78e8560", "fusion_lon": 0.0, "name": "8fe5d3eeb1788c2a47d37a42f78e8560", "lat": 38.90269816666667, "is_disabled": 0, "is_reserved": 0, "lon": -77.0316395, "type": "electric_scooter", "fusion_lat": 0.0, "rental_uris": {"android": "https://dc.lft.to/lastmile_qr_scan", "ios": "https://dc.lft.to/lastmile_qr_scan"}}, {"bike_id": "3c74426af05daa5f804b99cabe7944c7", "fusion_lon": 0.0, "name": "3c74426af05daa5f804b99cabe7944c7", "lat": 38.89997483333333, "is_disabled": 0, "is_reserved": 0, "lon": -77.023349, "type": "electric_scooter", "fusion_lat": 0.0, "rental_uris": {"android": "https://dc.lft.to/lastmile_qr_scan", "ios": "https://dc.lft.to/lastmile_qr_scan"}}, {"bike_id": "f41ac00b9ec2f10b31553e55a0cad80a", "fusion_lon": 0.0, "name": "f41ac00b9ec2f10b31553e55a0cad80a", "lat": 38.90260516666667, "is_disabled": 0, "is_reserved": 0, "lon": -77.008873, "type": "electric_scooter", "fusion_lat": 0.0, "rental_uris": {"android": "https://dc.lft.to/lastmile_qr_scan", "ios": "https://dc.lft.to/lastmile_qr_scan"}}, {"bike_id": "10df280495de52365c98e35b67290d67", "fusion_lon": 0.0, "name": "10df280495de52365c98e35b67290d67", "lat": 38.898483166666665, "is_disabled": 0, "is_reserved": 0, "lon": -77.018745, "type": "electric_scooter", "fusion_lat": 0.0, "rental_uris": {"android": "https://dc.lft.to/lastmile_qr_scan", "ios": "https://dc.lft.to/lastmile_qr_scan"}}, {"bike_id": "72926fbdc778642ca9eece608626e485", "fusion_lon": 0.0, "name": "72926fbdc778642ca9eece608626e485", "lat": 38.8872845, "is_disabled": 0, "is_reserved": 0, "lon": -77.02582266666667, "type": "electric_scooter", "fusion_lat": 0.0, "rental_uris": {"android": "https://dc.lft.to/lastmile_qr_scan", "ios": "https://dc.lft.to/lastmile_qr_scan"}}, {"bike_id": "1e25315d991fe4531f8ecde14c7e3032", "fusion_lon": 0.0, "name": "1e25315d991fe4531f8ecde14c7e3032", "lat": 38.923723333333335, "is_disabled": 0, "is_reserved": 0, "lon": -77.03131833333333, "type": "electric_scooter", "fusion_lat": 0.0, "rental_uris": {"android": "https://dc.lft.to/lastmile_qr_scan", "ios": "https://dc.lft.to/lastmile_qr_scan"}}, {"bike_id": "919adaa0b900e2aac8c00cd81ec602eb", "fusion_lon": 0.0, "name": "919adaa0b900e2aac8c00cd81ec602eb", "lat": 38.90306566666667, "is_disabled": 0, "is_reserved": 0, "lon": -77.0602345, "type": "electric_scooter", "fusion_lat": 0.0, "rental_uris": {"android": "https://dc.lft.to/lastmile_qr_scan", "ios": "https://dc.lft.to/lastmile_qr_scan"}}, {"bike_id": "2097615342c9ab6d4f9ee2cb298985d5", "fusion_lon": 0.0, "name": "2097615342c9ab6d4f9ee2cb298985d5", "lat": 38.8832295, "is_disabled": 0, "is_reserved": 0, "lon": -77.0176965, "type": "electric_scooter", "fusion_lat": 0.0, "rental_uris": {"android": "https://dc.lft.to/lastmile_qr_scan", "ios": "https://dc.lft.to/lastmile_qr_scan"}}, {"bike_id": "5d1dc14d5db8bc76d4f6cc5c1920a198", "fusion_lon": 0.0, "name": "5d1dc14d5db8bc76d4f6cc5c1920a198", "lat": 38.9018695, "is_disabled": 0, "is_reserved": 0, "lon": -77.02752366666667, "type": "electric_scooter", "fusion_lat": 0.0, "rental_uris": {"android": "https://dc.lft.to/lastmile_qr_scan", "ios": "https://dc.lft.to/lastmile_qr_scan"}}, {"bike_id": "c58c16aac4cb4a88524851b735e38c2d", "fusion_lon": 0.0, "name": "c58c16aac4cb4a88524851b735e38c2d", "lat": 38.917013, "is_disabled": 0, "is_reserved": 0, "lon": -77.03333583333334, "type": "electric_scooter", "fusion_lat": 0.0, "rental_uris": {"android": "https://dc.lft.to/lastmile_qr_scan", "ios": "https://dc.lft.to/lastmile_qr_scan"}}, {"bike_id": "d5d3bd064c0e233e428585f1f60bb90b", "fusion_lon": 0.0, "name": "d5d3bd064c0e233e428585f1f60bb90b", "lat": 38.924546166666666, "is_disabled": 0, "is_reserved": 0, "lon": -77.06734683333333, "type": "electric_bike", "fusion_lat": 0.0, "rental_uris": {"android": "https://dc.lft.to/lastmile_qr_scan", "ios": "https://dc.lft.to/lastmile_qr_scan"}}, {"bike_id": "d3a6b5857b7a94d87a75483e9d0a8c3e", "fusion_lon": 0.0, "name": "d3a6b5857b7a94d87a75483e9d0a8c3e", "lat": 38.903026, "is_disabled": 0, "is_reserved": 0, "lon": -77.03204166666667, "type": "electric_scooter", "fusion_lat": 0.0, "rental_uris": {"android": "https://dc.lft.to/lastmile_qr_scan", "ios": "https://dc.lft.to/lastmile_qr_scan"}}, {"bike_id": "443f4c9e7bbe9d17d0b49125d849a83f", "fusion_lon": 0.0, "name": "443f4c9e7bbe9d17d0b49125d849a83f", "lat": 38.956361, "is_disabled": 0, "is_reserved": 0, "lon": -77.033018, "type": "electric_scooter", "fusion_lat": 0.0, "rental_uris": {"android": "https://dc.lft.to/lastmile_qr_scan", "ios": "https://dc.lft.to/lastmile_qr_scan"}}, {"bike_id": "4161bc22ece9b08cf61e4b7ed82ae4a3", "fusion_lon": 0.0, "name": "4161bc22ece9b08cf61e4b7ed82ae4a3", "lat": 38.91777583333333, "is_disabled": 0, "is_reserved": 0, "lon": -77.04101466666667, "type": "electric_scooter", "fusion_lat": 0.0, "rental_uris": {"android": "https://dc.lft.to/lastmile_qr_scan", "ios": "https://dc.lft.to/lastmile_qr_scan"}}, {"bike_id": "e45933525339b61234be0552753605e8", "fusion_lon": 0.0, "name": "e45933525339b61234be0552753605e8", "lat": 38.8898955, "is_disabled": 0, "is_reserved": 0, "lon": -76.98739866666666, "type": "electric_scooter", "fusion_lat": 0.0, "rental_uris": {"android": "https://dc.lft.to/lastmile_qr_scan", "ios": "https://dc.lft.to/lastmile_qr_scan"}}, {"bike_id": "79e00c2ea6ebb7fe42299b3c5123b342", "fusion_lon": 0.0, "name": "79e00c2ea6ebb7fe42299b3c5123b342", "lat": 38.89490416666666, "is_disabled": 0, "is_reserved": 0, "lon": -77.01115583333333, "type": "electric_scooter", "fusion_lat": 0.0, "rental_uris": {"android": "https://dc.lft.to/lastmile_qr_scan", "ios": "https://dc.lft.to/lastmile_qr_scan"}}, {"bike_id": "48ec6855fe06434362bc9545ce89fc86", "fusion_lon": 0.0, "name": "48ec6855fe06434362bc9545ce89fc86", "lat": 38.87892016666667, "is_disabled": 0, "is_reserved": 0, "lon": -77.02209483333333, "type": "electric_scooter", "fusion_lat": 0.0, "rental_uris": {"android": "https://dc.lft.to/lastmile_qr_scan", "ios": "https://dc.lft.to/lastmile_qr_scan"}}, {"bike_id": "738e71de9baf90fd0ad42b78dba0d017", "fusion_lon": 0.0, "name": "738e71de9baf90fd0ad42b78dba0d017", "lat": 38.89824016666667, "is_disabled": 0, "is_reserved": 0, "lon": -77.03159333333333, "type": "electric_scooter", "fusion_lat": 0.0, "rental_uris": {"android": "https://dc.lft.to/lastmile_qr_scan", "ios": "https://dc.lft.to/lastmile_qr_scan"}}, {"bike_id": "53bd09c034cdf74a0f006200bf6cbe84", "fusion_lon": 0.0, "name": "53bd09c034cdf74a0f006200bf6cbe84", "lat": 38.9308095, "is_disabled": 0, "is_reserved": 0, "lon": -77.03765616666666, "type": "electric_scooter", "fusion_lat": 0.0, "rental_uris": {"android": "https://dc.lft.to/lastmile_qr_scan", "ios": "https://dc.lft.to/lastmile_qr_scan"}}, {"bike_id": "b403ceba99b191cba4ad30eb7f667540", "fusion_lon": 0.0, "name": "b403ceba99b191cba4ad30eb7f667540", "lat": 38.923168833333335, "is_disabled": 0, "is_reserved": 0, "lon": -77.0428675, "type": "electric_scooter", "fusion_lat": 0.0, "rental_uris": {"android": "https://dc.lft.to/lastmile_qr_scan", "ios": "https://dc.lft.to/lastmile_qr_scan"}}, {"bike_id": "693227a03a878042f0644775cd605104", "fusion_lon": 0.0, "name": "693227a03a878042f0644775cd605104", "lat": 38.920986166666665, "is_disabled": 0, "is_reserved": 0, "lon": -77.04708433333333, "type": "electric_scooter", "fusion_lat": 0.0, "rental_uris": {"android": "https://dc.lft.to/lastmile_qr_scan", "ios": "https://dc.lft.to/lastmile_qr_scan"}}, {"bike_id": "65812d97321b04bbdd562305baba8960", "fusion_lon": 0.0, "name": "65812d97321b04bbdd562305baba8960", "lat": 38.91154916666667, "is_disabled": 0, "is_reserved": 0, "lon": -77.00201666666666, "type": "electric_bike", "fusion_lat": 0.0, "rental_uris": {"android": "https://dc.lft.to/lastmile_qr_scan", "ios": "https://dc.lft.to/lastmile_qr_scan"}}, {"bike_id": "20af129fd7eb692fa0f5ec5b41f8096d", "fusion_lon": 0.0, "name": "20af129fd7eb692fa0f5ec5b41f8096d", "lat": 38.909707166666664, "is_disabled": 0, "is_reserved": 0, "lon": -77.04574366666667, "type": "electric_scooter", "fusion_lat": 0.0, "rental_uris": {"android": "https://dc.lft.to/lastmile_qr_scan", "ios": "https://dc.lft.to/lastmile_qr_scan"}}, {"bike_id": "60197c7335848af44df3872ed2363696", "fusion_lon": 0.0, "name": "60197c7335848af44df3872ed2363696", "lat": 38.891918833333335, "is_disabled": 0, "is_reserved": 0, "lon": -77.0235905, "type": "electric_bike", "fusion_lat": 0.0, "rental_uris": {"android": "https://dc.lft.to/lastmile_qr_scan", "ios": "https://dc.lft.to/lastmile_qr_scan"}}, {"bike_id": "48ccbecd2654697771bfe6bd9d01b58d", "fusion_lon": 0.0, "name": "48ccbecd2654697771bfe6bd9d01b58d", "lat": 38.864617333333335, "is_disabled": 0, "is_reserved": 0, "lon": -76.945263, "type": "electric_bike", "fusion_lat": 0.0, "rental_uris": {"android": "https://dc.lft.to/lastmile_qr_scan", "ios": "https://dc.lft.to/lastmile_qr_scan"}}, {"bike_id": "fbc3ad88ea8ce542bb5be5b0e15d23e6", "fusion_lon": 0.0, "name": "fbc3ad88ea8ce542bb5be5b0e15d23e6", "lat": 38.892249666666665, "is_disabled": 0, "is_reserved": 0, "lon": -77.04193533333333, "type": "electric_scooter", "fusion_lat": 0.0, "rental_uris": {"android": "https://dc.lft.to/lastmile_qr_scan", "ios": "https://dc.lft.to/lastmile_qr_scan"}}, {"bike_id": "b08ec7502b2361cc31bf880fc0e612a6", "fusion_lon": 0.0, "name": "b08ec7502b2361cc31bf880fc0e612a6", "lat": 38.9054205, "is_disabled": 0, "is_reserved": 0, "lon": -77.04624283333334, "type": "electric_scooter", "fusion_lat": 0.0, "rental_uris": {"android": "https://dc.lft.to/lastmile_qr_scan", "ios": "https://dc.lft.to/lastmile_qr_scan"}}, {"bike_id": "f9b9bcdd34e8300e29c0557e89adb73d", "fusion_lon": 0.0, "name": "f9b9bcdd34e8300e29c0557e89adb73d", "lat": 38.938753166666665, "is_disabled": 0, "is_reserved": 0, "lon": -77.02481566666667, "type": "electric_scooter", "fusion_lat": 0.0, "rental_uris": {"android": "https://dc.lft.to/lastmile_qr_scan", "ios": "https://dc.lft.to/lastmile_qr_scan"}}, {"bike_id": "7ef9445000367fe98e9bc6005f42f373", "fusion_lon": 0.0, "name": "7ef9445000367fe98e9bc6005f42f373", "lat": 38.9210995, "is_disabled": 0, "is_reserved": 0, "lon": -77.0632835, "type": "electric_bike", "fusion_lat": 0.0, "rental_uris": {"android": "https://dc.lft.to/lastmile_qr_scan", "ios": "https://dc.lft.to/lastmile_qr_scan"}}, {"bike_id": "7a999df86b3c84ce895b707f93fbed0d", "fusion_lon": 0.0, "name": "7a999df86b3c84ce895b707f93fbed0d", "lat": 38.92838716666667, "is_disabled": 0, "is_reserved": 0, "lon": -77.01406183333333, "type": "electric_scooter", "fusion_lat": 0.0, "rental_uris": {"android": "https://dc.lft.to/lastmile_qr_scan", "ios": "https://dc.lft.to/lastmile_qr_scan"}}, {"bike_id": "530c0d5d916710920ee2eba594bff5cf", "fusion_lon": 0.0, "name": "530c0d5d916710920ee2eba594bff5cf", "lat": 38.97839916666667, "is_disabled": 0, "is_reserved": 0, "lon": -77.09088483333333, "type": "electric_bike", "fusion_lat": 0.0, "rental_uris": {"android": "https://dc.lft.to/lastmile_qr_scan", "ios": "https://dc.lft.to/lastmile_qr_scan"}}, {"bike_id": "e010d937e2dea70e0919ae00666c894f", "fusion_lon": 0.0, "name": "e010d937e2dea70e0919ae00666c894f", "lat": 38.883578, "is_disabled": 0, "is_reserved": 0, "lon": -76.982184, "type": "electric_scooter", "fusion_lat": 0.0, "rental_uris": {"android": "https://dc.lft.to/lastmile_qr_scan", "ios": "https://dc.lft.to/lastmile_qr_scan"}}, {"bike_id": "8b825e4715b0a3f16eef71702fd6b476", "fusion_lon": 0.0, "name": "8b825e4715b0a3f16eef71702fd6b476", "lat": 38.90490883333333, "is_disabled": 0, "is_reserved": 0, "lon": -76.97425566666666, "type": "electric_bike", "fusion_lat": 0.0, "rental_uris": {"android": "https://dc.lft.to/lastmile_qr_scan", "ios": "https://dc.lft.to/lastmile_qr_scan"}}, {"bike_id": "20899f74eee201bf95c497aa86b6800d", "fusion_lon": 0.0, "name": "20899f74eee201bf95c497aa86b6800d", "lat": 38.91819566666667, "is_disabled": 0, "is_reserved": 0, "lon": -77.0271565, "type": "electric_scooter", "fusion_lat": 0.0, "rental_uris": {"android": "https://dc.lft.to/lastmile_qr_scan", "ios": "https://dc.lft.to/lastmile_qr_scan"}}, {"bike_id": "2610e8df232200ade02582a386bbda2c", "fusion_lon": 0.0, "name": "2610e8df232200ade02582a386bbda2c", "lat": 38.922587166666666, "is_disabled": 0, "is_reserved": 0, "lon": -77.02993783333334, "type": "electric_scooter", "fusion_lat": 0.0, "rental_uris": {"android": "https://dc.lft.to/lastmile_qr_scan", "ios": "https://dc.lft.to/lastmile_qr_scan"}}, {"bike_id": "363f55373ab82b24ce8429960a391df3", "fusion_lon": 0.0, "name": "363f55373ab82b24ce8429960a391df3", "lat": 38.89902333333333, "is_disabled": 0, "is_reserved": 0, "lon": -77.0272055, "type": "electric_scooter", "fusion_lat": 0.0, "rental_uris": {"android": "https://dc.lft.to/lastmile_qr_scan", "ios": "https://dc.lft.to/lastmile_qr_scan"}}, {"bike_id": "a32e68f8bea10b74996f73317b7b7ddb", "fusion_lon": 0.0, "name": "a32e68f8bea10b74996f73317b7b7ddb", "lat": 38.88721183333333, "is_disabled": 0, "is_reserved": 0, "lon": -77.013298, "type": "electric_scooter", "fusion_lat": 0.0, "rental_uris": {"android": "https://dc.lft.to/lastmile_qr_scan", "ios": "https://dc.lft.to/lastmile_qr_scan"}}, {"bike_id": "50347d2295ce2fe78556efb171b50479", "fusion_lon": 0.0, "name": "50347d2295ce2fe78556efb171b50479", "lat": 38.946596, "is_disabled": 0, "is_reserved": 0, "lon": -77.006962, "type": "electric_bike", "fusion_lat": 0.0, "rental_uris": {"android": "https://dc.lft.to/lastmile_qr_scan", "ios": "https://dc.lft.to/lastmile_qr_scan"}}, {"bike_id": "80f8abd3608a1d7d88c3c4beb6fc2317", "fusion_lon": 0.0, "name": "80f8abd3608a1d7d88c3c4beb6fc2317", "lat": 38.91772183333333, "is_disabled": 0, "is_reserved": 0, "lon": -77.022872, "type": "electric_scooter", "fusion_lat": 0.0, "rental_uris": {"android": "https://dc.lft.to/lastmile_qr_scan", "ios": "https://dc.lft.to/lastmile_qr_scan"}}, {"bike_id": "597eb03cf4993452fa8f18fa0c823223", "fusion_lon": 0.0, "name": "597eb03cf4993452fa8f18fa0c823223", "lat": 38.916931, "is_disabled": 0, "is_reserved": 0, "lon": -77.0376805, "type": "electric_scooter", "fusion_lat": 0.0, "rental_uris": {"android": "https://dc.lft.to/lastmile_qr_scan", "ios": "https://dc.lft.to/lastmile_qr_scan"}}, {"bike_id": "041137d95feb4478a1e357eeff52d1f9", "fusion_lon": 0.0, "name": "041137d95feb4478a1e357eeff52d1f9", "lat": 38.93674766666667, "is_disabled": 0, "is_reserved": 0, "lon": -77.03593183333334, "type": "electric_scooter", "fusion_lat": 0.0, "rental_uris": {"android": "https://dc.lft.to/lastmile_qr_scan", "ios": "https://dc.lft.to/lastmile_qr_scan"}}, {"bike_id": "ac59258688b5af0868208f1daab94ca8", "fusion_lon": 0.0, "name": "ac59258688b5af0868208f1daab94ca8", "lat": 38.865083166666665, "is_disabled": 0, "is_reserved": 0, "lon": -76.99004416666666, "type": "electric_scooter", "fusion_lat": 0.0, "rental_uris": {"android": "https://dc.lft.to/lastmile_qr_scan", "ios": "https://dc.lft.to/lastmile_qr_scan"}}, {"bike_id": "ee2c3e6f59203e1c6204cfc0bd91dff9", "fusion_lon": 0.0, "name": "ee2c3e6f59203e1c6204cfc0bd91dff9", "lat": 38.99610166666667, "is_disabled": 0, "is_reserved": 0, "lon": -77.078053, "type": "electric_bike", "fusion_lat": 0.0, "rental_uris": {"android": "https://dc.lft.to/lastmile_qr_scan", "ios": "https://dc.lft.to/lastmile_qr_scan"}}, {"bike_id": "d6761d6660b1d46f318f71b6344bfbac", "fusion_lon": 0.0, "name": "d6761d6660b1d46f318f71b6344bfbac", "lat": 38.9038715, "is_disabled": 0, "is_reserved": 0, "lon": -77.02482316666666, "type": "electric_scooter", "fusion_lat": 0.0, "rental_uris": {"android": "https://dc.lft.to/lastmile_qr_scan", "ios": "https://dc.lft.to/lastmile_qr_scan"}}, {"bike_id": "8a36b12dc86f4b1363d0612a7774e18a", "fusion_lon": 0.0, "name": "8a36b12dc86f4b1363d0612a7774e18a", "lat": 38.883373666666664, "is_disabled": 0, "is_reserved": 0, "lon": -77.01744866666667, "type": "electric_scooter", "fusion_lat": 0.0, "rental_uris": {"android": "https://dc.lft.to/lastmile_qr_scan", "ios": "https://dc.lft.to/lastmile_qr_scan"}}, {"bike_id": "c4426849abe03483f8362777e755a5b8", "fusion_lon": 0.0, "name": "c4426849abe03483f8362777e755a5b8", "lat": 39.052530833333336, "is_disabled": 0, "is_reserved": 0, "lon": -77.08063133333333, "type": "electric_bike", "fusion_lat": 0.0, "rental_uris": {"android": "https://dc.lft.to/lastmile_qr_scan", "ios": "https://dc.lft.to/lastmile_qr_scan"}}, {"bike_id": "657c76ec43516f903020b99be0bfa822", "fusion_lon": 0.0, "name": "657c76ec43516f903020b99be0bfa822", "lat": 38.896237, "is_disabled": 0, "is_reserved": 0, "lon": -77.00925883333333, "type": "electric_scooter", "fusion_lat": 0.0, "rental_uris": {"android": "https://dc.lft.to/lastmile_qr_scan", "ios": "https://dc.lft.to/lastmile_qr_scan"}}, {"bike_id": "82b430bf416e9fc1391635ee4cd8df1d", "fusion_lon": 0.0, "name": "82b430bf416e9fc1391635ee4cd8df1d", "lat": 38.8737455, "is_disabled": 0, "is_reserved": 0, "lon": -76.97002066666667, "type": "electric_scooter", "fusion_lat": 0.0, "rental_uris": {"android": "https://dc.lft.to/lastmile_qr_scan", "ios": "https://dc.lft.to/lastmile_qr_scan"}}, {"bike_id": "a871270f689da43ec84f78387a51adb5", "fusion_lon": 0.0, "name": "a871270f689da43ec84f78387a51adb5", "lat": 38.8831335, "is_disabled": 0, "is_reserved": 0, "lon": -77.01770733333333, "type": "electric_scooter", "fusion_lat": 0.0, "rental_uris": {"android": "https://dc.lft.to/lastmile_qr_scan", "ios": "https://dc.lft.to/lastmile_qr_scan"}}, {"bike_id": "4970c097ddcd5203ee227297c6317555", "fusion_lon": 0.0, "name": "4970c097ddcd5203ee227297c6317555", "lat": 38.90462083333333, "is_disabled": 0, "is_reserved": 0, "lon": -77.03467466666666, "type": "electric_scooter", "fusion_lat": 0.0, "rental_uris": {"android": "https://dc.lft.to/lastmile_qr_scan", "ios": "https://dc.lft.to/lastmile_qr_scan"}}, {"bike_id": "6554219cca6638c9e6458750fe318323", "fusion_lon": 0.0, "name": "6554219cca6638c9e6458750fe318323", "lat": 38.90973483333333, "is_disabled": 0, "is_reserved": 0, "lon": -77.06502583333334, "type": "electric_scooter", "fusion_lat": 0.0, "rental_uris": {"android": "https://dc.lft.to/lastmile_qr_scan", "ios": "https://dc.lft.to/lastmile_qr_scan"}}, {"bike_id": "320d92f29a123f9fdb49228c9d0afca7", "fusion_lon": 0.0, "name": "320d92f29a123f9fdb49228c9d0afca7", "lat": 38.898757833333335, "is_disabled": 0, "is_reserved": 0, "lon": -76.93185066666666, "type": "electric_scooter", "fusion_lat": 0.0, "rental_uris": {"android": "https://dc.lft.to/lastmile_qr_scan", "ios": "https://dc.lft.to/lastmile_qr_scan"}}, {"bike_id": "aab74125327cd92d3894e856e8fc2249", "fusion_lon": 0.0, "name": "aab74125327cd92d3894e856e8fc2249", "lat": 38.9190875, "is_disabled": 0, "is_reserved": 0, "lon": -77.04104566666666, "type": "electric_scooter", "fusion_lat": 0.0, "rental_uris": {"android": "https://dc.lft.to/lastmile_qr_scan", "ios": "https://dc.lft.to/lastmile_qr_scan"}}, {"bike_id": "d5d4dc1f227b1a7b49e4362c28ad8368", "fusion_lon": 0.0, "name": "d5d4dc1f227b1a7b49e4362c28ad8368", "lat": 38.9304365, "is_disabled": 0, "is_reserved": 0, "lon": -77.03797633333333, "type": "electric_scooter", "fusion_lat": 0.0, "rental_uris": {"android": "https://dc.lft.to/lastmile_qr_scan", "ios": "https://dc.lft.to/lastmile_qr_scan"}}, {"bike_id": "955188b9412113e8984c46f1ded21076", "fusion_lon": 0.0, "name": "955188b9412113e8984c46f1ded21076", "lat": 38.911846, "is_disabled": 0, "is_reserved": 0, "lon": -77.03864383333334, "type": "electric_scooter", "fusion_lat": 0.0, "rental_uris": {"android": "https://dc.lft.to/lastmile_qr_scan", "ios": "https://dc.lft.to/lastmile_qr_scan"}}, {"bike_id": "7d06d74b94fe4905ab25d1c13cef40c1", "fusion_lon": 0.0, "name": "7d06d74b94fe4905ab25d1c13cef40c1", "lat": 38.923104333333335, "is_disabled": 0, "is_reserved": 0, "lon": -77.0195255, "type": "electric_scooter", "fusion_lat": 0.0, "rental_uris": {"android": "https://dc.lft.to/lastmile_qr_scan", "ios": "https://dc.lft.to/lastmile_qr_scan"}}, {"bike_id": "8f4f205361aa9835fba8909abf1b5629", "fusion_lon": 0.0, "name": "8f4f205361aa9835fba8909abf1b5629", "lat": 38.88740766666667, "is_disabled": 0, "is_reserved": 0, "lon": -77.01535316666667, "type": "electric_scooter", "fusion_lat": 0.0, "rental_uris": {"android": "https://dc.lft.to/lastmile_qr_scan", "ios": "https://dc.lft.to/lastmile_qr_scan"}}, {"bike_id": "9f49a8dbb74b01a20179441c6f85604a", "fusion_lon": 0.0, "name": "9f49a8dbb74b01a20179441c6f85604a", "lat": 38.89758033333333, "is_disabled": 0, "is_reserved": 0, "lon": -77.00904233333333, "type": "electric_scooter", "fusion_lat": 0.0, "rental_uris": {"android": "https://dc.lft.to/lastmile_qr_scan", "ios": "https://dc.lft.to/lastmile_qr_scan"}}, {"bike_id": "e71706f2a6113b7db57f6fa681557b8e", "fusion_lon": 0.0, "name": "e71706f2a6113b7db57f6fa681557b8e", "lat": 38.900709666666664, "is_disabled": 0, "is_reserved": 0, "lon": -77.0542505, "type": "electric_scooter", "fusion_lat": 0.0, "rental_uris": {"android": "https://dc.lft.to/lastmile_qr_scan", "ios": "https://dc.lft.to/lastmile_qr_scan"}}, {"bike_id": "a6eab9744aae9455590e49f0e03dc6c8", "fusion_lon": 0.0, "name": "a6eab9744aae9455590e49f0e03dc6c8", "lat": 38.88745133333333, "is_disabled": 0, "is_reserved": 0, "lon": -76.97315366666666, "type": "electric_scooter", "fusion_lat": 0.0, "rental_uris": {"android": "https://dc.lft.to/lastmile_qr_scan", "ios": "https://dc.lft.to/lastmile_qr_scan"}}, {"bike_id": "b29aab34bded9f9e7b524278e0e751c8", "fusion_lon": 0.0, "name": "b29aab34bded9f9e7b524278e0e751c8", "lat": 38.90239583333333, "is_disabled": 0, "is_reserved": 0, "lon": -76.998381, "type": "electric_scooter", "fusion_lat": 0.0, "rental_uris": {"android": "https://dc.lft.to/lastmile_qr_scan", "ios": "https://dc.lft.to/lastmile_qr_scan"}}, {"bike_id": "f61353d09b9d3a97aef3647670e5fd8c", "fusion_lon": 0.0, "name": "f61353d09b9d3a97aef3647670e5fd8c", "lat": 38.91709866666667, "is_disabled": 0, "is_reserved": 0, "lon": -77.0323165, "type": "electric_scooter", "fusion_lat": 0.0, "rental_uris": {"android": "https://dc.lft.to/lastmile_qr_scan", "ios": "https://dc.lft.to/lastmile_qr_scan"}}, {"bike_id": "c4cdfcd3c3f9ec02651086e401d7591c", "fusion_lon": 0.0, "name": "c4cdfcd3c3f9ec02651086e401d7591c", "lat": 38.905162, "is_disabled": 0, "is_reserved": 0, "lon": -77.05127083333333, "type": "electric_scooter", "fusion_lat": 0.0, "rental_uris": {"android": "https://dc.lft.to/lastmile_qr_scan", "ios": "https://dc.lft.to/lastmile_qr_scan"}}, {"bike_id": "30e7bf30839d992f5b383c5c69575043", "fusion_lon": 0.0, "name": "30e7bf30839d992f5b383c5c69575043", "lat": 38.905990833333334, "is_disabled": 0, "is_reserved": 0, "lon": -77.0035895, "type": "electric_scooter", "fusion_lat": 0.0, "rental_uris": {"android": "https://dc.lft.to/lastmile_qr_scan", "ios": "https://dc.lft.to/lastmile_qr_scan"}}, {"bike_id": "8e07bcb17e07d7662612b678e4039ae8", "fusion_lon": 0.0, "name": "8e07bcb17e07d7662612b678e4039ae8", "lat": 38.910336666666666, "is_disabled": 0, "is_reserved": 0, "lon": -77.07572083333334, "type": "electric_scooter", "fusion_lat": 0.0, "rental_uris": {"android": "https://dc.lft.to/lastmile_qr_scan", "ios": "https://dc.lft.to/lastmile_qr_scan"}}, {"bike_id": "a26155b6796e39d684f3b7864631af2a", "fusion_lon": 0.0, "name": "a26155b6796e39d684f3b7864631af2a", "lat": 38.916662, "is_disabled": 0, "is_reserved": 0, "lon": -77.02265566666667, "type": "electric_scooter", "fusion_lat": 0.0, "rental_uris": {"android": "https://dc.lft.to/lastmile_qr_scan", "ios": "https://dc.lft.to/lastmile_qr_scan"}}, {"bike_id": "79054416799acaf80da787ee1947a21d", "fusion_lon": 0.0, "name": "79054416799acaf80da787ee1947a21d", "lat": 38.923222333333335, "is_disabled": 0, "is_reserved": 0, "lon": -77.029061, "type": "electric_scooter", "fusion_lat": 0.0, "rental_uris": {"android": "https://dc.lft.to/lastmile_qr_scan", "ios": "https://dc.lft.to/lastmile_qr_scan"}}, {"bike_id": "abd3a216b60f4cf76375167f9ec3f852", "fusion_lon": 0.0, "name": "abd3a216b60f4cf76375167f9ec3f852", "lat": 38.88619, "is_disabled": 0, "is_reserved": 0, "lon": -77.01248383333333, "type": "electric_scooter", "fusion_lat": 0.0, "rental_uris": {"android": "https://dc.lft.to/lastmile_qr_scan", "ios": "https://dc.lft.to/lastmile_qr_scan"}}, {"bike_id": "c27ab6d7c9e4fe4ba7851491468b87fe", "fusion_lon": 0.0, "name": "c27ab6d7c9e4fe4ba7851491468b87fe", "lat": 38.902059333333334, "is_disabled": 0, "is_reserved": 0, "lon": -77.03768683333334, "type": "electric_scooter", "fusion_lat": 0.0, "rental_uris": {"android": "https://dc.lft.to/lastmile_qr_scan", "ios": "https://dc.lft.to/lastmile_qr_scan"}}, {"bike_id": "c1c2394362a9639f9aab8605b755b31c", "fusion_lon": 0.0, "name": "c1c2394362a9639f9aab8605b755b31c", "lat": 38.884924, "is_disabled": 0, "is_reserved": 0, "lon": -76.9566695, "type": "electric_bike", "fusion_lat": 0.0, "rental_uris": {"android": "https://dc.lft.to/lastmile_qr_scan", "ios": "https://dc.lft.to/lastmile_qr_scan"}}, {"bike_id": "e99670efc5be9bfd3693ac5820651b96", "fusion_lon": 0.0, "name": "e99670efc5be9bfd3693ac5820651b96", "lat": 38.906929, "is_disabled": 0, "is_reserved": 0, "lon": -77.02389566666666, "type": "electric_scooter", "fusion_lat": 0.0, "rental_uris": {"android": "https://dc.lft.to/lastmile_qr_scan", "ios": "https://dc.lft.to/lastmile_qr_scan"}}, {"bike_id": "878e19c1e2615df21030863444867868", "fusion_lon": 0.0, "name": "878e19c1e2615df21030863444867868", "lat": 38.9205175, "is_disabled": 0, "is_reserved": 0, "lon": -76.99597566666667, "type": "electric_scooter", "fusion_lat": 0.0, "rental_uris": {"android": "https://dc.lft.to/lastmile_qr_scan", "ios": "https://dc.lft.to/lastmile_qr_scan"}}, {"bike_id": "3a7510cb76b187998a3169840896a710", "fusion_lon": 0.0, "name": "3a7510cb76b187998a3169840896a710", "lat": 38.916269166666666, "is_disabled": 0, "is_reserved": 0, "lon": -77.03216166666667, "type": "electric_scooter", "fusion_lat": 0.0, "rental_uris": {"android": "https://dc.lft.to/lastmile_qr_scan", "ios": "https://dc.lft.to/lastmile_qr_scan"}}, {"bike_id": "e9f8ac187e7accae3254856b2aeb29a1", "fusion_lon": 0.0, "name": "e9f8ac187e7accae3254856b2aeb29a1", "lat": 38.905759, "is_disabled": 0, "is_reserved": 0, "lon": -77.0435935, "type": "electric_scooter", "fusion_lat": 0.0, "rental_uris": {"android": "https://dc.lft.to/lastmile_qr_scan", "ios": "https://dc.lft.to/lastmile_qr_scan"}}, {"bike_id": "6894f7e3b2ec924966dfd92d86540f54", "fusion_lon": 0.0, "name": "6894f7e3b2ec924966dfd92d86540f54", "lat": 38.899052166666664, "is_disabled": 0, "is_reserved": 0, "lon": -77.0035355, "type": "electric_scooter", "fusion_lat": 0.0, "rental_uris": {"android": "https://dc.lft.to/lastmile_qr_scan", "ios": "https://dc.lft.to/lastmile_qr_scan"}}, {"bike_id": "dc16d710ff86f82b9433a19ffa23a784", "fusion_lon": 0.0, "name": "dc16d710ff86f82b9433a19ffa23a784", "lat": 38.92153066666667, "is_disabled": 0, "is_reserved": 0, "lon": -77.043471, "type": "electric_scooter", "fusion_lat": 0.0, "rental_uris": {"android": "https://dc.lft.to/lastmile_qr_scan", "ios": "https://dc.lft.to/lastmile_qr_scan"}}, {"bike_id": "1a5a3592ab4c0fca39f669545ed58237", "fusion_lon": 0.0, "name": "1a5a3592ab4c0fca39f669545ed58237", "lat": 38.930842, "is_disabled": 0, "is_reserved": 0, "lon": -77.03481666666667, "type": "electric_scooter", "fusion_lat": 0.0, "rental_uris": {"android": "https://dc.lft.to/lastmile_qr_scan", "ios": "https://dc.lft.to/lastmile_qr_scan"}}, {"bike_id": "043487e153ad92176cedcc2071874879", "fusion_lon": 0.0, "name": "043487e153ad92176cedcc2071874879", "lat": 38.91407316666667, "is_disabled": 0, "is_reserved": 0, "lon": -77.02662683333334, "type": "electric_scooter", "fusion_lat": 0.0, "rental_uris": {"android": "https://dc.lft.to/lastmile_qr_scan", "ios": "https://dc.lft.to/lastmile_qr_scan"}}, {"bike_id": "cdc7b5701dc6c73555f8c3b5ea7aa72f", "fusion_lon": 0.0, "name": "cdc7b5701dc6c73555f8c3b5ea7aa72f", "lat": 38.897650666666664, "is_disabled": 0, "is_reserved": 0, "lon": -76.98556366666666, "type": "electric_scooter", "fusion_lat": 0.0, "rental_uris": {"android": "https://dc.lft.to/lastmile_qr_scan", "ios": "https://dc.lft.to/lastmile_qr_scan"}}, {"bike_id": "78b9357ac877db7195cd4a41b9c39fec", "fusion_lon": 0.0, "name": "78b9357ac877db7195cd4a41b9c39fec", "lat": 38.936052333333336, "is_disabled": 0, "is_reserved": 0, "lon": -77.05854933333333, "type": "electric_scooter", "fusion_lat": 0.0, "rental_uris": {"android": "https://dc.lft.to/lastmile_qr_scan", "ios": "https://dc.lft.to/lastmile_qr_scan"}}, {"bike_id": "f27c38255de53d2494b33fae212e8a5c", "fusion_lon": 0.0, "name": "f27c38255de53d2494b33fae212e8a5c", "lat": 38.898381, "is_disabled": 0, "is_reserved": 0, "lon": -76.93180133333334, "type": "electric_scooter", "fusion_lat": 0.0, "rental_uris": {"android": "https://dc.lft.to/lastmile_qr_scan", "ios": "https://dc.lft.to/lastmile_qr_scan"}}, {"bike_id": "337fe3fb1633016f4f652c6b3c244273", "fusion_lon": 0.0, "name": "337fe3fb1633016f4f652c6b3c244273", "lat": 38.84054583333333, "is_disabled": 0, "is_reserved": 0, "lon": -76.97665466666666, "type": "electric_scooter", "fusion_lat": 0.0, "rental_uris": {"android": "https://dc.lft.to/lastmile_qr_scan", "ios": "https://dc.lft.to/lastmile_qr_scan"}}, {"bike_id": "dad2b3fef9306982141d76f6ba522711", "fusion_lon": 0.0, "name": "dad2b3fef9306982141d76f6ba522711", "lat": 38.94991783333333, "is_disabled": 0, "is_reserved": 0, "lon": -77.02703116666666, "type": "electric_scooter", "fusion_lat": 0.0, "rental_uris": {"android": "https://dc.lft.to/lastmile_qr_scan", "ios": "https://dc.lft.to/lastmile_qr_scan"}}, {"bike_id": "8d22347e76ec42815188e1b339924361", "fusion_lon": 0.0, "name": "8d22347e76ec42815188e1b339924361", "lat": 38.920279666666666, "is_disabled": 0, "is_reserved": 0, "lon": -77.02595416666666, "type": "electric_scooter", "fusion_lat": 0.0, "rental_uris": {"android": "https://dc.lft.to/lastmile_qr_scan", "ios": "https://dc.lft.to/lastmile_qr_scan"}}, {"bike_id": "d6a89d7be0b03889be0576beb26c6be5", "fusion_lon": 0.0, "name": "d6a89d7be0b03889be0576beb26c6be5", "lat": 38.86548066666667, "is_disabled": 0, "is_reserved": 0, "lon": -76.97862133333334, "type": "electric_scooter", "fusion_lat": 0.0, "rental_uris": {"android": "https://dc.lft.to/lastmile_qr_scan", "ios": "https://dc.lft.to/lastmile_qr_scan"}}, {"bike_id": "f5c90c15383a9600cadb4b14f84a0c54", "fusion_lon": 0.0, "name": "f5c90c15383a9600cadb4b14f84a0c54", "lat": 38.892261166666664, "is_disabled": 0, "is_reserved": 0, "lon": -77.03130433333334, "type": "electric_scooter", "fusion_lat": 0.0, "rental_uris": {"android": "https://dc.lft.to/lastmile_qr_scan", "ios": "https://dc.lft.to/lastmile_qr_scan"}}, {"bike_id": "b0c5841b6bc9396e90e2f0367e5b6e7d", "fusion_lon": 0.0, "name": "b0c5841b6bc9396e90e2f0367e5b6e7d", "lat": 38.884043, "is_disabled": 0, "is_reserved": 0, "lon": -76.98610333333333, "type": "electric_scooter", "fusion_lat": 0.0, "rental_uris": {"android": "https://dc.lft.to/lastmile_qr_scan", "ios": "https://dc.lft.to/lastmile_qr_scan"}}, {"bike_id": "5c6564974f362df56da00bcc0c124d40", "fusion_lon": 0.0, "name": "5c6564974f362df56da00bcc0c124d40", "lat": 38.899528333333336, "is_disabled": 0, "is_reserved": 0, "lon": -76.9815475, "type": "electric_scooter", "fusion_lat": 0.0, "rental_uris": {"android": "https://dc.lft.to/lastmile_qr_scan", "ios": "https://dc.lft.to/lastmile_qr_scan"}}, {"bike_id": "2c98e2ccd0ab6b1f7c40ac8ddb0fc0ec", "fusion_lon": 0.0, "name": "2c98e2ccd0ab6b1f7c40ac8ddb0fc0ec", "lat": 38.92445633333333, "is_disabled": 0, "is_reserved": 0, "lon": -77.03405466666666, "type": "electric_scooter", "fusion_lat": 0.0, "rental_uris": {"android": "https://dc.lft.to/lastmile_qr_scan", "ios": "https://dc.lft.to/lastmile_qr_scan"}}, {"bike_id": "a7a813a7db709d2777b1804d70500f14", "fusion_lon": 0.0, "name": "a7a813a7db709d2777b1804d70500f14", "lat": 38.918653166666665, "is_disabled": 0, "is_reserved": 0, "lon": -77.02603183333333, "type": "electric_scooter", "fusion_lat": 0.0, "rental_uris": {"android": "https://dc.lft.to/lastmile_qr_scan", "ios": "https://dc.lft.to/lastmile_qr_scan"}}, {"bike_id": "1f95bb210cf0690273620c0039bf1f1c", "fusion_lon": 0.0, "name": "1f95bb210cf0690273620c0039bf1f1c", "lat": 38.91112183333333, "is_disabled": 0, "is_reserved": 0, "lon": -77.0383455, "type": "electric_scooter", "fusion_lat": 0.0, "rental_uris": {"android": "https://dc.lft.to/lastmile_qr_scan", "ios": "https://dc.lft.to/lastmile_qr_scan"}}, {"bike_id": "3643d96d9abc6a410f183577dd28216e", "fusion_lon": 0.0, "name": "3643d96d9abc6a410f183577dd28216e", "lat": 38.88715, "is_disabled": 0, "is_reserved": 0, "lon": -76.99686133333333, "type": "electric_scooter", "fusion_lat": 0.0, "rental_uris": {"android": "https://dc.lft.to/lastmile_qr_scan", "ios": "https://dc.lft.to/lastmile_qr_scan"}}, {"bike_id": "8b91613a078d649f96028787724a2600", "fusion_lon": 0.0, "name": "8b91613a078d649f96028787724a2600", "lat": 38.932582333333336, "is_disabled": 0, "is_reserved": 0, "lon": -77.06623716666667, "type": "electric_scooter", "fusion_lat": 0.0, "rental_uris": {"android": "https://dc.lft.to/lastmile_qr_scan", "ios": "https://dc.lft.to/lastmile_qr_scan"}}, {"bike_id": "5bb5e962c07ad07cb91f06d86674480e", "fusion_lon": 0.0, "name": "5bb5e962c07ad07cb91f06d86674480e", "lat": 38.896745, "is_disabled": 0, "is_reserved": 0, "lon": -77.005189, "type": "electric_scooter", "fusion_lat": 0.0, "rental_uris": {"android": "https://dc.lft.to/lastmile_qr_scan", "ios": "https://dc.lft.to/lastmile_qr_scan"}}, {"bike_id": "5956d0d9b1dfa96dee38d799208334fe", "fusion_lon": 0.0, "name": "5956d0d9b1dfa96dee38d799208334fe", "lat": 38.91053383333333, "is_disabled": 0, "is_reserved": 0, "lon": -77.04095483333333, "type": "electric_scooter", "fusion_lat": 0.0, "rental_uris": {"android": "https://dc.lft.to/lastmile_qr_scan", "ios": "https://dc.lft.to/lastmile_qr_scan"}}, {"bike_id": "8fc70d522d66aba07782d92632a8a722", "fusion_lon": 0.0, "name": "8fc70d522d66aba07782d92632a8a722", "lat": 38.91715383333333, "is_disabled": 0, "is_reserved": 0, "lon": -77.02606066666667, "type": "electric_scooter", "fusion_lat": 0.0, "rental_uris": {"android": "https://dc.lft.to/lastmile_qr_scan", "ios": "https://dc.lft.to/lastmile_qr_scan"}}, {"bike_id": "42470706d1b7a170ee5208cd5973c8b8", "fusion_lon": 0.0, "name": "42470706d1b7a170ee5208cd5973c8b8", "lat": 38.885969, "is_disabled": 0, "is_reserved": 0, "lon": -77.01720583333334, "type": "electric_scooter", "fusion_lat": 0.0, "rental_uris": {"android": "https://dc.lft.to/lastmile_qr_scan", "ios": "https://dc.lft.to/lastmile_qr_scan"}}, {"bike_id": "17ce10546141e2561979056e0b0533cf", "fusion_lon": 0.0, "name": "17ce10546141e2561979056e0b0533cf", "lat": 38.90365366666666, "is_disabled": 0, "is_reserved": 0, "lon": -77.00346616666667, "type": "electric_scooter", "fusion_lat": 0.0, "rental_uris": {"android": "https://dc.lft.to/lastmile_qr_scan", "ios": "https://dc.lft.to/lastmile_qr_scan"}}, {"bike_id": "dbbf758cb6fc8e54a0ffe09ee8e6bbdc", "fusion_lon": 0.0, "name": "dbbf758cb6fc8e54a0ffe09ee8e6bbdc", "lat": 38.89803633333333, "is_disabled": 0, "is_reserved": 0, "lon": -77.02808016666667, "type": "electric_scooter", "fusion_lat": 0.0, "rental_uris": {"android": "https://dc.lft.to/lastmile_qr_scan", "ios": "https://dc.lft.to/lastmile_qr_scan"}}, {"bike_id": "801fc15e2d515688d477b0d5a83d020e", "fusion_lon": 0.0, "name": "801fc15e2d515688d477b0d5a83d020e", "lat": 38.934004333333334, "is_disabled": 0, "is_reserved": 0, "lon": -77.0574305, "type": "electric_scooter", "fusion_lat": 0.0, "rental_uris": {"android": "https://dc.lft.to/lastmile_qr_scan", "ios": "https://dc.lft.to/lastmile_qr_scan"}}, {"bike_id": "c70e11e6b0aa1d072afaa1ce4e5ff86a", "fusion_lon": 0.0, "name": "c70e11e6b0aa1d072afaa1ce4e5ff86a", "lat": 38.92447166666667, "is_disabled": 0, "is_reserved": 0, "lon": -77.04203933333334, "type": "electric_scooter", "fusion_lat": 0.0, "rental_uris": {"android": "https://dc.lft.to/lastmile_qr_scan", "ios": "https://dc.lft.to/lastmile_qr_scan"}}, {"bike_id": "1b54c7f0c31da23457925990542dff1f", "fusion_lon": 0.0, "name": "1b54c7f0c31da23457925990542dff1f", "lat": 38.904069166666666, "is_disabled": 0, "is_reserved": 0, "lon": -77.04328966666667, "type": "electric_scooter", "fusion_lat": 0.0, "rental_uris": {"android": "https://dc.lft.to/lastmile_qr_scan", "ios": "https://dc.lft.to/lastmile_qr_scan"}}, {"bike_id": "d62915c3e7e7498ac4a9cbad448dd382", "fusion_lon": 0.0, "name": "d62915c3e7e7498ac4a9cbad448dd382", "lat": 38.89609, "is_disabled": 0, "is_reserved": 0, "lon": -77.026032, "type": "electric_scooter", "fusion_lat": 0.0, "rental_uris": {"android": "https://dc.lft.to/lastmile_qr_scan", "ios": "https://dc.lft.to/lastmile_qr_scan"}}, {"bike_id": "10159447fad199b85d69b2ed5d4f0659", "fusion_lon": 0.0, "name": "10159447fad199b85d69b2ed5d4f0659", "lat": 38.87292983333333, "is_disabled": 0, "is_reserved": 0, "lon": -77.00985983333334, "type": "electric_scooter", "fusion_lat": 0.0, "rental_uris": {"android": "https://dc.lft.to/lastmile_qr_scan", "ios": "https://dc.lft.to/lastmile_qr_scan"}}, {"bike_id": "21630c4420922103051570c5ea630252", "fusion_lon": 0.0, "name": "21630c4420922103051570c5ea630252", "lat": 38.9239075, "is_disabled": 0, "is_reserved": 0, "lon": -77.04298266666666, "type": "electric_scooter", "fusion_lat": 0.0, "rental_uris": {"android": "https://dc.lft.to/lastmile_qr_scan", "ios": "https://dc.lft.to/lastmile_qr_scan"}}, {"bike_id": "10aaaa8aec76bc09cd3fcb510760b177", "fusion_lon": 0.0, "name": "10aaaa8aec76bc09cd3fcb510760b177", "lat": 38.841304, "is_disabled": 0, "is_reserved": 0, "lon": -77.0630615, "type": "electric_bike", "fusion_lat": 0.0, "rental_uris": {"android": "https://dc.lft.to/lastmile_qr_scan", "ios": "https://dc.lft.to/lastmile_qr_scan"}}, {"bike_id": "308875d868daceb118e98d50eb3e86cd", "fusion_lon": 0.0, "name": "308875d868daceb118e98d50eb3e86cd", "lat": 38.88531316666667, "is_disabled": 0, "is_reserved": 0, "lon": -77.12188183333333, "type": "electric_bike", "fusion_lat": 0.0, "rental_uris": {"android": "https://dc.lft.to/lastmile_qr_scan", "ios": "https://dc.lft.to/lastmile_qr_scan"}}, {"bike_id": "3b021d917c77e83ea3f974eda3b7ceac", "fusion_lon": 0.0, "name": "3b021d917c77e83ea3f974eda3b7ceac", "lat": 38.899897833333334, "is_disabled": 0, "is_reserved": 0, "lon": -76.99958766666667, "type": "electric_scooter", "fusion_lat": 0.0, "rental_uris": {"android": "https://dc.lft.to/lastmile_qr_scan", "ios": "https://dc.lft.to/lastmile_qr_scan"}}, {"bike_id": "fee6a225a0a40809db6f1f327eebbfb8", "fusion_lon": 0.0, "name": "fee6a225a0a40809db6f1f327eebbfb8", "lat": 38.89818666666667, "is_disabled": 0, "is_reserved": 0, "lon": -77.03174333333334, "type": "electric_scooter", "fusion_lat": 0.0, "rental_uris": {"android": "https://dc.lft.to/lastmile_qr_scan", "ios": "https://dc.lft.to/lastmile_qr_scan"}}, {"bike_id": "c415bc795fca89ed19138c0816b396f2", "fusion_lon": 0.0, "name": "c415bc795fca89ed19138c0816b396f2", "lat": 38.89265816666666, "is_disabled": 0, "is_reserved": 0, "lon": -77.00344533333333, "type": "electric_scooter", "fusion_lat": 0.0, "rental_uris": {"android": "https://dc.lft.to/lastmile_qr_scan", "ios": "https://dc.lft.to/lastmile_qr_scan"}}, {"bike_id": "31098348b0893f0a3cd7e1599166b27e", "fusion_lon": 0.0, "name": "31098348b0893f0a3cd7e1599166b27e", "lat": 38.89968266666666, "is_disabled": 0, "is_reserved": 0, "lon": -76.98159983333333, "type": "electric_scooter", "fusion_lat": 0.0, "rental_uris": {"android": "https://dc.lft.to/lastmile_qr_scan", "ios": "https://dc.lft.to/lastmile_qr_scan"}}, {"bike_id": "1ef3ced375eb320990d0d65c82971b7e", "fusion_lon": 0.0, "name": "1ef3ced375eb320990d0d65c82971b7e", "lat": 38.917160333333335, "is_disabled": 0, "is_reserved": 0, "lon": -77.0239265, "type": "electric_scooter", "fusion_lat": 0.0, "rental_uris": {"android": "https://dc.lft.to/lastmile_qr_scan", "ios": "https://dc.lft.to/lastmile_qr_scan"}}, {"bike_id": "648ecf4f8f517f9dd6e595ee17286529", "fusion_lon": 0.0, "name": "648ecf4f8f517f9dd6e595ee17286529", "lat": 38.931226, "is_disabled": 0, "is_reserved": 0, "lon": -76.984397, "type": "electric_scooter", "fusion_lat": 0.0, "rental_uris": {"android": "https://dc.lft.to/lastmile_qr_scan", "ios": "https://dc.lft.to/lastmile_qr_scan"}}, {"bike_id": "71debb92ee13d720d2415f2210dc89a1", "fusion_lon": 0.0, "name": "71debb92ee13d720d2415f2210dc89a1", "lat": 38.95593183333333, "is_disabled": 0, "is_reserved": 0, "lon": -76.99534466666667, "type": "electric_bike", "fusion_lat": 0.0, "rental_uris": {"android": "https://dc.lft.to/lastmile_qr_scan", "ios": "https://dc.lft.to/lastmile_qr_scan"}}, {"bike_id": "1a0850261ba2916ed20373ad23e84509", "fusion_lon": 0.0, "name": "1a0850261ba2916ed20373ad23e84509", "lat": 38.9198845, "is_disabled": 0, "is_reserved": 0, "lon": -76.97304316666667, "type": "electric_scooter", "fusion_lat": 0.0, "rental_uris": {"android": "https://dc.lft.to/lastmile_qr_scan", "ios": "https://dc.lft.to/lastmile_qr_scan"}}, {"bike_id": "a4da22e49532aa2f6ff19033e6e4ad8a", "fusion_lon": 0.0, "name": "a4da22e49532aa2f6ff19033e6e4ad8a", "lat": 38.881735, "is_disabled": 0, "is_reserved": 0, "lon": -76.95899466666667, "type": "electric_scooter", "fusion_lat": 0.0, "rental_uris": {"android": "https://dc.lft.to/lastmile_qr_scan", "ios": "https://dc.lft.to/lastmile_qr_scan"}}, {"bike_id": "7bd19d9033df1eec5ac0b4ea877aa6b8", "fusion_lon": 0.0, "name": "7bd19d9033df1eec5ac0b4ea877aa6b8", "lat": 38.88436566666667, "is_disabled": 0, "is_reserved": 0, "lon": -77.0304515, "type": "electric_scooter", "fusion_lat": 0.0, "rental_uris": {"android": "https://dc.lft.to/lastmile_qr_scan", "ios": "https://dc.lft.to/lastmile_qr_scan"}}, {"bike_id": "c63c0f522868ba24ee7acdeddcd5fcdf", "fusion_lon": 0.0, "name": "c63c0f522868ba24ee7acdeddcd5fcdf", "lat": 38.920361, "is_disabled": 0, "is_reserved": 0, "lon": -77.02587916666667, "type": "electric_scooter", "fusion_lat": 0.0, "rental_uris": {"android": "https://dc.lft.to/lastmile_qr_scan", "ios": "https://dc.lft.to/lastmile_qr_scan"}}, {"bike_id": "289abaf46b623a8aef85593a989cb196", "fusion_lon": 0.0, "name": "289abaf46b623a8aef85593a989cb196", "lat": 38.89801966666667, "is_disabled": 0, "is_reserved": 0, "lon": -76.99032816666667, "type": "electric_scooter", "fusion_lat": 0.0, "rental_uris": {"android": "https://dc.lft.to/lastmile_qr_scan", "ios": "https://dc.lft.to/lastmile_qr_scan"}}, {"bike_id": "94550dee46503fd8b1a58537a68fa77a", "fusion_lon": 0.0, "name": "94550dee46503fd8b1a58537a68fa77a", "lat": 38.928628333333336, "is_disabled": 0, "is_reserved": 0, "lon": -77.03260466666667, "type": "electric_scooter", "fusion_lat": 0.0, "rental_uris": {"android": "https://dc.lft.to/lastmile_qr_scan", "ios": "https://dc.lft.to/lastmile_qr_scan"}}, {"bike_id": "d1b244cbdecdb8106bf55b75eb58abc0", "fusion_lon": 0.0, "name": "d1b244cbdecdb8106bf55b75eb58abc0", "lat": 38.916405, "is_disabled": 0, "is_reserved": 0, "lon": -77.02695666666666, "type": "electric_scooter", "fusion_lat": 0.0, "rental_uris": {"android": "https://dc.lft.to/lastmile_qr_scan", "ios": "https://dc.lft.to/lastmile_qr_scan"}}, {"bike_id": "9ffdc424be1a9dba862a146eadf64f4f", "fusion_lon": 0.0, "name": "9ffdc424be1a9dba862a146eadf64f4f", "lat": 38.934319333333335, "is_disabled": 0, "is_reserved": 0, "lon": -77.03454066666667, "type": "electric_scooter", "fusion_lat": 0.0, "rental_uris": {"android": "https://dc.lft.to/lastmile_qr_scan", "ios": "https://dc.lft.to/lastmile_qr_scan"}}, {"bike_id": "a09a4217fb2d8279949e56724e5d99e1", "fusion_lon": 0.0, "name": "a09a4217fb2d8279949e56724e5d99e1", "lat": 38.931824, "is_disabled": 0, "is_reserved": 0, "lon": -77.04299083333333, "type": "electric_scooter", "fusion_lat": 0.0, "rental_uris": {"android": "https://dc.lft.to/lastmile_qr_scan", "ios": "https://dc.lft.to/lastmile_qr_scan"}}, {"bike_id": "93f26b2b466f91f14937c15cc288adca", "fusion_lon": 0.0, "name": "93f26b2b466f91f14937c15cc288adca", "lat": 38.887137333333335, "is_disabled": 0, "is_reserved": 0, "lon": -77.0220785, "type": "electric_scooter", "fusion_lat": 0.0, "rental_uris": {"android": "https://dc.lft.to/lastmile_qr_scan", "ios": "https://dc.lft.to/lastmile_qr_scan"}}, {"bike_id": "e80f8076ff137dc3d0f85d81121bbf74", "fusion_lon": 0.0, "name": "e80f8076ff137dc3d0f85d81121bbf74", "lat": 38.93004833333333, "is_disabled": 0, "is_reserved": 0, "lon": -77.03288866666666, "type": "electric_scooter", "fusion_lat": 0.0, "rental_uris": {"android": "https://dc.lft.to/lastmile_qr_scan", "ios": "https://dc.lft.to/lastmile_qr_scan"}}, {"bike_id": "e7158480d5d7c5df83694565984383e7", "fusion_lon": 0.0, "name": "e7158480d5d7c5df83694565984383e7", "lat": 38.9168595, "is_disabled": 0, "is_reserved": 0, "lon": -77.02943333333333, "type": "electric_scooter", "fusion_lat": 0.0, "rental_uris": {"android": "https://dc.lft.to/lastmile_qr_scan", "ios": "https://dc.lft.to/lastmile_qr_scan"}}, {"bike_id": "dbc008a033cc37832e4f9d9d6bb624fa", "fusion_lon": 0.0, "name": "dbc008a033cc37832e4f9d9d6bb624fa", "lat": 38.92181133333333, "is_disabled": 0, "is_reserved": 0, "lon": -76.99756666666667, "type": "electric_scooter", "fusion_lat": 0.0, "rental_uris": {"android": "https://dc.lft.to/lastmile_qr_scan", "ios": "https://dc.lft.to/lastmile_qr_scan"}}, {"bike_id": "300ff92c20accbb2e42e22d9827616c9", "fusion_lon": 0.0, "name": "300ff92c20accbb2e42e22d9827616c9", "lat": 38.903858666666665, "is_disabled": 0, "is_reserved": 0, "lon": -77.04447283333333, "type": "electric_scooter", "fusion_lat": 0.0, "rental_uris": {"android": "https://dc.lft.to/lastmile_qr_scan", "ios": "https://dc.lft.to/lastmile_qr_scan"}}, {"bike_id": "0bd0b0ae078113cd63b56389a01b81f2", "fusion_lon": 0.0, "name": "0bd0b0ae078113cd63b56389a01b81f2", "lat": 38.91695966666666, "is_disabled": 0, "is_reserved": 0, "lon": -77.03596933333333, "type": "electric_scooter", "fusion_lat": 0.0, "rental_uris": {"android": "https://dc.lft.to/lastmile_qr_scan", "ios": "https://dc.lft.to/lastmile_qr_scan"}}, {"bike_id": "3d1b8e475869ddedd821f0b0a8a8ee52", "fusion_lon": 0.0, "name": "3d1b8e475869ddedd821f0b0a8a8ee52", "lat": 38.8766, "is_disabled": 0, "is_reserved": 0, "lon": -77.01620433333333, "type": "electric_scooter", "fusion_lat": 0.0, "rental_uris": {"android": "https://dc.lft.to/lastmile_qr_scan", "ios": "https://dc.lft.to/lastmile_qr_scan"}}, {"bike_id": "4fdbdb07f644a7b5cbaec8f887152473", "fusion_lon": 0.0, "name": "4fdbdb07f644a7b5cbaec8f887152473", "lat": 38.902424833333335, "is_disabled": 0, "is_reserved": 0, "lon": -77.04368083333334, "type": "electric_scooter", "fusion_lat": 0.0, "rental_uris": {"android": "https://dc.lft.to/lastmile_qr_scan", "ios": "https://dc.lft.to/lastmile_qr_scan"}}, {"bike_id": "c3cc537da4c6478b78831c5491090648", "fusion_lon": 0.0, "name": "c3cc537da4c6478b78831c5491090648", "lat": 38.876937, "is_disabled": 0, "is_reserved": 0, "lon": -77.00426866666666, "type": "electric_scooter", "fusion_lat": 0.0, "rental_uris": {"android": "https://dc.lft.to/lastmile_qr_scan", "ios": "https://dc.lft.to/lastmile_qr_scan"}}, {"bike_id": "21f8ff0d074e51c032022ade5992c233", "fusion_lon": 0.0, "name": "21f8ff0d074e51c032022ade5992c233", "lat": 38.919241, "is_disabled": 0, "is_reserved": 0, "lon": -77.00981966666667, "type": "electric_scooter", "fusion_lat": 0.0, "rental_uris": {"android": "https://dc.lft.to/lastmile_qr_scan", "ios": "https://dc.lft.to/lastmile_qr_scan"}}, {"bike_id": "203b9fff1b1add1c80c58e251d30d50f", "fusion_lon": 0.0, "name": "203b9fff1b1add1c80c58e251d30d50f", "lat": 38.87487766666667, "is_disabled": 0, "is_reserved": 0, "lon": -77.00058016666667, "type": "electric_scooter", "fusion_lat": 0.0, "rental_uris": {"android": "https://dc.lft.to/lastmile_qr_scan", "ios": "https://dc.lft.to/lastmile_qr_scan"}}, {"bike_id": "f7effedd144c056969bfc8bb5d6e53fb", "fusion_lon": 0.0, "name": "f7effedd144c056969bfc8bb5d6e53fb", "lat": 38.887444333333335, "is_disabled": 0, "is_reserved": 0, "lon": -77.02843916666667, "type": "electric_scooter", "fusion_lat": 0.0, "rental_uris": {"android": "https://dc.lft.to/lastmile_qr_scan", "ios": "https://dc.lft.to/lastmile_qr_scan"}}, {"bike_id": "6caf189c55d9f6b1d272495ddc86f845", "fusion_lon": 0.0, "name": "6caf189c55d9f6b1d272495ddc86f845", "lat": 38.864474, "is_disabled": 0, "is_reserved": 0, "lon": -77.1068465, "type": "electric_bike", "fusion_lat": 0.0, "rental_uris": {"android": "https://dc.lft.to/lastmile_qr_scan", "ios": "https://dc.lft.to/lastmile_qr_scan"}}, {"bike_id": "ce635ffa646987d485f9e3205e566972", "fusion_lon": 0.0, "name": "ce635ffa646987d485f9e3205e566972", "lat": 38.95630933333333, "is_disabled": 0, "is_reserved": 0, "lon": -77.09129566666667, "type": "electric_scooter", "fusion_lat": 0.0, "rental_uris": {"android": "https://dc.lft.to/lastmile_qr_scan", "ios": "https://dc.lft.to/lastmile_qr_scan"}}, {"bike_id": "5018cffa1c9f498524a372d09783662d", "fusion_lon": 0.0, "name": "5018cffa1c9f498524a372d09783662d", "lat": 38.906302833333335, "is_disabled": 0, "is_reserved": 0, "lon": -77.01015783333334, "type": "electric_scooter", "fusion_lat": 0.0, "rental_uris": {"android": "https://dc.lft.to/lastmile_qr_scan", "ios": "https://dc.lft.to/lastmile_qr_scan"}}, {"bike_id": "ce582df137b95b1122c3d83402401f80", "fusion_lon": 0.0, "name": "ce582df137b95b1122c3d83402401f80", "lat": 38.89733483333333, "is_disabled": 0, "is_reserved": 0, "lon": -77.04987733333333, "type": "electric_scooter", "fusion_lat": 0.0, "rental_uris": {"android": "https://dc.lft.to/lastmile_qr_scan", "ios": "https://dc.lft.to/lastmile_qr_scan"}}, {"bike_id": "4437a45293c19585a14fc0e0212d6c87", "fusion_lon": 0.0, "name": "4437a45293c19585a14fc0e0212d6c87", "lat": 38.90558983333333, "is_disabled": 0, "is_reserved": 0, "lon": -77.05132233333333, "type": "electric_scooter", "fusion_lat": 0.0, "rental_uris": {"android": "https://dc.lft.to/lastmile_qr_scan", "ios": "https://dc.lft.to/lastmile_qr_scan"}}, {"bike_id": "55ee620b656ce4918a5a09b91ddbd77a", "fusion_lon": 0.0, "name": "55ee620b656ce4918a5a09b91ddbd77a", "lat": 38.8853915, "is_disabled": 0, "is_reserved": 0, "lon": -77.01520183333334, "type": "electric_scooter", "fusion_lat": 0.0, "rental_uris": {"android": "https://dc.lft.to/lastmile_qr_scan", "ios": "https://dc.lft.to/lastmile_qr_scan"}}, {"bike_id": "31cd01bf10c0b82449d6fb0dbcc64f0f", "fusion_lon": 0.0, "name": "31cd01bf10c0b82449d6fb0dbcc64f0f", "lat": 38.90229633333333, "is_disabled": 0, "is_reserved": 0, "lon": -77.059378, "type": "electric_scooter", "fusion_lat": 0.0, "rental_uris": {"android": "https://dc.lft.to/lastmile_qr_scan", "ios": "https://dc.lft.to/lastmile_qr_scan"}}, {"bike_id": "f8a6302dc3d7357169960ed4e8bc263d", "fusion_lon": 0.0, "name": "f8a6302dc3d7357169960ed4e8bc263d", "lat": 38.9235645, "is_disabled": 0, "is_reserved": 0, "lon": -77.05052633333334, "type": "electric_scooter", "fusion_lat": 0.0, "rental_uris": {"android": "https://dc.lft.to/lastmile_qr_scan", "ios": "https://dc.lft.to/lastmile_qr_scan"}}, {"bike_id": "82835363e3a2421aa84aeee83abcb5a3", "fusion_lon": 0.0, "name": "82835363e3a2421aa84aeee83abcb5a3", "lat": 38.9227225, "is_disabled": 0, "is_reserved": 0, "lon": -77.0423595, "type": "electric_scooter", "fusion_lat": 0.0, "rental_uris": {"android": "https://dc.lft.to/lastmile_qr_scan", "ios": "https://dc.lft.to/lastmile_qr_scan"}}, {"bike_id": "a91225102a40a7e09427e885f0e5fb5e", "fusion_lon": 0.0, "name": "a91225102a40a7e09427e885f0e5fb5e", "lat": 38.892286166666665, "is_disabled": 0, "is_reserved": 0, "lon": -77.050024, "type": "electric_scooter", "fusion_lat": 0.0, "rental_uris": {"android": "https://dc.lft.to/lastmile_qr_scan", "ios": "https://dc.lft.to/lastmile_qr_scan"}}, {"bike_id": "58cfe8708786634d48c974af860039a2", "fusion_lon": 0.0, "name": "58cfe8708786634d48c974af860039a2", "lat": 38.91988333333333, "is_disabled": 0, "is_reserved": 0, "lon": -77.03289283333334, "type": "electric_scooter", "fusion_lat": 0.0, "rental_uris": {"android": "https://dc.lft.to/lastmile_qr_scan", "ios": "https://dc.lft.to/lastmile_qr_scan"}}, {"bike_id": "fd832a17329bb716b262c0baf2763bb3", "fusion_lon": 0.0, "name": "fd832a17329bb716b262c0baf2763bb3", "lat": 38.90626266666666, "is_disabled": 0, "is_reserved": 0, "lon": -77.04185716666667, "type": "electric_scooter", "fusion_lat": 0.0, "rental_uris": {"android": "https://dc.lft.to/lastmile_qr_scan", "ios": "https://dc.lft.to/lastmile_qr_scan"}}, {"bike_id": "6f4ff371627b0282fccf79a34a876414", "fusion_lon": 0.0, "name": "6f4ff371627b0282fccf79a34a876414", "lat": 38.91005416666667, "is_disabled": 0, "is_reserved": 0, "lon": -76.994091, "type": "electric_scooter", "fusion_lat": 0.0, "rental_uris": {"android": "https://dc.lft.to/lastmile_qr_scan", "ios": "https://dc.lft.to/lastmile_qr_scan"}}, {"bike_id": "11fa62a7b1279e2552da5d10346e06c8", "fusion_lon": 0.0, "name": "11fa62a7b1279e2552da5d10346e06c8", "lat": 38.8837435, "is_disabled": 0, "is_reserved": 0, "lon": -76.99572783333333, "type": "electric_scooter", "fusion_lat": 0.0, "rental_uris": {"android": "https://dc.lft.to/lastmile_qr_scan", "ios": "https://dc.lft.to/lastmile_qr_scan"}}, {"bike_id": "ba67a4c4e55688beb9fd6875586c6cfa", "fusion_lon": 0.0, "name": "ba67a4c4e55688beb9fd6875586c6cfa", "lat": 38.912632333333335, "is_disabled": 0, "is_reserved": 0, "lon": -77.03832266666667, "type": "electric_scooter", "fusion_lat": 0.0, "rental_uris": {"android": "https://dc.lft.to/lastmile_qr_scan", "ios": "https://dc.lft.to/lastmile_qr_scan"}}, {"bike_id": "2bc55725ca005502b23628217eafa2ae", "fusion_lon": 0.0, "name": "2bc55725ca005502b23628217eafa2ae", "lat": 38.961435333333334, "is_disabled": 0, "is_reserved": 0, "lon": -77.028172, "type": "electric_scooter", "fusion_lat": 0.0, "rental_uris": {"android": "https://dc.lft.to/lastmile_qr_scan", "ios": "https://dc.lft.to/lastmile_qr_scan"}}, {"bike_id": "5180c1b3eb9813e33585447dd124cb48", "fusion_lon": 0.0, "name": "5180c1b3eb9813e33585447dd124cb48", "lat": 38.8980585, "is_disabled": 0, "is_reserved": 0, "lon": -77.01076466666666, "type": "electric_scooter", "fusion_lat": 0.0, "rental_uris": {"android": "https://dc.lft.to/lastmile_qr_scan", "ios": "https://dc.lft.to/lastmile_qr_scan"}}, {"bike_id": "a22a3e6a66a8573d247f8d21202e1b89", "fusion_lon": 0.0, "name": "a22a3e6a66a8573d247f8d21202e1b89", "lat": 38.865578166666666, "is_disabled": 0, "is_reserved": 0, "lon": -76.9835085, "type": "electric_scooter", "fusion_lat": 0.0, "rental_uris": {"android": "https://dc.lft.to/lastmile_qr_scan", "ios": "https://dc.lft.to/lastmile_qr_scan"}}, {"bike_id": "48582d5882e025db56fb0651a68df310", "fusion_lon": 0.0, "name": "48582d5882e025db56fb0651a68df310", "lat": 38.9308735, "is_disabled": 0, "is_reserved": 0, "lon": -77.025525, "type": "electric_scooter", "fusion_lat": 0.0, "rental_uris": {"android": "https://dc.lft.to/lastmile_qr_scan", "ios": "https://dc.lft.to/lastmile_qr_scan"}}, {"bike_id": "19de08b97446bda74f9782293deadc32", "fusion_lon": 0.0, "name": "19de08b97446bda74f9782293deadc32", "lat": 38.884037666666664, "is_disabled": 0, "is_reserved": 0, "lon": -76.96058266666667, "type": "electric_bike", "fusion_lat": 0.0, "rental_uris": {"android": "https://dc.lft.to/lastmile_qr_scan", "ios": "https://dc.lft.to/lastmile_qr_scan"}}, {"bike_id": "ba56e7b765267b8f14ca30d2a77fa182", "fusion_lon": 0.0, "name": "ba56e7b765267b8f14ca30d2a77fa182", "lat": 38.898744, "is_disabled": 0, "is_reserved": 0, "lon": -76.931847, "type": "electric_scooter", "fusion_lat": 0.0, "rental_uris": {"android": "https://dc.lft.to/lastmile_qr_scan", "ios": "https://dc.lft.to/lastmile_qr_scan"}}, {"bike_id": "71733b876bbe23870e1f5cd7655c4d2c", "fusion_lon": 0.0, "name": "71733b876bbe23870e1f5cd7655c4d2c", "lat": 38.885051833333335, "is_disabled": 0, "is_reserved": 0, "lon": -77.00698366666667, "type": "electric_scooter", "fusion_lat": 0.0, "rental_uris": {"android": "https://dc.lft.to/lastmile_qr_scan", "ios": "https://dc.lft.to/lastmile_qr_scan"}}, {"bike_id": "a66e8fc7674d9df5a1fe05ef8dbbb969", "fusion_lon": 0.0, "name": "a66e8fc7674d9df5a1fe05ef8dbbb969", "lat": 38.9020875, "is_disabled": 0, "is_reserved": 0, "lon": -77.02372583333333, "type": "electric_scooter", "fusion_lat": 0.0, "rental_uris": {"android": "https://dc.lft.to/lastmile_qr_scan", "ios": "https://dc.lft.to/lastmile_qr_scan"}}, {"bike_id": "f6a49879d0c8dd479eb128ae6f47b5d1", "fusion_lon": 0.0, "name": "f6a49879d0c8dd479eb128ae6f47b5d1", "lat": 38.9096645, "is_disabled": 0, "is_reserved": 0, "lon": -77.03321583333333, "type": "electric_scooter", "fusion_lat": 0.0, "rental_uris": {"android": "https://dc.lft.to/lastmile_qr_scan", "ios": "https://dc.lft.to/lastmile_qr_scan"}}, {"bike_id": "90bb3705b4d10b8f51cadaf0fc142435", "fusion_lon": 0.0, "name": "90bb3705b4d10b8f51cadaf0fc142435", "lat": 38.9046655, "is_disabled": 0, "is_reserved": 0, "lon": -77.03463583333334, "type": "electric_scooter", "fusion_lat": 0.0, "rental_uris": {"android": "https://dc.lft.to/lastmile_qr_scan", "ios": "https://dc.lft.to/lastmile_qr_scan"}}, {"bike_id": "a16b9fdd8353cc2eb5a1bf7a09d367cd", "fusion_lon": 0.0, "name": "a16b9fdd8353cc2eb5a1bf7a09d367cd", "lat": 38.89558133333333, "is_disabled": 0, "is_reserved": 0, "lon": -77.0280465, "type": "electric_scooter", "fusion_lat": 0.0, "rental_uris": {"android": "https://dc.lft.to/lastmile_qr_scan", "ios": "https://dc.lft.to/lastmile_qr_scan"}}, {"bike_id": "ac8618f74cdf148a6372a0f69739709b", "fusion_lon": 0.0, "name": "ac8618f74cdf148a6372a0f69739709b", "lat": 38.90093366666667, "is_disabled": 0, "is_reserved": 0, "lon": -77.03252833333333, "type": "electric_scooter", "fusion_lat": 0.0, "rental_uris": {"android": "https://dc.lft.to/lastmile_qr_scan", "ios": "https://dc.lft.to/lastmile_qr_scan"}}, {"bike_id": "6643ffc1a5b85915fd1975e168ee9ec7", "fusion_lon": 0.0, "name": "6643ffc1a5b85915fd1975e168ee9ec7", "lat": 38.90494666666667, "is_disabled": 0, "is_reserved": 0, "lon": -77.06125933333334, "type": "electric_scooter", "fusion_lat": 0.0, "rental_uris": {"android": "https://dc.lft.to/lastmile_qr_scan", "ios": "https://dc.lft.to/lastmile_qr_scan"}}, {"bike_id": "7afb1ba8acb10ea1ae058b0e2bf91d1c", "fusion_lon": 0.0, "name": "7afb1ba8acb10ea1ae058b0e2bf91d1c", "lat": 38.9306455, "is_disabled": 0, "is_reserved": 0, "lon": -77.0321005, "type": "electric_scooter", "fusion_lat": 0.0, "rental_uris": {"android": "https://dc.lft.to/lastmile_qr_scan", "ios": "https://dc.lft.to/lastmile_qr_scan"}}, {"bike_id": "71a9533ef43ef4c233fa64d23ef0db8e", "fusion_lon": 0.0, "name": "71a9533ef43ef4c233fa64d23ef0db8e", "lat": 38.9193115, "is_disabled": 0, "is_reserved": 0, "lon": -77.03171366666666, "type": "electric_scooter", "fusion_lat": 0.0, "rental_uris": {"android": "https://dc.lft.to/lastmile_qr_scan", "ios": "https://dc.lft.to/lastmile_qr_scan"}}, {"bike_id": "6c47d45a56254924eba17e92bffdbcf4", "fusion_lon": 0.0, "name": "6c47d45a56254924eba17e92bffdbcf4", "lat": 38.9540585, "is_disabled": 0, "is_reserved": 0, "lon": -77.027483, "type": "electric_scooter", "fusion_lat": 0.0, "rental_uris": {"android": "https://dc.lft.to/lastmile_qr_scan", "ios": "https://dc.lft.to/lastmile_qr_scan"}}, {"bike_id": "38cd247b459bcc29f2e68925e02be701", "fusion_lon": 0.0, "name": "38cd247b459bcc29f2e68925e02be701", "lat": 38.89086833333333, "is_disabled": 0, "is_reserved": 0, "lon": -76.919265, "type": "electric_scooter", "fusion_lat": 0.0, "rental_uris": {"android": "https://dc.lft.to/lastmile_qr_scan", "ios": "https://dc.lft.to/lastmile_qr_scan"}}, {"bike_id": "5875ff34602b58b71fec5e1d185e0233", "fusion_lon": 0.0, "name": "5875ff34602b58b71fec5e1d185e0233", "lat": 38.9442775, "is_disabled": 0, "is_reserved": 0, "lon": -77.02608683333334, "type": "electric_bike", "fusion_lat": 0.0, "rental_uris": {"android": "https://dc.lft.to/lastmile_qr_scan", "ios": "https://dc.lft.to/lastmile_qr_scan"}}, {"bike_id": "d961d4f514ce99a020fe57c8d197513a", "fusion_lon": 0.0, "name": "d961d4f514ce99a020fe57c8d197513a", "lat": 38.928909166666664, "is_disabled": 0, "is_reserved": 0, "lon": -77.03359083333334, "type": "electric_scooter", "fusion_lat": 0.0, "rental_uris": {"android": "https://dc.lft.to/lastmile_qr_scan", "ios": "https://dc.lft.to/lastmile_qr_scan"}}, {"bike_id": "97905b0911e1989cef0cd49b79d9bc51", "fusion_lon": 0.0, "name": "97905b0911e1989cef0cd49b79d9bc51", "lat": 38.90132216666667, "is_disabled": 0, "is_reserved": 0, "lon": -77.04446266666666, "type": "electric_scooter", "fusion_lat": 0.0, "rental_uris": {"android": "https://dc.lft.to/lastmile_qr_scan", "ios": "https://dc.lft.to/lastmile_qr_scan"}}, {"bike_id": "c00e9ded02204873f8061dcd5a6f913b", "fusion_lon": 0.0, "name": "c00e9ded02204873f8061dcd5a6f913b", "lat": 38.94755816666667, "is_disabled": 0, "is_reserved": 0, "lon": -77.00720416666667, "type": "electric_scooter", "fusion_lat": 0.0, "rental_uris": {"android": "https://dc.lft.to/lastmile_qr_scan", "ios": "https://dc.lft.to/lastmile_qr_scan"}}, {"bike_id": "94c397936d699b4e7e56cbd7c8569cde", "fusion_lon": 0.0, "name": "94c397936d699b4e7e56cbd7c8569cde", "lat": 38.79856816666667, "is_disabled": 0, "is_reserved": 0, "lon": -77.06304183333333, "type": "electric_bike", "fusion_lat": 0.0, "rental_uris": {"android": "https://dc.lft.to/lastmile_qr_scan", "ios": "https://dc.lft.to/lastmile_qr_scan"}}, {"bike_id": "3c1860c51766b6bea59e97073abce731", "fusion_lon": 0.0, "name": "3c1860c51766b6bea59e97073abce731", "lat": 38.9047065, "is_disabled": 0, "is_reserved": 0, "lon": -77.05113133333333, "type": "electric_scooter", "fusion_lat": 0.0, "rental_uris": {"android": "https://dc.lft.to/lastmile_qr_scan", "ios": "https://dc.lft.to/lastmile_qr_scan"}}, {"bike_id": "c8b56e1089b7c9acbb90be15931e39bf", "fusion_lon": 0.0, "name": "c8b56e1089b7c9acbb90be15931e39bf", "lat": 38.924383166666665, "is_disabled": 0, "is_reserved": 0, "lon": -77.05211566666667, "type": "electric_scooter", "fusion_lat": 0.0, "rental_uris": {"android": "https://dc.lft.to/lastmile_qr_scan", "ios": "https://dc.lft.to/lastmile_qr_scan"}}, {"bike_id": "10545fdeb442b15ef3576f4b1f059330", "fusion_lon": 0.0, "name": "10545fdeb442b15ef3576f4b1f059330", "lat": 38.85793233333333, "is_disabled": 0, "is_reserved": 0, "lon": -76.98911133333333, "type": "electric_scooter", "fusion_lat": 0.0, "rental_uris": {"android": "https://dc.lft.to/lastmile_qr_scan", "ios": "https://dc.lft.to/lastmile_qr_scan"}}, {"bike_id": "23cb93fe2d6cfd79d8bfd6eb0d4a2b42", "fusion_lon": 0.0, "name": "23cb93fe2d6cfd79d8bfd6eb0d4a2b42", "lat": 38.93951416666667, "is_disabled": 0, "is_reserved": 0, "lon": -77.08591583333333, "type": "electric_scooter", "fusion_lat": 0.0, "rental_uris": {"android": "https://dc.lft.to/lastmile_qr_scan", "ios": "https://dc.lft.to/lastmile_qr_scan"}}, {"bike_id": "9440496a6fe1fb5097b1563071189665", "fusion_lon": 0.0, "name": "9440496a6fe1fb5097b1563071189665", "lat": 38.908372666666665, "is_disabled": 0, "is_reserved": 0, "lon": -77.03646866666666, "type": "electric_scooter", "fusion_lat": 0.0, "rental_uris": {"android": "https://dc.lft.to/lastmile_qr_scan", "ios": "https://dc.lft.to/lastmile_qr_scan"}}, {"bike_id": "7345f88b2773911017d9f3b1c10672e9", "fusion_lon": 0.0, "name": "7345f88b2773911017d9f3b1c10672e9", "lat": 38.89857683333334, "is_disabled": 0, "is_reserved": 0, "lon": -76.97670316666667, "type": "electric_scooter", "fusion_lat": 0.0, "rental_uris": {"android": "https://dc.lft.to/lastmile_qr_scan", "ios": "https://dc.lft.to/lastmile_qr_scan"}}, {"bike_id": "876d9bd4b3066f62d7955fa3de9adaf4", "fusion_lon": 0.0, "name": "876d9bd4b3066f62d7955fa3de9adaf4", "lat": 38.87992916666666, "is_disabled": 0, "is_reserved": 0, "lon": -77.024051, "type": "electric_scooter", "fusion_lat": 0.0, "rental_uris": {"android": "https://dc.lft.to/lastmile_qr_scan", "ios": "https://dc.lft.to/lastmile_qr_scan"}}, {"bike_id": "4df5792fc8e039626455e4abe92dbcdc", "fusion_lon": 0.0, "name": "4df5792fc8e039626455e4abe92dbcdc", "lat": 38.921924, "is_disabled": 0, "is_reserved": 0, "lon": -77.02397016666667, "type": "electric_scooter", "fusion_lat": 0.0, "rental_uris": {"android": "https://dc.lft.to/lastmile_qr_scan", "ios": "https://dc.lft.to/lastmile_qr_scan"}}, {"bike_id": "cc6322e49ddf7e823725162a76901c9b", "fusion_lon": 0.0, "name": "cc6322e49ddf7e823725162a76901c9b", "lat": 38.904968, "is_disabled": 0, "is_reserved": 0, "lon": -77.00101283333333, "type": "electric_scooter", "fusion_lat": 0.0, "rental_uris": {"android": "https://dc.lft.to/lastmile_qr_scan", "ios": "https://dc.lft.to/lastmile_qr_scan"}}, {"bike_id": "70f9d6922a113dc90a2559b0bad7e1c1", "fusion_lon": 0.0, "name": "70f9d6922a113dc90a2559b0bad7e1c1", "lat": 38.85775, "is_disabled": 0, "is_reserved": 0, "lon": -76.987563, "type": "electric_bike", "fusion_lat": 0.0, "rental_uris": {"android": "https://dc.lft.to/lastmile_qr_scan", "ios": "https://dc.lft.to/lastmile_qr_scan"}}, {"bike_id": "78029e3a68f99e8c69296237f880351b", "fusion_lon": 0.0, "name": "78029e3a68f99e8c69296237f880351b", "lat": 38.88732016666667, "is_disabled": 0, "is_reserved": 0, "lon": -77.02829983333334, "type": "electric_scooter", "fusion_lat": 0.0, "rental_uris": {"android": "https://dc.lft.to/lastmile_qr_scan", "ios": "https://dc.lft.to/lastmile_qr_scan"}}, {"bike_id": "94fdc18bb6adfda65fa3a612fa40d71c", "fusion_lon": 0.0, "name": "94fdc18bb6adfda65fa3a612fa40d71c", "lat": 38.924730333333336, "is_disabled": 0, "is_reserved": 0, "lon": -77.0255665, "type": "electric_scooter", "fusion_lat": 0.0, "rental_uris": {"android": "https://dc.lft.to/lastmile_qr_scan", "ios": "https://dc.lft.to/lastmile_qr_scan"}}, {"bike_id": "e3ce1d3a580b073d0f469e685c6b049f", "fusion_lon": 0.0, "name": "e3ce1d3a580b073d0f469e685c6b049f", "lat": 38.911959, "is_disabled": 0, "is_reserved": 0, "lon": -77.007285, "type": "electric_scooter", "fusion_lat": 0.0, "rental_uris": {"android": "https://dc.lft.to/lastmile_qr_scan", "ios": "https://dc.lft.to/lastmile_qr_scan"}}, {"bike_id": "ebb6529bb1f1b664329733e5a0dd345c", "fusion_lon": 0.0, "name": "ebb6529bb1f1b664329733e5a0dd345c", "lat": 38.877988, "is_disabled": 0, "is_reserved": 0, "lon": -77.00122783333333, "type": "electric_scooter", "fusion_lat": 0.0, "rental_uris": {"android": "https://dc.lft.to/lastmile_qr_scan", "ios": "https://dc.lft.to/lastmile_qr_scan"}}, {"bike_id": "5893282209b8e17bd544085d85a2860b", "fusion_lon": 0.0, "name": "5893282209b8e17bd544085d85a2860b", "lat": 38.9182425, "is_disabled": 0, "is_reserved": 0, "lon": -77.0417495, "type": "electric_scooter", "fusion_lat": 0.0, "rental_uris": {"android": "https://dc.lft.to/lastmile_qr_scan", "ios": "https://dc.lft.to/lastmile_qr_scan"}}, {"bike_id": "a072ef48ddc28dc66114f240309f3939", "fusion_lon": 0.0, "name": "a072ef48ddc28dc66114f240309f3939", "lat": 38.935113333333334, "is_disabled": 0, "is_reserved": 0, "lon": -77.05838516666667, "type": "electric_scooter", "fusion_lat": 0.0, "rental_uris": {"android": "https://dc.lft.to/lastmile_qr_scan", "ios": "https://dc.lft.to/lastmile_qr_scan"}}, {"bike_id": "c93e1363d0c17b66fdad4511815f2a1f", "fusion_lon": 0.0, "name": "c93e1363d0c17b66fdad4511815f2a1f", "lat": 38.887409166666664, "is_disabled": 0, "is_reserved": 0, "lon": -77.02121566666666, "type": "electric_scooter", "fusion_lat": 0.0, "rental_uris": {"android": "https://dc.lft.to/lastmile_qr_scan", "ios": "https://dc.lft.to/lastmile_qr_scan"}}, {"bike_id": "b3475c3a6ba5c82b2d7c588abd24e810", "fusion_lon": 0.0, "name": "b3475c3a6ba5c82b2d7c588abd24e810", "lat": 38.89827, "is_disabled": 0, "is_reserved": 0, "lon": -77.02916166666667, "type": "electric_scooter", "fusion_lat": 0.0, "rental_uris": {"android": "https://dc.lft.to/lastmile_qr_scan", "ios": "https://dc.lft.to/lastmile_qr_scan"}}, {"bike_id": "ec210481e6ea182aba4550e2b5c5c48f", "fusion_lon": 0.0, "name": "ec210481e6ea182aba4550e2b5c5c48f", "lat": 38.8841225, "is_disabled": 0, "is_reserved": 0, "lon": -76.95412533333334, "type": "electric_bike", "fusion_lat": 0.0, "rental_uris": {"android": "https://dc.lft.to/lastmile_qr_scan", "ios": "https://dc.lft.to/lastmile_qr_scan"}}, {"bike_id": "a8407f2b6d27421e0f51d3c3cf6a3183", "fusion_lon": 0.0, "name": "a8407f2b6d27421e0f51d3c3cf6a3183", "lat": 38.90140683333333, "is_disabled": 0, "is_reserved": 0, "lon": -77.060726, "type": "electric_scooter", "fusion_lat": 0.0, "rental_uris": {"android": "https://dc.lft.to/lastmile_qr_scan", "ios": "https://dc.lft.to/lastmile_qr_scan"}}, {"bike_id": "c5f000c4339b4b3ef6023a421e785f57", "fusion_lon": 0.0, "name": "c5f000c4339b4b3ef6023a421e785f57", "lat": 38.8872065, "is_disabled": 0, "is_reserved": 0, "lon": -76.9964485, "type": "electric_scooter", "fusion_lat": 0.0, "rental_uris": {"android": "https://dc.lft.to/lastmile_qr_scan", "ios": "https://dc.lft.to/lastmile_qr_scan"}}, {"bike_id": "b18823f38f9d4bae6f196fbdd2facab6", "fusion_lon": 0.0, "name": "b18823f38f9d4bae6f196fbdd2facab6", "lat": 38.95180883333333, "is_disabled": 0, "is_reserved": 0, "lon": -77.02720616666667, "type": "electric_scooter", "fusion_lat": 0.0, "rental_uris": {"android": "https://dc.lft.to/lastmile_qr_scan", "ios": "https://dc.lft.to/lastmile_qr_scan"}}, {"bike_id": "457b89dd436b047884e8b5efa68134e0", "fusion_lon": 0.0, "name": "457b89dd436b047884e8b5efa68134e0", "lat": 38.90270483333333, "is_disabled": 0, "is_reserved": 0, "lon": -77.0532095, "type": "electric_scooter", "fusion_lat": 0.0, "rental_uris": {"android": "https://dc.lft.to/lastmile_qr_scan", "ios": "https://dc.lft.to/lastmile_qr_scan"}}, {"bike_id": "e8cc874ecc46e2383dc6634322e8fbec", "fusion_lon": 0.0, "name": "e8cc874ecc46e2383dc6634322e8fbec", "lat": 38.90773183333334, "is_disabled": 0, "is_reserved": 0, "lon": -77.03206966666667, "type": "electric_scooter", "fusion_lat": 0.0, "rental_uris": {"android": "https://dc.lft.to/lastmile_qr_scan", "ios": "https://dc.lft.to/lastmile_qr_scan"}}, {"bike_id": "18d65c80a85de88813ef6fa67b939b25", "fusion_lon": 0.0, "name": "18d65c80a85de88813ef6fa67b939b25", "lat": 38.922858, "is_disabled": 0, "is_reserved": 0, "lon": -77.02968, "type": "electric_scooter", "fusion_lat": 0.0, "rental_uris": {"android": "https://dc.lft.to/lastmile_qr_scan", "ios": "https://dc.lft.to/lastmile_qr_scan"}}, {"bike_id": "831ebe2718e6561174f48714adbc28af", "fusion_lon": 0.0, "name": "831ebe2718e6561174f48714adbc28af", "lat": 38.9157585, "is_disabled": 0, "is_reserved": 0, "lon": -77.0124665, "type": "electric_scooter", "fusion_lat": 0.0, "rental_uris": {"android": "https://dc.lft.to/lastmile_qr_scan", "ios": "https://dc.lft.to/lastmile_qr_scan"}}, {"bike_id": "9eee510f8bb9f87af29a6d91803b88b5", "fusion_lon": 0.0, "name": "9eee510f8bb9f87af29a6d91803b88b5", "lat": 38.892552333333335, "is_disabled": 0, "is_reserved": 0, "lon": -77.04656766666666, "type": "electric_scooter", "fusion_lat": 0.0, "rental_uris": {"android": "https://dc.lft.to/lastmile_qr_scan", "ios": "https://dc.lft.to/lastmile_qr_scan"}}, {"bike_id": "939bbeb13e5e9b1d8b769168694483c0", "fusion_lon": 0.0, "name": "939bbeb13e5e9b1d8b769168694483c0", "lat": 38.92923016666667, "is_disabled": 0, "is_reserved": 0, "lon": -77.0325695, "type": "electric_scooter", "fusion_lat": 0.0, "rental_uris": {"android": "https://dc.lft.to/lastmile_qr_scan", "ios": "https://dc.lft.to/lastmile_qr_scan"}}, {"bike_id": "313028d8422a40ab3df225cc025537c1", "fusion_lon": 0.0, "name": "313028d8422a40ab3df225cc025537c1", "lat": 38.902359, "is_disabled": 0, "is_reserved": 0, "lon": -77.04451183333333, "type": "electric_scooter", "fusion_lat": 0.0, "rental_uris": {"android": "https://dc.lft.to/lastmile_qr_scan", "ios": "https://dc.lft.to/lastmile_qr_scan"}}, {"bike_id": "088d2cee4c65c6472d61545b8cc2cd6d", "fusion_lon": 0.0, "name": "088d2cee4c65c6472d61545b8cc2cd6d", "lat": 38.91664016666667, "is_disabled": 0, "is_reserved": 0, "lon": -77.0346035, "type": "electric_scooter", "fusion_lat": 0.0, "rental_uris": {"android": "https://dc.lft.to/lastmile_qr_scan", "ios": "https://dc.lft.to/lastmile_qr_scan"}}, {"bike_id": "5acab96da027fb1d580021b5bae0c382", "fusion_lon": 0.0, "name": "5acab96da027fb1d580021b5bae0c382", "lat": 38.90415733333333, "is_disabled": 0, "is_reserved": 0, "lon": -77.043359, "type": "electric_scooter", "fusion_lat": 0.0, "rental_uris": {"android": "https://dc.lft.to/lastmile_qr_scan", "ios": "https://dc.lft.to/lastmile_qr_scan"}}, {"bike_id": "f6c04ac414f88e3527f611bc7cc28d60", "fusion_lon": 0.0, "name": "f6c04ac414f88e3527f611bc7cc28d60", "lat": 38.99445333333333, "is_disabled": 0, "is_reserved": 0, "lon": -76.9958805, "type": "electric_bike", "fusion_lat": 0.0, "rental_uris": {"android": "https://dc.lft.to/lastmile_qr_scan", "ios": "https://dc.lft.to/lastmile_qr_scan"}}, {"bike_id": "86d5fc0cddcb55d29356ae53d8f14ead", "fusion_lon": 0.0, "name": "86d5fc0cddcb55d29356ae53d8f14ead", "lat": 38.923977666666666, "is_disabled": 0, "is_reserved": 0, "lon": -77.02433716666667, "type": "electric_scooter", "fusion_lat": 0.0, "rental_uris": {"android": "https://dc.lft.to/lastmile_qr_scan", "ios": "https://dc.lft.to/lastmile_qr_scan"}}, {"bike_id": "9925b4ed0d87dfa0ad783a8323280553", "fusion_lon": 0.0, "name": "9925b4ed0d87dfa0ad783a8323280553", "lat": 38.893557666666666, "is_disabled": 0, "is_reserved": 0, "lon": -77.03180016666667, "type": "electric_scooter", "fusion_lat": 0.0, "rental_uris": {"android": "https://dc.lft.to/lastmile_qr_scan", "ios": "https://dc.lft.to/lastmile_qr_scan"}}, {"bike_id": "878c0a3411fc41b33f89c24ccf65aaff", "fusion_lon": 0.0, "name": "878c0a3411fc41b33f89c24ccf65aaff", "lat": 38.91825766666667, "is_disabled": 0, "is_reserved": 0, "lon": -77.04020833333334, "type": "electric_scooter", "fusion_lat": 0.0, "rental_uris": {"android": "https://dc.lft.to/lastmile_qr_scan", "ios": "https://dc.lft.to/lastmile_qr_scan"}}, {"bike_id": "9be5ea7ca3c291f2bddac6f974c50e9e", "fusion_lon": 0.0, "name": "9be5ea7ca3c291f2bddac6f974c50e9e", "lat": 38.89686566666666, "is_disabled": 0, "is_reserved": 0, "lon": -77.0321565, "type": "electric_scooter", "fusion_lat": 0.0, "rental_uris": {"android": "https://dc.lft.to/lastmile_qr_scan", "ios": "https://dc.lft.to/lastmile_qr_scan"}}, {"bike_id": "189444cd89223526904956d72e6f9bcd", "fusion_lon": 0.0, "name": "189444cd89223526904956d72e6f9bcd", "lat": 38.940535, "is_disabled": 0, "is_reserved": 0, "lon": -76.9041715, "type": "electric_bike", "fusion_lat": 0.0, "rental_uris": {"android": "https://dc.lft.to/lastmile_qr_scan", "ios": "https://dc.lft.to/lastmile_qr_scan"}}, {"bike_id": "ef92c5632d7a8dace50af792b42c236d", "fusion_lon": 0.0, "name": "ef92c5632d7a8dace50af792b42c236d", "lat": 38.9752175, "is_disabled": 0, "is_reserved": 0, "lon": -77.01685, "type": "electric_bike", "fusion_lat": 0.0, "rental_uris": {"android": "https://dc.lft.to/lastmile_qr_scan", "ios": "https://dc.lft.to/lastmile_qr_scan"}}, {"bike_id": "336bdb932358faf76a86be410db7edf0", "fusion_lon": 0.0, "name": "336bdb932358faf76a86be410db7edf0", "lat": 38.865571833333334, "is_disabled": 0, "is_reserved": 0, "lon": -76.9835085, "type": "electric_scooter", "fusion_lat": 0.0, "rental_uris": {"android": "https://dc.lft.to/lastmile_qr_scan", "ios": "https://dc.lft.to/lastmile_qr_scan"}}, {"bike_id": "44cdb1fcf8f4beab7a7cc2cd2252729d", "fusion_lon": 0.0, "name": "44cdb1fcf8f4beab7a7cc2cd2252729d", "lat": 38.871397333333334, "is_disabled": 0, "is_reserved": 0, "lon": -77.100248, "type": "electric_bike", "fusion_lat": 0.0, "rental_uris": {"android": "https://dc.lft.to/lastmile_qr_scan", "ios": "https://dc.lft.to/lastmile_qr_scan"}}, {"bike_id": "e9e88b81d7e9bde36df789e849833aed", "fusion_lon": 0.0, "name": "e9e88b81d7e9bde36df789e849833aed", "lat": 38.80449816666667, "is_disabled": 0, "is_reserved": 0, "lon": -77.13230666666666, "type": "electric_bike", "fusion_lat": 0.0, "rental_uris": {"android": "https://dc.lft.to/lastmile_qr_scan", "ios": "https://dc.lft.to/lastmile_qr_scan"}}, {"bike_id": "d7f73c9ec226f63b93f490ffcc25598c", "fusion_lon": 0.0, "name": "d7f73c9ec226f63b93f490ffcc25598c", "lat": 38.9071425, "is_disabled": 0, "is_reserved": 0, "lon": -77.04757, "type": "electric_scooter", "fusion_lat": 0.0, "rental_uris": {"android": "https://dc.lft.to/lastmile_qr_scan", "ios": "https://dc.lft.to/lastmile_qr_scan"}}, {"bike_id": "7837feb9c4cc939f7bfa0a36a1affc5c", "fusion_lon": 0.0, "name": "7837feb9c4cc939f7bfa0a36a1affc5c", "lat": 38.90027, "is_disabled": 0, "is_reserved": 0, "lon": -77.01670183333333, "type": "electric_bike", "fusion_lat": 0.0, "rental_uris": {"android": "https://dc.lft.to/lastmile_qr_scan", "ios": "https://dc.lft.to/lastmile_qr_scan"}}, {"bike_id": "a058ec07daf09765b364da82fb13d663", "fusion_lon": 0.0, "name": "a058ec07daf09765b364da82fb13d663", "lat": 38.899381166666664, "is_disabled": 0, "is_reserved": 0, "lon": -77.04186116666666, "type": "electric_scooter", "fusion_lat": 0.0, "rental_uris": {"android": "https://dc.lft.to/lastmile_qr_scan", "ios": "https://dc.lft.to/lastmile_qr_scan"}}, {"bike_id": "eb64cf6f561190d24ff9c5e64cc81737", "fusion_lon": 0.0, "name": "eb64cf6f561190d24ff9c5e64cc81737", "lat": 38.900766833333336, "is_disabled": 0, "is_reserved": 0, "lon": -77.05056783333333, "type": "electric_scooter", "fusion_lat": 0.0, "rental_uris": {"android": "https://dc.lft.to/lastmile_qr_scan", "ios": "https://dc.lft.to/lastmile_qr_scan"}}, {"bike_id": "9e4452563a14fb5427ea04a7cbe9d896", "fusion_lon": 0.0, "name": "9e4452563a14fb5427ea04a7cbe9d896", "lat": 38.92317116666667, "is_disabled": 0, "is_reserved": 0, "lon": -77.04176633333333, "type": "electric_scooter", "fusion_lat": 0.0, "rental_uris": {"android": "https://dc.lft.to/lastmile_qr_scan", "ios": "https://dc.lft.to/lastmile_qr_scan"}}, {"bike_id": "78974f7e2d2e12c2161a975fbb45466b", "fusion_lon": 0.0, "name": "78974f7e2d2e12c2161a975fbb45466b", "lat": 38.882586333333336, "is_disabled": 0, "is_reserved": 0, "lon": -76.99488316666667, "type": "electric_scooter", "fusion_lat": 0.0, "rental_uris": {"android": "https://dc.lft.to/lastmile_qr_scan", "ios": "https://dc.lft.to/lastmile_qr_scan"}},