{"data": {"bikes": [{"fusion_lat": 0.0, "type": "electric_scooter", "name": "9da9a8bb12540a69e5ebc7a3a41d8436", "fusion_lon": 0.0, "bike_id": "9da9a8bb12540a69e5ebc7a3a41d8436", "is_reserved": 0, "rental_uris": {"android": "https://dc.lft.to/lastmile_qr_scan", "ios": "https://dc.lft.to/lastmile_qr_scan"}, "lat": 38.949018, "is_disabled": 0, "lon": -77.00647516666666}, {"fusion_lat": 0.0, "type": "electric_scooter", "name": "23ea8687079726772e3fdb0e398209ee", "fusion_lon": 0.0, "bike_id": "23ea8687079726772e3fdb0e398209ee", "is_reserved": 0, "rental_uris": {"android": "https://dc.lft.to/lastmile_qr_scan", "ios": "https://dc.lft.to/lastmile_qr_scan"}, "lat": 38.89224016666667, "is_disabled": 0, "lon": -77.02351633333333}, {"fusion_lat": 0.0, "type": "electric_scooter", "name": "bffc84c8530574a0143513ff0c772476", "fusion_lon": 0.0, "bike_id": "bffc84c8530574a0143513ff0c772476", "is_reserved": 0, "rental_uris": {"android": "https://dc.lft.to/lastmile_qr_scan", "ios": "https://dc.lft.to/lastmile_qr_scan"}, "lat": 38.91119916666667, "is_disabled": 0, "lon": -77.0436825}, {"fusion_lat": 0.0, "type": "electric_bike", "name": "ba77ddec0d465dbe10613c9626ba233b", "fusion_lon": 0.0, "bike_id": "ba77ddec0d465dbe10613c9626ba233b", "is_reserved": 0, "rental_uris": {"android": "https://dc.lft.to/lastmile_qr_scan", "ios": "https://dc.lft.to/lastmile_qr_scan"}, "lat": 38.922093, "is_disabled": 0, "lon": -77.081826}, {"fusion_lat": 0.0, "type": "electric_scooter", "name": "896f69e0c3a9d3ee039de19c724d39cc", "fusion_lon": 0.0, "bike_id": "896f69e0c3a9d3ee039de19c724d39cc", "is_reserved": 0, "rental_uris": {"android": "https://dc.lft.to/lastmile_qr_scan", "ios": "https://dc.lft.to/lastmile_qr_scan"}, "lat": 38.91990333333333, "is_disabled": 0, "lon": -77.02404716666666}, {"fusion_lat": 0.0, "type": "electric_scooter", "name": "2a29be0a7313183aabbfad9e2d0fc7f1", "fusion_lon": 0.0, "bike_id": "2a29be0a7313183aabbfad9e2d0fc7f1", "is_reserved": 0, "rental_uris": {"android": "https://dc.lft.to/lastmile_qr_scan", "ios": "https://dc.lft.to/lastmile_qr_scan"}, "lat": 38.898407, "is_disabled": 0, "lon": -77.03317483333333}, {"fusion_lat": 0.0, "type": "electric_scooter", "name": "2bb24ceb62c5378cb86bd8c5efc5864a", "fusion_lon": 0.0, "bike_id": "2bb24ceb62c5378cb86bd8c5efc5864a", "is_reserved": 0, "rental_uris": {"android": "https://dc.lft.to/lastmile_qr_scan", "ios": "https://dc.lft.to/lastmile_qr_scan"}, "lat": 38.918707166666664, "is_disabled": 0, "lon": -77.03764666666666}, {"fusion_lat": 0.0, "type": "electric_scooter", "name": "62129bc3bec73c251fc943f83480a363", "fusion_lon": 0.0, "bike_id": "62129bc3bec73c251fc943f83480a363", "is_reserved": 0, "rental_uris": {"android": "https://dc.lft.to/lastmile_qr_scan", "ios": "https://dc.lft.to/lastmile_qr_scan"}, "lat": 38.8874595, "is_disabled": 0, "lon": -77.02729633333334}, {"fusion_lat": 0.0, "type": "electric_scooter", "name": "23ba4a34cedbfbaab50080a76a4265eb", "fusion_lon": 0.0, "bike_id": "23ba4a34cedbfbaab50080a76a4265eb", "is_reserved": 0, "rental_uris": {"android": "https://dc.lft.to/lastmile_qr_scan", "ios": "https://dc.lft.to/lastmile_qr_scan"}, "lat": 38.857182333333334, "is_disabled": 0, "lon": -76.98923666666667}, {"fusion_lat": 0.0, "type": "electric_scooter", "name": "c7aa8066eb3490e566f878a7bdaf56ef", "fusion_lon": 0.0, "bike_id": "c7aa8066eb3490e566f878a7bdaf56ef", "is_reserved": 0, "rental_uris": {"android": "https://dc.lft.to/lastmile_qr_scan", "ios": "https://dc.lft.to/lastmile_qr_scan"}, "lat": 38.877832, "is_disabled": 0, "lon": -76.99358916666667}, {"fusion_lat": 0.0, "type": "electric_scooter", "name": "117904fc4ec5b47fbd47857f8154eeb1", "fusion_lon": 0.0, "bike_id": "117904fc4ec5b47fbd47857f8154eeb1", "is_reserved": 0, "rental_uris": {"android": "https://dc.lft.to/lastmile_qr_scan", "ios": "https://dc.lft.to/lastmile_qr_scan"}, "lat": 38.907631333333335, "is_disabled": 0, "lon": -76.99305233333334}, {"fusion_lat": 0.0, "type": "electric_scooter", "name": "d23a1ae35f28927f1412a1d68f4856f3", "fusion_lon": 0.0, "bike_id": "d23a1ae35f28927f1412a1d68f4856f3", "is_reserved": 0, "rental_uris": {"android": "https://dc.lft.to/lastmile_qr_scan", "ios": "https://dc.lft.to/lastmile_qr_scan"}, "lat": 38.922794, "is_disabled": 0, "lon": -77.039018}, {"fusion_lat": 0.0, "type": "electric_scooter", "name": "60173df7d7dca32430c13f9fd62a940d", "fusion_lon": 0.0, "bike_id": "60173df7d7dca32430c13f9fd62a940d", "is_reserved": 0, "rental_uris": {"android": "https://dc.lft.to/lastmile_qr_scan", "ios": "https://dc.lft.to/lastmile_qr_scan"}, "lat": 38.874613833333335, "is_disabled": 0, "lon": -77.01124566666667}, {"fusion_lat": 0.0, "type": "electric_scooter", "name": "17bd9cdbe4eeb61b1edfe6627caef0f3", "fusion_lon": 0.0, "bike_id": "17bd9cdbe4eeb61b1edfe6627caef0f3", "is_reserved": 0, "rental_uris": {"android": "https://dc.lft.to/lastmile_qr_scan", "ios": "https://dc.lft.to/lastmile_qr_scan"}, "lat": 38.87658233333333, "is_disabled": 0, "lon": -76.99451433333333}, {"fusion_lat": 0.0, "type": "electric_scooter", "name": "86e909aab797acbe1bd6fc4c77651468", "fusion_lon": 0.0, "bike_id": "86e909aab797acbe1bd6fc4c77651468", "is_reserved": 0, "rental_uris": {"android": "https://dc.lft.to/lastmile_qr_scan", "ios": "https://dc.lft.to/lastmile_qr_scan"}, "lat": 38.9002785, "is_disabled": 0, "lon": -77.01860933333333}, {"fusion_lat": 0.0, "type": "electric_scooter", "name": "2c37e3b2130728d3674647a64da0dd0a", "fusion_lon": 0.0, "bike_id": "2c37e3b2130728d3674647a64da0dd0a", "is_reserved": 0, "rental_uris": {"android": "https://dc.lft.to/lastmile_qr_scan", "ios": "https://dc.lft.to/lastmile_qr_scan"}, "lat": 38.90667216666667, "is_disabled": 0, "lon": -77.00042}, {"fusion_lat": 0.0, "type": "electric_scooter", "name": "9ca845af47d990efa07269889b10de84", "fusion_lon": 0.0, "bike_id": "9ca845af47d990efa07269889b10de84", "is_reserved": 0, "rental_uris": {"android": "https://dc.lft.to/lastmile_qr_scan", "ios": "https://dc.lft.to/lastmile_qr_scan"}, "lat": 38.910717, "is_disabled": 0, "lon": -77.03467616666667}, {"fusion_lat": 0.0, "type": "electric_scooter", "name": "82cb9d6af25b26aeeacc90de0c0d5551", "fusion_lon": 0.0, "bike_id": "82cb9d6af25b26aeeacc90de0c0d5551", "is_reserved": 0, "rental_uris": {"android": "https://dc.lft.to/lastmile_qr_scan", "ios": "https://dc.lft.to/lastmile_qr_scan"}, "lat": 38.9236105, "is_disabled": 0, "lon": -77.0730165}, {"fusion_lat": 0.0, "type": "electric_scooter", "name": "b276508539bdce416d1d5a6b89c6fd99", "fusion_lon": 0.0, "bike_id": "b276508539bdce416d1d5a6b89c6fd99", "is_reserved": 0, "rental_uris": {"android": "https://dc.lft.to/lastmile_qr_scan", "ios": "https://dc.lft.to/lastmile_qr_scan"}, "lat": 38.92274283333333, "is_disabled": 0, "lon": -77.03409633333334}, {"fusion_lat": 0.0, "type": "electric_scooter", "name": "c832dea1a8f1d48fbdf456840471eb86", "fusion_lon": 0.0, "bike_id": "c832dea1a8f1d48fbdf456840471eb86", "is_reserved": 0, "rental_uris": {"android": "https://dc.lft.to/lastmile_qr_scan", "ios": "https://dc.lft.to/lastmile_qr_scan"}, "lat": 38.9313285, "is_disabled": 0, "lon": -77.0236665}, {"fusion_lat": 0.0, "type": "electric_bike", "name": "2bb2b914945c58d866ec074b992cde7f", "fusion_lon": 0.0, "bike_id": "2bb2b914945c58d866ec074b992cde7f", "is_reserved": 0, "rental_uris": {"android": "https://dc.lft.to/lastmile_qr_scan", "ios": "https://dc.lft.to/lastmile_qr_scan"}, "lat": 38.80760766666667, "is_disabled": 0, "lon": -77.094702}, {"fusion_lat": 0.0, "type": "electric_scooter", "name": "a2939b6cc41c911a655a97fe81f1cf57", "fusion_lon": 0.0, "bike_id": "a2939b6cc41c911a655a97fe81f1cf57", "is_reserved": 0, "rental_uris": {"android": "https://dc.lft.to/lastmile_qr_scan", "ios": "https://dc.lft.to/lastmile_qr_scan"}, "lat": 38.86426433333333, "is_disabled": 0, "lon": -76.97406233333334}, {"fusion_lat": 0.0, "type": "electric_scooter", "name": "0c96bd8bf359465dcf0c4a4b4a0c5d49", "fusion_lon": 0.0, "bike_id": "0c96bd8bf359465dcf0c4a4b4a0c5d49", "is_reserved": 0, "rental_uris": {"android": "https://dc.lft.to/lastmile_qr_scan", "ios": "https://dc.lft.to/lastmile_qr_scan"}, "lat": 38.957315666666666, "is_disabled": 0, "lon": -77.024032}, {"fusion_lat": 0.0, "type": "electric_scooter", "name": "bcb09cba36026f5e5c5b8d65fbc9a890", "fusion_lon": 0.0, "bike_id": "bcb09cba36026f5e5c5b8d65fbc9a890", "is_reserved": 0, "rental_uris": {"android": "https://dc.lft.to/lastmile_qr_scan", "ios": "https://dc.lft.to/lastmile_qr_scan"}, "lat": 38.935553666666664, "is_disabled": 0, "lon": -77.022204}, {"fusion_lat": 0.0, "type": "electric_scooter", "name": "35d824843e1401eebaadc29baf32dc2d", "fusion_lon": 0.0, "bike_id": "35d824843e1401eebaadc29baf32dc2d", "is_reserved": 0, "rental_uris": {"android": "https://dc.lft.to/lastmile_qr_scan", "ios": "https://dc.lft.to/lastmile_qr_scan"}, "lat": 38.9294505, "is_disabled": 0, "lon": -77.01642366666667}, {"fusion_lat": 0.0, "type": "electric_scooter", "name": "c35c974588817df8e416e6caf85bc249", "fusion_lon": 0.0, "bike_id": "c35c974588817df8e416e6caf85bc249", "is_reserved": 0, "rental_uris": {"android": "https://dc.lft.to/lastmile_qr_scan", "ios": "https://dc.lft.to/lastmile_qr_scan"}, "lat": 38.89454683333334, "is_disabled": 0, "lon": -76.99834566666667}, {"fusion_lat": 0.0, "type": "electric_scooter", "name": "0bce5f0034d501118040730e84581703", "fusion_lon": 0.0, "bike_id": "0bce5f0034d501118040730e84581703", "is_reserved": 0, "rental_uris": {"android": "https://dc.lft.to/lastmile_qr_scan", "ios": "https://dc.lft.to/lastmile_qr_scan"}, "lat": 38.922885666666666, "is_disabled": 0, "lon": -77.02964433333334}, {"fusion_lat": 0.0, "type": "electric_scooter", "name": "a58da2cb45bc53b8df259d5bf3a62baf", "fusion_lon": 0.0, "bike_id": "a58da2cb45bc53b8df259d5bf3a62baf", "is_reserved": 0, "rental_uris": {"android": "https://dc.lft.to/lastmile_qr_scan", "ios": "https://dc.lft.to/lastmile_qr_scan"}, "lat": 38.919313333333335, "is_disabled": 0, "lon": -76.9994035}, {"fusion_lat": 0.0, "type": "electric_scooter", "name": "5bbf0dfccc4fdcd99bf2cf320ace6ad9", "fusion_lon": 0.0, "bike_id": "5bbf0dfccc4fdcd99bf2cf320ace6ad9", "is_reserved": 0, "rental_uris": {"android": "https://dc.lft.to/lastmile_qr_scan", "ios": "https://dc.lft.to/lastmile_qr_scan"}, "lat": 38.915854833333334, "is_disabled": 0, "lon": -77.0437215}, {"fusion_lat": 0.0, "type": "electric_scooter", "name": "ef7cbc267e592dd182fdd34ec7d5a4ae", "fusion_lon": 0.0, "bike_id": "ef7cbc267e592dd182fdd34ec7d5a4ae", "is_reserved": 0, "rental_uris": {"android": "https://dc.lft.to/lastmile_qr_scan", "ios": "https://dc.lft.to/lastmile_qr_scan"}, "lat": 38.90699, "is_disabled": 0, "lon": -77.04475566666666}, {"fusion_lat": 0.0, "type": "electric_scooter", "name": "81fa1084a88a325c624af1eb7cf4c8d7", "fusion_lon": 0.0, "bike_id": "81fa1084a88a325c624af1eb7cf4c8d7", "is_reserved": 0, "rental_uris": {"android": "https://dc.lft.to/lastmile_qr_scan", "ios": "https://dc.lft.to/lastmile_qr_scan"}, "lat": 38.92462783333333, "is_disabled": 0, "lon": -77.05758733333333}, {"fusion_lat": 0.0, "type": "electric_bike", "name": "b7d927cf90da8ab8abc3e6faa6d446d2", "fusion_lon": 0.0, "bike_id": "b7d927cf90da8ab8abc3e6faa6d446d2", "is_reserved": 0, "rental_uris": {"android": "https://dc.lft.to/lastmile_qr_scan", "ios": "https://dc.lft.to/lastmile_qr_scan"}, "lat": 38.895593, "is_disabled": 0, "lon": -77.12731266666667}, {"fusion_lat": 0.0, "type": "electric_scooter", "name": "f51b7ea88b6d151381ebe2881fededde", "fusion_lon": 0.0, "bike_id": "f51b7ea88b6d151381ebe2881fededde", "is_reserved": 0, "rental_uris": {"android": "https://dc.lft.to/lastmile_qr_scan", "ios": "https://dc.lft.to/lastmile_qr_scan"}, "lat": 38.91867516666667, "is_disabled": 0, "lon": -77.04606583333333}, {"fusion_lat": 0.0, "type": "electric_scooter", "name": "b72c6313fec2d7fba2e6e2b9d87db333", "fusion_lon": 0.0, "bike_id": "b72c6313fec2d7fba2e6e2b9d87db333", "is_reserved": 0, "rental_uris": {"android": "https://dc.lft.to/lastmile_qr_scan", "ios": "https://dc.lft.to/lastmile_qr_scan"}, "lat": 38.863786833333336, "is_disabled": 0, "lon": -76.99054766666667}, {"fusion_lat": 0.0, "type": "electric_scooter", "name": "e73da9be4dd8af7a708c1c98d1fa33d9", "fusion_lon": 0.0, "bike_id": "e73da9be4dd8af7a708c1c98d1fa33d9", "is_reserved": 0, "rental_uris": {"android": "https://dc.lft.to/lastmile_qr_scan", "ios": "https://dc.lft.to/lastmile_qr_scan"}, "lat": 38.917015, "is_disabled": 0, "lon": -77.04048333333333}, {"fusion_lat": 0.0, "type": "electric_scooter", "name": "1d73e8df53df789ed1b889e9f351c81a", "fusion_lon": 0.0, "bike_id": "1d73e8df53df789ed1b889e9f351c81a", "is_reserved": 0, "rental_uris": {"android": "https://dc.lft.to/lastmile_qr_scan", "ios": "https://dc.lft.to/lastmile_qr_scan"}, "lat": 38.915438, "is_disabled": 0, "lon": -77.0385955}, {"fusion_lat": 0.0, "type": "electric_scooter", "name": "79f6f6bad6a17d99da9b80a8ed2701a2", "fusion_lon": 0.0, "bike_id": "79f6f6bad6a17d99da9b80a8ed2701a2", "is_reserved": 0, "rental_uris": {"android": "https://dc.lft.to/lastmile_qr_scan", "ios": "https://dc.lft.to/lastmile_qr_scan"}, "lat": 38.89428733333333, "is_disabled": 0, "lon": -76.94879133333333}, {"fusion_lat": 0.0, "type": "electric_scooter", "name": "c28ef044547492a9dcd65bc0f8101451", "fusion_lon": 0.0, "bike_id": "c28ef044547492a9dcd65bc0f8101451", "is_reserved": 0, "rental_uris": {"android": "https://dc.lft.to/lastmile_qr_scan", "ios": "https://dc.lft.to/lastmile_qr_scan"}, "lat": 38.92049516666667, "is_disabled": 0, "lon": -77.03659683333333}, {"fusion_lat": 0.0, "type": "electric_scooter", "name": "ab59ed13c4ab1ca846684157d4aeb9a0", "fusion_lon": 0.0, "bike_id": "ab59ed13c4ab1ca846684157d4aeb9a0", "is_reserved": 0, "rental_uris": {"android": "https://dc.lft.to/lastmile_qr_scan", "ios": "https://dc.lft.to/lastmile_qr_scan"}, "lat": 38.9316205, "is_disabled": 0, "lon": -77.05613216666667}, {"fusion_lat": 0.0, "type": "electric_scooter", "name": "fce82491645190c85cf0d2ea57e67330", "fusion_lon": 0.0, "bike_id": "fce82491645190c85cf0d2ea57e67330", "is_reserved": 0, "rental_uris": {"android": "https://dc.lft.to/lastmile_qr_scan", "ios": "https://dc.lft.to/lastmile_qr_scan"}, "lat": 38.92194216666667, "is_disabled": 0, "lon": -77.04234066666666}, {"fusion_lat": 0.0, "type": "electric_scooter", "name": "e45ad4435a6010c55ba6ad9c907e05de", "fusion_lon": 0.0, "bike_id": "e45ad4435a6010c55ba6ad9c907e05de", "is_reserved": 0, "rental_uris": {"android": "https://dc.lft.to/lastmile_qr_scan", "ios": "https://dc.lft.to/lastmile_qr_scan"}, "lat": 38.891009333333336, "is_disabled": 0, "lon": -77.00286233333334}, {"fusion_lat": 0.0, "type": "electric_scooter", "name": "100e7c32f14fe6f63f8dd689d62a97b7", "fusion_lon": 0.0, "bike_id": "100e7c32f14fe6f63f8dd689d62a97b7", "is_reserved": 0, "rental_uris": {"android": "https://dc.lft.to/lastmile_qr_scan", "ios": "https://dc.lft.to/lastmile_qr_scan"}, "lat": 38.933959333333334, "is_disabled": 0, "lon": -77.04126683333334}, {"fusion_lat": 0.0, "type": "electric_scooter", "name": "048412440d29e6e325be7a549899c45a", "fusion_lon": 0.0, "bike_id": "048412440d29e6e325be7a549899c45a", "is_reserved": 0, "rental_uris": {"android": "https://dc.lft.to/lastmile_qr_scan", "ios": "https://dc.lft.to/lastmile_qr_scan"}, "lat": 38.940991333333336, "is_disabled": 0, "lon": -77.0211195}, {"fusion_lat": 0.0, "type": "electric_bike", "name": "d5e5d3aadbe9ad41635b793924b7e189", "fusion_lon": 0.0, "bike_id": "d5e5d3aadbe9ad41635b793924b7e189", "is_reserved": 0, "rental_uris": {"android": "https://dc.lft.to/lastmile_qr_scan", "ios": "https://dc.lft.to/lastmile_qr_scan"}, "lat": 38.919255, "is_disabled": 0, "lon": -77.07380383333333}, {"fusion_lat": 0.0, "type": "electric_scooter", "name": "5c4ea602bfa8bb7edf4fca666e52c518", "fusion_lon": 0.0, "bike_id": "5c4ea602bfa8bb7edf4fca666e52c518", "is_reserved": 0, "rental_uris": {"android": "https://dc.lft.to/lastmile_qr_scan", "ios": "https://dc.lft.to/lastmile_qr_scan"}, "lat": 38.882037833333335, "is_disabled": 0, "lon": -77.0174915}, {"fusion_lat": 0.0, "type": "electric_bike", "name": "cc7461e988e3756abf40eccd21fe8b0d", "fusion_lon": 0.0, "bike_id": "cc7461e988e3756abf40eccd21fe8b0d", "is_reserved": 0, "rental_uris": {"android": "https://dc.lft.to/lastmile_qr_scan", "ios": "https://dc.lft.to/lastmile_qr_scan"}, "lat": 38.8501575, "is_disabled": 0, "lon": -77.09827233333333}, {"fusion_lat": 0.0, "type": "electric_scooter", "name": "45154898d663383c5fd0dd94bd9bba51", "fusion_lon": 0.0, "bike_id": "45154898d663383c5fd0dd94bd9bba51", "is_reserved": 0, "rental_uris": {"android": "https://dc.lft.to/lastmile_qr_scan", "ios": "https://dc.lft.to/lastmile_qr_scan"}, "lat": 38.88718, "is_disabled": 0, "lon": -77.01782733333333}, {"fusion_lat": 0.0, "type": "electric_scooter", "name": "ba909cc699113e6361e052fe4ec82ae8", "fusion_lon": 0.0, "bike_id": "ba909cc699113e6361e052fe4ec82ae8", "is_reserved": 0, "rental_uris": {"android": "https://dc.lft.to/lastmile_qr_scan", "ios": "https://dc.lft.to/lastmile_qr_scan"}, "lat": 38.900526, "is_disabled": 0, "lon": -76.99030483333334}, {"fusion_lat": 0.0, "type": "electric_scooter", "name": "fe7dc82663f1c203de775a4bbb782ceb", "fusion_lon": 0.0, "bike_id": "fe7dc82663f1c203de775a4bbb782ceb", "is_reserved": 0, "rental_uris": {"android": "https://dc.lft.to/lastmile_qr_scan", "ios": "https://dc.lft.to/lastmile_qr_scan"}, "lat": 38.9216085, "is_disabled": 0, "lon": -77.033842}, {"fusion_lat": 0.0, "type": "electric_scooter", "name": "8c049a0da5c2849a37dae04d33377048", "fusion_lon": 0.0, "bike_id": "8c049a0da5c2849a37dae04d33377048", "is_reserved": 0, "rental_uris": {"android": "https://dc.lft.to/lastmile_qr_scan", "ios": "https://dc.lft.to/lastmile_qr_scan"}, "lat": 38.917671666666664, "is_disabled": 0, "lon": -77.01489766666667}, {"fusion_lat": 0.0, "type": "electric_scooter", "name": "ef0115af497eede92991cac30a6d0d4e", "fusion_lon": 0.0, "bike_id": "ef0115af497eede92991cac30a6d0d4e", "is_reserved": 0, "rental_uris": {"android": "https://dc.lft.to/lastmile_qr_scan", "ios": "https://dc.lft.to/lastmile_qr_scan"}, "lat": 38.878030833333334, "is_disabled": 0, "lon": -77.01771916666667}, {"fusion_lat": 0.0, "type": "electric_scooter", "name": "300962571ce78c77732132bc159de4ff", "fusion_lon": 0.0, "bike_id": "300962571ce78c77732132bc159de4ff", "is_reserved": 0, "rental_uris": {"android": "https://dc.lft.to/lastmile_qr_scan", "ios": "https://dc.lft.to/lastmile_qr_scan"}, "lat": 38.90973366666667, "is_disabled": 0, "lon": -77.02080266666667}, {"fusion_lat": 0.0, "type": "electric_bike", "name": "3f881de151a13414fd33531addc08830", "fusion_lon": 0.0, "bike_id": "3f881de151a13414fd33531addc08830", "is_reserved": 0, "rental_uris": {"android": "https://dc.lft.to/lastmile_qr_scan", "ios": "https://dc.lft.to/lastmile_qr_scan"}, "lat": 39.04233283333333, "is_disabled": 0, "lon": -77.0307095}, {"fusion_lat": 0.0, "type": "electric_scooter", "name": "70942f01f2d0602619fc81fc1171ec6e", "fusion_lon": 0.0, "bike_id": "70942f01f2d0602619fc81fc1171ec6e", "is_reserved": 0, "rental_uris": {"android": "https://dc.lft.to/lastmile_qr_scan", "ios": "https://dc.lft.to/lastmile_qr_scan"}, "lat": 38.9284065, "is_disabled": 0, "lon": -77.03291383333334}, {"fusion_lat": 0.0, "type": "electric_scooter", "name": "114cd622fb46ae3b40cbc71079f6f583", "fusion_lon": 0.0, "bike_id": "114cd622fb46ae3b40cbc71079f6f583", "is_reserved": 0, "rental_uris": {"android": "https://dc.lft.to/lastmile_qr_scan", "ios": "https://dc.lft.to/lastmile_qr_scan"}, "lat": 38.90065083333333, "is_disabled": 0, "lon": -77.04535616666666}, {"fusion_lat": 0.0, "type": "electric_scooter", "name": "844eb18532ac926c9b968102da963850", "fusion_lon": 0.0, "bike_id": "844eb18532ac926c9b968102da963850", "is_reserved": 0, "rental_uris": {"android": "https://dc.lft.to/lastmile_qr_scan", "ios": "https://dc.lft.to/lastmile_qr_scan"}, "lat": 38.958245, "is_disabled": 0, "lon": -77.01511433333333}, {"fusion_lat": 0.0, "type": "electric_scooter", "name": "87b1e28bc3f8120d434c55c517b4738a", "fusion_lon": 0.0, "bike_id": "87b1e28bc3f8120d434c55c517b4738a", "is_reserved": 0, "rental_uris": {"android": "https://dc.lft.to/lastmile_qr_scan", "ios": "https://dc.lft.to/lastmile_qr_scan"}, "lat": 38.87644566666667, "is_disabled": 0, "lon": -76.96506583333333}, {"fusion_lat": 0.0, "type": "electric_scooter", "name": "e25b2cb682307b6cb80e859079c51411", "fusion_lon": 0.0, "bike_id": "e25b2cb682307b6cb80e859079c51411", "is_reserved": 0, "rental_uris": {"android": "https://dc.lft.to/lastmile_qr_scan", "ios": "https://dc.lft.to/lastmile_qr_scan"}, "lat": 38.89747083333334, "is_disabled": 0, "lon": -77.013593}, {"fusion_lat": 0.0, "type": "electric_scooter", "name": "2bdcdd08728927d88d7dbe694c285d18", "fusion_lon": 0.0, "bike_id": "2bdcdd08728927d88d7dbe694c285d18", "is_reserved": 0, "rental_uris": {"android": "https://dc.lft.to/lastmile_qr_scan", "ios": "https://dc.lft.to/lastmile_qr_scan"}, "lat": 38.9420525, "is_disabled": 0, "lon": -77.025132}, {"fusion_lat": 0.0, "type": "electric_scooter", "name": "44c8b28e7367e82cde625c8f7b2e04c9", "fusion_lon": 0.0, "bike_id": "44c8b28e7367e82cde625c8f7b2e04c9", "is_reserved": 0, "rental_uris": {"android": "https://dc.lft.to/lastmile_qr_scan", "ios": "https://dc.lft.to/lastmile_qr_scan"}, "lat": 38.892221666666664, "is_disabled": 0, "lon": -77.043063}, {"fusion_lat": 0.0, "type": "electric_bike", "name": "73fb755c01f45731f84957bb453b912f", "fusion_lon": 0.0, "bike_id": "73fb755c01f45731f84957bb453b912f", "is_reserved": 0, "rental_uris": {"android": "https://dc.lft.to/lastmile_qr_scan", "ios": "https://dc.lft.to/lastmile_qr_scan"}, "lat": 38.95497433333333, "is_disabled": 0, "lon": -76.99383083333333}, {"fusion_lat": 0.0, "type": "electric_scooter", "name": "77207e3cee898ceec25102c3e6de90d5", "fusion_lon": 0.0, "bike_id": "77207e3cee898ceec25102c3e6de90d5", "is_reserved": 0, "rental_uris": {"android": "https://dc.lft.to/lastmile_qr_scan", "ios": "https://dc.lft.to/lastmile_qr_scan"}, "lat": 38.9308245, "is_disabled": 0, "lon": -77.02794983333334}, {"fusion_lat": 0.0, "type": "electric_scooter", "name": "9bf877d6527bd802f7a216979deb47b1", "fusion_lon": 0.0, "bike_id": "9bf877d6527bd802f7a216979deb47b1", "is_reserved": 0, "rental_uris": {"android": "https://dc.lft.to/lastmile_qr_scan", "ios": "https://dc.lft.to/lastmile_qr_scan"}, "lat": 38.9208885, "is_disabled": 0, "lon": -77.02682933333334}, {"fusion_lat": 0.0, "type": "electric_scooter", "name": "2d099189b69e30e48ed027b22cb1153f", "fusion_lon": 0.0, "bike_id": "2d099189b69e30e48ed027b22cb1153f", "is_reserved": 0, "rental_uris": {"android": "https://dc.lft.to/lastmile_qr_scan", "ios": "https://dc.lft.to/lastmile_qr_scan"}, "lat": 38.917999, "is_disabled": 0, "lon": -77.04535916666667}, {"fusion_lat": 0.0, "type": "electric_scooter", "name": "853ccb5aa0e909ed2a200c30f3bb49eb", "fusion_lon": 0.0, "bike_id": "853ccb5aa0e909ed2a200c30f3bb49eb", "is_reserved": 0, "rental_uris": {"android": "https://dc.lft.to/lastmile_qr_scan", "ios": "https://dc.lft.to/lastmile_qr_scan"}, "lat": 38.911042, "is_disabled": 0, "lon": -77.033225}, {"fusion_lat": 0.0, "type": "electric_scooter", "name": "8659764b2f75810329d1b1a2cd223024", "fusion_lon": 0.0, "bike_id": "8659764b2f75810329d1b1a2cd223024", "is_reserved": 0, "rental_uris": {"android": "https://dc.lft.to/lastmile_qr_scan", "ios": "https://dc.lft.to/lastmile_qr_scan"}, "lat": 38.9282675, "is_disabled": 0, "lon": -77.02257683333333}, {"fusion_lat": 0.0, "type": "electric_scooter", "name": "0a9471fa90de0baaa9837704e5995f8b", "fusion_lon": 0.0, "bike_id": "0a9471fa90de0baaa9837704e5995f8b", "is_reserved": 0, "rental_uris": {"android": "https://dc.lft.to/lastmile_qr_scan", "ios": "https://dc.lft.to/lastmile_qr_scan"}, "lat": 38.943966833333334, "is_disabled": 0, "lon": -77.02680516666666}, {"fusion_lat": 0.0, "type": "electric_scooter", "name": "26d17f980b5dba3531dee189ec629e4c", "fusion_lon": 0.0, "bike_id": "26d17f980b5dba3531dee189ec629e4c", "is_reserved": 0, "rental_uris": {"android": "https://dc.lft.to/lastmile_qr_scan", "ios": "https://dc.lft.to/lastmile_qr_scan"}, "lat": 38.86658216666667, "is_disabled": 0, "lon": -76.984996}, {"fusion_lat": 0.0, "type": "electric_scooter", "name": "3be24267b8a0fe661e98f945a04052ed", "fusion_lon": 0.0, "bike_id": "3be24267b8a0fe661e98f945a04052ed", "is_reserved": 0, "rental_uris": {"android": "https://dc.lft.to/lastmile_qr_scan", "ios": "https://dc.lft.to/lastmile_qr_scan"}, "lat": 38.911978500000004, "is_disabled": 0, "lon": -77.02194666666666}, {"fusion_lat": 0.0, "type": "electric_bike", "name": "b174b7269260aa25133f11f638aa1be7", "fusion_lon": 0.0, "bike_id": "b174b7269260aa25133f11f638aa1be7", "is_reserved": 0, "rental_uris": {"android": "https://dc.lft.to/lastmile_qr_scan", "ios": "https://dc.lft.to/lastmile_qr_scan"}, "lat": 38.896133666666664, "is_disabled": 0, "lon": -76.9074295}, {"fusion_lat": 0.0, "type": "electric_scooter", "name": "17c706378a88e64d77dc8d379c42e3f4", "fusion_lon": 0.0, "bike_id": "17c706378a88e64d77dc8d379c42e3f4", "is_reserved": 0, "rental_uris": {"android": "https://dc.lft.to/lastmile_qr_scan", "ios": "https://dc.lft.to/lastmile_qr_scan"}, "lat": 38.902508, "is_disabled": 0, "lon": -76.974154}, {"fusion_lat": 0.0, "type": "electric_scooter", "name": "a7ea9a5b886c7aafd017000950a43cd4", "fusion_lon": 0.0, "bike_id": "a7ea9a5b886c7aafd017000950a43cd4", "is_reserved": 0, "rental_uris": {"android": "https://dc.lft.to/lastmile_qr_scan", "ios": "https://dc.lft.to/lastmile_qr_scan"}, "lat": 38.91238966666667, "is_disabled": 0, "lon": -77.00920266666667}, {"fusion_lat": 0.0, "type": "electric_scooter", "name": "7d0110028d77c1599be2e1b5710db92a", "fusion_lon": 0.0, "bike_id": "7d0110028d77c1599be2e1b5710db92a", "is_reserved": 0, "rental_uris": {"android": "https://dc.lft.to/lastmile_qr_scan", "ios": "https://dc.lft.to/lastmile_qr_scan"}, "lat": 38.922489666666664, "is_disabled": 0, "lon": -77.02858066666667}, {"fusion_lat": 0.0, "type": "electric_scooter", "name": "c57f8b8635cfb82684d27cb2e9c157fc", "fusion_lon": 0.0, "bike_id": "c57f8b8635cfb82684d27cb2e9c157fc", "is_reserved": 0, "rental_uris": {"android": "https://dc.lft.to/lastmile_qr_scan", "ios": "https://dc.lft.to/lastmile_qr_scan"}, "lat": 38.9084075, "is_disabled": 0, "lon": -77.0235715}, {"fusion_lat": 0.0, "type": "electric_scooter", "name": "4d7ff0d4502e34b375d01044161aefcb", "fusion_lon": 0.0, "bike_id": "4d7ff0d4502e34b375d01044161aefcb", "is_reserved": 0, "rental_uris": {"android": "https://dc.lft.to/lastmile_qr_scan", "ios": "https://dc.lft.to/lastmile_qr_scan"}, "lat": 38.874602833333334, "is_disabled": 0, "lon": -77.01592616666667}, {"fusion_lat": 0.0, "type": "electric_scooter", "name": "c35471ed8be17a44c04dc4fa3b3dc749", "fusion_lon": 0.0, "bike_id": "c35471ed8be17a44c04dc4fa3b3dc749", "is_reserved": 0, "rental_uris": {"android": "https://dc.lft.to/lastmile_qr_scan", "ios": "https://dc.lft.to/lastmile_qr_scan"}, "lat": 38.89774283333333, "is_disabled": 0, "lon": -77.054607}, {"fusion_lat": 0.0, "type": "electric_scooter", "name": "80276171d2dbfcb71d15b1fe41338217", "fusion_lon": 0.0, "bike_id": "80276171d2dbfcb71d15b1fe41338217", "is_reserved": 0, "rental_uris": {"android": "https://dc.lft.to/lastmile_qr_scan", "ios": "https://dc.lft.to/lastmile_qr_scan"}, "lat": 38.918070666666665, "is_disabled": 0, "lon": -77.030173}, {"fusion_lat": 0.0, "type": "electric_scooter", "name": "815b3ed7e599b388acc037c385ebe00c", "fusion_lon": 0.0, "bike_id": "815b3ed7e599b388acc037c385ebe00c", "is_reserved": 0, "rental_uris": {"android": "https://dc.lft.to/lastmile_qr_scan", "ios": "https://dc.lft.to/lastmile_qr_scan"}, "lat": 38.920851, "is_disabled": 0, "lon": -77.07364983333333}, {"fusion_lat": 0.0, "type": "electric_scooter", "name": "c7a01c4d4bf8c2aa1299f5bb76710dd3", "fusion_lon": 0.0, "bike_id": "c7a01c4d4bf8c2aa1299f5bb76710dd3", "is_reserved": 0, "rental_uris": {"android": "https://dc.lft.to/lastmile_qr_scan", "ios": "https://dc.lft.to/lastmile_qr_scan"}, "lat": 38.94117833333333, "is_disabled": 0, "lon": -77.01540483333333}, {"fusion_lat": 0.0, "type": "electric_scooter", "name": "d705175c8bc92e7e4cff3b20817ce51a", "fusion_lon": 0.0, "bike_id": "d705175c8bc92e7e4cff3b20817ce51a", "is_reserved": 0, "rental_uris": {"android": "https://dc.lft.to/lastmile_qr_scan", "ios": "https://dc.lft.to/lastmile_qr_scan"}, "lat": 38.844201166666664, "is_disabled": 0, "lon": -76.99775166666667}, {"fusion_lat": 0.0, "type": "electric_scooter", "name": "7b5c8b7acaf7cfa42ad3c1d143ce4d2c", "fusion_lon": 0.0, "bike_id": "7b5c8b7acaf7cfa42ad3c1d143ce4d2c", "is_reserved": 0, "rental_uris": {"android": "https://dc.lft.to/lastmile_qr_scan", "ios": "https://dc.lft.to/lastmile_qr_scan"}, "lat": 38.93492483333333, "is_disabled": 0, "lon": -77.02424133333334}, {"fusion_lat": 0.0, "type": "electric_scooter", "name": "bd98491a8fe0b8a3713f0fdb701f68ef", "fusion_lon": 0.0, "bike_id": "bd98491a8fe0b8a3713f0fdb701f68ef", "is_reserved": 0, "rental_uris": {"android": "https://dc.lft.to/lastmile_qr_scan", "ios": "https://dc.lft.to/lastmile_qr_scan"}, "lat": 38.90350816666667, "is_disabled": 0, "lon": -77.0611135}, {"fusion_lat": 0.0, "type": "electric_scooter", "name": "f1739628b6c085e0590150dddade8435", "fusion_lon": 0.0, "bike_id": "f1739628b6c085e0590150dddade8435", "is_reserved": 0, "rental_uris": {"android": "https://dc.lft.to/lastmile_qr_scan", "ios": "https://dc.lft.to/lastmile_qr_scan"}, "lat": 38.9203285, "is_disabled": 0, "lon": -77.04182483333334}, {"fusion_lat": 0.0, "type": "electric_scooter", "name": "1930a4d3a9bbbf7054a562d5f324f224", "fusion_lon": 0.0, "bike_id": "1930a4d3a9bbbf7054a562d5f324f224", "is_reserved": 0, "rental_uris": {"android": "https://dc.lft.to/lastmile_qr_scan", "ios": "https://dc.lft.to/lastmile_qr_scan"}, "lat": 38.92385566666667, "is_disabled": 0, "lon": -77.03663683333333}, {"fusion_lat": 0.0, "type": "electric_scooter", "name": "f14cea9f22f3587d65ba1e2dbc105078", "fusion_lon": 0.0, "bike_id": "f14cea9f22f3587d65ba1e2dbc105078", "is_reserved": 0, "rental_uris": {"android": "https://dc.lft.to/lastmile_qr_scan", "ios": "https://dc.lft.to/lastmile_qr_scan"}, "lat": 38.93605933333333, "is_disabled": 0, "lon": -77.02922566666666}, {"fusion_lat": 0.0, "type": "electric_scooter", "name": "aa2fe255a1c13aa80012f053090ab076", "fusion_lon": 0.0, "bike_id": "aa2fe255a1c13aa80012f053090ab076", "is_reserved": 0, "rental_uris": {"android": "https://dc.lft.to/lastmile_qr_scan", "ios": "https://dc.lft.to/lastmile_qr_scan"}, "lat": 38.92649766666667, "is_disabled": 0, "lon": -77.0413265}, {"fusion_lat": 0.0, "type": "electric_scooter", "name": "45699788f1cd3aaa38c5546ca7f15615", "fusion_lon": 0.0, "bike_id": "45699788f1cd3aaa38c5546ca7f15615", "is_reserved": 0, "rental_uris": {"android": "https://dc.lft.to/lastmile_qr_scan", "ios": "https://dc.lft.to/lastmile_qr_scan"}, "lat": 38.92488433333333, "is_disabled": 0, "lon": -77.03499283333333}, {"fusion_lat": 0.0, "type": "electric_scooter", "name": "c6260db462b319da0509127ad24521c8", "fusion_lon": 0.0, "bike_id": "c6260db462b319da0509127ad24521c8", "is_reserved": 0, "rental_uris": {"android": "https://dc.lft.to/lastmile_qr_scan", "ios": "https://dc.lft.to/lastmile_qr_scan"}, "lat": 38.83698916666667, "is_disabled": 0, "lon": -77.00572666666666}, {"fusion_lat": 0.0, "type": "electric_scooter", "name": "828a3ef41e9d6f28aed96f0e2a7ebdfb", "fusion_lon": 0.0, "bike_id": "828a3ef41e9d6f28aed96f0e2a7ebdfb", "is_reserved": 0, "rental_uris": {"android": "https://dc.lft.to/lastmile_qr_scan", "ios": "https://dc.lft.to/lastmile_qr_scan"}, "lat": 38.926636333333335, "is_disabled": 0, "lon": -77.02278116666666}, {"fusion_lat": 0.0, "type": "electric_scooter", "name": "f9fb28391fca7615771f29e4b49c1d60", "fusion_lon": 0.0, "bike_id": "f9fb28391fca7615771f29e4b49c1d60", "is_reserved": 0, "rental_uris": {"android": "https://dc.lft.to/lastmile_qr_scan", "ios": "https://dc.lft.to/lastmile_qr_scan"}, "lat": 38.927534, "is_disabled": 0, "lon": -77.032818}, {"fusion_lat": 0.0, "type": "electric_scooter", "name": "2c2197c2c916dad71cc2f0a1cc63605a", "fusion_lon": 0.0, "bike_id": "2c2197c2c916dad71cc2f0a1cc63605a", "is_reserved": 0, "rental_uris": {"android": "https://dc.lft.to/lastmile_qr_scan", "ios": "https://dc.lft.to/lastmile_qr_scan"}, "lat": 38.927367333333336, "is_disabled": 0, "lon": -77.022619}, {"fusion_lat": 0.0, "type": "electric_scooter", "name": "3e3e5b0e4a603ce95e60a431f3deac1a", "fusion_lon": 0.0, "bike_id": "3e3e5b0e4a603ce95e60a431f3deac1a", "is_reserved": 0, "rental_uris": {"android": "https://dc.lft.to/lastmile_qr_scan", "ios": "https://dc.lft.to/lastmile_qr_scan"}, "lat": 38.89547733333333, "is_disabled": 0, "lon": -77.009102}, {"fusion_lat": 0.0, "type": "electric_scooter", "name": "f2db82c353f2ab32c3f31a5ac7d67f0b", "fusion_lon": 0.0, "bike_id": "f2db82c353f2ab32c3f31a5ac7d67f0b", "is_reserved": 0, "rental_uris": {"android": "https://dc.lft.to/lastmile_qr_scan", "ios": "https://dc.lft.to/lastmile_qr_scan"}, "lat": 38.8983315, "is_disabled": 0, "lon": -77.03314033333334}, {"fusion_lat": 0.0, "type": "electric_scooter", "name": "5ffc89da8a8dcad8eb8c2de090ac2def", "fusion_lon": 0.0, "bike_id": "5ffc89da8a8dcad8eb8c2de090ac2def", "is_reserved": 0, "rental_uris": {"android": "https://dc.lft.to/lastmile_qr_scan", "ios": "https://dc.lft.to/lastmile_qr_scan"}, "lat": 38.923531833333335, "is_disabled": 0, "lon": -77.03509566666666}, {"fusion_lat": 0.0, "type": "electric_scooter", "name": "335ac7edfbb1c93eaf6253e151783f6d", "fusion_lon": 0.0, "bike_id": "335ac7edfbb1c93eaf6253e151783f6d", "is_reserved": 0, "rental_uris": {"android": "https://dc.lft.to/lastmile_qr_scan", "ios": "https://dc.lft.to/lastmile_qr_scan"}, "lat": 38.90388433333333, "is_disabled": 0, "lon": -77.01762566666666}, {"fusion_lat": 0.0, "type": "electric_scooter", "name": "fd200067ca84103cd6f6732759ee0b72", "fusion_lon": 0.0, "bike_id": "fd200067ca84103cd6f6732759ee0b72", "is_reserved": 0, "rental_uris": {"android": "https://dc.lft.to/lastmile_qr_scan", "ios": "https://dc.lft.to/lastmile_qr_scan"}, "lat": 38.92441816666667, "is_disabled": 0, "lon": -77.04030183333333}, {"fusion_lat": 0.0, "type": "electric_scooter", "name": "44459fd7c354f0dfa6f9b7c93f234883", "fusion_lon": 0.0, "bike_id": "44459fd7c354f0dfa6f9b7c93f234883", "is_reserved": 0, "rental_uris": {"android": "https://dc.lft.to/lastmile_qr_scan", "ios": "https://dc.lft.to/lastmile_qr_scan"}, "lat": 38.865045333333335, "is_disabled": 0, "lon": -76.99003733333333}, {"fusion_lat": 0.0, "type": "electric_scooter", "name": "15793da79063ef34349c9e0ae2e4cf28", "fusion_lon": 0.0, "bike_id": "15793da79063ef34349c9e0ae2e4cf28", "is_reserved": 0, "rental_uris": {"android": "https://dc.lft.to/lastmile_qr_scan", "ios": "https://dc.lft.to/lastmile_qr_scan"}, "lat": 38.893015166666665, "is_disabled": 0, "lon": -76.92922783333333}, {"fusion_lat": 0.0, "type": "electric_bike", "name": "5b5742cf8dfc75e3a5e9f82075f2afe2", "fusion_lon": 0.0, "bike_id": "5b5742cf8dfc75e3a5e9f82075f2afe2", "is_reserved": 0, "rental_uris": {"android": "https://dc.lft.to/lastmile_qr_scan", "ios": "https://dc.lft.to/lastmile_qr_scan"}, "lat": 38.811992000000004, "is_disabled": 0, "lon": -77.10838533333333}, {"fusion_lat": 0.0, "type": "electric_scooter", "name": "a61a31a70d9910fd5fda5d69c497c054", "fusion_lon": 0.0, "bike_id": "a61a31a70d9910fd5fda5d69c497c054", "is_reserved": 0, "rental_uris": {"android": "https://dc.lft.to/lastmile_qr_scan", "ios": "https://dc.lft.to/lastmile_qr_scan"}, "lat": 38.907501, "is_disabled": 0, "lon": -77.0009325}, {"fusion_lat": 0.0, "type": "electric_scooter", "name": "4b4224555ba799da363f1506bd5251b0", "fusion_lon": 0.0, "bike_id": "4b4224555ba799da363f1506bd5251b0", "is_reserved": 0, "rental_uris": {"android": "https://dc.lft.to/lastmile_qr_scan", "ios": "https://dc.lft.to/lastmile_qr_scan"}, "lat": 38.892489833333336, "is_disabled": 0, "lon": -77.03956166666667}, {"fusion_lat": 0.0, "type": "electric_scooter", "name": "d81a49d2fbf27e153b0b72ab27a1b2d6", "fusion_lon": 0.0, "bike_id": "d81a49d2fbf27e153b0b72ab27a1b2d6", "is_reserved": 0, "rental_uris": {"android": "https://dc.lft.to/lastmile_qr_scan", "ios": "https://dc.lft.to/lastmile_qr_scan"}, "lat": 38.900869666666665, "is_disabled": 0, "lon": -77.04761}, {"fusion_lat": 0.0, "type": "electric_scooter", "name": "a4cb56f6b58e24724b304a80771b25ff", "fusion_lon": 0.0, "bike_id": "a4cb56f6b58e24724b304a80771b25ff", "is_reserved": 0, "rental_uris": {"android": "https://dc.lft.to/lastmile_qr_scan", "ios": "https://dc.lft.to/lastmile_qr_scan"}, "lat": 38.93244833333333, "is_disabled": 0, "lon": -77.03849366666667}, {"fusion_lat": 0.0, "type": "electric_bike", "name": "0d33e354e007355ba9f985917a0b43be", "fusion_lon": 0.0, "bike_id": "0d33e354e007355ba9f985917a0b43be", "is_reserved": 0, "rental_uris": {"android": "https://dc.lft.to/lastmile_qr_scan", "ios": "https://dc.lft.to/lastmile_qr_scan"}, "lat": 38.888135166666665, "is_disabled": 0, "lon": -77.03841316666667}, {"fusion_lat": 0.0, "type": "electric_scooter", "name": "f63c3a8fc8cefb930ddf7bb15763f82a", "fusion_lon": 0.0, "bike_id": "f63c3a8fc8cefb930ddf7bb15763f82a", "is_reserved": 0, "rental_uris": {"android": "https://dc.lft.to/lastmile_qr_scan", "ios": "https://dc.lft.to/lastmile_qr_scan"}, "lat": 38.892406666666666, "is_disabled": 0, "lon": -77.0416255}, {"fusion_lat": 0.0, "type": "electric_scooter", "name": "d1055af75e1e25e2b2091939859e13eb", "fusion_lon": 0.0, "bike_id": "d1055af75e1e25e2b2091939859e13eb", "is_reserved": 0, "rental_uris": {"android": "https://dc.lft.to/lastmile_qr_scan", "ios": "https://dc.lft.to/lastmile_qr_scan"}, "lat": 38.888692666666664, "is_disabled": 0, "lon": -77.03997316666667}, {"fusion_lat": 0.0, "type": "electric_scooter", "name": "cf4a934497b80bf1e3abe9190fdf77a3", "fusion_lon": 0.0, "bike_id": "cf4a934497b80bf1e3abe9190fdf77a3", "is_reserved": 0, "rental_uris": {"android": "https://dc.lft.to/lastmile_qr_scan", "ios": "https://dc.lft.to/lastmile_qr_scan"}, "lat": 38.909602166666666, "is_disabled": 0, "lon": -77.02380383333333}, {"fusion_lat": 0.0, "type": "electric_scooter", "name": "7403dd496a7534aba514d46c166fdc44", "fusion_lon": 0.0, "bike_id": "7403dd496a7534aba514d46c166fdc44", "is_reserved": 0, "rental_uris": {"android": "https://dc.lft.to/lastmile_qr_scan", "ios": "https://dc.lft.to/lastmile_qr_scan"}, "lat": 38.927237833333336, "is_disabled": 0, "lon": -77.035258}, {"fusion_lat": 0.0, "type": "electric_scooter", "name": "f08e4be6157e7897ca6236f35bc6fc3f", "fusion_lon": 0.0, "bike_id": "f08e4be6157e7897ca6236f35bc6fc3f", "is_reserved": 0, "rental_uris": {"android": "https://dc.lft.to/lastmile_qr_scan", "ios": "https://dc.lft.to/lastmile_qr_scan"}, "lat": 38.939056, "is_disabled": 0, "lon": -77.02480766666666}, {"fusion_lat": 0.0, "type": "electric_scooter", "name": "9a1cfaa5f580ab3f8d40342e9c5f2bf9", "fusion_lon": 0.0, "bike_id": "9a1cfaa5f580ab3f8d40342e9c5f2bf9", "is_reserved": 0, "rental_uris": {"android": "https://dc.lft.to/lastmile_qr_scan", "ios": "https://dc.lft.to/lastmile_qr_scan"}, "lat": 38.90145183333333, "is_disabled": 0, "lon": -77.0331605}, {"fusion_lat": 0.0, "type": "electric_scooter", "name": "d24da0a004954aa2243d34febbc7015a", "fusion_lon": 0.0, "bike_id": "d24da0a004954aa2243d34febbc7015a", "is_reserved": 0, "rental_uris": {"android": "https://dc.lft.to/lastmile_qr_scan", "ios": "https://dc.lft.to/lastmile_qr_scan"}, "lat": 38.915567333333335, "is_disabled": 0, "lon": -77.0313665}, {"fusion_lat": 0.0, "type": "electric_scooter", "name": "3fc89c6a9a87f3831ebcc686f9527107", "fusion_lon": 0.0, "bike_id": "3fc89c6a9a87f3831ebcc686f9527107", "is_reserved": 0, "rental_uris": {"android": "https://dc.lft.to/lastmile_qr_scan", "ios": "https://dc.lft.to/lastmile_qr_scan"}, "lat": 38.89998216666667, "is_disabled": 0, "lon": -76.95192466666667}, {"fusion_lat": 0.0, "type": "electric_scooter", "name": "588b1d35adbcc10fec8a0fae5ec3c98a", "fusion_lon": 0.0, "bike_id": "588b1d35adbcc10fec8a0fae5ec3c98a", "is_reserved": 0, "rental_uris": {"android": "https://dc.lft.to/lastmile_qr_scan", "ios": "https://dc.lft.to/lastmile_qr_scan"}, "lat": 38.900602, "is_disabled": 0, "lon": -77.01223833333333}, {"fusion_lat": 0.0, "type": "electric_scooter", "name": "711971cee327c3379a3f033a9648c116", "fusion_lon": 0.0, "bike_id": "711971cee327c3379a3f033a9648c116", "is_reserved": 0, "rental_uris": {"android": "https://dc.lft.to/lastmile_qr_scan", "ios": "https://dc.lft.to/lastmile_qr_scan"}, "lat": 38.910661833333336, "is_disabled": 0, "lon": -77.02699866666667}, {"fusion_lat": 0.0, "type": "electric_scooter", "name": "47e5312aa485277de77611d9d0f9e22c", "fusion_lon": 0.0, "bike_id": "47e5312aa485277de77611d9d0f9e22c", "is_reserved": 0, "rental_uris": {"android": "https://dc.lft.to/lastmile_qr_scan", "ios": "https://dc.lft.to/lastmile_qr_scan"}, "lat": 38.876384333333334, "is_disabled": 0, "lon": -77.00078233333333}, {"fusion_lat": 0.0, "type": "electric_bike", "name": "b41d03ef455c2518d5cfb1dd84cdec04", "fusion_lon": 0.0, "bike_id": "b41d03ef455c2518d5cfb1dd84cdec04", "is_reserved": 0, "rental_uris": {"android": "https://dc.lft.to/lastmile_qr_scan", "ios": "https://dc.lft.to/lastmile_qr_scan"}, "lat": 38.95492216666667, "is_disabled": 0, "lon": -76.964416}, {"fusion_lat": 0.0, "type": "electric_scooter", "name": "1facac5934de1f1d01f780ee6d6ab816", "fusion_lon": 0.0, "bike_id": "1facac5934de1f1d01f780ee6d6ab816", "is_reserved": 0, "rental_uris": {"android": "https://dc.lft.to/lastmile_qr_scan", "ios": "https://dc.lft.to/lastmile_qr_scan"}, "lat": 38.89196183333333, "is_disabled": 0, "lon": -77.02775133333333}, {"fusion_lat": 0.0, "type": "electric_scooter", "name": "4eebc618430df26ec5c34ce3fab3d8f5", "fusion_lon": 0.0, "bike_id": "4eebc618430df26ec5c34ce3fab3d8f5", "is_reserved": 0, "rental_uris": {"android": "https://dc.lft.to/lastmile_qr_scan", "ios": "https://dc.lft.to/lastmile_qr_scan"}, "lat": 38.91626, "is_disabled": 0, "lon": -77.04822983333334}, {"fusion_lat": 0.0, "type": "electric_scooter", "name": "7f5e9474f275c13cc0ed7daf6ead4a66", "fusion_lon": 0.0, "bike_id": "7f5e9474f275c13cc0ed7daf6ead4a66", "is_reserved": 0, "rental_uris": {"android": "https://dc.lft.to/lastmile_qr_scan", "ios": "https://dc.lft.to/lastmile_qr_scan"}, "lat": 38.9139445, "is_disabled": 0, "lon": -77.04178066666667}, {"fusion_lat": 0.0, "type": "electric_scooter", "name": "56e159165f53318d6eb3f84cab155cb4", "fusion_lon": 0.0, "bike_id": "56e159165f53318d6eb3f84cab155cb4", "is_reserved": 0, "rental_uris": {"android": "https://dc.lft.to/lastmile_qr_scan", "ios": "https://dc.lft.to/lastmile_qr_scan"}, "lat": 38.90245083333333, "is_disabled": 0, "lon": -76.9988475}, {"fusion_lat": 0.0, "type": "electric_scooter", "name": "f6f93dad886ae9c19675122a9bb1275e", "fusion_lon": 0.0, "bike_id": "f6f93dad886ae9c19675122a9bb1275e", "is_reserved": 0, "rental_uris": {"android": "https://dc.lft.to/lastmile_qr_scan", "ios": "https://dc.lft.to/lastmile_qr_scan"}, "lat": 38.892187166666666, "is_disabled": 0, "lon": -77.0262795}, {"fusion_lat": 0.0, "type": "electric_scooter", "name": "69663e70d2ba70d10a30ca4453170e59", "fusion_lon": 0.0, "bike_id": "69663e70d2ba70d10a30ca4453170e59", "is_reserved": 0, "rental_uris": {"android": "https://dc.lft.to/lastmile_qr_scan", "ios": "https://dc.lft.to/lastmile_qr_scan"}, "lat": 38.938605333333335, "is_disabled": 0, "lon": -77.024618}, {"fusion_lat": 0.0, "type": "electric_scooter", "name": "64f14b929d40ba8db8a78ab0c800f931", "fusion_lon": 0.0, "bike_id": "64f14b929d40ba8db8a78ab0c800f931", "is_reserved": 0, "rental_uris": {"android": "https://dc.lft.to/lastmile_qr_scan", "ios": "https://dc.lft.to/lastmile_qr_scan"}, "lat": 38.934699333333334, "is_disabled": 0, "lon": -77.02861966666667}, {"fusion_lat": 0.0, "type": "electric_bike", "name": "2d18b6c827e9ffe38786a423309b24d5", "fusion_lon": 0.0, "bike_id": "2d18b6c827e9ffe38786a423309b24d5", "is_reserved": 0, "rental_uris": {"android": "https://dc.lft.to/lastmile_qr_scan", "ios": "https://dc.lft.to/lastmile_qr_scan"}, "lat": 39.014748, "is_disabled": 0, "lon": -77.05487716666667}, {"fusion_lat": 0.0, "type": "electric_bike", "name": "c684671f7c23286095c870e8f50910a8", "fusion_lon": 0.0, "bike_id": "c684671f7c23286095c870e8f50910a8", "is_reserved": 0, "rental_uris": {"android": "https://dc.lft.to/lastmile_qr_scan", "ios": "https://dc.lft.to/lastmile_qr_scan"}, "lat": 38.967450666666664, "is_disabled": 0, "lon": -76.98194266666667}, {"fusion_lat": 0.0, "type": "electric_scooter", "name": "90bfb153308ac51f5aa7a8b2eaec2557", "fusion_lon": 0.0, "bike_id": "90bfb153308ac51f5aa7a8b2eaec2557", "is_reserved": 0, "rental_uris": {"android": "https://dc.lft.to/lastmile_qr_scan", "ios": "https://dc.lft.to/lastmile_qr_scan"}, "lat": 38.90783, "is_disabled": 0, "lon": -77.02296533333333}, {"fusion_lat": 0.0, "type": "electric_scooter", "name": "cc90e5be10daff579d4b68c4ac429111", "fusion_lon": 0.0, "bike_id": "cc90e5be10daff579d4b68c4ac429111", "is_reserved": 0, "rental_uris": {"android": "https://dc.lft.to/lastmile_qr_scan", "ios": "https://dc.lft.to/lastmile_qr_scan"}, "lat": 38.924584, "is_disabled": 0, "lon": -77.032853}, {"fusion_lat": 0.0, "type": "electric_scooter", "name": "03d3f30a57b66368b90f168f39f235b5", "fusion_lon": 0.0, "bike_id": "03d3f30a57b66368b90f168f39f235b5", "is_reserved": 0, "rental_uris": {"android": "https://dc.lft.to/lastmile_qr_scan", "ios": "https://dc.lft.to/lastmile_qr_scan"}, "lat": 38.91551666666667, "is_disabled": 0, "lon": -77.00704233333333}, {"fusion_lat": 0.0, "type": "electric_scooter", "name": "19963231871d47c03be496e79ab1e490", "fusion_lon": 0.0, "bike_id": "19963231871d47c03be496e79ab1e490", "is_reserved": 0, "rental_uris": {"android": "https://dc.lft.to/lastmile_qr_scan", "ios": "https://dc.lft.to/lastmile_qr_scan"}, "lat": 38.9568445, "is_disabled": 0, "lon": -77.03263783333334}, {"fusion_lat": 0.0, "type": "electric_scooter", "name": "a586b400ae20f825fd5e05efc4353828", "fusion_lon": 0.0, "bike_id": "a586b400ae20f825fd5e05efc4353828", "is_reserved": 0, "rental_uris": {"android": "https://dc.lft.to/lastmile_qr_scan", "ios": "https://dc.lft.to/lastmile_qr_scan"}, "lat": 38.87455966666667, "is_disabled": 0, "lon": -77.00544616666667}, {"fusion_lat": 0.0, "type": "electric_scooter", "name": "13b92ea34880a6779b9229f174133a27", "fusion_lon": 0.0, "bike_id": "13b92ea34880a6779b9229f174133a27", "is_reserved": 0, "rental_uris": {"android": "https://dc.lft.to/lastmile_qr_scan", "ios": "https://dc.lft.to/lastmile_qr_scan"}, "lat": 38.93401716666666, "is_disabled": 0, "lon": -77.0221}, {"fusion_lat": 0.0, "type": "electric_scooter", "name": "42a406998d27ffadf12593db8c886cb0", "fusion_lon": 0.0, "bike_id": "42a406998d27ffadf12593db8c886cb0", "is_reserved": 0, "rental_uris": {"android": "https://dc.lft.to/lastmile_qr_scan", "ios": "https://dc.lft.to/lastmile_qr_scan"}, "lat": 38.8637455, "is_disabled": 0, "lon": -76.99057216666667}, {"fusion_lat": 0.0, "type": "electric_scooter", "name": "8ef7e078af214a8e8f2990fd3e753b4b", "fusion_lon": 0.0, "bike_id": "8ef7e078af214a8e8f2990fd3e753b4b", "is_reserved": 0, "rental_uris": {"android": "https://dc.lft.to/lastmile_qr_scan", "ios": "https://dc.lft.to/lastmile_qr_scan"}, "lat": 38.924852333333334, "is_disabled": 0, "lon": -77.05754933333333}, {"fusion_lat": 0.0, "type": "electric_scooter", "name": "8d54d5641059cab5abe19e29e87aa1a7", "fusion_lon": 0.0, "bike_id": "8d54d5641059cab5abe19e29e87aa1a7", "is_reserved": 0, "rental_uris": {"android": "https://dc.lft.to/lastmile_qr_scan", "ios": "https://dc.lft.to/lastmile_qr_scan"}, "lat": 38.89298516666667, "is_disabled": 0, "lon": -77.0122755}, {"fusion_lat": 0.0, "type": "electric_scooter", "name": "28467209d7314043ef692e145168c3dc", "fusion_lon": 0.0, "bike_id": "28467209d7314043ef692e145168c3dc", "is_reserved": 0, "rental_uris": {"android": "https://dc.lft.to/lastmile_qr_scan", "ios": "https://dc.lft.to/lastmile_qr_scan"}, "lat": 38.920978, "is_disabled": 0, "lon": -77.03327883333333}, {"fusion_lat": 0.0, "type": "electric_scooter", "name": "cb9352f593337da993f3615b8f81825e", "fusion_lon": 0.0, "bike_id": "cb9352f593337da993f3615b8f81825e", "is_reserved": 0, "rental_uris": {"android": "https://dc.lft.to/lastmile_qr_scan", "ios": "https://dc.lft.to/lastmile_qr_scan"}, "lat": 38.919075166666666, "is_disabled": 0, "lon": -77.03440333333333}, {"fusion_lat": 0.0, "type": "electric_scooter", "name": "4e3a6881f95f22651ff0d329850b86b0", "fusion_lon": 0.0, "bike_id": "4e3a6881f95f22651ff0d329850b86b0", "is_reserved": 0, "rental_uris": {"android": "https://dc.lft.to/lastmile_qr_scan", "ios": "https://dc.lft.to/lastmile_qr_scan"}, "lat": 38.8664695, "is_disabled": 0, "lon": -76.98497766666667}, {"fusion_lat": 0.0, "type": "electric_scooter", "name": "e798ac5bd0853da974f337657a7595e1", "fusion_lon": 0.0, "bike_id": "e798ac5bd0853da974f337657a7595e1", "is_reserved": 0, "rental_uris": {"android": "https://dc.lft.to/lastmile_qr_scan", "ios": "https://dc.lft.to/lastmile_qr_scan"}, "lat": 38.967795333333335, "is_disabled": 0, "lon": -77.0151415}, {"fusion_lat": 0.0, "type": "electric_bike", "name": "fd1ea3a67149e72797fa3780422bc98f", "fusion_lon": 0.0, "bike_id": "fd1ea3a67149e72797fa3780422bc98f", "is_reserved": 0, "rental_uris": {"android": "https://dc.lft.to/lastmile_qr_scan", "ios": "https://dc.lft.to/lastmile_qr_scan"}, "lat": 38.95327416666667, "is_disabled": 0, "lon": -76.9542975}, {"fusion_lat": 0.0, "type": "electric_scooter", "name": "a09f99b6b27e1f942dc544e3e4d28d00", "fusion_lon": 0.0, "bike_id": "a09f99b6b27e1f942dc544e3e4d28d00", "is_reserved": 0, "rental_uris": {"android": "https://dc.lft.to/lastmile_qr_scan", "ios": "https://dc.lft.to/lastmile_qr_scan"}, "lat": 38.902577, "is_disabled": 0, "lon": -77.00741533333333}, {"fusion_lat": 0.0, "type": "electric_scooter", "name": "f01b42740b4c0955ff6b4a2af63b376a", "fusion_lon": 0.0, "bike_id": "f01b42740b4c0955ff6b4a2af63b376a", "is_reserved": 0, "rental_uris": {"android": "https://dc.lft.to/lastmile_qr_scan", "ios": "https://dc.lft.to/lastmile_qr_scan"}, "lat": 38.9117635, "is_disabled": 0, "lon": -77.04170066666667}, {"fusion_lat": 0.0, "type": "electric_scooter", "name": "7d75707525d4d5e9cfd1186365e3cf54", "fusion_lon": 0.0, "bike_id": "7d75707525d4d5e9cfd1186365e3cf54", "is_reserved": 0, "rental_uris": {"android": "https://dc.lft.to/lastmile_qr_scan", "ios": "https://dc.lft.to/lastmile_qr_scan"}, "lat": 38.91908633333333, "is_disabled": 0, "lon": -77.034432}, {"fusion_lat": 0.0, "type": "electric_scooter", "name": "c6e714bea7938e4664389e11a6242e9e", "fusion_lon": 0.0, "bike_id": "c6e714bea7938e4664389e11a6242e9e", "is_reserved": 0, "rental_uris": {"android": "https://dc.lft.to/lastmile_qr_scan", "ios": "https://dc.lft.to/lastmile_qr_scan"}, "lat": 38.90658166666667, "is_disabled": 0, "lon": -77.0162785}, {"fusion_lat": 0.0, "type": "electric_scooter", "name": "5f5bd4fa0e6fe3ee0616aaadb980f682", "fusion_lon": 0.0, "bike_id": "5f5bd4fa0e6fe3ee0616aaadb980f682", "is_reserved": 0, "rental_uris": {"android": "https://dc.lft.to/lastmile_qr_scan", "ios": "https://dc.lft.to/lastmile_qr_scan"}, "lat": 38.892318833333334, "is_disabled": 0, "lon": -77.03212}, {"fusion_lat": 0.0, "type": "electric_scooter", "name": "20f845735dcd7dfc1bc5606e6d2d2305", "fusion_lon": 0.0, "bike_id": "20f845735dcd7dfc1bc5606e6d2d2305", "is_reserved": 0, "rental_uris": {"android": "https://dc.lft.to/lastmile_qr_scan", "ios": "https://dc.lft.to/lastmile_qr_scan"}, "lat": 38.902704, "is_disabled": 0, "lon": -77.03466066666667}, {"fusion_lat": 0.0, "type": "electric_scooter", "name": "08540456e0ca33a4102e4bab4137a3c9", "fusion_lon": 0.0, "bike_id": "08540456e0ca33a4102e4bab4137a3c9", "is_reserved": 0, "rental_uris": {"android": "https://dc.lft.to/lastmile_qr_scan", "ios": "https://dc.lft.to/lastmile_qr_scan"}, "lat": 38.897368, "is_disabled": 0, "lon": -77.03346266666667}, {"fusion_lat": 0.0, "type": "electric_scooter", "name": "a38d826e5bf7ebdc0d973aaa2b3590d4", "fusion_lon": 0.0, "bike_id": "a38d826e5bf7ebdc0d973aaa2b3590d4", "is_reserved": 0, "rental_uris": {"android": "https://dc.lft.to/lastmile_qr_scan", "ios": "https://dc.lft.to/lastmile_qr_scan"}, "lat": 38.892235166666666, "is_disabled": 0, "lon": -77.03219283333334}, {"fusion_lat": 0.0, "type": "electric_scooter", "name": "d8aad3c448b3aa032c0cf95b680a56e0", "fusion_lon": 0.0, "bike_id": "d8aad3c448b3aa032c0cf95b680a56e0", "is_reserved": 0, "rental_uris": {"android": "https://dc.lft.to/lastmile_qr_scan", "ios": "https://dc.lft.to/lastmile_qr_scan"}, "lat": 38.9133175, "is_disabled": 0, "lon": -77.04585183333333}, {"fusion_lat": 0.0, "type": "electric_scooter", "name": "62decfc05fd308f9e99af13fc30359eb", "fusion_lon": 0.0, "bike_id": "62decfc05fd308f9e99af13fc30359eb", "is_reserved": 0, "rental_uris": {"android": "https://dc.lft.to/lastmile_qr_scan", "ios": "https://dc.lft.to/lastmile_qr_scan"}, "lat": 38.903846333333334, "is_disabled": 0, "lon": -77.04468316666667}, {"fusion_lat": 0.0, "type": "electric_scooter", "name": "c9eaf1ae732ea8e0e4eda5423f2f4d2c", "fusion_lon": 0.0, "bike_id": "c9eaf1ae732ea8e0e4eda5423f2f4d2c", "is_reserved": 0, "rental_uris": {"android": "https://dc.lft.to/lastmile_qr_scan", "ios": "https://dc.lft.to/lastmile_qr_scan"}, "lat": 38.915647166666666, "is_disabled": 0, "lon": -77.03190383333333}, {"fusion_lat": 0.0, "type": "electric_scooter", "name": "d7f18f1393e205fe18e9ca02868f9b2c", "fusion_lon": 0.0, "bike_id": "d7f18f1393e205fe18e9ca02868f9b2c", "is_reserved": 0, "rental_uris": {"android": "https://dc.lft.to/lastmile_qr_scan", "ios": "https://dc.lft.to/lastmile_qr_scan"}, "lat": 38.907192, "is_disabled": 0, "lon": -77.0475665}, {"fusion_lat": 0.0, "type": "electric_bike", "name": "5f26e6c4899377d5024d9260a98520fa", "fusion_lon": 0.0, "bike_id": "5f26e6c4899377d5024d9260a98520fa", "is_reserved": 0, "rental_uris": {"android": "https://dc.lft.to/lastmile_qr_scan", "ios": "https://dc.lft.to/lastmile_qr_scan"}, "lat": 38.99944683333333, "is_disabled": 0, "lon": -77.07435766666667}, {"fusion_lat": 0.0, "type": "electric_scooter", "name": "3afa6e97d6127fafb3435849b4e17da3", "fusion_lon": 0.0, "bike_id": "3afa6e97d6127fafb3435849b4e17da3", "is_reserved": 0, "rental_uris": {"android": "https://dc.lft.to/lastmile_qr_scan", "ios": "https://dc.lft.to/lastmile_qr_scan"}, "lat": 38.893529, "is_disabled": 0, "lon": -76.94929733333333}, {"fusion_lat": 0.0, "type": "electric_scooter", "name": "ac98fcc01584b8b084dd217fb8f83ea9", "fusion_lon": 0.0, "bike_id": "ac98fcc01584b8b084dd217fb8f83ea9", "is_reserved": 0, "rental_uris": {"android": "https://dc.lft.to/lastmile_qr_scan", "ios": "https://dc.lft.to/lastmile_qr_scan"}, "lat": 38.920640666666664, "is_disabled": 0, "lon": -77.02249583333334}, {"fusion_lat": 0.0, "type": "electric_scooter", "name": "79447ca3112300715c8912cf043bdad0", "fusion_lon": 0.0, "bike_id": "79447ca3112300715c8912cf043bdad0", "is_reserved": 0, "rental_uris": {"android": "https://dc.lft.to/lastmile_qr_scan", "ios": "https://dc.lft.to/lastmile_qr_scan"}, "lat": 38.91879816666667, "is_disabled": 0, "lon": -77.02605283333334}, {"fusion_lat": 0.0, "type": "electric_scooter", "name": "69dd7d982a80587c44a46e9ab89ddb33", "fusion_lon": 0.0, "bike_id": "69dd7d982a80587c44a46e9ab89ddb33", "is_reserved": 0, "rental_uris": {"android": "https://dc.lft.to/lastmile_qr_scan", "ios": "https://dc.lft.to/lastmile_qr_scan"}, "lat": 38.92953933333333, "is_disabled": 0, "lon": -77.03252283333333}, {"fusion_lat": 0.0, "type": "electric_scooter", "name": "c7a8a4c3ada2dd803d90257c472fa642", "fusion_lon": 0.0, "bike_id": "c7a8a4c3ada2dd803d90257c472fa642", "is_reserved": 0, "rental_uris": {"android": "https://dc.lft.to/lastmile_qr_scan", "ios": "https://dc.lft.to/lastmile_qr_scan"}, "lat": 38.917447333333335, "is_disabled": 0, "lon": -77.031855}, {"fusion_lat": 0.0, "type": "electric_scooter", "name": "25e6a15bb82caf8fb03afb504e622e68", "fusion_lon": 0.0, "bike_id": "25e6a15bb82caf8fb03afb504e622e68", "is_reserved": 0, "rental_uris": {"android": "https://dc.lft.to/lastmile_qr_scan", "ios": "https://dc.lft.to/lastmile_qr_scan"}, "lat": 38.892236, "is_disabled": 0, "lon": -77.04508283333334}, {"fusion_lat": 0.0, "type": "electric_scooter", "name": "b7fe9c275c0473657d435a480a6ca427", "fusion_lon": 0.0, "bike_id": "b7fe9c275c0473657d435a480a6ca427", "is_reserved": 0, "rental_uris": {"android": "https://dc.lft.to/lastmile_qr_scan", "ios": "https://dc.lft.to/lastmile_qr_scan"}, "lat": 38.907193166666666, "is_disabled": 0, "lon": -77.01100433333333}, {"fusion_lat": 0.0, "type": "electric_bike", "name": "7e9bd4291d77d550990e16a944d0c5d1", "fusion_lon": 0.0, "bike_id": "7e9bd4291d77d550990e16a944d0c5d1", "is_reserved": 0, "rental_uris": {"android": "https://dc.lft.to/lastmile_qr_scan", "ios": "https://dc.lft.to/lastmile_qr_scan"}, "lat": 38.80707683333333, "is_disabled": 0, "lon": -77.06176866666667}, {"fusion_lat": 0.0, "type": "electric_scooter", "name": "675dce6eee072f6ecf63cea1348f7e2c", "fusion_lon": 0.0, "bike_id": "675dce6eee072f6ecf63cea1348f7e2c", "is_reserved": 0, "rental_uris": {"android": "https://dc.lft.to/lastmile_qr_scan", "ios": "https://dc.lft.to/lastmile_qr_scan"}, "lat": 38.920312, "is_disabled": 0, "lon": -77.04184716666667}, {"fusion_lat": 0.0, "type": "electric_scooter", "name": "9d87393f69b30bb5fe5dcf87e25c9aa1", "fusion_lon": 0.0, "bike_id": "9d87393f69b30bb5fe5dcf87e25c9aa1", "is_reserved": 0, "rental_uris": {"android": "https://dc.lft.to/lastmile_qr_scan", "ios": "https://dc.lft.to/lastmile_qr_scan"}, "lat": 38.91911783333333, "is_disabled": 0, "lon": -77.02621133333334}, {"fusion_lat": 0.0, "type": "electric_scooter", "name": "0ef04eeccade94ef82024f3730a7fcd0", "fusion_lon": 0.0, "bike_id": "0ef04eeccade94ef82024f3730a7fcd0", "is_reserved": 0, "rental_uris": {"android": "https://dc.lft.to/lastmile_qr_scan", "ios": "https://dc.lft.to/lastmile_qr_scan"}, "lat": 38.923305166666665, "is_disabled": 0, "lon": -77.04426416666666}, {"fusion_lat": 0.0, "type": "electric_scooter", "name": "1ab2fcc92b63700563f885b6262c7e96", "fusion_lon": 0.0, "bike_id": "1ab2fcc92b63700563f885b6262c7e96", "is_reserved": 0, "rental_uris": {"android": "https://dc.lft.to/lastmile_qr_scan", "ios": "https://dc.lft.to/lastmile_qr_scan"}, "lat": 38.93170683333334, "is_disabled": 0, "lon": -77.0341315}, {"fusion_lat": 0.0, "type": "electric_bike", "name": "3a8f3e6e4a102a4f8627546c4c6b6703", "fusion_lon": 0.0, "bike_id": "3a8f3e6e4a102a4f8627546c4c6b6703", "is_reserved": 0, "rental_uris": {"android": "https://dc.lft.to/lastmile_qr_scan", "ios": "https://dc.lft.to/lastmile_qr_scan"}, "lat": 38.963180333333334, "is_disabled": 0, "lon": -76.97361166666667}, {"fusion_lat": 0.0, "type": "electric_bike", "name": "972a454841b49f80dc0d7ecbea37bbf0", "fusion_lon": 0.0, "bike_id": "972a454841b49f80dc0d7ecbea37bbf0", "is_reserved": 0, "rental_uris": {"android": "https://dc.lft.to/lastmile_qr_scan", "ios": "https://dc.lft.to/lastmile_qr_scan"}, "lat": 38.8661655, "is_disabled": 0, "lon": -76.94571366666666}, {"fusion_lat": 0.0, "type": "electric_scooter", "name": "1bd35d84a724cc36991e2e4db18763b0", "fusion_lon": 0.0, "bike_id": "1bd35d84a724cc36991e2e4db18763b0", "is_reserved": 0, "rental_uris": {"android": "https://dc.lft.to/lastmile_qr_scan", "ios": "https://dc.lft.to/lastmile_qr_scan"}, "lat": 38.908636666666666, "is_disabled": 0, "lon": -77.08595383333333}, {"fusion_lat": 0.0, "type": "electric_bike", "name": "b3a3599c9d663d290d3092f54e4ffe1a", "fusion_lon": 0.0, "bike_id": "b3a3599c9d663d290d3092f54e4ffe1a", "is_reserved": 0, "rental_uris": {"android": "https://dc.lft.to/lastmile_qr_scan", "ios": "https://dc.lft.to/lastmile_qr_scan"}, "lat": 38.969036333333335, "is_disabled": 0, "lon": -76.99495016666667}, {"fusion_lat": 0.0, "type": "electric_scooter", "name": "34afb69fa0f8d9c04415539663a0fefa", "fusion_lon": 0.0, "bike_id": "34afb69fa0f8d9c04415539663a0fefa", "is_reserved": 0, "rental_uris": {"android": "https://dc.lft.to/lastmile_qr_scan", "ios": "https://dc.lft.to/lastmile_qr_scan"}, "lat": 38.922488666666666, "is_disabled": 0, "lon": -77.03084116666666}, {"fusion_lat": 0.0, "type": "electric_scooter", "name": "11f4f8a77ea3ad32d48496d54ac20f92", "fusion_lon": 0.0, "bike_id": "11f4f8a77ea3ad32d48496d54ac20f92", "is_reserved": 0, "rental_uris": {"android": "https://dc.lft.to/lastmile_qr_scan", "ios": "https://dc.lft.to/lastmile_qr_scan"}, "lat": 38.92062383333333, "is_disabled": 0, "lon": -77.03395783333333}, {"fusion_lat": 0.0, "type": "electric_scooter", "name": "2fcd511518d34370b5dab60f5e108d81", "fusion_lon": 0.0, "bike_id": "2fcd511518d34370b5dab60f5e108d81", "is_reserved": 0, "rental_uris": {"android": "https://dc.lft.to/lastmile_qr_scan", "ios": "https://dc.lft.to/lastmile_qr_scan"}, "lat": 38.92344533333333, "is_disabled": 0, "lon": -77.0341835}, {"fusion_lat": 0.0, "type": "electric_scooter", "name": "592df70d5a3b6e263e60825d1229e372", "fusion_lon": 0.0, "bike_id": "592df70d5a3b6e263e60825d1229e372", "is_reserved": 0, "rental_uris": {"android": "https://dc.lft.to/lastmile_qr_scan", "ios": "https://dc.lft.to/lastmile_qr_scan"}, "lat": 38.924252, "is_disabled": 0, "lon": -77.0518195}, {"fusion_lat": 0.0, "type": "electric_scooter", "name": "48e85f6891f2e189f6406f7849d56401", "fusion_lon": 0.0, "bike_id": "48e85f6891f2e189f6406f7849d56401", "is_reserved": 0, "rental_uris": {"android": "https://dc.lft.to/lastmile_qr_scan", "ios": "https://dc.lft.to/lastmile_qr_scan"}, "lat": 38.933804, "is_disabled": 0, "lon": -77.02966283333333}, {"fusion_lat": 0.0, "type": "electric_scooter", "name": "015047aaced3dfd146ff70e0b5c20b3c", "fusion_lon": 0.0, "bike_id": "015047aaced3dfd146ff70e0b5c20b3c", "is_reserved": 0, "rental_uris": {"android": "https://dc.lft.to/lastmile_qr_scan", "ios": "https://dc.lft.to/lastmile_qr_scan"}, "lat": 38.917115833333334, "is_disabled": 0, "lon": -77.03421466666667}, {"fusion_lat": 0.0, "type": "electric_scooter", "name": "56b6b825c20f51842d0e57ac4c514c88", "fusion_lon": 0.0, "bike_id": "56b6b825c20f51842d0e57ac4c514c88", "is_reserved": 0, "rental_uris": {"android": "https://dc.lft.to/lastmile_qr_scan", "ios": "https://dc.lft.to/lastmile_qr_scan"}, "lat": 38.92578966666667, "is_disabled": 0, "lon": -77.03983683333334}, {"fusion_lat": 0.0, "type": "electric_scooter", "name": "8f69c8e5381afe8da99584c7f282a5de", "fusion_lon": 0.0, "bike_id": "8f69c8e5381afe8da99584c7f282a5de", "is_reserved": 0, "rental_uris": {"android": "https://dc.lft.to/lastmile_qr_scan", "ios": "https://dc.lft.to/lastmile_qr_scan"}, "lat": 38.9344605, "is_disabled": 0, "lon": -77.0298275}, {"fusion_lat": 0.0, "type": "electric_scooter", "name": "d0649fe4812ad068fa817619634e5244", "fusion_lon": 0.0, "bike_id": "d0649fe4812ad068fa817619634e5244", "is_reserved": 0, "rental_uris": {"android": "https://dc.lft.to/lastmile_qr_scan", "ios": "https://dc.lft.to/lastmile_qr_scan"}, "lat": 38.928755, "is_disabled": 0, "lon": -77.0365035}, {"fusion_lat": 0.0, "type": "electric_scooter", "name": "e6a28902382c1bf4fbcc8e815aa86390", "fusion_lon": 0.0, "bike_id": "e6a28902382c1bf4fbcc8e815aa86390", "is_reserved": 0, "rental_uris": {"android": "https://dc.lft.to/lastmile_qr_scan", "ios": "https://dc.lft.to/lastmile_qr_scan"}, "lat": 38.931693, "is_disabled": 0, "lon": -77.07104283333334}, {"fusion_lat": 0.0, "type": "electric_scooter", "name": "d907aca977a05306f78c0b0ee77352d0", "fusion_lon": 0.0, "bike_id": "d907aca977a05306f78c0b0ee77352d0", "is_reserved": 0, "rental_uris": {"android": "https://dc.lft.to/lastmile_qr_scan", "ios": "https://dc.lft.to/lastmile_qr_scan"}, "lat": 38.892699666666665, "is_disabled": 0, "lon": -77.04875966666667}, {"fusion_lat": 0.0, "type": "electric_scooter", "name": "9e84c61d7e88e438c065eff2865b561b", "fusion_lon": 0.0, "bike_id": "9e84c61d7e88e438c065eff2865b561b", "is_reserved": 0, "rental_uris": {"android": "https://dc.lft.to/lastmile_qr_scan", "ios": "https://dc.lft.to/lastmile_qr_scan"}, "lat": 38.944094, "is_disabled": 0, "lon": -77.02601}, {"fusion_lat": 0.0, "type": "electric_scooter", "name": "f8439082f914f128c7f584bdbbe7c55a", "fusion_lon": 0.0, "bike_id": "f8439082f914f128c7f584bdbbe7c55a", "is_reserved": 0, "rental_uris": {"android": "https://dc.lft.to/lastmile_qr_scan", "ios": "https://dc.lft.to/lastmile_qr_scan"}, "lat": 38.90085583333333, "is_disabled": 0, "lon": -76.93020933333334}, {"fusion_lat": 0.0, "type": "electric_bike", "name": "41f6745e0215c2980010d04b9479cbae", "fusion_lon": 0.0, "bike_id": "41f6745e0215c2980010d04b9479cbae", "is_reserved": 0, "rental_uris": {"android": "https://dc.lft.to/lastmile_qr_scan", "ios": "https://dc.lft.to/lastmile_qr_scan"}, "lat": 38.916455166666665, "is_disabled": 0, "lon": -76.97305933333334}, {"fusion_lat": 0.0, "type": "electric_scooter", "name": "e856b4f2d4a6006b988376d3ed3e6854", "fusion_lon": 0.0, "bike_id": "e856b4f2d4a6006b988376d3ed3e6854", "is_reserved": 0, "rental_uris": {"android": "https://dc.lft.to/lastmile_qr_scan", "ios": "https://dc.lft.to/lastmile_qr_scan"}, "lat": 38.87207083333333, "is_disabled": 0, "lon": -76.97837416666667}, {"fusion_lat": 0.0, "type": "electric_scooter", "name": "74a9ba2fc1e23f34235ae405168e157e", "fusion_lon": 0.0, "bike_id": "74a9ba2fc1e23f34235ae405168e157e", "is_reserved": 0, "rental_uris": {"android": "https://dc.lft.to/lastmile_qr_scan", "ios": "https://dc.lft.to/lastmile_qr_scan"}, "lat": 38.85539766666667, "is_disabled": 0, "lon": -76.984178}, {"fusion_lat": 0.0, "type": "electric_scooter", "name": "15238ce035d841b4ee7c6cfd129347aa", "fusion_lon": 0.0, "bike_id": "15238ce035d841b4ee7c6cfd129347aa", "is_reserved": 0, "rental_uris": {"android": "https://dc.lft.to/lastmile_qr_scan", "ios": "https://dc.lft.to/lastmile_qr_scan"}, "lat": 38.9358665, "is_disabled": 0, "lon": -77.08118}, {"fusion_lat": 0.0, "type": "electric_scooter", "name": "49954389f889979b55be4261d3762802", "fusion_lon": 0.0, "bike_id": "49954389f889979b55be4261d3762802", "is_reserved": 0, "rental_uris": {"android": "https://dc.lft.to/lastmile_qr_scan", "ios": "https://dc.lft.to/lastmile_qr_scan"}, "lat": 38.9506475, "is_disabled": 0, "lon": -77.08018416666667}, {"fusion_lat": 0.0, "type": "electric_scooter", "name": "19d9bbdc4534944b21c3c85db5fb7372", "fusion_lon": 0.0, "bike_id": "19d9bbdc4534944b21c3c85db5fb7372", "is_reserved": 0, "rental_uris": {"android": "https://dc.lft.to/lastmile_qr_scan", "ios": "https://dc.lft.to/lastmile_qr_scan"}, "lat": 38.884839666666664, "is_disabled": 0, "lon": -76.9262105}, {"fusion_lat": 0.0, "type": "electric_scooter", "name": "9e227cd9355cad5bc6ba8cdda74383c8", "fusion_lon": 0.0, "bike_id": "9e227cd9355cad5bc6ba8cdda74383c8", "is_reserved": 0, "rental_uris": {"android": "https://dc.lft.to/lastmile_qr_scan", "ios": "https://dc.lft.to/lastmile_qr_scan"}, "lat": 38.8973375, "is_disabled": 0, "lon": -77.02719533333334}, {"fusion_lat": 0.0, "type": "electric_bike", "name": "b09f21d02157ff7bb4d92e1dfec51df0", "fusion_lon": 0.0, "bike_id": "b09f21d02157ff7bb4d92e1dfec51df0", "is_reserved": 0, "rental_uris": {"android": "https://dc.lft.to/lastmile_qr_scan", "ios": "https://dc.lft.to/lastmile_qr_scan"}, "lat": 38.92248566666667, "is_disabled": 0, "lon": -77.03073516666667}, {"fusion_lat": 0.0, "type": "electric_scooter", "name": "06632c977b8e67c734a982bf38c51519", "fusion_lon": 0.0, "bike_id": "06632c977b8e67c734a982bf38c51519", "is_reserved": 0, "rental_uris": {"android": "https://dc.lft.to/lastmile_qr_scan", "ios": "https://dc.lft.to/lastmile_qr_scan"}, "lat": 38.92716183333334, "is_disabled": 0, "lon": -77.0208105}, {"fusion_lat": 0.0, "type": "electric_scooter", "name": "ddfdbb2680839a9b7a39a48745966086", "fusion_lon": 0.0, "bike_id": "ddfdbb2680839a9b7a39a48745966086", "is_reserved": 0, "rental_uris": {"android": "https://dc.lft.to/lastmile_qr_scan", "ios": "https://dc.lft.to/lastmile_qr_scan"}, "lat": 38.892291166666666, "is_disabled": 0, "lon": -77.031858}, {"fusion_lat": 0.0, "type": "electric_scooter", "name": "556a3794b4945179b863cf80f4978780", "fusion_lon": 0.0, "bike_id": "556a3794b4945179b863cf80f4978780", "is_reserved": 0, "rental_uris": {"android": "https://dc.lft.to/lastmile_qr_scan", "ios": "https://dc.lft.to/lastmile_qr_scan"}, "lat": 38.905621333333336, "is_disabled": 0, "lon": -77.049922}, {"fusion_lat": 0.0, "type": "electric_scooter", "name": "f906f063a206041ff10c8a8e07ddd181", "fusion_lon": 0.0, "bike_id": "f906f063a206041ff10c8a8e07ddd181", "is_reserved": 0, "rental_uris": {"android": "https://dc.lft.to/lastmile_qr_scan", "ios": "https://dc.lft.to/lastmile_qr_scan"}, "lat": 38.9238215, "is_disabled": 0, "lon": -77.050364}, {"fusion_lat": 0.0, "type": "electric_scooter", "name": "7bb519c0e40084b55abaac484075bccb", "fusion_lon": 0.0, "bike_id": "7bb519c0e40084b55abaac484075bccb", "is_reserved": 0, "rental_uris": {"android": "https://dc.lft.to/lastmile_qr_scan", "ios": "https://dc.lft.to/lastmile_qr_scan"}, "lat": 38.911829, "is_disabled": 0, "lon": -77.044591}, {"fusion_lat": 0.0, "type": "electric_bike", "name": "659c6928f4221cfd7b9b96eafa826fc4", "fusion_lon": 0.0, "bike_id": "659c6928f4221cfd7b9b96eafa826fc4", "is_reserved": 0, "rental_uris": {"android": "https://dc.lft.to/lastmile_qr_scan", "ios": "https://dc.lft.to/lastmile_qr_scan"}, "lat": 38.884031666666665, "is_disabled": 0, "lon": -76.96062633333334}, {"fusion_lat": 0.0, "type": "electric_scooter", "name": "3d4c9a39830ad2a275b06498871407e8", "fusion_lon": 0.0, "bike_id": "3d4c9a39830ad2a275b06498871407e8", "is_reserved": 0, "rental_uris": {"android": "https://dc.lft.to/lastmile_qr_scan", "ios": "https://dc.lft.to/lastmile_qr_scan"}, "lat": 38.91543266666667, "is_disabled": 0, "lon": -77.03860416666667}, {"fusion_lat": 0.0, "type": "electric_scooter", "name": "617a3e679962f55147062397610bac89", "fusion_lon": 0.0, "bike_id": "617a3e679962f55147062397610bac89", "is_reserved": 0, "rental_uris": {"android": "https://dc.lft.to/lastmile_qr_scan", "ios": "https://dc.lft.to/lastmile_qr_scan"}, "lat": 38.92196933333334, "is_disabled": 0, "lon": -77.02979883333333}, {"fusion_lat": 0.0, "type": "electric_scooter", "name": "74d5fc48cbf28bbb8db7085e5eec270f", "fusion_lon": 0.0, "bike_id": "74d5fc48cbf28bbb8db7085e5eec270f", "is_reserved": 0, "rental_uris": {"android": "https://dc.lft.to/lastmile_qr_scan", "ios": "https://dc.lft.to/lastmile_qr_scan"}, "lat": 38.927031166666666, "is_disabled": 0, "lon": -77.02075483333333}, {"fusion_lat": 0.0, "type": "electric_scooter", "name": "a5e9891e1e21471452d866eefeb96e3d", "fusion_lon": 0.0, "bike_id": "a5e9891e1e21471452d866eefeb96e3d", "is_reserved": 0, "rental_uris": {"android": "https://dc.lft.to/lastmile_qr_scan", "ios": "https://dc.lft.to/lastmile_qr_scan"}, "lat": 38.89224516666667, "is_disabled": 0, "lon": -77.00219966666667}, {"fusion_lat": 0.0, "type": "electric_scooter", "name": "27bd4ec785745e957ebc863630e4db0f", "fusion_lon": 0.0, "bike_id": "27bd4ec785745e957ebc863630e4db0f", "is_reserved": 0, "rental_uris": {"android": "https://dc.lft.to/lastmile_qr_scan", "ios": "https://dc.lft.to/lastmile_qr_scan"}, "lat": 38.917148166666664, "is_disabled": 0, "lon": -77.024058}, {"fusion_lat": 0.0, "type": "electric_scooter", "name": "5c34df6a998301c379bfbf9c2b5b5e98", "fusion_lon": 0.0, "bike_id": "5c34df6a998301c379bfbf9c2b5b5e98", "is_reserved": 0, "rental_uris": {"android": "https://dc.lft.to/lastmile_qr_scan", "ios": "https://dc.lft.to/lastmile_qr_scan"}, "lat": 38.917922833333336, "is_disabled": 0, "lon": -77.040412}, {"fusion_lat": 0.0, "type": "electric_scooter", "name": "6e4f7ec6552625a70d0d64a2fc1489eb", "fusion_lon": 0.0, "bike_id": "6e4f7ec6552625a70d0d64a2fc1489eb", "is_reserved": 0, "rental_uris": {"android": "https://dc.lft.to/lastmile_qr_scan", "ios": "https://dc.lft.to/lastmile_qr_scan"}, "lat": 38.92855733333333, "is_disabled": 0, "lon": -77.02006583333333}, {"fusion_lat": 0.0, "type": "electric_scooter", "name": "86c8ee66c8609060b23ba91d5500bf94", "fusion_lon": 0.0, "bike_id": "86c8ee66c8609060b23ba91d5500bf94", "is_reserved": 0, "rental_uris": {"android": "https://dc.lft.to/lastmile_qr_scan", "ios": "https://dc.lft.to/lastmile_qr_scan"}, "lat": 38.907948166666664, "is_disabled": 0, "lon": -77.03425433333334}, {"fusion_lat": 0.0, "type": "electric_bike", "name": "c7465c1b2719be2269f3a86ac2b1c08f", "fusion_lon": 0.0, "bike_id": "c7465c1b2719be2269f3a86ac2b1c08f", "is_reserved": 0, "rental_uris": {"android": "https://dc.lft.to/lastmile_qr_scan", "ios": "https://dc.lft.to/lastmile_qr_scan"}, "lat": 38.932979333333336, "is_disabled": 0, "lon": -77.02292383333334}, {"fusion_lat": 0.0, "type": "electric_scooter", "name": "a7a4b127a225046b32f4043319fcb244", "fusion_lon": 0.0, "bike_id": "a7a4b127a225046b32f4043319fcb244", "is_reserved": 0, "rental_uris": {"android": "https://dc.lft.to/lastmile_qr_scan", "ios": "https://dc.lft.to/lastmile_qr_scan"}, "lat": 38.871959333333336, "is_disabled": 0, "lon": -77.01071683333333}, {"fusion_lat": 0.0, "type": "electric_scooter", "name": "18254bf1e5a5002985a3f1c5f416806c", "fusion_lon": 0.0, "bike_id": "18254bf1e5a5002985a3f1c5f416806c", "is_reserved": 0, "rental_uris": {"android": "https://dc.lft.to/lastmile_qr_scan", "ios": "https://dc.lft.to/lastmile_qr_scan"}, "lat": 38.895028333333336, "is_disabled": 0, "lon": -77.00331066666666}, {"fusion_lat": 0.0, "type": "electric_scooter", "name": "9a146d2eeb9d21dfcf0806da6efe7f5d", "fusion_lon": 0.0, "bike_id": "9a146d2eeb9d21dfcf0806da6efe7f5d", "is_reserved": 0, "rental_uris": {"android": "https://dc.lft.to/lastmile_qr_scan", "ios": "https://dc.lft.to/lastmile_qr_scan"}, "lat": 38.918144166666664, "is_disabled": 0, "lon": -77.03725966666667}, {"fusion_lat": 0.0, "type": "electric_scooter", "name": "fe605fb5e640123241dded06c6d1c681", "fusion_lon": 0.0, "bike_id": "fe605fb5e640123241dded06c6d1c681", "is_reserved": 0, "rental_uris": {"android": "https://dc.lft.to/lastmile_qr_scan", "ios": "https://dc.lft.to/lastmile_qr_scan"}, "lat": 38.936412, "is_disabled": 0, "lon": -77.03674733333334}, {"fusion_lat": 0.0, "type": "electric_scooter", "name": "995e21802e1c692a23f30aa04ff1ad90", "fusion_lon": 0.0, "bike_id": "995e21802e1c692a23f30aa04ff1ad90", "is_reserved": 0, "rental_uris": {"android": "https://dc.lft.to/lastmile_qr_scan", "ios": "https://dc.lft.to/lastmile_qr_scan"}, "lat": 38.924166666666665, "is_disabled": 0, "lon": -77.01945883333333}, {"fusion_lat": 0.0, "type": "electric_scooter", "name": "744872069b13abb7bb38b5392043aeb2", "fusion_lon": 0.0, "bike_id": "744872069b13abb7bb38b5392043aeb2", "is_reserved": 0, "rental_uris": {"android": "https://dc.lft.to/lastmile_qr_scan", "ios": "https://dc.lft.to/lastmile_qr_scan"}, "lat": 38.98454483333333, "is_disabled": 0, "lon": -77.0264165}, {"fusion_lat": 0.0, "type": "electric_scooter", "name": "dbcd49781cd690cf3c911c10f2217e73", "fusion_lon": 0.0, "bike_id": "dbcd49781cd690cf3c911c10f2217e73", "is_reserved": 0, "rental_uris": {"android": "https://dc.lft.to/lastmile_qr_scan", "ios": "https://dc.lft.to/lastmile_qr_scan"}, "lat": 38.869947, "is_disabled": 0, "lon": -76.9758625}, {"fusion_lat": 0.0, "type": "electric_bike", "name": "3546b5575b9ca65ca44cda80ea37d122", "fusion_lon": 0.0, "bike_id": "3546b5575b9ca65ca44cda80ea37d122", "is_reserved": 0, "rental_uris": {"android": "https://dc.lft.to/lastmile_qr_scan", "ios": "https://dc.lft.to/lastmile_qr_scan"}, "lat": 39.05282366666667, "is_disabled": 0, "lon": -77.08070966666666}, {"fusion_lat": 0.0, "type": "electric_scooter", "name": "11fe2a158a5ffb7d416a129fee9c83d1", "fusion_lon": 0.0, "bike_id": "11fe2a158a5ffb7d416a129fee9c83d1", "is_reserved": 0, "rental_uris": {"android": "https://dc.lft.to/lastmile_qr_scan", "ios": "https://dc.lft.to/lastmile_qr_scan"}, "lat": 38.9205445, "is_disabled": 0, "lon": -77.02373816666666}, {"fusion_lat": 0.0, "type": "electric_scooter", "name": "956a1455f2c2e65a9f2bbcab80a64c38", "fusion_lon": 0.0, "bike_id": "956a1455f2c2e65a9f2bbcab80a64c38", "is_reserved": 0, "rental_uris": {"android": "https://dc.lft.to/lastmile_qr_scan", "ios": "https://dc.lft.to/lastmile_qr_scan"}, "lat": 38.90856733333333, "is_disabled": 0, "lon": -77.045625}, {"fusion_lat": 0.0, "type": "electric_scooter", "name": "1acc26641279ddfa2bc11e75dd6b361b", "fusion_lon": 0.0, "bike_id": "1acc26641279ddfa2bc11e75dd6b361b", "is_reserved": 0, "rental_uris": {"android": "https://dc.lft.to/lastmile_qr_scan", "ios": "https://dc.lft.to/lastmile_qr_scan"}, "lat": 38.8908155, "is_disabled": 0, "lon": -77.040421}, {"fusion_lat": 0.0, "type": "electric_bike", "name": "e4ce5cf83654b9e90690504d838fc5ad", "fusion_lon": 0.0, "bike_id": "e4ce5cf83654b9e90690504d838fc5ad", "is_reserved": 0, "rental_uris": {"android": "https://dc.lft.to/lastmile_qr_scan", "ios": "https://dc.lft.to/lastmile_qr_scan"}, "lat": 38.961073999999996, "is_disabled": 0, "lon": -76.92818916666667}, {"fusion_lat": 0.0, "type": "electric_scooter", "name": "f99761e72b880dbb93f7aa54ab7e7d05", "fusion_lon": 0.0, "bike_id": "f99761e72b880dbb93f7aa54ab7e7d05", "is_reserved": 0, "rental_uris": {"android": "https://dc.lft.to/lastmile_qr_scan", "ios": "https://dc.lft.to/lastmile_qr_scan"}, "lat": 38.90247516666667, "is_disabled": 0, "lon": -76.99564916666667}, {"fusion_lat": 0.0, "type": "electric_scooter", "name": "010059dc78affd4ada2e73b18470f792", "fusion_lon": 0.0, "bike_id": "010059dc78affd4ada2e73b18470f792", "is_reserved": 0, "rental_uris": {"android": "https://dc.lft.to/lastmile_qr_scan", "ios": "https://dc.lft.to/lastmile_qr_scan"}, "lat": 38.88723483333333, "is_disabled": 0, "lon": -77.0281595}, {"fusion_lat": 0.0, "type": "electric_scooter", "name": "d9a6fe677318793a229ccc4cae7febc4", "fusion_lon": 0.0, "bike_id": "d9a6fe677318793a229ccc4cae7febc4", "is_reserved": 0, "rental_uris": {"android": "https://dc.lft.to/lastmile_qr_scan", "ios": "https://dc.lft.to/lastmile_qr_scan"}, "lat": 38.898492, "is_disabled": 0, "lon": -76.990321}, {"fusion_lat": 0.0, "type": "electric_scooter", "name": "8e985b9af8a9b281822a3784103c2ccd", "fusion_lon": 0.0, "bike_id": "8e985b9af8a9b281822a3784103c2ccd", "is_reserved": 0, "rental_uris": {"android": "https://dc.lft.to/lastmile_qr_scan", "ios": "https://dc.lft.to/lastmile_qr_scan"}, "lat": 38.94314, "is_disabled": 0, "lon": -77.017295}, {"fusion_lat": 0.0, "type": "electric_scooter", "name": "283416cb21eac935040007158a8d82db", "fusion_lon": 0.0, "bike_id": "283416cb21eac935040007158a8d82db", "is_reserved": 0, "rental_uris": {"android": "https://dc.lft.to/lastmile_qr_scan", "ios": "https://dc.lft.to/lastmile_qr_scan"}, "lat": 38.934216, "is_disabled": 0, "lon": -77.0440545}, {"fusion_lat": 0.0, "type": "electric_scooter", "name": "3381eb8e284a9399200f756c90405bcf", "fusion_lon": 0.0, "bike_id": "3381eb8e284a9399200f756c90405bcf", "is_reserved": 0, "rental_uris": {"android": "https://dc.lft.to/lastmile_qr_scan", "ios": "https://dc.lft.to/lastmile_qr_scan"}, "lat": 38.90626683333333, "is_disabled": 0, "lon": -77.05124916666666}, {"fusion_lat": 0.0, "type": "electric_scooter", "name": "8ab854182321b1def623f814f7b33d69", "fusion_lon": 0.0, "bike_id": "8ab854182321b1def623f814f7b33d69", "is_reserved": 0, "rental_uris": {"android": "https://dc.lft.to/lastmile_qr_scan", "ios": "https://dc.lft.to/lastmile_qr_scan"}, "lat": 38.90730083333333, "is_disabled": 0, "lon": -77.03199716666667}, {"fusion_lat": 0.0, "type": "electric_scooter", "name": "7565208d99c932c2a0df380350396db3", "fusion_lon": 0.0, "bike_id": "7565208d99c932c2a0df380350396db3", "is_reserved": 0, "rental_uris": {"android": "https://dc.lft.to/lastmile_qr_scan", "ios": "https://dc.lft.to/lastmile_qr_scan"}, "lat": 38.907485666666666, "is_disabled": 0, "lon": -77.04223366666666}, {"fusion_lat": 0.0, "type": "electric_scooter", "name": "83ddabe6d7441225bea72bfd4628e102", "fusion_lon": 0.0, "bike_id": "83ddabe6d7441225bea72bfd4628e102", "is_reserved": 0, "rental_uris": {"android": "https://dc.lft.to/lastmile_qr_scan", "ios": "https://dc.lft.to/lastmile_qr_scan"}, "lat": 38.916050166666665, "is_disabled": 0, "lon": -77.0351045}, {"fusion_lat": 0.0, "type": "electric_bike", "name": "18ab07965118aec3b58521b23dcf18b7", "fusion_lon": 0.0, "bike_id": "18ab07965118aec3b58521b23dcf18b7", "is_reserved": 0, "rental_uris": {"android": "https://dc.lft.to/lastmile_qr_scan", "ios": "https://dc.lft.to/lastmile_qr_scan"}, "lat": 38.948013, "is_disabled": 0, "lon": -76.95969166666667}, {"fusion_lat": 0.0, "type": "electric_scooter", "name": "6b8b3062de3e54e451caee7118df7da0", "fusion_lon": 0.0, "bike_id": "6b8b3062de3e54e451caee7118df7da0", "is_reserved": 0, "rental_uris": {"android": "https://dc.lft.to/lastmile_qr_scan", "ios": "https://dc.lft.to/lastmile_qr_scan"}, "lat": 38.911083166666664, "is_disabled": 0, "lon": -77.01907066666666}, {"fusion_lat": 0.0, "type": "electric_scooter", "name": "3744f8420de10a80b94079c0e867a462", "fusion_lon": 0.0, "bike_id": "3744f8420de10a80b94079c0e867a462", "is_reserved": 0, "rental_uris": {"android": "https://dc.lft.to/lastmile_qr_scan", "ios": "https://dc.lft.to/lastmile_qr_scan"}, "lat": 38.900632333333334, "is_disabled": 0, "lon": -77.045361}, {"fusion_lat": 0.0, "type": "electric_scooter", "name": "e21a5a9ecda2f3e9e479a0b7a7d448fe", "fusion_lon": 0.0, "bike_id": "e21a5a9ecda2f3e9e479a0b7a7d448fe", "is_reserved": 0, "rental_uris": {"android": "https://dc.lft.to/lastmile_qr_scan", "ios": "https://dc.lft.to/lastmile_qr_scan"}, "lat": 38.920375666666665, "is_disabled": 0, "lon": -77.03638983333333}, {"fusion_lat": 0.0, "type": "electric_scooter", "name": "5fa50463e97f5b54ef52a8ee8539e8cf", "fusion_lon": 0.0, "bike_id": "5fa50463e97f5b54ef52a8ee8539e8cf", "is_reserved": 0, "rental_uris": {"android": "https://dc.lft.to/lastmile_qr_scan", "ios": "https://dc.lft.to/lastmile_qr_scan"}, "lat": 38.950152, "is_disabled": 0, "lon": -77.06672066666667}, {"fusion_lat": 0.0, "type": "electric_scooter", "name": "a82b8ceac637065774a84d47124aabec", "fusion_lon": 0.0, "bike_id": "a82b8ceac637065774a84d47124aabec", "is_reserved": 0, "rental_uris": {"android": "https://dc.lft.to/lastmile_qr_scan", "ios": "https://dc.lft.to/lastmile_qr_scan"}, "lat": 38.9226665, "is_disabled": 0, "lon": -77.03674283333334}, {"fusion_lat": 0.0, "type": "electric_scooter", "name": "670607c4519b109732bfd7bd8cd36e62", "fusion_lon": 0.0, "bike_id": "670607c4519b109732bfd7bd8cd36e62", "is_reserved": 0, "rental_uris": {"android": "https://dc.lft.to/lastmile_qr_scan", "ios": "https://dc.lft.to/lastmile_qr_scan"}, "lat": 38.933239666666665, "is_disabled": 0, "lon": -77.04398833333333}, {"fusion_lat": 0.0, "type": "electric_scooter", "name": "28d027ee57c5a057572ca32857f6fce4", "fusion_lon": 0.0, "bike_id": "28d027ee57c5a057572ca32857f6fce4", "is_reserved": 0, "rental_uris": {"android": "https://dc.lft.to/lastmile_qr_scan", "ios": "https://dc.lft.to/lastmile_qr_scan"}, "lat": 38.8770795, "is_disabled": 0, "lon": -76.99383766666666}, {"fusion_lat": 0.0, "type": "electric_scooter", "name": "1bb555c5c7240b5181f7f8011760d387", "fusion_lon": 0.0, "bike_id": "1bb555c5c7240b5181f7f8011760d387", "is_reserved": 0, "rental_uris": {"android": "https://dc.lft.to/lastmile_qr_scan", "ios": "https://dc.lft.to/lastmile_qr_scan"}, "lat": 38.92439666666667, "is_disabled": 0, "lon": -77.0403155}, {"fusion_lat": 0.0, "type": "electric_scooter", "name": "c6642b05d10a2317cea17ec9553c9ab7", "fusion_lon": 0.0, "bike_id": "c6642b05d10a2317cea17ec9553c9ab7", "is_reserved": 0, "rental_uris": {"android": "https://dc.lft.to/lastmile_qr_scan", "ios": "https://dc.lft.to/lastmile_qr_scan"}, "lat": 38.91628733333334, "is_disabled": 0, "lon": -77.0107885}, {"fusion_lat": 0.0, "type": "electric_scooter", "name": "349d8f6cf3df0d2c7a7cf2783ed8f624", "fusion_lon": 0.0, "bike_id": "349d8f6cf3df0d2c7a7cf2783ed8f624", "is_reserved": 0, "rental_uris": {"android": "https://dc.lft.to/lastmile_qr_scan", "ios": "https://dc.lft.to/lastmile_qr_scan"}, "lat": 38.871578666666665, "is_disabled": 0, "lon": -76.97745183333333}, {"fusion_lat": 0.0, "type": "electric_scooter", "name": "f748b08cb2dacd094dcb6a2347271af6", "fusion_lon": 0.0, "bike_id": "f748b08cb2dacd094dcb6a2347271af6", "is_reserved": 0, "rental_uris": {"android": "https://dc.lft.to/lastmile_qr_scan", "ios": "https://dc.lft.to/lastmile_qr_scan"}, "lat": 38.93100883333334, "is_disabled": 0, "lon": -77.02477816666666}, {"fusion_lat": 0.0, "type": "electric_scooter", "name": "d8f357b37ecb4079bf71c338ed8686d8", "fusion_lon": 0.0, "bike_id": "d8f357b37ecb4079bf71c338ed8686d8", "is_reserved": 0, "rental_uris": {"android": "https://dc.lft.to/lastmile_qr_scan", "ios": "https://dc.lft.to/lastmile_qr_scan"}, "lat": 38.955568166666666, "is_disabled": 0, "lon": -77.07000733333334}, {"fusion_lat": 0.0, "type": "electric_scooter", "name": "4c7448e17c8087c3b7fb3e1a4e2d37f9", "fusion_lon": 0.0, "bike_id": "4c7448e17c8087c3b7fb3e1a4e2d37f9", "is_reserved": 0, "rental_uris": {"android": "https://dc.lft.to/lastmile_qr_scan", "ios": "https://dc.lft.to/lastmile_qr_scan"}, "lat": 38.913855833333336, "is_disabled": 0, "lon": -77.033164}, {"fusion_lat": 0.0, "type": "electric_scooter", "name": "b4e692d814eb96f203895b8fc14adbd3", "fusion_lon": 0.0, "bike_id": "b4e692d814eb96f203895b8fc14adbd3", "is_reserved": 0, "rental_uris": {"android": "https://dc.lft.to/lastmile_qr_scan", "ios": "https://dc.lft.to/lastmile_qr_scan"}, "lat": 38.917043666666665, "is_disabled": 0, "lon": -77.00873483333334}, {"fusion_lat": 0.0, "type": "electric_scooter", "name": "985aba6eb0e287ad5610dbd9bb9ab6f1", "fusion_lon": 0.0, "bike_id": "985aba6eb0e287ad5610dbd9bb9ab6f1", "is_reserved": 0, "rental_uris": {"android": "https://dc.lft.to/lastmile_qr_scan", "ios": "https://dc.lft.to/lastmile_qr_scan"}, "lat": 38.95119183333333, "is_disabled": 0, "lon": -76.98671116666667}, {"fusion_lat": 0.0, "type": "electric_scooter", "name": "ff2a2fb5eeb4734bf1110df3b3c24be8", "fusion_lon": 0.0, "bike_id": "ff2a2fb5eeb4734bf1110df3b3c24be8", "is_reserved": 0, "rental_uris": {"android": "https://dc.lft.to/lastmile_qr_scan", "ios": "https://dc.lft.to/lastmile_qr_scan"}, "lat": 38.925193, "is_disabled": 0, "lon": -77.05046516666667}, {"fusion_lat": 0.0, "type": "electric_scooter", "name": "3862537e4dc2f9262caf5482fe12fe3e", "fusion_lon": 0.0, "bike_id": "3862537e4dc2f9262caf5482fe12fe3e", "is_reserved": 0, "rental_uris": {"android": "https://dc.lft.to/lastmile_qr_scan", "ios": "https://dc.lft.to/lastmile_qr_scan"}, "lat": 38.892303, "is_disabled": 0, "lon": -77.028047}, {"fusion_lat": 0.0, "type": "electric_scooter", "name": "2cf0ad6aefbac82d6d29433b1a9593b9", "fusion_lon": 0.0, "bike_id": "2cf0ad6aefbac82d6d29433b1a9593b9", "is_reserved": 0, "rental_uris": {"android": "https://dc.lft.to/lastmile_qr_scan", "ios": "https://dc.lft.to/lastmile_qr_scan"}, "lat": 38.92184, "is_disabled": 0, "lon": -77.04012583333333}, {"fusion_lat": 0.0, "type": "electric_scooter", "name": "cf757add0e132b1931cc09ceeea8af38", "fusion_lon": 0.0, "bike_id": "cf757add0e132b1931cc09ceeea8af38", "is_reserved": 0, "rental_uris": {"android": "https://dc.lft.to/lastmile_qr_scan", "ios": "https://dc.lft.to/lastmile_qr_scan"}, "lat": 38.873989333333334, "is_disabled": 0, "lon": -77.0002835}, {"fusion_lat": 0.0, "type": "electric_scooter", "name": "db3126dcf16e212d178d1c522e877b48", "fusion_lon": 0.0, "bike_id": "db3126dcf16e212d178d1c522e877b48", "is_reserved": 0, "rental_uris": {"android": "https://dc.lft.to/lastmile_qr_scan", "ios": "https://dc.lft.to/lastmile_qr_scan"}, "lat": 38.905562, "is_disabled": 0, "lon": -77.00593883333333}, {"fusion_lat": 0.0, "type": "electric_scooter", "name": "e1d3dcffb991fe35cf6d0d729f5e85dc", "fusion_lon": 0.0, "bike_id": "e1d3dcffb991fe35cf6d0d729f5e85dc", "is_reserved": 0, "rental_uris": {"android": "https://dc.lft.to/lastmile_qr_scan", "ios": "https://dc.lft.to/lastmile_qr_scan"}, "lat": 38.8923875, "is_disabled": 0, "lon": -77.04163133333333}, {"fusion_lat": 0.0, "type": "electric_scooter", "name": "d05875a1d9ddde7d02f4a44a7e6fdaae", "fusion_lon": 0.0, "bike_id": "d05875a1d9ddde7d02f4a44a7e6fdaae", "is_reserved": 0, "rental_uris": {"android": "https://dc.lft.to/lastmile_qr_scan", "ios": "https://dc.lft.to/lastmile_qr_scan"}, "lat": 38.897341833333336, "is_disabled": 0, "lon": -77.0330645}, {"fusion_lat": 0.0, "type": "electric_scooter", "name": "8be9a2084d88ea276cba36dcbca98aaf", "fusion_lon": 0.0, "bike_id": "8be9a2084d88ea276cba36dcbca98aaf", "is_reserved": 0, "rental_uris": {"android": "https://dc.lft.to/lastmile_qr_scan", "ios": "https://dc.lft.to/lastmile_qr_scan"}, "lat": 38.86247216666667, "is_disabled": 0, "lon": -76.9950225}, {"fusion_lat": 0.0, "type": "electric_scooter", "name": "4d2463b4d9e16f2ed64294e7e1c40db2", "fusion_lon": 0.0, "bike_id": "4d2463b4d9e16f2ed64294e7e1c40db2", "is_reserved": 0, "rental_uris": {"android": "https://dc.lft.to/lastmile_qr_scan", "ios": "https://dc.lft.to/lastmile_qr_scan"}, "lat": 38.911905, "is_disabled": 0, "lon": -77.00096066666667}, {"fusion_lat": 0.0, "type": "electric_scooter", "name": "d58829e3eede5a63890d0be72afd1555", "fusion_lon": 0.0, "bike_id": "d58829e3eede5a63890d0be72afd1555", "is_reserved": 0, "rental_uris": {"android": "https://dc.lft.to/lastmile_qr_scan", "ios": "https://dc.lft.to/lastmile_qr_scan"}, "lat": 38.914010166666664, "is_disabled": 0, "lon": -77.02016266666666}, {"fusion_lat": 0.0, "type": "electric_scooter", "name": "9be3865b8fa7347caa384e0c288a9fd6", "fusion_lon": 0.0, "bike_id": "9be3865b8fa7347caa384e0c288a9fd6", "is_reserved": 0, "rental_uris": {"android": "https://dc.lft.to/lastmile_qr_scan", "ios": "https://dc.lft.to/lastmile_qr_scan"}, "lat": 38.896125, "is_disabled": 0, "lon": -77.044638}, {"fusion_lat": 0.0, "type": "electric_scooter", "name": "e3c48fad7e8bdc2268c1b0fde005bf4e", "fusion_lon": 0.0, "bike_id": "e3c48fad7e8bdc2268c1b0fde005bf4e", "is_reserved": 0, "rental_uris": {"android": "https://dc.lft.to/lastmile_qr_scan", "ios": "https://dc.lft.to/lastmile_qr_scan"}, "lat": 38.902688166666664, "is_disabled": 0, "lon": -77.0032185}, {"fusion_lat": 0.0, "type": "electric_bike", "name": "3d1b786bc57177bdca09668736060e27", "fusion_lon": 0.0, "bike_id": "3d1b786bc57177bdca09668736060e27", "is_reserved": 0, "rental_uris": {"android": "https://dc.lft.to/lastmile_qr_scan", "ios": "https://dc.lft.to/lastmile_qr_scan"}, "lat": 38.919020333333336, "is_disabled": 0, "lon": -77.07042433333334}, {"fusion_lat": 0.0, "type": "electric_scooter", "name": "26a680c870b5922a0820a28ca7302a31", "fusion_lon": 0.0, "bike_id": "26a680c870b5922a0820a28ca7302a31", "is_reserved": 0, "rental_uris": {"android": "https://dc.lft.to/lastmile_qr_scan", "ios": "https://dc.lft.to/lastmile_qr_scan"}, "lat": 38.91715716666667, "is_disabled": 0, "lon": -77.02405966666667}, {"fusion_lat": 0.0, "type": "electric_scooter", "name": "4ea3246c80a68515500511accabf47bd", "fusion_lon": 0.0, "bike_id": "4ea3246c80a68515500511accabf47bd", "is_reserved": 0, "rental_uris": {"android": "https://dc.lft.to/lastmile_qr_scan", "ios": "https://dc.lft.to/lastmile_qr_scan"}, "lat": 38.897264166666666, "is_disabled": 0, "lon": -77.04302933333334}, {"fusion_lat": 0.0, "type": "electric_scooter", "name": "a8218b71a9ef728fc6e00670d6b60ff5", "fusion_lon": 0.0, "bike_id": "a8218b71a9ef728fc6e00670d6b60ff5", "is_reserved": 0, "rental_uris": {"android": "https://dc.lft.to/lastmile_qr_scan", "ios": "https://dc.lft.to/lastmile_qr_scan"}, "lat": 38.9200605, "is_disabled": 0, "lon": -77.03210283333334}, {"fusion_lat": 0.0, "type": "electric_scooter", "name": "33aaa56a168dd3f0c3c195e4db98cabc", "fusion_lon": 0.0, "bike_id": "33aaa56a168dd3f0c3c195e4db98cabc", "is_reserved": 0, "rental_uris": {"android": "https://dc.lft.to/lastmile_qr_scan", "ios": "https://dc.lft.to/lastmile_qr_scan"}, "lat": 38.92145416666666, "is_disabled": 0, "lon": -77.03877066666666}, {"fusion_lat": 0.0, "type": "electric_scooter", "name": "abc9d4555e246c8effb9c134a415c486", "fusion_lon": 0.0, "bike_id": "abc9d4555e246c8effb9c134a415c486", "is_reserved": 0, "rental_uris": {"android": "https://dc.lft.to/lastmile_qr_scan", "ios": "https://dc.lft.to/lastmile_qr_scan"}, "lat": 38.92912166666667, "is_disabled": 0, "lon": -77.02190883333333}, {"fusion_lat": 0.0, "type": "electric_scooter", "name": "c2ba49b7e6a430ef99644f6eb8ba9de5", "fusion_lon": 0.0, "bike_id": "c2ba49b7e6a430ef99644f6eb8ba9de5", "is_reserved": 0, "rental_uris": {"android": "https://dc.lft.to/lastmile_qr_scan", "ios": "https://dc.lft.to/lastmile_qr_scan"}, "lat": 38.89915666666667, "is_disabled": 0, "lon": -76.93365716666666}, {"fusion_lat": 0.0, "type": "electric_scooter", "name": "3c38d4c31b1600c039e2bdb85a4d08ff", "fusion_lon": 0.0, "bike_id": "3c38d4c31b1600c039e2bdb85a4d08ff", "is_reserved": 0, "rental_uris": {"android": "https://dc.lft.to/lastmile_qr_scan", "ios": "https://dc.lft.to/lastmile_qr_scan"}, "lat": 38.900110833333336, "is_disabled": 0, "lon": -77.02612533333334}, {"fusion_lat": 0.0, "type": "electric_scooter", "name": "9d0363c261f444cf72fd25ddb413d603", "fusion_lon": 0.0, "bike_id": "9d0363c261f444cf72fd25ddb413d603", "is_reserved": 0, "rental_uris": {"android": "https://dc.lft.to/lastmile_qr_scan", "ios": "https://dc.lft.to/lastmile_qr_scan"}, "lat": 38.952598, "is_disabled": 0, "lon": -77.0256665}, {"fusion_lat": 0.0, "type": "electric_scooter", "name": "44dc0cc0589fc30751c25d785eb103c4", "fusion_lon": 0.0, "bike_id": "44dc0cc0589fc30751c25d785eb103c4", "is_reserved": 0, "rental_uris": {"android": "https://dc.lft.to/lastmile_qr_scan", "ios": "https://dc.lft.to/lastmile_qr_scan"}, "lat": 38.93404316666667, "is_disabled": 0, "lon": -77.03276116666666}, {"fusion_lat": 0.0, "type": "electric_scooter", "name": "a0a9c6b036b0138ca09f828d6169c2a3", "fusion_lon": 0.0, "bike_id": "a0a9c6b036b0138ca09f828d6169c2a3", "is_reserved": 0, "rental_uris": {"android": "https://dc.lft.to/lastmile_qr_scan", "ios": "https://dc.lft.to/lastmile_qr_scan"}, "lat": 38.9238085, "is_disabled": 0, "lon": -77.02741866666666}, {"fusion_lat": 0.0, "type": "electric_scooter", "name": "4783bd44b9fa44ac359dbde338d9b69a", "fusion_lon": 0.0, "bike_id": "4783bd44b9fa44ac359dbde338d9b69a", "is_reserved": 0, "rental_uris": {"android": "https://dc.lft.to/lastmile_qr_scan", "ios": "https://dc.lft.to/lastmile_qr_scan"}, "lat": 38.886087833333335, "is_disabled": 0, "lon": -76.95589916666667}, {"fusion_lat": 0.0, "type": "electric_scooter", "name": "24e2b4124370561d902dafa7aa14b7bb", "fusion_lon": 0.0, "bike_id": "24e2b4124370561d902dafa7aa14b7bb", "is_reserved": 0, "rental_uris": {"android": "https://dc.lft.to/lastmile_qr_scan", "ios": "https://dc.lft.to/lastmile_qr_scan"}, "lat": 38.892922166666665, "is_disabled": 0, "lon": -76.99819233333334}, {"fusion_lat": 0.0, "type": "electric_scooter", "name": "8ada99f647252a465651e5555988972e", "fusion_lon": 0.0, "bike_id": "8ada99f647252a465651e5555988972e", "is_reserved": 0, "rental_uris": {"android": "https://dc.lft.to/lastmile_qr_scan", "ios": "https://dc.lft.to/lastmile_qr_scan"}, "lat": 38.920528166666664, "is_disabled": 0, "lon": -77.03464916666667}, {"fusion_lat": 0.0, "type": "electric_scooter", "name": "9c4b3c702f021a43c684487868105168", "fusion_lon": 0.0, "bike_id": "9c4b3c702f021a43c684487868105168", "is_reserved": 0, "rental_uris": {"android": "https://dc.lft.to/lastmile_qr_scan", "ios": "https://dc.lft.to/lastmile_qr_scan"}, "lat": 38.9233875, "is_disabled": 0, "lon": -77.02429033333334}, {"fusion_lat": 0.0, "type": "electric_scooter", "name": "413d3530694d33f6efb391d3a3894a94", "fusion_lon": 0.0, "bike_id": "413d3530694d33f6efb391d3a3894a94", "is_reserved": 0, "rental_uris": {"android": "https://dc.lft.to/lastmile_qr_scan", "ios": "https://dc.lft.to/lastmile_qr_scan"}, "lat": 38.91253233333333, "is_disabled": 0, "lon": -77.03308733333333}, {"fusion_lat": 0.0, "type": "electric_scooter", "name": "e8ca355f0ecb9c31e1c36b2ec5f66e8f", "fusion_lon": 0.0, "bike_id": "e8ca355f0ecb9c31e1c36b2ec5f66e8f", "is_reserved": 0, "rental_uris": {"android": "https://dc.lft.to/lastmile_qr_scan", "ios": "https://dc.lft.to/lastmile_qr_scan"}, "lat": 38.9169115, "is_disabled": 0, "lon": -77.03491566666666}, {"fusion_lat": 0.0, "type": "electric_scooter", "name": "d6d06b49080501e5bc8e040f5fae1c7f", "fusion_lon": 0.0, "bike_id": "d6d06b49080501e5bc8e040f5fae1c7f", "is_reserved": 0, "rental_uris": {"android": "https://dc.lft.to/lastmile_qr_scan", "ios": "https://dc.lft.to/lastmile_qr_scan"}, "lat": 38.908872, "is_disabled": 0, "lon": -77.02187966666666}, {"fusion_lat": 0.0, "type": "electric_scooter", "name": "651c8f325acd3bd0c6ebddf7849534b8", "fusion_lon": 0.0, "bike_id": "651c8f325acd3bd0c6ebddf7849534b8", "is_reserved": 0, "rental_uris": {"android": "https://dc.lft.to/lastmile_qr_scan", "ios": "https://dc.lft.to/lastmile_qr_scan"}, "lat": 38.944553, "is_disabled": 0, "lon": -77.0602415}, {"fusion_lat": 0.0, "type": "electric_bike", "name": "77aadec058328154c98675fd67b3f047", "fusion_lon": 0.0, "bike_id": "77aadec058328154c98675fd67b3f047", "is_reserved": 0, "rental_uris": {"android": "https://dc.lft.to/lastmile_qr_scan", "ios": "https://dc.lft.to/lastmile_qr_scan"}, "lat": 38.927252333333335, "is_disabled": 0, "lon": -77.073367}, {"fusion_lat": 0.0, "type": "electric_scooter", "name": "a40f4a02d45fb2d33936161664666b62", "fusion_lon": 0.0, "bike_id": "a40f4a02d45fb2d33936161664666b62", "is_reserved": 0, "rental_uris": {"android": "https://dc.lft.to/lastmile_qr_scan", "ios": "https://dc.lft.to/lastmile_qr_scan"}, "lat": 38.9078555, "is_disabled": 0, "lon": -77.011049}, {"fusion_lat": 0.0, "type": "electric_scooter", "name": "2f2fefbc135084a28ddaf84089ae6f7d", "fusion_lon": 0.0, "bike_id": "2f2fefbc135084a28ddaf84089ae6f7d", "is_reserved": 0, "rental_uris": {"android": "https://dc.lft.to/lastmile_qr_scan", "ios": "https://dc.lft.to/lastmile_qr_scan"}, "lat": 38.893602333333334, "is_disabled": 0, "lon": -77.05491416666666}, {"fusion_lat": 0.0, "type": "electric_scooter", "name": "5f197e4654bf0df0245221f352a28407", "fusion_lon": 0.0, "bike_id": "5f197e4654bf0df0245221f352a28407", "is_reserved": 0, "rental_uris": {"android": "https://dc.lft.to/lastmile_qr_scan", "ios": "https://dc.lft.to/lastmile_qr_scan"}, "lat": 38.91570933333333, "is_disabled": 0, "lon": -77.03854266666667}, {"fusion_lat": 0.0, "type": "electric_scooter", "name": "b4a4e0a11682851c2b268d159c786220", "fusion_lon": 0.0, "bike_id": "b4a4e0a11682851c2b268d159c786220", "is_reserved": 0, "rental_uris": {"android": "https://dc.lft.to/lastmile_qr_scan", "ios": "https://dc.lft.to/lastmile_qr_scan"}, "lat": 38.927117333333335, "is_disabled": 0, "lon": -77.0239365}, {"fusion_lat": 0.0, "type": "electric_scooter", "name": "319d0b9d68127b21a0fe859941a5c7e7", "fusion_lon": 0.0, "bike_id": "319d0b9d68127b21a0fe859941a5c7e7", "is_reserved": 0, "rental_uris": {"android": "https://dc.lft.to/lastmile_qr_scan", "ios": "https://dc.lft.to/lastmile_qr_scan"}, "lat": 38.90730666666666, "is_disabled": 0, "lon": -77.03459366666667}, {"fusion_lat": 0.0, "type": "electric_scooter", "name": "03de688a8a742fec3af6cb1a1dbf2342", "fusion_lon": 0.0, "bike_id": "03de688a8a742fec3af6cb1a1dbf2342", "is_reserved": 0, "rental_uris": {"android": "https://dc.lft.to/lastmile_qr_scan", "ios": "https://dc.lft.to/lastmile_qr_scan"}, "lat": 38.89427283333333, "is_disabled": 0, "lon": -76.94881616666666}, {"fusion_lat": 0.0, "type": "electric_scooter", "name": "de259bd6d842511d55c68a053897eb26", "fusion_lon": 0.0, "bike_id": "de259bd6d842511d55c68a053897eb26", "is_reserved": 0, "rental_uris": {"android": "https://dc.lft.to/lastmile_qr_scan", "ios": "https://dc.lft.to/lastmile_qr_scan"}, "lat": 38.89220233333333, "is_disabled": 0, "lon": -77.03210166666666}, {"fusion_lat": 0.0, "type": "electric_scooter", "name": "c01c8c5e3f595d3e527ccfdf7d1d0529", "fusion_lon": 0.0, "bike_id": "c01c8c5e3f595d3e527ccfdf7d1d0529", "is_reserved": 0, "rental_uris": {"android": "https://dc.lft.to/lastmile_qr_scan", "ios": "https://dc.lft.to/lastmile_qr_scan"}, "lat": 38.910468, "is_disabled": 0, "lon": -77.03498033333334}, {"fusion_lat": 0.0, "type": "electric_scooter", "name": "fc18fdb8caa63f69d488d67f503d29c4", "fusion_lon": 0.0, "bike_id": "fc18fdb8caa63f69d488d67f503d29c4", "is_reserved": 0, "rental_uris": {"android": "https://dc.lft.to/lastmile_qr_scan", "ios": "https://dc.lft.to/lastmile_qr_scan"}, "lat": 38.89192416666667, "is_disabled": 0, "lon": -76.9885725},