{"data": {"bikes": [{"lon": -76.9996975, "lat": 38.838344666666664, "name": "d41e5df83d1df928bce508a7edd690cb", "fusion_lat": 0.0, "fusion_lon": 0.0, "rental_uris": {"android": "https://dc.lft.to/lastmile_qr_scan", "ios": "https://dc.lft.to/lastmile_qr_scan"}, "is_reserved": 0, "is_disabled": 0, "type": "electric_scooter", "bike_id": "d41e5df83d1df928bce508a7edd690cb"}, {"lon": -76.990065, "lat": 38.865088, "name": "1d3a2b5ecdff9ef0cde0ce7b16fc65aa", "fusion_lat": 0.0, "fusion_lon": 0.0, "rental_uris": {"android": "https://dc.lft.to/lastmile_qr_scan", "ios": "https://dc.lft.to/lastmile_qr_scan"}, "is_reserved": 0, "is_disabled": 0, "type": "electric_scooter", "bike_id": "1d3a2b5ecdff9ef0cde0ce7b16fc65aa"}, {"lon": -77.03894866666667, "lat": 38.92333633333333, "name": "8982be62a60f5e22fc7d604bf6be0d38", "fusion_lat": 0.0, "fusion_lon": 0.0, "rental_uris": {"android": "https://dc.lft.to/lastmile_qr_scan", "ios": "https://dc.lft.to/lastmile_qr_scan"}, "is_reserved": 0, "is_disabled": 0, "type": "electric_scooter", "bike_id": "8982be62a60f5e22fc7d604bf6be0d38"}, {"lon": -77.04023866666667, "lat": 38.904764666666665, "name": "8df53e7b362eb7d56bd0f8ec54242cb6", "fusion_lat": 0.0, "fusion_lon": 0.0, "rental_uris": {"android": "https://dc.lft.to/lastmile_qr_scan", "ios": "https://dc.lft.to/lastmile_qr_scan"}, "is_reserved": 0, "is_disabled": 0, "type": "electric_scooter", "bike_id": "8df53e7b362eb7d56bd0f8ec54242cb6"}, {"lon": -77.04298216666666, "lat": 38.922519666666666, "name": "e38c3984e35a7ccf116ae9badfc1d648", "fusion_lat": 0.0, "fusion_lon": 0.0, "rental_uris": {"android": "https://dc.lft.to/lastmile_qr_scan", "ios": "https://dc.lft.to/lastmile_qr_scan"}, "is_reserved": 0, "is_disabled": 0, "type": "electric_scooter", "bike_id": "e38c3984e35a7ccf116ae9badfc1d648"}, {"lon": -77.0415635, "lat": 38.91543216666667, "name": "f6596b2b6f4a7af71136a9f1ebf73e1e", "fusion_lat": 0.0, "fusion_lon": 0.0, "rental_uris": {"android": "https://dc.lft.to/lastmile_qr_scan", "ios": "https://dc.lft.to/lastmile_qr_scan"}, "is_reserved": 0, "is_disabled": 0, "type": "electric_scooter", "bike_id": "f6596b2b6f4a7af71136a9f1ebf73e1e"}, {"lon": -77.0384175, "lat": 38.902857166666664, "name": "a2904e1d8ebfb798806eb639f7847750", "fusion_lat": 0.0, "fusion_lon": 0.0, "rental_uris": {"android": "https://dc.lft.to/lastmile_qr_scan", "ios": "https://dc.lft.to/lastmile_qr_scan"}, "is_reserved": 0, "is_disabled": 0, "type": "electric_scooter", "bike_id": "a2904e1d8ebfb798806eb639f7847750"}, {"lon": -77.02501316666667, "lat": 38.93409833333333, "name": "c72ad317e7620c50c0721ffba3e7c640", "fusion_lat": 0.0, "fusion_lon": 0.0, "rental_uris": {"android": "https://dc.lft.to/lastmile_qr_scan", "ios": "https://dc.lft.to/lastmile_qr_scan"}, "is_reserved": 0, "is_disabled": 0, "type": "electric_scooter", "bike_id": "c72ad317e7620c50c0721ffba3e7c640"}, {"lon": -77.04871533333333, "lat": 38.9015935, "name": "0593a7a14f5834637c54a7120838e547", "fusion_lat": 0.0, "fusion_lon": 0.0, "rental_uris": {"android": "https://dc.lft.to/lastmile_qr_scan", "ios": "https://dc.lft.to/lastmile_qr_scan"}, "is_reserved": 0, "is_disabled": 0, "type": "electric_scooter", "bike_id": "0593a7a14f5834637c54a7120838e547"}, {"lon": -77.0240335, "lat": 38.91665866666666, "name": "c9a077b5b3600329f718ec68c4ed5f6a", "fusion_lat": 0.0, "fusion_lon": 0.0, "rental_uris": {"android": "https://dc.lft.to/lastmile_qr_scan", "ios": "https://dc.lft.to/lastmile_qr_scan"}, "is_reserved": 0, "is_disabled": 0, "type": "electric_scooter", "bike_id": "c9a077b5b3600329f718ec68c4ed5f6a"}, {"lon": -76.9908055, "lat": 38.860526666666665, "name": "7f72df67e8b5406aa01b413fd275062a", "fusion_lat": 0.0, "fusion_lon": 0.0, "rental_uris": {"android": "https://dc.lft.to/lastmile_qr_scan", "ios": "https://dc.lft.to/lastmile_qr_scan"}, "is_reserved": 0, "is_disabled": 0, "type": "electric_scooter", "bike_id": "7f72df67e8b5406aa01b413fd275062a"}, {"lon": -76.99556266666667, "lat": 38.88609, "name": "8129219a0527e802f6873195a58b73ca", "fusion_lat": 0.0, "fusion_lon": 0.0, "rental_uris": {"android": "https://dc.lft.to/lastmile_qr_scan", "ios": "https://dc.lft.to/lastmile_qr_scan"}, "is_reserved": 0, "is_disabled": 0, "type": "electric_scooter", "bike_id": "8129219a0527e802f6873195a58b73ca"}, {"lon": -77.085442, "lat": 38.85621916666667, "name": "5cd9a0a7a0678c88a9ac344a5ed16cb4", "fusion_lat": 0.0, "fusion_lon": 0.0, "rental_uris": {"android": "https://dc.lft.to/lastmile_qr_scan", "ios": "https://dc.lft.to/lastmile_qr_scan"}, "is_reserved": 0, "is_disabled": 0, "type": "electric_bike", "bike_id": "5cd9a0a7a0678c88a9ac344a5ed16cb4"}, {"lon": -77.17848233333333, "lat": 39.089036, "name": "6d4ca090635c6a7367f738dbbdefbd26", "fusion_lat": 0.0, "fusion_lon": 0.0, "rental_uris": {"android": "https://dc.lft.to/lastmile_qr_scan", "ios": "https://dc.lft.to/lastmile_qr_scan"}, "is_reserved": 0, "is_disabled": 0, "type": "electric_bike", "bike_id": "6d4ca090635c6a7367f738dbbdefbd26"}, {"lon": -77.02626333333333, "lat": 38.962246, "name": "66591668c3adae494cd0f7fe146e866b", "fusion_lat": 0.0, "fusion_lon": 0.0, "rental_uris": {"android": "https://dc.lft.to/lastmile_qr_scan", "ios": "https://dc.lft.to/lastmile_qr_scan"}, "is_reserved": 0, "is_disabled": 0, "type": "electric_bike", "bike_id": "66591668c3adae494cd0f7fe146e866b"}, {"lon": -77.0500035, "lat": 38.89228516666667, "name": "1f938d69e33621ad5424e0ad3b7b7f8e", "fusion_lat": 0.0, "fusion_lon": 0.0, "rental_uris": {"android": "https://dc.lft.to/lastmile_qr_scan", "ios": "https://dc.lft.to/lastmile_qr_scan"}, "is_reserved": 0, "is_disabled": 0, "type": "electric_scooter", "bike_id": "1f938d69e33621ad5424e0ad3b7b7f8e"}, {"lon": -77.03461116666666, "lat": 38.94573416666667, "name": "7da3848de733555d339f1e008e366e0b", "fusion_lat": 0.0, "fusion_lon": 0.0, "rental_uris": {"android": "https://dc.lft.to/lastmile_qr_scan", "ios": "https://dc.lft.to/lastmile_qr_scan"}, "is_reserved": 0, "is_disabled": 0, "type": "electric_scooter", "bike_id": "7da3848de733555d339f1e008e366e0b"}, {"lon": -77.04549483333334, "lat": 38.90276083333333, "name": "e1ce8d5f1fb9e5e5505d47847c80c3b3", "fusion_lat": 0.0, "fusion_lon": 0.0, "rental_uris": {"android": "https://dc.lft.to/lastmile_qr_scan", "ios": "https://dc.lft.to/lastmile_qr_scan"}, "is_reserved": 0, "is_disabled": 0, "type": "electric_scooter", "bike_id": "e1ce8d5f1fb9e5e5505d47847c80c3b3"}, {"lon": -77.03347, "lat": 38.8850655, "name": "2eaf1b634d801a4885f6c9dc496adf26", "fusion_lat": 0.0, "fusion_lon": 0.0, "rental_uris": {"android": "https://dc.lft.to/lastmile_qr_scan", "ios": "https://dc.lft.to/lastmile_qr_scan"}, "is_reserved": 0, "is_disabled": 0, "type": "electric_scooter", "bike_id": "2eaf1b634d801a4885f6c9dc496adf26"}, {"lon": -76.988981, "lat": 38.866727, "name": "c99754d552aff46bec1b6ea9d80980ce", "fusion_lat": 0.0, "fusion_lon": 0.0, "rental_uris": {"android": "https://dc.lft.to/lastmile_qr_scan", "ios": "https://dc.lft.to/lastmile_qr_scan"}, "is_reserved": 0, "is_disabled": 0, "type": "electric_scooter", "bike_id": "c99754d552aff46bec1b6ea9d80980ce"}, {"lon": -77.02542283333334, "lat": 38.94096916666667, "name": "6e1b2bc725edf2da067ed79ae8165129", "fusion_lat": 0.0, "fusion_lon": 0.0, "rental_uris": {"android": "https://dc.lft.to/lastmile_qr_scan", "ios": "https://dc.lft.to/lastmile_qr_scan"}, "is_reserved": 0, "is_disabled": 0, "type": "electric_scooter", "bike_id": "6e1b2bc725edf2da067ed79ae8165129"}, {"lon": -77.03466633333333, "lat": 38.906731, "name": "e411812af4330753d75a3aaf9ea5324a", "fusion_lat": 0.0, "fusion_lon": 0.0, "rental_uris": {"android": "https://dc.lft.to/lastmile_qr_scan", "ios": "https://dc.lft.to/lastmile_qr_scan"}, "is_reserved": 0, "is_disabled": 0, "type": "electric_scooter", "bike_id": "e411812af4330753d75a3aaf9ea5324a"}, {"lon": -77.06534266666667, "lat": 38.93475216666667, "name": "f57bc29e8ad972179cc5cb93ac6ee4eb", "fusion_lat": 0.0, "fusion_lon": 0.0, "rental_uris": {"android": "https://dc.lft.to/lastmile_qr_scan", "ios": "https://dc.lft.to/lastmile_qr_scan"}, "is_reserved": 0, "is_disabled": 0, "type": "electric_scooter", "bike_id": "f57bc29e8ad972179cc5cb93ac6ee4eb"}, {"lon": -77.03457116666667, "lat": 38.9074095, "name": "b527fad6420b9223c774183ec177ddae", "fusion_lat": 0.0, "fusion_lon": 0.0, "rental_uris": {"android": "https://dc.lft.to/lastmile_qr_scan", "ios": "https://dc.lft.to/lastmile_qr_scan"}, "is_reserved": 0, "is_disabled": 0, "type": "electric_scooter", "bike_id": "b527fad6420b9223c774183ec177ddae"}, {"lon": -76.98431483333333, "lat": 38.9143075, "name": "dfae592e6142288c95a49b28b333673a", "fusion_lat": 0.0, "fusion_lon": 0.0, "rental_uris": {"android": "https://dc.lft.to/lastmile_qr_scan", "ios": "https://dc.lft.to/lastmile_qr_scan"}, "is_reserved": 0, "is_disabled": 0, "type": "electric_scooter", "bike_id": "dfae592e6142288c95a49b28b333673a"}, {"lon": -77.033369, "lat": 38.8978955, "name": "c5ee3409a5ce486546a59d11af479487", "fusion_lat": 0.0, "fusion_lon": 0.0, "rental_uris": {"android": "https://dc.lft.to/lastmile_qr_scan", "ios": "https://dc.lft.to/lastmile_qr_scan"}, "is_reserved": 0, "is_disabled": 0, "type": "electric_scooter", "bike_id": "c5ee3409a5ce486546a59d11af479487"}, {"lon": -77.057337, "lat": 38.933681, "name": "29583de8f45f4dfd4b94c27fabb323ed", "fusion_lat": 0.0, "fusion_lon": 0.0, "rental_uris": {"android": "https://dc.lft.to/lastmile_qr_scan", "ios": "https://dc.lft.to/lastmile_qr_scan"}, "is_reserved": 0, "is_disabled": 0, "type": "electric_scooter", "bike_id": "29583de8f45f4dfd4b94c27fabb323ed"}, {"lon": -77.048183, "lat": 38.9133095, "name": "6fc3e8871fc0d034274013ddba63c82b", "fusion_lat": 0.0, "fusion_lon": 0.0, "rental_uris": {"android": "https://dc.lft.to/lastmile_qr_scan", "ios": "https://dc.lft.to/lastmile_qr_scan"}, "is_reserved": 0, "is_disabled": 0, "type": "electric_scooter", "bike_id": "6fc3e8871fc0d034274013ddba63c82b"}, {"lon": -76.90819, "lat": 38.994557666666665, "name": "465ec58e5f81b8af0cc49ba900c52766", "fusion_lat": 0.0, "fusion_lon": 0.0, "rental_uris": {"android": "https://dc.lft.to/lastmile_qr_scan", "ios": "https://dc.lft.to/lastmile_qr_scan"}, "is_reserved": 0, "is_disabled": 0, "type": "electric_bike", "bike_id": "465ec58e5f81b8af0cc49ba900c52766"}, {"lon": -77.0071745, "lat": 38.905802666666666, "name": "588db745d2a6cf2f7ada953b859da588", "fusion_lat": 0.0, "fusion_lon": 0.0, "rental_uris": {"android": "https://dc.lft.to/lastmile_qr_scan", "ios": "https://dc.lft.to/lastmile_qr_scan"}, "is_reserved": 0, "is_disabled": 0, "type": "electric_scooter", "bike_id": "588db745d2a6cf2f7ada953b859da588"}, {"lon": -77.0320315, "lat": 38.92984083333333, "name": "df84d65cc0bf5cd37b82ab56cbe6ee79", "fusion_lat": 0.0, "fusion_lon": 0.0, "rental_uris": {"android": "https://dc.lft.to/lastmile_qr_scan", "ios": "https://dc.lft.to/lastmile_qr_scan"}, "is_reserved": 0, "is_disabled": 0, "type": "electric_scooter", "bike_id": "df84d65cc0bf5cd37b82ab56cbe6ee79"}, {"lon": -77.07074883333334, "lat": 38.9192875, "name": "17c69b7d117dafa93bada5b80f33140c", "fusion_lat": 0.0, "fusion_lon": 0.0, "rental_uris": {"android": "https://dc.lft.to/lastmile_qr_scan", "ios": "https://dc.lft.to/lastmile_qr_scan"}, "is_reserved": 0, "is_disabled": 0, "type": "electric_bike", "bike_id": "17c69b7d117dafa93bada5b80f33140c"}, {"lon": -77.01885633333333, "lat": 38.91195333333334, "name": "6161b987a59ba8bf473854eacf444a47", "fusion_lat": 0.0, "fusion_lon": 0.0, "rental_uris": {"android": "https://dc.lft.to/lastmile_qr_scan", "ios": "https://dc.lft.to/lastmile_qr_scan"}, "is_reserved": 0, "is_disabled": 0, "type": "electric_scooter", "bike_id": "6161b987a59ba8bf473854eacf444a47"}, {"lon": -77.03800566666666, "lat": 38.930334333333334, "name": "9b857de8cd676520e55bc292b1beb97f", "fusion_lat": 0.0, "fusion_lon": 0.0, "rental_uris": {"android": "https://dc.lft.to/lastmile_qr_scan", "ios": "https://dc.lft.to/lastmile_qr_scan"}, "is_reserved": 0, "is_disabled": 0, "type": "electric_scooter", "bike_id": "9b857de8cd676520e55bc292b1beb97f"}, {"lon": -77.02736866666666, "lat": 38.928529166666664, "name": "19940939acb05df4189e9ebf1d919eca", "fusion_lat": 0.0, "fusion_lon": 0.0, "rental_uris": {"android": "https://dc.lft.to/lastmile_qr_scan", "ios": "https://dc.lft.to/lastmile_qr_scan"}, "is_reserved": 0, "is_disabled": 0, "type": "electric_scooter", "bike_id": "19940939acb05df4189e9ebf1d919eca"}, {"lon": -76.99953266666667, "lat": 38.908662166666666, "name": "fff4f102380d5de25ab01d79640e63b4", "fusion_lat": 0.0, "fusion_lon": 0.0, "rental_uris": {"android": "https://dc.lft.to/lastmile_qr_scan", "ios": "https://dc.lft.to/lastmile_qr_scan"}, "is_reserved": 0, "is_disabled": 0, "type": "electric_scooter", "bike_id": "fff4f102380d5de25ab01d79640e63b4"}, {"lon": -77.0433535, "lat": 38.8964925, "name": "b4b922c1c320cf587b2924af13145e79", "fusion_lat": 0.0, "fusion_lon": 0.0, "rental_uris": {"android": "https://dc.lft.to/lastmile_qr_scan", "ios": "https://dc.lft.to/lastmile_qr_scan"}, "is_reserved": 0, "is_disabled": 0, "type": "electric_scooter", "bike_id": "b4b922c1c320cf587b2924af13145e79"}, {"lon": -77.05177766666667, "lat": 38.9243325, "name": "edfebce0e7f543321c46cd5f85884837", "fusion_lat": 0.0, "fusion_lon": 0.0, "rental_uris": {"android": "https://dc.lft.to/lastmile_qr_scan", "ios": "https://dc.lft.to/lastmile_qr_scan"}, "is_reserved": 0, "is_disabled": 0, "type": "electric_scooter", "bike_id": "edfebce0e7f543321c46cd5f85884837"}, {"lon": -77.03300266666666, "lat": 38.89645, "name": "9de82da1eb66e54897c591fa916790cf", "fusion_lat": 0.0, "fusion_lon": 0.0, "rental_uris": {"android": "https://dc.lft.to/lastmile_qr_scan", "ios": "https://dc.lft.to/lastmile_qr_scan"}, "is_reserved": 0, "is_disabled": 0, "type": "electric_scooter", "bike_id": "9de82da1eb66e54897c591fa916790cf"}, {"lon": -77.0383355, "lat": 38.911944, "name": "d6bca5bb98afa6c64b543fe2a7ff43a4", "fusion_lat": 0.0, "fusion_lon": 0.0, "rental_uris": {"android": "https://dc.lft.to/lastmile_qr_scan", "ios": "https://dc.lft.to/lastmile_qr_scan"}, "is_reserved": 0, "is_disabled": 0, "type": "electric_scooter", "bike_id": "d6bca5bb98afa6c64b543fe2a7ff43a4"}, {"lon": -77.03236466666667, "lat": 38.91481483333333, "name": "7a3437c9de879652c951f6b98e5bb51f", "fusion_lat": 0.0, "fusion_lon": 0.0, "rental_uris": {"android": "https://dc.lft.to/lastmile_qr_scan", "ios": "https://dc.lft.to/lastmile_qr_scan"}, "is_reserved": 0, "is_disabled": 0, "type": "electric_scooter", "bike_id": "7a3437c9de879652c951f6b98e5bb51f"}, {"lon": -76.98551416666666, "lat": 38.883816833333334, "name": "30a38cb3990e60b6e7ce39fd41165506", "fusion_lat": 0.0, "fusion_lon": 0.0, "rental_uris": {"android": "https://dc.lft.to/lastmile_qr_scan", "ios": "https://dc.lft.to/lastmile_qr_scan"}, "is_reserved": 0, "is_disabled": 0, "type": "electric_scooter", "bike_id": "30a38cb3990e60b6e7ce39fd41165506"}, {"lon": -77.13232983333333, "lat": 38.86977816666667, "name": "16f55b851a9f9562654c62f146fce29f", "fusion_lat": 0.0, "fusion_lon": 0.0, "rental_uris": {"android": "https://dc.lft.to/lastmile_qr_scan", "ios": "https://dc.lft.to/lastmile_qr_scan"}, "is_reserved": 0, "is_disabled": 0, "type": "electric_bike", "bike_id": "16f55b851a9f9562654c62f146fce29f"}, {"lon": -77.00284133333334, "lat": 38.90579, "name": "c02820caf1d0db05784c9475dc4f90f3", "fusion_lat": 0.0, "fusion_lon": 0.0, "rental_uris": {"android": "https://dc.lft.to/lastmile_qr_scan", "ios": "https://dc.lft.to/lastmile_qr_scan"}, "is_reserved": 0, "is_disabled": 0, "type": "electric_scooter", "bike_id": "c02820caf1d0db05784c9475dc4f90f3"}, {"lon": -77.03657866666667, "lat": 38.92282816666667, "name": "d5a362e2dde2548a3dd4ee44ed07d133", "fusion_lat": 0.0, "fusion_lon": 0.0, "rental_uris": {"android": "https://dc.lft.to/lastmile_qr_scan", "ios": "https://dc.lft.to/lastmile_qr_scan"}, "is_reserved": 0, "is_disabled": 0, "type": "electric_scooter", "bike_id": "d5a362e2dde2548a3dd4ee44ed07d133"}, {"lon": -77.01448216666667, "lat": 38.9003045, "name": "12f9dc43010c4bf519741f9911a00334", "fusion_lat": 0.0, "fusion_lon": 0.0, "rental_uris": {"android": "https://dc.lft.to/lastmile_qr_scan", "ios": "https://dc.lft.to/lastmile_qr_scan"}, "is_reserved": 0, "is_disabled": 0, "type": "electric_bike", "bike_id": "12f9dc43010c4bf519741f9911a00334"}, {"lon": -77.02760666666667, "lat": 38.94290633333333, "name": "182b1f4c53773dfb1d3b3c8057474aff", "fusion_lat": 0.0, "fusion_lon": 0.0, "rental_uris": {"android": "https://dc.lft.to/lastmile_qr_scan", "ios": "https://dc.lft.to/lastmile_qr_scan"}, "is_reserved": 0, "is_disabled": 0, "type": "electric_scooter", "bike_id": "182b1f4c53773dfb1d3b3c8057474aff"}, {"lon": -77.10514633333334, "lat": 38.9285345, "name": "af54e1edc38fd349de761e2a3a01f3bf", "fusion_lat": 0.0, "fusion_lon": 0.0, "rental_uris": {"android": "https://dc.lft.to/lastmile_qr_scan", "ios": "https://dc.lft.to/lastmile_qr_scan"}, "is_reserved": 0, "is_disabled": 0, "type": "electric_bike", "bike_id": "af54e1edc38fd349de761e2a3a01f3bf"}, {"lon": -76.98421583333334, "lat": 38.85974233333334, "name": "5b38ef9462b15dd1f2a790ee6d9b97d1", "fusion_lat": 0.0, "fusion_lon": 0.0, "rental_uris": {"android": "https://dc.lft.to/lastmile_qr_scan", "ios": "https://dc.lft.to/lastmile_qr_scan"}, "is_reserved": 0, "is_disabled": 0, "type": "electric_scooter", "bike_id": "5b38ef9462b15dd1f2a790ee6d9b97d1"}, {"lon": -77.08942083333334, "lat": 38.84107683333333, "name": "173a3a184972044ed30f69393f1125b9", "fusion_lat": 0.0, "fusion_lon": 0.0, "rental_uris": {"android": "https://dc.lft.to/lastmile_qr_scan", "ios": "https://dc.lft.to/lastmile_qr_scan"}, "is_reserved": 0, "is_disabled": 0, "type": "electric_bike", "bike_id": "173a3a184972044ed30f69393f1125b9"}, {"lon": -77.002782, "lat": 38.89740316666666, "name": "f56ce98b49cdd04b208ef4a2061d9889", "fusion_lat": 0.0, "fusion_lon": 0.0, "rental_uris": {"android": "https://dc.lft.to/lastmile_qr_scan", "ios": "https://dc.lft.to/lastmile_qr_scan"}, "is_reserved": 0, "is_disabled": 0, "type": "electric_scooter", "bike_id": "f56ce98b49cdd04b208ef4a2061d9889"}, {"lon": -77.055123, "lat": 38.89930783333333, "name": "5c7e656934e70221415f7c933d0213e1", "fusion_lat": 0.0, "fusion_lon": 0.0, "rental_uris": {"android": "https://dc.lft.to/lastmile_qr_scan", "ios": "https://dc.lft.to/lastmile_qr_scan"}, "is_reserved": 0, "is_disabled": 0, "type": "electric_scooter", "bike_id": "5c7e656934e70221415f7c933d0213e1"}, {"lon": -77.02215183333334, "lat": 38.8876805, "name": "77331f2d9e2099713e44c5f703989981", "fusion_lat": 0.0, "fusion_lon": 0.0, "rental_uris": {"android": "https://dc.lft.to/lastmile_qr_scan", "ios": "https://dc.lft.to/lastmile_qr_scan"}, "is_reserved": 0, "is_disabled": 0, "type": "electric_scooter", "bike_id": "77331f2d9e2099713e44c5f703989981"}, {"lon": -77.11046083333333, "lat": 38.870193, "name": "73f97c2b77da4faa88997f76d3e2976e", "fusion_lat": 0.0, "fusion_lon": 0.0, "rental_uris": {"android": "https://dc.lft.to/lastmile_qr_scan", "ios": "https://dc.lft.to/lastmile_qr_scan"}, "is_reserved": 0, "is_disabled": 0, "type": "electric_bike", "bike_id": "73f97c2b77da4faa88997f76d3e2976e"}, {"lon": -77.02695816666666, "lat": 38.9069875, "name": "fdea6a06fc6ced65f855aa1428a1f161", "fusion_lat": 0.0, "fusion_lon": 0.0, "rental_uris": {"android": "https://dc.lft.to/lastmile_qr_scan", "ios": "https://dc.lft.to/lastmile_qr_scan"}, "is_reserved": 0, "is_disabled": 0, "type": "electric_scooter", "bike_id": "fdea6a06fc6ced65f855aa1428a1f161"}, {"lon": -77.04504516666667, "lat": 38.907656833333334, "name": "1d632743d849866e2d4355ccf8621b54", "fusion_lat": 0.0, "fusion_lon": 0.0, "rental_uris": {"android": "https://dc.lft.to/lastmile_qr_scan", "ios": "https://dc.lft.to/lastmile_qr_scan"}, "is_reserved": 0, "is_disabled": 0, "type": "electric_scooter", "bike_id": "1d632743d849866e2d4355ccf8621b54"}, {"lon": -77.03074883333333, "lat": 38.900316333333336, "name": "752090476118ac77b9975d22d2b85dc6", "fusion_lat": 0.0, "fusion_lon": 0.0, "rental_uris": {"android": "https://dc.lft.to/lastmile_qr_scan", "ios": "https://dc.lft.to/lastmile_qr_scan"}, "is_reserved": 0, "is_disabled": 0, "type": "electric_scooter", "bike_id": "752090476118ac77b9975d22d2b85dc6"}, {"lon": -77.01185466666666, "lat": 38.900248166666664, "name": "23e18302900030e4a727ad9ec55cb853", "fusion_lat": 0.0, "fusion_lon": 0.0, "rental_uris": {"android": "https://dc.lft.to/lastmile_qr_scan", "ios": "https://dc.lft.to/lastmile_qr_scan"}, "is_reserved": 0, "is_disabled": 0, "type": "electric_scooter", "bike_id": "23e18302900030e4a727ad9ec55cb853"}, {"lon": -77.03221333333333, "lat": 38.90381266666667, "name": "4af7d713bf8b5983ea1ac2e059c976f0", "fusion_lat": 0.0, "fusion_lon": 0.0, "rental_uris": {"android": "https://dc.lft.to/lastmile_qr_scan", "ios": "https://dc.lft.to/lastmile_qr_scan"}, "is_reserved": 0, "is_disabled": 0, "type": "electric_scooter", "bike_id": "4af7d713bf8b5983ea1ac2e059c976f0"}, {"lon": -77.04688083333333, "lat": 38.92133466666667, "name": "f5de206ceb3a957cf6236dd8ec4810cc", "fusion_lat": 0.0, "fusion_lon": 0.0, "rental_uris": {"android": "https://dc.lft.to/lastmile_qr_scan", "ios": "https://dc.lft.to/lastmile_qr_scan"}, "is_reserved": 0, "is_disabled": 0, "type": "electric_scooter", "bike_id": "f5de206ceb3a957cf6236dd8ec4810cc"}, {"lon": -76.94664066666667, "lat": 38.898701333333335, "name": "ae36e8d0eb1b180101660c9fc2ae0379", "fusion_lat": 0.0, "fusion_lon": 0.0, "rental_uris": {"android": "https://dc.lft.to/lastmile_qr_scan", "ios": "https://dc.lft.to/lastmile_qr_scan"}, "is_reserved": 0, "is_disabled": 0, "type": "electric_scooter", "bike_id": "ae36e8d0eb1b180101660c9fc2ae0379"}, {"lon": -77.02622916666667, "lat": 38.896563666666665, "name": "713c9f8dbc19feb253771894a19610c4", "fusion_lat": 0.0, "fusion_lon": 0.0, "rental_uris": {"android": "https://dc.lft.to/lastmile_qr_scan", "ios": "https://dc.lft.to/lastmile_qr_scan"}, "is_reserved": 0, "is_disabled": 0, "type": "electric_scooter", "bike_id": "713c9f8dbc19feb253771894a19610c4"}, {"lon": -77.036446, "lat": 38.90287083333333, "name": "5470091e3c93c1ee3024b3b335790478", "fusion_lat": 0.0, "fusion_lon": 0.0, "rental_uris": {"android": "https://dc.lft.to/lastmile_qr_scan", "ios": "https://dc.lft.to/lastmile_qr_scan"}, "is_reserved": 0, "is_disabled": 0, "type": "electric_scooter", "bike_id": "5470091e3c93c1ee3024b3b335790478"}, {"lon": -77.00335766666667, "lat": 38.893600666666664, "name": "486d487665f3751b9c89363f1b6b77f9", "fusion_lat": 0.0, "fusion_lon": 0.0, "rental_uris": {"android": "https://dc.lft.to/lastmile_qr_scan", "ios": "https://dc.lft.to/lastmile_qr_scan"}, "is_reserved": 0, "is_disabled": 0, "type": "electric_scooter", "bike_id": "486d487665f3751b9c89363f1b6b77f9"}, {"lon": -77.0473895, "lat": 38.912586166666664, "name": "d748cd4dfeccf67e6ad1c42d22973056", "fusion_lat": 0.0, "fusion_lon": 0.0, "rental_uris": {"android": "https://dc.lft.to/lastmile_qr_scan", "ios": "https://dc.lft.to/lastmile_qr_scan"}, "is_reserved": 0, "is_disabled": 0, "type": "electric_scooter", "bike_id": "d748cd4dfeccf67e6ad1c42d22973056"}, {"lon": -77.02412533333333, "lat": 38.93426783333334, "name": "046ecead694017560b89ab8944132fd7", "fusion_lat": 0.0, "fusion_lon": 0.0, "rental_uris": {"android": "https://dc.lft.to/lastmile_qr_scan", "ios": "https://dc.lft.to/lastmile_qr_scan"}, "is_reserved": 0, "is_disabled": 0, "type": "electric_scooter", "bike_id": "046ecead694017560b89ab8944132fd7"}, {"lon": -77.039152, "lat": 38.90840166666667, "name": "e0b13aeac639408a0eccd8bfaa2afc99", "fusion_lat": 0.0, "fusion_lon": 0.0, "rental_uris": {"android": "https://dc.lft.to/lastmile_qr_scan", "ios": "https://dc.lft.to/lastmile_qr_scan"}, "is_reserved": 0, "is_disabled": 0, "type": "electric_scooter", "bike_id": "e0b13aeac639408a0eccd8bfaa2afc99"}, {"lon": -76.98556283333333, "lat": 38.910307, "name": "5b7e128c79d1d80603b1e008a0d2d2f5", "fusion_lat": 0.0, "fusion_lon": 0.0, "rental_uris": {"android": "https://dc.lft.to/lastmile_qr_scan", "ios": "https://dc.lft.to/lastmile_qr_scan"}, "is_reserved": 0, "is_disabled": 0, "type": "electric_bike", "bike_id": "5b7e128c79d1d80603b1e008a0d2d2f5"}, {"lon": -77.024005, "lat": 38.9310065, "name": "a2bc75c4a38cd7eb05fcf99c6dbc995b", "fusion_lat": 0.0, "fusion_lon": 0.0, "rental_uris": {"android": "https://dc.lft.to/lastmile_qr_scan", "ios": "https://dc.lft.to/lastmile_qr_scan"}, "is_reserved": 0, "is_disabled": 0, "type": "electric_scooter", "bike_id": "a2bc75c4a38cd7eb05fcf99c6dbc995b"}, {"lon": -77.017617, "lat": 38.902657, "name": "f3cb1caf8f6cd40d7acbd7578eea8623", "fusion_lat": 0.0, "fusion_lon": 0.0, "rental_uris": {"android": "https://dc.lft.to/lastmile_qr_scan", "ios": "https://dc.lft.to/lastmile_qr_scan"}, "is_reserved": 0, "is_disabled": 0, "type": "electric_scooter", "bike_id": "f3cb1caf8f6cd40d7acbd7578eea8623"}, {"lon": -77.00798533333334, "lat": 38.917051666666666, "name": "0ab69587b690b10d0634170a34d5ebe3", "fusion_lat": 0.0, "fusion_lon": 0.0, "rental_uris": {"android": "https://dc.lft.to/lastmile_qr_scan", "ios": "https://dc.lft.to/lastmile_qr_scan"}, "is_reserved": 0, "is_disabled": 0, "type": "electric_scooter", "bike_id": "0ab69587b690b10d0634170a34d5ebe3"}, {"lon": -77.043466, "lat": 38.90098183333333, "name": "f4c26db55ea7aaf01dbb8ef67f8c7800", "fusion_lat": 0.0, "fusion_lon": 0.0, "rental_uris": {"android": "https://dc.lft.to/lastmile_qr_scan", "ios": "https://dc.lft.to/lastmile_qr_scan"}, "is_reserved": 0, "is_disabled": 0, "type": "electric_scooter", "bike_id": "f4c26db55ea7aaf01dbb8ef67f8c7800"}, {"lon": -77.0402465, "lat": 38.90022533333333, "name": "992de57e7a290d0c0b53b71cb5fd6874", "fusion_lat": 0.0, "fusion_lon": 0.0, "rental_uris": {"android": "https://dc.lft.to/lastmile_qr_scan", "ios": "https://dc.lft.to/lastmile_qr_scan"}, "is_reserved": 0, "is_disabled": 0, "type": "electric_scooter", "bike_id": "992de57e7a290d0c0b53b71cb5fd6874"}, {"lon": -76.97613566666666, "lat": 38.895822833333334, "name": "60aca92c506f1b67e4264d0c07dd2c3c", "fusion_lat": 0.0, "fusion_lon": 0.0, "rental_uris": {"android": "https://dc.lft.to/lastmile_qr_scan", "ios": "https://dc.lft.to/lastmile_qr_scan"}, "is_reserved": 0, "is_disabled": 0, "type": "electric_bike", "bike_id": "60aca92c506f1b67e4264d0c07dd2c3c"}, {"lon": -77.02741866666666, "lat": 38.96720933333334, "name": "dfe75ad3eebbdc1900b0714fb1524e64", "fusion_lat": 0.0, "fusion_lon": 0.0, "rental_uris": {"android": "https://dc.lft.to/lastmile_qr_scan", "ios": "https://dc.lft.to/lastmile_qr_scan"}, "is_reserved": 0, "is_disabled": 0, "type": "electric_scooter", "bike_id": "dfe75ad3eebbdc1900b0714fb1524e64"}, {"lon": -76.93750916666667, "lat": 38.89046066666667, "name": "42f0258006ffee1278b7514b092d66d8", "fusion_lat": 0.0, "fusion_lon": 0.0, "rental_uris": {"android": "https://dc.lft.to/lastmile_qr_scan", "ios": "https://dc.lft.to/lastmile_qr_scan"}, "is_reserved": 0, "is_disabled": 0, "type": "electric_scooter", "bike_id": "42f0258006ffee1278b7514b092d66d8"}, {"lon": -77.04643483333334, "lat": 38.89224266666667, "name": "078caaf5a9b35d56de4183b77bc718fa", "fusion_lat": 0.0, "fusion_lon": 0.0, "rental_uris": {"android": "https://dc.lft.to/lastmile_qr_scan", "ios": "https://dc.lft.to/lastmile_qr_scan"}, "is_reserved": 0, "is_disabled": 0, "type": "electric_scooter", "bike_id": "078caaf5a9b35d56de4183b77bc718fa"}, {"lon": -77.01060216666667, "lat": 38.872486, "name": "3e141713dacc3e6d2e2957ca2a6d5aef", "fusion_lat": 0.0, "fusion_lon": 0.0, "rental_uris": {"android": "https://dc.lft.to/lastmile_qr_scan", "ios": "https://dc.lft.to/lastmile_qr_scan"}, "is_reserved": 0, "is_disabled": 0, "type": "electric_scooter", "bike_id": "3e141713dacc3e6d2e2957ca2a6d5aef"}, {"lon": -77.07894466666667, "lat": 38.91923033333333, "name": "433944a7989bfe7a6597347026a23522", "fusion_lat": 0.0, "fusion_lon": 0.0, "rental_uris": {"android": "https://dc.lft.to/lastmile_qr_scan", "ios": "https://dc.lft.to/lastmile_qr_scan"}, "is_reserved": 0, "is_disabled": 0, "type": "electric_scooter", "bike_id": "433944a7989bfe7a6597347026a23522"}, {"lon": -77.033171, "lat": 38.928853, "name": "8d4205c48ac42fc0994028b3cd6cadfc", "fusion_lat": 0.0, "fusion_lon": 0.0, "rental_uris": {"android": "https://dc.lft.to/lastmile_qr_scan", "ios": "https://dc.lft.to/lastmile_qr_scan"}, "is_reserved": 0, "is_disabled": 0, "type": "electric_scooter", "bike_id": "8d4205c48ac42fc0994028b3cd6cadfc"}, {"lon": -77.03871966666667, "lat": 38.917093, "name": "72b8eb1c16a4c98f1e78a66571187cb9", "fusion_lat": 0.0, "fusion_lon": 0.0, "rental_uris": {"android": "https://dc.lft.to/lastmile_qr_scan", "ios": "https://dc.lft.to/lastmile_qr_scan"}, "is_reserved": 0, "is_disabled": 0, "type": "electric_scooter", "bike_id": "72b8eb1c16a4c98f1e78a66571187cb9"}, {"lon": -77.0283365, "lat": 38.92478933333334, "name": "04782be33a85bf9258dc29617ce5cd02", "fusion_lat": 0.0, "fusion_lon": 0.0, "rental_uris": {"android": "https://dc.lft.to/lastmile_qr_scan", "ios": "https://dc.lft.to/lastmile_qr_scan"}, "is_reserved": 0, "is_disabled": 0, "type": "electric_scooter", "bike_id": "04782be33a85bf9258dc29617ce5cd02"}, {"lon": -77.0052495, "lat": 38.916949, "name": "2d2d4fdd441c32a492eb4ab24a4f5b68", "fusion_lat": 0.0, "fusion_lon": 0.0, "rental_uris": {"android": "https://dc.lft.to/lastmile_qr_scan", "ios": "https://dc.lft.to/lastmile_qr_scan"}, "is_reserved": 0, "is_disabled": 0, "type": "electric_scooter", "bike_id": "2d2d4fdd441c32a492eb4ab24a4f5b68"}, {"lon": -77.0418945, "lat": 38.9068615, "name": "604ef78e22666f087ef63a696c05aa38", "fusion_lat": 0.0, "fusion_lon": 0.0, "rental_uris": {"android": "https://dc.lft.to/lastmile_qr_scan", "ios": "https://dc.lft.to/lastmile_qr_scan"}, "is_reserved": 0, "is_disabled": 0, "type": "electric_scooter", "bike_id": "604ef78e22666f087ef63a696c05aa38"}, {"lon": -77.0343125, "lat": 38.918125, "name": "7ca958686049ecd4439d51e0ae8d0819", "fusion_lat": 0.0, "fusion_lon": 0.0, "rental_uris": {"android": "https://dc.lft.to/lastmile_qr_scan", "ios": "https://dc.lft.to/lastmile_qr_scan"}, "is_reserved": 0, "is_disabled": 0, "type": "electric_scooter", "bike_id": "7ca958686049ecd4439d51e0ae8d0819"}, {"lon": -77.03839716666667, "lat": 38.925487333333336, "name": "fcbaeabdc51680320801d10d669e8124", "fusion_lat": 0.0, "fusion_lon": 0.0, "rental_uris": {"android": "https://dc.lft.to/lastmile_qr_scan", "ios": "https://dc.lft.to/lastmile_qr_scan"}, "is_reserved": 0, "is_disabled": 0, "type": "electric_scooter", "bike_id": "fcbaeabdc51680320801d10d669e8124"}, {"lon": -76.94651883333333, "lat": 38.89829366666667, "name": "5023713ee8c2c715315c922ca3934940", "fusion_lat": 0.0, "fusion_lon": 0.0, "rental_uris": {"android": "https://dc.lft.to/lastmile_qr_scan", "ios": "https://dc.lft.to/lastmile_qr_scan"}, "is_reserved": 0, "is_disabled": 0, "type": "electric_scooter", "bike_id": "5023713ee8c2c715315c922ca3934940"}, {"lon": -77.02213183333333, "lat": 38.8876825, "name": "c40e7148ea62e23d4164ec2855f3ce71", "fusion_lat": 0.0, "fusion_lon": 0.0, "rental_uris": {"android": "https://dc.lft.to/lastmile_qr_scan", "ios": "https://dc.lft.to/lastmile_qr_scan"}, "is_reserved": 0, "is_disabled": 0, "type": "electric_scooter", "bike_id": "c40e7148ea62e23d4164ec2855f3ce71"}, {"lon": -77.01769283333333, "lat": 38.90262883333333, "name": "30f7aebabee021ec18c352c8db0a9009", "fusion_lat": 0.0, "fusion_lon": 0.0, "rental_uris": {"android": "https://dc.lft.to/lastmile_qr_scan", "ios": "https://dc.lft.to/lastmile_qr_scan"}, "is_reserved": 0, "is_disabled": 0, "type": "electric_scooter", "bike_id": "30f7aebabee021ec18c352c8db0a9009"}, {"lon": -77.0431575, "lat": 38.900183, "name": "f22937b33e0ed78b561e678c36e3df7c", "fusion_lat": 0.0, "fusion_lon": 0.0, "rental_uris": {"android": "https://dc.lft.to/lastmile_qr_scan", "ios": "https://dc.lft.to/lastmile_qr_scan"}, "is_reserved": 0, "is_disabled": 0, "type": "electric_scooter", "bike_id": "f22937b33e0ed78b561e678c36e3df7c"}, {"lon": -77.02197766666667, "lat": 38.918856, "name": "823678925f40eb1cf33ab98d3554da32", "fusion_lat": 0.0, "fusion_lon": 0.0, "rental_uris": {"android": "https://dc.lft.to/lastmile_qr_scan", "ios": "https://dc.lft.to/lastmile_qr_scan"}, "is_reserved": 0, "is_disabled": 0, "type": "electric_scooter", "bike_id": "823678925f40eb1cf33ab98d3554da32"}, {"lon": -77.00323716666666, "lat": 38.90571666666666, "name": "51c7336b231a2fc18190f1d946d10c51", "fusion_lat": 0.0, "fusion_lon": 0.0, "rental_uris": {"android": "https://dc.lft.to/lastmile_qr_scan", "ios": "https://dc.lft.to/lastmile_qr_scan"}, "is_reserved": 0, "is_disabled": 0, "type": "electric_scooter", "bike_id": "51c7336b231a2fc18190f1d946d10c51"}, {"lon": -77.02685033333333, "lat": 38.8922635, "name": "931009d43d0af632c1d8b64704c00bb1", "fusion_lat": 0.0, "fusion_lon": 0.0, "rental_uris": {"android": "https://dc.lft.to/lastmile_qr_scan", "ios": "https://dc.lft.to/lastmile_qr_scan"}, "is_reserved": 0, "is_disabled": 0, "type": "electric_scooter", "bike_id": "931009d43d0af632c1d8b64704c00bb1"}, {"lon": -76.94894133333334, "lat": 38.8952415, "name": "26a9998cbfd161b88c5a139270a371b6", "fusion_lat": 0.0, "fusion_lon": 0.0, "rental_uris": {"android": "https://dc.lft.to/lastmile_qr_scan", "ios": "https://dc.lft.to/lastmile_qr_scan"}, "is_reserved": 0, "is_disabled": 0, "type": "electric_scooter", "bike_id": "26a9998cbfd161b88c5a139270a371b6"}, {"lon": -77.05236366666666, "lat": 38.925174, "name": "821355825b463013a15af07d0557df48", "fusion_lat": 0.0, "fusion_lon": 0.0, "rental_uris": {"android": "https://dc.lft.to/lastmile_qr_scan", "ios": "https://dc.lft.to/lastmile_qr_scan"}, "is_reserved": 0, "is_disabled": 0, "type": "electric_scooter", "bike_id": "821355825b463013a15af07d0557df48"}, {"lon": -77.04859616666667, "lat": 38.9051655, "name": "869cfe5b63644b4aa8e8cd4fac493b85", "fusion_lat": 0.0, "fusion_lon": 0.0, "rental_uris": {"android": "https://dc.lft.to/lastmile_qr_scan", "ios": "https://dc.lft.to/lastmile_qr_scan"}, "is_reserved": 0, "is_disabled": 0, "type": "electric_scooter", "bike_id": "869cfe5b63644b4aa8e8cd4fac493b85"}, {"lon": -77.1526665, "lat": 39.10568516666667, "name": "2e5e6cb3fd38e4edb7d0e998b815101e", "fusion_lat": 0.0, "fusion_lon": 0.0, "rental_uris": {"android": "https://dc.lft.to/lastmile_qr_scan", "ios": "https://dc.lft.to/lastmile_qr_scan"}, "is_reserved": 0, "is_disabled": 0, "type": "electric_bike", "bike_id": "2e5e6cb3fd38e4edb7d0e998b815101e"}, {"lon": -77.05297966666667, "lat": 38.92550333333333, "name": "5a0f7e451be37296e72f95a30f3203d6", "fusion_lat": 0.0, "fusion_lon": 0.0, "rental_uris": {"android": "https://dc.lft.to/lastmile_qr_scan", "ios": "https://dc.lft.to/lastmile_qr_scan"}, "is_reserved": 0, "is_disabled": 0, "type": "electric_scooter", "bike_id": "5a0f7e451be37296e72f95a30f3203d6"}, {"lon": -77.02361033333334, "lat": 38.925155333333336, "name": "6468d514e07b1921441578c190c71a45", "fusion_lat": 0.0, "fusion_lon": 0.0, "rental_uris": {"android": "https://dc.lft.to/lastmile_qr_scan", "ios": "https://dc.lft.to/lastmile_qr_scan"}, "is_reserved": 0, "is_disabled": 0, "type": "electric_scooter", "bike_id": "6468d514e07b1921441578c190c71a45"}, {"lon": -77.03452633333333, "lat": 38.918181833333335, "name": "aa9a6e4eb713462a6d9b78b7948447a7", "fusion_lat": 0.0, "fusion_lon": 0.0, "rental_uris": {"android": "https://dc.lft.to/lastmile_qr_scan", "ios": "https://dc.lft.to/lastmile_qr_scan"}, "is_reserved": 0, "is_disabled": 0, "type": "electric_scooter", "bike_id": "aa9a6e4eb713462a6d9b78b7948447a7"}, {"lon": -76.98327066666667, "lat": 38.86174883333333, "name": "3cf0f80de917acabb1793dbd1e28d701", "fusion_lat": 0.0, "fusion_lon": 0.0, "rental_uris": {"android": "https://dc.lft.to/lastmile_qr_scan", "ios": "https://dc.lft.to/lastmile_qr_scan"}, "is_reserved": 0, "is_disabled": 0, "type": "electric_scooter", "bike_id": "3cf0f80de917acabb1793dbd1e28d701"}, {"lon": -77.01388666666666, "lat": 38.92859933333333, "name": "13651c0a3842740df75527bee3570640", "fusion_lat": 0.0, "fusion_lon": 0.0, "rental_uris": {"android": "https://dc.lft.to/lastmile_qr_scan", "ios": "https://dc.lft.to/lastmile_qr_scan"}, "is_reserved": 0, "is_disabled": 0, "type": "electric_scooter", "bike_id": "13651c0a3842740df75527bee3570640"}, {"lon": -77.04153133333334, "lat": 38.919002166666665, "name": "13259625f6413a1dd83e9aee1489f4d0", "fusion_lat": 0.0, "fusion_lon": 0.0, "rental_uris": {"android": "https://dc.lft.to/lastmile_qr_scan", "ios": "https://dc.lft.to/lastmile_qr_scan"}, "is_reserved": 0, "is_disabled": 0, "type": "electric_scooter", "bike_id": "13259625f6413a1dd83e9aee1489f4d0"}, {"lon": -77.03210116666666, "lat": 38.907643166666666, "name": "0cd4beb5d0102b938704c7f46135b96e", "fusion_lat": 0.0, "fusion_lon": 0.0, "rental_uris": {"android": "https://dc.lft.to/lastmile_qr_scan", "ios": "https://dc.lft.to/lastmile_qr_scan"}, "is_reserved": 0, "is_disabled": 0, "type": "electric_scooter", "bike_id": "0cd4beb5d0102b938704c7f46135b96e"}, {"lon": -76.9574735, "lat": 38.884231, "name": "f4191f819e7fd187aa2f3fb0606b941a", "fusion_lat": 0.0, "fusion_lon": 0.0, "rental_uris": {"android": "https://dc.lft.to/lastmile_qr_scan", "ios": "https://dc.lft.to/lastmile_qr_scan"}, "is_reserved": 0, "is_disabled": 0, "type": "electric_scooter", "bike_id": "f4191f819e7fd187aa2f3fb0606b941a"}, {"lon": -77.03029516666666, "lat": 38.915606833333335, "name": "ebfa913b0e23012675d5fd835765a6d9", "fusion_lat": 0.0, "fusion_lon": 0.0, "rental_uris": {"android": "https://dc.lft.to/lastmile_qr_scan", "ios": "https://dc.lft.to/lastmile_qr_scan"}, "is_reserved": 0, "is_disabled": 0, "type": "electric_scooter", "bike_id": "ebfa913b0e23012675d5fd835765a6d9"}, {"lon": -77.04048933333333, "lat": 38.92710116666667, "name": "0000d5a477624d5818a4e98574998e96", "fusion_lat": 0.0, "fusion_lon": 0.0, "rental_uris": {"android": "https://dc.lft.to/lastmile_qr_scan", "ios": "https://dc.lft.to/lastmile_qr_scan"}, "is_reserved": 0, "is_disabled": 0, "type": "electric_scooter", "bike_id": "0000d5a477624d5818a4e98574998e96"}, {"lon": -77.02516033333333, "lat": 38.926363, "name": "be1009986d6495629c4982ac470bc5be", "fusion_lat": 0.0, "fusion_lon": 0.0, "rental_uris": {"android": "https://dc.lft.to/lastmile_qr_scan", "ios": "https://dc.lft.to/lastmile_qr_scan"}, "is_reserved": 0, "is_disabled": 0, "type": "electric_scooter", "bike_id": "be1009986d6495629c4982ac470bc5be"}, {"lon": -77.02962816666667, "lat": 38.954274, "name": "d0d1a07d0145ce6a82cbf3cb0d3397a2", "fusion_lat": 0.0, "fusion_lon": 0.0, "rental_uris": {"android": "https://dc.lft.to/lastmile_qr_scan", "ios": "https://dc.lft.to/lastmile_qr_scan"}, "is_reserved": 0, "is_disabled": 0, "type": "electric_scooter", "bike_id": "d0d1a07d0145ce6a82cbf3cb0d3397a2"}, {"lon": -77.00602883333333, "lat": 38.87483316666667, "name": "437cf56a93f2e0c8e024990c2c88b985", "fusion_lat": 0.0, "fusion_lon": 0.0, "rental_uris": {"android": "https://dc.lft.to/lastmile_qr_scan", "ios": "https://dc.lft.to/lastmile_qr_scan"}, "is_reserved": 0, "is_disabled": 0, "type": "electric_scooter", "bike_id": "437cf56a93f2e0c8e024990c2c88b985"}, {"lon": -77.069521, "lat": 38.990455833333336, "name": "fc29c34a22db72e77ccc3dfab663d484", "fusion_lat": 0.0, "fusion_lon": 0.0, "rental_uris": {"android": "https://dc.lft.to/lastmile_qr_scan", "ios": "https://dc.lft.to/lastmile_qr_scan"}, "is_reserved": 0, "is_disabled": 0, "type": "electric_bike", "bike_id": "fc29c34a22db72e77ccc3dfab663d484"}, {"lon": -77.04230883333334, "lat": 38.9227055, "name": "9114910692f5d0fd73b013c3e10acafa", "fusion_lat": 0.0, "fusion_lon": 0.0, "rental_uris": {"android": "https://dc.lft.to/lastmile_qr_scan", "ios": "https://dc.lft.to/lastmile_qr_scan"}, "is_reserved": 0, "is_disabled": 0, "type": "electric_scooter", "bike_id": "9114910692f5d0fd73b013c3e10acafa"}, {"lon": -76.93762616666666, "lat": 38.8997175, "name": "6e57394f708540f1bd6c557f0bc7c29a", "fusion_lat": 0.0, "fusion_lon": 0.0, "rental_uris": {"android": "https://dc.lft.to/lastmile_qr_scan", "ios": "https://dc.lft.to/lastmile_qr_scan"}, "is_reserved": 0, "is_disabled": 0, "type": "electric_scooter", "bike_id": "6e57394f708540f1bd6c557f0bc7c29a"}, {"lon": -77.02939283333333, "lat": 38.9051185, "name": "0a9c5c01f624aa2fff8233504378d4c2", "fusion_lat": 0.0, "fusion_lon": 0.0, "rental_uris": {"android": "https://dc.lft.to/lastmile_qr_scan", "ios": "https://dc.lft.to/lastmile_qr_scan"}, "is_reserved": 0, "is_disabled": 0, "type": "electric_scooter", "bike_id": "0a9c5c01f624aa2fff8233504378d4c2"}, {"lon": -77.0153935, "lat": 38.89219766666667, "name": "1bcf21a639be791b3c25b31ee859324f", "fusion_lat": 0.0, "fusion_lon": 0.0, "rental_uris": {"android": "https://dc.lft.to/lastmile_qr_scan", "ios": "https://dc.lft.to/lastmile_qr_scan"}, "is_reserved": 0, "is_disabled": 0, "type": "electric_scooter", "bike_id": "1bcf21a639be791b3c25b31ee859324f"}, {"lon": -77.04729783333333, "lat": 38.911188333333335, "name": "5aae3c7b1161dd3ca8fa8b481ecc1384", "fusion_lat": 0.0, "fusion_lon": 0.0, "rental_uris": {"android": "https://dc.lft.to/lastmile_qr_scan", "ios": "https://dc.lft.to/lastmile_qr_scan"}, "is_reserved": 0, "is_disabled": 0, "type": "electric_scooter", "bike_id": "5aae3c7b1161dd3ca8fa8b481ecc1384"}, {"lon": -77.02798333333334, "lat": 38.961246333333335, "name": "218f32b107945e7ff192a05f442757d2", "fusion_lat": 0.0, "fusion_lon": 0.0, "rental_uris": {"android": "https://dc.lft.to/lastmile_qr_scan", "ios": "https://dc.lft.to/lastmile_qr_scan"}, "is_reserved": 0, "is_disabled": 0, "type": "electric_scooter", "bike_id": "218f32b107945e7ff192a05f442757d2"}, {"lon": -77.005512, "lat": 38.87531883333333, "name": "a90433b89dc6cf353ee7591a61d8d002", "fusion_lat": 0.0, "fusion_lon": 0.0, "rental_uris": {"android": "https://dc.lft.to/lastmile_qr_scan", "ios": "https://dc.lft.to/lastmile_qr_scan"}, "is_reserved": 0, "is_disabled": 0, "type": "electric_scooter", "bike_id": "a90433b89dc6cf353ee7591a61d8d002"}, {"lon": -77.03390366666666, "lat": 38.8866, "name": "b553307bf759571055a41a4133525bc9", "fusion_lat": 0.0, "fusion_lon": 0.0, "rental_uris": {"android": "https://dc.lft.to/lastmile_qr_scan", "ios": "https://dc.lft.to/lastmile_qr_scan"}, "is_reserved": 0, "is_disabled": 0, "type": "electric_scooter", "bike_id": "b553307bf759571055a41a4133525bc9"}, {"lon": -77.03422233333333, "lat": 38.91930633333333, "name": "067f762d15b4aa386f71127d43e8dbda", "fusion_lat": 0.0, "fusion_lon": 0.0, "rental_uris": {"android": "https://dc.lft.to/lastmile_qr_scan", "ios": "https://dc.lft.to/lastmile_qr_scan"}, "is_reserved": 0, "is_disabled": 0, "type": "electric_scooter", "bike_id": "067f762d15b4aa386f71127d43e8dbda"}, {"lon": -77.050132, "lat": 38.90126083333333, "name": "03d492c7463d499bf787644f8f541fef", "fusion_lat": 0.0, "fusion_lon": 0.0, "rental_uris": {"android": "https://dc.lft.to/lastmile_qr_scan", "ios": "https://dc.lft.to/lastmile_qr_scan"}, "is_reserved": 0, "is_disabled": 0, "type": "electric_scooter", "bike_id": "03d492c7463d499bf787644f8f541fef"}, {"lon": -77.06038716666667, "lat": 38.93931533333333, "name": "85cb8d69b262522bb9b382cb79c66446", "fusion_lat": 0.0, "fusion_lon": 0.0, "rental_uris": {"android": "https://dc.lft.to/lastmile_qr_scan", "ios": "https://dc.lft.to/lastmile_qr_scan"}, "is_reserved": 0, "is_disabled": 0, "type": "electric_scooter", "bike_id": "85cb8d69b262522bb9b382cb79c66446"}, {"lon": -77.0663085, "lat": 38.913628333333335, "name": "82c1818103af299b8e8592c26b9f1cd2", "fusion_lat": 0.0, "fusion_lon": 0.0, "rental_uris": {"android": "https://dc.lft.to/lastmile_qr_scan", "ios": "https://dc.lft.to/lastmile_qr_scan"}, "is_reserved": 0, "is_disabled": 0, "type": "electric_scooter", "bike_id": "82c1818103af299b8e8592c26b9f1cd2"}, {"lon": -77.12900216666667, "lat": 38.8638155, "name": "7778c67120ddd60ba55e69a7eb65234a", "fusion_lat": 0.0, "fusion_lon": 0.0, "rental_uris": {"android": "https://dc.lft.to/lastmile_qr_scan", "ios": "https://dc.lft.to/lastmile_qr_scan"}, "is_reserved": 0, "is_disabled": 0, "type": "electric_bike", "bike_id": "7778c67120ddd60ba55e69a7eb65234a"}, {"lon": -77.02697133333334, "lat": 38.906969, "name": "6c17eb7f0f004fc0d39810d72a1d8f0d", "fusion_lat": 0.0, "fusion_lon": 0.0, "rental_uris": {"android": "https://dc.lft.to/lastmile_qr_scan", "ios": "https://dc.lft.to/lastmile_qr_scan"}, "is_reserved": 0, "is_disabled": 0, "type": "electric_scooter", "bike_id": "6c17eb7f0f004fc0d39810d72a1d8f0d"}, {"lon": -77.029352, "lat": 38.94286, "name": "fff4cabf4a54aa929cfd3bff917245fa", "fusion_lat": 0.0, "fusion_lon": 0.0, "rental_uris": {"android": "https://dc.lft.to/lastmile_qr_scan", "ios": "https://dc.lft.to/lastmile_qr_scan"}, "is_reserved": 0, "is_disabled": 0, "type": "electric_scooter", "bike_id": "fff4cabf4a54aa929cfd3bff917245fa"}, {"lon": -77.01353166666667, "lat": 38.8716025, "name": "f10bce8bb55bcc4c6a01fa63d1d565ae", "fusion_lat": 0.0, "fusion_lon": 0.0, "rental_uris": {"android": "https://dc.lft.to/lastmile_qr_scan", "ios": "https://dc.lft.to/lastmile_qr_scan"}, "is_reserved": 0, "is_disabled": 0, "type": "electric_scooter", "bike_id": "f10bce8bb55bcc4c6a01fa63d1d565ae"}, {"lon": -77.03351883333333, "lat": 38.8981915, "name": "9da4f79b467dd71b6830951a1380d5ab", "fusion_lat": 0.0, "fusion_lon": 0.0, "rental_uris": {"android": "https://dc.lft.to/lastmile_qr_scan", "ios": "https://dc.lft.to/lastmile_qr_scan"}, "is_reserved": 0, "is_disabled": 0, "type": "electric_scooter", "bike_id": "9da4f79b467dd71b6830951a1380d5ab"}, {"lon": -77.06037366666666, "lat": 38.902684666666666, "name": "e27cc9de33214dda1ee856a3728d02ef", "fusion_lat": 0.0, "fusion_lon": 0.0, "rental_uris": {"android": "https://dc.lft.to/lastmile_qr_scan", "ios": "https://dc.lft.to/lastmile_qr_scan"}, "is_reserved": 0, "is_disabled": 0, "type": "electric_scooter", "bike_id": "e27cc9de33214dda1ee856a3728d02ef"}, {"lon": -76.93175033333333, "lat": 38.89886516666667, "name": "345e3d8c8f9224e14d3e830f070c2b01", "fusion_lat": 0.0, "fusion_lon": 0.0, "rental_uris": {"android": "https://dc.lft.to/lastmile_qr_scan", "ios": "https://dc.lft.to/lastmile_qr_scan"}, "is_reserved": 0, "is_disabled": 0, "type": "electric_scooter", "bike_id": "345e3d8c8f9224e14d3e830f070c2b01"}, {"lon": -76.95759266666667, "lat": 38.884329, "name": "34a844f323ea72245e9060c1b4025f10", "fusion_lat": 0.0, "fusion_lon": 0.0, "rental_uris": {"android": "https://dc.lft.to/lastmile_qr_scan", "ios": "https://dc.lft.to/lastmile_qr_scan"}, "is_reserved": 0, "is_disabled": 0, "type": "electric_scooter", "bike_id": "34a844f323ea72245e9060c1b4025f10"}, {"lon": -76.93016033333333, "lat": 38.900854833333334, "name": "995d1ad2981620ddefc54ecbc4e2a673", "fusion_lat": 0.0, "fusion_lon": 0.0, "rental_uris": {"android": "https://dc.lft.to/lastmile_qr_scan", "ios": "https://dc.lft.to/lastmile_qr_scan"}, "is_reserved": 0, "is_disabled": 0, "type": "electric_scooter", "bike_id": "995d1ad2981620ddefc54ecbc4e2a673"}, {"lon": -77.019006, "lat": 38.909941, "name": "8b33b51632f5648b8795e16e7cb830e2", "fusion_lat": 0.0, "fusion_lon": 0.0, "rental_uris": {"android": "https://dc.lft.to/lastmile_qr_scan", "ios": "https://dc.lft.to/lastmile_qr_scan"}, "is_reserved": 0, "is_disabled": 0, "type": "electric_scooter", "bike_id": "8b33b51632f5648b8795e16e7cb830e2"}, {"lon": -77.038563, "lat": 38.91826283333333, "name": "c2debfdefd365f2b66ba076a6f6a0cab", "fusion_lat": 0.0, "fusion_lon": 0.0, "rental_uris": {"android": "https://dc.lft.to/lastmile_qr_scan", "ios": "https://dc.lft.to/lastmile_qr_scan"}, "is_reserved": 0, "is_disabled": 0, "type": "electric_scooter", "bike_id": "c2debfdefd365f2b66ba076a6f6a0cab"}, {"lon": -77.02718966666667, "lat": 38.909555166666664, "name": "3c1ab2de237f7f0d5fc8ac7de68f8dbe", "fusion_lat": 0.0, "fusion_lon": 0.0, "rental_uris": {"android": "https://dc.lft.to/lastmile_qr_scan", "ios": "https://dc.lft.to/lastmile_qr_scan"}, "is_reserved": 0, "is_disabled": 0, "type": "electric_scooter", "bike_id": "3c1ab2de237f7f0d5fc8ac7de68f8dbe"}, {"lon": -77.0330645, "lat": 38.901508166666666, "name": "73025028678ae4ee5bf07048597e69a2", "fusion_lat": 0.0, "fusion_lon": 0.0, "rental_uris": {"android": "https://dc.lft.to/lastmile_qr_scan", "ios": "https://dc.lft.to/lastmile_qr_scan"}, "is_reserved": 0, "is_disabled": 0, "type": "electric_scooter", "bike_id": "73025028678ae4ee5bf07048597e69a2"}, {"lon": -77.03263083333333, "lat": 38.93214666666667, "name": "80c6869e05d67b5e838a171ed52b69a6", "fusion_lat": 0.0, "fusion_lon": 0.0, "rental_uris": {"android": "https://dc.lft.to/lastmile_qr_scan", "ios": "https://dc.lft.to/lastmile_qr_scan"}, "is_reserved": 0, "is_disabled": 0, "type": "electric_scooter", "bike_id": "80c6869e05d67b5e838a171ed52b69a6"}, {"lon": -77.04870983333333, "lat": 38.89227016666667, "name": "693eaf8766cc35c683e0bacb302db25e", "fusion_lat": 0.0, "fusion_lon": 0.0, "rental_uris": {"android": "https://dc.lft.to/lastmile_qr_scan", "ios": "https://dc.lft.to/lastmile_qr_scan"}, "is_reserved": 0, "is_disabled": 0, "type": "electric_scooter", "bike_id": "693eaf8766cc35c683e0bacb302db25e"}, {"lon": -77.10711816666667, "lat": 38.85560233333333, "name": "2767c5808975089d88beef88c7462176", "fusion_lat": 0.0, "fusion_lon": 0.0, "rental_uris": {"android": "https://dc.lft.to/lastmile_qr_scan", "ios": "https://dc.lft.to/lastmile_qr_scan"}, "is_reserved": 0, "is_disabled": 0, "type": "electric_bike", "bike_id": "2767c5808975089d88beef88c7462176"}, {"lon": -77.0691055, "lat": 38.90752716666667, "name": "553d3790251337c02468768e6549856f", "fusion_lat": 0.0, "fusion_lon": 0.0, "rental_uris": {"android": "https://dc.lft.to/lastmile_qr_scan", "ios": "https://dc.lft.to/lastmile_qr_scan"}, "is_reserved": 0, "is_disabled": 0, "type": "electric_scooter", "bike_id": "553d3790251337c02468768e6549856f"}, {"lon": -77.04347533333333, "lat": 38.903795333333335, "name": "d1873f449d612ca8df907df3812c080e", "fusion_lat": 0.0, "fusion_lon": 0.0, "rental_uris": {"android": "https://dc.lft.to/lastmile_qr_scan", "ios": "https://dc.lft.to/lastmile_qr_scan"}, "is_reserved": 0, "is_disabled": 0, "type": "electric_scooter", "bike_id": "d1873f449d612ca8df907df3812c080e"}, {"lon": -76.98741483333333, "lat": 38.857933833333334, "name": "99145e50c2fba32eee566d66d3fbc287", "fusion_lat": 0.0, "fusion_lon": 0.0, "rental_uris": {"android": "https://dc.lft.to/lastmile_qr_scan", "ios": "https://dc.lft.to/lastmile_qr_scan"}, "is_reserved": 0, "is_disabled": 0, "type": "electric_bike", "bike_id": "99145e50c2fba32eee566d66d3fbc287"}, {"lon": -77.05327333333334, "lat": 38.90503283333334, "name": "5d74eb79784c7150023fba101e34d50e", "fusion_lat": 0.0, "fusion_lon": 0.0, "rental_uris": {"android": "https://dc.lft.to/lastmile_qr_scan", "ios": "https://dc.lft.to/lastmile_qr_scan"}, "is_reserved": 0, "is_disabled": 0, "type": "electric_scooter", "bike_id": "5d74eb79784c7150023fba101e34d50e"}, {"lon": -77.03175066666667, "lat": 38.919275666666664, "name": "d04f1731ee48a535cae033215603e412", "fusion_lat": 0.0, "fusion_lon": 0.0, "rental_uris": {"android": "https://dc.lft.to/lastmile_qr_scan", "ios": "https://dc.lft.to/lastmile_qr_scan"}, "is_reserved": 0, "is_disabled": 0, "type": "electric_scooter", "bike_id": "d04f1731ee48a535cae033215603e412"}, {"lon": -76.98395833333333, "lat": 38.92199133333333, "name": "516995dc1918969d48ce856f0f4644fc", "fusion_lat": 0.0, "fusion_lon": 0.0, "rental_uris": {"android": "https://dc.lft.to/lastmile_qr_scan", "ios": "https://dc.lft.to/lastmile_qr_scan"}, "is_reserved": 0, "is_disabled": 0, "type": "electric_bike", "bike_id": "516995dc1918969d48ce856f0f4644fc"}, {"lon": -77.12627033333334, "lat": 39.058122833333336, "name": "3b50c6c639dc5fbc0f5b02d56231ddc2", "fusion_lat": 0.0, "fusion_lon": 0.0, "rental_uris": {"android": "https://dc.lft.to/lastmile_qr_scan", "ios": "https://dc.lft.to/lastmile_qr_scan"}, "is_reserved": 0, "is_disabled": 0, "type": "electric_bike", "bike_id": "3b50c6c639dc5fbc0f5b02d56231ddc2"}, {"lon": -77.0321995, "lat": 38.892225333333336, "name": "f8ff6a674291fd922a520d41020cfa84", "fusion_lat": 0.0, "fusion_lon": 0.0, "rental_uris": {"android": "https://dc.lft.to/lastmile_qr_scan", "ios": "https://dc.lft.to/lastmile_qr_scan"}, "is_reserved": 0, "is_disabled": 0, "type": "electric_scooter", "bike_id": "f8ff6a674291fd922a520d41020cfa84"}, {"lon": -77.03285316666667, "lat": 38.8988835, "name": "b3c20ab4f31d1fa65d4c377b3ab754b0", "fusion_lat": 0.0, "fusion_lon": 0.0, "rental_uris": {"android": "https://dc.lft.to/lastmile_qr_scan", "ios": "https://dc.lft.to/lastmile_qr_scan"}, "is_reserved": 0, "is_disabled": 0, "type": "electric_scooter", "bike_id": "b3c20ab4f31d1fa65d4c377b3ab754b0"}, {"lon": -76.99828816666667, "lat": 38.8442105, "name": "19c7b2dfcff87c057264b02b51b029fc", "fusion_lat": 0.0, "fusion_lon": 0.0, "rental_uris": {"android": "https://dc.lft.to/lastmile_qr_scan", "ios": "https://dc.lft.to/lastmile_qr_scan"}, "is_reserved": 0, "is_disabled": 0, "type": "electric_scooter", "bike_id": "19c7b2dfcff87c057264b02b51b029fc"}, {"lon": -77.03648683333333, "lat": 38.95591683333333, "name": "bc25224bf128fd97288f5efc0b33184e", "fusion_lat": 0.0, "fusion_lon": 0.0, "rental_uris": {"android": "https://dc.lft.to/lastmile_qr_scan", "ios": "https://dc.lft.to/lastmile_qr_scan"}, "is_reserved": 0, "is_disabled": 0, "type": "electric_scooter", "bike_id": "bc25224bf128fd97288f5efc0b33184e"}, {"lon": -77.03173583333333, "lat": 38.91652766666667, "name": "3149945712f02a2e14fb58ca8bf876da", "fusion_lat": 0.0, "fusion_lon": 0.0, "rental_uris": {"android": "https://dc.lft.to/lastmile_qr_scan", "ios": "https://dc.lft.to/lastmile_qr_scan"}, "is_reserved": 0, "is_disabled": 0, "type": "electric_scooter", "bike_id": "3149945712f02a2e14fb58ca8bf876da"}, {"lon": -77.0295915, "lat": 38.89232, "name": "0b6fc5641115d6f64bc5d37b54163d84", "fusion_lat": 0.0, "fusion_lon": 0.0, "rental_uris": {"android": "https://dc.lft.to/lastmile_qr_scan", "ios": "https://dc.lft.to/lastmile_qr_scan"}, "is_reserved": 0, "is_disabled": 0, "type": "electric_scooter", "bike_id": "0b6fc5641115d6f64bc5d37b54163d84"}, {"lon": -77.0228005, "lat": 38.902286833333335, "name": "04731ed684cdad90576a76120be132ec", "fusion_lat": 0.0, "fusion_lon": 0.0, "rental_uris": {"android": "https://dc.lft.to/lastmile_qr_scan", "ios": "https://dc.lft.to/lastmile_qr_scan"}, "is_reserved": 0, "is_disabled": 0, "type": "electric_scooter", "bike_id": "04731ed684cdad90576a76120be132ec"}, {"lon": -77.03146666666666, "lat": 38.91033016666667, "name": "af7432fca89b8d5b4f3fb188004d7127", "fusion_lat": 0.0, "fusion_lon": 0.0, "rental_uris": {"android": "https://dc.lft.to/lastmile_qr_scan", "ios": "https://dc.lft.to/lastmile_qr_scan"}, "is_reserved": 0, "is_disabled": 0, "type": "electric_scooter", "bike_id": "af7432fca89b8d5b4f3fb188004d7127"}, {"lon": -77.02389116666667, "lat": 38.927985, "name": "709ffb5cf704cd8c0bbb08ad72878a43", "fusion_lat": 0.0, "fusion_lon": 0.0, "rental_uris": {"android": "https://dc.lft.to/lastmile_qr_scan", "ios": "https://dc.lft.to/lastmile_qr_scan"}, "is_reserved": 0, "is_disabled": 0, "type": "electric_scooter", "bike_id": "709ffb5cf704cd8c0bbb08ad72878a43"}, {"lon": -77.0463195, "lat": 38.9191745, "name": "bed2215f87b66ae4ebdddec3cc78c6e2", "fusion_lat": 0.0, "fusion_lon": 0.0, "rental_uris": {"android": "https://dc.lft.to/lastmile_qr_scan", "ios": "https://dc.lft.to/lastmile_qr_scan"}, "is_reserved": 0, "is_disabled": 0, "type": "electric_scooter", "bike_id": "bed2215f87b66ae4ebdddec3cc78c6e2"}, {"lon": -77.06987583333333, "lat": 38.94692333333333, "name": "1acbcb87844bed2f68edeac1bbc2caeb", "fusion_lat": 0.0, "fusion_lon": 0.0, "rental_uris": {"android": "https://dc.lft.to/lastmile_qr_scan", "ios": "https://dc.lft.to/lastmile_qr_scan"}, "is_reserved": 0, "is_disabled": 0, "type": "electric_scooter", "bike_id": "1acbcb87844bed2f68edeac1bbc2caeb"}, {"lon": -76.994144, "lat": 38.910030666666664, "name": "0cdf1c642737620c99c0cbd9d6382b99", "fusion_lat": 0.0, "fusion_lon": 0.0, "rental_uris": {"android": "https://dc.lft.to/lastmile_qr_scan", "ios": "https://dc.lft.to/lastmile_qr_scan"}, "is_reserved": 0, "is_disabled": 0, "type": "electric_scooter", "bike_id": "0cdf1c642737620c99c0cbd9d6382b99"}, {"lon": -77.04999683333334, "lat": 38.8923355, "name": "86f67f1f2e43e0ae42e3f69851a3b309", "fusion_lat": 0.0, "fusion_lon": 0.0, "rental_uris": {"android": "https://dc.lft.to/lastmile_qr_scan", "ios": "https://dc.lft.to/lastmile_qr_scan"}, "is_reserved": 0, "is_disabled": 0, "type": "electric_scooter", "bike_id": "86f67f1f2e43e0ae42e3f69851a3b309"}, {"lon": -77.05269033333333, "lat": 38.92568983333334, "name": "337572f1be1a6baf90c203f82c993a35", "fusion_lat": 0.0, "fusion_lon": 0.0, "rental_uris": {"android": "https://dc.lft.to/lastmile_qr_scan", "ios": "https://dc.lft.to/lastmile_qr_scan"}, "is_reserved": 0, "is_disabled": 0, "type": "electric_scooter", "bike_id": "337572f1be1a6baf90c203f82c993a35"}, {"lon": -76.98903533333333, "lat": 38.866991666666664, "name": "43790aaa8fac2990956f2aa9bcef39e7", "fusion_lat": 0.0, "fusion_lon": 0.0, "rental_uris": {"android": "https://dc.lft.to/lastmile_qr_scan", "ios": "https://dc.lft.to/lastmile_qr_scan"}, "is_reserved": 0, "is_disabled": 0, "type": "electric_scooter", "bike_id": "43790aaa8fac2990956f2aa9bcef39e7"}, {"lon": -76.98065666666666, "lat": 38.88021833333333, "name": "93ea016ce494524853435fef6367d477", "fusion_lat": 0.0, "fusion_lon": 0.0, "rental_uris": {"android": "https://dc.lft.to/lastmile_qr_scan", "ios": "https://dc.lft.to/lastmile_qr_scan"}, "is_reserved": 0, "is_disabled": 0, "type": "electric_scooter", "bike_id": "93ea016ce494524853435fef6367d477"}, {"lon": -77.1273895, "lat": 38.89569, "name": "a87d686fc1ced5808fbbd2f053c74aa0", "fusion_lat": 0.0, "fusion_lon": 0.0, "rental_uris": {"android": "https://dc.lft.to/lastmile_qr_scan", "ios": "https://dc.lft.to/lastmile_qr_scan"}, "is_reserved": 0, "is_disabled": 0, "type": "electric_bike", "bike_id": "a87d686fc1ced5808fbbd2f053c74aa0"}, {"lon": -76.9773095, "lat": 38.895194333333336, "name": "ffad046d8ff52cd9bbd2ee7eeffc185a", "fusion_lat": 0.0, "fusion_lon": 0.0, "rental_uris": {"android": "https://dc.lft.to/lastmile_qr_scan", "ios": "https://dc.lft.to/lastmile_qr_scan"}, "is_reserved": 0, "is_disabled": 0, "type": "electric_scooter", "bike_id": "ffad046d8ff52cd9bbd2ee7eeffc185a"}, {"lon": -76.99632333333334, "lat": 38.84624916666667, "name": "f7f0726b981e5be793d774ee3e1d715b", "fusion_lat": 0.0, "fusion_lon": 0.0, "rental_uris": {"android": "https://dc.lft.to/lastmile_qr_scan", "ios": "https://dc.lft.to/lastmile_qr_scan"}, "is_reserved": 0, "is_disabled": 0, "type": "electric_scooter", "bike_id": "f7f0726b981e5be793d774ee3e1d715b"}, {"lon": -77.028015, "lat": 38.93062583333333, "name": "4340a1928893d666262bd2b83f944bcd", "fusion_lat": 0.0, "fusion_lon": 0.0, "rental_uris": {"android": "https://dc.lft.to/lastmile_qr_scan", "ios": "https://dc.lft.to/lastmile_qr_scan"}, "is_reserved": 0, "is_disabled": 0, "type": "electric_scooter", "bike_id": "4340a1928893d666262bd2b83f944bcd"}, {"lon": -77.02695716666666, "lat": 38.9094485, "name": "6ae797b089cfe955ad8d2499d8532fc4", "fusion_lat": 0.0, "fusion_lon": 0.0, "rental_uris": {"android": "https://dc.lft.to/lastmile_qr_scan", "ios": "https://dc.lft.to/lastmile_qr_scan"}, "is_reserved": 0, "is_disabled": 0, "type": "electric_scooter", "bike_id": "6ae797b089cfe955ad8d2499d8532fc4"}, {"lon": -77.04149, "lat": 38.9156885, "name": "4340676223adf6b65e289a44c2f8fc0b", "fusion_lat": 0.0, "fusion_lon": 0.0, "rental_uris": {"android": "https://dc.lft.to/lastmile_qr_scan", "ios": "https://dc.lft.to/lastmile_qr_scan"}, "is_reserved": 0, "is_disabled": 0, "type": "electric_scooter", "bike_id": "4340676223adf6b65e289a44c2f8fc0b"}, {"lon": -76.92713866666666, "lat": 38.887727, "name": "20a4f3dc884a1978faa0d7232223520d", "fusion_lat": 0.0, "fusion_lon": 0.0, "rental_uris": {"android": "https://dc.lft.to/lastmile_qr_scan", "ios": "https://dc.lft.to/lastmile_qr_scan"}, "is_reserved": 0, "is_disabled": 0, "type": "electric_scooter", "bike_id": "20a4f3dc884a1978faa0d7232223520d"}, {"lon": -77.04672533333333, "lat": 38.905661333333335, "name": "218b21faf4c28d65aeb67413015ff620", "fusion_lat": 0.0, "fusion_lon": 0.0, "rental_uris": {"android": "https://dc.lft.to/lastmile_qr_scan", "ios": "https://dc.lft.to/lastmile_qr_scan"}, "is_reserved": 0, "is_disabled": 0, "type": "electric_bike", "bike_id": "218b21faf4c28d65aeb67413015ff620"}, {"lon": -76.9771005, "lat": 38.898890333333334, "name": "491cf52613ddf0d96795483214a5735f", "fusion_lat": 0.0, "fusion_lon": 0.0, "rental_uris": {"android": "https://dc.lft.to/lastmile_qr_scan", "ios": "https://dc.lft.to/lastmile_qr_scan"}, "is_reserved": 0, "is_disabled": 0, "type": "electric_scooter", "bike_id": "491cf52613ddf0d96795483214a5735f"}, {"lon": -77.018252, "lat": 38.91980133333333, "name": "a079af137096f092a5a850bb7dc61b15", "fusion_lat": 0.0, "fusion_lon": 0.0, "rental_uris": {"android": "https://dc.lft.to/lastmile_qr_scan", "ios": "https://dc.lft.to/lastmile_qr_scan"}, "is_reserved": 0, "is_disabled": 0, "type": "electric_scooter", "bike_id": "a079af137096f092a5a850bb7dc61b15"}, {"lon": -77.02684933333333, "lat": 38.90244766666667, "name": "1c041833a6020a892432ae27304fc74e", "fusion_lat": 0.0, "fusion_lon": 0.0, "rental_uris": {"android": "https://dc.lft.to/lastmile_qr_scan", "ios": "https://dc.lft.to/lastmile_qr_scan"}, "is_reserved": 0, "is_disabled": 0, "type": "electric_scooter", "bike_id": "1c041833a6020a892432ae27304fc74e"}, {"lon": -77.03640366666667, "lat": 38.924251, "name": "b8d050621100c14b1ad2251c0e8af8be", "fusion_lat": 0.0, "fusion_lon": 0.0, "rental_uris": {"android": "https://dc.lft.to/lastmile_qr_scan", "ios": "https://dc.lft.to/lastmile_qr_scan"}, "is_reserved": 0, "is_disabled": 0, "type": "electric_scooter", "bike_id": "b8d050621100c14b1ad2251c0e8af8be"}, {"lon": -77.06415983333333, "lat": 38.9060125, "name": "0f112f19687fefbb042aed3b2f62e2e4", "fusion_lat": 0.0, "fusion_lon": 0.0, "rental_uris": {"android": "https://dc.lft.to/lastmile_qr_scan", "ios": "https://dc.lft.to/lastmile_qr_scan"}, "is_reserved": 0, "is_disabled": 0, "type": "electric_bike", "bike_id": "0f112f19687fefbb042aed3b2f62e2e4"}, {"lon": -76.9721645, "lat": 38.8448535, "name": "594890820c4337b77e5d58548583d281", "fusion_lat": 0.0, "fusion_lon": 0.0, "rental_uris": {"android": "https://dc.lft.to/lastmile_qr_scan", "ios": "https://dc.lft.to/lastmile_qr_scan"}, "is_reserved": 0, "is_disabled": 0, "type": "electric_bike", "bike_id": "594890820c4337b77e5d58548583d281"}, {"lon": -77.00731083333334, "lat": 38.959739166666665, "name": "688c92db7499d8ff90846c4425b41d01", "fusion_lat": 0.0, "fusion_lon": 0.0, "rental_uris": {"android": "https://dc.lft.to/lastmile_qr_scan", "ios": "https://dc.lft.to/lastmile_qr_scan"}, "is_reserved": 0, "is_disabled": 0, "type": "electric_scooter", "bike_id": "688c92db7499d8ff90846c4425b41d01"}, {"lon": -77.067728, "lat": 38.949731, "name": "dfd2b11e5c93f30c50809f7452167194", "fusion_lat": 0.0, "fusion_lon": 0.0, "rental_uris": {"android": "https://dc.lft.to/lastmile_qr_scan", "ios": "https://dc.lft.to/lastmile_qr_scan"}, "is_reserved": 0, "is_disabled": 0, "type": "electric_scooter", "bike_id": "dfd2b11e5c93f30c50809f7452167194"}, {"lon": -77.001916, "lat": 38.90039633333333, "name": "0e1decc7928a23be3c4c74ad8cb84245", "fusion_lat": 0.0, "fusion_lon": 0.0, "rental_uris": {"android": "https://dc.lft.to/lastmile_qr_scan", "ios": "https://dc.lft.to/lastmile_qr_scan"}, "is_reserved": 0, "is_disabled": 0, "type": "electric_scooter", "bike_id": "0e1decc7928a23be3c4c74ad8cb84245"}, {"lon": -77.11220183333333, "lat": 38.8287405, "name": "27e687b3f736b41b5c68e9a469f43dfb", "fusion_lat": 0.0, "fusion_lon": 0.0, "rental_uris": {"android": "https://dc.lft.to/lastmile_qr_scan", "ios": "https://dc.lft.to/lastmile_qr_scan"}, "is_reserved": 0, "is_disabled": 0, "type": "electric_bike", "bike_id": "27e687b3f736b41b5c68e9a469f43dfb"}, {"lon": -77.02653966666666, "lat": 38.9072135, "name": "ad4c6abbf29f781ffc008e2534f9877e", "fusion_lat": 0.0, "fusion_lon": 0.0, "rental_uris": {"android": "https://dc.lft.to/lastmile_qr_scan", "ios": "https://dc.lft.to/lastmile_qr_scan"}, "is_reserved": 0, "is_disabled": 0, "type": "electric_scooter", "bike_id": "ad4c6abbf29f781ffc008e2534f9877e"}, {"lon": -77.03133783333334, "lat": 38.91560466666667, "name": "fc37da5ffb1d1a7c0fe62ba5f6e8c3f5", "fusion_lat": 0.0, "fusion_lon": 0.0, "rental_uris": {"android": "https://dc.lft.to/lastmile_qr_scan", "ios": "https://dc.lft.to/lastmile_qr_scan"}, "is_reserved": 0, "is_disabled": 0, "type": "electric_scooter", "bike_id": "fc37da5ffb1d1a7c0fe62ba5f6e8c3f5"}, {"lon": -76.93158683333333, "lat": 38.898803, "name": "f0715513f211e4a6b262fecfac855258", "fusion_lat": 0.0, "fusion_lon": 0.0, "rental_uris": {"android": "https://dc.lft.to/lastmile_qr_scan", "ios": "https://dc.lft.to/lastmile_qr_scan"}, "is_reserved": 0, "is_disabled": 0, "type": "electric_scooter", "bike_id": "f0715513f211e4a6b262fecfac855258"}, {"lon": -76.8749555, "lat": 38.990914833333335, "name": "a113942bcabe4feb83271fc53c84e8cf", "fusion_lat": 0.0, "fusion_lon": 0.0, "rental_uris": {"android": "https://dc.lft.to/lastmile_qr_scan", "ios": "https://dc.lft.to/lastmile_qr_scan"}, "is_reserved": 0, "is_disabled": 0, "type": "electric_bike", "bike_id": "a113942bcabe4feb83271fc53c84e8cf"}, {"lon": -77.05589666666667, "lat": 38.9277565, "name": "c4a160a43065e665dde95148380ba09d", "fusion_lat": 0.0, "fusion_lon": 0.0, "rental_uris": {"android": "https://dc.lft.to/lastmile_qr_scan", "ios": "https://dc.lft.to/lastmile_qr_scan"}, "is_reserved": 0, "is_disabled": 0, "type": "electric_scooter", "bike_id": "c4a160a43065e665dde95148380ba09d"}, {"lon": -77.04520666666667, "lat": 38.9097425, "name": "24013452028323c3987dd36f02f198b0", "fusion_lat": 0.0, "fusion_lon": 0.0, "rental_uris": {"android": "https://dc.lft.to/lastmile_qr_scan", "ios": "https://dc.lft.to/lastmile_qr_scan"}, "is_reserved": 0, "is_disabled": 0, "type": "electric_scooter", "bike_id": "24013452028323c3987dd36f02f198b0"}, {"lon": -77.03071966666667, "lat": 38.922456, "name": "ce4cbcef196333afebf8783aeaa8bd4e", "fusion_lat": 0.0, "fusion_lon": 0.0, "rental_uris": {"android": "https://dc.lft.to/lastmile_qr_scan", "ios": "https://dc.lft.to/lastmile_qr_scan"}, "is_reserved": 0, "is_disabled": 0, "type": "electric_scooter", "bike_id": "ce4cbcef196333afebf8783aeaa8bd4e"}, {"lon": -77.0329405, "lat": 38.92881966666667, "name": "f628246ccc0f008f65e9c59535815324", "fusion_lat": 0.0, "fusion_lon": 0.0, "rental_uris": {"android": "https://dc.lft.to/lastmile_qr_scan", "ios": "https://dc.lft.to/lastmile_qr_scan"}, "is_reserved": 0, "is_disabled": 0, "type": "electric_scooter", "bike_id": "f628246ccc0f008f65e9c59535815324"}, {"lon": -76.958198, "lat": 38.890552166666666, "name": "050d03927db1355b9475ba8f9aff90a1", "fusion_lat": 0.0, "fusion_lon": 0.0, "rental_uris": {"android": "https://dc.lft.to/lastmile_qr_scan", "ios": "https://dc.lft.to/lastmile_qr_scan"}, "is_reserved": 0, "is_disabled": 0, "type": "electric_scooter", "bike_id": "050d03927db1355b9475ba8f9aff90a1"}, {"lon": -77.0952775, "lat": 38.838156, "name": "e041e7f81b7b32a5cba426ec840516ca", "fusion_lat": 0.0, "fusion_lon": 0.0, "rental_uris": {"android": "https://dc.lft.to/lastmile_qr_scan", "ios": "https://dc.lft.to/lastmile_qr_scan"}, "is_reserved": 0, "is_disabled": 0, "type": "electric_bike", "bike_id": "e041e7f81b7b32a5cba426ec840516ca"}, {"lon": -77.05239616666667, "lat": 38.924657333333336, "name": "567246233ba7b08fb80dacb5ba229f88", "fusion_lat": 0.0, "fusion_lon": 0.0, "rental_uris": {"android": "https://dc.lft.to/lastmile_qr_scan", "ios": "https://dc.lft.to/lastmile_qr_scan"}, "is_reserved": 0, "is_disabled": 0, "type": "electric_scooter", "bike_id": "567246233ba7b08fb80dacb5ba229f88"}, {"lon": -77.04378466666667, "lat": 38.8923035, "name": "e502e23947df4bbad66dc116b26f65b7", "fusion_lat": 0.0, "fusion_lon": 0.0, "rental_uris": {"android": "https://dc.lft.to/lastmile_qr_scan", "ios": "https://dc.lft.to/lastmile_qr_scan"}, "is_reserved": 0, "is_disabled": 0, "type": "electric_scooter", "bike_id": "e502e23947df4bbad66dc116b26f65b7"}, {"lon": -77.03344716666666, "lat": 38.885053666666664, "name": "c1aa2a2a4560116ebd3249779b758d54", "fusion_lat": 0.0, "fusion_lon": 0.0, "rental_uris": {"android": "https://dc.lft.to/lastmile_qr_scan", "ios": "https://dc.lft.to/lastmile_qr_scan"}, "is_reserved": 0, "is_disabled": 0, "type": "electric_scooter", "bike_id": "c1aa2a2a4560116ebd3249779b758d54"}, {"lon": -77.038415, "lat": 38.910875833333336, "name": "92113b0cc3cc8f8306a83bd543680504", "fusion_lat": 0.0, "fusion_lon": 0.0, "rental_uris": {"android": "https://dc.lft.to/lastmile_qr_scan", "ios": "https://dc.lft.to/lastmile_qr_scan"}, "is_reserved": 0, "is_disabled": 0, "type": "electric_scooter", "bike_id": "92113b0cc3cc8f8306a83bd543680504"}, {"lon": -77.0382605, "lat": 38.920595166666665, "name": "79475545c9d59e69c4ee1cf8435e3624", "fusion_lat": 0.0, "fusion_lon": 0.0, "rental_uris": {"android": "https://dc.lft.to/lastmile_qr_scan", "ios": "https://dc.lft.to/lastmile_qr_scan"}, "is_reserved": 0, "is_disabled": 0, "type": "electric_scooter", "bike_id": "79475545c9d59e69c4ee1cf8435e3624"}, {"lon": -77.17840066666666, "lat": 39.08859483333333, "name": "53b60cf6e7e937a7b30249700515dab1", "fusion_lat": 0.0, "fusion_lon": 0.0, "rental_uris": {"android": "https://dc.lft.to/lastmile_qr_scan", "ios": "https://dc.lft.to/lastmile_qr_scan"}, "is_reserved": 0, "is_disabled": 0, "type": "electric_bike", "bike_id": "53b60cf6e7e937a7b30249700515dab1"}, {"lon": -76.98903083333333, "lat": 38.86695916666667, "name": "bebd546d4b3f21f69503acfed77e91d9", "fusion_lat": 0.0, "fusion_lon": 0.0, "rental_uris": {"android": "https://dc.lft.to/lastmile_qr_scan", "ios": "https://dc.lft.to/lastmile_qr_scan"}, "is_reserved": 0, "is_disabled": 0, "type": "electric_scooter", "bike_id": "bebd546d4b3f21f69503acfed77e91d9"}, {"lon": -77.002055, "lat": 38.900742, "name": "7ad2bb60e3facc423b5d031d53c3748d", "fusion_lat": 0.0, "fusion_lon": 0.0, "rental_uris": {"android": "https://dc.lft.to/lastmile_qr_scan", "ios": "https://dc.lft.to/lastmile_qr_scan"}, "is_reserved": 0, "is_disabled": 0, "type": "electric_scooter", "bike_id": "7ad2bb60e3facc423b5d031d53c3748d"}, {"lon": -77.021535, "lat": 38.89224766666667, "name": "cc3877797c74e87a152ef93e44831dbb", "fusion_lat": 0.0, "fusion_lon": 0.0, "rental_uris": {"android": "https://dc.lft.to/lastmile_qr_scan", "ios": "https://dc.lft.to/lastmile_qr_scan"}, "is_reserved": 0, "is_disabled": 0, "type": "electric_scooter", "bike_id": "cc3877797c74e87a152ef93e44831dbb"}, {"lon": -77.02706033333334, "lat": 38.950028333333336, "name": "c1b5f65b276eb0b94547c69f74552fe7", "fusion_lat": 0.0, "fusion_lon": 0.0, "rental_uris": {"android": "https://dc.lft.to/lastmile_qr_scan", "ios": "https://dc.lft.to/lastmile_qr_scan"}, "is_reserved": 0, "is_disabled": 0, "type": "electric_scooter", "bike_id": "c1b5f65b276eb0b94547c69f74552fe7"}, {"lon": -77.08198733333333, "lat": 38.9354765, "name": "dedf54051e64b6f472a10944f2da8d58", "fusion_lat": 0.0, "fusion_lon": 0.0, "rental_uris": {"android": "https://dc.lft.to/lastmile_qr_scan", "ios": "https://dc.lft.to/lastmile_qr_scan"}, "is_reserved": 0, "is_disabled": 0, "type": "electric_scooter", "bike_id": "dedf54051e64b6f472a10944f2da8d58"}, {"lon": -77.04303983333334, "lat": 39.05457766666667, "name": "001ecc8d56cd6d1d208530173dcb92b3", "fusion_lat": 0.0, "fusion_lon": 0.0, "rental_uris": {"android": "https://dc.lft.to/lastmile_qr_scan", "ios": "https://dc.lft.to/lastmile_qr_scan"}, "is_reserved": 0, "is_disabled": 0, "type": "electric_bike", "bike_id": "001ecc8d56cd6d1d208530173dcb92b3"}, {"lon": -77.04402066666667, "lat": 38.92244616666667, "name": "44b271d2228e6e0ed41bafce44b63a2e", "fusion_lat": 0.0, "fusion_lon": 0.0, "rental_uris": {"android": "https://dc.lft.to/lastmile_qr_scan", "ios": "https://dc.lft.to/lastmile_qr_scan"}, "is_reserved": 0, "is_disabled": 0, "type": "electric_scooter", "bike_id": "44b271d2228e6e0ed41bafce44b63a2e"}, {"lon": -76.9803845, "lat": 38.889717833333336, "name": "053691d80f020432f136122a07a899e7", "fusion_lat": 0.0, "fusion_lon": 0.0, "rental_uris": {"android": "https://dc.lft.to/lastmile_qr_scan", "ios": "https://dc.lft.to/lastmile_qr_scan"}, "is_reserved": 0, "is_disabled": 0, "type": "electric_scooter", "bike_id": "053691d80f020432f136122a07a899e7"}, {"lon": -76.98347416666667, "lat": 38.91531033333333, "name": "1cca8905ecb8a9548f3799cd493d1b36", "fusion_lat": 0.0, "fusion_lon": 0.0, "rental_uris": {"android": "https://dc.lft.to/lastmile_qr_scan", "ios": "https://dc.lft.to/lastmile_qr_scan"}, "is_reserved": 0, "is_disabled": 0, "type": "electric_scooter", "bike_id": "1cca8905ecb8a9548f3799cd493d1b36"}, {"lon": -77.02118533333334, "lat": 38.923971333333334, "name": "adb220adaf7698fec9a3c47ff07e0196", "fusion_lat": 0.0, "fusion_lon": 0.0, "rental_uris": {"android": "https://dc.lft.to/lastmile_qr_scan", "ios": "https://dc.lft.to/lastmile_qr_scan"}, "is_reserved": 0, "is_disabled": 0, "type": "electric_scooter", "bike_id": "adb220adaf7698fec9a3c47ff07e0196"}, {"lon": -77.05153333333334, "lat": 38.906474, "name": "9c287c708b4c988a953ff328cd3d7641", "fusion_lat": 0.0, "fusion_lon": 0.0, "rental_uris": {"android": "https://dc.lft.to/lastmile_qr_scan", "ios": "https://dc.lft.to/lastmile_qr_scan"}, "is_reserved": 0, "is_disabled": 0, "type": "electric_scooter", "bike_id": "9c287c708b4c988a953ff328cd3d7641"}, {"lon": -77.00312233333334, "lat": 38.909006833333336, "name": "839cd7208ca2913e7c36909434b38319", "fusion_lat": 0.0, "fusion_lon": 0.0, "rental_uris": {"android": "https://dc.lft.to/lastmile_qr_scan", "ios": "https://dc.lft.to/lastmile_qr_scan"}, "is_reserved": 0, "is_disabled": 0, "type": "electric_scooter", "bike_id": "839cd7208ca2913e7c36909434b38319"}, {"lon": -77.02214683333334, "lat": 38.90342166666667, "name": "a501a38cc7577d5613c8702b533bed79", "fusion_lat": 0.0, "fusion_lon": 0.0, "rental_uris": {"android": "https://dc.lft.to/lastmile_qr_scan", "ios": "https://dc.lft.to/lastmile_qr_scan"}, "is_reserved": 0, "is_disabled": 0, "type": "electric_scooter", "bike_id": "a501a38cc7577d5613c8702b533bed79"}, {"lon": -77.02404233333333, "lat": 38.919347333333334, "name": "b12ce5c8eaa92767cde62a8719ba5c4e", "fusion_lat": 0.0, "fusion_lon": 0.0, "rental_uris": {"android": "https://dc.lft.to/lastmile_qr_scan", "ios": "https://dc.lft.to/lastmile_qr_scan"}, "is_reserved": 0, "is_disabled": 0, "type": "electric_scooter", "bike_id": "b12ce5c8eaa92767cde62a8719ba5c4e"}, {"lon": -76.93346016666666, "lat": 38.89899883333333, "name": "843bbf387171d59304e23392fd400c73", "fusion_lat": 0.0, "fusion_lon": 0.0, "rental_uris": {"android": "https://dc.lft.to/lastmile_qr_scan", "ios": "https://dc.lft.to/lastmile_qr_scan"}, "is_reserved": 0, "is_disabled": 0, "type": "electric_scooter", "bike_id": "843bbf387171d59304e23392fd400c73"}, {"lon": -77.06040233333333, "lat": 38.9393895, "name": "46cd0c041bef64d18d41f4595e21b963", "fusion_lat": 0.0, "fusion_lon": 0.0, "rental_uris": {"android": "https://dc.lft.to/lastmile_qr_scan", "ios": "https://dc.lft.to/lastmile_qr_scan"}, "is_reserved": 0, "is_disabled": 0, "type": "electric_scooter", "bike_id": "46cd0c041bef64d18d41f4595e21b963"}, {"lon": -77.02179733333334, "lat": 38.90975566666667, "name": "0b664c31bab2de674968895bd683d85f", "fusion_lat": 0.0, "fusion_lon": 0.0, "rental_uris": {"android": "https://dc.lft.to/lastmile_qr_scan", "ios": "https://dc.lft.to/lastmile_qr_scan"}, "is_reserved": 0, "is_disabled": 0, "type": "electric_scooter", "bike_id": "0b664c31bab2de674968895bd683d85f"}, {"lon": -77.0282245, "lat": 38.89223, "name": "332d6651190ee8423f963d56c641c30b", "fusion_lat": 0.0, "fusion_lon": 0.0, "rental_uris": {"android": "https://dc.lft.to/lastmile_qr_scan", "ios": "https://dc.lft.to/lastmile_qr_scan"}, "is_reserved": 0, "is_disabled": 0, "type": "electric_scooter", "bike_id": "332d6651190ee8423f963d56c641c30b"}, {"lon": -77.00209083333333, "lat": 38.902228, "name": "3f760eda756ae20d45ed75887531ab25", "fusion_lat": 0.0, "fusion_lon": 0.0, "rental_uris": {"android": "https://dc.lft.to/lastmile_qr_scan", "ios": "https://dc.lft.to/lastmile_qr_scan"}, "is_reserved": 0, "is_disabled": 0, "type": "electric_scooter", "bike_id": "3f760eda756ae20d45ed75887531ab25"}, {"lon": -77.028205, "lat": 38.928736666666666, "name": "c2ec10e34b7c9b0bbfe2393223805b67", "fusion_lat": 0.0, "fusion_lon": 0.0, "rental_uris": {"android": "https://dc.lft.to/lastmile_qr_scan", "ios": "https://dc.lft.to/lastmile_qr_scan"}, "is_reserved": 0, "is_disabled": 0, "type": "electric_scooter", "bike_id": "c2ec10e34b7c9b0bbfe2393223805b67"}, {"lon": -77.02349666666667, "lat": 38.92277966666666, "name": "00b95019d57369b396c9ea0daa09ff33", "fusion_lat": 0.0, "fusion_lon": 0.0, "rental_uris": {"android": "https://dc.lft.to/lastmile_qr_scan", "ios": "https://dc.lft.to/lastmile_qr_scan"}, "is_reserved": 0, "is_disabled": 0, "type": "electric_scooter", "bike_id": "00b95019d57369b396c9ea0daa09ff33"}, {"lon": -77.00734333333334, "lat": 38.95515016666667, "name": "44eb353ac6da3c932bc2bc04149e9b2e", "fusion_lat": 0.0, "fusion_lon": 0.0, "rental_uris": {"android": "https://dc.lft.to/lastmile_qr_scan", "ios": "https://dc.lft.to/lastmile_qr_scan"}, "is_reserved": 0, "is_disabled": 0, "type": "electric_scooter", "bike_id": "44eb353ac6da3c932bc2bc04149e9b2e"}, {"lon": -77.031743, "lat": 38.919263, "name": "7d120638eb2f3559f1b35d7859c68299", "fusion_lat": 0.0, "fusion_lon": 0.0, "rental_uris": {"android": "https://dc.lft.to/lastmile_qr_scan", "ios": "https://dc.lft.to/lastmile_qr_scan"}, "is_reserved": 0, "is_disabled": 0, "type": "electric_scooter", "bike_id": "7d120638eb2f3559f1b35d7859c68299"}, {"lon": -77.024982, "lat": 38.939615333333336, "name": "dc8bcf53b09c3b062ee3c55da5ed9c46", "fusion_lat": 0.0, "fusion_lon": 0.0, "rental_uris": {"android": "https://dc.lft.to/lastmile_qr_scan", "ios": "https://dc.lft.to/lastmile_qr_scan"}, "is_reserved": 0, "is_disabled": 0, "type": "electric_scooter", "bike_id": "dc8bcf53b09c3b062ee3c55da5ed9c46"}, {"lon": -77.01963383333333, "lat": 38.9498985, "name": "63b7ed1c9ed89dbfc01559d20f52654d", "fusion_lat": 0.0, "fusion_lon": 0.0, "rental_uris": {"android": "https://dc.lft.to/lastmile_qr_scan", "ios": "https://dc.lft.to/lastmile_qr_scan"}, "is_reserved": 0, "is_disabled": 0, "type": "electric_scooter", "bike_id": "63b7ed1c9ed89dbfc01559d20f52654d"}, {"lon": -77.03216033333334, "lat": 38.92009566666667, "name": "06e8c7ca98751a51c1fb50b9d18954fb", "fusion_lat": 0.0, "fusion_lon": 0.0, "rental_uris": {"android": "https://dc.lft.to/lastmile_qr_scan", "ios": "https://dc.lft.to/lastmile_qr_scan"}, "is_reserved": 0, "is_disabled": 0, "type": "electric_scooter", "bike_id": "06e8c7ca98751a51c1fb50b9d18954fb"}, {"lon": -77.067737, "lat": 38.952097333333334, "name": "41b3189f489a4df8a6e860f3ca18cb2e", "fusion_lat": 0.0, "fusion_lon": 0.0, "rental_uris": {"android": "https://dc.lft.to/lastmile_qr_scan", "ios": "https://dc.lft.to/lastmile_qr_scan"}, "is_reserved": 0, "is_disabled": 0, "type": "electric_scooter", "bike_id": "41b3189f489a4df8a6e860f3ca18cb2e"}, {"lon": -77.0188095, "lat": 38.903218833333334, "name": "2700840315c51bc2ec84facd12a66222", "fusion_lat": 0.0, "fusion_lon": 0.0, "rental_uris": {"android": "https://dc.lft.to/lastmile_qr_scan", "ios": "https://dc.lft.to/lastmile_qr_scan"}, "is_reserved": 0, "is_disabled": 0, "type": "electric_scooter", "bike_id": "2700840315c51bc2ec84facd12a66222"}, {"lon": -77.01026533333334, "lat": 38.91811416666667, "name": "f0036b1e693753a0e8d3b5739c32bb62", "fusion_lat": 0.0, "fusion_lon": 0.0, "rental_uris": {"android": "https://dc.lft.to/lastmile_qr_scan", "ios": "https://dc.lft.to/lastmile_qr_scan"}, "is_reserved": 0, "is_disabled": 0, "type": "electric_scooter", "bike_id": "f0036b1e693753a0e8d3b5739c32bb62"}, {"lon": -76.98998266666666, "lat": 38.9039475, "name": "7b09901d5d864c4bf61f70cca33da284", "fusion_lat": 0.0, "fusion_lon": 0.0, "rental_uris": {"android": "https://dc.lft.to/lastmile_qr_scan", "ios": "https://dc.lft.to/lastmile_qr_scan"}, "is_reserved": 0, "is_disabled": 0, "type": "electric_scooter", "bike_id": "7b09901d5d864c4bf61f70cca33da284"}, {"lon": -77.02899483333333, "lat": 38.900542, "name": "2f03f16354f5c912fcd7e79e913b6219", "fusion_lat": 0.0, "fusion_lon": 0.0, "rental_uris": {"android": "https://dc.lft.to/lastmile_qr_scan", "ios": "https://dc.lft.to/lastmile_qr_scan"}, "is_reserved": 0, "is_disabled": 0, "type": "electric_scooter", "bike_id": "2f03f16354f5c912fcd7e79e913b6219"}, {"lon": -76.98443333333333, "lat": 38.89954866666667, "name": "639b629f9136064156f7a7ac8fd671b6", "fusion_lat": 0.0, "fusion_lon": 0.0, "rental_uris": {"android": "https://dc.lft.to/lastmile_qr_scan", "ios": "https://dc.lft.to/lastmile_qr_scan"}, "is_reserved": 0, "is_disabled": 0, "type": "electric_scooter", "bike_id": "639b629f9136064156f7a7ac8fd671b6"}, {"lon": -77.04875716666666, "lat": 38.8999745, "name": "7e5b0f45fb94cf6591b46d00d2051672", "fusion_lat": 0.0, "fusion_lon": 0.0, "rental_uris": {"android": "https://dc.lft.to/lastmile_qr_scan", "ios": "https://dc.lft.to/lastmile_qr_scan"}, "is_reserved": 0, "is_disabled": 0, "type": "electric_scooter", "bike_id": "7e5b0f45fb94cf6591b46d00d2051672"}, {"lon": -77.04610333333333, "lat": 38.915419166666666, "name": "341956551d99e511e5a8928d74784696", "fusion_lat": 0.0, "fusion_lon": 0.0, "rental_uris": {"android": "https://dc.lft.to/lastmile_qr_scan", "ios": "https://dc.lft.to/lastmile_qr_scan"}, "is_reserved": 0, "is_disabled": 0, "type": "electric_scooter", "bike_id": "341956551d99e511e5a8928d74784696"}, {"lon": -77.03438266666667, "lat": 38.91805733333333, "name": "3acf596736231fbc2d1ab1b067e13cd9", "fusion_lat": 0.0, "fusion_lon": 0.0, "rental_uris": {"android": "https://dc.lft.to/lastmile_qr_scan", "ios": "https://dc.lft.to/lastmile_qr_scan"}, "is_reserved": 0, "is_disabled": 0, "type": "electric_scooter", "bike_id": "3acf596736231fbc2d1ab1b067e13cd9"}, {"lon": -77.03295083333333, "lat": 38.95638233333333, "name": "6811a875314c60b1484dc126afbe6351", "fusion_lat": 0.0, "fusion_lon": 0.0, "rental_uris": {"android": "https://dc.lft.to/lastmile_qr_scan", "ios": "https://dc.lft.to/lastmile_qr_scan"}, "is_reserved": 0, "is_disabled": 0, "type": "electric_scooter", "bike_id": "6811a875314c60b1484dc126afbe6351"}, {"lon": -77.02231266666666, "lat": 38.91114866666667, "name": "916e1c1c842184196ea096f12e064dac", "fusion_lat": 0.0, "fusion_lon": 0.0, "rental_uris": {"android": "https://dc.lft.to/lastmile_qr_scan", "ios": "https://dc.lft.to/lastmile_qr_scan"}, "is_reserved": 0, "is_disabled": 0, "type": "electric_scooter", "bike_id": "916e1c1c842184196ea096f12e064dac"}, {"lon": -77.02834483333334, "lat": 38.8876925, "name": "c01b44994db0db90d071d77a31d005db", "fusion_lat": 0.0, "fusion_lon": 0.0, "rental_uris": {"android": "https://dc.lft.to/lastmile_qr_scan", "ios": "https://dc.lft.to/lastmile_qr_scan"}, "is_reserved": 0, "is_disabled": 0, "type": "electric_scooter", "bike_id": "c01b44994db0db90d071d77a31d005db"}, {"lon": -77.04261783333334, "lat": 38.917066, "name": "2321884ee5dd8219946b332c147c9fb0", "fusion_lat": 0.0, "fusion_lon": 0.0, "rental_uris": {"android": "https://dc.lft.to/lastmile_qr_scan", "ios": "https://dc.lft.to/lastmile_qr_scan"}, "is_reserved": 0, "is_disabled": 0, "type": "electric_scooter", "bike_id": "2321884ee5dd8219946b332c147c9fb0"}, {"lon": -77.056019, "lat": 38.92427683333333, "name": "c686a35f0afcf9bd37e6e3988a327371", "fusion_lat": 0.0, "fusion_lon": 0.0, "rental_uris": {"android": "https://dc.lft.to/lastmile_qr_scan", "ios": "https://dc.lft.to/lastmile_qr_scan"}, "is_reserved": 0, "is_disabled": 0, "type": "electric_scooter", "bike_id": "c686a35f0afcf9bd37e6e3988a327371"}, {"lon": -77.03925083333333, "lat": 38.903811166666664, "name": "aa6431a67eeb3610b7f2641e2c76d815", "fusion_lat": 0.0, "fusion_lon": 0.0, "rental_uris": {"android": "https://dc.lft.to/lastmile_qr_scan", "ios": "https://dc.lft.to/lastmile_qr_scan"}, "is_reserved": 0, "is_disabled": 0, "type": "electric_scooter", "bike_id": "aa6431a67eeb3610b7f2641e2c76d815"}, {"lon": -77.03456183333333, "lat": 38.90330466666666, "name": "d52f467f957843f584c2a87f27346583", "fusion_lat": 0.0, "fusion_lon": 0.0, "rental_uris": {"android": "https://dc.lft.to/lastmile_qr_scan", "ios": "https://dc.lft.to/lastmile_qr_scan"}, "is_reserved": 0, "is_disabled": 0, "type": "electric_scooter", "bike_id": "d52f467f957843f584c2a87f27346583"}, {"lon": -77.0297865, "lat": 38.9279945, "name": "2f9ced967a7a5f7bb2e94605a5436c5b", "fusion_lat": 0.0, "fusion_lon": 0.0, "rental_uris": {"android": "https://dc.lft.to/lastmile_qr_scan", "ios": "https://dc.lft.to/lastmile_qr_scan"}, "is_reserved": 0, "is_disabled": 0, "type": "electric_scooter", "bike_id": "2f9ced967a7a5f7bb2e94605a5436c5b"}, {"lon": -77.04297633333333, "lat": 38.923022833333334, "name": "3c16757428947d80880fae490f482ada", "fusion_lat": 0.0, "fusion_lon": 0.0, "rental_uris": {"android": "https://dc.lft.to/lastmile_qr_scan", "ios": "https://dc.lft.to/lastmile_qr_scan"}, "is_reserved": 0, "is_disabled": 0, "type": "electric_scooter", "bike_id": "3c16757428947d80880fae490f482ada"}, {"lon": -77.03506266666666, "lat": 38.92141783333334, "name": "788c10f385efddd4772501f494e05eda", "fusion_lat": 0.0, "fusion_lon": 0.0, "rental_uris": {"android": "https://dc.lft.to/lastmile_qr_scan", "ios": "https://dc.lft.to/lastmile_qr_scan"}, "is_reserved": 0, "is_disabled": 0, "type": "electric_scooter", "bike_id": "788c10f385efddd4772501f494e05eda"}, {"lon": -77.09209333333334, "lat": 38.917093333333334, "name": "a435508d57ac5722ad6de75194bdbd3c", "fusion_lat": 0.0, "fusion_lon": 0.0, "rental_uris": {"android": "https://dc.lft.to/lastmile_qr_scan", "ios": "https://dc.lft.to/lastmile_qr_scan"}, "is_reserved": 0, "is_disabled": 0, "type": "electric_scooter", "bike_id": "a435508d57ac5722ad6de75194bdbd3c"}, {"lon": -77.0326705, "lat": 38.938219, "name": "0d4a17d50685d9d89d99aff51313ddc3", "fusion_lat": 0.0, "fusion_lon": 0.0, "rental_uris": {"android": "https://dc.lft.to/lastmile_qr_scan", "ios": "https://dc.lft.to/lastmile_qr_scan"}, "is_reserved": 0, "is_disabled": 0, "type": "electric_scooter", "bike_id": "0d4a17d50685d9d89d99aff51313ddc3"}, {"lon": -77.02694383333333, "lat": 38.91273016666667, "name": "65432056c7e41147b890ebd5a769a968", "fusion_lat": 0.0, "fusion_lon": 0.0, "rental_uris": {"android": "https://dc.lft.to/lastmile_qr_scan", "ios": "https://dc.lft.to/lastmile_qr_scan"}, "is_reserved": 0, "is_disabled": 0, "type": "electric_scooter", "bike_id": "65432056c7e41147b890ebd5a769a968"}, {"lon": -77.032511, "lat": 38.959353, "name": "c0247ef7296b4db98cbfd13f569cca12", "fusion_lat": 0.0, "fusion_lon": 0.0, "rental_uris": {"android": "https://dc.lft.to/lastmile_qr_scan", "ios": "https://dc.lft.to/lastmile_qr_scan"}, "is_reserved": 0, "is_disabled": 0, "type": "electric_scooter", "bike_id": "c0247ef7296b4db98cbfd13f569cca12"}, {"lon": -77.004951, "lat": 38.896968, "name": "ee11b40285d3c14a3bc5102df19dadcf", "fusion_lat": 0.0, "fusion_lon": 0.0, "rental_uris": {"android": "https://dc.lft.to/lastmile_qr_scan", "ios": "https://dc.lft.to/lastmile_qr_scan"}, "is_reserved": 0, "is_disabled": 0, "type": "electric_scooter", "bike_id": "ee11b40285d3c14a3bc5102df19dadcf"}, {"lon": -77.033268, "lat": 38.89652366666667, "name": "0fc378093c0b477b07a68dd843e30e06", "fusion_lat": 0.0, "fusion_lon": 0.0, "rental_uris": {"android": "https://dc.lft.to/lastmile_qr_scan", "ios": "https://dc.lft.to/lastmile_qr_scan"}, "is_reserved": 0, "is_disabled": 0, "type": "electric_scooter", "bike_id": "0fc378093c0b477b07a68dd843e30e06"}, {"lon": -76.9917725, "lat": 38.905044333333336, "name": "09384ade9e8a595c81893c08b40677ca", "fusion_lat": 0.0, "fusion_lon": 0.0, "rental_uris": {"android": "https://dc.lft.to/lastmile_qr_scan", "ios": "https://dc.lft.to/lastmile_qr_scan"}, "is_reserved": 0, "is_disabled": 0, "type": "electric_scooter", "bike_id": "09384ade9e8a595c81893c08b40677ca"}, {"lon": -76.99021366666666, "lat": 38.858708166666666, "name": "02dbbfa0c3fc422e45bf3067ed1d92e7", "fusion_lat": 0.0, "fusion_lon": 0.0, "rental_uris": {"android": "https://dc.lft.to/lastmile_qr_scan", "ios": "https://dc.lft.to/lastmile_qr_scan"}, "is_reserved": 0, "is_disabled": 0, "type": "electric_scooter", "bike_id": "02dbbfa0c3fc422e45bf3067ed1d92e7"}, {"lon": -77.0375635, "lat": 38.9037215, "name": "ec1c7a8178a81c9030bc2ffc6fb7d4a8", "fusion_lat": 0.0, "fusion_lon": 0.0, "rental_uris": {"android": "https://dc.lft.to/lastmile_qr_scan", "ios": "https://dc.lft.to/lastmile_qr_scan"}, "is_reserved": 0, "is_disabled": 0, "type": "electric_scooter", "bike_id": "ec1c7a8178a81c9030bc2ffc6fb7d4a8"}, {"lon": -77.03348216666667, "lat": 38.89248666666667, "name": "fd6c87d5a3a7ac3c0d8d5a3785c5389a", "fusion_lat": 0.0, "fusion_lon": 0.0, "rental_uris": {"android": "https://dc.lft.to/lastmile_qr_scan", "ios": "https://dc.lft.to/lastmile_qr_scan"}, "is_reserved": 0, "is_disabled": 0, "type": "electric_scooter", "bike_id": "fd6c87d5a3a7ac3c0d8d5a3785c5389a"}, {"lon": -77.04852516666666, "lat": 38.919672166666665, "name": "a689d7b8ba524226930cf0885412cfcd", "fusion_lat": 0.0, "fusion_lon": 0.0, "rental_uris": {"android": "https://dc.lft.to/lastmile_qr_scan", "ios": "https://dc.lft.to/lastmile_qr_scan"}, "is_reserved": 0, "is_disabled": 0, "type": "electric_scooter", "bike_id": "a689d7b8ba524226930cf0885412cfcd"}, {"lon": -77.02549216666667, "lat": 38.89223583333333, "name": "48e92b4b573afd819ebd8197dce47ed5", "fusion_lat": 0.0, "fusion_lon": 0.0, "rental_uris": {"android": "https://dc.lft.to/lastmile_qr_scan", "ios": "https://dc.lft.to/lastmile_qr_scan"}, "is_reserved": 0, "is_disabled": 0, "type": "electric_scooter", "bike_id": "48e92b4b573afd819ebd8197dce47ed5"}, {"lon": -77.03213033333333, "lat": 38.908959333333335, "name": "544ff5965126011e2931e7efb34fc03b", "fusion_lat": 0.0, "fusion_lon": 0.0, "rental_uris": {"android": "https://dc.lft.to/lastmile_qr_scan", "ios": "https://dc.lft.to/lastmile_qr_scan"}, "is_reserved": 0, "is_disabled": 0, "type": "electric_scooter", "bike_id": "544ff5965126011e2931e7efb34fc03b"}, {"lon": -77.0372535, "lat": 38.91713333333333, "name": "175f53da2dc1bb7c8ffd5bb794f71dbb", "fusion_lat": 0.0, "fusion_lon": 0.0, "rental_uris": {"android": "https://dc.lft.to/lastmile_qr_scan", "ios": "https://dc.lft.to/lastmile_qr_scan"}, "is_reserved": 0, "is_disabled": 0, "type": "electric_scooter", "bike_id": "175f53da2dc1bb7c8ffd5bb794f71dbb"}, {"lon": -77.0254195, "lat": 38.920734833333334, "name": "315814a86dfe0ec6359a5f33a0ac45e2", "fusion_lat": 0.0, "fusion_lon": 0.0, "rental_uris": {"android": "https://dc.lft.to/lastmile_qr_scan", "ios": "https://dc.lft.to/lastmile_qr_scan"}, "is_reserved": 0, "is_disabled": 0, "type": "electric_scooter", "bike_id": "315814a86dfe0ec6359a5f33a0ac45e2"}, {"lon": -77.04342183333333, "lat": 38.903363666666664, "name": "f0a1f6b3b5ecef0fbd53fa93c20c176b", "fusion_lat": 0.0, "fusion_lon": 0.0, "rental_uris": {"android": "https://dc.lft.to/lastmile_qr_scan", "ios": "https://dc.lft.to/lastmile_qr_scan"}, "is_reserved": 0, "is_disabled": 0, "type": "electric_scooter", "bike_id": "f0a1f6b3b5ecef0fbd53fa93c20c176b"}, {"lon": -77.0295995, "lat": 38.90494316666667, "name": "c24c777596224773e1327758285d6ebd", "fusion_lat": 0.0, "fusion_lon": 0.0, "rental_uris": {"android": "https://dc.lft.to/lastmile_qr_scan", "ios": "https://dc.lft.to/lastmile_qr_scan"}, "is_reserved": 0, "is_disabled": 0, "type": "electric_scooter", "bike_id": "c24c777596224773e1327758285d6ebd"}, {"lon": -77.0472255, "lat": 38.899696, "name": "6d943259dd3697d38a4f06a1dc581b06", "fusion_lat": 0.0, "fusion_lon": 0.0, "rental_uris": {"android": "https://dc.lft.to/lastmile_qr_scan", "ios": "https://dc.lft.to/lastmile_qr_scan"}, "is_reserved": 0, "is_disabled": 0, "type": "electric_scooter", "bike_id": "6d943259dd3697d38a4f06a1dc581b06"}, {"lon": -77.03429633333333, "lat": 38.91931566666667, "name": "4bc1b5bafc374e2331ef9d8f8e8b4ae1", "fusion_lat": 0.0, "fusion_lon": 0.0, "rental_uris": {"android": "https://dc.lft.to/lastmile_qr_scan", "ios": "https://dc.lft.to/lastmile_qr_scan"}, "is_reserved": 0, "is_disabled": 0, "type": "electric_scooter", "bike_id": "4bc1b5bafc374e2331ef9d8f8e8b4ae1"}, {"lon": -76.9813505, "lat": 38.904887, "name": "101080fa7dd65fe5799a8746c806bc5a", "fusion_lat": 0.0, "fusion_lon": 0.0, "rental_uris": {"android": "https://dc.lft.to/lastmile_qr_scan", "ios": "https://dc.lft.to/lastmile_qr_scan"}, "is_reserved": 0, "is_disabled": 0, "type": "electric_scooter", "bike_id": "101080fa7dd65fe5799a8746c806bc5a"}, {"lon": -77.01086316666667, "lat": 38.89520533333334, "name": "8f88f8810e1b3f73d8828f41de8b4ed4", "fusion_lat": 0.0, "fusion_lon": 0.0, "rental_uris": {"android": "https://dc.lft.to/lastmile_qr_scan", "ios": "https://dc.lft.to/lastmile_qr_scan"}, "is_reserved": 0, "is_disabled": 0, "type": "electric_scooter", "bike_id": "8f88f8810e1b3f73d8828f41de8b4ed4"}, {"lon": -77.04645616666667, "lat": 38.8521455, "name": "8098b24194629927ccf02479254b34d1", "fusion_lat": 0.0, "fusion_lon": 0.0, "rental_uris": {"android": "https://dc.lft.to/lastmile_qr_scan", "ios": "https://dc.lft.to/lastmile_qr_scan"}, "is_reserved": 0, "is_disabled": 0, "type": "electric_bike", "bike_id": "8098b24194629927ccf02479254b34d1"}, {"lon": -77.03167333333333, "lat": 38.94461166666667, "name": "d72f80fc2e10965190893b9fdbf779e6", "fusion_lat": 0.0, "fusion_lon": 0.0, "rental_uris": {"android": "https://dc.lft.to/lastmile_qr_scan", "ios": "https://dc.lft.to/lastmile_qr_scan"}, "is_reserved": 0, "is_disabled": 0, "type": "electric_bike", "bike_id": "d72f80fc2e10965190893b9fdbf779e6"}, {"lon": -77.021501, "lat": 38.92339716666667, "name": "38f46476917f10db038aa08f0f986778", "fusion_lat": 0.0, "fusion_lon": 0.0, "rental_uris": {"android": "https://dc.lft.to/lastmile_qr_scan", "ios": "https://dc.lft.to/lastmile_qr_scan"}, "is_reserved": 0, "is_disabled": 0, "type": "electric_scooter", "bike_id": "38f46476917f10db038aa08f0f986778"}, {"lon": -76.99946833333334, "lat": 38.842934666666665, "name": "39237029627d8af95d632b8454729228", "fusion_lat": 0.0, "fusion_lon": 0.0, "rental_uris": {"android": "https://dc.lft.to/lastmile_qr_scan", "ios": "https://dc.lft.to/lastmile_qr_scan"}, "is_reserved": 0, "is_disabled": 0, "type": "electric_scooter", "bike_id": "39237029627d8af95d632b8454729228"}, {"lon": -77.0434555, "lat": 38.907288666666666, "name": "ada37ccbe528b12a64a937f3c04dbac4", "fusion_lat": 0.0, "fusion_lon": 0.0, "rental_uris": {"android": "https://dc.lft.to/lastmile_qr_scan", "ios": "https://dc.lft.to/lastmile_qr_scan"}, "is_reserved": 0, "is_disabled": 0, "type": "electric_scooter", "bike_id": "ada37ccbe528b12a64a937f3c04dbac4"}, {"lon": -77.0332145, "lat": 38.90042, "name": "9aafd6db040f8afef4bc99ad0af67261", "fusion_lat": 0.0, "fusion_lon": 0.0, "rental_uris": {"android": "https://dc.lft.to/lastmile_qr_scan", "ios": "https://dc.lft.to/lastmile_qr_scan"}, "is_reserved": 0, "is_disabled": 0, "type": "electric_scooter", "bike_id": "9aafd6db040f8afef4bc99ad0af67261"}, {"lon": -76.94727883333333, "lat": 38.896870166666666, "name": "a3e2cd88ec29ddfb45da88c98bfa6e8b", "fusion_lat": 0.0, "fusion_lon": 0.0, "rental_uris": {"android": "https://dc.lft.to/lastmile_qr_scan", "ios": "https://dc.lft.to/lastmile_qr_scan"}, "is_reserved": 0, "is_disabled": 0, "type": "electric_scooter", "bike_id": "a3e2cd88ec29ddfb45da88c98bfa6e8b"}, {"lon": -77.0230515, "lat": 38.918428, "name": "b73ed133af3d3027c57f5325c497d762", "fusion_lat": 0.0, "fusion_lon": 0.0, "rental_uris": {"android": "https://dc.lft.to/lastmile_qr_scan", "ios": "https://dc.lft.to/lastmile_qr_scan"}, "is_reserved": 0, "is_disabled": 0, "type": "electric_scooter", "bike_id": "b73ed133af3d3027c57f5325c497d762"}, {"lon": -77.141201, "lat": 38.81602016666667, "name": "b2ea59c0081309e8b98df6c35b7e8f8a", "fusion_lat": 0.0, "fusion_lon": 0.0, "rental_uris": {"android": "https://dc.lft.to/lastmile_qr_scan", "ios": "https://dc.lft.to/lastmile_qr_scan"}, "is_reserved": 0, "is_disabled": 0, "type": "electric_bike", "bike_id": "b2ea59c0081309e8b98df6c35b7e8f8a"}, {"lon": -77.05000533333333, "lat": 38.90112116666667, "name": "a563de3dd768351e07aebcc00907a16c", "fusion_lat": 0.0, "fusion_lon": 0.0, "rental_uris": {"android": "https://dc.lft.to/lastmile_qr_scan", "ios": "https://dc.lft.to/lastmile_qr_scan"}, "is_reserved": 0, "is_disabled": 0, "type": "electric_scooter", "bike_id": "a563de3dd768351e07aebcc00907a16c"}, {"lon": -77.00045166666666, "lat": 38.87392166666667, "name": "ce530235cc607e1d2cdb25c3b523b9b1", "fusion_lat": 0.0, "fusion_lon": 0.0, "rental_uris": {"android": "https://dc.lft.to/lastmile_qr_scan", "ios": "https://dc.lft.to/lastmile_qr_scan"}, "is_reserved": 0, "is_disabled": 0, "type": "electric_scooter", "bike_id": "ce530235cc607e1d2cdb25c3b523b9b1"}, {"lon": -77.02184266666667, "lat": 38.89915766666667, "name": "987f826ae16c5a1da1e3744e7dd5eae4", "fusion_lat": 0.0, "fusion_lon": 0.0, "rental_uris": {"android": "https://dc.lft.to/lastmile_qr_scan", "ios": "https://dc.lft.to/lastmile_qr_scan"}, "is_reserved": 0, "is_disabled": 0, "type": "electric_scooter", "bike_id": "987f826ae16c5a1da1e3744e7dd5eae4"}, {"lon": -77.02351516666667, "lat": 38.93328366666667, "name": "ccefc263dae1ba134ed5c865d04698eb", "fusion_lat": 0.0, "fusion_lon": 0.0, "rental_uris": {"android": "https://dc.lft.to/lastmile_qr_scan", "ios": "https://dc.lft.to/lastmile_qr_scan"}, "is_reserved": 0, "is_disabled": 0, "type": "electric_scooter", "bike_id": "ccefc263dae1ba134ed5c865d04698eb"}, {"lon": -77.0218485, "lat": 38.911314, "name": "463c3fef99e216b86a3fc8416b7e46d6", "fusion_lat": 0.0, "fusion_lon": 0.0, "rental_uris": {"android": "https://dc.lft.to/lastmile_qr_scan", "ios": "https://dc.lft.to/lastmile_qr_scan"}, "is_reserved": 0, "is_disabled": 0, "type": "electric_scooter", "bike_id": "463c3fef99e216b86a3fc8416b7e46d6"}, {"lon": -77.00212916666666, "lat": 38.90731733333333, "name": "4ca287f5edfb9cf764e7db6f2d05b943", "fusion_lat": 0.0, "fusion_lon": 0.0, "rental_uris": {"android": "https://dc.lft.to/lastmile_qr_scan", "ios": "https://dc.lft.to/lastmile_qr_scan"}, "is_reserved": 0, "is_disabled": 0, "type": "electric_scooter", "bike_id": "4ca287f5edfb9cf764e7db6f2d05b943"}, {"lon": -76.93749083333333, "lat": 38.89053216666667, "name": "529361bc63ee918b0ae3d82a6be2b89c", "fusion_lat": 0.0, "fusion_lon": 0.0, "rental_uris": {"android": "https://dc.lft.to/lastmile_qr_scan", "ios": "https://dc.lft.to/lastmile_qr_scan"}, "is_reserved": 0, "is_disabled": 0, "type": "electric_scooter", "bike_id": "529361bc63ee918b0ae3d82a6be2b89c"}, {"lon": -77.00659116666667, "lat": 38.87477633333334, "name": "37f32bb10a028cbb75e682f5b210ad49", "fusion_lat": 0.0, "fusion_lon": 0.0, "rental_uris": {"android": "https://dc.lft.to/lastmile_qr_scan", "ios": "https://dc.lft.to/lastmile_qr_scan"}, "is_reserved": 0, "is_disabled": 0, "type": "electric_scooter", "bike_id": "37f32bb10a028cbb75e682f5b210ad49"}, {"lon": -77.04809966666667, "lat": 38.90077316666667, "name": "42efb7fe5fea678869d22e8b8617983a", "fusion_lat": 0.0, "fusion_lon": 0.0, "rental_uris": {"android": "https://dc.lft.to/lastmile_qr_scan", "ios": "https://dc.lft.to/lastmile_qr_scan"}, "is_reserved": 0, "is_disabled": 0, "type": "electric_scooter", "bike_id": "42efb7fe5fea678869d22e8b8617983a"}, {"lon": -77.00204466666666, "lat": 38.900614166666664, "name": "ac48bcfc5fb79f7aa24648208e6b5b87", "fusion_lat": 0.0, "fusion_lon": 0.0, "rental_uris": {"android": "https://dc.lft.to/lastmile_qr_scan", "ios": "https://dc.lft.to/lastmile_qr_scan"}, "is_reserved": 0, "is_disabled": 0, "type": "electric_scooter", "bike_id": "ac48bcfc5fb79f7aa24648208e6b5b87"}, {"lon": -77.02766116666666, "lat": 38.8919925, "name": "d47ef2fe0025c04427cae4132f028965", "fusion_lat": 0.0, "fusion_lon": 0.0, "rental_uris": {"android": "https://dc.lft.to/lastmile_qr_scan", "ios": "https://dc.lft.to/lastmile_qr_scan"}, "is_reserved": 0, "is_disabled": 0, "type": "electric_scooter", "bike_id": "d47ef2fe0025c04427cae4132f028965"},