{"data": {"bikes": [{"lat": 38.89859916666666, "fusion_lat": 0.0, "type": "electric_scooter", "bike_id": "402913e6d2cd18ade91652f1ddc237a5", "rental_uris": {"ios": "https://dc.lft.to/lastmile_qr_scan", "android": "https://dc.lft.to/lastmile_qr_scan"}, "fusion_lon": 0.0, "lon": -77.033451, "name": "402913e6d2cd18ade91652f1ddc237a5", "is_reserved": 0, "is_disabled": 0}, {"lat": 38.902161166666666, "fusion_lat": 0.0, "type": "electric_bike", "bike_id": "9f83cbd6d60b12e3e33e478dd99c4bc9", "rental_uris": {"ios": "https://dc.lft.to/lastmile_qr_scan", "android": "https://dc.lft.to/lastmile_qr_scan"}, "fusion_lon": 0.0, "lon": -77.05897466666667, "name": "9f83cbd6d60b12e3e33e478dd99c4bc9", "is_reserved": 0, "is_disabled": 0}, {"lat": 38.876355833333335, "fusion_lat": 0.0, "type": "electric_scooter", "bike_id": "0dedb094d5cceb25fa406e8c84065106", "rental_uris": {"ios": "https://dc.lft.to/lastmile_qr_scan", "android": "https://dc.lft.to/lastmile_qr_scan"}, "fusion_lon": 0.0, "lon": -77.00116316666667, "name": "0dedb094d5cceb25fa406e8c84065106", "is_reserved": 0, "is_disabled": 0}, {"lat": 38.89197333333333, "fusion_lat": 0.0, "type": "electric_scooter", "bike_id": "d5e281f50d003ea659e08a8c3e3ca3c6", "rental_uris": {"ios": "https://dc.lft.to/lastmile_qr_scan", "android": "https://dc.lft.to/lastmile_qr_scan"}, "fusion_lon": 0.0, "lon": -76.99383366666666, "name": "d5e281f50d003ea659e08a8c3e3ca3c6", "is_reserved": 0, "is_disabled": 0}, {"lat": 38.93284166666667, "fusion_lat": 0.0, "type": "electric_scooter", "bike_id": "5d9d674726786ce650b0f69d2664e7d0", "rental_uris": {"ios": "https://dc.lft.to/lastmile_qr_scan", "android": "https://dc.lft.to/lastmile_qr_scan"}, "fusion_lon": 0.0, "lon": -77.02541083333334, "name": "5d9d674726786ce650b0f69d2664e7d0", "is_reserved": 0, "is_disabled": 0}, {"lat": 38.93056283333333, "fusion_lat": 0.0, "type": "electric_scooter", "bike_id": "9c169eb4042d3855f66801b5c3544a69", "rental_uris": {"ios": "https://dc.lft.to/lastmile_qr_scan", "android": "https://dc.lft.to/lastmile_qr_scan"}, "fusion_lon": 0.0, "lon": -77.03204283333334, "name": "9c169eb4042d3855f66801b5c3544a69", "is_reserved": 0, "is_disabled": 0}, {"lat": 38.918237166666664, "fusion_lat": 0.0, "type": "electric_scooter", "bike_id": "b16981dffe755818e4e7359b7f177f66", "rental_uris": {"ios": "https://dc.lft.to/lastmile_qr_scan", "android": "https://dc.lft.to/lastmile_qr_scan"}, "fusion_lon": 0.0, "lon": -77.01206866666666, "name": "b16981dffe755818e4e7359b7f177f66", "is_reserved": 0, "is_disabled": 0}, {"lat": 38.90010683333333, "fusion_lat": 0.0, "type": "electric_scooter", "bike_id": "56a2828626d72b444b5f336c6c2c20e5", "rental_uris": {"ios": "https://dc.lft.to/lastmile_qr_scan", "android": "https://dc.lft.to/lastmile_qr_scan"}, "fusion_lon": 0.0, "lon": -77.0126095, "name": "56a2828626d72b444b5f336c6c2c20e5", "is_reserved": 0, "is_disabled": 0}, {"lat": 38.89926066666666, "fusion_lat": 0.0, "type": "electric_scooter", "bike_id": "f10020281cf30ff2e3a3117891b043bc", "rental_uris": {"ios": "https://dc.lft.to/lastmile_qr_scan", "android": "https://dc.lft.to/lastmile_qr_scan"}, "fusion_lon": 0.0, "lon": -77.00338733333334, "name": "f10020281cf30ff2e3a3117891b043bc", "is_reserved": 0, "is_disabled": 0}, {"lat": 38.91337383333333, "fusion_lat": 0.0, "type": "electric_scooter", "bike_id": "dbc681a76ea2e545d00fa6c5462a3d21", "rental_uris": {"ios": "https://dc.lft.to/lastmile_qr_scan", "android": "https://dc.lft.to/lastmile_qr_scan"}, "fusion_lon": 0.0, "lon": -77.01621983333334, "name": "dbc681a76ea2e545d00fa6c5462a3d21", "is_reserved": 0, "is_disabled": 0}, {"lat": 38.89923016666667, "fusion_lat": 0.0, "type": "electric_scooter", "bike_id": "dfa2cd9b29e59e4d0d706d669738f7b2", "rental_uris": {"ios": "https://dc.lft.to/lastmile_qr_scan", "android": "https://dc.lft.to/lastmile_qr_scan"}, "fusion_lon": 0.0, "lon": -77.02815216666667, "name": "dfa2cd9b29e59e4d0d706d669738f7b2", "is_reserved": 0, "is_disabled": 0}, {"lat": 38.913288, "fusion_lat": 0.0, "type": "electric_scooter", "bike_id": "b16c755c88fce49b516e6ec22a2ca9a4", "rental_uris": {"ios": "https://dc.lft.to/lastmile_qr_scan", "android": "https://dc.lft.to/lastmile_qr_scan"}, "fusion_lon": 0.0, "lon": -77.04856133333334, "name": "b16c755c88fce49b516e6ec22a2ca9a4", "is_reserved": 0, "is_disabled": 0}, {"lat": 38.89224133333333, "fusion_lat": 0.0, "type": "electric_scooter", "bike_id": "2406cc706713fed2b79dd0885f82c680", "rental_uris": {"ios": "https://dc.lft.to/lastmile_qr_scan", "android": "https://dc.lft.to/lastmile_qr_scan"}, "fusion_lon": 0.0, "lon": -77.04194483333333, "name": "2406cc706713fed2b79dd0885f82c680", "is_reserved": 0, "is_disabled": 0}, {"lat": 38.91777166666667, "fusion_lat": 0.0, "type": "electric_scooter", "bike_id": "ec5483e7c198f7e007ebc0e665e735c5", "rental_uris": {"ios": "https://dc.lft.to/lastmile_qr_scan", "android": "https://dc.lft.to/lastmile_qr_scan"}, "fusion_lon": 0.0, "lon": -77.04056416666667, "name": "ec5483e7c198f7e007ebc0e665e735c5", "is_reserved": 0, "is_disabled": 0}, {"lat": 38.918350333333336, "fusion_lat": 0.0, "type": "electric_scooter", "bike_id": "15bb519eae3d4f0331bf8ed36ca71d5a", "rental_uris": {"ios": "https://dc.lft.to/lastmile_qr_scan", "android": "https://dc.lft.to/lastmile_qr_scan"}, "fusion_lon": 0.0, "lon": -77.041618, "name": "15bb519eae3d4f0331bf8ed36ca71d5a", "is_reserved": 0, "is_disabled": 0}, {"lat": 39.010717166666666, "fusion_lat": 0.0, "type": "electric_bike", "bike_id": "59cf13f731349ca0cdc9758c10e6dfab", "rental_uris": {"ios": "https://dc.lft.to/lastmile_qr_scan", "android": "https://dc.lft.to/lastmile_qr_scan"}, "fusion_lon": 0.0, "lon": -76.91052816666667, "name": "59cf13f731349ca0cdc9758c10e6dfab", "is_reserved": 0, "is_disabled": 0}, {"lat": 38.918090166666666, "fusion_lat": 0.0, "type": "electric_scooter", "bike_id": "24241329ee37e9b0c998760ae35f6e7e", "rental_uris": {"ios": "https://dc.lft.to/lastmile_qr_scan", "android": "https://dc.lft.to/lastmile_qr_scan"}, "fusion_lon": 0.0, "lon": -77.02680783333334, "name": "24241329ee37e9b0c998760ae35f6e7e", "is_reserved": 0, "is_disabled": 0}, {"lat": 38.897295166666666, "fusion_lat": 0.0, "type": "electric_scooter", "bike_id": "ccdd835cba4873321ce0d4fca35c26b2", "rental_uris": {"ios": "https://dc.lft.to/lastmile_qr_scan", "android": "https://dc.lft.to/lastmile_qr_scan"}, "fusion_lon": 0.0, "lon": -77.02094583333333, "name": "ccdd835cba4873321ce0d4fca35c26b2", "is_reserved": 0, "is_disabled": 0}, {"lat": 38.905765, "fusion_lat": 0.0, "type": "electric_scooter", "bike_id": "e896d0d1f42ab722f2deca50d6a85ae7", "rental_uris": {"ios": "https://dc.lft.to/lastmile_qr_scan", "android": "https://dc.lft.to/lastmile_qr_scan"}, "fusion_lon": 0.0, "lon": -77.041015, "name": "e896d0d1f42ab722f2deca50d6a85ae7", "is_reserved": 0, "is_disabled": 0}, {"lat": 38.91877616666667, "fusion_lat": 0.0, "type": "electric_bike", "bike_id": "bc84f15fc80f0956649d26fbc51390e8", "rental_uris": {"ios": "https://dc.lft.to/lastmile_qr_scan", "android": "https://dc.lft.to/lastmile_qr_scan"}, "fusion_lon": 0.0, "lon": -76.96435616666666, "name": "bc84f15fc80f0956649d26fbc51390e8", "is_reserved": 0, "is_disabled": 0}, {"lat": 38.905136, "fusion_lat": 0.0, "type": "electric_scooter", "bike_id": "8ecd6e7d645dc4aedc89fc9fc0cb5964", "rental_uris": {"ios": "https://dc.lft.to/lastmile_qr_scan", "android": "https://dc.lft.to/lastmile_qr_scan"}, "fusion_lon": 0.0, "lon": -77.01789833333333, "name": "8ecd6e7d645dc4aedc89fc9fc0cb5964", "is_reserved": 0, "is_disabled": 0}, {"lat": 38.90013666666667, "fusion_lat": 0.0, "type": "electric_scooter", "bike_id": "35b721ee86c6cd2c5183c2fc9aed01ae", "rental_uris": {"ios": "https://dc.lft.to/lastmile_qr_scan", "android": "https://dc.lft.to/lastmile_qr_scan"}, "fusion_lon": 0.0, "lon": -76.99870283333334, "name": "35b721ee86c6cd2c5183c2fc9aed01ae", "is_reserved": 0, "is_disabled": 0}, {"lat": 38.83106516666667, "fusion_lat": 0.0, "type": "electric_bike", "bike_id": "bd7391d9fd1e0c83d7d50e3663010ba6", "rental_uris": {"ios": "https://dc.lft.to/lastmile_qr_scan", "android": "https://dc.lft.to/lastmile_qr_scan"}, "fusion_lon": 0.0, "lon": -77.11281783333334, "name": "bd7391d9fd1e0c83d7d50e3663010ba6", "is_reserved": 0, "is_disabled": 0}, {"lat": 38.9107455, "fusion_lat": 0.0, "type": "electric_scooter", "bike_id": "5a73197259506845edd98f1dc12d69c4", "rental_uris": {"ios": "https://dc.lft.to/lastmile_qr_scan", "android": "https://dc.lft.to/lastmile_qr_scan"}, "fusion_lon": 0.0, "lon": -77.02715533333334, "name": "5a73197259506845edd98f1dc12d69c4", "is_reserved": 0, "is_disabled": 0}, {"lat": 38.918207833333334, "fusion_lat": 0.0, "type": "electric_scooter", "bike_id": "074510fc6a5b1500d50eb22131d23d02", "rental_uris": {"ios": "https://dc.lft.to/lastmile_qr_scan", "android": "https://dc.lft.to/lastmile_qr_scan"}, "fusion_lon": 0.0, "lon": -77.0417455, "name": "074510fc6a5b1500d50eb22131d23d02", "is_reserved": 0, "is_disabled": 0}, {"lat": 38.880379, "fusion_lat": 0.0, "type": "electric_scooter", "bike_id": "409bb76c7d55b6fe849d25ef4e513ea2", "rental_uris": {"ios": "https://dc.lft.to/lastmile_qr_scan", "android": "https://dc.lft.to/lastmile_qr_scan"}, "fusion_lon": 0.0, "lon": -77.00598266666667, "name": "409bb76c7d55b6fe849d25ef4e513ea2", "is_reserved": 0, "is_disabled": 0}, {"lat": 38.8969775, "fusion_lat": 0.0, "type": "electric_scooter", "bike_id": "755d3e1c8e96320fe750d38afc7a1053", "rental_uris": {"ios": "https://dc.lft.to/lastmile_qr_scan", "android": "https://dc.lft.to/lastmile_qr_scan"}, "fusion_lon": 0.0, "lon": -77.02670316666666, "name": "755d3e1c8e96320fe750d38afc7a1053", "is_reserved": 0, "is_disabled": 0}, {"lat": 38.92165833333333, "fusion_lat": 0.0, "type": "electric_scooter", "bike_id": "e9284d6c119861cd41b854534fc917bc", "rental_uris": {"ios": "https://dc.lft.to/lastmile_qr_scan", "android": "https://dc.lft.to/lastmile_qr_scan"}, "fusion_lon": 0.0, "lon": -77.0402105, "name": "e9284d6c119861cd41b854534fc917bc", "is_reserved": 0, "is_disabled": 0}, {"lat": 38.92898916666667, "fusion_lat": 0.0, "type": "electric_scooter", "bike_id": "b4bbc08d2a4c313e799a9f63f18ebd67", "rental_uris": {"ios": "https://dc.lft.to/lastmile_qr_scan", "android": "https://dc.lft.to/lastmile_qr_scan"}, "fusion_lon": 0.0, "lon": -77.058071, "name": "b4bbc08d2a4c313e799a9f63f18ebd67", "is_reserved": 0, "is_disabled": 0}, {"lat": 38.91252983333333, "fusion_lat": 0.0, "type": "electric_scooter", "bike_id": "0db78bef37764185761d3e509c84aba8", "rental_uris": {"ios": "https://dc.lft.to/lastmile_qr_scan", "android": "https://dc.lft.to/lastmile_qr_scan"}, "fusion_lon": 0.0, "lon": -77.038036, "name": "0db78bef37764185761d3e509c84aba8", "is_reserved": 0, "is_disabled": 0}, {"lat": 38.897438, "fusion_lat": 0.0, "type": "electric_scooter", "bike_id": "96f9795cb95dbc5f9030a01f55caa50b", "rental_uris": {"ios": "https://dc.lft.to/lastmile_qr_scan", "android": "https://dc.lft.to/lastmile_qr_scan"}, "fusion_lon": 0.0, "lon": -77.00142183333334, "name": "96f9795cb95dbc5f9030a01f55caa50b", "is_reserved": 0, "is_disabled": 0}, {"lat": 38.8551945, "fusion_lat": 0.0, "type": "electric_bike", "bike_id": "e2a537e39a731e846adfccd61cd56478", "rental_uris": {"ios": "https://dc.lft.to/lastmile_qr_scan", "android": "https://dc.lft.to/lastmile_qr_scan"}, "fusion_lon": 0.0, "lon": -76.98428833333334, "name": "e2a537e39a731e846adfccd61cd56478", "is_reserved": 0, "is_disabled": 0}, {"lat": 38.9287365, "fusion_lat": 0.0, "type": "electric_scooter", "bike_id": "048b0aae47f3a2a9d71957753adab5c1", "rental_uris": {"ios": "https://dc.lft.to/lastmile_qr_scan", "android": "https://dc.lft.to/lastmile_qr_scan"}, "fusion_lon": 0.0, "lon": -77.03229866666666, "name": "048b0aae47f3a2a9d71957753adab5c1", "is_reserved": 0, "is_disabled": 0}, {"lat": 38.95064983333333, "fusion_lat": 0.0, "type": "electric_bike", "bike_id": "6ac124c67faf0f3c3de22c30fb39e3ba", "rental_uris": {"ios": "https://dc.lft.to/lastmile_qr_scan", "android": "https://dc.lft.to/lastmile_qr_scan"}, "fusion_lon": 0.0, "lon": -77.07733583333334, "name": "6ac124c67faf0f3c3de22c30fb39e3ba", "is_reserved": 0, "is_disabled": 0}, {"lat": 38.921733, "fusion_lat": 0.0, "type": "electric_scooter", "bike_id": "c5ca6daf99822dc568e7495cd3c87ae5", "rental_uris": {"ios": "https://dc.lft.to/lastmile_qr_scan", "android": "https://dc.lft.to/lastmile_qr_scan"}, "fusion_lon": 0.0, "lon": -77.0402055, "name": "c5ca6daf99822dc568e7495cd3c87ae5", "is_reserved": 0, "is_disabled": 0}, {"lat": 38.93946866666667, "fusion_lat": 0.0, "type": "electric_scooter", "bike_id": "39d1d42b8d6d2d70b2e771b82463682a", "rental_uris": {"ios": "https://dc.lft.to/lastmile_qr_scan", "android": "https://dc.lft.to/lastmile_qr_scan"}, "fusion_lon": 0.0, "lon": -77.02180866666667, "name": "39d1d42b8d6d2d70b2e771b82463682a", "is_reserved": 0, "is_disabled": 0}, {"lat": 38.90134616666667, "fusion_lat": 0.0, "type": "electric_scooter", "bike_id": "351677ab504469024fb4ee8715007483", "rental_uris": {"ios": "https://dc.lft.to/lastmile_qr_scan", "android": "https://dc.lft.to/lastmile_qr_scan"}, "fusion_lon": 0.0, "lon": -77.03854966666667, "name": "351677ab504469024fb4ee8715007483", "is_reserved": 0, "is_disabled": 0}, {"lat": 38.89889133333333, "fusion_lat": 0.0, "type": "electric_scooter", "bike_id": "962cb709dfd3bf6cdfb69c94e7a1cae4", "rental_uris": {"ios": "https://dc.lft.to/lastmile_qr_scan", "android": "https://dc.lft.to/lastmile_qr_scan"}, "fusion_lon": 0.0, "lon": -77.00976916666667, "name": "962cb709dfd3bf6cdfb69c94e7a1cae4", "is_reserved": 0, "is_disabled": 0}, {"lat": 38.907574833333335, "fusion_lat": 0.0, "type": "electric_scooter", "bike_id": "3bebecf4c67a5fa8fb48794f8a3ca8e5", "rental_uris": {"ios": "https://dc.lft.to/lastmile_qr_scan", "android": "https://dc.lft.to/lastmile_qr_scan"}, "fusion_lon": 0.0, "lon": -77.04322716666667, "name": "3bebecf4c67a5fa8fb48794f8a3ca8e5", "is_reserved": 0, "is_disabled": 0}, {"lat": 38.92030533333333, "fusion_lat": 0.0, "type": "electric_scooter", "bike_id": "78be1e642a9e67b678c0716cea74e4ac", "rental_uris": {"ios": "https://dc.lft.to/lastmile_qr_scan", "android": "https://dc.lft.to/lastmile_qr_scan"}, "fusion_lon": 0.0, "lon": -77.0103315, "name": "78be1e642a9e67b678c0716cea74e4ac", "is_reserved": 0, "is_disabled": 0}, {"lat": 38.883719666666664, "fusion_lat": 0.0, "type": "electric_scooter", "bike_id": "1a9fbeaf7b9b60b0dfbbfc28f6ca0dd7", "rental_uris": {"ios": "https://dc.lft.to/lastmile_qr_scan", "android": "https://dc.lft.to/lastmile_qr_scan"}, "fusion_lon": 0.0, "lon": -76.99534466666667, "name": "1a9fbeaf7b9b60b0dfbbfc28f6ca0dd7", "is_reserved": 0, "is_disabled": 0}, {"lat": 38.915191666666665, "fusion_lat": 0.0, "type": "electric_scooter", "bike_id": "829714e04994a216d5a9b73b14c4a375", "rental_uris": {"ios": "https://dc.lft.to/lastmile_qr_scan", "android": "https://dc.lft.to/lastmile_qr_scan"}, "fusion_lon": 0.0, "lon": -77.01982933333333, "name": "829714e04994a216d5a9b73b14c4a375", "is_reserved": 0, "is_disabled": 0}, {"lat": 38.9181555, "fusion_lat": 0.0, "type": "electric_scooter", "bike_id": "f66da74d3e65bb12b2dc3bb886102122", "rental_uris": {"ios": "https://dc.lft.to/lastmile_qr_scan", "android": "https://dc.lft.to/lastmile_qr_scan"}, "fusion_lon": 0.0, "lon": -77.03633633333334, "name": "f66da74d3e65bb12b2dc3bb886102122", "is_reserved": 0, "is_disabled": 0}, {"lat": 38.961545, "fusion_lat": 0.0, "type": "electric_scooter", "bike_id": "86ab901f9a77582f2505b59d308a829d", "rental_uris": {"ios": "https://dc.lft.to/lastmile_qr_scan", "android": "https://dc.lft.to/lastmile_qr_scan"}, "fusion_lon": 0.0, "lon": -77.03233966666667, "name": "86ab901f9a77582f2505b59d308a829d", "is_reserved": 0, "is_disabled": 0}, {"lat": 38.902605666666666, "fusion_lat": 0.0, "type": "electric_scooter", "bike_id": "7be5b540df44702c1f1782c797215261", "rental_uris": {"ios": "https://dc.lft.to/lastmile_qr_scan", "android": "https://dc.lft.to/lastmile_qr_scan"}, "fusion_lon": 0.0, "lon": -77.062804, "name": "7be5b540df44702c1f1782c797215261", "is_reserved": 0, "is_disabled": 0}, {"lat": 38.90588183333333, "fusion_lat": 0.0, "type": "electric_scooter", "bike_id": "67c40b8253ee600f924f07bc09350e7f", "rental_uris": {"ios": "https://dc.lft.to/lastmile_qr_scan", "android": "https://dc.lft.to/lastmile_qr_scan"}, "fusion_lon": 0.0, "lon": -77.04511233333334, "name": "67c40b8253ee600f924f07bc09350e7f", "is_reserved": 0, "is_disabled": 0}, {"lat": 38.80676316666667, "fusion_lat": 0.0, "type": "electric_bike", "bike_id": "7a950e941a0b0357fb0985d7f2adc748", "rental_uris": {"ios": "https://dc.lft.to/lastmile_qr_scan", "android": "https://dc.lft.to/lastmile_qr_scan"}, "fusion_lon": 0.0, "lon": -77.069121, "name": "7a950e941a0b0357fb0985d7f2adc748", "is_reserved": 0, "is_disabled": 0}, {"lat": 38.9283975, "fusion_lat": 0.0, "type": "electric_scooter", "bike_id": "692e0ba471902aafa985460996a1dcd0", "rental_uris": {"ios": "https://dc.lft.to/lastmile_qr_scan", "android": "https://dc.lft.to/lastmile_qr_scan"}, "fusion_lon": 0.0, "lon": -77.006006, "name": "692e0ba471902aafa985460996a1dcd0", "is_reserved": 0, "is_disabled": 0}, {"lat": 38.92750866666667, "fusion_lat": 0.0, "type": "electric_scooter", "bike_id": "17706593301da412eefc43d4c3009b75", "rental_uris": {"ios": "https://dc.lft.to/lastmile_qr_scan", "android": "https://dc.lft.to/lastmile_qr_scan"}, "fusion_lon": 0.0, "lon": -77.0334975, "name": "17706593301da412eefc43d4c3009b75", "is_reserved": 0, "is_disabled": 0}, {"lat": 38.924412333333336, "fusion_lat": 0.0, "type": "electric_scooter", "bike_id": "efa66d19dfc9fd14c55388af8476dda7", "rental_uris": {"ios": "https://dc.lft.to/lastmile_qr_scan", "android": "https://dc.lft.to/lastmile_qr_scan"}, "fusion_lon": 0.0, "lon": -77.02025333333333, "name": "efa66d19dfc9fd14c55388af8476dda7", "is_reserved": 0, "is_disabled": 0}, {"lat": 38.916821666666664, "fusion_lat": 0.0, "type": "electric_scooter", "bike_id": "be431aac2e792695949b46e0e1d1749d", "rental_uris": {"ios": "https://dc.lft.to/lastmile_qr_scan", "android": "https://dc.lft.to/lastmile_qr_scan"}, "fusion_lon": 0.0, "lon": -77.02954733333333, "name": "be431aac2e792695949b46e0e1d1749d", "is_reserved": 0, "is_disabled": 0}, {"lat": 38.918169, "fusion_lat": 0.0, "type": "electric_scooter", "bike_id": "cc163abd5d4b1ed232677a5a0a79aa6b", "rental_uris": {"ios": "https://dc.lft.to/lastmile_qr_scan", "android": "https://dc.lft.to/lastmile_qr_scan"}, "fusion_lon": 0.0, "lon": -77.03561566666667, "name": "cc163abd5d4b1ed232677a5a0a79aa6b", "is_reserved": 0, "is_disabled": 0}, {"lat": 38.8923365, "fusion_lat": 0.0, "type": "electric_scooter", "bike_id": "e675923eaa6190891f186cea75e25b0d", "rental_uris": {"ios": "https://dc.lft.to/lastmile_qr_scan", "android": "https://dc.lft.to/lastmile_qr_scan"}, "fusion_lon": 0.0, "lon": -77.04871883333334, "name": "e675923eaa6190891f186cea75e25b0d", "is_reserved": 0, "is_disabled": 0}, {"lat": 38.926942333333336, "fusion_lat": 0.0, "type": "electric_scooter", "bike_id": "e326a674ebef71372bbd830f1b0d190e", "rental_uris": {"ios": "https://dc.lft.to/lastmile_qr_scan", "android": "https://dc.lft.to/lastmile_qr_scan"}, "fusion_lon": 0.0, "lon": -76.99762033333333, "name": "e326a674ebef71372bbd830f1b0d190e", "is_reserved": 0, "is_disabled": 0}, {"lat": 38.9326455, "fusion_lat": 0.0, "type": "electric_scooter", "bike_id": "db46750f1b95d6b229596147433c42c1", "rental_uris": {"ios": "https://dc.lft.to/lastmile_qr_scan", "android": "https://dc.lft.to/lastmile_qr_scan"}, "fusion_lon": 0.0, "lon": -77.02086766666666, "name": "db46750f1b95d6b229596147433c42c1", "is_reserved": 0, "is_disabled": 0}, {"lat": 38.9086405, "fusion_lat": 0.0, "type": "electric_scooter", "bike_id": "d68b20870fcc0c57223e1684aca47787", "rental_uris": {"ios": "https://dc.lft.to/lastmile_qr_scan", "android": "https://dc.lft.to/lastmile_qr_scan"}, "fusion_lon": 0.0, "lon": -77.04016283333333, "name": "d68b20870fcc0c57223e1684aca47787", "is_reserved": 0, "is_disabled": 0}, {"lat": 38.92372683333333, "fusion_lat": 0.0, "type": "electric_scooter", "bike_id": "22da8f19e341b928dcd256159a166826", "rental_uris": {"ios": "https://dc.lft.to/lastmile_qr_scan", "android": "https://dc.lft.to/lastmile_qr_scan"}, "fusion_lon": 0.0, "lon": -77.029158, "name": "22da8f19e341b928dcd256159a166826", "is_reserved": 0, "is_disabled": 0}, {"lat": 38.90946616666667, "fusion_lat": 0.0, "type": "electric_scooter", "bike_id": "0154566df089adeb497490177eed1ebf", "rental_uris": {"ios": "https://dc.lft.to/lastmile_qr_scan", "android": "https://dc.lft.to/lastmile_qr_scan"}, "fusion_lon": 0.0, "lon": -77.034497, "name": "0154566df089adeb497490177eed1ebf", "is_reserved": 0, "is_disabled": 0}, {"lat": 38.9070925, "fusion_lat": 0.0, "type": "electric_scooter", "bike_id": "e28b7b24bc5514c6fa9fd8486fb7bee5", "rental_uris": {"ios": "https://dc.lft.to/lastmile_qr_scan", "android": "https://dc.lft.to/lastmile_qr_scan"}, "fusion_lon": 0.0, "lon": -77.04338366666667, "name": "e28b7b24bc5514c6fa9fd8486fb7bee5", "is_reserved": 0, "is_disabled": 0}, {"lat": 38.94651133333333, "fusion_lat": 0.0, "type": "electric_scooter", "bike_id": "8952f18d7e093595915c6e1c73aae363", "rental_uris": {"ios": "https://dc.lft.to/lastmile_qr_scan", "android": "https://dc.lft.to/lastmile_qr_scan"}, "fusion_lon": 0.0, "lon": -77.02956966666666, "name": "8952f18d7e093595915c6e1c73aae363", "is_reserved": 0, "is_disabled": 0}, {"lat": 38.906885833333334, "fusion_lat": 0.0, "type": "electric_scooter", "bike_id": "d4e331398aa8728bc398cffbc347340b", "rental_uris": {"ios": "https://dc.lft.to/lastmile_qr_scan", "android": "https://dc.lft.to/lastmile_qr_scan"}, "fusion_lon": 0.0, "lon": -77.04328266666667, "name": "d4e331398aa8728bc398cffbc347340b", "is_reserved": 0, "is_disabled": 0}, {"lat": 38.9139895, "fusion_lat": 0.0, "type": "electric_scooter", "bike_id": "3c14efd6931d9c7e2f114ef0831de850", "rental_uris": {"ios": "https://dc.lft.to/lastmile_qr_scan", "android": "https://dc.lft.to/lastmile_qr_scan"}, "fusion_lon": 0.0, "lon": -77.01646483333333, "name": "3c14efd6931d9c7e2f114ef0831de850", "is_reserved": 0, "is_disabled": 0}, {"lat": 38.915974, "fusion_lat": 0.0, "type": "electric_scooter", "bike_id": "67d46552d59bbb0b8dfe9f746c74e150", "rental_uris": {"ios": "https://dc.lft.to/lastmile_qr_scan", "android": "https://dc.lft.to/lastmile_qr_scan"}, "fusion_lon": 0.0, "lon": -77.039411, "name": "67d46552d59bbb0b8dfe9f746c74e150", "is_reserved": 0, "is_disabled": 0}, {"lat": 38.917180333333334, "fusion_lat": 0.0, "type": "electric_scooter", "bike_id": "075a35f82cd2df882c42c50c853e640c", "rental_uris": {"ios": "https://dc.lft.to/lastmile_qr_scan", "android": "https://dc.lft.to/lastmile_qr_scan"}, "fusion_lon": 0.0, "lon": -77.03345416666667, "name": "075a35f82cd2df882c42c50c853e640c", "is_reserved": 0, "is_disabled": 0}, {"lat": 38.924254166666664, "fusion_lat": 0.0, "type": "electric_scooter", "bike_id": "ee7793a96f42e6af1972c22d70b9ffdc", "rental_uris": {"ios": "https://dc.lft.to/lastmile_qr_scan", "android": "https://dc.lft.to/lastmile_qr_scan"}, "fusion_lon": 0.0, "lon": -77.05179083333333, "name": "ee7793a96f42e6af1972c22d70b9ffdc", "is_reserved": 0, "is_disabled": 0}, {"lat": 38.90151516666667, "fusion_lat": 0.0, "type": "electric_scooter", "bike_id": "b3efdb8a7050ffef9c43291e82cc1fc6", "rental_uris": {"ios": "https://dc.lft.to/lastmile_qr_scan", "android": "https://dc.lft.to/lastmile_qr_scan"}, "fusion_lon": 0.0, "lon": -76.93064816666667, "name": "b3efdb8a7050ffef9c43291e82cc1fc6", "is_reserved": 0, "is_disabled": 0}, {"lat": 38.8850515, "fusion_lat": 0.0, "type": "electric_scooter", "bike_id": "ab94cc5f61ccbc317c735835f0ea436c", "rental_uris": {"ios": "https://dc.lft.to/lastmile_qr_scan", "android": "https://dc.lft.to/lastmile_qr_scan"}, "fusion_lon": 0.0, "lon": -77.00566133333334, "name": "ab94cc5f61ccbc317c735835f0ea436c", "is_reserved": 0, "is_disabled": 0}, {"lat": 38.9064045, "fusion_lat": 0.0, "type": "electric_bike", "bike_id": "20a7962dea5b68b5addc170744eb2e51", "rental_uris": {"ios": "https://dc.lft.to/lastmile_qr_scan", "android": "https://dc.lft.to/lastmile_qr_scan"}, "fusion_lon": 0.0, "lon": -77.070234, "name": "20a7962dea5b68b5addc170744eb2e51", "is_reserved": 0, "is_disabled": 0}, {"lat": 38.950584666666664, "fusion_lat": 0.0, "type": "electric_scooter", "bike_id": "fc3e0ac7f452c8c19bcba12d2067cecd", "rental_uris": {"ios": "https://dc.lft.to/lastmile_qr_scan", "android": "https://dc.lft.to/lastmile_qr_scan"}, "fusion_lon": 0.0, "lon": -77.0802475, "name": "fc3e0ac7f452c8c19bcba12d2067cecd", "is_reserved": 0, "is_disabled": 0}, {"lat": 38.902777, "fusion_lat": 0.0, "type": "electric_scooter", "bike_id": "dffcbf26a1e9304a0440d11356d626b4", "rental_uris": {"ios": "https://dc.lft.to/lastmile_qr_scan", "android": "https://dc.lft.to/lastmile_qr_scan"}, "fusion_lon": 0.0, "lon": -77.0335495, "name": "dffcbf26a1e9304a0440d11356d626b4", "is_reserved": 0, "is_disabled": 0}, {"lat": 38.9271625, "fusion_lat": 0.0, "type": "electric_scooter", "bike_id": "598cfeefb0858b8b5172d4c71e6f8099", "rental_uris": {"ios": "https://dc.lft.to/lastmile_qr_scan", "android": "https://dc.lft.to/lastmile_qr_scan"}, "fusion_lon": 0.0, "lon": -77.02091516666667, "name": "598cfeefb0858b8b5172d4c71e6f8099", "is_reserved": 0, "is_disabled": 0}, {"lat": 38.922345, "fusion_lat": 0.0, "type": "electric_scooter", "bike_id": "9bf8f2f8381fb6b1d3b2ded027829b04", "rental_uris": {"ios": "https://dc.lft.to/lastmile_qr_scan", "android": "https://dc.lft.to/lastmile_qr_scan"}, "fusion_lon": 0.0, "lon": -77.028236, "name": "9bf8f2f8381fb6b1d3b2ded027829b04", "is_reserved": 0, "is_disabled": 0}, {"lat": 38.9004105, "fusion_lat": 0.0, "type": "electric_scooter", "bike_id": "218a7d83c62053be01ec7fc9f3b945d4", "rental_uris": {"ios": "https://dc.lft.to/lastmile_qr_scan", "android": "https://dc.lft.to/lastmile_qr_scan"}, "fusion_lon": 0.0, "lon": -77.02420083333334, "name": "218a7d83c62053be01ec7fc9f3b945d4", "is_reserved": 0, "is_disabled": 0}, {"lat": 38.91028983333333, "fusion_lat": 0.0, "type": "electric_scooter", "bike_id": "adb4374809aa3f8df2109c64f319024e", "rental_uris": {"ios": "https://dc.lft.to/lastmile_qr_scan", "android": "https://dc.lft.to/lastmile_qr_scan"}, "fusion_lon": 0.0, "lon": -77.033007, "name": "adb4374809aa3f8df2109c64f319024e", "is_reserved": 0, "is_disabled": 0}, {"lat": 38.937047666666665, "fusion_lat": 0.0, "type": "electric_scooter", "bike_id": "3163e768d695276d16e9d98e8c905d76", "rental_uris": {"ios": "https://dc.lft.to/lastmile_qr_scan", "android": "https://dc.lft.to/lastmile_qr_scan"}, "fusion_lon": 0.0, "lon": -77.05597883333333, "name": "3163e768d695276d16e9d98e8c905d76", "is_reserved": 0, "is_disabled": 0}, {"lat": 38.9118665, "fusion_lat": 0.0, "type": "electric_scooter", "bike_id": "1e516237398b84f318fbd441eb458ce9", "rental_uris": {"ios": "https://dc.lft.to/lastmile_qr_scan", "android": "https://dc.lft.to/lastmile_qr_scan"}, "fusion_lon": 0.0, "lon": -77.03860983333334, "name": "1e516237398b84f318fbd441eb458ce9", "is_reserved": 0, "is_disabled": 0}, {"lat": 38.871857166666665, "fusion_lat": 0.0, "type": "electric_scooter", "bike_id": "3a18b035b06a0189719373d71aa3e6f4", "rental_uris": {"ios": "https://dc.lft.to/lastmile_qr_scan", "android": "https://dc.lft.to/lastmile_qr_scan"}, "fusion_lon": 0.0, "lon": -77.00639916666667, "name": "3a18b035b06a0189719373d71aa3e6f4", "is_reserved": 0, "is_disabled": 0}, {"lat": 38.90643433333334, "fusion_lat": 0.0, "type": "electric_scooter", "bike_id": "af6bede63fdd9725114b114b7c796607", "rental_uris": {"ios": "https://dc.lft.to/lastmile_qr_scan", "android": "https://dc.lft.to/lastmile_qr_scan"}, "fusion_lon": 0.0, "lon": -77.0176285, "name": "af6bede63fdd9725114b114b7c796607", "is_reserved": 0, "is_disabled": 0}, {"lat": 38.907224666666664, "fusion_lat": 0.0, "type": "electric_scooter", "bike_id": "6e7cb77776c77190829a6c5d85ab2d78", "rental_uris": {"ios": "https://dc.lft.to/lastmile_qr_scan", "android": "https://dc.lft.to/lastmile_qr_scan"}, "fusion_lon": 0.0, "lon": -77.041679, "name": "6e7cb77776c77190829a6c5d85ab2d78", "is_reserved": 0, "is_disabled": 0}, {"lat": 38.919901833333334, "fusion_lat": 0.0, "type": "electric_scooter", "bike_id": "8d441d42c738a6414829719c6a8037c1", "rental_uris": {"ios": "https://dc.lft.to/lastmile_qr_scan", "android": "https://dc.lft.to/lastmile_qr_scan"}, "fusion_lon": 0.0, "lon": -77.0323345, "name": "8d441d42c738a6414829719c6a8037c1", "is_reserved": 0, "is_disabled": 0}, {"lat": 38.89253316666667, "fusion_lat": 0.0, "type": "electric_scooter", "bike_id": "457328a3cedd303135ff8e86ad74b53b", "rental_uris": {"ios": "https://dc.lft.to/lastmile_qr_scan", "android": "https://dc.lft.to/lastmile_qr_scan"}, "fusion_lon": 0.0, "lon": -77.00345916666667, "name": "457328a3cedd303135ff8e86ad74b53b", "is_reserved": 0, "is_disabled": 0}, {"lat": 38.909797833333336, "fusion_lat": 0.0, "type": "electric_scooter", "bike_id": "f0cf929ff3ddce96350ac1d0e1f18236", "rental_uris": {"ios": "https://dc.lft.to/lastmile_qr_scan", "android": "https://dc.lft.to/lastmile_qr_scan"}, "fusion_lon": 0.0, "lon": -77.03180616666667, "name": "f0cf929ff3ddce96350ac1d0e1f18236", "is_reserved": 0, "is_disabled": 0}, {"lat": 38.91590816666667, "fusion_lat": 0.0, "type": "electric_scooter", "bike_id": "7b5a890944a95ecb4461eb0c0c1f660b", "rental_uris": {"ios": "https://dc.lft.to/lastmile_qr_scan", "android": "https://dc.lft.to/lastmile_qr_scan"}, "fusion_lon": 0.0, "lon": -77.04470116666667, "name": "7b5a890944a95ecb4461eb0c0c1f660b", "is_reserved": 0, "is_disabled": 0}, {"lat": 38.9189365, "fusion_lat": 0.0, "type": "electric_scooter", "bike_id": "e5632c1b0cdfa20de9a2b57c9034e387", "rental_uris": {"ios": "https://dc.lft.to/lastmile_qr_scan", "android": "https://dc.lft.to/lastmile_qr_scan"}, "fusion_lon": 0.0, "lon": -77.0462195, "name": "e5632c1b0cdfa20de9a2b57c9034e387", "is_reserved": 0, "is_disabled": 0}, {"lat": 38.88755166666667, "fusion_lat": 0.0, "type": "electric_scooter", "bike_id": "51a00feb7b4a79bb21df04254fb309c8", "rental_uris": {"ios": "https://dc.lft.to/lastmile_qr_scan", "android": "https://dc.lft.to/lastmile_qr_scan"}, "fusion_lon": 0.0, "lon": -76.996039, "name": "51a00feb7b4a79bb21df04254fb309c8", "is_reserved": 0, "is_disabled": 0}, {"lat": 38.902385833333334, "fusion_lat": 0.0, "type": "electric_scooter", "bike_id": "88c895f439b7e5dad2976a60eb10b988", "rental_uris": {"ios": "https://dc.lft.to/lastmile_qr_scan", "android": "https://dc.lft.to/lastmile_qr_scan"}, "fusion_lon": 0.0, "lon": -77.0019885, "name": "88c895f439b7e5dad2976a60eb10b988", "is_reserved": 0, "is_disabled": 0}, {"lat": 38.848475666666666, "fusion_lat": 0.0, "type": "electric_bike", "bike_id": "23d583f811c312d6b17309a91dbde946", "rental_uris": {"ios": "https://dc.lft.to/lastmile_qr_scan", "android": "https://dc.lft.to/lastmile_qr_scan"}, "fusion_lon": 0.0, "lon": -77.08488933333334, "name": "23d583f811c312d6b17309a91dbde946", "is_reserved": 0, "is_disabled": 0}, {"lat": 38.935638833333336, "fusion_lat": 0.0, "type": "electric_scooter", "bike_id": "1b268aa7fc964ed0dd95485781cb8a26", "rental_uris": {"ios": "https://dc.lft.to/lastmile_qr_scan", "android": "https://dc.lft.to/lastmile_qr_scan"}, "fusion_lon": 0.0, "lon": -77.07456933333333, "name": "1b268aa7fc964ed0dd95485781cb8a26", "is_reserved": 0, "is_disabled": 0}, {"lat": 38.93536066666667, "fusion_lat": 0.0, "type": "electric_scooter", "bike_id": "074ca3198e408cc1ed500cd5b3b31db9", "rental_uris": {"ios": "https://dc.lft.to/lastmile_qr_scan", "android": "https://dc.lft.to/lastmile_qr_scan"}, "fusion_lon": 0.0, "lon": -77.03473216666667, "name": "074ca3198e408cc1ed500cd5b3b31db9", "is_reserved": 0, "is_disabled": 0}, {"lat": 38.909737, "fusion_lat": 0.0, "type": "electric_scooter", "bike_id": "8599f64ee2b0433b7aa1f4157a990083", "rental_uris": {"ios": "https://dc.lft.to/lastmile_qr_scan", "android": "https://dc.lft.to/lastmile_qr_scan"}, "fusion_lon": 0.0, "lon": -77.051894, "name": "8599f64ee2b0433b7aa1f4157a990083", "is_reserved": 0, "is_disabled": 0}, {"lat": 38.92431333333333, "fusion_lat": 0.0, "type": "electric_scooter", "bike_id": "fb39c5e0fbfe4bfcfe249ece36d00f3b", "rental_uris": {"ios": "https://dc.lft.to/lastmile_qr_scan", "android": "https://dc.lft.to/lastmile_qr_scan"}, "fusion_lon": 0.0, "lon": -76.99713183333333, "name": "fb39c5e0fbfe4bfcfe249ece36d00f3b", "is_reserved": 0, "is_disabled": 0}, {"lat": 38.9735215, "fusion_lat": 0.0, "type": "electric_scooter", "bike_id": "779c868929383cda43d9593392989975", "rental_uris": {"ios": "https://dc.lft.to/lastmile_qr_scan", "android": "https://dc.lft.to/lastmile_qr_scan"}, "fusion_lon": 0.0, "lon": -77.027827, "name": "779c868929383cda43d9593392989975", "is_reserved": 0, "is_disabled": 0}, {"lat": 38.86395133333333, "fusion_lat": 0.0, "type": "electric_bike", "bike_id": "ebe5bffacba5e897cabf94d92388ce41", "rental_uris": {"ios": "https://dc.lft.to/lastmile_qr_scan", "android": "https://dc.lft.to/lastmile_qr_scan"}, "fusion_lon": 0.0, "lon": -77.20111016666667, "name": "ebe5bffacba5e897cabf94d92388ce41", "is_reserved": 0, "is_disabled": 0}, {"lat": 38.885309666666664, "fusion_lat": 0.0, "type": "electric_scooter", "bike_id": "cf6af15db67f915528215b46b3fd76e3", "rental_uris": {"ios": "https://dc.lft.to/lastmile_qr_scan", "android": "https://dc.lft.to/lastmile_qr_scan"}, "fusion_lon": 0.0, "lon": -77.02192383333333, "name": "cf6af15db67f915528215b46b3fd76e3", "is_reserved": 0, "is_disabled": 0}, {"lat": 38.8935745, "fusion_lat": 0.0, "type": "electric_scooter", "bike_id": "386da28f8b3344d543334fe4e7e2d604", "rental_uris": {"ios": "https://dc.lft.to/lastmile_qr_scan", "android": "https://dc.lft.to/lastmile_qr_scan"}, "fusion_lon": 0.0, "lon": -77.00338633333334, "name": "386da28f8b3344d543334fe4e7e2d604", "is_reserved": 0, "is_disabled": 0}, {"lat": 38.89728616666667, "fusion_lat": 0.0, "type": "electric_scooter", "bike_id": "cc33933868bee584c1d36144c0e0fa6d", "rental_uris": {"ios": "https://dc.lft.to/lastmile_qr_scan", "android": "https://dc.lft.to/lastmile_qr_scan"}, "fusion_lon": 0.0, "lon": -77.04808783333333, "name": "cc33933868bee584c1d36144c0e0fa6d", "is_reserved": 0, "is_disabled": 0}, {"lat": 38.9180205, "fusion_lat": 0.0, "type": "electric_scooter", "bike_id": "e798b205181220e5ce4e6fc25350cfc7", "rental_uris": {"ios": "https://dc.lft.to/lastmile_qr_scan", "android": "https://dc.lft.to/lastmile_qr_scan"}, "fusion_lon": 0.0, "lon": -77.02488266666667, "name": "e798b205181220e5ce4e6fc25350cfc7", "is_reserved": 0, "is_disabled": 0}, {"lat": 38.9073015, "fusion_lat": 0.0, "type": "electric_scooter", "bike_id": "9a8fe441a5b551d456675830b0adc72d", "rental_uris": {"ios": "https://dc.lft.to/lastmile_qr_scan", "android": "https://dc.lft.to/lastmile_qr_scan"}, "fusion_lon": 0.0, "lon": -77.057031, "name": "9a8fe441a5b551d456675830b0adc72d", "is_reserved": 0, "is_disabled": 0}, {"lat": 38.898245, "fusion_lat": 0.0, "type": "electric_scooter", "bike_id": "88e833d730e5b312f5c2b22d2701a698", "rental_uris": {"ios": "https://dc.lft.to/lastmile_qr_scan", "android": "https://dc.lft.to/lastmile_qr_scan"}, "fusion_lon": 0.0, "lon": -76.9465265, "name": "88e833d730e5b312f5c2b22d2701a698", "is_reserved": 0, "is_disabled": 0}, {"lat": 38.907639333333336, "fusion_lat": 0.0, "type": "electric_scooter", "bike_id": "2fc84652e43600cf0ae16d52ff863b97", "rental_uris": {"ios": "https://dc.lft.to/lastmile_qr_scan", "android": "https://dc.lft.to/lastmile_qr_scan"}, "fusion_lon": 0.0, "lon": -77.009093, "name": "2fc84652e43600cf0ae16d52ff863b97", "is_reserved": 0, "is_disabled": 0}, {"lat": 38.84195866666666, "fusion_lat": 0.0, "type": "electric_bike", "bike_id": "39d7e520c88dc056e1ceba235267d67d", "rental_uris": {"ios": "https://dc.lft.to/lastmile_qr_scan", "android": "https://dc.lft.to/lastmile_qr_scan"}, "fusion_lon": 0.0, "lon": -77.06754033333333, "name": "39d7e520c88dc056e1ceba235267d67d", "is_reserved": 0, "is_disabled": 0}, {"lat": 38.89941983333333, "fusion_lat": 0.0, "type": "electric_scooter", "bike_id": "27f0db7e7d37b7fbac5166c3885d9852", "rental_uris": {"ios": "https://dc.lft.to/lastmile_qr_scan", "android": "https://dc.lft.to/lastmile_qr_scan"}, "fusion_lon": 0.0, "lon": -77.04152083333334, "name": "27f0db7e7d37b7fbac5166c3885d9852", "is_reserved": 0, "is_disabled": 0}, {"lat": 38.910493, "fusion_lat": 0.0, "type": "electric_bike", "bike_id": "442206cc3022655bb5bf0070b414f99d", "rental_uris": {"ios": "https://dc.lft.to/lastmile_qr_scan", "android": "https://dc.lft.to/lastmile_qr_scan"}, "fusion_lon": 0.0, "lon": -77.075482, "name": "442206cc3022655bb5bf0070b414f99d", "is_reserved": 0, "is_disabled": 0}, {"lat": 38.92685633333333, "fusion_lat": 0.0, "type": "electric_scooter", "bike_id": "413872ec6d2a53c0ab54dcc821316aa4", "rental_uris": {"ios": "https://dc.lft.to/lastmile_qr_scan", "android": "https://dc.lft.to/lastmile_qr_scan"}, "fusion_lon": 0.0, "lon": -77.02777883333333, "name": "413872ec6d2a53c0ab54dcc821316aa4", "is_reserved": 0, "is_disabled": 0}, {"lat": 38.92411966666667, "fusion_lat": 0.0, "type": "electric_scooter", "bike_id": "24f372620fb56a9e111caaa2abcab838", "rental_uris": {"ios": "https://dc.lft.to/lastmile_qr_scan", "android": "https://dc.lft.to/lastmile_qr_scan"}, "fusion_lon": 0.0, "lon": -77.01948116666667, "name": "24f372620fb56a9e111caaa2abcab838", "is_reserved": 0, "is_disabled": 0}, {"lat": 38.936286333333335, "fusion_lat": 0.0, "type": "electric_scooter", "bike_id": "5810093ac45390692b2d6146e4f56792", "rental_uris": {"ios": "https://dc.lft.to/lastmile_qr_scan", "android": "https://dc.lft.to/lastmile_qr_scan"}, "fusion_lon": 0.0, "lon": -77.05873916666667, "name": "5810093ac45390692b2d6146e4f56792", "is_reserved": 0, "is_disabled": 0}, {"lat": 38.902085166666666, "fusion_lat": 0.0, "type": "electric_scooter", "bike_id": "39aba8b0d36652aa063fbb054aa7fd01", "rental_uris": {"ios": "https://dc.lft.to/lastmile_qr_scan", "android": "https://dc.lft.to/lastmile_qr_scan"}, "fusion_lon": 0.0, "lon": -76.98207166666667, "name": "39aba8b0d36652aa063fbb054aa7fd01", "is_reserved": 0, "is_disabled": 0}, {"lat": 38.89621733333333, "fusion_lat": 0.0, "type": "electric_scooter", "bike_id": "8ada792636369aade72dd0f39a5b1d4b", "rental_uris": {"ios": "https://dc.lft.to/lastmile_qr_scan", "android": "https://dc.lft.to/lastmile_qr_scan"}, "fusion_lon": 0.0, "lon": -77.050258, "name": "8ada792636369aade72dd0f39a5b1d4b", "is_reserved": 0, "is_disabled": 0}, {"lat": 38.915600166666664, "fusion_lat": 0.0, "type": "electric_scooter", "bike_id": "542fc19eedd98bd7dff37fc6555a79c4", "rental_uris": {"ios": "https://dc.lft.to/lastmile_qr_scan", "android": "https://dc.lft.to/lastmile_qr_scan"}, "fusion_lon": 0.0, "lon": -77.02518733333334, "name": "542fc19eedd98bd7dff37fc6555a79c4", "is_reserved": 0, "is_disabled": 0}, {"lat": 38.8961125, "fusion_lat": 0.0, "type": "electric_scooter", "bike_id": "c05608f1a27c411ea1bb38aa8fbf2e5f", "rental_uris": {"ios": "https://dc.lft.to/lastmile_qr_scan", "android": "https://dc.lft.to/lastmile_qr_scan"}, "fusion_lon": 0.0, "lon": -77.04610866666667, "name": "c05608f1a27c411ea1bb38aa8fbf2e5f", "is_reserved": 0, "is_disabled": 0}, {"lat": 38.910008, "fusion_lat": 0.0, "type": "electric_scooter", "bike_id": "dc073c857c453790316a3ae50b77e3cf", "rental_uris": {"ios": "https://dc.lft.to/lastmile_qr_scan", "android": "https://dc.lft.to/lastmile_qr_scan"}, "fusion_lon": 0.0, "lon": -77.032006, "name": "dc073c857c453790316a3ae50b77e3cf", "is_reserved": 0, "is_disabled": 0}, {"lat": 38.86488683333334, "fusion_lat": 0.0, "type": "electric_bike", "bike_id": "1a8898ff20aee348010cfb42c1eea39c", "rental_uris": {"ios": "https://dc.lft.to/lastmile_qr_scan", "android": "https://dc.lft.to/lastmile_qr_scan"}, "fusion_lon": 0.0, "lon": -76.97743416666667, "name": "1a8898ff20aee348010cfb42c1eea39c", "is_reserved": 0, "is_disabled": 0}, {"lat": 39.086168666666666, "fusion_lat": 0.0, "type": "electric_bike", "bike_id": "f5ba056fb0da6b305f136f04215edca8", "rental_uris": {"ios": "https://dc.lft.to/lastmile_qr_scan", "android": "https://dc.lft.to/lastmile_qr_scan"}, "fusion_lon": 0.0, "lon": -77.15255766666667, "name": "f5ba056fb0da6b305f136f04215edca8", "is_reserved": 0, "is_disabled": 0}, {"lat": 38.90133216666667, "fusion_lat": 0.0, "type": "electric_scooter", "bike_id": "da1e8a8db2d3e7f501d5223d2a88a4e1", "rental_uris": {"ios": "https://dc.lft.to/lastmile_qr_scan", "android": "https://dc.lft.to/lastmile_qr_scan"}, "fusion_lon": 0.0, "lon": -77.042946, "name": "da1e8a8db2d3e7f501d5223d2a88a4e1", "is_reserved": 0, "is_disabled": 0}, {"lat": 38.875334333333335, "fusion_lat": 0.0, "type": "electric_scooter", "bike_id": "3438696ecb2bae1e8e1197d8ad3fd92e", "rental_uris": {"ios": "https://dc.lft.to/lastmile_qr_scan", "android": "https://dc.lft.to/lastmile_qr_scan"}, "fusion_lon": 0.0, "lon": -77.0056235, "name": "3438696ecb2bae1e8e1197d8ad3fd92e", "is_reserved": 0, "is_disabled": 0}, {"lat": 38.897476166666664, "fusion_lat": 0.0, "type": "electric_scooter", "bike_id": "ea0d18f478cfe033119a750f06acaab6", "rental_uris": {"ios": "https://dc.lft.to/lastmile_qr_scan", "android": "https://dc.lft.to/lastmile_qr_scan"}, "fusion_lon": 0.0, "lon": -77.02787866666667, "name": "ea0d18f478cfe033119a750f06acaab6", "is_reserved": 0, "is_disabled": 0}, {"lat": 38.878849333333335, "fusion_lat": 0.0, "type": "electric_scooter", "bike_id": "df479597309ddd45831300f23d84f1bc", "rental_uris": {"ios": "https://dc.lft.to/lastmile_qr_scan", "android": "https://dc.lft.to/lastmile_qr_scan"}, "fusion_lon": 0.0, "lon": -77.02311716666667, "name": "df479597309ddd45831300f23d84f1bc", "is_reserved": 0, "is_disabled": 0}, {"lat": 38.91712966666667, "fusion_lat": 0.0, "type": "electric_scooter", "bike_id": "2842f0801aa53e0ce9c3d1963910d8a0", "rental_uris": {"ios": "https://dc.lft.to/lastmile_qr_scan", "android": "https://dc.lft.to/lastmile_qr_scan"}, "fusion_lon": 0.0, "lon": -77.03347233333334, "name": "2842f0801aa53e0ce9c3d1963910d8a0", "is_reserved": 0, "is_disabled": 0}, {"lat": 38.872854333333336, "fusion_lat": 0.0, "type": "electric_bike", "bike_id": "71f5a92d0ddf1e100f257de61d8f9db9", "rental_uris": {"ios": "https://dc.lft.to/lastmile_qr_scan", "android": "https://dc.lft.to/lastmile_qr_scan"}, "fusion_lon": 0.0, "lon": -77.23317833333333, "name": "71f5a92d0ddf1e100f257de61d8f9db9", "is_reserved": 0, "is_disabled": 0}, {"lat": 38.90698316666667, "fusion_lat": 0.0, "type": "electric_scooter", "bike_id": "29e8a4c7f7d9c410fcac132d7476e8e5", "rental_uris": {"ios": "https://dc.lft.to/lastmile_qr_scan", "android": "https://dc.lft.to/lastmile_qr_scan"}, "fusion_lon": 0.0, "lon": -76.98854333333334, "name": "29e8a4c7f7d9c410fcac132d7476e8e5", "is_reserved": 0, "is_disabled": 0}, {"lat": 38.90206, "fusion_lat": 0.0, "type": "electric_scooter", "bike_id": "4c16790d5fbb23251233f7a1069ca9e0", "rental_uris": {"ios": "https://dc.lft.to/lastmile_qr_scan", "android": "https://dc.lft.to/lastmile_qr_scan"}, "fusion_lon": 0.0, "lon": -77.02376483333333, "name": "4c16790d5fbb23251233f7a1069ca9e0", "is_reserved": 0, "is_disabled": 0}, {"lat": 38.922279, "fusion_lat": 0.0, "type": "electric_scooter", "bike_id": "bf0bbc3acc018c411a1e67c846facf06", "rental_uris": {"ios": "https://dc.lft.to/lastmile_qr_scan", "android": "https://dc.lft.to/lastmile_qr_scan"}, "fusion_lon": 0.0, "lon": -77.04402016666667, "name": "bf0bbc3acc018c411a1e67c846facf06", "is_reserved": 0, "is_disabled": 0}, {"lat": 38.926118833333334, "fusion_lat": 0.0, "type": "electric_scooter", "bike_id": "972b7b212d6884a854c894d87c68e280", "rental_uris": {"ios": "https://dc.lft.to/lastmile_qr_scan", "android": "https://dc.lft.to/lastmile_qr_scan"}, "fusion_lon": 0.0, "lon": -77.021599, "name": "972b7b212d6884a854c894d87c68e280", "is_reserved": 0, "is_disabled": 0}, {"lat": 38.89891933333333, "fusion_lat": 0.0, "type": "electric_scooter", "bike_id": "805819c2ed76778e88302dc0c9f83b60", "rental_uris": {"ios": "https://dc.lft.to/lastmile_qr_scan", "android": "https://dc.lft.to/lastmile_qr_scan"}, "fusion_lon": 0.0, "lon": -77.008239, "name": "805819c2ed76778e88302dc0c9f83b60", "is_reserved": 0, "is_disabled": 0}, {"lat": 38.831593833333336, "fusion_lat": 0.0, "type": "electric_bike", "bike_id": "29ce1cd4235806772c0beed561204008", "rental_uris": {"ios": "https://dc.lft.to/lastmile_qr_scan", "android": "https://dc.lft.to/lastmile_qr_scan"}, "fusion_lon": 0.0, "lon": -76.995712, "name": "29ce1cd4235806772c0beed561204008", "is_reserved": 0, "is_disabled": 0}, {"lat": 38.874129833333335, "fusion_lat": 0.0, "type": "electric_scooter", "bike_id": "ae1b53b247b587f271c449c1a029e084", "rental_uris": {"ios": "https://dc.lft.to/lastmile_qr_scan", "android": "https://dc.lft.to/lastmile_qr_scan"}, "fusion_lon": 0.0, "lon": -77.00204816666667, "name": "ae1b53b247b587f271c449c1a029e084", "is_reserved": 0, "is_disabled": 0}, {"lat": 38.921225666666665, "fusion_lat": 0.0, "type": "electric_scooter", "bike_id": "040ac962b6e6a9442f4efdbb525f9929", "rental_uris": {"ios": "https://dc.lft.to/lastmile_qr_scan", "android": "https://dc.lft.to/lastmile_qr_scan"}, "fusion_lon": 0.0, "lon": -77.012078, "name": "040ac962b6e6a9442f4efdbb525f9929", "is_reserved": 0, "is_disabled": 0}, {"lat": 38.87823133333333, "fusion_lat": 0.0, "type": "electric_scooter", "bike_id": "fd61116aca99bc284c992f39c832de86", "rental_uris": {"ios": "https://dc.lft.to/lastmile_qr_scan", "android": "https://dc.lft.to/lastmile_qr_scan"}, "fusion_lon": 0.0, "lon": -76.99607716666667, "name": "fd61116aca99bc284c992f39c832de86", "is_reserved": 0, "is_disabled": 0}, {"lat": 38.916012333333335, "fusion_lat": 0.0, "type": "electric_scooter", "bike_id": "9387de74983a45306c58f0b012248d8f", "rental_uris": {"ios": "https://dc.lft.to/lastmile_qr_scan", "android": "https://dc.lft.to/lastmile_qr_scan"}, "fusion_lon": 0.0, "lon": -77.0490475, "name": "9387de74983a45306c58f0b012248d8f", "is_reserved": 0, "is_disabled": 0}, {"lat": 38.920269, "fusion_lat": 0.0, "type": "electric_scooter", "bike_id": "c44989f413076c513628c500d9c9b28b", "rental_uris": {"ios": "https://dc.lft.to/lastmile_qr_scan", "android": "https://dc.lft.to/lastmile_qr_scan"}, "fusion_lon": 0.0, "lon": -77.071628, "name": "c44989f413076c513628c500d9c9b28b", "is_reserved": 0, "is_disabled": 0}, {"lat": 38.88216466666667, "fusion_lat": 0.0, "type": "electric_scooter", "bike_id": "9f3db2cd6f36653102fe01fd3408a5ca", "rental_uris": {"ios": "https://dc.lft.to/lastmile_qr_scan", "android": "https://dc.lft.to/lastmile_qr_scan"}, "fusion_lon": 0.0, "lon": -77.017469, "name": "9f3db2cd6f36653102fe01fd3408a5ca", "is_reserved": 0, "is_disabled": 0}, {"lat": 38.92343733333333, "fusion_lat": 0.0, "type": "electric_scooter", "bike_id": "08ade0f0ccc887142478baef81878911", "rental_uris": {"ios": "https://dc.lft.to/lastmile_qr_scan", "android": "https://dc.lft.to/lastmile_qr_scan"}, "fusion_lon": 0.0, "lon": -77.05168416666666, "name": "08ade0f0ccc887142478baef81878911", "is_reserved": 0, "is_disabled": 0}, {"lat": 38.90168383333334, "fusion_lat": 0.0, "type": "electric_scooter", "bike_id": "51547948e85d426a0bb6be823ef38000", "rental_uris": {"ios": "https://dc.lft.to/lastmile_qr_scan", "android": "https://dc.lft.to/lastmile_qr_scan"}, "fusion_lon": 0.0, "lon": -77.0271545, "name": "51547948e85d426a0bb6be823ef38000", "is_reserved": 0, "is_disabled": 0}, {"lat": 38.88401183333333, "fusion_lat": 0.0, "type": "electric_scooter", "bike_id": "65b657bff63b05c61dd90f2aaa0f365c", "rental_uris": {"ios": "https://dc.lft.to/lastmile_qr_scan", "android": "https://dc.lft.to/lastmile_qr_scan"}, "fusion_lon": 0.0, "lon": -77.00804566666666, "name": "65b657bff63b05c61dd90f2aaa0f365c", "is_reserved": 0, "is_disabled": 0}, {"lat": 38.900474333333335, "fusion_lat": 0.0, "type": "electric_scooter", "bike_id": "2f4a1b194aef9c4b0a059d6625e7fbbf", "rental_uris": {"ios": "https://dc.lft.to/lastmile_qr_scan", "android": "https://dc.lft.to/lastmile_qr_scan"}, "fusion_lon": 0.0, "lon": -77.03978166666667, "name": "2f4a1b194aef9c4b0a059d6625e7fbbf", "is_reserved": 0, "is_disabled": 0}, {"lat": 38.9007035, "fusion_lat": 0.0, "type": "electric_scooter", "bike_id": "e9d958c5b098c0a0ee3301717c7e5648", "rental_uris": {"ios": "https://dc.lft.to/lastmile_qr_scan", "android": "https://dc.lft.to/lastmile_qr_scan"}, "fusion_lon": 0.0, "lon": -77.04487333333333, "name": "e9d958c5b098c0a0ee3301717c7e5648", "is_reserved": 0, "is_disabled": 0}, {"lat": 38.91203433333333, "fusion_lat": 0.0, "type": "electric_scooter", "bike_id": "9b11e1b48a3c827f904dc1f08fd28ecd", "rental_uris": {"ios": "https://dc.lft.to/lastmile_qr_scan", "android": "https://dc.lft.to/lastmile_qr_scan"}, "fusion_lon": 0.0, "lon": -77.045306, "name": "9b11e1b48a3c827f904dc1f08fd28ecd", "is_reserved": 0, "is_disabled": 0}, {"lat": 38.90000233333333, "fusion_lat": 0.0, "type": "electric_scooter", "bike_id": "c745d7f3ff6d49604df6f33d41f5b34a", "rental_uris": {"ios": "https://dc.lft.to/lastmile_qr_scan", "android": "https://dc.lft.to/lastmile_qr_scan"}, "fusion_lon": 0.0, "lon": -77.00649316666667, "name": "c745d7f3ff6d49604df6f33d41f5b34a", "is_reserved": 0, "is_disabled": 0}, {"lat": 38.903147, "fusion_lat": 0.0, "type": "electric_scooter", "bike_id": "36c5d9e5b91850acd5a685a100d51452", "rental_uris": {"ios": "https://dc.lft.to/lastmile_qr_scan", "android": "https://dc.lft.to/lastmile_qr_scan"}, "fusion_lon": 0.0, "lon": -77.0331575, "name": "36c5d9e5b91850acd5a685a100d51452", "is_reserved": 0, "is_disabled": 0}, {"lat": 38.922317666666665, "fusion_lat": 0.0, "type": "electric_scooter", "bike_id": "5b78f2088746a11d16efbf41cf8afe3d", "rental_uris": {"ios": "https://dc.lft.to/lastmile_qr_scan", "android": "https://dc.lft.to/lastmile_qr_scan"}, "fusion_lon": 0.0, "lon": -77.02011016666667, "name": "5b78f2088746a11d16efbf41cf8afe3d", "is_reserved": 0, "is_disabled": 0}, {"lat": 38.897188166666666, "fusion_lat": 0.0, "type": "electric_scooter", "bike_id": "872d544b6e086c16ac53a819f433a154", "rental_uris": {"ios": "https://dc.lft.to/lastmile_qr_scan", "android": "https://dc.lft.to/lastmile_qr_scan"}, "fusion_lon": 0.0, "lon": -77.007967, "name": "872d544b6e086c16ac53a819f433a154", "is_reserved": 0, "is_disabled": 0}, {"lat": 38.91046983333333, "fusion_lat": 0.0, "type": "electric_scooter", "bike_id": "9687a5e49322abd4055a6a3ade77301d", "rental_uris": {"ios": "https://dc.lft.to/lastmile_qr_scan", "android": "https://dc.lft.to/lastmile_qr_scan"}, "fusion_lon": 0.0, "lon": -77.0426005, "name": "9687a5e49322abd4055a6a3ade77301d", "is_reserved": 0, "is_disabled": 0}, {"lat": 38.8876805, "fusion_lat": 0.0, "type": "electric_scooter", "bike_id": "3922e73ba7964e13e6612f0eb6660023", "rental_uris": {"ios": "https://dc.lft.to/lastmile_qr_scan", "android": "https://dc.lft.to/lastmile_qr_scan"}, "fusion_lon": 0.0, "lon": -76.98689883333333, "name": "3922e73ba7964e13e6612f0eb6660023", "is_reserved": 0, "is_disabled": 0}, {"lat": 38.922665333333335, "fusion_lat": 0.0, "type": "electric_scooter", "bike_id": "c661cf96f5733fa7ec7bea8ab2b0c578", "rental_uris": {"ios": "https://dc.lft.to/lastmile_qr_scan", "android": "https://dc.lft.to/lastmile_qr_scan"}, "fusion_lon": 0.0, "lon": -77.02963233333334, "name": "c661cf96f5733fa7ec7bea8ab2b0c578", "is_reserved": 0, "is_disabled": 0}, {"lat": 38.90669233333333, "fusion_lat": 0.0, "type": "electric_scooter", "bike_id": "359bd661af936b770ad3a41757b43262", "rental_uris": {"ios": "https://dc.lft.to/lastmile_qr_scan", "android": "https://dc.lft.to/lastmile_qr_scan"}, "fusion_lon": 0.0, "lon": -77.02710233333333, "name": "359bd661af936b770ad3a41757b43262", "is_reserved": 0, "is_disabled": 0}, {"lat": 38.90128933333333, "fusion_lat": 0.0, "type": "electric_scooter", "bike_id": "611e1a41ff81284b64f77aae0093d8f4", "rental_uris": {"ios": "https://dc.lft.to/lastmile_qr_scan", "android": "https://dc.lft.to/lastmile_qr_scan"}, "fusion_lon": 0.0, "lon": -77.02538316666667, "name": "611e1a41ff81284b64f77aae0093d8f4", "is_reserved": 0, "is_disabled": 0}, {"lat": 38.89670666666667, "fusion_lat": 0.0, "type": "electric_scooter", "bike_id": "d6cb14214a9b406fc410fb34efcea2a8", "rental_uris": {"ios": "https://dc.lft.to/lastmile_qr_scan", "android": "https://dc.lft.to/lastmile_qr_scan"}, "fusion_lon": 0.0, "lon": -76.93207183333334, "name": "d6cb14214a9b406fc410fb34efcea2a8", "is_reserved": 0, "is_disabled": 0}, {"lat": 38.91802666666667, "fusion_lat": 0.0, "type": "electric_scooter", "bike_id": "a6fa5ac1c46152c59ac0690963ea9b1e", "rental_uris": {"ios": "https://dc.lft.to/lastmile_qr_scan", "android": "https://dc.lft.to/lastmile_qr_scan"}, "fusion_lon": 0.0, "lon": -77.0255735, "name": "a6fa5ac1c46152c59ac0690963ea9b1e", "is_reserved": 0, "is_disabled": 0}, {"lat": 38.874195666666665, "fusion_lat": 0.0, "type": "electric_scooter", "bike_id": "b4a245c08b417d32a226ae784ee43aae", "rental_uris": {"ios": "https://dc.lft.to/lastmile_qr_scan", "android": "https://dc.lft.to/lastmile_qr_scan"}, "fusion_lon": 0.0, "lon": -77.0004455, "name": "b4a245c08b417d32a226ae784ee43aae", "is_reserved": 0, "is_disabled": 0}, {"lat": 38.9232385, "fusion_lat": 0.0, "type": "electric_scooter", "bike_id": "b6be9f4eaa1e3f945009351d1d6dcfd5", "rental_uris": {"ios": "https://dc.lft.to/lastmile_qr_scan", "android": "https://dc.lft.to/lastmile_qr_scan"}, "fusion_lon": 0.0, "lon": -77.01949366666666, "name": "b6be9f4eaa1e3f945009351d1d6dcfd5", "is_reserved": 0, "is_disabled": 0}, {"lat": 38.90604733333333, "fusion_lat": 0.0, "type": "electric_scooter", "bike_id": "3864bf47faf97c5689d2818b80ad7a30", "rental_uris": {"ios": "https://dc.lft.to/lastmile_qr_scan", "android": "https://dc.lft.to/lastmile_qr_scan"}, "fusion_lon": 0.0, "lon": -77.04324583333333, "name": "3864bf47faf97c5689d2818b80ad7a30", "is_reserved": 0, "is_disabled": 0}, {"lat": 38.933316, "fusion_lat": 0.0, "type": "electric_scooter", "bike_id": "8e758ad35a7c5a81ff9c350c26d0cd92", "rental_uris": {"ios": "https://dc.lft.to/lastmile_qr_scan", "android": "https://dc.lft.to/lastmile_qr_scan"}, "fusion_lon": 0.0, "lon": -77.0291545, "name": "8e758ad35a7c5a81ff9c350c26d0cd92", "is_reserved": 0, "is_disabled": 0}, {"lat": 38.90297066666667, "fusion_lat": 0.0, "type": "electric_scooter", "bike_id": "1c6b43adb70c302577227747d2aa6d44", "rental_uris": {"ios": "https://dc.lft.to/lastmile_qr_scan", "android": "https://dc.lft.to/lastmile_qr_scan"}, "fusion_lon": 0.0, "lon": -77.038369, "name": "1c6b43adb70c302577227747d2aa6d44", "is_reserved": 0, "is_disabled": 0}, {"lat": 38.91552383333333, "fusion_lat": 0.0, "type": "electric_scooter", "bike_id": "2050bdb03bcbbc952010a428e4f4bf5a", "rental_uris": {"ios": "https://dc.lft.to/lastmile_qr_scan", "android": "https://dc.lft.to/lastmile_qr_scan"}, "fusion_lon": 0.0, "lon": -76.98373966666666, "name": "2050bdb03bcbbc952010a428e4f4bf5a", "is_reserved": 0, "is_disabled": 0}, {"lat": 38.92499766666667, "fusion_lat": 0.0, "type": "electric_scooter", "bike_id": "4bef4a79f79dc2698432b60f95569fe2", "rental_uris": {"ios": "https://dc.lft.to/lastmile_qr_scan", "android": "https://dc.lft.to/lastmile_qr_scan"}, "fusion_lon": 0.0, "lon": -77.03919283333333, "name": "4bef4a79f79dc2698432b60f95569fe2", "is_reserved": 0, "is_disabled": 0}, {"lat": 38.92254916666667, "fusion_lat": 0.0, "type": "electric_scooter", "bike_id": "44b2e5d4ebde3397536be028b9e3dad4", "rental_uris": {"ios": "https://dc.lft.to/lastmile_qr_scan", "android": "https://dc.lft.to/lastmile_qr_scan"}, "fusion_lon": 0.0, "lon": -77.02434966666667, "name": "44b2e5d4ebde3397536be028b9e3dad4", "is_reserved": 0, "is_disabled": 0}, {"lat": 38.895613833333336, "fusion_lat": 0.0, "type": "electric_scooter", "bike_id": "681adcbe1f3c0605c2bdb160b37c9382", "rental_uris": {"ios": "https://dc.lft.to/lastmile_qr_scan", "android": "https://dc.lft.to/lastmile_qr_scan"}, "fusion_lon": 0.0, "lon": -77.021614, "name": "681adcbe1f3c0605c2bdb160b37c9382", "is_reserved": 0, "is_disabled": 0}, {"lat": 38.961248499999996, "fusion_lat": 0.0, "type": "electric_bike", "bike_id": "29e65e84c3636ed19dd8f6e0baa4b115", "rental_uris": {"ios": "https://dc.lft.to/lastmile_qr_scan", "android": "https://dc.lft.to/lastmile_qr_scan"}, "fusion_lon": 0.0, "lon": -77.03274166666667, "name": "29e65e84c3636ed19dd8f6e0baa4b115", "is_reserved": 0, "is_disabled": 0}, {"lat": 38.95205633333333, "fusion_lat": 0.0, "type": "electric_scooter", "bike_id": "7c2539888a23365f59a4278421df03cc", "rental_uris": {"ios": "https://dc.lft.to/lastmile_qr_scan", "android": "https://dc.lft.to/lastmile_qr_scan"}, "fusion_lon": 0.0, "lon": -77.02742066666667, "name": "7c2539888a23365f59a4278421df03cc", "is_reserved": 0, "is_disabled": 0}, {"lat": 38.922557833333336, "fusion_lat": 0.0, "type": "electric_scooter", "bike_id": "f54587985dfd6fb0260ca32cbf22932a", "rental_uris": {"ios": "https://dc.lft.to/lastmile_qr_scan", "android": "https://dc.lft.to/lastmile_qr_scan"}, "fusion_lon": 0.0, "lon": -77.01908266666666, "name": "f54587985dfd6fb0260ca32cbf22932a", "is_reserved": 0, "is_disabled": 0}, {"lat": 38.9169945, "fusion_lat": 0.0, "type": "electric_scooter", "bike_id": "ddd6662c7987005ab9a43fe27bef3dca", "rental_uris": {"ios": "https://dc.lft.to/lastmile_qr_scan", "android": "https://dc.lft.to/lastmile_qr_scan"}, "fusion_lon": 0.0, "lon": -77.0248215, "name": "ddd6662c7987005ab9a43fe27bef3dca", "is_reserved": 0, "is_disabled": 0}, {"lat": 38.89217983333333, "fusion_lat": 0.0, "type": "electric_scooter", "bike_id": "e673c987709756bf004fa1fbbff45197", "rental_uris": {"ios": "https://dc.lft.to/lastmile_qr_scan", "android": "https://dc.lft.to/lastmile_qr_scan"}, "fusion_lon": 0.0, "lon": -77.044619, "name": "e673c987709756bf004fa1fbbff45197", "is_reserved": 0, "is_disabled": 0}, {"lat": 38.9169215, "fusion_lat": 0.0, "type": "electric_scooter", "bike_id": "4569b2c51ecec209f387b84b5cb2c33c", "rental_uris": {"ios": "https://dc.lft.to/lastmile_qr_scan", "android": "https://dc.lft.to/lastmile_qr_scan"}, "fusion_lon": 0.0, "lon": -77.02871166666667, "name": "4569b2c51ecec209f387b84b5cb2c33c", "is_reserved": 0, "is_disabled": 0}, {"lat": 38.9058355, "fusion_lat": 0.0, "type": "electric_scooter", "bike_id": "825008dcb31c40e9c4e7634303dfa229", "rental_uris": {"ios": "https://dc.lft.to/lastmile_qr_scan", "android": "https://dc.lft.to/lastmile_qr_scan"}, "fusion_lon": 0.0, "lon": -77.043344, "name": "825008dcb31c40e9c4e7634303dfa229", "is_reserved": 0, "is_disabled": 0}, {"lat": 38.86268333333334, "fusion_lat": 0.0, "type": "electric_scooter", "bike_id": "e930c0c95df6e72a6229d5da358503f2", "rental_uris": {"ios": "https://dc.lft.to/lastmile_qr_scan", "android": "https://dc.lft.to/lastmile_qr_scan"}, "fusion_lon": 0.0, "lon": -76.995317, "name": "e930c0c95df6e72a6229d5da358503f2", "is_reserved": 0, "is_disabled": 0}, {"lat": 38.936053333333334, "fusion_lat": 0.0, "type": "electric_scooter", "bike_id": "23c15363314275f8c6b0ef1f2c1e4f18", "rental_uris": {"ios": "https://dc.lft.to/lastmile_qr_scan", "android": "https://dc.lft.to/lastmile_qr_scan"}, "fusion_lon": 0.0, "lon": -77.03181933333333, "name": "23c15363314275f8c6b0ef1f2c1e4f18", "is_reserved": 0, "is_disabled": 0}, {"lat": 38.93191, "fusion_lat": 0.0, "type": "electric_scooter", "bike_id": "8db26f9b6474e4ee0d098068d1505831", "rental_uris": {"ios": "https://dc.lft.to/lastmile_qr_scan", "android": "https://dc.lft.to/lastmile_qr_scan"}, "fusion_lon": 0.0, "lon": -77.03460366666667, "name": "8db26f9b6474e4ee0d098068d1505831", "is_reserved": 0, "is_disabled": 0}, {"lat": 38.93907633333333, "fusion_lat": 0.0, "type": "electric_scooter", "bike_id": "7227c77b38a39142d1b1d883382b05ee", "rental_uris": {"ios": "https://dc.lft.to/lastmile_qr_scan", "android": "https://dc.lft.to/lastmile_qr_scan"}, "fusion_lon": 0.0, "lon": -77.0247645, "name": "7227c77b38a39142d1b1d883382b05ee", "is_reserved": 0, "is_disabled": 0}, {"lat": 38.9608445, "fusion_lat": 0.0, "type": "electric_scooter", "bike_id": "0277dc6ccad86c16c8747d885ab30c04", "rental_uris": {"ios": "https://dc.lft.to/lastmile_qr_scan", "android": "https://dc.lft.to/lastmile_qr_scan"}, "fusion_lon": 0.0, "lon": -77.02878933333334, "name": "0277dc6ccad86c16c8747d885ab30c04", "is_reserved": 0, "is_disabled": 0}, {"lat": 38.9191895, "fusion_lat": 0.0, "type": "electric_scooter", "bike_id": "f268daf487d5252296bb4a77d05b33e2", "rental_uris": {"ios": "https://dc.lft.to/lastmile_qr_scan", "android": "https://dc.lft.to/lastmile_qr_scan"}, "fusion_lon": 0.0, "lon": -77.03935766666666, "name": "f268daf487d5252296bb4a77d05b33e2", "is_reserved": 0, "is_disabled": 0}, {"lat": 38.9563545, "fusion_lat": 0.0, "type": "electric_scooter", "bike_id": "8997b98e2698607f363247e1adf8aed2", "rental_uris": {"ios": "https://dc.lft.to/lastmile_qr_scan", "android": "https://dc.lft.to/lastmile_qr_scan"}, "fusion_lon": 0.0, "lon": -77.03298633333333, "name": "8997b98e2698607f363247e1adf8aed2", "is_reserved": 0, "is_disabled": 0}, {"lat": 38.91478466666667, "fusion_lat": 0.0, "type": "electric_scooter", "bike_id": "fc267d43e505d797b6468a62036e1eb2", "rental_uris": {"ios": "https://dc.lft.to/lastmile_qr_scan", "android": "https://dc.lft.to/lastmile_qr_scan"}, "fusion_lon": 0.0, "lon": -77.04613, "name": "fc267d43e505d797b6468a62036e1eb2", "is_reserved": 0, "is_disabled": 0}, {"lat": 38.90871283333333, "fusion_lat": 0.0, "type": "electric_scooter", "bike_id": "36fe5cbbd850321f153edaad639111b2", "rental_uris": {"ios": "https://dc.lft.to/lastmile_qr_scan", "android": "https://dc.lft.to/lastmile_qr_scan"}, "fusion_lon": 0.0, "lon": -77.04333766666667, "name": "36fe5cbbd850321f153edaad639111b2", "is_reserved": 0, "is_disabled": 0}, {"lat": 38.901263666666665, "fusion_lat": 0.0, "type": "electric_scooter", "bike_id": "640eb87a77b6fe73584dc7ae97841104", "rental_uris": {"ios": "https://dc.lft.to/lastmile_qr_scan", "android": "https://dc.lft.to/lastmile_qr_scan"}, "fusion_lon": 0.0, "lon": -77.01656, "name": "640eb87a77b6fe73584dc7ae97841104", "is_reserved": 0, "is_disabled": 0}, {"lat": 38.9010755, "fusion_lat": 0.0, "type": "electric_scooter", "bike_id": "2c06baa8d14aec292509a30e110823c4", "rental_uris": {"ios": "https://dc.lft.to/lastmile_qr_scan", "android": "https://dc.lft.to/lastmile_qr_scan"}, "fusion_lon": 0.0, "lon": -77.04377166666667, "name": "2c06baa8d14aec292509a30e110823c4", "is_reserved": 0, "is_disabled": 0}, {"lat": 38.919490833333334, "fusion_lat": 0.0, "type": "electric_scooter", "bike_id": "554f1a721ee952f73b46a583f9d97bf4", "rental_uris": {"ios": "https://dc.lft.to/lastmile_qr_scan", "android": "https://dc.lft.to/lastmile_qr_scan"}, "fusion_lon": 0.0, "lon": -77.01894583333333, "name": "554f1a721ee952f73b46a583f9d97bf4", "is_reserved": 0, "is_disabled": 0}, {"lat": 38.89458483333333, "fusion_lat": 0.0, "type": "electric_scooter", "bike_id": "8b4aa3207e41233231414cd5aa1b286a", "rental_uris": {"ios": "https://dc.lft.to/lastmile_qr_scan", "android": "https://dc.lft.to/lastmile_qr_scan"}, "fusion_lon": 0.0, "lon": -77.022481, "name": "8b4aa3207e41233231414cd5aa1b286a", "is_reserved": 0, "is_disabled": 0}, {"lat": 38.89994433333333, "fusion_lat": 0.0, "type": "electric_scooter", "bike_id": "afd1c33324b3e53b12ac7b9351baf354", "rental_uris": {"ios": "https://dc.lft.to/lastmile_qr_scan", "android": "https://dc.lft.to/lastmile_qr_scan"}, "fusion_lon": 0.0, "lon": -76.997573, "name": "afd1c33324b3e53b12ac7b9351baf354", "is_reserved": 0, "is_disabled": 0}, {"lat": 38.9073175, "fusion_lat": 0.0, "type": "electric_scooter", "bike_id": "4fedac608c3117c9aa7c3535fa6f7438", "rental_uris": {"ios": "https://dc.lft.to/lastmile_qr_scan", "android": "https://dc.lft.to/lastmile_qr_scan"}, "fusion_lon": 0.0, "lon": -77.003661, "name": "4fedac608c3117c9aa7c3535fa6f7438", "is_reserved": 0, "is_disabled": 0}, {"lat": 38.89728733333333, "fusion_lat": 0.0, "type": "electric_scooter", "bike_id": "aedb79a231f37ada0f2ad4765c5d6a98", "rental_uris": {"ios": "https://dc.lft.to/lastmile_qr_scan", "android": "https://dc.lft.to/lastmile_qr_scan"}, "fusion_lon": 0.0, "lon": -77.05521966666667, "name": "aedb79a231f37ada0f2ad4765c5d6a98", "is_reserved": 0, "is_disabled": 0}, {"lat": 38.896469833333335, "fusion_lat": 0.0, "type": "electric_scooter", "bike_id": "b9f24eed2d46e7480e82b63c19e979ab", "rental_uris": {"ios": "https://dc.lft.to/lastmile_qr_scan", "android": "https://dc.lft.to/lastmile_qr_scan"}, "fusion_lon": 0.0, "lon": -77.00921216666667, "name": "b9f24eed2d46e7480e82b63c19e979ab", "is_reserved": 0, "is_disabled": 0}, {"lat": 38.93903666666667, "fusion_lat": 0.0, "type": "electric_scooter", "bike_id": "8fbd434cd578e0796ddf721f0b81206f", "rental_uris": {"ios": "https://dc.lft.to/lastmile_qr_scan", "android": "https://dc.lft.to/lastmile_qr_scan"}, "fusion_lon": 0.0, "lon": -77.02462683333333, "name": "8fbd434cd578e0796ddf721f0b81206f", "is_reserved": 0, "is_disabled": 0}, {"lat": 38.92345683333333, "fusion_lat": 0.0, "type": "electric_scooter", "bike_id": "a1fe683c8f2301bbf7bab23696b245cc", "rental_uris": {"ios": "https://dc.lft.to/lastmile_qr_scan", "android": "https://dc.lft.to/lastmile_qr_scan"}, "fusion_lon": 0.0, "lon": -77.05173583333334, "name": "a1fe683c8f2301bbf7bab23696b245cc", "is_reserved": 0, "is_disabled": 0}, {"lat": 38.892191333333336, "fusion_lat": 0.0, "type": "electric_scooter", "bike_id": "59368e9943c142a1243e388a2578f48d", "rental_uris": {"ios": "https://dc.lft.to/lastmile_qr_scan", "android": "https://dc.lft.to/lastmile_qr_scan"}, "fusion_lon": 0.0, "lon": -77.02758966666667, "name": "59368e9943c142a1243e388a2578f48d", "is_reserved": 0, "is_disabled": 0}, {"lat": 38.90135933333333, "fusion_lat": 0.0, "type": "electric_scooter", "bike_id": "f09f1672c94deb6dce7f22b4566e5e3b", "rental_uris": {"ios": "https://dc.lft.to/lastmile_qr_scan", "android": "https://dc.lft.to/lastmile_qr_scan"}, "fusion_lon": 0.0, "lon": -77.04421283333333, "name": "f09f1672c94deb6dce7f22b4566e5e3b", "is_reserved": 0, "is_disabled": 0}, {"lat": 38.9077655, "fusion_lat": 0.0, "type": "electric_scooter", "bike_id": "2f07a04f25cd4f03fa7d678362bab39e", "rental_uris": {"ios": "https://dc.lft.to/lastmile_qr_scan", "android": "https://dc.lft.to/lastmile_qr_scan"}, "fusion_lon": 0.0, "lon": -77.07168716666666, "name": "2f07a04f25cd4f03fa7d678362bab39e", "is_reserved": 0, "is_disabled": 0}, {"lat": 38.910140166666665, "fusion_lat": 0.0, "type": "electric_scooter", "bike_id": "8a380bc19972ec1653c41dc4688946b6", "rental_uris": {"ios": "https://dc.lft.to/lastmile_qr_scan", "android": "https://dc.lft.to/lastmile_qr_scan"}, "fusion_lon": 0.0, "lon": -77.03443083333333, "name": "8a380bc19972ec1653c41dc4688946b6", "is_reserved": 0, "is_disabled": 0}, {"lat": 38.90326966666667, "fusion_lat": 0.0, "type": "electric_scooter", "bike_id": "6b65b506c5cfcc305727f360be4b6685", "rental_uris": {"ios": "https://dc.lft.to/lastmile_qr_scan", "android": "https://dc.lft.to/lastmile_qr_scan"}, "fusion_lon": 0.0, "lon": -77.046513, "name": "6b65b506c5cfcc305727f360be4b6685", "is_reserved": 0, "is_disabled": 0}, {"lat": 38.901423333333334, "fusion_lat": 0.0, "type": "electric_scooter", "bike_id": "46633e374c61b14e534e8092576ab4f3", "rental_uris": {"ios": "https://dc.lft.to/lastmile_qr_scan", "android": "https://dc.lft.to/lastmile_qr_scan"}, "fusion_lon": 0.0, "lon": -77.0599125, "name": "46633e374c61b14e534e8092576ab4f3", "is_reserved": 0, "is_disabled": 0}, {"lat": 38.89827316666667, "fusion_lat": 0.0, "type": "electric_bike", "bike_id": "9dfafaa4197ee0c0206732d24fd8780a", "rental_uris": {"ios": "https://dc.lft.to/lastmile_qr_scan", "android": "https://dc.lft.to/lastmile_qr_scan"}, "fusion_lon": 0.0, "lon": -77.0467845, "name": "9dfafaa4197ee0c0206732d24fd8780a", "is_reserved": 0, "is_disabled": 0}, {"lat": 38.92370416666667, "fusion_lat": 0.0, "type": "electric_scooter", "bike_id": "d274d5f15d88ea2ef007c7fa8d1f0934", "rental_uris": {"ios": "https://dc.lft.to/lastmile_qr_scan", "android": "https://dc.lft.to/lastmile_qr_scan"}, "fusion_lon": 0.0, "lon": -77.04107833333333, "name": "d274d5f15d88ea2ef007c7fa8d1f0934", "is_reserved": 0, "is_disabled": 0}, {"lat": 38.91704283333333, "fusion_lat": 0.0, "type": "electric_scooter", "bike_id": "ff567fde1ebdae1b55054658777e6e97", "rental_uris": {"ios": "https://dc.lft.to/lastmile_qr_scan", "android": "https://dc.lft.to/lastmile_qr_scan"}, "fusion_lon": 0.0, "lon": -77.00713116666667, "name": "ff567fde1ebdae1b55054658777e6e97", "is_reserved": 0, "is_disabled": 0}, {"lat": 38.898991, "fusion_lat": 0.0, "type": "electric_bike", "bike_id": "f751335e5f7919d472c32137032b059a", "rental_uris": {"ios": "https://dc.lft.to/lastmile_qr_scan", "android": "https://dc.lft.to/lastmile_qr_scan"}, "fusion_lon": 0.0, "lon": -77.04867566666667, "name": "f751335e5f7919d472c32137032b059a", "is_reserved": 0, "is_disabled": 0}, {"lat": 38.93403083333333, "fusion_lat": 0.0, "type": "electric_scooter", "bike_id": "6edfe1cf6ee1025f38c003de12e37ecc", "rental_uris": {"ios": "https://dc.lft.to/lastmile_qr_scan", "android": "https://dc.lft.to/lastmile_qr_scan"}, "fusion_lon": 0.0, "lon": -77.039883, "name": "6edfe1cf6ee1025f38c003de12e37ecc", "is_reserved": 0, "is_disabled": 0}, {"lat": 39.036062333333334, "fusion_lat": 0.0, "type": "electric_bike", "bike_id": "e9c90110faa1a6c60b5735a08b27935d", "rental_uris": {"ios": "https://dc.lft.to/lastmile_qr_scan", "android": "https://dc.lft.to/lastmile_qr_scan"}, "fusion_lon": 0.0, "lon": -77.05543516666667, "name": "e9c90110faa1a6c60b5735a08b27935d", "is_reserved": 0, "is_disabled": 0}, {"lat": 38.909358166666664, "fusion_lat": 0.0, "type": "electric_scooter", "bike_id": "3062f78cd3f402f7a05afea71b4a56c6", "rental_uris": {"ios": "https://dc.lft.to/lastmile_qr_scan", "android": "https://dc.lft.to/lastmile_qr_scan"}, "fusion_lon": 0.0, "lon": -77.04470166666667, "name": "3062f78cd3f402f7a05afea71b4a56c6", "is_reserved": 0, "is_disabled": 0}, {"lat": 38.927650166666666, "fusion_lat": 0.0, "type": "electric_scooter", "bike_id": "0bd0ae9a1d58d96d594a4b05412af1f0", "rental_uris": {"ios": "https://dc.lft.to/lastmile_qr_scan", "android": "https://dc.lft.to/lastmile_qr_scan"}, "fusion_lon": 0.0, "lon": -77.02062283333333, "name": "0bd0ae9a1d58d96d594a4b05412af1f0", "is_reserved": 0, "is_disabled": 0}, {"lat": 38.90382, "fusion_lat": 0.0, "type": "electric_scooter", "bike_id": "49deaa4160daf884c328929cfdfb0ab2", "rental_uris": {"ios": "https://dc.lft.to/lastmile_qr_scan", "android": "https://dc.lft.to/lastmile_qr_scan"}, "fusion_lon": 0.0, "lon": -77.03826566666666, "name": "49deaa4160daf884c328929cfdfb0ab2", "is_reserved": 0, "is_disabled": 0}, {"lat": 38.922625833333335, "fusion_lat": 0.0, "type": "electric_scooter", "bike_id": "809150b69ffe03fd94a0ecaa29fbe426", "rental_uris": {"ios": "https://dc.lft.to/lastmile_qr_scan", "android": "https://dc.lft.to/lastmile_qr_scan"}, "fusion_lon": 0.0, "lon": -77.01966316666666, "name": "809150b69ffe03fd94a0ecaa29fbe426", "is_reserved": 0, "is_disabled": 0}, {"lat": 38.942839166666666, "fusion_lat": 0.0, "type": "electric_scooter", "bike_id": "4ff972ea7a95b3296036cbf4fecf1947", "rental_uris": {"ios": "https://dc.lft.to/lastmile_qr_scan", "android": "https://dc.lft.to/lastmile_qr_scan"}, "fusion_lon": 0.0, "lon": -77.02933966666667, "name": "4ff972ea7a95b3296036cbf4fecf1947", "is_reserved": 0, "is_disabled": 0}, {"lat": 38.89241233333333, "fusion_lat": 0.0, "type": "electric_scooter", "bike_id": "d6a1a4d796b79b64de140653557ee5d0", "rental_uris": {"ios": "https://dc.lft.to/lastmile_qr_scan", "android": "https://dc.lft.to/lastmile_qr_scan"}, "fusion_lon": 0.0, "lon": -77.02611166666667, "name": "d6a1a4d796b79b64de140653557ee5d0", "is_reserved": 0, "is_disabled": 0}, {"lat": 38.88635466666667, "fusion_lat": 0.0, "type": "electric_scooter", "bike_id": "a5c3fd8b9ef0b5de422e89d67584a14c", "rental_uris": {"ios": "https://dc.lft.to/lastmile_qr_scan", "android": "https://dc.lft.to/lastmile_qr_scan"}, "fusion_lon": 0.0, "lon": -77.0282455, "name": "a5c3fd8b9ef0b5de422e89d67584a14c", "is_reserved": 0, "is_disabled": 0}, {"lat": 38.919615666666665, "fusion_lat": 0.0, "type": "electric_scooter", "bike_id": "9aa6e7f3c7509f354c0b7a0f0821c878", "rental_uris": {"ios": "https://dc.lft.to/lastmile_qr_scan", "android": "https://dc.lft.to/lastmile_qr_scan"}, "fusion_lon": 0.0, "lon": -77.01489216666667, "name": "9aa6e7f3c7509f354c0b7a0f0821c878", "is_reserved": 0, "is_disabled": 0}, {"lat": 38.905347, "fusion_lat": 0.0, "type": "electric_scooter", "bike_id": "9d55592a756ff62c18458c8d66f57c31", "rental_uris": {"ios": "https://dc.lft.to/lastmile_qr_scan", "android": "https://dc.lft.to/lastmile_qr_scan"}, "fusion_lon": 0.0, "lon": -77.02209283333333, "name": "9d55592a756ff62c18458c8d66f57c31", "is_reserved": 0, "is_disabled": 0}, {"lat": 38.89435066666667, "fusion_lat": 0.0, "type": "electric_scooter", "bike_id": "1f3355d1ca66598a0efaba1158c36118", "rental_uris": {"ios": "https://dc.lft.to/lastmile_qr_scan", "android": "https://dc.lft.to/lastmile_qr_scan"}, "fusion_lon": 0.0, "lon": -77.02419333333333, "name": "1f3355d1ca66598a0efaba1158c36118", "is_reserved": 0, "is_disabled": 0}, {"lat": 38.860009, "fusion_lat": 0.0, "type": "electric_bike", "bike_id": "356b39785323d3afaa49a093a258168b", "rental_uris": {"ios": "https://dc.lft.to/lastmile_qr_scan", "android": "https://dc.lft.to/lastmile_qr_scan"}, "fusion_lon": 0.0, "lon": -77.05752683333333, "name": "356b39785323d3afaa49a093a258168b", "is_reserved": 0, "is_disabled": 0}, {"lat": 38.909894333333334, "fusion_lat": 0.0, "type": "electric_scooter", "bike_id": "31abb500bf3802cd6e6ba49e2c22535d", "rental_uris": {"ios": "https://dc.lft.to/lastmile_qr_scan", "android": "https://dc.lft.to/lastmile_qr_scan"}, "fusion_lon": 0.0, "lon": -77.07346616666666, "name": "31abb500bf3802cd6e6ba49e2c22535d", "is_reserved": 0, "is_disabled": 0}, {"lat": 38.997771166666666, "fusion_lat": 0.0, "type": "electric_bike", "bike_id": "8c6edbb2610ea451ce60e4885fe2755b", "rental_uris": {"ios": "https://dc.lft.to/lastmile_qr_scan", "android": "https://dc.lft.to/lastmile_qr_scan"}, "fusion_lon": 0.0, "lon": -77.0471455, "name": "8c6edbb2610ea451ce60e4885fe2755b", "is_reserved": 0, "is_disabled": 0}, {"lat": 38.917117, "fusion_lat": 0.0, "type": "electric_scooter", "bike_id": "5fff154d2ce203ce38cb76e397589acf", "rental_uris": {"ios": "https://dc.lft.to/lastmile_qr_scan", "android": "https://dc.lft.to/lastmile_qr_scan"}, "fusion_lon": 0.0, "lon": -77.03242883333333, "name": "5fff154d2ce203ce38cb76e397589acf", "is_reserved": 0, "is_disabled": 0}, {"lat": 38.901626, "fusion_lat": 0.0, "type": "electric_scooter", "bike_id": "983ef322fa3ed1c2e8d8ee665c1b01aa", "rental_uris": {"ios": "https://dc.lft.to/lastmile_qr_scan", "android": "https://dc.lft.to/lastmile_qr_scan"}, "fusion_lon": 0.0, "lon": -77.048741, "name": "983ef322fa3ed1c2e8d8ee665c1b01aa", "is_reserved": 0, "is_disabled": 0}, {"lat": 38.91853166666667, "fusion_lat": 0.0, "type": "electric_scooter", "bike_id": "cbd71d99b69f5d87a51ec51abfb3f2d7", "rental_uris": {"ios": "https://dc.lft.to/lastmile_qr_scan", "android": "https://dc.lft.to/lastmile_qr_scan"}, "fusion_lon": 0.0, "lon": -77.044613, "name": "cbd71d99b69f5d87a51ec51abfb3f2d7", "is_reserved": 0, "is_disabled": 0}, {"lat": 38.91029966666667, "fusion_lat": 0.0, "type": "electric_scooter", "bike_id": "16e6a7b10e5d83ca26a7997d39189b2d", "rental_uris": {"ios": "https://dc.lft.to/lastmile_qr_scan", "android": "https://dc.lft.to/lastmile_qr_scan"}, "fusion_lon": 0.0, "lon": -77.031866, "name": "16e6a7b10e5d83ca26a7997d39189b2d", "is_reserved": 0, "is_disabled": 0}, {"lat": 38.9441235, "fusion_lat": 0.0, "type": "electric_bike", "bike_id": "928c58ae09f5e1cb6817666dd3e22290", "rental_uris": {"ios": "https://dc.lft.to/lastmile_qr_scan", "android": "https://dc.lft.to/lastmile_qr_scan"}, "fusion_lon": 0.0, "lon": -77.0551345, "name": "928c58ae09f5e1cb6817666dd3e22290", "is_reserved": 0, "is_disabled": 0}, {"lat": 38.91491116666667, "fusion_lat": 0.0, "type": "electric_scooter", "bike_id": "61f617813cfc641f8264cb9441559f68", "rental_uris": {"ios": "https://dc.lft.to/lastmile_qr_scan", "android": "https://dc.lft.to/lastmile_qr_scan"}, "fusion_lon": 0.0, "lon": -76.9837325, "name": "61f617813cfc641f8264cb9441559f68", "is_reserved": 0, "is_disabled": 0}, {"lat": 38.920263166666665, "fusion_lat": 0.0, "type": "electric_scooter", "bike_id": "2d026df9c260e1d70b9f307b058850f8", "rental_uris": {"ios": "https://dc.lft.to/lastmile_qr_scan", "android": "https://dc.lft.to/lastmile_qr_scan"}, "fusion_lon": 0.0, "lon": -77.07161116666667, "name": "2d026df9c260e1d70b9f307b058850f8", "is_reserved": 0, "is_disabled": 0}, {"lat": 38.8793315, "fusion_lat": 0.0, "type": "electric_bike", "bike_id": "61072a6b3f8741e75f5ee1c29483f131", "rental_uris": {"ios": "https://dc.lft.to/lastmile_qr_scan", "android": "https://dc.lft.to/lastmile_qr_scan"}, "fusion_lon": 0.0, "lon": -76.98500933333334, "name": "61072a6b3f8741e75f5ee1c29483f131", "is_reserved": 0, "is_disabled": 0}, {"lat": 38.924146666666665, "fusion_lat": 0.0, "type": "electric_scooter", "bike_id": "6f428cbb0765172d039fd4846719f06c", "rental_uris": {"ios": "https://dc.lft.to/lastmile_qr_scan", "android": "https://dc.lft.to/lastmile_qr_scan"}, "fusion_lon": 0.0, "lon": -77.0506235, "name": "6f428cbb0765172d039fd4846719f06c", "is_reserved": 0, "is_disabled": 0}, {"lat": 38.897408666666664, "fusion_lat": 0.0, "type": "electric_scooter", "bike_id": "3710d0af7bf03cd121b80a8d4b4541aa", "rental_uris": {"ios": "https://dc.lft.to/lastmile_qr_scan", "android": "https://dc.lft.to/lastmile_qr_scan"}, "fusion_lon": 0.0, "lon": -77.055174, "name": "3710d0af7bf03cd121b80a8d4b4541aa", "is_reserved": 0, "is_disabled": 0}, {"lat": 38.9228665, "fusion_lat": 0.0, "type": "electric_scooter", "bike_id": "7d30cdc22d6e6a9fbc6c17ae54db97d0", "rental_uris": {"ios": "https://dc.lft.to/lastmile_qr_scan", "android": "https://dc.lft.to/lastmile_qr_scan"}, "fusion_lon": 0.0, "lon": -77.0365835, "name": "7d30cdc22d6e6a9fbc6c17ae54db97d0", "is_reserved": 0, "is_disabled": 0}, {"lat": 38.91732316666667, "fusion_lat": 0.0, "type": "electric_scooter", "bike_id": "434c97298b5de72ee5a6bce1ced6375e", "rental_uris": {"ios": "https://dc.lft.to/lastmile_qr_scan", "android": "https://dc.lft.to/lastmile_qr_scan"}, "fusion_lon": 0.0, "lon": -77.04603016666667, "name": "434c97298b5de72ee5a6bce1ced6375e", "is_reserved": 0, "is_disabled": 0}, {"lat": 38.847579333333336, "fusion_lat": 0.0, "type": "electric_scooter", "bike_id": "1effc191d05fff08f167c8c5ecbc32dd", "rental_uris": {"ios": "https://dc.lft.to/lastmile_qr_scan", "android": "https://dc.lft.to/lastmile_qr_scan"}, "fusion_lon": 0.0, "lon": -76.99501766666667, "name": "1effc191d05fff08f167c8c5ecbc32dd", "is_reserved": 0, "is_disabled": 0}, {"lat": 38.92222116666667, "fusion_lat": 0.0, "type": "electric_scooter", "bike_id": "e00977652633e39b03c87f666032ee68", "rental_uris": {"ios": "https://dc.lft.to/lastmile_qr_scan", "android": "https://dc.lft.to/lastmile_qr_scan"}, "fusion_lon": 0.0, "lon": -77.04331933333333, "name": "e00977652633e39b03c87f666032ee68", "is_reserved": 0, "is_disabled": 0}, {"lat": 38.87661466666667, "fusion_lat": 0.0, "type": "electric_scooter", "bike_id": "f218d4f8c1feb330495b5d0f0288cc49", "rental_uris": {"ios": "https://dc.lft.to/lastmile_qr_scan", "android": "https://dc.lft.to/lastmile_qr_scan"}, "fusion_lon": 0.0, "lon": -77.00305816666666, "name": "f218d4f8c1feb330495b5d0f0288cc49", "is_reserved": 0, "is_disabled": 0}, {"lat": 38.85985466666666, "fusion_lat": 0.0, "type": "electric_scooter", "bike_id": "cd512c9ecdbb7ee47a3ff58da80b87d6", "rental_uris": {"ios": "https://dc.lft.to/lastmile_qr_scan", "android": "https://dc.lft.to/lastmile_qr_scan"}, "fusion_lon": 0.0, "lon": -76.99648983333333, "name": "cd512c9ecdbb7ee47a3ff58da80b87d6", "is_reserved": 0, "is_disabled": 0}, {"lat": 38.897971, "fusion_lat": 0.0, "type": "electric_scooter", "bike_id": "85c0fbcfb4e11e6225983c7b7fa5c3bf", "rental_uris": {"ios": "https://dc.lft.to/lastmile_qr_scan", "android": "https://dc.lft.to/lastmile_qr_scan"}, "fusion_lon": 0.0, "lon": -77.033698, "name": "85c0fbcfb4e11e6225983c7b7fa5c3bf", "is_reserved": 0, "is_disabled": 0}, {"lat": 38.9265745, "fusion_lat": 0.0, "type": "electric_scooter", "bike_id": "a215744ae379c14d17ecd9446c835bc4", "rental_uris": {"ios": "https://dc.lft.to/lastmile_qr_scan", "android": "https://dc.lft.to/lastmile_qr_scan"}, "fusion_lon": 0.0, "lon": -77.04309883333333, "name": "a215744ae379c14d17ecd9446c835bc4", "is_reserved": 0, "is_disabled": 0}, {"lat": 38.91667366666667, "fusion_lat": 0.0, "type": "electric_scooter", "bike_id": "dcb40c9dadd86e45d43d79a12a2bb9ed", "rental_uris": {"ios": "https://dc.lft.to/lastmile_qr_scan", "android": "https://dc.lft.to/lastmile_qr_scan"}, "fusion_lon": 0.0, "lon": -77.030046, "name": "dcb40c9dadd86e45d43d79a12a2bb9ed", "is_reserved": 0, "is_disabled": 0}, {"lat": 38.91599733333334, "fusion_lat": 0.0, "type": "electric_scooter", "bike_id": "502a218ac5df92697d0cf7c5828e172b", "rental_uris": {"ios": "https://dc.lft.to/lastmile_qr_scan", "android": "https://dc.lft.to/lastmile_qr_scan"}, "fusion_lon": 0.0, "lon": -76.993615, "name": "502a218ac5df92697d0cf7c5828e172b", "is_reserved": 0, "is_disabled": 0}, {"lat": 38.8932645, "fusion_lat": 0.0, "type": "electric_scooter", "bike_id": "5af59d3fd6df1383d62c9b44b0c145c9", "rental_uris": {"ios": "https://dc.lft.to/lastmile_qr_scan", "android": "https://dc.lft.to/lastmile_qr_scan"}, "fusion_lon": 0.0, "lon": -77.03194716666667, "name": "5af59d3fd6df1383d62c9b44b0c145c9", "is_reserved": 0, "is_disabled": 0}, {"lat": 38.918804, "fusion_lat": 0.0, "type": "electric_scooter", "bike_id": "a250d3ba168a44dc35cd0b22dbfc4fac", "rental_uris": {"ios": "https://dc.lft.to/lastmile_qr_scan", "android": "https://dc.lft.to/lastmile_qr_scan"}, "fusion_lon": 0.0, "lon": -77.02183183333334, "name": "a250d3ba168a44dc35cd0b22dbfc4fac", "is_reserved": 0, "is_disabled": 0}, {"lat": 38.948206, "fusion_lat": 0.0, "type": "electric_bike", "bike_id": "f7d915107bc2912a5fef151576a2ddd5", "rental_uris": {"ios": "https://dc.lft.to/lastmile_qr_scan", "android": "https://dc.lft.to/lastmile_qr_scan"}, "fusion_lon": 0.0, "lon": -77.100044, "name": "f7d915107bc2912a5fef151576a2ddd5", "is_reserved": 0, "is_disabled": 0}, {"lat": 38.957408666666666, "fusion_lat": 0.0, "type": "electric_scooter", "bike_id": "5a1a6e73d0660c35a43d06d51c00a1ab", "rental_uris": {"ios": "https://dc.lft.to/lastmile_qr_scan", "android": "https://dc.lft.to/lastmile_qr_scan"}, "fusion_lon": 0.0, "lon": -77.00210416666667, "name": "5a1a6e73d0660c35a43d06d51c00a1ab", "is_reserved": 0, "is_disabled": 0}, {"lat": 38.93443333333333, "fusion_lat": 0.0, "type": "electric_scooter", "bike_id": "78cf25824cc622761400a6f949eae5e0", "rental_uris": {"ios": "https://dc.lft.to/lastmile_qr_scan", "android": "https://dc.lft.to/lastmile_qr_scan"}, "fusion_lon": 0.0, "lon": -77.09057516666667, "name": "78cf25824cc622761400a6f949eae5e0", "is_reserved": 0, "is_disabled": 0}, {"lat": 38.9172165, "fusion_lat": 0.0, "type": "electric_scooter", "bike_id": "22beaece5c379df7673f516bb0a2d341", "rental_uris": {"ios": "https://dc.lft.to/lastmile_qr_scan", "android": "https://dc.lft.to/lastmile_qr_scan"}, "fusion_lon": 0.0, "lon": -77.025826, "name": "22beaece5c379df7673f516bb0a2d341", "is_reserved": 0, "is_disabled": 0}, {"lat": 38.91526966666667, "fusion_lat": 0.0, "type": "electric_scooter", "bike_id": "5f53359a44c3c38da4da0115a0edcf5b", "rental_uris": {"ios": "https://dc.lft.to/lastmile_qr_scan", "android": "https://dc.lft.to/lastmile_qr_scan"}, "fusion_lon": 0.0, "lon": -77.04863216666666, "name": "5f53359a44c3c38da4da0115a0edcf5b", "is_reserved": 0, "is_disabled": 0}, {"lat": 38.917554833333334, "fusion_lat": 0.0, "type": "electric_scooter", "bike_id": "599fb2bc1b7964e89638129e39d9f1f6", "rental_uris": {"ios": "https://dc.lft.to/lastmile_qr_scan", "android": "https://dc.lft.to/lastmile_qr_scan"}, "fusion_lon": 0.0, "lon": -77.0364125, "name": "599fb2bc1b7964e89638129e39d9f1f6", "is_reserved": 0, "is_disabled": 0}, {"lat": 38.89906466666667, "fusion_lat": 0.0, "type": "electric_scooter", "bike_id": "40a10bd1e58ebdfbb8608af4718c3cf5", "rental_uris": {"ios": "https://dc.lft.to/lastmile_qr_scan", "android": "https://dc.lft.to/lastmile_qr_scan"}, "fusion_lon": 0.0, "lon": -76.99953283333333, "name": "40a10bd1e58ebdfbb8608af4718c3cf5", "is_reserved": 0, "is_disabled": 0}, {"lat": 38.911848666666664, "fusion_lat": 0.0, "type": "electric_scooter", "bike_id": "d57ea71c8ac9d98635160801a6803442", "rental_uris": {"ios": "https://dc.lft.to/lastmile_qr_scan", "android": "https://dc.lft.to/lastmile_qr_scan"}, "fusion_lon": 0.0, "lon": -77.03503966666666, "name": "d57ea71c8ac9d98635160801a6803442", "is_reserved": 0, "is_disabled": 0}, {"lat": 38.892266666666664, "fusion_lat": 0.0, "type": "electric_scooter", "bike_id": "00e207db7cb0e7a0296ac2e242c26972", "rental_uris": {"ios": "https://dc.lft.to/lastmile_qr_scan", "android": "https://dc.lft.to/lastmile_qr_scan"}, "fusion_lon": 0.0, "lon": -77.027774, "name": "00e207db7cb0e7a0296ac2e242c26972", "is_reserved": 0, "is_disabled": 0}, {"lat": 38.899557, "fusion_lat": 0.0, "type": "electric_scooter", "bike_id": "75a4993f31bf8eda08d247fb67132a89", "rental_uris": {"ios": "https://dc.lft.to/lastmile_qr_scan", "android": "https://dc.lft.to/lastmile_qr_scan"}, "fusion_lon": 0.0, "lon": -77.04189116666667, "name": "75a4993f31bf8eda08d247fb67132a89", "is_reserved": 0, "is_disabled": 0}, {"lat": 38.91067133333333, "fusion_lat": 0.0, "type": "electric_scooter", "bike_id": "a29e6d5cfaf4f33f828e0a0dfbbb6948", "rental_uris": {"ios": "https://dc.lft.to/lastmile_qr_scan", "android": "https://dc.lft.to/lastmile_qr_scan"}, "fusion_lon": 0.0, "lon": -77.0342755, "name": "a29e6d5cfaf4f33f828e0a0dfbbb6948", "is_reserved": 0, "is_disabled": 0}, {"lat": 38.90284233333333, "fusion_lat": 0.0, "type": "electric_scooter", "bike_id": "140dbeed9b3f6a82474e43a4668e2dae", "rental_uris": {"ios": "https://dc.lft.to/lastmile_qr_scan", "android": "https://dc.lft.to/lastmile_qr_scan"}, "fusion_lon": 0.0, "lon": -77.0468035, "name": "140dbeed9b3f6a82474e43a4668e2dae", "is_reserved": 0, "is_disabled": 0}, {"lat": 38.89686833333333, "fusion_lat": 0.0, "type": "electric_scooter", "bike_id": "e9d9abff14b714063703a9be5df94823", "rental_uris": {"ios": "https://dc.lft.to/lastmile_qr_scan", "android": "https://dc.lft.to/lastmile_qr_scan"}, "fusion_lon": 0.0, "lon": -76.937113, "name": "e9d9abff14b714063703a9be5df94823", "is_reserved": 0, "is_disabled": 0}, {"lat": 38.905368833333334, "fusion_lat": 0.0, "type": "electric_scooter", "bike_id": "856d34016517640320047eaaf06ec455", "rental_uris": {"ios": "https://dc.lft.to/lastmile_qr_scan", "android": "https://dc.lft.to/lastmile_qr_scan"}, "fusion_lon": 0.0, "lon": -77.02966216666667, "name": "856d34016517640320047eaaf06ec455", "is_reserved": 0, "is_disabled": 0}, {"lat": 38.91802583333333, "fusion_lat": 0.0, "type": "electric_scooter", "bike_id": "e41c08b576a94311f39609bb51c93727", "rental_uris": {"ios": "https://dc.lft.to/lastmile_qr_scan", "android": "https://dc.lft.to/lastmile_qr_scan"}, "fusion_lon": 0.0, "lon": -77.02484383333334, "name": "e41c08b576a94311f39609bb51c93727", "is_reserved": 0, "is_disabled": 0}, {"lat": 38.875787, "fusion_lat": 0.0, "type": "electric_bike", "bike_id": "7d42e5b7acc0c8db02f028ce9975fa23", "rental_uris": {"ios": "https://dc.lft.to/lastmile_qr_scan", "android": "https://dc.lft.to/lastmile_qr_scan"}, "fusion_lon": 0.0, "lon": -77.23410283333334, "name": "7d42e5b7acc0c8db02f028ce9975fa23", "is_reserved": 0, "is_disabled": 0}, {"lat": 38.92351433333333, "fusion_lat": 0.0, "type": "electric_scooter", "bike_id": "756282202b3c33d5de9cf1fc81228aff", "rental_uris": {"ios": "https://dc.lft.to/lastmile_qr_scan", "android": "https://dc.lft.to/lastmile_qr_scan"}, "fusion_lon": 0.0, "lon": -77.003285, "name": "756282202b3c33d5de9cf1fc81228aff", "is_reserved": 0, "is_disabled": 0}, {"lat": 38.95056266666667, "fusion_lat": 0.0, "type": "electric_scooter", "bike_id": "f7be790cbfe6c42da55291dace8d9a0b", "rental_uris": {"ios": "https://dc.lft.to/lastmile_qr_scan", "android": "https://dc.lft.to/lastmile_qr_scan"}, "fusion_lon": 0.0, "lon": -77.08026983333333, "name": "f7be790cbfe6c42da55291dace8d9a0b", "is_reserved": 0, "is_disabled": 0}, {"lat": 38.902019833333334, "fusion_lat": 0.0, "type": "electric_scooter", "bike_id": "8c0e7430ace68317a3c3f190f7bd188d", "rental_uris": {"ios": "https://dc.lft.to/lastmile_qr_scan", "android": "https://dc.lft.to/lastmile_qr_scan"}, "fusion_lon": 0.0, "lon": -77.0237785, "name": "8c0e7430ace68317a3c3f190f7bd188d", "is_reserved": 0, "is_disabled": 0}, {"lat": 38.92037366666667, "fusion_lat": 0.0, "type": "electric_bike", "bike_id": "17a30ef1df6f565bbd2f011b149aa300", "rental_uris": {"ios": "https://dc.lft.to/lastmile_qr_scan", "android": "https://dc.lft.to/lastmile_qr_scan"}, "fusion_lon": 0.0, "lon": -76.97953333333334, "name": "17a30ef1df6f565bbd2f011b149aa300", "is_reserved": 0, "is_disabled": 0}, {"lat": 38.9246225, "fusion_lat": 0.0, "type": "electric_scooter", "bike_id": "b5a0089afa725f9b1aef0a50e56161dd", "rental_uris": {"ios": "https://dc.lft.to/lastmile_qr_scan", "android": "https://dc.lft.to/lastmile_qr_scan"}, "fusion_lon": 0.0, "lon": -77.021528, "name": "b5a0089afa725f9b1aef0a50e56161dd", "is_reserved": 0, "is_disabled": 0}, {"lat": 38.9072675, "fusion_lat": 0.0, "type": "electric_scooter", "bike_id": "81748e02220b078d39cafed1e2f55b59", "rental_uris": {"ios": "https://dc.lft.to/lastmile_qr_scan", "android": "https://dc.lft.to/lastmile_qr_scan"}, "fusion_lon": 0.0, "lon": -77.0430395, "name": "81748e02220b078d39cafed1e2f55b59", "is_reserved": 0, "is_disabled": 0}, {"lat": 38.908362333333336, "fusion_lat": 0.0, "type": "electric_scooter", "bike_id": "f8288cae85c98bd4db375ddd6a9edbee", "rental_uris": {"ios": "https://dc.lft.to/lastmile_qr_scan", "android": "https://dc.lft.to/lastmile_qr_scan"}, "fusion_lon": 0.0, "lon": -77.06383616666666, "name": "f8288cae85c98bd4db375ddd6a9edbee", "is_reserved": 0, "is_disabled": 0}, {"lat": 38.9735225, "fusion_lat": 0.0, "type": "electric_scooter", "bike_id": "8be0d9f595dfbb4d9a379fcde3c776c0", "rental_uris": {"ios": "https://dc.lft.to/lastmile_qr_scan", "android": "https://dc.lft.to/lastmile_qr_scan"}, "fusion_lon": 0.0, "lon": -77.02783166666667, "name": "8be0d9f595dfbb4d9a379fcde3c776c0", "is_reserved": 0, "is_disabled": 0}, {"lat": 38.90418016666667, "fusion_lat": 0.0, "type": "electric_scooter", "bike_id": "e75e4e7daecd1a2621ab25b2246c8c0e", "rental_uris": {"ios": "https://dc.lft.to/lastmile_qr_scan", "android": "https://dc.lft.to/lastmile_qr_scan"}, "fusion_lon": 0.0, "lon": -77.04660916666667, "name": "e75e4e7daecd1a2621ab25b2246c8c0e", "is_reserved": 0, "is_disabled": 0}, {"lat": 38.944294, "fusion_lat": 0.0, "type": "electric_scooter", "bike_id": "9d0dc3ac49097803d06a44348df6cab9", "rental_uris": {"ios": "https://dc.lft.to/lastmile_qr_scan", "android": "https://dc.lft.to/lastmile_qr_scan"}, "fusion_lon": 0.0, "lon": -77.0631855, "name": "9d0dc3ac49097803d06a44348df6cab9", "is_reserved": 0, "is_disabled": 0}, {"lat": 38.94504583333333, "fusion_lat": 0.0, "type": "electric_scooter", "bike_id": "b3309e24ae0ae5727956d6924629f8c3", "rental_uris": {"ios": "https://dc.lft.to/lastmile_qr_scan", "android": "https://dc.lft.to/lastmile_qr_scan"}, "fusion_lon": 0.0, "lon": -77.03831033333333, "name": "b3309e24ae0ae5727956d6924629f8c3", "is_reserved": 0, "is_disabled": 0}, {"lat": 38.88706416666667, "fusion_lat": 0.0, "type": "electric_scooter", "bike_id": "670ae8934449ea98723d6e55a80228bf", "rental_uris": {"ios": "https://dc.lft.to/lastmile_qr_scan", "android": "https://dc.lft.to/lastmile_qr_scan"}, "fusion_lon": 0.0, "lon": -77.01360116666666, "name": "670ae8934449ea98723d6e55a80228bf", "is_reserved": 0, "is_disabled": 0}, {"lat": 38.92894416666667, "fusion_lat": 0.0, "type": "electric_scooter", "bike_id": "95cf65a7b5597b0a5093e04354c5fd98", "rental_uris": {"ios": "https://dc.lft.to/lastmile_qr_scan", "android": "https://dc.lft.to/lastmile_qr_scan"}, "fusion_lon": 0.0, "lon": -77.03258633333333, "name": "95cf65a7b5597b0a5093e04354c5fd98", "is_reserved": 0, "is_disabled": 0}, {"lat": 38.902577, "fusion_lat": 0.0, "type": "electric_scooter", "bike_id": "8c549fc75cee2388ad8e44545c808ca2", "rental_uris": {"ios": "https://dc.lft.to/lastmile_qr_scan", "android": "https://dc.lft.to/lastmile_qr_scan"}, "fusion_lon": 0.0, "lon": -77.04336316666667, "name": "8c549fc75cee2388ad8e44545c808ca2", "is_reserved": 0, "is_disabled": 0}, {"lat": 38.9011305, "fusion_lat": 0.0, "type": "electric_scooter", "bike_id": "d974f1d9e0fe92dbe6ac38209e4f7a37", "rental_uris": {"ios": "https://dc.lft.to/lastmile_qr_scan", "android": "https://dc.lft.to/lastmile_qr_scan"}, "fusion_lon": 0.0, "lon": -77.02738816666667, "name": "d974f1d9e0fe92dbe6ac38209e4f7a37", "is_reserved": 0, "is_disabled": 0}, {"lat": 38.9074325, "fusion_lat": 0.0, "type": "electric_scooter", "bike_id": "a838b3bf88960b792d7d00bbde41405e", "rental_uris": {"ios": "https://dc.lft.to/lastmile_qr_scan", "android": "https://dc.lft.to/lastmile_qr_scan"}, "fusion_lon": 0.0, "lon": -77.0031595, "name": "a838b3bf88960b792d7d00bbde41405e", "is_reserved": 0, "is_disabled": 0}, {"lat": 38.9181525, "fusion_lat": 0.0, "type": "electric_scooter", "bike_id": "387460b98b199f2dadf942abb9ff4f91", "rental_uris": {"ios": "https://dc.lft.to/lastmile_qr_scan", "android": "https://dc.lft.to/lastmile_qr_scan"}, "fusion_lon": 0.0, "lon": -77.034746, "name": "387460b98b199f2dadf942abb9ff4f91", "is_reserved": 0, "is_disabled": 0}, {"lat": 38.93106366666667, "fusion_lat": 0.0, "type": "electric_scooter", "bike_id": "b5aecbf56ec7914420758148126a3157", "rental_uris": {"ios": "https://dc.lft.to/lastmile_qr_scan", "android": "https://dc.lft.to/lastmile_qr_scan"}, "fusion_lon": 0.0, "lon": -77.03079016666666, "name": "b5aecbf56ec7914420758148126a3157", "is_reserved": 0, "is_disabled": 0}, {"lat": 38.93446766666667, "fusion_lat": 0.0, "type": "electric_scooter", "bike_id": "e03b1bea6ba4c79d2b8079749de2fb2c", "rental_uris": {"ios": "https://dc.lft.to/lastmile_qr_scan", "android": "https://dc.lft.to/lastmile_qr_scan"}, "fusion_lon": 0.0, "lon": -76.99704833333334, "name": "e03b1bea6ba4c79d2b8079749de2fb2c", "is_reserved": 0, "is_disabled": 0}, {"lat": 38.8733915, "fusion_lat": 0.0, "type": "electric_scooter", "bike_id": "3c5c097cbe0b5b72103000280db38fd5", "rental_uris": {"ios": "https://dc.lft.to/lastmile_qr_scan", "android": "https://dc.lft.to/lastmile_qr_scan"}, "fusion_lon": 0.0, "lon": -76.99166533333333, "name": "3c5c097cbe0b5b72103000280db38fd5", "is_reserved": 0, "is_disabled": 0}, {"lat": 38.92419366666667, "fusion_lat": 0.0, "type": "electric_scooter", "bike_id": "a8da5fa708f71ae3f56a67a5646350f0", "rental_uris": {"ios": "https://dc.lft.to/lastmile_qr_scan", "android": "https://dc.lft.to/lastmile_qr_scan"}, "fusion_lon": 0.0, "lon": -77.05746816666667, "name": "a8da5fa708f71ae3f56a67a5646350f0", "is_reserved": 0, "is_disabled": 0}, {"lat": 38.9049215, "fusion_lat": 0.0, "type": "electric_scooter", "bike_id": "571bcb11de4684dad16d9e382c4efaf5", "rental_uris": {"ios": "https://dc.lft.to/lastmile_qr_scan", "android": "https://dc.lft.to/lastmile_qr_scan"}, "fusion_lon": 0.0, "lon": -77.021109, "name": "571bcb11de4684dad16d9e382c4efaf5", "is_reserved": 0, "is_disabled": 0}, {"lat": 38.87114, "fusion_lat": 0.0, "type": "electric_scooter", "bike_id": "312e2dc8bbfe20898275c26042876c8d", "rental_uris": {"ios": "https://dc.lft.to/lastmile_qr_scan", "android": "https://dc.lft.to/lastmile_qr_scan"}, "fusion_lon": 0.0, "lon": -77.007573, "name": "312e2dc8bbfe20898275c26042876c8d", "is_reserved": 0, "is_disabled": 0}, {"lat": 38.9245135, "fusion_lat": 0.0, "type": "electric_scooter", "bike_id": "a6a79a247792649aff23a937c5ac2a56", "rental_uris": {"ios": "https://dc.lft.to/lastmile_qr_scan", "android": "https://dc.lft.to/lastmile_qr_scan"}, "fusion_lon": 0.0, "lon": -77.04036833333333, "name": "a6a79a247792649aff23a937c5ac2a56", "is_reserved": 0, "is_disabled": 0}, {"lat": 38.92018183333333, "fusion_lat": 0.0, "type": "electric_scooter", "bike_id": "c682ebe4eb287c8f05ff8224c2196344", "rental_uris": {"ios": "https://dc.lft.to/lastmile_qr_scan", "android": "https://dc.lft.to/lastmile_qr_scan"}, "fusion_lon": 0.0, "lon": -77.07160616666667, "name": "c682ebe4eb287c8f05ff8224c2196344", "is_reserved": 0, "is_disabled": 0}, {"lat": 38.92313433333333, "fusion_lat": 0.0, "type": "electric_scooter", "bike_id": "c810c77096fb59fece3589c7d023c4d9", "rental_uris": {"ios": "https://dc.lft.to/lastmile_qr_scan", "android": "https://dc.lft.to/lastmile_qr_scan"}, "fusion_lon": 0.0, "lon": -77.0195215, "name": "c810c77096fb59fece3589c7d023c4d9", "is_reserved": 0, "is_disabled": 0}, {"lat": 38.917237666666665, "fusion_lat": 0.0, "type": "electric_scooter", "bike_id": "694d0ba91e5f09b8097241d7dfc2c362", "rental_uris": {"ios": "https://dc.lft.to/lastmile_qr_scan", "android": "https://dc.lft.to/lastmile_qr_scan"}, "fusion_lon": 0.0, "lon": -77.0270465, "name": "694d0ba91e5f09b8097241d7dfc2c362", "is_reserved": 0, "is_disabled": 0}, {"lat": 38.8849355, "fusion_lat": 0.0, "type": "electric_scooter", "bike_id": "d5e1c1ac6dede2dae3fd4db1d1b3d887", "rental_uris": {"ios": "https://dc.lft.to/lastmile_qr_scan", "android": "https://dc.lft.to/lastmile_qr_scan"}, "fusion_lon": 0.0, "lon": -76.98055266666667, "name": "d5e1c1ac6dede2dae3fd4db1d1b3d887", "is_reserved": 0, "is_disabled": 0}, {"lat": 38.9431085, "fusion_lat": 0.0, "type": "electric_scooter", "bike_id": "c88b416828dba2c0d02d3a523212e8c9", "rental_uris": {"ios": "https://dc.lft.to/lastmile_qr_scan", "android": "https://dc.lft.to/lastmile_qr_scan"}, "fusion_lon": 0.0, "lon": -77.0249225, "name": "c88b416828dba2c0d02d3a523212e8c9", "is_reserved": 0, "is_disabled": 0}, {"lat": 38.96185083333334, "fusion_lat": 0.0, "type": "electric_bike", "bike_id": "4f2e9682e5f7179595fd7dfa1b6172e0", "rental_uris": {"ios": "https://dc.lft.to/lastmile_qr_scan", "android": "https://dc.lft.to/lastmile_qr_scan"}, "fusion_lon": 0.0, "lon": -77.05263916666667, "name": "4f2e9682e5f7179595fd7dfa1b6172e0", "is_reserved": 0, "is_disabled": 0}, {"lat": 38.89861483333333, "fusion_lat": 0.0, "type": "electric_scooter", "bike_id": "05eab569423b768b33e9c5fde2ab0b9e", "rental_uris": {"ios": "https://dc.lft.to/lastmile_qr_scan", "android": "https://dc.lft.to/lastmile_qr_scan"}, "fusion_lon": 0.0, "lon": -77.02192633333334, "name": "05eab569423b768b33e9c5fde2ab0b9e", "is_reserved": 0, "is_disabled": 0}, {"lat": 38.918197666666664, "fusion_lat": 0.0, "type": "electric_scooter", "bike_id": "cf2c10e0e1f36ef0cc9f75901cd61f98", "rental_uris": {"ios": "https://dc.lft.to/lastmile_qr_scan", "android": "https://dc.lft.to/lastmile_qr_scan"}, "fusion_lon": 0.0, "lon": -77.034721, "name": "cf2c10e0e1f36ef0cc9f75901cd61f98", "is_reserved": 0, "is_disabled": 0}, {"lat": 38.92269533333333, "fusion_lat": 0.0, "type": "electric_scooter", "bike_id": "6980b6a99b104d1fcd32bdc30d7a93cc", "rental_uris": {"ios": "https://dc.lft.to/lastmile_qr_scan", "android": "https://dc.lft.to/lastmile_qr_scan"}, "fusion_lon": 0.0, "lon": -77.03682083333334, "name": "6980b6a99b104d1fcd32bdc30d7a93cc", "is_reserved": 0, "is_disabled": 0}, {"lat": 38.937098, "fusion_lat": 0.0, "type": "electric_scooter", "bike_id": "7a6098e2614e32a021bc0bc252596d23", "rental_uris": {"ios": "https://dc.lft.to/lastmile_qr_scan", "android": "https://dc.lft.to/lastmile_qr_scan"}, "fusion_lon": 0.0, "lon": -77.03517666666667, "name": "7a6098e2614e32a021bc0bc252596d23", "is_reserved": 0, "is_disabled": 0}, {"lat": 38.905804, "fusion_lat": 0.0, "type": "electric_scooter", "bike_id": "237c423a2be1f07cead328e54c4cf70e", "rental_uris": {"ios": "https://dc.lft.to/lastmile_qr_scan", "android": "https://dc.lft.to/lastmile_qr_scan"}, "fusion_lon": 0.0, "lon": -77.03848383333333, "name": "237c423a2be1f07cead328e54c4cf70e", "is_reserved": 0, "is_disabled": 0}, {"lat": 38.91436916666667, "fusion_lat": 0.0, "type": "electric_scooter", "bike_id": "9a03bb94e3ab7d7beeb7665e71517022", "rental_uris": {"ios": "https://dc.lft.to/lastmile_qr_scan", "android": "https://dc.lft.to/lastmile_qr_scan"}, "fusion_lon": 0.0, "lon": -77.017088, "name": "9a03bb94e3ab7d7beeb7665e71517022", "is_reserved": 0, "is_disabled": 0},