{"data": {"bikes": [{"fusion_lat": 0.0, "name": "113c2490b2c846a3a395430e2a2ae708", "is_disabled": 0, "rental_uris": {"android": "https://dc.lft.to/lastmile_qr_scan", "ios": "https://dc.lft.to/lastmile_qr_scan"}, "fusion_lon": 0.0, "lat": 38.8884435, "bike_id": "113c2490b2c846a3a395430e2a2ae708", "type": "electric_scooter", "is_reserved": 0, "lon": -76.92680766666666}, {"fusion_lat": 0.0, "name": "37410586850a13926dee64d13d74994d", "is_disabled": 0, "rental_uris": {"android": "https://dc.lft.to/lastmile_qr_scan", "ios": "https://dc.lft.to/lastmile_qr_scan"}, "fusion_lon": 0.0, "lat": 38.909419, "bike_id": "37410586850a13926dee64d13d74994d", "type": "electric_scooter", "is_reserved": 0, "lon": -76.98769783333333}, {"fusion_lat": 0.0, "name": "6dccd32f8b01759a6080f679f630aca7", "is_disabled": 0, "rental_uris": {"android": "https://dc.lft.to/lastmile_qr_scan", "ios": "https://dc.lft.to/lastmile_qr_scan"}, "fusion_lon": 0.0, "lat": 38.897371666666665, "bike_id": "6dccd32f8b01759a6080f679f630aca7", "type": "electric_scooter", "is_reserved": 0, "lon": -77.00755683333334}, {"fusion_lat": 0.0, "name": "01e7557699c08bf12064ab1676df89fc", "is_disabled": 0, "rental_uris": {"android": "https://dc.lft.to/lastmile_qr_scan", "ios": "https://dc.lft.to/lastmile_qr_scan"}, "fusion_lon": 0.0, "lat": 38.8947675, "bike_id": "01e7557699c08bf12064ab1676df89fc", "type": "electric_scooter", "is_reserved": 0, "lon": -77.0212335}, {"fusion_lat": 0.0, "name": "4951a7af9efd995873878776c5735d37", "is_disabled": 0, "rental_uris": {"android": "https://dc.lft.to/lastmile_qr_scan", "ios": "https://dc.lft.to/lastmile_qr_scan"}, "fusion_lon": 0.0, "lat": 38.903136833333335, "bike_id": "4951a7af9efd995873878776c5735d37", "type": "electric_scooter", "is_reserved": 0, "lon": -77.02908016666666}, {"fusion_lat": 0.0, "name": "feae7cf19828288ac6c4a11bdbdd8234", "is_disabled": 0, "rental_uris": {"android": "https://dc.lft.to/lastmile_qr_scan", "ios": "https://dc.lft.to/lastmile_qr_scan"}, "fusion_lon": 0.0, "lat": 38.88492316666667, "bike_id": "feae7cf19828288ac6c4a11bdbdd8234", "type": "electric_scooter", "is_reserved": 0, "lon": -77.01083383333334}, {"fusion_lat": 0.0, "name": "20493952ca54cf8b4596202f093d234c", "is_disabled": 0, "rental_uris": {"android": "https://dc.lft.to/lastmile_qr_scan", "ios": "https://dc.lft.to/lastmile_qr_scan"}, "fusion_lon": 0.0, "lat": 38.92275683333333, "bike_id": "20493952ca54cf8b4596202f093d234c", "type": "electric_scooter", "is_reserved": 0, "lon": -76.99753216666667}, {"fusion_lat": 0.0, "name": "ceade21e85e08e58d335c13fead16d23", "is_disabled": 0, "rental_uris": {"android": "https://dc.lft.to/lastmile_qr_scan", "ios": "https://dc.lft.to/lastmile_qr_scan"}, "fusion_lon": 0.0, "lat": 38.9088675, "bike_id": "ceade21e85e08e58d335c13fead16d23", "type": "electric_scooter", "is_reserved": 0, "lon": -77.03671233333333}, {"fusion_lat": 0.0, "name": "af109431e1908f127373fedacca79686", "is_disabled": 0, "rental_uris": {"android": "https://dc.lft.to/lastmile_qr_scan", "ios": "https://dc.lft.to/lastmile_qr_scan"}, "fusion_lon": 0.0, "lat": 38.9001765, "bike_id": "af109431e1908f127373fedacca79686", "type": "electric_scooter", "is_reserved": 0, "lon": -77.0302485}, {"fusion_lat": 0.0, "name": "10a5865d256814453bea541b938fdb84", "is_disabled": 0, "rental_uris": {"android": "https://dc.lft.to/lastmile_qr_scan", "ios": "https://dc.lft.to/lastmile_qr_scan"}, "fusion_lon": 0.0, "lat": 38.91603, "bike_id": "10a5865d256814453bea541b938fdb84", "type": "electric_scooter", "is_reserved": 0, "lon": -77.03212166666667}, {"fusion_lat": 0.0, "name": "9677a7da691751c5184d04e3781cb259", "is_disabled": 0, "rental_uris": {"android": "https://dc.lft.to/lastmile_qr_scan", "ios": "https://dc.lft.to/lastmile_qr_scan"}, "fusion_lon": 0.0, "lat": 38.91991016666667, "bike_id": "9677a7da691751c5184d04e3781cb259", "type": "electric_scooter", "is_reserved": 0, "lon": -77.02176716666666}, {"fusion_lat": 0.0, "name": "5422135cbfb41cbe8d24cc61e6907977", "is_disabled": 0, "rental_uris": {"android": "https://dc.lft.to/lastmile_qr_scan", "ios": "https://dc.lft.to/lastmile_qr_scan"}, "fusion_lon": 0.0, "lat": 38.91672833333333, "bike_id": "5422135cbfb41cbe8d24cc61e6907977", "type": "electric_scooter", "is_reserved": 0, "lon": -77.02965966666666}, {"fusion_lat": 0.0, "name": "346bc7aa9aeb8fe7df69df5aa696ea9c", "is_disabled": 0, "rental_uris": {"android": "https://dc.lft.to/lastmile_qr_scan", "ios": "https://dc.lft.to/lastmile_qr_scan"}, "fusion_lon": 0.0, "lat": 38.933628, "bike_id": "346bc7aa9aeb8fe7df69df5aa696ea9c", "type": "electric_scooter", "is_reserved": 0, "lon": -77.0388085}, {"fusion_lat": 0.0, "name": "9d836d53479d985821a1342c6261380d", "is_disabled": 0, "rental_uris": {"android": "https://dc.lft.to/lastmile_qr_scan", "ios": "https://dc.lft.to/lastmile_qr_scan"}, "fusion_lon": 0.0, "lat": 38.941336666666665, "bike_id": "9d836d53479d985821a1342c6261380d", "type": "electric_scooter", "is_reserved": 0, "lon": -77.00611116666667}, {"fusion_lat": 0.0, "name": "4deea6f0e3223f680960ba8138b703bd", "is_disabled": 0, "rental_uris": {"android": "https://dc.lft.to/lastmile_qr_scan", "ios": "https://dc.lft.to/lastmile_qr_scan"}, "fusion_lon": 0.0, "lat": 38.903395333333336, "bike_id": "4deea6f0e3223f680960ba8138b703bd", "type": "electric_scooter", "is_reserved": 0, "lon": -76.97254066666666}, {"fusion_lat": 0.0, "name": "65bcfa8ad0d706ea639320d63ba96106", "is_disabled": 0, "rental_uris": {"android": "https://dc.lft.to/lastmile_qr_scan", "ios": "https://dc.lft.to/lastmile_qr_scan"}, "fusion_lon": 0.0, "lat": 38.89723516666667, "bike_id": "65bcfa8ad0d706ea639320d63ba96106", "type": "electric_scooter", "is_reserved": 0, "lon": -77.032186}, {"fusion_lat": 0.0, "name": "ec176b06c6e62d7a5f85fab7e4cde54c", "is_disabled": 0, "rental_uris": {"android": "https://dc.lft.to/lastmile_qr_scan", "ios": "https://dc.lft.to/lastmile_qr_scan"}, "fusion_lon": 0.0, "lat": 38.91691433333333, "bike_id": "ec176b06c6e62d7a5f85fab7e4cde54c", "type": "electric_scooter", "is_reserved": 0, "lon": -77.03217183333334}, {"fusion_lat": 0.0, "name": "73fd654d094bf4317e1199a72630d6da", "is_disabled": 0, "rental_uris": {"android": "https://dc.lft.to/lastmile_qr_scan", "ios": "https://dc.lft.to/lastmile_qr_scan"}, "fusion_lon": 0.0, "lat": 38.909667666666664, "bike_id": "73fd654d094bf4317e1199a72630d6da", "type": "electric_scooter", "is_reserved": 0, "lon": -77.0090385}, {"fusion_lat": 0.0, "name": "9ad70719858cc946b17d7ad57416df75", "is_disabled": 0, "rental_uris": {"android": "https://dc.lft.to/lastmile_qr_scan", "ios": "https://dc.lft.to/lastmile_qr_scan"}, "fusion_lon": 0.0, "lat": 38.83936, "bike_id": "9ad70719858cc946b17d7ad57416df75", "type": "electric_bike", "is_reserved": 0, "lon": -77.078993}, {"fusion_lat": 0.0, "name": "6fe8ada6d4ebdaf8744a0f6b48620a1d", "is_disabled": 0, "rental_uris": {"android": "https://dc.lft.to/lastmile_qr_scan", "ios": "https://dc.lft.to/lastmile_qr_scan"}, "fusion_lon": 0.0, "lat": 38.8029445, "bike_id": "6fe8ada6d4ebdaf8744a0f6b48620a1d", "type": "electric_bike", "is_reserved": 0, "lon": -77.0594105}, {"fusion_lat": 0.0, "name": "6ed7854869579326a0aaab8c1b70bfb5", "is_disabled": 0, "rental_uris": {"android": "https://dc.lft.to/lastmile_qr_scan", "ios": "https://dc.lft.to/lastmile_qr_scan"}, "fusion_lon": 0.0, "lat": 38.92378716666666, "bike_id": "6ed7854869579326a0aaab8c1b70bfb5", "type": "electric_scooter", "is_reserved": 0, "lon": -77.04475733333334}, {"fusion_lat": 0.0, "name": "fe0e7edd7af96ed48b372cad80da97b8", "is_disabled": 0, "rental_uris": {"android": "https://dc.lft.to/lastmile_qr_scan", "ios": "https://dc.lft.to/lastmile_qr_scan"}, "fusion_lon": 0.0, "lat": 38.90311166666667, "bike_id": "fe0e7edd7af96ed48b372cad80da97b8", "type": "electric_scooter", "is_reserved": 0, "lon": -76.97804633333334}, {"fusion_lat": 0.0, "name": "0335e7792e969fa8bea01143df5f8bdd", "is_disabled": 0, "rental_uris": {"android": "https://dc.lft.to/lastmile_qr_scan", "ios": "https://dc.lft.to/lastmile_qr_scan"}, "fusion_lon": 0.0, "lat": 38.92385, "bike_id": "0335e7792e969fa8bea01143df5f8bdd", "type": "electric_scooter", "is_reserved": 0, "lon": -77.04311933333334}, {"fusion_lat": 0.0, "name": "9f8440272ab93929b6e5170d50cb417a", "is_disabled": 0, "rental_uris": {"android": "https://dc.lft.to/lastmile_qr_scan", "ios": "https://dc.lft.to/lastmile_qr_scan"}, "fusion_lon": 0.0, "lat": 38.90426466666667, "bike_id": "9f8440272ab93929b6e5170d50cb417a", "type": "electric_scooter", "is_reserved": 0, "lon": -77.051335}, {"fusion_lat": 0.0, "name": "798c3f03b420beb54c60af10f8a6a4ed", "is_disabled": 0, "rental_uris": {"android": "https://dc.lft.to/lastmile_qr_scan", "ios": "https://dc.lft.to/lastmile_qr_scan"}, "fusion_lon": 0.0, "lat": 38.90026566666667, "bike_id": "798c3f03b420beb54c60af10f8a6a4ed", "type": "electric_scooter", "is_reserved": 0, "lon": -77.011795}, {"fusion_lat": 0.0, "name": "ed968a0ffa60115b06decc4227e7d4e3", "is_disabled": 0, "rental_uris": {"android": "https://dc.lft.to/lastmile_qr_scan", "ios": "https://dc.lft.to/lastmile_qr_scan"}, "fusion_lon": 0.0, "lat": 38.900027, "bike_id": "ed968a0ffa60115b06decc4227e7d4e3", "type": "electric_scooter", "is_reserved": 0, "lon": -76.996992}, {"fusion_lat": 0.0, "name": "a7f43df27bc2071e3a682bdde5f6eb74", "is_disabled": 0, "rental_uris": {"android": "https://dc.lft.to/lastmile_qr_scan", "ios": "https://dc.lft.to/lastmile_qr_scan"}, "fusion_lon": 0.0, "lat": 38.91334233333333, "bike_id": "a7f43df27bc2071e3a682bdde5f6eb74", "type": "electric_scooter", "is_reserved": 0, "lon": -77.04548783333334}, {"fusion_lat": 0.0, "name": "6a11fbbe64057ff5cdd0f1cd66b8822c", "is_disabled": 0, "rental_uris": {"android": "https://dc.lft.to/lastmile_qr_scan", "ios": "https://dc.lft.to/lastmile_qr_scan"}, "fusion_lon": 0.0, "lat": 38.9057305, "bike_id": "6a11fbbe64057ff5cdd0f1cd66b8822c", "type": "electric_scooter", "is_reserved": 0, "lon": -77.0311975}, {"fusion_lat": 0.0, "name": "44f91d95dfb202217f3c5fc1a767a482", "is_disabled": 0, "rental_uris": {"android": "https://dc.lft.to/lastmile_qr_scan", "ios": "https://dc.lft.to/lastmile_qr_scan"}, "fusion_lon": 0.0, "lat": 38.89446733333333, "bike_id": "44f91d95dfb202217f3c5fc1a767a482", "type": "electric_scooter", "is_reserved": 0, "lon": -77.0454825}, {"fusion_lat": 0.0, "name": "752ddbc7dbf199878311ed84a51a3808", "is_disabled": 0, "rental_uris": {"android": "https://dc.lft.to/lastmile_qr_scan", "ios": "https://dc.lft.to/lastmile_qr_scan"}, "fusion_lon": 0.0, "lat": 38.8776295, "bike_id": "752ddbc7dbf199878311ed84a51a3808", "type": "electric_scooter", "is_reserved": 0, "lon": -77.0055715}, {"fusion_lat": 0.0, "name": "1d6e2bcc94b9f97ce2bae12e45d4e0b4", "is_disabled": 0, "rental_uris": {"android": "https://dc.lft.to/lastmile_qr_scan", "ios": "https://dc.lft.to/lastmile_qr_scan"}, "fusion_lon": 0.0, "lat": 38.88187166666667, "bike_id": "1d6e2bcc94b9f97ce2bae12e45d4e0b4", "type": "electric_scooter", "is_reserved": 0, "lon": -77.00355716666667}, {"fusion_lat": 0.0, "name": "41a28d00ab306c9c2fefbe626bd0ce83", "is_disabled": 0, "rental_uris": {"android": "https://dc.lft.to/lastmile_qr_scan", "ios": "https://dc.lft.to/lastmile_qr_scan"}, "fusion_lon": 0.0, "lat": 38.93930266666667, "bike_id": "41a28d00ab306c9c2fefbe626bd0ce83", "type": "electric_scooter", "is_reserved": 0, "lon": -77.0747815}, {"fusion_lat": 0.0, "name": "31f5af599ad1a79a6b0d41ed2d5939ff", "is_disabled": 0, "rental_uris": {"android": "https://dc.lft.to/lastmile_qr_scan", "ios": "https://dc.lft.to/lastmile_qr_scan"}, "fusion_lon": 0.0, "lat": 38.90209133333333, "bike_id": "31f5af599ad1a79a6b0d41ed2d5939ff", "type": "electric_scooter", "is_reserved": 0, "lon": -77.01667316666666}, {"fusion_lat": 0.0, "name": "ff7a67ea5f38bcf5d020e44b065f4702", "is_disabled": 0, "rental_uris": {"android": "https://dc.lft.to/lastmile_qr_scan", "ios": "https://dc.lft.to/lastmile_qr_scan"}, "fusion_lon": 0.0, "lat": 38.90720866666667, "bike_id": "ff7a67ea5f38bcf5d020e44b065f4702", "type": "electric_scooter", "is_reserved": 0, "lon": -77.0250615}, {"fusion_lat": 0.0, "name": "ac8712fdcc5e650b959cf32933e502ca", "is_disabled": 0, "rental_uris": {"android": "https://dc.lft.to/lastmile_qr_scan", "ios": "https://dc.lft.to/lastmile_qr_scan"}, "fusion_lon": 0.0, "lat": 38.9003465, "bike_id": "ac8712fdcc5e650b959cf32933e502ca", "type": "electric_scooter", "is_reserved": 0, "lon": -76.9991895}, {"fusion_lat": 0.0, "name": "d4d464404e426912cdd165f5d3cbbaba", "is_disabled": 0, "rental_uris": {"android": "https://dc.lft.to/lastmile_qr_scan", "ios": "https://dc.lft.to/lastmile_qr_scan"}, "fusion_lon": 0.0, "lat": 38.923145833333336, "bike_id": "d4d464404e426912cdd165f5d3cbbaba", "type": "electric_scooter", "is_reserved": 0, "lon": -77.04626716666667}, {"fusion_lat": 0.0, "name": "e0316692418095487a2acb744ccf19bd", "is_disabled": 0, "rental_uris": {"android": "https://dc.lft.to/lastmile_qr_scan", "ios": "https://dc.lft.to/lastmile_qr_scan"}, "fusion_lon": 0.0, "lat": 38.90573783333333, "bike_id": "e0316692418095487a2acb744ccf19bd", "type": "electric_scooter", "is_reserved": 0, "lon": -77.03440133333334}, {"fusion_lat": 0.0, "name": "cd1c9065e00cb870794a49fcdce80b54", "is_disabled": 0, "rental_uris": {"android": "https://dc.lft.to/lastmile_qr_scan", "ios": "https://dc.lft.to/lastmile_qr_scan"}, "fusion_lon": 0.0, "lat": 38.910833833333335, "bike_id": "cd1c9065e00cb870794a49fcdce80b54", "type": "electric_scooter", "is_reserved": 0, "lon": -77.06546966666667}, {"fusion_lat": 0.0, "name": "b8899c950f5c2990f0acc54395625409", "is_disabled": 0, "rental_uris": {"android": "https://dc.lft.to/lastmile_qr_scan", "ios": "https://dc.lft.to/lastmile_qr_scan"}, "fusion_lon": 0.0, "lat": 38.920790333333336, "bike_id": "b8899c950f5c2990f0acc54395625409", "type": "electric_scooter", "is_reserved": 0, "lon": -77.040843}, {"fusion_lat": 0.0, "name": "a456c97e35ee8fb4f959fa77628acf3c", "is_disabled": 0, "rental_uris": {"android": "https://dc.lft.to/lastmile_qr_scan", "ios": "https://dc.lft.to/lastmile_qr_scan"}, "fusion_lon": 0.0, "lat": 38.874608333333335, "bike_id": "a456c97e35ee8fb4f959fa77628acf3c", "type": "electric_scooter", "is_reserved": 0, "lon": -77.01861166666667}, {"fusion_lat": 0.0, "name": "ff894bd6063c72b012cb9c04e2e97857", "is_disabled": 0, "rental_uris": {"android": "https://dc.lft.to/lastmile_qr_scan", "ios": "https://dc.lft.to/lastmile_qr_scan"}, "fusion_lon": 0.0, "lat": 38.87594266666667, "bike_id": "ff894bd6063c72b012cb9c04e2e97857", "type": "electric_scooter", "is_reserved": 0, "lon": -77.00589666666667}, {"fusion_lat": 0.0, "name": "9a1a160d1e7e647d113411dfcb969c74", "is_disabled": 0, "rental_uris": {"android": "https://dc.lft.to/lastmile_qr_scan", "ios": "https://dc.lft.to/lastmile_qr_scan"}, "fusion_lon": 0.0, "lat": 38.92293733333333, "bike_id": "9a1a160d1e7e647d113411dfcb969c74", "type": "electric_scooter", "is_reserved": 0, "lon": -76.9942765}, {"fusion_lat": 0.0, "name": "2e60f8f66c55da692ab99ac3c4a515ec", "is_disabled": 0, "rental_uris": {"android": "https://dc.lft.to/lastmile_qr_scan", "ios": "https://dc.lft.to/lastmile_qr_scan"}, "fusion_lon": 0.0, "lat": 38.8972375, "bike_id": "2e60f8f66c55da692ab99ac3c4a515ec", "type": "electric_scooter", "is_reserved": 0, "lon": -77.02624333333333}, {"fusion_lat": 0.0, "name": "1c169b1b2eba9df5cb53860a13548db1", "is_disabled": 0, "rental_uris": {"android": "https://dc.lft.to/lastmile_qr_scan", "ios": "https://dc.lft.to/lastmile_qr_scan"}, "fusion_lon": 0.0, "lat": 38.902621, "bike_id": "1c169b1b2eba9df5cb53860a13548db1", "type": "electric_scooter", "is_reserved": 0, "lon": -76.99614816666667}, {"fusion_lat": 0.0, "name": "c330c10faf06265808d68440f3d60bcd", "is_disabled": 0, "rental_uris": {"android": "https://dc.lft.to/lastmile_qr_scan", "ios": "https://dc.lft.to/lastmile_qr_scan"}, "fusion_lon": 0.0, "lat": 38.92367683333333, "bike_id": "c330c10faf06265808d68440f3d60bcd", "type": "electric_scooter", "is_reserved": 0, "lon": -77.081528}, {"fusion_lat": 0.0, "name": "c376a2791692d60647d6b46ac648a51f", "is_disabled": 0, "rental_uris": {"android": "https://dc.lft.to/lastmile_qr_scan", "ios": "https://dc.lft.to/lastmile_qr_scan"}, "fusion_lon": 0.0, "lat": 38.92721816666667, "bike_id": "c376a2791692d60647d6b46ac648a51f", "type": "electric_scooter", "is_reserved": 0, "lon": -77.031615}, {"fusion_lat": 0.0, "name": "cfe67ceff185e45d492b6d855d95a8f7", "is_disabled": 0, "rental_uris": {"android": "https://dc.lft.to/lastmile_qr_scan", "ios": "https://dc.lft.to/lastmile_qr_scan"}, "fusion_lon": 0.0, "lat": 38.91588816666667, "bike_id": "cfe67ceff185e45d492b6d855d95a8f7", "type": "electric_scooter", "is_reserved": 0, "lon": -77.04594033333333}, {"fusion_lat": 0.0, "name": "c0ea47c03e90a733b548d65ef889625e", "is_disabled": 0, "rental_uris": {"android": "https://dc.lft.to/lastmile_qr_scan", "ios": "https://dc.lft.to/lastmile_qr_scan"}, "fusion_lon": 0.0, "lat": 38.89737366666667, "bike_id": "c0ea47c03e90a733b548d65ef889625e", "type": "electric_scooter", "is_reserved": 0, "lon": -76.947213}, {"fusion_lat": 0.0, "name": "0606160f3a1094c12d4cb4d4b2f16a88", "is_disabled": 0, "rental_uris": {"android": "https://dc.lft.to/lastmile_qr_scan", "ios": "https://dc.lft.to/lastmile_qr_scan"}, "fusion_lon": 0.0, "lat": 38.904678, "bike_id": "0606160f3a1094c12d4cb4d4b2f16a88", "type": "electric_scooter", "is_reserved": 0, "lon": -77.01274316666667}, {"fusion_lat": 0.0, "name": "76ca8aa670d58ee4e436775aa4ed0749", "is_disabled": 0, "rental_uris": {"android": "https://dc.lft.to/lastmile_qr_scan", "ios": "https://dc.lft.to/lastmile_qr_scan"}, "fusion_lon": 0.0, "lat": 38.90030983333333, "bike_id": "76ca8aa670d58ee4e436775aa4ed0749", "type": "electric_scooter", "is_reserved": 0, "lon": -76.9913395}, {"fusion_lat": 0.0, "name": "f58f619de193557852f4a76f474a9fff", "is_disabled": 0, "rental_uris": {"android": "https://dc.lft.to/lastmile_qr_scan", "ios": "https://dc.lft.to/lastmile_qr_scan"}, "fusion_lon": 0.0, "lat": 38.930328833333334, "bike_id": "f58f619de193557852f4a76f474a9fff", "type": "electric_scooter", "is_reserved": 0, "lon": -77.0329175}, {"fusion_lat": 0.0, "name": "a835f1f19d23853205d0360b5f2c4c86", "is_disabled": 0, "rental_uris": {"android": "https://dc.lft.to/lastmile_qr_scan", "ios": "https://dc.lft.to/lastmile_qr_scan"}, "fusion_lon": 0.0, "lat": 38.898757833333335, "bike_id": "a835f1f19d23853205d0360b5f2c4c86", "type": "electric_scooter", "is_reserved": 0, "lon": -76.9318595}, {"fusion_lat": 0.0, "name": "63be553cd727ae718dcf10fbf5b784e9", "is_disabled": 0, "rental_uris": {"android": "https://dc.lft.to/lastmile_qr_scan", "ios": "https://dc.lft.to/lastmile_qr_scan"}, "fusion_lon": 0.0, "lat": 38.920978833333336, "bike_id": "63be553cd727ae718dcf10fbf5b784e9", "type": "electric_scooter", "is_reserved": 0, "lon": -77.02222966666666}, {"fusion_lat": 0.0, "name": "b3c8950c9843dae33fc8f68d310a80c7", "is_disabled": 0, "rental_uris": {"android": "https://dc.lft.to/lastmile_qr_scan", "ios": "https://dc.lft.to/lastmile_qr_scan"}, "fusion_lon": 0.0, "lat": 38.904725666666664, "bike_id": "b3c8950c9843dae33fc8f68d310a80c7", "type": "electric_scooter", "is_reserved": 0, "lon": -77.04814033333334}, {"fusion_lat": 0.0, "name": "6e7a00cca2477edf91020be25af7cd14", "is_disabled": 0, "rental_uris": {"android": "https://dc.lft.to/lastmile_qr_scan", "ios": "https://dc.lft.to/lastmile_qr_scan"}, "fusion_lon": 0.0, "lat": 38.877042333333335, "bike_id": "6e7a00cca2477edf91020be25af7cd14", "type": "electric_scooter", "is_reserved": 0, "lon": -76.99381966666667}, {"fusion_lat": 0.0, "name": "aee2543a7d052c6867a9ccd3e7ce4a62", "is_disabled": 0, "rental_uris": {"android": "https://dc.lft.to/lastmile_qr_scan", "ios": "https://dc.lft.to/lastmile_qr_scan"}, "fusion_lon": 0.0, "lat": 38.89181, "bike_id": "aee2543a7d052c6867a9ccd3e7ce4a62", "type": "electric_scooter", "is_reserved": 0, "lon": -77.03338766666667}, {"fusion_lat": 0.0, "name": "da95868b433d11f3fed2cf03d1f1c511", "is_disabled": 0, "rental_uris": {"android": "https://dc.lft.to/lastmile_qr_scan", "ios": "https://dc.lft.to/lastmile_qr_scan"}, "fusion_lon": 0.0, "lat": 38.905683, "bike_id": "da95868b433d11f3fed2cf03d1f1c511", "type": "electric_scooter", "is_reserved": 0, "lon": -77.0222255}, {"fusion_lat": 0.0, "name": "f80cdb15d9684ada944cd4d75245803c", "is_disabled": 0, "rental_uris": {"android": "https://dc.lft.to/lastmile_qr_scan", "ios": "https://dc.lft.to/lastmile_qr_scan"}, "fusion_lon": 0.0, "lat": 38.9025675, "bike_id": "f80cdb15d9684ada944cd4d75245803c", "type": "electric_scooter", "is_reserved": 0, "lon": -77.03949233333333}, {"fusion_lat": 0.0, "name": "6d16285903642e2a1b60153aa6803bd3", "is_disabled": 0, "rental_uris": {"android": "https://dc.lft.to/lastmile_qr_scan", "ios": "https://dc.lft.to/lastmile_qr_scan"}, "fusion_lon": 0.0, "lat": 38.909902333333335, "bike_id": "6d16285903642e2a1b60153aa6803bd3", "type": "electric_scooter", "is_reserved": 0, "lon": -77.033799}, {"fusion_lat": 0.0, "name": "0b276ab4b5820a7fcb49f6eda28c4bb6", "is_disabled": 0, "rental_uris": {"android": "https://dc.lft.to/lastmile_qr_scan", "ios": "https://dc.lft.to/lastmile_qr_scan"}, "fusion_lon": 0.0, "lat": 38.84132783333333, "bike_id": "0b276ab4b5820a7fcb49f6eda28c4bb6", "type": "electric_bike", "is_reserved": 0, "lon": -76.94762433333334}, {"fusion_lat": 0.0, "name": "39efd78e030a16d7119fc2dc5d87528b", "is_disabled": 0, "rental_uris": {"android": "https://dc.lft.to/lastmile_qr_scan", "ios": "https://dc.lft.to/lastmile_qr_scan"}, "fusion_lon": 0.0, "lat": 38.88135283333333, "bike_id": "39efd78e030a16d7119fc2dc5d87528b", "type": "electric_scooter", "is_reserved": 0, "lon": -77.01662966666666}, {"fusion_lat": 0.0, "name": "0636352979874ed4f3d4e6508ac75ed2", "is_disabled": 0, "rental_uris": {"android": "https://dc.lft.to/lastmile_qr_scan", "ios": "https://dc.lft.to/lastmile_qr_scan"}, "fusion_lon": 0.0, "lat": 38.925534, "bike_id": "0636352979874ed4f3d4e6508ac75ed2", "type": "electric_scooter", "is_reserved": 0, "lon": -77.05306116666667}, {"fusion_lat": 0.0, "name": "2f6b425afd8d1201f7dfded6957b0694", "is_disabled": 0, "rental_uris": {"android": "https://dc.lft.to/lastmile_qr_scan", "ios": "https://dc.lft.to/lastmile_qr_scan"}, "fusion_lon": 0.0, "lat": 38.864660666666666, "bike_id": "2f6b425afd8d1201f7dfded6957b0694", "type": "electric_bike", "is_reserved": 0, "lon": -76.94543966666667}, {"fusion_lat": 0.0, "name": "0ee8a347a09579dfd5c385e52003c6a8", "is_disabled": 0, "rental_uris": {"android": "https://dc.lft.to/lastmile_qr_scan", "ios": "https://dc.lft.to/lastmile_qr_scan"}, "fusion_lon": 0.0, "lat": 38.844223166666666, "bike_id": "0ee8a347a09579dfd5c385e52003c6a8", "type": "electric_scooter", "is_reserved": 0, "lon": -76.99784333333334}, {"fusion_lat": 0.0, "name": "abe9e979beccd1d84e9dfd7b119fc0fe", "is_disabled": 0, "rental_uris": {"android": "https://dc.lft.to/lastmile_qr_scan", "ios": "https://dc.lft.to/lastmile_qr_scan"}, "fusion_lon": 0.0, "lat": 38.931849666666665, "bike_id": "abe9e979beccd1d84e9dfd7b119fc0fe", "type": "electric_scooter", "is_reserved": 0, "lon": -77.042946}, {"fusion_lat": 0.0, "name": "c14ec04137e055fd334aff9a468b8826", "is_disabled": 0, "rental_uris": {"android": "https://dc.lft.to/lastmile_qr_scan", "ios": "https://dc.lft.to/lastmile_qr_scan"}, "fusion_lon": 0.0, "lat": 38.88447333333333, "bike_id": "c14ec04137e055fd334aff9a468b8826", "type": "electric_scooter", "is_reserved": 0, "lon": -77.02482383333333}, {"fusion_lat": 0.0, "name": "58c1c95fbde88bf8619553e39b185905", "is_disabled": 0, "rental_uris": {"android": "https://dc.lft.to/lastmile_qr_scan", "ios": "https://dc.lft.to/lastmile_qr_scan"}, "fusion_lon": 0.0, "lat": 38.910876333333334, "bike_id": "58c1c95fbde88bf8619553e39b185905", "type": "electric_scooter", "is_reserved": 0, "lon": -77.06503116666667}, {"fusion_lat": 0.0, "name": "625b43fb1effa17418482771e9060468", "is_disabled": 0, "rental_uris": {"android": "https://dc.lft.to/lastmile_qr_scan", "ios": "https://dc.lft.to/lastmile_qr_scan"}, "fusion_lon": 0.0, "lat": 38.94403616666666, "bike_id": "625b43fb1effa17418482771e9060468", "type": "electric_scooter", "is_reserved": 0, "lon": -77.038642}, {"fusion_lat": 0.0, "name": "c5f34a85be66fb9ea035f5bf5702a539", "is_disabled": 0, "rental_uris": {"android": "https://dc.lft.to/lastmile_qr_scan", "ios": "https://dc.lft.to/lastmile_qr_scan"}, "fusion_lon": 0.0, "lat": 38.82453616666667, "bike_id": "c5f34a85be66fb9ea035f5bf5702a539", "type": "electric_bike", "is_reserved": 0, "lon": -77.00803666666667}, {"fusion_lat": 0.0, "name": "c81e2a5e215f74f08491286a9faf2519", "is_disabled": 0, "rental_uris": {"android": "https://dc.lft.to/lastmile_qr_scan", "ios": "https://dc.lft.to/lastmile_qr_scan"}, "fusion_lon": 0.0, "lat": 38.91398983333333, "bike_id": "c81e2a5e215f74f08491286a9faf2519", "type": "electric_scooter", "is_reserved": 0, "lon": -77.008403}, {"fusion_lat": 0.0, "name": "9cd5acf0362b606c3e7ddf7dab145700", "is_disabled": 0, "rental_uris": {"android": "https://dc.lft.to/lastmile_qr_scan", "ios": "https://dc.lft.to/lastmile_qr_scan"}, "fusion_lon": 0.0, "lat": 38.90956383333334, "bike_id": "9cd5acf0362b606c3e7ddf7dab145700", "type": "electric_scooter", "is_reserved": 0, "lon": -76.98539183333334}, {"fusion_lat": 0.0, "name": "797934bd6cbd6b30899522f96082a0e7", "is_disabled": 0, "rental_uris": {"android": "https://dc.lft.to/lastmile_qr_scan", "ios": "https://dc.lft.to/lastmile_qr_scan"}, "fusion_lon": 0.0, "lat": 38.92207333333333, "bike_id": "797934bd6cbd6b30899522f96082a0e7", "type": "electric_scooter", "is_reserved": 0, "lon": -77.03783516666667}, {"fusion_lat": 0.0, "name": "ea0b0c06f673d000ac323fa83f647e05", "is_disabled": 0, "rental_uris": {"android": "https://dc.lft.to/lastmile_qr_scan", "ios": "https://dc.lft.to/lastmile_qr_scan"}, "fusion_lon": 0.0, "lat": 38.8429535, "bike_id": "ea0b0c06f673d000ac323fa83f647e05", "type": "electric_bike", "is_reserved": 0, "lon": -77.10873316666667}, {"fusion_lat": 0.0, "name": "f126f8a9bddfe06fb8420f82cfde1fd4", "is_disabled": 0, "rental_uris": {"android": "https://dc.lft.to/lastmile_qr_scan", "ios": "https://dc.lft.to/lastmile_qr_scan"}, "fusion_lon": 0.0, "lat": 38.919081166666665, "bike_id": "f126f8a9bddfe06fb8420f82cfde1fd4", "type": "electric_scooter", "is_reserved": 0, "lon": -77.02472433333334}, {"fusion_lat": 0.0, "name": "63dd8e0d70d12150d9e86f60f4e9f418", "is_disabled": 0, "rental_uris": {"android": "https://dc.lft.to/lastmile_qr_scan", "ios": "https://dc.lft.to/lastmile_qr_scan"}, "fusion_lon": 0.0, "lat": 38.87039816666667, "bike_id": "63dd8e0d70d12150d9e86f60f4e9f418", "type": "electric_scooter", "is_reserved": 0, "lon": -77.01009616666667}, {"fusion_lat": 0.0, "name": "efded957713e0a76b1c960f15ab533a4", "is_disabled": 0, "rental_uris": {"android": "https://dc.lft.to/lastmile_qr_scan", "ios": "https://dc.lft.to/lastmile_qr_scan"}, "fusion_lon": 0.0, "lat": 38.9211595, "bike_id": "efded957713e0a76b1c960f15ab533a4", "type": "electric_scooter", "is_reserved": 0, "lon": -77.01762416666666}, {"fusion_lat": 0.0, "name": "cc879e1b32ff1715ded08a3413e4932a", "is_disabled": 0, "rental_uris": {"android": "https://dc.lft.to/lastmile_qr_scan", "ios": "https://dc.lft.to/lastmile_qr_scan"}, "fusion_lon": 0.0, "lat": 38.887633666666666, "bike_id": "cc879e1b32ff1715ded08a3413e4932a", "type": "electric_scooter", "is_reserved": 0, "lon": -76.97754783333333}, {"fusion_lat": 0.0, "name": "c37ec6f70336ef64525226774618d910", "is_disabled": 0, "rental_uris": {"android": "https://dc.lft.to/lastmile_qr_scan", "ios": "https://dc.lft.to/lastmile_qr_scan"}, "fusion_lon": 0.0, "lat": 38.916428333333336, "bike_id": "c37ec6f70336ef64525226774618d910", "type": "electric_bike", "is_reserved": 0, "lon": -77.0213785}, {"fusion_lat": 0.0, "name": "0ea77c790fe923cb0f5a714f5a8bc43e", "is_disabled": 0, "rental_uris": {"android": "https://dc.lft.to/lastmile_qr_scan", "ios": "https://dc.lft.to/lastmile_qr_scan"}, "fusion_lon": 0.0, "lat": 38.897101666666664, "bike_id": "0ea77c790fe923cb0f5a714f5a8bc43e", "type": "electric_scooter", "is_reserved": 0, "lon": -77.0241295}, {"fusion_lat": 0.0, "name": "41d12c573b387094438019719f4e0a97", "is_disabled": 0, "rental_uris": {"android": "https://dc.lft.to/lastmile_qr_scan", "ios": "https://dc.lft.to/lastmile_qr_scan"}, "fusion_lon": 0.0, "lat": 38.8990385, "bike_id": "41d12c573b387094438019719f4e0a97", "type": "electric_scooter", "is_reserved": 0, "lon": -76.94546633333333}, {"fusion_lat": 0.0, "name": "a6fafc8bd3d2166bbc2b90f460d7ef17", "is_disabled": 0, "rental_uris": {"android": "https://dc.lft.to/lastmile_qr_scan", "ios": "https://dc.lft.to/lastmile_qr_scan"}, "fusion_lon": 0.0, "lat": 38.9014075, "bike_id": "a6fafc8bd3d2166bbc2b90f460d7ef17", "type": "electric_scooter", "is_reserved": 0, "lon": -77.04380366666666}, {"fusion_lat": 0.0, "name": "0c7ab0617789f46f615e318b2da76f07", "is_disabled": 0, "rental_uris": {"android": "https://dc.lft.to/lastmile_qr_scan", "ios": "https://dc.lft.to/lastmile_qr_scan"}, "fusion_lon": 0.0, "lat": 38.922952333333335, "bike_id": "0c7ab0617789f46f615e318b2da76f07", "type": "electric_scooter", "is_reserved": 0, "lon": -77.0182555}, {"fusion_lat": 0.0, "name": "7b23fd3edfc2d370a2388a646a483f49", "is_disabled": 0, "rental_uris": {"android": "https://dc.lft.to/lastmile_qr_scan", "ios": "https://dc.lft.to/lastmile_qr_scan"}, "fusion_lon": 0.0, "lat": 38.897321, "bike_id": "7b23fd3edfc2d370a2388a646a483f49", "type": "electric_scooter", "is_reserved": 0, "lon": -77.02441116666667}, {"fusion_lat": 0.0, "name": "f640407c39ea95876c8a8205f7df2b92", "is_disabled": 0, "rental_uris": {"android": "https://dc.lft.to/lastmile_qr_scan", "ios": "https://dc.lft.to/lastmile_qr_scan"}, "fusion_lon": 0.0, "lat": 38.934641166666665, "bike_id": "f640407c39ea95876c8a8205f7df2b92", "type": "electric_scooter", "is_reserved": 0, "lon": -77.041167}, {"fusion_lat": 0.0, "name": "6b0b70e3c91cd0bf53c25da7ddf9261f", "is_disabled": 0, "rental_uris": {"android": "https://dc.lft.to/lastmile_qr_scan", "ios": "https://dc.lft.to/lastmile_qr_scan"}, "fusion_lon": 0.0, "lat": 38.909126, "bike_id": "6b0b70e3c91cd0bf53c25da7ddf9261f", "type": "electric_scooter", "is_reserved": 0, "lon": -76.99938583333333}, {"fusion_lat": 0.0, "name": "9278a9ea01802bb7530df22473e5a715", "is_disabled": 0, "rental_uris": {"android": "https://dc.lft.to/lastmile_qr_scan", "ios": "https://dc.lft.to/lastmile_qr_scan"}, "fusion_lon": 0.0, "lat": 38.92474133333333, "bike_id": "9278a9ea01802bb7530df22473e5a715", "type": "electric_scooter", "is_reserved": 0, "lon": -77.020776}, {"fusion_lat": 0.0, "name": "2da3be726bd804c39cba18b7f0d9095f", "is_disabled": 0, "rental_uris": {"android": "https://dc.lft.to/lastmile_qr_scan", "ios": "https://dc.lft.to/lastmile_qr_scan"}, "fusion_lon": 0.0, "lat": 38.907263, "bike_id": "2da3be726bd804c39cba18b7f0d9095f", "type": "electric_scooter", "is_reserved": 0, "lon": -77.01140866666667}, {"fusion_lat": 0.0, "name": "a0a24d20057bd49c572addffb0fcea94", "is_disabled": 0, "rental_uris": {"android": "https://dc.lft.to/lastmile_qr_scan", "ios": "https://dc.lft.to/lastmile_qr_scan"}, "fusion_lon": 0.0, "lat": 38.91172516666666, "bike_id": "a0a24d20057bd49c572addffb0fcea94", "type": "electric_scooter", "is_reserved": 0, "lon": -77.02833083333333}, {"fusion_lat": 0.0, "name": "7c3ad1a58a095840c7d674b5b6fff554", "is_disabled": 0, "rental_uris": {"android": "https://dc.lft.to/lastmile_qr_scan", "ios": "https://dc.lft.to/lastmile_qr_scan"}, "fusion_lon": 0.0, "lat": 38.907896, "bike_id": "7c3ad1a58a095840c7d674b5b6fff554", "type": "electric_scooter", "is_reserved": 0, "lon": -77.04264566666667}, {"fusion_lat": 0.0, "name": "390d55a54a8770596257a6465a89ce77", "is_disabled": 0, "rental_uris": {"android": "https://dc.lft.to/lastmile_qr_scan", "ios": "https://dc.lft.to/lastmile_qr_scan"}, "fusion_lon": 0.0, "lat": 38.90046133333333, "bike_id": "390d55a54a8770596257a6465a89ce77", "type": "electric_scooter", "is_reserved": 0, "lon": -77.03371816666667}, {"fusion_lat": 0.0, "name": "75dbd1beba989514d049f9669b51e16b", "is_disabled": 0, "rental_uris": {"android": "https://dc.lft.to/lastmile_qr_scan", "ios": "https://dc.lft.to/lastmile_qr_scan"}, "fusion_lon": 0.0, "lat": 38.90725416666667, "bike_id": "75dbd1beba989514d049f9669b51e16b", "type": "electric_scooter", "is_reserved": 0, "lon": -77.04762383333333}, {"fusion_lat": 0.0, "name": "cf9e15cf74092ec714ea974bd59d69ad", "is_disabled": 0, "rental_uris": {"android": "https://dc.lft.to/lastmile_qr_scan", "ios": "https://dc.lft.to/lastmile_qr_scan"}, "fusion_lon": 0.0, "lat": 38.90103333333333, "bike_id": "cf9e15cf74092ec714ea974bd59d69ad", "type": "electric_scooter", "is_reserved": 0, "lon": -76.93048883333333}, {"fusion_lat": 0.0, "name": "b6e47db032f5439ec180e133ba584d52", "is_disabled": 0, "rental_uris": {"android": "https://dc.lft.to/lastmile_qr_scan", "ios": "https://dc.lft.to/lastmile_qr_scan"}, "fusion_lon": 0.0, "lat": 38.92077466666667, "bike_id": "b6e47db032f5439ec180e133ba584d52", "type": "electric_scooter", "is_reserved": 0, "lon": -77.02307533333334}, {"fusion_lat": 0.0, "name": "b7cc2dad867f0fe2d46df2cbb6406127", "is_disabled": 0, "rental_uris": {"android": "https://dc.lft.to/lastmile_qr_scan", "ios": "https://dc.lft.to/lastmile_qr_scan"}, "fusion_lon": 0.0, "lat": 38.91958133333333, "bike_id": "b7cc2dad867f0fe2d46df2cbb6406127", "type": "electric_bike", "is_reserved": 0, "lon": -77.10114216666666}, {"fusion_lat": 0.0, "name": "50e44c59f0e0d4222345dc9e3651ac61", "is_disabled": 0, "rental_uris": {"android": "https://dc.lft.to/lastmile_qr_scan", "ios": "https://dc.lft.to/lastmile_qr_scan"}, "fusion_lon": 0.0, "lat": 38.868296, "bike_id": "50e44c59f0e0d4222345dc9e3651ac61", "type": "electric_scooter", "is_reserved": 0, "lon": -77.0112235}, {"fusion_lat": 0.0, "name": "2a4e40b720e41b25ecaad55da07869f3", "is_disabled": 0, "rental_uris": {"android": "https://dc.lft.to/lastmile_qr_scan", "ios": "https://dc.lft.to/lastmile_qr_scan"}, "fusion_lon": 0.0, "lat": 38.9167575, "bike_id": "2a4e40b720e41b25ecaad55da07869f3", "type": "electric_scooter", "is_reserved": 0, "lon": -77.02961916666666}, {"fusion_lat": 0.0, "name": "4c68bcdc0a02eeafc514b7010bce98f2", "is_disabled": 0, "rental_uris": {"android": "https://dc.lft.to/lastmile_qr_scan", "ios": "https://dc.lft.to/lastmile_qr_scan"}, "fusion_lon": 0.0, "lat": 38.91939266666667, "bike_id": "4c68bcdc0a02eeafc514b7010bce98f2", "type": "electric_scooter", "is_reserved": 0, "lon": -77.024929}, {"fusion_lat": 0.0, "name": "492251593d7f1fc2ae4f878a5979e146", "is_disabled": 0, "rental_uris": {"android": "https://dc.lft.to/lastmile_qr_scan", "ios": "https://dc.lft.to/lastmile_qr_scan"}, "fusion_lon": 0.0, "lat": 38.9080865, "bike_id": "492251593d7f1fc2ae4f878a5979e146", "type": "electric_scooter", "is_reserved": 0, "lon": -77.04346633333333}, {"fusion_lat": 0.0, "name": "03afd2e7ea5e65955d066ab62e338d2d", "is_disabled": 0, "rental_uris": {"android": "https://dc.lft.to/lastmile_qr_scan", "ios": "https://dc.lft.to/lastmile_qr_scan"}, "fusion_lon": 0.0, "lat": 38.92916816666666, "bike_id": "03afd2e7ea5e65955d066ab62e338d2d", "type": "electric_scooter", "is_reserved": 0, "lon": -77.03769516666667}, {"fusion_lat": 0.0, "name": "a331d80a56fdd6a71f736a66847cc7d1", "is_disabled": 0, "rental_uris": {"android": "https://dc.lft.to/lastmile_qr_scan", "ios": "https://dc.lft.to/lastmile_qr_scan"}, "fusion_lon": 0.0, "lat": 38.90657733333333, "bike_id": "a331d80a56fdd6a71f736a66847cc7d1", "type": "electric_bike", "is_reserved": 0, "lon": -77.02811333333334}, {"fusion_lat": 0.0, "name": "9df6fe0a0153441162dd5b91ef9cbe9e", "is_disabled": 0, "rental_uris": {"android": "https://dc.lft.to/lastmile_qr_scan", "ios": "https://dc.lft.to/lastmile_qr_scan"}, "fusion_lon": 0.0, "lat": 38.91719116666667, "bike_id": "9df6fe0a0153441162dd5b91ef9cbe9e", "type": "electric_scooter", "is_reserved": 0, "lon": -77.0310715}, {"fusion_lat": 0.0, "name": "c57d88382a1ae73ffdc782688fb69d46", "is_disabled": 0, "rental_uris": {"android": "https://dc.lft.to/lastmile_qr_scan", "ios": "https://dc.lft.to/lastmile_qr_scan"}, "fusion_lon": 0.0, "lat": 38.94270783333333, "bike_id": "c57d88382a1ae73ffdc782688fb69d46", "type": "electric_scooter", "is_reserved": 0, "lon": -77.03259733333333}, {"fusion_lat": 0.0, "name": "ec717fc058d3c6f96ad68dd57b812fcb", "is_disabled": 0, "rental_uris": {"android": "https://dc.lft.to/lastmile_qr_scan", "ios": "https://dc.lft.to/lastmile_qr_scan"}, "fusion_lon": 0.0, "lat": 38.83515233333333, "bike_id": "ec717fc058d3c6f96ad68dd57b812fcb", "type": "electric_bike", "is_reserved": 0, "lon": -76.9867685}, {"fusion_lat": 0.0, "name": "556dca62b33a36afde61fb5484402562", "is_disabled": 0, "rental_uris": {"android": "https://dc.lft.to/lastmile_qr_scan", "ios": "https://dc.lft.to/lastmile_qr_scan"}, "fusion_lon": 0.0, "lat": 38.940108333333335, "bike_id": "556dca62b33a36afde61fb5484402562", "type": "electric_scooter", "is_reserved": 0, "lon": -77.0841565}, {"fusion_lat": 0.0, "name": "bd24656e8be054cba2a6e1f4a37033c9", "is_disabled": 0, "rental_uris": {"android": "https://dc.lft.to/lastmile_qr_scan", "ios": "https://dc.lft.to/lastmile_qr_scan"}, "fusion_lon": 0.0, "lat": 38.915531333333334, "bike_id": "bd24656e8be054cba2a6e1f4a37033c9", "type": "electric_scooter", "is_reserved": 0, "lon": -77.01136833333334}, {"fusion_lat": 0.0, "name": "341272823f0b00150408fecc22136c7a", "is_disabled": 0, "rental_uris": {"android": "https://dc.lft.to/lastmile_qr_scan", "ios": "https://dc.lft.to/lastmile_qr_scan"}, "fusion_lon": 0.0, "lat": 38.90158516666666, "bike_id": "341272823f0b00150408fecc22136c7a", "type": "electric_scooter", "is_reserved": 0, "lon": -77.02019916666667}, {"fusion_lat": 0.0, "name": "63c4597e4ab157d13b7c1abfccf67aff", "is_disabled": 0, "rental_uris": {"android": "https://dc.lft.to/lastmile_qr_scan", "ios": "https://dc.lft.to/lastmile_qr_scan"}, "fusion_lon": 0.0, "lat": 38.902155, "bike_id": "63c4597e4ab157d13b7c1abfccf67aff", "type": "electric_scooter", "is_reserved": 0, "lon": -77.02108966666667}, {"fusion_lat": 0.0, "name": "4605d616f12a4d8f931d854b46656c4d", "is_disabled": 0, "rental_uris": {"android": "https://dc.lft.to/lastmile_qr_scan", "ios": "https://dc.lft.to/lastmile_qr_scan"}, "fusion_lon": 0.0, "lat": 38.90029633333333, "bike_id": "4605d616f12a4d8f931d854b46656c4d", "type": "electric_scooter", "is_reserved": 0, "lon": -77.01616116666666}, {"fusion_lat": 0.0, "name": "b3592eb44c1a3a250977bd06df95cb93", "is_disabled": 0, "rental_uris": {"android": "https://dc.lft.to/lastmile_qr_scan", "ios": "https://dc.lft.to/lastmile_qr_scan"}, "fusion_lon": 0.0, "lat": 38.9006435, "bike_id": "b3592eb44c1a3a250977bd06df95cb93", "type": "electric_scooter", "is_reserved": 0, "lon": -76.9338655}, {"fusion_lat": 0.0, "name": "bc153e805d093b2315c137d27bd02347", "is_disabled": 0, "rental_uris": {"android": "https://dc.lft.to/lastmile_qr_scan", "ios": "https://dc.lft.to/lastmile_qr_scan"}, "fusion_lon": 0.0, "lat": 38.9076875, "bike_id": "bc153e805d093b2315c137d27bd02347", "type": "electric_scooter", "is_reserved": 0, "lon": -77.0559665}, {"fusion_lat": 0.0, "name": "448f67c9089278cb390258daf6b2b258", "is_disabled": 0, "rental_uris": {"android": "https://dc.lft.to/lastmile_qr_scan", "ios": "https://dc.lft.to/lastmile_qr_scan"}, "fusion_lon": 0.0, "lat": 38.90683383333333, "bike_id": "448f67c9089278cb390258daf6b2b258", "type": "electric_scooter", "is_reserved": 0, "lon": -77.07214933333333}, {"fusion_lat": 0.0, "name": "b2a32d618e3b212f9d125afa3d408ae5", "is_disabled": 0, "rental_uris": {"android": "https://dc.lft.to/lastmile_qr_scan", "ios": "https://dc.lft.to/lastmile_qr_scan"}, "fusion_lon": 0.0, "lat": 38.90271833333333, "bike_id": "b2a32d618e3b212f9d125afa3d408ae5", "type": "electric_scooter", "is_reserved": 0, "lon": -77.03369683333334}, {"fusion_lat": 0.0, "name": "c4e6574086339d95c13ed72bf8e9ab93", "is_disabled": 0, "rental_uris": {"android": "https://dc.lft.to/lastmile_qr_scan", "ios": "https://dc.lft.to/lastmile_qr_scan"}, "fusion_lon": 0.0, "lat": 38.909805166666665, "bike_id": "c4e6574086339d95c13ed72bf8e9ab93", "type": "electric_scooter", "is_reserved": 0, "lon": -77.0344615}, {"fusion_lat": 0.0, "name": "5d585c47f568b3e4bf0cf23a771af69b", "is_disabled": 0, "rental_uris": {"android": "https://dc.lft.to/lastmile_qr_scan", "ios": "https://dc.lft.to/lastmile_qr_scan"}, "fusion_lon": 0.0, "lat": 38.886362, "bike_id": "5d585c47f568b3e4bf0cf23a771af69b", "type": "electric_scooter", "is_reserved": 0, "lon": -77.0152865}, {"fusion_lat": 0.0, "name": "2b2da0d4e6d117e138f791323e92a49c", "is_disabled": 0, "rental_uris": {"android": "https://dc.lft.to/lastmile_qr_scan", "ios": "https://dc.lft.to/lastmile_qr_scan"}, "fusion_lon": 0.0, "lat": 38.91401, "bike_id": "2b2da0d4e6d117e138f791323e92a49c", "type": "electric_scooter", "is_reserved": 0, "lon": -77.03178716666666}, {"fusion_lat": 0.0, "name": "388d1ce2663430182f7a668a7de8fc1e", "is_disabled": 0, "rental_uris": {"android": "https://dc.lft.to/lastmile_qr_scan", "ios": "https://dc.lft.to/lastmile_qr_scan"}, "fusion_lon": 0.0, "lat": 38.90473216666667, "bike_id": "388d1ce2663430182f7a668a7de8fc1e", "type": "electric_scooter", "is_reserved": 0, "lon": -76.95204983333333}, {"fusion_lat": 0.0, "name": "0ce3b1a8e2d66570490059f99a43f1f2", "is_disabled": 0, "rental_uris": {"android": "https://dc.lft.to/lastmile_qr_scan", "ios": "https://dc.lft.to/lastmile_qr_scan"}, "fusion_lon": 0.0, "lat": 38.89456366666667, "bike_id": "0ce3b1a8e2d66570490059f99a43f1f2", "type": "electric_scooter", "is_reserved": 0, "lon": -77.011171}, {"fusion_lat": 0.0, "name": "f2c030181def1c22c73250bed90fb17e", "is_disabled": 0, "rental_uris": {"android": "https://dc.lft.to/lastmile_qr_scan", "ios": "https://dc.lft.to/lastmile_qr_scan"}, "fusion_lon": 0.0, "lat": 38.90097, "bike_id": "f2c030181def1c22c73250bed90fb17e", "type": "electric_scooter", "is_reserved": 0, "lon": -77.04746016666667}, {"fusion_lat": 0.0, "name": "835db85b0ae392257f0222f705bd2c03", "is_disabled": 0, "rental_uris": {"android": "https://dc.lft.to/lastmile_qr_scan", "ios": "https://dc.lft.to/lastmile_qr_scan"}, "fusion_lon": 0.0, "lat": 38.9554545, "bike_id": "835db85b0ae392257f0222f705bd2c03", "type": "electric_bike", "is_reserved": 0, "lon": -77.06938016666666}, {"fusion_lat": 0.0, "name": "5a70c7aa9e643f30e159bee40fb8b681", "is_disabled": 0, "rental_uris": {"android": "https://dc.lft.to/lastmile_qr_scan", "ios": "https://dc.lft.to/lastmile_qr_scan"}, "fusion_lon": 0.0, "lat": 38.915064, "bike_id": "5a70c7aa9e643f30e159bee40fb8b681", "type": "electric_scooter", "is_reserved": 0, "lon": -77.03269033333333}, {"fusion_lat": 0.0, "name": "d1a5108af681bd56ad910f508cce61b3", "is_disabled": 0, "rental_uris": {"android": "https://dc.lft.to/lastmile_qr_scan", "ios": "https://dc.lft.to/lastmile_qr_scan"}, "fusion_lon": 0.0, "lat": 38.916933, "bike_id": "d1a5108af681bd56ad910f508cce61b3", "type": "electric_scooter", "is_reserved": 0, "lon": -77.037218}, {"fusion_lat": 0.0, "name": "5edb8b9393b153678553ec086db2416c", "is_disabled": 0, "rental_uris": {"android": "https://dc.lft.to/lastmile_qr_scan", "ios": "https://dc.lft.to/lastmile_qr_scan"}, "fusion_lon": 0.0, "lat": 38.92051716666667, "bike_id": "5edb8b9393b153678553ec086db2416c", "type": "electric_scooter", "is_reserved": 0, "lon": -77.0243585}, {"fusion_lat": 0.0, "name": "1ec97ada57fa280cc85ca3748a545d79", "is_disabled": 0, "rental_uris": {"android": "https://dc.lft.to/lastmile_qr_scan", "ios": "https://dc.lft.to/lastmile_qr_scan"}, "fusion_lon": 0.0, "lat": 38.929662666666665, "bike_id": "1ec97ada57fa280cc85ca3748a545d79", "type": "electric_bike", "is_reserved": 0, "lon": -77.03275416666666}, {"fusion_lat": 0.0, "name": "7b18934c719ddf01bd6d69d3640bc917", "is_disabled": 0, "rental_uris": {"android": "https://dc.lft.to/lastmile_qr_scan", "ios": "https://dc.lft.to/lastmile_qr_scan"}, "fusion_lon": 0.0, "lat": 38.94896, "bike_id": "7b18934c719ddf01bd6d69d3640bc917", "type": "electric_bike", "is_reserved": 0, "lon": -76.96386483333333}, {"fusion_lat": 0.0, "name": "b40004537a13a32bc8febe1e5f651a16", "is_disabled": 0, "rental_uris": {"android": "https://dc.lft.to/lastmile_qr_scan", "ios": "https://dc.lft.to/lastmile_qr_scan"}, "fusion_lon": 0.0, "lat": 38.912577, "bike_id": "b40004537a13a32bc8febe1e5f651a16", "type": "electric_scooter", "is_reserved": 0, "lon": -77.0387525}, {"fusion_lat": 0.0, "name": "c23ed551ae25984d034541888447c55b", "is_disabled": 0, "rental_uris": {"android": "https://dc.lft.to/lastmile_qr_scan", "ios": "https://dc.lft.to/lastmile_qr_scan"}, "fusion_lon": 0.0, "lat": 38.90963383333333, "bike_id": "c23ed551ae25984d034541888447c55b", "type": "electric_scooter", "is_reserved": 0, "lon": -77.04607583333333}, {"fusion_lat": 0.0, "name": "ae8644ec60076e6cefd6d3c192b88f5f", "is_disabled": 0, "rental_uris": {"android": "https://dc.lft.to/lastmile_qr_scan", "ios": "https://dc.lft.to/lastmile_qr_scan"}, "fusion_lon": 0.0, "lat": 38.90534, "bike_id": "ae8644ec60076e6cefd6d3c192b88f5f", "type": "electric_bike", "is_reserved": 0, "lon": -76.9981465}, {"fusion_lat": 0.0, "name": "8e6f35843ad1acacafe0e92328ea69e3", "is_disabled": 0, "rental_uris": {"android": "https://dc.lft.to/lastmile_qr_scan", "ios": "https://dc.lft.to/lastmile_qr_scan"}, "fusion_lon": 0.0, "lat": 38.8662645, "bike_id": "8e6f35843ad1acacafe0e92328ea69e3", "type": "electric_scooter", "is_reserved": 0, "lon": -76.9871755}, {"fusion_lat": 0.0, "name": "ea789e565c753453450994d27057c591", "is_disabled": 0, "rental_uris": {"android": "https://dc.lft.to/lastmile_qr_scan", "ios": "https://dc.lft.to/lastmile_qr_scan"}, "fusion_lon": 0.0, "lat": 38.8922425, "bike_id": "ea789e565c753453450994d27057c591", "type": "electric_scooter", "is_reserved": 0, "lon": -77.04870583333333}, {"fusion_lat": 0.0, "name": "25957d1f12f1feb2f51affe5eec87311", "is_disabled": 0, "rental_uris": {"android": "https://dc.lft.to/lastmile_qr_scan", "ios": "https://dc.lft.to/lastmile_qr_scan"}, "fusion_lon": 0.0, "lat": 38.93489983333333, "bike_id": "25957d1f12f1feb2f51affe5eec87311", "type": "electric_scooter", "is_reserved": 0, "lon": -77.07336633333334}, {"fusion_lat": 0.0, "name": "2acb0bbfe3d23719834610a1327f2037", "is_disabled": 0, "rental_uris": {"android": "https://dc.lft.to/lastmile_qr_scan", "ios": "https://dc.lft.to/lastmile_qr_scan"}, "fusion_lon": 0.0, "lat": 38.902836666666666, "bike_id": "2acb0bbfe3d23719834610a1327f2037", "type": "electric_scooter", "is_reserved": 0, "lon": -77.04895016666667}, {"fusion_lat": 0.0, "name": "67a0004a4f616cc0b093bbda3f07213c", "is_disabled": 0, "rental_uris": {"android": "https://dc.lft.to/lastmile_qr_scan", "ios": "https://dc.lft.to/lastmile_qr_scan"}, "fusion_lon": 0.0, "lat": 38.8986975, "bike_id": "67a0004a4f616cc0b093bbda3f07213c", "type": "electric_scooter", "is_reserved": 0, "lon": -77.020372}, {"fusion_lat": 0.0, "name": "55cab217d90d7a1be55cc9d2e5b925c4", "is_disabled": 0, "rental_uris": {"android": "https://dc.lft.to/lastmile_qr_scan", "ios": "https://dc.lft.to/lastmile_qr_scan"}, "fusion_lon": 0.0, "lat": 38.900106, "bike_id": "55cab217d90d7a1be55cc9d2e5b925c4", "type": "electric_scooter", "is_reserved": 0, "lon": -77.04490733333333}, {"fusion_lat": 0.0, "name": "1dd914d261f63e5fce69a05bb08096fc", "is_disabled": 0, "rental_uris": {"android": "https://dc.lft.to/lastmile_qr_scan", "ios": "https://dc.lft.to/lastmile_qr_scan"}, "fusion_lon": 0.0, "lat": 38.927087666666665, "bike_id": "1dd914d261f63e5fce69a05bb08096fc", "type": "electric_scooter", "is_reserved": 0, "lon": -77.05393366666667}, {"fusion_lat": 0.0, "name": "d7f65f3cbf03d023fe092ece46695540", "is_disabled": 0, "rental_uris": {"android": "https://dc.lft.to/lastmile_qr_scan", "ios": "https://dc.lft.to/lastmile_qr_scan"}, "fusion_lon": 0.0, "lat": 38.907736166666666, "bike_id": "d7f65f3cbf03d023fe092ece46695540", "type": "electric_scooter", "is_reserved": 0, "lon": -77.04250316666666}, {"fusion_lat": 0.0, "name": "458928bd22e4df7e5ef01d2e61859c5c", "is_disabled": 0, "rental_uris": {"android": "https://dc.lft.to/lastmile_qr_scan", "ios": "https://dc.lft.to/lastmile_qr_scan"}, "fusion_lon": 0.0, "lat": 38.9261455, "bike_id": "458928bd22e4df7e5ef01d2e61859c5c", "type": "electric_scooter", "is_reserved": 0, "lon": -77.07571233333333}, {"fusion_lat": 0.0, "name": "55108d39fe10e49a432091a479171c21", "is_disabled": 0, "rental_uris": {"android": "https://dc.lft.to/lastmile_qr_scan", "ios": "https://dc.lft.to/lastmile_qr_scan"}, "fusion_lon": 0.0, "lat": 38.900170833333334, "bike_id": "55108d39fe10e49a432091a479171c21", "type": "electric_scooter", "is_reserved": 0, "lon": -77.00368966666667}, {"fusion_lat": 0.0, "name": "09bba554448ffecdf3224308b8b134a5", "is_disabled": 0, "rental_uris": {"android": "https://dc.lft.to/lastmile_qr_scan", "ios": "https://dc.lft.to/lastmile_qr_scan"}, "fusion_lon": 0.0, "lat": 38.87902, "bike_id": "09bba554448ffecdf3224308b8b134a5", "type": "electric_scooter", "is_reserved": 0, "lon": -77.0071255}, {"fusion_lat": 0.0, "name": "f9a1ad96171f044a071d94b86696f8b7", "is_disabled": 0, "rental_uris": {"android": "https://dc.lft.to/lastmile_qr_scan", "ios": "https://dc.lft.to/lastmile_qr_scan"}, "fusion_lon": 0.0, "lat": 38.92805216666667, "bike_id": "f9a1ad96171f044a071d94b86696f8b7", "type": "electric_scooter", "is_reserved": 0, "lon": -77.043653}, {"fusion_lat": 0.0, "name": "d412b0d2952ceb4bce372e0601fbefe5", "is_disabled": 0, "rental_uris": {"android": "https://dc.lft.to/lastmile_qr_scan", "ios": "https://dc.lft.to/lastmile_qr_scan"}, "fusion_lon": 0.0, "lat": 38.90109866666667, "bike_id": "d412b0d2952ceb4bce372e0601fbefe5", "type": "electric_scooter", "is_reserved": 0, "lon": -76.97420033333333}, {"fusion_lat": 0.0, "name": "3735bb5077df24d052d68cc5cec8a603", "is_disabled": 0, "rental_uris": {"android": "https://dc.lft.to/lastmile_qr_scan", "ios": "https://dc.lft.to/lastmile_qr_scan"}, "fusion_lon": 0.0, "lat": 38.91994416666667, "bike_id": "3735bb5077df24d052d68cc5cec8a603", "type": "electric_scooter", "is_reserved": 0, "lon": -77.0718855}, {"fusion_lat": 0.0, "name": "b1915a5593af182982b983fb274f325d", "is_disabled": 0, "rental_uris": {"android": "https://dc.lft.to/lastmile_qr_scan", "ios": "https://dc.lft.to/lastmile_qr_scan"}, "fusion_lon": 0.0, "lat": 38.8830165, "bike_id": "b1915a5593af182982b983fb274f325d", "type": "electric_scooter", "is_reserved": 0, "lon": -76.94856133333333}, {"fusion_lat": 0.0, "name": "70c45c63d25517ab1cf25cd33823413e", "is_disabled": 0, "rental_uris": {"android": "https://dc.lft.to/lastmile_qr_scan", "ios": "https://dc.lft.to/lastmile_qr_scan"}, "fusion_lon": 0.0, "lat": 38.95222833333333, "bike_id": "70c45c63d25517ab1cf25cd33823413e", "type": "electric_scooter", "is_reserved": 0, "lon": -77.08220816666666}, {"fusion_lat": 0.0, "name": "b06cc39f51d57f5da5bdccfd8d358162", "is_disabled": 0, "rental_uris": {"android": "https://dc.lft.to/lastmile_qr_scan", "ios": "https://dc.lft.to/lastmile_qr_scan"}, "fusion_lon": 0.0, "lat": 38.8075255, "bike_id": "b06cc39f51d57f5da5bdccfd8d358162", "type": "electric_bike", "is_reserved": 0, "lon": -77.094581}, {"fusion_lat": 0.0, "name": "cf29b030490c6e51219ecaa2e072bd72", "is_disabled": 0, "rental_uris": {"android": "https://dc.lft.to/lastmile_qr_scan", "ios": "https://dc.lft.to/lastmile_qr_scan"}, "fusion_lon": 0.0, "lat": 38.93151433333333, "bike_id": "cf29b030490c6e51219ecaa2e072bd72", "type": "electric_scooter", "is_reserved": 0, "lon": -77.03957016666666}, {"fusion_lat": 0.0, "name": "21bb9382965d43dd1604a5c67b3fba22", "is_disabled": 0, "rental_uris": {"android": "https://dc.lft.to/lastmile_qr_scan", "ios": "https://dc.lft.to/lastmile_qr_scan"}, "fusion_lon": 0.0, "lat": 38.85404466666667, "bike_id": "21bb9382965d43dd1604a5c67b3fba22", "type": "electric_bike", "is_reserved": 0, "lon": -77.12077966666666}, {"fusion_lat": 0.0, "name": "43ecf1fbbb96f8be42200dd6c3485ff2", "is_disabled": 0, "rental_uris": {"android": "https://dc.lft.to/lastmile_qr_scan", "ios": "https://dc.lft.to/lastmile_qr_scan"}, "fusion_lon": 0.0, "lat": 38.88218533333333, "bike_id": "43ecf1fbbb96f8be42200dd6c3485ff2", "type": "electric_scooter", "is_reserved": 0, "lon": -77.02942633333333}, {"fusion_lat": 0.0, "name": "49df37eb100e1a6fed192a605cb248a3", "is_disabled": 0, "rental_uris": {"android": "https://dc.lft.to/lastmile_qr_scan", "ios": "https://dc.lft.to/lastmile_qr_scan"}, "fusion_lon": 0.0, "lat": 38.94079683333333, "bike_id": "49df37eb100e1a6fed192a605cb248a3", "type": "electric_scooter", "is_reserved": 0, "lon": -77.052173}, {"fusion_lat": 0.0, "name": "23a206a43c2d008235e7b953175375ad", "is_disabled": 0, "rental_uris": {"android": "https://dc.lft.to/lastmile_qr_scan", "ios": "https://dc.lft.to/lastmile_qr_scan"}, "fusion_lon": 0.0, "lat": 38.9027095, "bike_id": "23a206a43c2d008235e7b953175375ad", "type": "electric_scooter", "is_reserved": 0, "lon": -77.03360583333334}, {"fusion_lat": 0.0, "name": "b6b6b744dcd23ebeded3a337db0abb19", "is_disabled": 0, "rental_uris": {"android": "https://dc.lft.to/lastmile_qr_scan", "ios": "https://dc.lft.to/lastmile_qr_scan"}, "fusion_lon": 0.0, "lat": 38.9001785, "bike_id": "b6b6b744dcd23ebeded3a337db0abb19", "type": "electric_scooter", "is_reserved": 0, "lon": -77.0002775}, {"fusion_lat": 0.0, "name": "f8df255e5a7a34ba99104083109686e1", "is_disabled": 0, "rental_uris": {"android": "https://dc.lft.to/lastmile_qr_scan", "ios": "https://dc.lft.to/lastmile_qr_scan"}, "fusion_lon": 0.0, "lat": 38.896949, "bike_id": "f8df255e5a7a34ba99104083109686e1", "type": "electric_scooter", "is_reserved": 0, "lon": -77.02396033333333}, {"fusion_lat": 0.0, "name": "a73fbebd8227416091df8350b2c956ff", "is_disabled": 0, "rental_uris": {"android": "https://dc.lft.to/lastmile_qr_scan", "ios": "https://dc.lft.to/lastmile_qr_scan"}, "fusion_lon": 0.0, "lat": 38.913388, "bike_id": "a73fbebd8227416091df8350b2c956ff", "type": "electric_scooter", "is_reserved": 0, "lon": -77.047852}, {"fusion_lat": 0.0, "name": "c53406ad7893f5a07d513afbf5fa0cd1", "is_disabled": 0, "rental_uris": {"android": "https://dc.lft.to/lastmile_qr_scan", "ios": "https://dc.lft.to/lastmile_qr_scan"}, "fusion_lon": 0.0, "lat": 38.91995683333333, "bike_id": "c53406ad7893f5a07d513afbf5fa0cd1", "type": "electric_scooter", "is_reserved": 0, "lon": -77.07150083333333}, {"fusion_lat": 0.0, "name": "82cca6856c9d0d2955becdd2bd4d24bd", "is_disabled": 0, "rental_uris": {"android": "https://dc.lft.to/lastmile_qr_scan", "ios": "https://dc.lft.to/lastmile_qr_scan"}, "fusion_lon": 0.0, "lat": 38.931356666666666, "bike_id": "82cca6856c9d0d2955becdd2bd4d24bd", "type": "electric_scooter", "is_reserved": 0, "lon": -77.03904733333333}, {"fusion_lat": 0.0, "name": "47338e4513b56e06fbf36b9d56fa6ad8", "is_disabled": 0, "rental_uris": {"android": "https://dc.lft.to/lastmile_qr_scan", "ios": "https://dc.lft.to/lastmile_qr_scan"}, "fusion_lon": 0.0, "lat": 38.953730166666666, "bike_id": "47338e4513b56e06fbf36b9d56fa6ad8", "type": "electric_bike", "is_reserved": 0, "lon": -76.97960133333333}, {"fusion_lat": 0.0, "name": "32281ec16e4b3917d85bfab8c4690fa6", "is_disabled": 0, "rental_uris": {"android": "https://dc.lft.to/lastmile_qr_scan", "ios": "https://dc.lft.to/lastmile_qr_scan"}, "fusion_lon": 0.0, "lat": 38.9261805, "bike_id": "32281ec16e4b3917d85bfab8c4690fa6", "type": "electric_scooter", "is_reserved": 0, "lon": -77.04332916666667}, {"fusion_lat": 0.0, "name": "69b0558195267d80abc7d9f5f302fc5a", "is_disabled": 0, "rental_uris": {"android": "https://dc.lft.to/lastmile_qr_scan", "ios": "https://dc.lft.to/lastmile_qr_scan"}, "fusion_lon": 0.0, "lat": 38.92553016666667, "bike_id": "69b0558195267d80abc7d9f5f302fc5a", "type": "electric_scooter", "is_reserved": 0, "lon": -77.04297433333333}, {"fusion_lat": 0.0, "name": "f02f7e52e683138a0c750b585549467b", "is_disabled": 0, "rental_uris": {"android": "https://dc.lft.to/lastmile_qr_scan", "ios": "https://dc.lft.to/lastmile_qr_scan"}, "fusion_lon": 0.0, "lat": 38.93117066666667, "bike_id": "f02f7e52e683138a0c750b585549467b", "type": "electric_scooter", "is_reserved": 0, "lon": -77.02098866666667}, {"fusion_lat": 0.0, "name": "8f3d7e0f3cd20b8aa6d98ff228e0c107", "is_disabled": 0, "rental_uris": {"android": "https://dc.lft.to/lastmile_qr_scan", "ios": "https://dc.lft.to/lastmile_qr_scan"}, "fusion_lon": 0.0, "lat": 38.92072233333333, "bike_id": "8f3d7e0f3cd20b8aa6d98ff228e0c107", "type": "electric_scooter", "is_reserved": 0, "lon": -77.02211933333334}, {"fusion_lat": 0.0, "name": "eb54c8b2ef0b04e003c45c05f6da57f2", "is_disabled": 0, "rental_uris": {"android": "https://dc.lft.to/lastmile_qr_scan", "ios": "https://dc.lft.to/lastmile_qr_scan"}, "fusion_lon": 0.0, "lat": 38.87652333333333, "bike_id": "eb54c8b2ef0b04e003c45c05f6da57f2", "type": "electric_scooter", "is_reserved": 0, "lon": -77.003493}, {"fusion_lat": 0.0, "name": "c273cbc26c1dfc4d7f8b73630c965aa4", "is_disabled": 0, "rental_uris": {"android": "https://dc.lft.to/lastmile_qr_scan", "ios": "https://dc.lft.to/lastmile_qr_scan"}, "fusion_lon": 0.0, "lat": 38.901298, "bike_id": "c273cbc26c1dfc4d7f8b73630c965aa4", "type": "electric_scooter", "is_reserved": 0, "lon": -77.0345995}, {"fusion_lat": 0.0, "name": "210a7065758d223fa6f08ca6d0fac3d6", "is_disabled": 0, "rental_uris": {"android": "https://dc.lft.to/lastmile_qr_scan", "ios": "https://dc.lft.to/lastmile_qr_scan"}, "fusion_lon": 0.0, "lat": 38.926131, "bike_id": "210a7065758d223fa6f08ca6d0fac3d6", "type": "electric_scooter", "is_reserved": 0, "lon": -77.0396235}, {"fusion_lat": 0.0, "name": "90b84a67a2cfdc2dcd6651fad7034b54", "is_disabled": 0, "rental_uris": {"android": "https://dc.lft.to/lastmile_qr_scan", "ios": "https://dc.lft.to/lastmile_qr_scan"}, "fusion_lon": 0.0, "lat": 38.90457516666667, "bike_id": "90b84a67a2cfdc2dcd6651fad7034b54", "type": "electric_scooter", "is_reserved": 0, "lon": -77.00166916666667}, {"fusion_lat": 0.0, "name": "40dd45f58cc924c42714d91dc6bd3ff3", "is_disabled": 0, "rental_uris": {"android": "https://dc.lft.to/lastmile_qr_scan", "ios": "https://dc.lft.to/lastmile_qr_scan"}, "fusion_lon": 0.0, "lat": 38.9132055, "bike_id": "40dd45f58cc924c42714d91dc6bd3ff3", "type": "electric_scooter", "is_reserved": 0, "lon": -77.01447133333333}, {"fusion_lat": 0.0, "name": "35682f94e68694b24d23b41ef0f4d063", "is_disabled": 0, "rental_uris": {"android": "https://dc.lft.to/lastmile_qr_scan", "ios": "https://dc.lft.to/lastmile_qr_scan"}, "fusion_lon": 0.0, "lat": 38.87679933333333, "bike_id": "35682f94e68694b24d23b41ef0f4d063", "type": "electric_scooter", "is_reserved": 0, "lon": -77.00071066666666}, {"fusion_lat": 0.0, "name": "6622c32710e4d67e36da7db24fcc07a5", "is_disabled": 0, "rental_uris": {"android": "https://dc.lft.to/lastmile_qr_scan", "ios": "https://dc.lft.to/lastmile_qr_scan"}, "fusion_lon": 0.0, "lat": 38.87680133333333, "bike_id": "6622c32710e4d67e36da7db24fcc07a5", "type": "electric_scooter", "is_reserved": 0, "lon": -77.0007295}, {"fusion_lat": 0.0, "name": "140fa3379345f0cd69ae1b93e5f3752c", "is_disabled": 0, "rental_uris": {"android": "https://dc.lft.to/lastmile_qr_scan", "ios": "https://dc.lft.to/lastmile_qr_scan"}, "fusion_lon": 0.0, "lat": 38.9280215, "bike_id": "140fa3379345f0cd69ae1b93e5f3752c", "type": "electric_scooter", "is_reserved": 0, "lon": -77.04364416666667}, {"fusion_lat": 0.0, "name": "db88dfbbe07494eaa46ce255ceb979dc", "is_disabled": 0, "rental_uris": {"android": "https://dc.lft.to/lastmile_qr_scan", "ios": "https://dc.lft.to/lastmile_qr_scan"}, "fusion_lon": 0.0, "lat": 38.904239, "bike_id": "db88dfbbe07494eaa46ce255ceb979dc", "type": "electric_scooter", "is_reserved": 0, "lon": -76.94977183333333}, {"fusion_lat": 0.0, "name": "4742c40d7c48dd9880bacba08dbe9c36", "is_disabled": 0, "rental_uris": {"android": "https://dc.lft.to/lastmile_qr_scan", "ios": "https://dc.lft.to/lastmile_qr_scan"}, "fusion_lon": 0.0, "lat": 38.940743499999996, "bike_id": "4742c40d7c48dd9880bacba08dbe9c36", "type": "electric_scooter", "is_reserved": 0, "lon": -77.0239115}, {"fusion_lat": 0.0, "name": "05ac939a8efb1f417fd0ec1c6f18d8f3", "is_disabled": 0, "rental_uris": {"android": "https://dc.lft.to/lastmile_qr_scan", "ios": "https://dc.lft.to/lastmile_qr_scan"}, "fusion_lon": 0.0, "lat": 38.928255166666666, "bike_id": "05ac939a8efb1f417fd0ec1c6f18d8f3", "type": "electric_scooter", "is_reserved": 0, "lon": -77.02258483333334}, {"fusion_lat": 0.0, "name": "ead36c16970e53898d04a3c6a3cb9b78", "is_disabled": 0, "rental_uris": {"android": "https://dc.lft.to/lastmile_qr_scan", "ios": "https://dc.lft.to/lastmile_qr_scan"}, "fusion_lon": 0.0, "lat": 38.938141, "bike_id": "ead36c16970e53898d04a3c6a3cb9b78", "type": "electric_bike", "is_reserved": 0, "lon": -76.91148166666666}, {"fusion_lat": 0.0, "name": "8d4568c843539462b499e3301b28d33b", "is_disabled": 0, "rental_uris": {"android": "https://dc.lft.to/lastmile_qr_scan", "ios": "https://dc.lft.to/lastmile_qr_scan"}, "fusion_lon": 0.0, "lat": 38.944999833333334, "bike_id": "8d4568c843539462b499e3301b28d33b", "type": "electric_scooter", "is_reserved": 0, "lon": -77.0314915}, {"fusion_lat": 0.0, "name": "d865785642d9a54bbd44a023135a42ea", "is_disabled": 0, "rental_uris": {"android": "https://dc.lft.to/lastmile_qr_scan", "ios": "https://dc.lft.to/lastmile_qr_scan"}, "fusion_lon": 0.0, "lat": 38.90229133333333, "bike_id": "d865785642d9a54bbd44a023135a42ea", "type": "electric_scooter", "is_reserved": 0, "lon": -77.03474683333333}, {"fusion_lat": 0.0, "name": "415c4581ed661cc1a4325e4af4056f5b", "is_disabled": 0, "rental_uris": {"android": "https://dc.lft.to/lastmile_qr_scan", "ios": "https://dc.lft.to/lastmile_qr_scan"}, "fusion_lon": 0.0, "lat": 38.88360083333333, "bike_id": "415c4581ed661cc1a4325e4af4056f5b", "type": "electric_scooter", "is_reserved": 0, "lon": -76.9416375}, {"fusion_lat": 0.0, "name": "6bf2abb1984e84da65243bf67aa6f5d4", "is_disabled": 0, "rental_uris": {"android": "https://dc.lft.to/lastmile_qr_scan", "ios": "https://dc.lft.to/lastmile_qr_scan"}, "fusion_lon": 0.0, "lat": 38.89530933333333, "bike_id": "6bf2abb1984e84da65243bf67aa6f5d4", "type": "electric_scooter", "is_reserved": 0, "lon": -77.04228566666667}, {"fusion_lat": 0.0, "name": "ce6a4891cac9c1ae7f3a15fd2024ac2f", "is_disabled": 0, "rental_uris": {"android": "https://dc.lft.to/lastmile_qr_scan", "ios": "https://dc.lft.to/lastmile_qr_scan"}, "fusion_lon": 0.0, "lat": 38.8435185, "bike_id": "ce6a4891cac9c1ae7f3a15fd2024ac2f", "type": "electric_bike", "is_reserved": 0, "lon": -76.97824116666666}, {"fusion_lat": 0.0, "name": "a942fb0957963bea9a79e9c094bedf45", "is_disabled": 0, "rental_uris": {"android": "https://dc.lft.to/lastmile_qr_scan", "ios": "https://dc.lft.to/lastmile_qr_scan"}, "fusion_lon": 0.0, "lat": 38.9142415, "bike_id": "a942fb0957963bea9a79e9c094bedf45", "type": "electric_scooter", "is_reserved": 0, "lon": -77.03205533333333}, {"fusion_lat": 0.0, "name": "b22565ebb728fe93c707b8408cce723a", "is_disabled": 0, "rental_uris": {"android": "https://dc.lft.to/lastmile_qr_scan", "ios": "https://dc.lft.to/lastmile_qr_scan"}, "fusion_lon": 0.0, "lat": 38.91907466666667, "bike_id": "b22565ebb728fe93c707b8408cce723a", "type": "electric_scooter", "is_reserved": 0, "lon": -77.02407166666667}, {"fusion_lat": 0.0, "name": "8f663f5ee702442e0ade7298c2fc9434", "is_disabled": 0, "rental_uris": {"android": "https://dc.lft.to/lastmile_qr_scan", "ios": "https://dc.lft.to/lastmile_qr_scan"}, "fusion_lon": 0.0, "lat": 38.9353305, "bike_id": "8f663f5ee702442e0ade7298c2fc9434", "type": "electric_scooter", "is_reserved": 0, "lon": -77.0235165}, {"fusion_lat": 0.0, "name": "0f40b9e5c9e6c28740ca109103a34405", "is_disabled": 0, "rental_uris": {"android": "https://dc.lft.to/lastmile_qr_scan", "ios": "https://dc.lft.to/lastmile_qr_scan"}, "fusion_lon": 0.0, "lat": 38.953099, "bike_id": "0f40b9e5c9e6c28740ca109103a34405", "type": "electric_scooter", "is_reserved": 0, "lon": -77.022507}, {"fusion_lat": 0.0, "name": "f0ec2cd6c7163ffc68d65286961c5d1b", "is_disabled": 0, "rental_uris": {"android": "https://dc.lft.to/lastmile_qr_scan", "ios": "https://dc.lft.to/lastmile_qr_scan"}, "fusion_lon": 0.0, "lat": 38.99228516666667, "bike_id": "f0ec2cd6c7163ffc68d65286961c5d1b", "type": "electric_bike", "is_reserved": 0, "lon": -76.94420983333333}, {"fusion_lat": 0.0, "name": "66ae7bdf2f8d466e111cdbaf26a0eca2", "is_disabled": 0, "rental_uris": {"android": "https://dc.lft.to/lastmile_qr_scan", "ios": "https://dc.lft.to/lastmile_qr_scan"}, "fusion_lon": 0.0, "lat": 38.9843935, "bike_id": "66ae7bdf2f8d466e111cdbaf26a0eca2", "type": "electric_scooter", "is_reserved": 0, "lon": -77.02673683333333}, {"fusion_lat": 0.0, "name": "f2730cbdb8a014870593f2c219d5b6cb", "is_disabled": 0, "rental_uris": {"android": "https://dc.lft.to/lastmile_qr_scan", "ios": "https://dc.lft.to/lastmile_qr_scan"}, "fusion_lon": 0.0, "lat": 38.87170916666667, "bike_id": "f2730cbdb8a014870593f2c219d5b6cb", "type": "electric_scooter", "is_reserved": 0, "lon": -76.97403883333334}, {"fusion_lat": 0.0, "name": "c23a76a1df765fc216bec7589c5d97cd", "is_disabled": 0, "rental_uris": {"android": "https://dc.lft.to/lastmile_qr_scan", "ios": "https://dc.lft.to/lastmile_qr_scan"}, "fusion_lon": 0.0, "lat": 38.91681033333333, "bike_id": "c23a76a1df765fc216bec7589c5d97cd", "type": "electric_scooter", "is_reserved": 0, "lon": -77.03128433333333}, {"fusion_lat": 0.0, "name": "35450738712526b007d3b527cbb08af1", "is_disabled": 0, "rental_uris": {"android": "https://dc.lft.to/lastmile_qr_scan", "ios": "https://dc.lft.to/lastmile_qr_scan"}, "fusion_lon": 0.0, "lat": 38.880463666666664, "bike_id": "35450738712526b007d3b527cbb08af1", "type": "electric_scooter", "is_reserved": 0, "lon": -77.00375266666667}, {"fusion_lat": 0.0, "name": "fcbba4076c69a60be106b500e8abd098", "is_disabled": 0, "rental_uris": {"android": "https://dc.lft.to/lastmile_qr_scan", "ios": "https://dc.lft.to/lastmile_qr_scan"}, "fusion_lon": 0.0, "lat": 38.91693216666667, "bike_id": "fcbba4076c69a60be106b500e8abd098", "type": "electric_scooter", "is_reserved": 0, "lon": -77.02310283333334}, {"fusion_lat": 0.0, "name": "f6d7a08ab91a6d0af01c5a30e1d6c5d3", "is_disabled": 0, "rental_uris": {"android": "https://dc.lft.to/lastmile_qr_scan", "ios": "https://dc.lft.to/lastmile_qr_scan"}, "fusion_lon": 0.0, "lat": 38.923825, "bike_id": "f6d7a08ab91a6d0af01c5a30e1d6c5d3", "type": "electric_scooter", "is_reserved": 0, "lon": -77.04035183333333}, {"fusion_lat": 0.0, "name": "63769c0b09a1faa562ee75323f25ef67", "is_disabled": 0, "rental_uris": {"android": "https://dc.lft.to/lastmile_qr_scan", "ios": "https://dc.lft.to/lastmile_qr_scan"}, "fusion_lon": 0.0, "lat": 38.9198935, "bike_id": "63769c0b09a1faa562ee75323f25ef67", "type": "electric_scooter", "is_reserved": 0, "lon": -76.97313}, {"fusion_lat": 0.0, "name": "1ddf7928339a2b3ff3aff61fa1247003", "is_disabled": 0, "rental_uris": {"android": "https://dc.lft.to/lastmile_qr_scan", "ios": "https://dc.lft.to/lastmile_qr_scan"}, "fusion_lon": 0.0, "lat": 38.90695266666667, "bike_id": "1ddf7928339a2b3ff3aff61fa1247003", "type": "electric_scooter", "is_reserved": 0, "lon": -77.06533166666667}, {"fusion_lat": 0.0, "name": "82e26b6f453575b9673ec6120537a0a3", "is_disabled": 0, "rental_uris": {"android": "https://dc.lft.to/lastmile_qr_scan", "ios": "https://dc.lft.to/lastmile_qr_scan"}, "fusion_lon": 0.0, "lat": 38.904425, "bike_id": "82e26b6f453575b9673ec6120537a0a3", "type": "electric_scooter", "is_reserved": 0, "lon": -77.03447866666667}, {"fusion_lat": 0.0, "name": "94494ce45341fa6e785e7b9508607cb1", "is_disabled": 0, "rental_uris": {"android": "https://dc.lft.to/lastmile_qr_scan", "ios": "https://dc.lft.to/lastmile_qr_scan"}, "fusion_lon": 0.0, "lat": 38.91100383333333, "bike_id": "94494ce45341fa6e785e7b9508607cb1", "type": "electric_scooter", "is_reserved": 0, "lon": -77.01667583333334}, {"fusion_lat": 0.0, "name": "965377e2274bf229e635bdb3daf5e8e6", "is_disabled": 0, "rental_uris": {"android": "https://dc.lft.to/lastmile_qr_scan", "ios": "https://dc.lft.to/lastmile_qr_scan"}, "fusion_lon": 0.0, "lat": 38.899249, "bike_id": "965377e2274bf229e635bdb3daf5e8e6", "type": "electric_scooter", "is_reserved": 0, "lon": -77.0337795}, {"fusion_lat": 0.0, "name": "3c9501fdc942842c564e129464df8bbf", "is_disabled": 0, "rental_uris": {"android": "https://dc.lft.to/lastmile_qr_scan", "ios": "https://dc.lft.to/lastmile_qr_scan"}, "fusion_lon": 0.0, "lat": 38.918144833333336, "bike_id": "3c9501fdc942842c564e129464df8bbf", "type": "electric_scooter", "is_reserved": 0, "lon": -77.02514216666667}, {"fusion_lat": 0.0, "name": "aadd5cd11d41864422c507cc8bdd421f", "is_disabled": 0, "rental_uris": {"android": "https://dc.lft.to/lastmile_qr_scan", "ios": "https://dc.lft.to/lastmile_qr_scan"}, "fusion_lon": 0.0, "lat": 38.898453333333336, "bike_id": "aadd5cd11d41864422c507cc8bdd421f", "type": "electric_scooter", "is_reserved": 0, "lon": -77.02432483333334}, {"fusion_lat": 0.0, "name": "2ab90a6e95a1c0f09a5659558710d28a", "is_disabled": 0, "rental_uris": {"android": "https://dc.lft.to/lastmile_qr_scan", "ios": "https://dc.lft.to/lastmile_qr_scan"}, "fusion_lon": 0.0, "lat": 38.91319083333333, "bike_id": "2ab90a6e95a1c0f09a5659558710d28a", "type": "electric_scooter", "is_reserved": 0, "lon": -77.04721366666666}, {"fusion_lat": 0.0, "name": "5645923c0f4e5f071e32634f2258847c", "is_disabled": 0, "rental_uris": {"android": "https://dc.lft.to/lastmile_qr_scan", "ios": "https://dc.lft.to/lastmile_qr_scan"}, "fusion_lon": 0.0, "lat": 38.90529683333333, "bike_id": "5645923c0f4e5f071e32634f2258847c", "type": "electric_scooter", "is_reserved": 0, "lon": -77.06141033333333}, {"fusion_lat": 0.0, "name": "e706f4545d33b535695b6b4e6f1a8a69", "is_disabled": 0, "rental_uris": {"android": "https://dc.lft.to/lastmile_qr_scan", "ios": "https://dc.lft.to/lastmile_qr_scan"}, "fusion_lon": 0.0, "lat": 38.8930505, "bike_id": "e706f4545d33b535695b6b4e6f1a8a69", "type": "electric_scooter", "is_reserved": 0, "lon": -77.01235416666667}, {"fusion_lat": 0.0, "name": "94aada76b9515a6e2b260e7d47eb931b", "is_disabled": 0, "rental_uris": {"android": "https://dc.lft.to/lastmile_qr_scan", "ios": "https://dc.lft.to/lastmile_qr_scan"}, "fusion_lon": 0.0, "lat": 38.91714833333333, "bike_id": "94aada76b9515a6e2b260e7d47eb931b", "type": "electric_scooter", "is_reserved": 0, "lon": -76.96876533333334}, {"fusion_lat": 0.0, "name": "5c25c58b36ceca85fb3aab094c6b0ad8", "is_disabled": 0, "rental_uris": {"android": "https://dc.lft.to/lastmile_qr_scan", "ios": "https://dc.lft.to/lastmile_qr_scan"}, "fusion_lon": 0.0, "lat": 38.905074166666665, "bike_id": "5c25c58b36ceca85fb3aab094c6b0ad8", "type": "electric_scooter", "is_reserved": 0, "lon": -77.02946216666666}, {"fusion_lat": 0.0, "name": "4072f05c567ac80df409c403702e7c05", "is_disabled": 0, "rental_uris": {"android": "https://dc.lft.to/lastmile_qr_scan", "ios": "https://dc.lft.to/lastmile_qr_scan"}, "fusion_lon": 0.0, "lat": 38.853569, "bike_id": "4072f05c567ac80df409c403702e7c05", "type": "electric_bike", "is_reserved": 0, "lon": -77.13468066666667}, {"fusion_lat": 0.0, "name": "15b73d2a1f2d81134b9e711aeee7808c", "is_disabled": 0, "rental_uris": {"android": "https://dc.lft.to/lastmile_qr_scan", "ios": "https://dc.lft.to/lastmile_qr_scan"}, "fusion_lon": 0.0, "lat": 38.884632333333336, "bike_id": "15b73d2a1f2d81134b9e711aeee7808c", "type": "electric_scooter", "is_reserved": 0, "lon": -77.02602216666666}, {"fusion_lat": 0.0, "name": "2436f741cfe2a37c81783ce418a51d52", "is_disabled": 0, "rental_uris": {"android": "https://dc.lft.to/lastmile_qr_scan", "ios": "https://dc.lft.to/lastmile_qr_scan"}, "fusion_lon": 0.0, "lat": 38.9148005, "bike_id": "2436f741cfe2a37c81783ce418a51d52", "type": "electric_scooter", "is_reserved": 0, "lon": -77.03669633333334}, {"fusion_lat": 0.0, "name": "3ba5dba13f0de3f8032c197da8a0039e", "is_disabled": 0, "rental_uris": {"android": "https://dc.lft.to/lastmile_qr_scan", "ios": "https://dc.lft.to/lastmile_qr_scan"}, "fusion_lon": 0.0, "lat": 38.9155395, "bike_id": "3ba5dba13f0de3f8032c197da8a0039e", "type": "electric_scooter", "is_reserved": 0, "lon": -77.03868566666667}, {"fusion_lat": 0.0, "name": "85f7a73dd4fd7484bc3cb16cb53d345f", "is_disabled": 0, "rental_uris": {"android": "https://dc.lft.to/lastmile_qr_scan", "ios": "https://dc.lft.to/lastmile_qr_scan"}, "fusion_lon": 0.0, "lat": 38.910770166666666, "bike_id": "85f7a73dd4fd7484bc3cb16cb53d345f", "type": "electric_scooter", "is_reserved": 0, "lon": -77.02097616666667}, {"fusion_lat": 0.0, "name": "197cb0f43538dae989518fe0d136f044", "is_disabled": 0, "rental_uris": {"android": "https://dc.lft.to/lastmile_qr_scan", "ios": "https://dc.lft.to/lastmile_qr_scan"}, "fusion_lon": 0.0, "lat": 38.84755916666667, "bike_id": "197cb0f43538dae989518fe0d136f044", "type": "electric_scooter", "is_reserved": 0, "lon": -76.9950575}, {"fusion_lat": 0.0, "name": "387d4540c5a26884899aa24bd06dc275", "is_disabled": 0, "rental_uris": {"android": "https://dc.lft.to/lastmile_qr_scan", "ios": "https://dc.lft.to/lastmile_qr_scan"}, "fusion_lon": 0.0, "lat": 38.8748955, "bike_id": "387d4540c5a26884899aa24bd06dc275", "type": "electric_scooter", "is_reserved": 0, "lon": -77.00039033333333}, {"fusion_lat": 0.0, "name": "70e864560ac4df99512b5b85a62b8936", "is_disabled": 0, "rental_uris": {"android": "https://dc.lft.to/lastmile_qr_scan", "ios": "https://dc.lft.to/lastmile_qr_scan"}, "fusion_lon": 0.0, "lat": 38.92275083333333, "bike_id": "70e864560ac4df99512b5b85a62b8936", "type": "electric_scooter", "is_reserved": 0, "lon": -77.0424125}, {"fusion_lat": 0.0, "name": "98d6cbeb599489e14a81846de8780d5a", "is_disabled": 0, "rental_uris": {"android": "https://dc.lft.to/lastmile_qr_scan", "ios": "https://dc.lft.to/lastmile_qr_scan"}, "fusion_lon": 0.0, "lat": 38.91576583333333, "bike_id": "98d6cbeb599489e14a81846de8780d5a", "type": "electric_scooter", "is_reserved": 0, "lon": -77.0123595}, {"fusion_lat": 0.0, "name": "a527c0d35dd64505ff1c54a65ff7b666", "is_disabled": 0, "rental_uris": {"android": "https://dc.lft.to/lastmile_qr_scan", "ios": "https://dc.lft.to/lastmile_qr_scan"}, "fusion_lon": 0.0, "lat": 38.91485633333333, "bike_id": "a527c0d35dd64505ff1c54a65ff7b666", "type": "electric_scooter", "is_reserved": 0, "lon": -77.01324166666667}, {"fusion_lat": 0.0, "name": "56a340550bb6611f0b42d595bab22165", "is_disabled": 0, "rental_uris": {"android": "https://dc.lft.to/lastmile_qr_scan", "ios": "https://dc.lft.to/lastmile_qr_scan"}, "fusion_lon": 0.0, "lat": 38.92463, "bike_id": "56a340550bb6611f0b42d595bab22165", "type": "electric_scooter", "is_reserved": 0, "lon": -76.99333733333333}, {"fusion_lat": 0.0, "name": "3c2d974267dd43c88ea441fb84c97824", "is_disabled": 0, "rental_uris": {"android": "https://dc.lft.to/lastmile_qr_scan", "ios": "https://dc.lft.to/lastmile_qr_scan"}, "fusion_lon": 0.0, "lat": 38.920310666666666, "bike_id": "3c2d974267dd43c88ea441fb84c97824", "type": "electric_scooter", "is_reserved": 0, "lon": -76.99558233333333}, {"fusion_lat": 0.0, "name": "4de718b6ac763f2311641b904e85128b", "is_disabled": 0, "rental_uris": {"android": "https://dc.lft.to/lastmile_qr_scan", "ios": "https://dc.lft.to/lastmile_qr_scan"}, "fusion_lon": 0.0, "lat": 38.8626135, "bike_id": "4de718b6ac763f2311641b904e85128b", "type": "electric_bike", "is_reserved": 0, "lon": -76.98351033333333}, {"fusion_lat": 0.0, "name": "277c6f4c624768d002c7e7b5ac11fd03", "is_disabled": 0, "rental_uris": {"android": "https://dc.lft.to/lastmile_qr_scan", "ios": "https://dc.lft.to/lastmile_qr_scan"}, "fusion_lon": 0.0, "lat": 38.8580145, "bike_id": "277c6f4c624768d002c7e7b5ac11fd03", "type": "electric_bike", "is_reserved": 0, "lon": -76.98729816666666}, {"fusion_lat": 0.0, "name": "619d73637e506eab29fbcd7f89fe42be", "is_disabled": 0, "rental_uris": {"android": "https://dc.lft.to/lastmile_qr_scan", "ios": "https://dc.lft.to/lastmile_qr_scan"}, "fusion_lon": 0.0, "lat": 38.921024, "bike_id": "619d73637e506eab29fbcd7f89fe42be", "type": "electric_scooter", "is_reserved": 0, "lon": -77.02204566666667}, {"fusion_lat": 0.0, "name": "959da7775d8f5ffb3d30231c005cb9b5", "is_disabled": 0, "rental_uris": {"android": "https://dc.lft.to/lastmile_qr_scan", "ios": "https://dc.lft.to/lastmile_qr_scan"}, "fusion_lon": 0.0, "lat": 38.91441433333333, "bike_id": "959da7775d8f5ffb3d30231c005cb9b5", "type": "electric_bike", "is_reserved": 0, "lon": -77.04170083333334}, {"fusion_lat": 0.0, "name": "685587bdc7065fb9c4312a7fd7c0fb39", "is_disabled": 0, "rental_uris": {"android": "https://dc.lft.to/lastmile_qr_scan", "ios": "https://dc.lft.to/lastmile_qr_scan"}, "fusion_lon": 0.0, "lat": 38.905707166666666, "bike_id": "685587bdc7065fb9c4312a7fd7c0fb39", "type": "electric_scooter", "is_reserved": 0, "lon": -77.0311315}, {"fusion_lat": 0.0, "name": "a639276b78d7a96336fd3fcf26e9b665", "is_disabled": 0, "rental_uris": {"android": "https://dc.lft.to/lastmile_qr_scan", "ios": "https://dc.lft.to/lastmile_qr_scan"}, "fusion_lon": 0.0, "lat": 38.90089283333333, "bike_id": "a639276b78d7a96336fd3fcf26e9b665", "type": "electric_scooter", "is_reserved": 0, "lon": -77.01942966666667}, {"fusion_lat": 0.0, "name": "3b6e444c68ae2653c17cf23afa48c6c6", "is_disabled": 0, "rental_uris": {"android": "https://dc.lft.to/lastmile_qr_scan", "ios": "https://dc.lft.to/lastmile_qr_scan"}, "fusion_lon": 0.0, "lat": 38.90602633333334, "bike_id": "3b6e444c68ae2653c17cf23afa48c6c6", "type": "electric_scooter", "is_reserved": 0, "lon": -77.02684066666667}, {"fusion_lat": 0.0, "name": "e72657d699a5d4a1a5bff3c88f7e4c9d", "is_disabled": 0, "rental_uris": {"android": "https://dc.lft.to/lastmile_qr_scan", "ios": "https://dc.lft.to/lastmile_qr_scan"}, "fusion_lon": 0.0, "lat": 38.89009466666667, "bike_id": "e72657d699a5d4a1a5bff3c88f7e4c9d", "type": "electric_scooter", "is_reserved": 0, "lon": -77.02113916666667}, {"fusion_lat": 0.0, "name": "92002b4758d6d67eb3a1db13c95464ca", "is_disabled": 0, "rental_uris": {"android": "https://dc.lft.to/lastmile_qr_scan", "ios": "https://dc.lft.to/lastmile_qr_scan"}, "fusion_lon": 0.0, "lat": 38.915522, "bike_id": "92002b4758d6d67eb3a1db13c95464ca", "type": "electric_scooter", "is_reserved": 0, "lon": -77.038698}, {"fusion_lat": 0.0, "name": "ef24252cec9466842c8293060f85e25b", "is_disabled": 0, "rental_uris": {"android": "https://dc.lft.to/lastmile_qr_scan", "ios": "https://dc.lft.to/lastmile_qr_scan"}, "fusion_lon": 0.0, "lat": 38.923669333333336, "bike_id": "ef24252cec9466842c8293060f85e25b", "type": "electric_scooter", "is_reserved": 0, "lon": -77.042503}, {"fusion_lat": 0.0, "name": "c9c9f737f2729c906e7f25ae47419265", "is_disabled": 0, "rental_uris": {"android": "https://dc.lft.to/lastmile_qr_scan", "ios": "https://dc.lft.to/lastmile_qr_scan"}, "fusion_lon": 0.0, "lat": 38.920546, "bike_id": "c9c9f737f2729c906e7f25ae47419265", "type": "electric_scooter", "is_reserved": 0, "lon": -76.99855966666667}, {"fusion_lat": 0.0, "name": "4694f35dc75a107944b2b08e681b6694", "is_disabled": 0, "rental_uris": {"android": "https://dc.lft.to/lastmile_qr_scan", "ios": "https://dc.lft.to/lastmile_qr_scan"}, "fusion_lon": 0.0, "lat": 38.896901166666666, "bike_id": "4694f35dc75a107944b2b08e681b6694", "type": "electric_scooter", "is_reserved": 0, "lon": -77.04354933333333}, {"fusion_lat": 0.0, "name": "92e0b781868174924834596527e4d38b", "is_disabled": 0, "rental_uris": {"android": "https://dc.lft.to/lastmile_qr_scan", "ios": "https://dc.lft.to/lastmile_qr_scan"}, "fusion_lon": 0.0, "lat": 38.917241833333335, "bike_id": "92e0b781868174924834596527e4d38b", "type": "electric_scooter", "is_reserved": 0, "lon": -77.00813266666667}, {"fusion_lat": 0.0, "name": "caf27406e0fcad9f040a178ab6dfb6da", "is_disabled": 0, "rental_uris": {"android": "https://dc.lft.to/lastmile_qr_scan", "ios": "https://dc.lft.to/lastmile_qr_scan"}, "fusion_lon": 0.0, "lat": 38.90855116666667, "bike_id": "caf27406e0fcad9f040a178ab6dfb6da", "type": "electric_bike", "is_reserved": 0, "lon": -76.99956633333333}, {"fusion_lat": 0.0, "name": "dc597d30e5c6ba44aeb268aebfab4b40", "is_disabled": 0, "rental_uris": {"android": "https://dc.lft.to/lastmile_qr_scan", "ios": "https://dc.lft.to/lastmile_qr_scan"}, "fusion_lon": 0.0, "lat": 38.9180975, "bike_id": "dc597d30e5c6ba44aeb268aebfab4b40", "type": "electric_scooter", "is_reserved": 0, "lon": -77.03303216666667}, {"fusion_lat": 0.0, "name": "f93bbc554f1b76a21a29545c32f8ccc7", "is_disabled": 0, "rental_uris": {"android": "https://dc.lft.to/lastmile_qr_scan", "ios": "https://dc.lft.to/lastmile_qr_scan"}, "fusion_lon": 0.0, "lat": 38.8796605, "bike_id": "f93bbc554f1b76a21a29545c32f8ccc7", "type": "electric_bike", "is_reserved": 0, "lon": -76.91619016666667}, {"fusion_lat": 0.0, "name": "349234984519ee1a899ac2f83cc597d2", "is_disabled": 0, "rental_uris": {"android": "https://dc.lft.to/lastmile_qr_scan", "ios": "https://dc.lft.to/lastmile_qr_scan"}, "fusion_lon": 0.0, "lat": 38.924213333333334, "bike_id": "349234984519ee1a899ac2f83cc597d2", "type": "electric_scooter", "is_reserved": 0, "lon": -77.01957366666667}, {"fusion_lat": 0.0, "name": "908b5fa4b6252aece32e37e5b55781de", "is_disabled": 0, "rental_uris": {"android": "https://dc.lft.to/lastmile_qr_scan", "ios": "https://dc.lft.to/lastmile_qr_scan"}, "fusion_lon": 0.0, "lat": 38.90022533333333, "bike_id": "908b5fa4b6252aece32e37e5b55781de", "type": "electric_scooter", "is_reserved": 0, "lon": -76.994501}, {"fusion_lat": 0.0, "name": "19493ea8efae6f8cb3c912fa9834b27b", "is_disabled": 0, "rental_uris": {"android": "https://dc.lft.to/lastmile_qr_scan", "ios": "https://dc.lft.to/lastmile_qr_scan"}, "fusion_lon": 0.0, "lat": 38.91552683333333, "bike_id": "19493ea8efae6f8cb3c912fa9834b27b", "type": "electric_scooter", "is_reserved": 0, "lon": -77.03174}, {"fusion_lat": 0.0, "name": "2bd731c6f3d380513aa30ee5d9cf23b9", "is_disabled": 0, "rental_uris": {"android": "https://dc.lft.to/lastmile_qr_scan", "ios": "https://dc.lft.to/lastmile_qr_scan"}, "fusion_lon": 0.0, "lat": 38.921111, "bike_id": "2bd731c6f3d380513aa30ee5d9cf23b9", "type": "electric_scooter", "is_reserved": 0, "lon": -77.04213066666667}, {"fusion_lat": 0.0, "name": "e28af398e3298d5a184d98c637ba791f", "is_disabled": 0, "rental_uris": {"android": "https://dc.lft.to/lastmile_qr_scan", "ios": "https://dc.lft.to/lastmile_qr_scan"}, "fusion_lon": 0.0, "lat": 38.938803166666666, "bike_id": "e28af398e3298d5a184d98c637ba791f", "type": "electric_scooter", "is_reserved": 0, "lon": -77.0328385}, {"fusion_lat": 0.0, "name": "ce51a24a1b22f3cae6eb17d10ba18198", "is_disabled": 0, "rental_uris": {"android": "https://dc.lft.to/lastmile_qr_scan", "ios": "https://dc.lft.to/lastmile_qr_scan"}, "fusion_lon": 0.0, "lat": 38.91323516666667, "bike_id": "ce51a24a1b22f3cae6eb17d10ba18198", "type": "electric_scooter", "is_reserved": 0, "lon": -77.02141716666667}, {"fusion_lat": 0.0, "name": "cf69a5e7556162d1b4864e2b5d24c270", "is_disabled": 0, "rental_uris": {"android": "https://dc.lft.to/lastmile_qr_scan", "ios": "https://dc.lft.to/lastmile_qr_scan"}, "fusion_lon": 0.0, "lat": 38.9097305, "bike_id": "cf69a5e7556162d1b4864e2b5d24c270", "type": "electric_scooter", "is_reserved": 0, "lon": -77.0465335}, {"fusion_lat": 0.0, "name": "6ff50c9a3d61c4e5d71fbd196072892f", "is_disabled": 0, "rental_uris": {"android": "https://dc.lft.to/lastmile_qr_scan", "ios": "https://dc.lft.to/lastmile_qr_scan"}, "fusion_lon": 0.0, "lat": 38.918104, "bike_id": "6ff50c9a3d61c4e5d71fbd196072892f", "type": "electric_scooter", "is_reserved": 0, "lon": -77.03442183333334}, {"fusion_lat": 0.0, "name": "4c50cc0cf967b6d26c7c0813f7d159a8", "is_disabled": 0, "rental_uris": {"android": "https://dc.lft.to/lastmile_qr_scan", "ios": "https://dc.lft.to/lastmile_qr_scan"}, "fusion_lon": 0.0, "lat": 38.92216883333333, "bike_id": "4c50cc0cf967b6d26c7c0813f7d159a8", "type": "electric_scooter", "is_reserved": 0, "lon": -76.99641783333334}, {"fusion_lat": 0.0, "name": "258b7b0d6e3fb8e354029aeeef3b4f23", "is_disabled": 0, "rental_uris": {"android": "https://dc.lft.to/lastmile_qr_scan", "ios": "https://dc.lft.to/lastmile_qr_scan"}, "fusion_lon": 0.0, "lat": 38.92939416666667, "bike_id": "258b7b0d6e3fb8e354029aeeef3b4f23", "type": "electric_scooter", "is_reserved": 0, "lon": -77.03468816666667}, {"fusion_lat": 0.0, "name": "a7cac5caa41b2a080de78d9a1a3a52a0", "is_disabled": 0, "rental_uris": {"android": "https://dc.lft.to/lastmile_qr_scan", "ios": "https://dc.lft.to/lastmile_qr_scan"}, "fusion_lon": 0.0, "lat": 38.9210005, "bike_id": "a7cac5caa41b2a080de78d9a1a3a52a0", "type": "electric_scooter", "is_reserved": 0, "lon": -77.0220715}, {"fusion_lat": 0.0, "name": "25daf5065607bc250b78f17f0b05bb98", "is_disabled": 0, "rental_uris": {"android": "https://dc.lft.to/lastmile_qr_scan", "ios": "https://dc.lft.to/lastmile_qr_scan"}, "fusion_lon": 0.0, "lat": 38.8428305, "bike_id": "25daf5065607bc250b78f17f0b05bb98", "type": "electric_bike", "is_reserved": 0, "lon": -77.04498616666666}, {"fusion_lat": 0.0, "name": "bcc58d45373586d412f560f5e173e210", "is_disabled": 0, "rental_uris": {"android": "https://dc.lft.to/lastmile_qr_scan", "ios": "https://dc.lft.to/lastmile_qr_scan"}, "fusion_lon": 0.0, "lat": 38.922974333333336, "bike_id": "bcc58d45373586d412f560f5e173e210", "type": "electric_scooter", "is_reserved": 0, "lon": -77.01826183333333}, {"fusion_lat": 0.0, "name": "413e5fb23333f0af12b6b05bc47e28d1", "is_disabled": 0, "rental_uris": {"android": "https://dc.lft.to/lastmile_qr_scan", "ios": "https://dc.lft.to/lastmile_qr_scan"}, "fusion_lon": 0.0, "lat": 38.911294833333336, "bike_id": "413e5fb23333f0af12b6b05bc47e28d1", "type": "electric_scooter", "is_reserved": 0, "lon": -77.01055866666667}, {"fusion_lat": 0.0, "name": "2edcbcf9bb5e93d0812aebd9e772d555", "is_disabled": 0, "rental_uris": {"android": "https://dc.lft.to/lastmile_qr_scan", "ios": "https://dc.lft.to/lastmile_qr_scan"}, "fusion_lon": 0.0, "lat": 38.895629666666665, "bike_id": "2edcbcf9bb5e93d0812aebd9e772d555", "type": "electric_bike", "is_reserved": 0, "lon": -77.127416}, {"fusion_lat": 0.0, "name": "2044ad11257f12f8c681e26235815ff1", "is_disabled": 0, "rental_uris": {"android": "https://dc.lft.to/lastmile_qr_scan", "ios": "https://dc.lft.to/lastmile_qr_scan"}, "fusion_lon": 0.0, "lat": 38.853124, "bike_id": "2044ad11257f12f8c681e26235815ff1", "type": "electric_bike", "is_reserved": 0, "lon": -77.046021}, {"fusion_lat": 0.0, "name": "24f1890833cac39cd456b098f95dc074", "is_disabled": 0, "rental_uris": {"android": "https://dc.lft.to/lastmile_qr_scan", "ios": "https://dc.lft.to/lastmile_qr_scan"}, "fusion_lon": 0.0, "lat": 38.91700216666667, "bike_id": "24f1890833cac39cd456b098f95dc074", "type": "electric_scooter", "is_reserved": 0, "lon": -77.03472983333333}, {"fusion_lat": 0.0, "name": "3cafaab2210acdcb55bfc4adeed9ac06", "is_disabled": 0, "rental_uris": {"android": "https://dc.lft.to/lastmile_qr_scan", "ios": "https://dc.lft.to/lastmile_qr_scan"}, "fusion_lon": 0.0, "lat": 38.9085575, "bike_id": "3cafaab2210acdcb55bfc4adeed9ac06", "type": "electric_scooter", "is_reserved": 0, "lon": -77.06382766666667}, {"fusion_lat": 0.0, "name": "916afddf869403b7895c78d08975c3ae", "is_disabled": 0, "rental_uris": {"android": "https://dc.lft.to/lastmile_qr_scan", "ios": "https://dc.lft.to/lastmile_qr_scan"}, "fusion_lon": 0.0, "lat": 38.9607035, "bike_id": "916afddf869403b7895c78d08975c3ae", "type": "electric_scooter", "is_reserved": 0, "lon": -77.00097983333333}, {"fusion_lat": 0.0, "name": "7674c40049a95531c4404e02078e76ca", "is_disabled": 0, "rental_uris": {"android": "https://dc.lft.to/lastmile_qr_scan", "ios": "https://dc.lft.to/lastmile_qr_scan"}, "fusion_lon": 0.0, "lat": 38.89451233333333, "bike_id": "7674c40049a95531c4404e02078e76ca", "type": "electric_scooter", "is_reserved": 0, "lon": -77.04545133333333}, {"fusion_lat": 0.0, "name": "d6638aef0be7e36ed2cfe8caaacc53d1", "is_disabled": 0, "rental_uris": {"android": "https://dc.lft.to/lastmile_qr_scan", "ios": "https://dc.lft.to/lastmile_qr_scan"}, "fusion_lon": 0.0, "lat": 38.8972855, "bike_id": "d6638aef0be7e36ed2cfe8caaacc53d1", "type": "electric_scooter", "is_reserved": 0, "lon": -76.94702716666667}, {"fusion_lat": 0.0, "name": "28fd1db82b126307e90eb912e5f62a2f", "is_disabled": 0, "rental_uris": {"android": "https://dc.lft.to/lastmile_qr_scan", "ios": "https://dc.lft.to/lastmile_qr_scan"}, "fusion_lon": 0.0, "lat": 38.90086983333333, "bike_id": "28fd1db82b126307e90eb912e5f62a2f", "type": "electric_bike", "is_reserved": 0, "lon": -77.0492175}, {"fusion_lat": 0.0, "name": "922afad18f984358616c45c52b8f691e", "is_disabled": 0, "rental_uris": {"android": "https://dc.lft.to/lastmile_qr_scan", "ios": "https://dc.lft.to/lastmile_qr_scan"}, "fusion_lon": 0.0, "lat": 38.881449333333336, "bike_id": "922afad18f984358616c45c52b8f691e", "type": "electric_scooter", "is_reserved": 0, "lon": -76.99515266666667}, {"fusion_lat": 0.0, "name": "005431d459b87d389f4c8cf9d684eb4d", "is_disabled": 0, "rental_uris": {"android": "https://dc.lft.to/lastmile_qr_scan", "ios": "https://dc.lft.to/lastmile_qr_scan"}, "fusion_lon": 0.0, "lat": 38.913130333333335, "bike_id": "005431d459b87d389f4c8cf9d684eb4d", "type": "electric_scooter", "is_reserved": 0, "lon": -77.03666883333334}, {"fusion_lat": 0.0, "name": "0dc0dff640cdb47b8f52f8e22c1d1502", "is_disabled": 0, "rental_uris": {"android": "https://dc.lft.to/lastmile_qr_scan", "ios": "https://dc.lft.to/lastmile_qr_scan"}, "fusion_lon": 0.0, "lat": 38.902427, "bike_id": "0dc0dff640cdb47b8f52f8e22c1d1502", "type": "electric_scooter", "is_reserved": 0, "lon": -77.003523}, {"fusion_lat": 0.0, "name": "abdcc5c3437fd205a4e265b20a0ba545", "is_disabled": 0, "rental_uris": {"android": "https://dc.lft.to/lastmile_qr_scan", "ios": "https://dc.lft.to/lastmile_qr_scan"}, "fusion_lon": 0.0, "lat": 38.89682716666667, "bike_id": "abdcc5c3437fd205a4e265b20a0ba545", "type": "electric_scooter", "is_reserved": 0, "lon": -77.005509}, {"fusion_lat": 0.0, "name": "8fa288f37930929728c7ecb992d5b590", "is_disabled": 0, "rental_uris": {"android": "https://dc.lft.to/lastmile_qr_scan", "ios": "https://dc.lft.to/lastmile_qr_scan"}, "fusion_lon": 0.0, "lat": 38.903488833333334, "bike_id": "8fa288f37930929728c7ecb992d5b590", "type": "electric_scooter", "is_reserved": 0, "lon": -77.06661916666667}, {"fusion_lat": 0.0, "name": "5e7a314a55bd952f82f57357ce81c3fe", "is_disabled": 0, "rental_uris": {"android": "https://dc.lft.to/lastmile_qr_scan", "ios": "https://dc.lft.to/lastmile_qr_scan"}, "fusion_lon": 0.0, "lat": 38.91403316666667, "bike_id": "5e7a314a55bd952f82f57357ce81c3fe", "type": "electric_scooter", "is_reserved": 0, "lon": -77.04100566666666}, {"fusion_lat": 0.0, "name": "b3390f9d03a19e418370da20fb488b2c", "is_disabled": 0, "rental_uris": {"android": "https://dc.lft.to/lastmile_qr_scan", "ios": "https://dc.lft.to/lastmile_qr_scan"}, "fusion_lon": 0.0, "lat": 38.90645216666667, "bike_id": "b3390f9d03a19e418370da20fb488b2c", "type": "electric_scooter", "is_reserved": 0, "lon": -77.0066255}, {"fusion_lat": 0.0, "name": "044cfba3ae2a190f7e6416cd22d12e97", "is_disabled": 0, "rental_uris": {"android": "https://dc.lft.to/lastmile_qr_scan", "ios": "https://dc.lft.to/lastmile_qr_scan"}, "fusion_lon": 0.0, "lat": 38.96664666666667, "bike_id": "044cfba3ae2a190f7e6416cd22d12e97", "type": "electric_scooter", "is_reserved": 0, "lon": -77.0255675}, {"fusion_lat": 0.0, "name": "4a05625b22151c63c7ffb356eaf6542a", "is_disabled": 0, "rental_uris": {"android": "https://dc.lft.to/lastmile_qr_scan", "ios": "https://dc.lft.to/lastmile_qr_scan"}, "fusion_lon": 0.0, "lat": 38.876991333333336, "bike_id": "4a05625b22151c63c7ffb356eaf6542a", "type": "electric_scooter", "is_reserved": 0, "lon": -77.017684}, {"fusion_lat": 0.0, "name": "5e5543749791e3f47232e0ffe45443cd", "is_disabled": 0, "rental_uris": {"android": "https://dc.lft.to/lastmile_qr_scan", "ios": "https://dc.lft.to/lastmile_qr_scan"}, "fusion_lon": 0.0, "lat": 39.070553, "bike_id": "5e5543749791e3f47232e0ffe45443cd", "type": "electric_bike", "is_reserved": 0, "lon": -77.114801}, {"fusion_lat": 0.0, "name": "c2de58afa52dd77403942d935867adb2", "is_disabled": 0, "rental_uris": {"android": "https://dc.lft.to/lastmile_qr_scan", "ios": "https://dc.lft.to/lastmile_qr_scan"}, "fusion_lon": 0.0, "lat": 38.88478633333333, "bike_id": "c2de58afa52dd77403942d935867adb2", "type": "electric_scooter", "is_reserved": 0, "lon": -77.02092566666667}, {"fusion_lat": 0.0, "name": "7a0c7653efbdcf5041cd42f3542a3542", "is_disabled": 0, "rental_uris": {"android": "https://dc.lft.to/lastmile_qr_scan", "ios": "https://dc.lft.to/lastmile_qr_scan"}, "fusion_lon": 0.0, "lat": 38.93551933333333, "bike_id": "7a0c7653efbdcf5041cd42f3542a3542", "type": "electric_scooter", "is_reserved": 0, "lon": -77.03466033333333}, {"fusion_lat": 0.0, "name": "dba8b674b4156f35bca5cb71a14bfc0f", "is_disabled": 0, "rental_uris": {"android": "https://dc.lft.to/lastmile_qr_scan", "ios": "https://dc.lft.to/lastmile_qr_scan"}, "fusion_lon": 0.0, "lat": 38.911184166666665, "bike_id": "dba8b674b4156f35bca5cb71a14bfc0f", "type": "electric_scooter", "is_reserved": 0, "lon": -77.03831}, {"fusion_lat": 0.0, "name": "0a2509b53fff190f1b6a1390ecf57667", "is_disabled": 0, "rental_uris": {"android": "https://dc.lft.to/lastmile_qr_scan", "ios": "https://dc.lft.to/lastmile_qr_scan"}, "fusion_lon": 0.0, "lat": 38.900313833333335, "bike_id": "0a2509b53fff190f1b6a1390ecf57667", "type": "electric_scooter", "is_reserved": 0, "lon": -76.98937083333334}, {"fusion_lat": 0.0, "name": "37128d1926aaf2664a9844b6d7d78411", "is_disabled": 0, "rental_uris": {"android": "https://dc.lft.to/lastmile_qr_scan", "ios": "https://dc.lft.to/lastmile_qr_scan"}, "fusion_lon": 0.0, "lat": 38.89968183333333, "bike_id": "37128d1926aaf2664a9844b6d7d78411", "type": "electric_scooter", "is_reserved": 0, "lon": -77.01939866666666}, {"fusion_lat": 0.0, "name": "d0b26e5712edb6a5690f785cc413df10", "is_disabled": 0, "rental_uris": {"android": "https://dc.lft.to/lastmile_qr_scan", "ios": "https://dc.lft.to/lastmile_qr_scan"}, "fusion_lon": 0.0, "lat": 38.909742333333334, "bike_id": "d0b26e5712edb6a5690f785cc413df10", "type": "electric_scooter", "is_reserved": 0, "lon": -77.03210483333334}, {"fusion_lat": 0.0, "name": "3e533b8cb4f0d9612d11c592ee56b4fd", "is_disabled": 0, "rental_uris": {"android": "https://dc.lft.to/lastmile_qr_scan", "ios": "https://dc.lft.to/lastmile_qr_scan"}, "fusion_lon": 0.0, "lat": 38.8988975, "bike_id": "3e533b8cb4f0d9612d11c592ee56b4fd", "type": "electric_scooter", "is_reserved": 0, "lon": -76.980652}, {"fusion_lat": 0.0, "name": "4b1235023082a5a25afbc2c4326cdb1c", "is_disabled": 0, "rental_uris": {"android": "https://dc.lft.to/lastmile_qr_scan", "ios": "https://dc.lft.to/lastmile_qr_scan"}, "fusion_lon": 0.0, "lat": 38.90971733333333, "bike_id": "4b1235023082a5a25afbc2c4326cdb1c", "type": "electric_scooter", "is_reserved": 0, "lon": -77.039297}, {"fusion_lat": 0.0, "name": "965f0d4c4d381db13d6ea8ac71a0c03c", "is_disabled": 0, "rental_uris": {"android": "https://dc.lft.to/lastmile_qr_scan", "ios": "https://dc.lft.to/lastmile_qr_scan"}, "fusion_lon": 0.0, "lat": 38.899606, "bike_id": "965f0d4c4d381db13d6ea8ac71a0c03c", "type": "electric_scooter", "is_reserved": 0, "lon": -77.03362866666667}, {"fusion_lat": 0.0, "name": "76a75d65168e1ba646c167982cc7d1b0", "is_disabled": 0, "rental_uris": {"android": "https://dc.lft.to/lastmile_qr_scan", "ios": "https://dc.lft.to/lastmile_qr_scan"}, "fusion_lon": 0.0, "lat": 38.9151725, "bike_id": "76a75d65168e1ba646c167982cc7d1b0", "type": "electric_scooter", "is_reserved": 0, "lon": -77.04167466666667}, {"fusion_lat": 0.0, "name": "e2fbef5400f7f6c093a6cfe25c7b1ed3", "is_disabled": 0, "rental_uris": {"android": "https://dc.lft.to/lastmile_qr_scan", "ios": "https://dc.lft.to/lastmile_qr_scan"}, "fusion_lon": 0.0, "lat": 38.891032333333335, "bike_id": "e2fbef5400f7f6c093a6cfe25c7b1ed3", "type": "electric_scooter", "is_reserved": 0, "lon": -76.996276}, {"fusion_lat": 0.0, "name": "6e5ffd42232ee6e415eb8fe85774dd24", "is_disabled": 0, "rental_uris": {"android": "https://dc.lft.to/lastmile_qr_scan", "ios": "https://dc.lft.to/lastmile_qr_scan"}, "fusion_lon": 0.0, "lat": 38.80710116666667, "bike_id": "6e5ffd42232ee6e415eb8fe85774dd24", "type": "electric_bike", "is_reserved": 0, "lon": -77.06175216666666}, {"fusion_lat": 0.0, "name": "e52a68d5ac1465c2c942e99225dcebe7", "is_disabled": 0, "rental_uris": {"android": "https://dc.lft.to/lastmile_qr_scan", "ios": "https://dc.lft.to/lastmile_qr_scan"}, "fusion_lon": 0.0, "lat": 38.9073165, "bike_id": "e52a68d5ac1465c2c942e99225dcebe7", "type": "electric_scooter", "is_reserved": 0, "lon": -76.93549266666666}, {"fusion_lat": 0.0, "name": "f808f6cc9ff6632d928059a11e03004e", "is_disabled": 0, "rental_uris": {"android": "https://dc.lft.to/lastmile_qr_scan", "ios": "https://dc.lft.to/lastmile_qr_scan"}, "fusion_lon": 0.0, "lat": 38.926764, "bike_id": "f808f6cc9ff6632d928059a11e03004e", "type": "electric_scooter", "is_reserved": 0, "lon": -77.03079983333333}, {"fusion_lat": 0.0, "name": "1840f2fe18cf4250f241d7612ca1a6b2", "is_disabled": 0, "rental_uris": {"android": "https://dc.lft.to/lastmile_qr_scan", "ios": "https://dc.lft.to/lastmile_qr_scan"}, "fusion_lon": 0.0, "lat": 38.9040515, "bike_id": "1840f2fe18cf4250f241d7612ca1a6b2", "type": "electric_scooter", "is_reserved": 0, "lon": -77.067988}, {"fusion_lat": 0.0, "name": "fae9955f202ced10d7467f125f4c5580", "is_disabled": 0, "rental_uris": {"android": "https://dc.lft.to/lastmile_qr_scan", "ios": "https://dc.lft.to/lastmile_qr_scan"}, "fusion_lon": 0.0, "lat": 38.92537383333333, "bike_id": "fae9955f202ced10d7467f125f4c5580", "type": "electric_scooter", "is_reserved": 0, "lon": -77.00761866666667}, {"fusion_lat": 0.0, "name": "f0d202645850f975644924e4aa5365f6", "is_disabled": 0, "rental_uris": {"android": "https://dc.lft.to/lastmile_qr_scan", "ios": "https://dc.lft.to/lastmile_qr_scan"}, "fusion_lon": 0.0, "lat": 38.883014833333334, "bike_id": "f0d202645850f975644924e4aa5365f6", "type": "electric_scooter", "is_reserved": 0, "lon": -76.94857983333333}, {"fusion_lat": 0.0, "name": "160cdd1bf5b552a7e0c77474d98a518e", "is_disabled": 0, "rental_uris": {"android": "https://dc.lft.to/lastmile_qr_scan", "ios": "https://dc.lft.to/lastmile_qr_scan"}, "fusion_lon": 0.0, "lat": 38.81915466666667, "bike_id": "160cdd1bf5b552a7e0c77474d98a518e", "type": "electric_bike", "is_reserved": 0, "lon": -77.04798033333333}, {"fusion_lat": 0.0, "name": "2dfd87758b14b280fa67311429f850e7", "is_disabled": 0, "rental_uris": {"android": "https://dc.lft.to/lastmile_qr_scan", "ios": "https://dc.lft.to/lastmile_qr_scan"}, "fusion_lon": 0.0, "lat": 38.920343833333334, "bike_id": "2dfd87758b14b280fa67311429f850e7", "type": "electric_scooter", "is_reserved": 0, "lon": -77.012222}, {"fusion_lat": 0.0, "name": "c0c1ccf7d99c0abbdad5dbbef645e7eb", "is_disabled": 0, "rental_uris": {"android": "https://dc.lft.to/lastmile_qr_scan", "ios": "https://dc.lft.to/lastmile_qr_scan"}, "fusion_lon": 0.0, "lat": 38.929915666666666, "bike_id": "c0c1ccf7d99c0abbdad5dbbef645e7eb", "type": "electric_scooter", "is_reserved": 0, "lon": -77.03267216666667}, {"fusion_lat": 0.0, "name": "e427ad36beccbd4507e60b8b85fe23f1", "is_disabled": 0, "rental_uris": {"android": "https://dc.lft.to/lastmile_qr_scan", "ios": "https://dc.lft.to/lastmile_qr_scan"}, "fusion_lon": 0.0, "lat": 38.90235966666667, "bike_id": "e427ad36beccbd4507e60b8b85fe23f1", "type": "electric_scooter", "is_reserved": 0, "lon": -77.01751516666667}, {"fusion_lat": 0.0, "name": "95e59ea788f261dc8b486f0a63bef66f", "is_disabled": 0, "rental_uris": {"android": "https://dc.lft.to/lastmile_qr_scan", "ios": "https://dc.lft.to/lastmile_qr_scan"}, "fusion_lon": 0.0, "lat": 38.8962795, "bike_id": "95e59ea788f261dc8b486f0a63bef66f", "type": "electric_scooter", "is_reserved": 0, "lon": -77.022209}, {"fusion_lat": 0.0, "name": "dc74942bdadf384dd510e38df8630725", "is_disabled": 0, "rental_uris": {"android": "https://dc.lft.to/lastmile_qr_scan", "ios": "https://dc.lft.to/lastmile_qr_scan"}, "fusion_lon": 0.0, "lat": 38.900051833333336, "bike_id": "dc74942bdadf384dd510e38df8630725", "type": "electric_scooter", "is_reserved": 0, "lon": -76.99848883333334}, {"fusion_lat": 0.0, "name": "420b9017d8189622e6af3504c7633105", "is_disabled": 0, "rental_uris": {"android": "https://dc.lft.to/lastmile_qr_scan", "ios": "https://dc.lft.to/lastmile_qr_scan"},