{"data": {"bikes": [{"lat": 38.87658183333333, "is_disabled": 0, "type": "electric_scooter", "lon": -77.00397366666667, "bike_id": "d0861b1bc3a4e9c1fb46d975f484fe6d", "fusion_lat": 0.0, "name": "d0861b1bc3a4e9c1fb46d975f484fe6d", "is_reserved": 0, "rental_uris": {"android": "https://dc.lft.to/lastmile_qr_scan", "ios": "https://dc.lft.to/lastmile_qr_scan"}, "fusion_lon": 0.0}, {"lat": 38.953291666666665, "is_disabled": 0, "type": "electric_bike", "lon": -76.988203, "bike_id": "544cd2e979e6aadd0a52e74e8932bd89", "fusion_lat": 0.0, "name": "544cd2e979e6aadd0a52e74e8932bd89", "is_reserved": 0, "rental_uris": {"android": "https://dc.lft.to/lastmile_qr_scan", "ios": "https://dc.lft.to/lastmile_qr_scan"}, "fusion_lon": 0.0}, {"lat": 38.91816933333333, "is_disabled": 0, "type": "electric_scooter", "lon": -77.03074533333333, "bike_id": "a7600ab22d09f1d553a7b0ba8fddaf3c", "fusion_lat": 0.0, "name": "a7600ab22d09f1d553a7b0ba8fddaf3c", "is_reserved": 0, "rental_uris": {"android": "https://dc.lft.to/lastmile_qr_scan", "ios": "https://dc.lft.to/lastmile_qr_scan"}, "fusion_lon": 0.0}, {"lat": 38.866198833333335, "is_disabled": 0, "type": "electric_scooter", "lon": -76.98643783333333, "bike_id": "f91220c3c7c8342a45117ae73a646d43", "fusion_lat": 0.0, "name": "f91220c3c7c8342a45117ae73a646d43", "is_reserved": 0, "rental_uris": {"android": "https://dc.lft.to/lastmile_qr_scan", "ios": "https://dc.lft.to/lastmile_qr_scan"}, "fusion_lon": 0.0}, {"lat": 38.906455666666666, "is_disabled": 0, "type": "electric_scooter", "lon": -76.99026383333333, "bike_id": "e1c1f254237b30ba90941aa674418d2c", "fusion_lat": 0.0, "name": "e1c1f254237b30ba90941aa674418d2c", "is_reserved": 0, "rental_uris": {"android": "https://dc.lft.to/lastmile_qr_scan", "ios": "https://dc.lft.to/lastmile_qr_scan"}, "fusion_lon": 0.0}, {"lat": 38.8520865, "is_disabled": 0, "type": "electric_bike", "lon": -76.99581516666667, "bike_id": "86af23f1ab7df86fc01f51af823b61e4", "fusion_lat": 0.0, "name": "86af23f1ab7df86fc01f51af823b61e4", "is_reserved": 0, "rental_uris": {"android": "https://dc.lft.to/lastmile_qr_scan", "ios": "https://dc.lft.to/lastmile_qr_scan"}, "fusion_lon": 0.0}, {"lat": 38.844285166666666, "is_disabled": 0, "type": "electric_scooter", "lon": -76.99780566666666, "bike_id": "984afffd65020ce039571bc96187e9cb", "fusion_lat": 0.0, "name": "984afffd65020ce039571bc96187e9cb", "is_reserved": 0, "rental_uris": {"android": "https://dc.lft.to/lastmile_qr_scan", "ios": "https://dc.lft.to/lastmile_qr_scan"}, "fusion_lon": 0.0}, {"lat": 38.91553016666667, "is_disabled": 0, "type": "electric_scooter", "lon": -77.032407, "bike_id": "8fa7f38f315a61965ebbd1338b233e2f", "fusion_lat": 0.0, "name": "8fa7f38f315a61965ebbd1338b233e2f", "is_reserved": 0, "rental_uris": {"android": "https://dc.lft.to/lastmile_qr_scan", "ios": "https://dc.lft.to/lastmile_qr_scan"}, "fusion_lon": 0.0}, {"lat": 38.90267033333333, "is_disabled": 0, "type": "electric_scooter", "lon": -77.03436766666667, "bike_id": "cf81ebceb56c2835d398c9fe6edc41ff", "fusion_lat": 0.0, "name": "cf81ebceb56c2835d398c9fe6edc41ff", "is_reserved": 0, "rental_uris": {"android": "https://dc.lft.to/lastmile_qr_scan", "ios": "https://dc.lft.to/lastmile_qr_scan"}, "fusion_lon": 0.0}, {"lat": 38.91414433333333, "is_disabled": 0, "type": "electric_scooter", "lon": -77.0316655, "bike_id": "54f5d05e80db48d044eb50315376a41c", "fusion_lat": 0.0, "name": "54f5d05e80db48d044eb50315376a41c", "is_reserved": 0, "rental_uris": {"android": "https://dc.lft.to/lastmile_qr_scan", "ios": "https://dc.lft.to/lastmile_qr_scan"}, "fusion_lon": 0.0}, {"lat": 38.80504616666666, "is_disabled": 0, "type": "electric_bike", "lon": -77.04131483333333, "bike_id": "f80ff9353ae71777a90639f3205dc786", "fusion_lat": 0.0, "name": "f80ff9353ae71777a90639f3205dc786", "is_reserved": 0, "rental_uris": {"android": "https://dc.lft.to/lastmile_qr_scan", "ios": "https://dc.lft.to/lastmile_qr_scan"}, "fusion_lon": 0.0}, {"lat": 38.91698383333333, "is_disabled": 0, "type": "electric_scooter", "lon": -77.01103983333333, "bike_id": "38168915358138bb7085d1dc3a99b355", "fusion_lat": 0.0, "name": "38168915358138bb7085d1dc3a99b355", "is_reserved": 0, "rental_uris": {"android": "https://dc.lft.to/lastmile_qr_scan", "ios": "https://dc.lft.to/lastmile_qr_scan"}, "fusion_lon": 0.0}, {"lat": 38.931159, "is_disabled": 0, "type": "electric_scooter", "lon": -77.02090716666666, "bike_id": "c8a7924966dc9a7554ed60c303cf7298", "fusion_lat": 0.0, "name": "c8a7924966dc9a7554ed60c303cf7298", "is_reserved": 0, "rental_uris": {"android": "https://dc.lft.to/lastmile_qr_scan", "ios": "https://dc.lft.to/lastmile_qr_scan"}, "fusion_lon": 0.0}, {"lat": 38.91670633333333, "is_disabled": 0, "type": "electric_scooter", "lon": -77.02400116666666, "bike_id": "fea150aadae8918d1f1e109e0bd005f4", "fusion_lat": 0.0, "name": "fea150aadae8918d1f1e109e0bd005f4", "is_reserved": 0, "rental_uris": {"android": "https://dc.lft.to/lastmile_qr_scan", "ios": "https://dc.lft.to/lastmile_qr_scan"}, "fusion_lon": 0.0}, {"lat": 38.938962833333335, "is_disabled": 0, "type": "electric_scooter", "lon": -77.08488216666667, "bike_id": "72c4388d37f3f3cd03dbc427f638cece", "fusion_lat": 0.0, "name": "72c4388d37f3f3cd03dbc427f638cece", "is_reserved": 0, "rental_uris": {"android": "https://dc.lft.to/lastmile_qr_scan", "ios": "https://dc.lft.to/lastmile_qr_scan"}, "fusion_lon": 0.0}, {"lat": 38.9200675, "is_disabled": 0, "type": "electric_scooter", "lon": -77.01727233333334, "bike_id": "5ea9e25ce4d16a13d1ce9a6e1f6f1c4e", "fusion_lat": 0.0, "name": "5ea9e25ce4d16a13d1ce9a6e1f6f1c4e", "is_reserved": 0, "rental_uris": {"android": "https://dc.lft.to/lastmile_qr_scan", "ios": "https://dc.lft.to/lastmile_qr_scan"}, "fusion_lon": 0.0}, {"lat": 38.89759183333334, "is_disabled": 0, "type": "electric_scooter", "lon": -77.00920966666666, "bike_id": "c6b506f5c25e2391f436e936590f5691", "fusion_lat": 0.0, "name": "c6b506f5c25e2391f436e936590f5691", "is_reserved": 0, "rental_uris": {"android": "https://dc.lft.to/lastmile_qr_scan", "ios": "https://dc.lft.to/lastmile_qr_scan"}, "fusion_lon": 0.0}, {"lat": 38.88764233333333, "is_disabled": 0, "type": "electric_scooter", "lon": -76.95598283333334, "bike_id": "6763ed59e9e7aa9441fb2e0494696708", "fusion_lat": 0.0, "name": "6763ed59e9e7aa9441fb2e0494696708", "is_reserved": 0, "rental_uris": {"android": "https://dc.lft.to/lastmile_qr_scan", "ios": "https://dc.lft.to/lastmile_qr_scan"}, "fusion_lon": 0.0}, {"lat": 38.95267666666667, "is_disabled": 0, "type": "electric_bike", "lon": -77.06981733333333, "bike_id": "06b203dc272c1510d50119616b76ba12", "fusion_lat": 0.0, "name": "06b203dc272c1510d50119616b76ba12", "is_reserved": 0, "rental_uris": {"android": "https://dc.lft.to/lastmile_qr_scan", "ios": "https://dc.lft.to/lastmile_qr_scan"}, "fusion_lon": 0.0}, {"lat": 38.906842166666664, "is_disabled": 0, "type": "electric_scooter", "lon": -77.026939, "bike_id": "15e57b7b602fe5f69720f3ce0052aaf5", "fusion_lat": 0.0, "name": "15e57b7b602fe5f69720f3ce0052aaf5", "is_reserved": 0, "rental_uris": {"android": "https://dc.lft.to/lastmile_qr_scan", "ios": "https://dc.lft.to/lastmile_qr_scan"}, "fusion_lon": 0.0}, {"lat": 38.92747816666667, "is_disabled": 0, "type": "electric_scooter", "lon": -77.0253345, "bike_id": "f0e6b767262de1a198a540bc466a96eb", "fusion_lat": 0.0, "name": "f0e6b767262de1a198a540bc466a96eb", "is_reserved": 0, "rental_uris": {"android": "https://dc.lft.to/lastmile_qr_scan", "ios": "https://dc.lft.to/lastmile_qr_scan"}, "fusion_lon": 0.0}, {"lat": 38.93068683333333, "is_disabled": 0, "type": "electric_scooter", "lon": -77.041776, "bike_id": "a422b3db4a3f8ce27bbcdbe44bd6c036", "fusion_lat": 0.0, "name": "a422b3db4a3f8ce27bbcdbe44bd6c036", "is_reserved": 0, "rental_uris": {"android": "https://dc.lft.to/lastmile_qr_scan", "ios": "https://dc.lft.to/lastmile_qr_scan"}, "fusion_lon": 0.0}, {"lat": 38.90013283333333, "is_disabled": 0, "type": "electric_scooter", "lon": -77.03217516666666, "bike_id": "e878e7a71e0df3c32b12a94ea606a649", "fusion_lat": 0.0, "name": "e878e7a71e0df3c32b12a94ea606a649", "is_reserved": 0, "rental_uris": {"android": "https://dc.lft.to/lastmile_qr_scan", "ios": "https://dc.lft.to/lastmile_qr_scan"}, "fusion_lon": 0.0}, {"lat": 38.90573666666667, "is_disabled": 0, "type": "electric_scooter", "lon": -77.06281466666667, "bike_id": "0374afb505e4b7bf445da07022a3cd98", "fusion_lat": 0.0, "name": "0374afb505e4b7bf445da07022a3cd98", "is_reserved": 0, "rental_uris": {"android": "https://dc.lft.to/lastmile_qr_scan", "ios": "https://dc.lft.to/lastmile_qr_scan"}, "fusion_lon": 0.0}, {"lat": 38.908587833333335, "is_disabled": 0, "type": "electric_scooter", "lon": -76.99167183333333, "bike_id": "2ea9c135b312ec471a2e56884cef409a", "fusion_lat": 0.0, "name": "2ea9c135b312ec471a2e56884cef409a", "is_reserved": 0, "rental_uris": {"android": "https://dc.lft.to/lastmile_qr_scan", "ios": "https://dc.lft.to/lastmile_qr_scan"}, "fusion_lon": 0.0}, {"lat": 38.891231166666664, "is_disabled": 0, "type": "electric_scooter", "lon": -76.94385633333333, "bike_id": "5ebfbb86defe2d9e31cb86c08b141b92", "fusion_lat": 0.0, "name": "5ebfbb86defe2d9e31cb86c08b141b92", "is_reserved": 0, "rental_uris": {"android": "https://dc.lft.to/lastmile_qr_scan", "ios": "https://dc.lft.to/lastmile_qr_scan"}, "fusion_lon": 0.0}, {"lat": 38.9003885, "is_disabled": 0, "type": "electric_scooter", "lon": -76.993735, "bike_id": "e92a44f6cd1b254a03f52b51b74afde3", "fusion_lat": 0.0, "name": "e92a44f6cd1b254a03f52b51b74afde3", "is_reserved": 0, "rental_uris": {"android": "https://dc.lft.to/lastmile_qr_scan", "ios": "https://dc.lft.to/lastmile_qr_scan"}, "fusion_lon": 0.0}, {"lat": 38.899199333333335, "is_disabled": 0, "type": "electric_scooter", "lon": -76.933529, "bike_id": "e6f5292c82869c67ca21ad7b69732084", "fusion_lat": 0.0, "name": "e6f5292c82869c67ca21ad7b69732084", "is_reserved": 0, "rental_uris": {"android": "https://dc.lft.to/lastmile_qr_scan", "ios": "https://dc.lft.to/lastmile_qr_scan"}, "fusion_lon": 0.0}, {"lat": 38.906245166666665, "is_disabled": 0, "type": "electric_scooter", "lon": -76.98984533333334, "bike_id": "eef7b8d1070793c0be86fcf825c673b9", "fusion_lat": 0.0, "name": "eef7b8d1070793c0be86fcf825c673b9", "is_reserved": 0, "rental_uris": {"android": "https://dc.lft.to/lastmile_qr_scan", "ios": "https://dc.lft.to/lastmile_qr_scan"}, "fusion_lon": 0.0}, {"lat": 38.85908833333333, "is_disabled": 0, "type": "electric_scooter", "lon": -76.9914855, "bike_id": "7dfa9fb816df6af78ff8f2967c95f96e", "fusion_lat": 0.0, "name": "7dfa9fb816df6af78ff8f2967c95f96e", "is_reserved": 0, "rental_uris": {"android": "https://dc.lft.to/lastmile_qr_scan", "ios": "https://dc.lft.to/lastmile_qr_scan"}, "fusion_lon": 0.0}, {"lat": 38.922749333333336, "is_disabled": 0, "type": "electric_scooter", "lon": -77.042423, "bike_id": "99055d6e5bce46b1b131efd907b03dd4", "fusion_lat": 0.0, "name": "99055d6e5bce46b1b131efd907b03dd4", "is_reserved": 0, "rental_uris": {"android": "https://dc.lft.to/lastmile_qr_scan", "ios": "https://dc.lft.to/lastmile_qr_scan"}, "fusion_lon": 0.0}, {"lat": 38.915744333333336, "is_disabled": 0, "type": "electric_scooter", "lon": -77.032086, "bike_id": "1af9057169a9296ddfcb16e69152f514", "fusion_lat": 0.0, "name": "1af9057169a9296ddfcb16e69152f514", "is_reserved": 0, "rental_uris": {"android": "https://dc.lft.to/lastmile_qr_scan", "ios": "https://dc.lft.to/lastmile_qr_scan"}, "fusion_lon": 0.0}, {"lat": 38.93690466666666, "is_disabled": 0, "type": "electric_scooter", "lon": -77.05989516666666, "bike_id": "00244791321134a50b72f76df06aa9e7", "fusion_lat": 0.0, "name": "00244791321134a50b72f76df06aa9e7", "is_reserved": 0, "rental_uris": {"android": "https://dc.lft.to/lastmile_qr_scan", "ios": "https://dc.lft.to/lastmile_qr_scan"}, "fusion_lon": 0.0}, {"lat": 38.906157666666665, "is_disabled": 0, "type": "electric_scooter", "lon": -77.029729, "bike_id": "284591b54ecf3efc28b853db73152770", "fusion_lat": 0.0, "name": "284591b54ecf3efc28b853db73152770", "is_reserved": 0, "rental_uris": {"android": "https://dc.lft.to/lastmile_qr_scan", "ios": "https://dc.lft.to/lastmile_qr_scan"}, "fusion_lon": 0.0}, {"lat": 38.89553883333333, "is_disabled": 0, "type": "electric_scooter", "lon": -76.93371783333333, "bike_id": "f2813badfed00f791c3bb42524671ca7", "fusion_lat": 0.0, "name": "f2813badfed00f791c3bb42524671ca7", "is_reserved": 0, "rental_uris": {"android": "https://dc.lft.to/lastmile_qr_scan", "ios": "https://dc.lft.to/lastmile_qr_scan"}, "fusion_lon": 0.0}, {"lat": 38.902635333333336, "is_disabled": 0, "type": "electric_scooter", "lon": -77.03440266666667, "bike_id": "a2ee06e22ec33db73f71447d7db36db0", "fusion_lat": 0.0, "name": "a2ee06e22ec33db73f71447d7db36db0", "is_reserved": 0, "rental_uris": {"android": "https://dc.lft.to/lastmile_qr_scan", "ios": "https://dc.lft.to/lastmile_qr_scan"}, "fusion_lon": 0.0}, {"lat": 38.925003333333336, "is_disabled": 0, "type": "electric_scooter", "lon": -77.05223583333333, "bike_id": "f8d4a3ed83ff28a9333086433d1518d4", "fusion_lat": 0.0, "name": "f8d4a3ed83ff28a9333086433d1518d4", "is_reserved": 0, "rental_uris": {"android": "https://dc.lft.to/lastmile_qr_scan", "ios": "https://dc.lft.to/lastmile_qr_scan"}, "fusion_lon": 0.0}, {"lat": 38.90359766666667, "is_disabled": 0, "type": "electric_scooter", "lon": -77.01872566666667, "bike_id": "1e8fbb6ba5899f85b7d3f6e4cb2554f9", "fusion_lat": 0.0, "name": "1e8fbb6ba5899f85b7d3f6e4cb2554f9", "is_reserved": 0, "rental_uris": {"android": "https://dc.lft.to/lastmile_qr_scan", "ios": "https://dc.lft.to/lastmile_qr_scan"}, "fusion_lon": 0.0}, {"lat": 38.90363216666667, "is_disabled": 0, "type": "electric_scooter", "lon": -76.97655266666666, "bike_id": "71d2bab55561b008271cb41babcb5f37", "fusion_lat": 0.0, "name": "71d2bab55561b008271cb41babcb5f37", "is_reserved": 0, "rental_uris": {"android": "https://dc.lft.to/lastmile_qr_scan", "ios": "https://dc.lft.to/lastmile_qr_scan"}, "fusion_lon": 0.0}, {"lat": 38.90215366666666, "is_disabled": 0, "type": "electric_scooter", "lon": -76.98843466666666, "bike_id": "4dfd1c07a3860a2b64a8f41b080069e8", "fusion_lat": 0.0, "name": "4dfd1c07a3860a2b64a8f41b080069e8", "is_reserved": 0, "rental_uris": {"android": "https://dc.lft.to/lastmile_qr_scan", "ios": "https://dc.lft.to/lastmile_qr_scan"}, "fusion_lon": 0.0}, {"lat": 38.92052433333333, "is_disabled": 0, "type": "electric_scooter", "lon": -77.033444, "bike_id": "7b42fdf8fe79effe611db19ee2933394", "fusion_lat": 0.0, "name": "7b42fdf8fe79effe611db19ee2933394", "is_reserved": 0, "rental_uris": {"android": "https://dc.lft.to/lastmile_qr_scan", "ios": "https://dc.lft.to/lastmile_qr_scan"}, "fusion_lon": 0.0}, {"lat": 38.946461666666664, "is_disabled": 0, "type": "electric_scooter", "lon": -77.0649195, "bike_id": "ceab0bcc86df1c84d6fa0aec3e8fbfec", "fusion_lat": 0.0, "name": "ceab0bcc86df1c84d6fa0aec3e8fbfec", "is_reserved": 0, "rental_uris": {"android": "https://dc.lft.to/lastmile_qr_scan", "ios": "https://dc.lft.to/lastmile_qr_scan"}, "fusion_lon": 0.0}, {"lat": 38.92663266666667, "is_disabled": 0, "type": "electric_scooter", "lon": -77.055996, "bike_id": "302a1bc5d4470cb3e46aa83d969fba84", "fusion_lat": 0.0, "name": "302a1bc5d4470cb3e46aa83d969fba84", "is_reserved": 0, "rental_uris": {"android": "https://dc.lft.to/lastmile_qr_scan", "ios": "https://dc.lft.to/lastmile_qr_scan"}, "fusion_lon": 0.0}, {"lat": 38.895872, "is_disabled": 0, "type": "electric_scooter", "lon": -77.04361866666666, "bike_id": "d02fbddb9670c78921541e5c4966ddd4", "fusion_lat": 0.0, "name": "d02fbddb9670c78921541e5c4966ddd4", "is_reserved": 0, "rental_uris": {"android": "https://dc.lft.to/lastmile_qr_scan", "ios": "https://dc.lft.to/lastmile_qr_scan"}, "fusion_lon": 0.0}, {"lat": 38.91345716666667, "is_disabled": 0, "type": "electric_scooter", "lon": -77.03190483333333, "bike_id": "22dc913b24e9c3fe44ada71561f73cb8", "fusion_lat": 0.0, "name": "22dc913b24e9c3fe44ada71561f73cb8", "is_reserved": 0, "rental_uris": {"android": "https://dc.lft.to/lastmile_qr_scan", "ios": "https://dc.lft.to/lastmile_qr_scan"}, "fusion_lon": 0.0}, {"lat": 38.925580833333335, "is_disabled": 0, "type": "electric_scooter", "lon": -77.03808833333333, "bike_id": "919bee64ad7a3ae355ae9458f5628128", "fusion_lat": 0.0, "name": "919bee64ad7a3ae355ae9458f5628128", "is_reserved": 0, "rental_uris": {"android": "https://dc.lft.to/lastmile_qr_scan", "ios": "https://dc.lft.to/lastmile_qr_scan"}, "fusion_lon": 0.0}, {"lat": 38.939856666666664, "is_disabled": 0, "type": "electric_scooter", "lon": -77.02963683333333, "bike_id": "504ae5d1828c1d0a04c23f5faf51ba79", "fusion_lat": 0.0, "name": "504ae5d1828c1d0a04c23f5faf51ba79", "is_reserved": 0, "rental_uris": {"android": "https://dc.lft.to/lastmile_qr_scan", "ios": "https://dc.lft.to/lastmile_qr_scan"}, "fusion_lon": 0.0}, {"lat": 38.88687133333333, "is_disabled": 0, "type": "electric_scooter", "lon": -77.01299033333333, "bike_id": "bee95d322b19f1f03668c4fb5367fa13", "fusion_lat": 0.0, "name": "bee95d322b19f1f03668c4fb5367fa13", "is_reserved": 0, "rental_uris": {"android": "https://dc.lft.to/lastmile_qr_scan", "ios": "https://dc.lft.to/lastmile_qr_scan"}, "fusion_lon": 0.0}, {"lat": 38.91418266666667, "is_disabled": 0, "type": "electric_scooter", "lon": -77.031715, "bike_id": "a71cc21d77f19529cb862dd0fcd3fd69", "fusion_lat": 0.0, "name": "a71cc21d77f19529cb862dd0fcd3fd69", "is_reserved": 0, "rental_uris": {"android": "https://dc.lft.to/lastmile_qr_scan", "ios": "https://dc.lft.to/lastmile_qr_scan"}, "fusion_lon": 0.0}, {"lat": 38.866252833333334, "is_disabled": 0, "type": "electric_scooter", "lon": -76.98663633333334, "bike_id": "7d0e2ce9564f75f9a12f206ba1cb6d26", "fusion_lat": 0.0, "name": "7d0e2ce9564f75f9a12f206ba1cb6d26", "is_reserved": 0, "rental_uris": {"android": "https://dc.lft.to/lastmile_qr_scan", "ios": "https://dc.lft.to/lastmile_qr_scan"}, "fusion_lon": 0.0}, {"lat": 38.88495366666667, "is_disabled": 0, "type": "electric_scooter", "lon": -77.007114, "bike_id": "c0b8713525a158171c1702174e8503c6", "fusion_lat": 0.0, "name": "c0b8713525a158171c1702174e8503c6", "is_reserved": 0, "rental_uris": {"android": "https://dc.lft.to/lastmile_qr_scan", "ios": "https://dc.lft.to/lastmile_qr_scan"}, "fusion_lon": 0.0}, {"lat": 38.902787000000004, "is_disabled": 0, "type": "electric_scooter", "lon": -77.047005, "bike_id": "b0c158fb8552a83a478609d95c6ffc28", "fusion_lat": 0.0, "name": "b0c158fb8552a83a478609d95c6ffc28", "is_reserved": 0, "rental_uris": {"android": "https://dc.lft.to/lastmile_qr_scan", "ios": "https://dc.lft.to/lastmile_qr_scan"}, "fusion_lon": 0.0}, {"lat": 38.892556166666665, "is_disabled": 0, "type": "electric_scooter", "lon": -77.022072, "bike_id": "7b4343ecb1bec65053c0912d4ddabbae", "fusion_lat": 0.0, "name": "7b4343ecb1bec65053c0912d4ddabbae", "is_reserved": 0, "rental_uris": {"android": "https://dc.lft.to/lastmile_qr_scan", "ios": "https://dc.lft.to/lastmile_qr_scan"}, "fusion_lon": 0.0}, {"lat": 38.932042833333334, "is_disabled": 0, "type": "electric_scooter", "lon": -77.038528, "bike_id": "1b38c67b63fda623f3465b3f44101a33", "fusion_lat": 0.0, "name": "1b38c67b63fda623f3465b3f44101a33", "is_reserved": 0, "rental_uris": {"android": "https://dc.lft.to/lastmile_qr_scan", "ios": "https://dc.lft.to/lastmile_qr_scan"}, "fusion_lon": 0.0}, {"lat": 38.9103905, "is_disabled": 0, "type": "electric_scooter", "lon": -77.03365516666666, "bike_id": "18104641ad853608208c370b1bcad137", "fusion_lat": 0.0, "name": "18104641ad853608208c370b1bcad137", "is_reserved": 0, "rental_uris": {"android": "https://dc.lft.to/lastmile_qr_scan", "ios": "https://dc.lft.to/lastmile_qr_scan"}, "fusion_lon": 0.0}, {"lat": 38.887050333333335, "is_disabled": 0, "type": "electric_scooter", "lon": -77.0321725, "bike_id": "0b3f1a14c96cf91288cf24b11f00eb1d", "fusion_lat": 0.0, "name": "0b3f1a14c96cf91288cf24b11f00eb1d", "is_reserved": 0, "rental_uris": {"android": "https://dc.lft.to/lastmile_qr_scan", "ios": "https://dc.lft.to/lastmile_qr_scan"}, "fusion_lon": 0.0}, {"lat": 38.893582333333335, "is_disabled": 0, "type": "electric_scooter", "lon": -77.041574, "bike_id": "9ff2e5d41470ce72950297b16c2927c6", "fusion_lat": 0.0, "name": "9ff2e5d41470ce72950297b16c2927c6", "is_reserved": 0, "rental_uris": {"android": "https://dc.lft.to/lastmile_qr_scan", "ios": "https://dc.lft.to/lastmile_qr_scan"}, "fusion_lon": 0.0}, {"lat": 38.89842183333333, "is_disabled": 0, "type": "electric_scooter", "lon": -76.94463416666666, "bike_id": "cf42ca7fc02428766a3cbd5584e3a953", "fusion_lat": 0.0, "name": "cf42ca7fc02428766a3cbd5584e3a953", "is_reserved": 0, "rental_uris": {"android": "https://dc.lft.to/lastmile_qr_scan", "ios": "https://dc.lft.to/lastmile_qr_scan"}, "fusion_lon": 0.0}, {"lat": 38.91324183333333, "is_disabled": 0, "type": "electric_scooter", "lon": -77.04554533333334, "bike_id": "0f917f8b20cf72b2165017fc504dfbb6", "fusion_lat": 0.0, "name": "0f917f8b20cf72b2165017fc504dfbb6", "is_reserved": 0, "rental_uris": {"android": "https://dc.lft.to/lastmile_qr_scan", "ios": "https://dc.lft.to/lastmile_qr_scan"}, "fusion_lon": 0.0}, {"lat": 38.86288316666667, "is_disabled": 0, "type": "electric_scooter", "lon": -76.99238066666666, "bike_id": "e56f80a8aacad2097b00196c620d3f45", "fusion_lat": 0.0, "name": "e56f80a8aacad2097b00196c620d3f45", "is_reserved": 0, "rental_uris": {"android": "https://dc.lft.to/lastmile_qr_scan", "ios": "https://dc.lft.to/lastmile_qr_scan"}, "fusion_lon": 0.0}, {"lat": 38.93524033333333, "is_disabled": 0, "type": "electric_bike", "lon": -76.98348866666667, "bike_id": "ecf4c0082aefefd7f2b9e1ee2c60033b", "fusion_lat": 0.0, "name": "ecf4c0082aefefd7f2b9e1ee2c60033b", "is_reserved": 0, "rental_uris": {"android": "https://dc.lft.to/lastmile_qr_scan", "ios": "https://dc.lft.to/lastmile_qr_scan"}, "fusion_lon": 0.0}, {"lat": 39.094398, "is_disabled": 0, "type": "electric_bike", "lon": -77.13464, "bike_id": "2899519515c60e32ebb17bf762b7c3b5", "fusion_lat": 0.0, "name": "2899519515c60e32ebb17bf762b7c3b5", "is_reserved": 0, "rental_uris": {"android": "https://dc.lft.to/lastmile_qr_scan", "ios": "https://dc.lft.to/lastmile_qr_scan"}, "fusion_lon": 0.0}, {"lat": 38.92866816666667, "is_disabled": 0, "type": "electric_scooter", "lon": -77.03096833333333, "bike_id": "ad4e76eeb8791bab76e0f6a23993f66c", "fusion_lat": 0.0, "name": "ad4e76eeb8791bab76e0f6a23993f66c", "is_reserved": 0, "rental_uris": {"android": "https://dc.lft.to/lastmile_qr_scan", "ios": "https://dc.lft.to/lastmile_qr_scan"}, "fusion_lon": 0.0}, {"lat": 38.91412016666666, "is_disabled": 0, "type": "electric_scooter", "lon": -77.03554233333334, "bike_id": "d670227dea1dd5dcae0559084d25dbe9", "fusion_lat": 0.0, "name": "d670227dea1dd5dcae0559084d25dbe9", "is_reserved": 0, "rental_uris": {"android": "https://dc.lft.to/lastmile_qr_scan", "ios": "https://dc.lft.to/lastmile_qr_scan"}, "fusion_lon": 0.0}, {"lat": 38.88212633333333, "is_disabled": 0, "type": "electric_scooter", "lon": -76.990392, "bike_id": "85f5fc06b9567ec59a93ccab76b7b994", "fusion_lat": 0.0, "name": "85f5fc06b9567ec59a93ccab76b7b994", "is_reserved": 0, "rental_uris": {"android": "https://dc.lft.to/lastmile_qr_scan", "ios": "https://dc.lft.to/lastmile_qr_scan"}, "fusion_lon": 0.0}, {"lat": 38.90971066666667, "is_disabled": 0, "type": "electric_scooter", "lon": -77.04803383333333, "bike_id": "a5f9c6ed5b4a25eb3554b69d661a8688", "fusion_lat": 0.0, "name": "a5f9c6ed5b4a25eb3554b69d661a8688", "is_reserved": 0, "rental_uris": {"android": "https://dc.lft.to/lastmile_qr_scan", "ios": "https://dc.lft.to/lastmile_qr_scan"}, "fusion_lon": 0.0}, {"lat": 38.907348166666665, "is_disabled": 0, "type": "electric_scooter", "lon": -77.0344675, "bike_id": "043ea8e1d4d990efb00289086bd40c8d", "fusion_lat": 0.0, "name": "043ea8e1d4d990efb00289086bd40c8d", "is_reserved": 0, "rental_uris": {"android": "https://dc.lft.to/lastmile_qr_scan", "ios": "https://dc.lft.to/lastmile_qr_scan"}, "fusion_lon": 0.0}, {"lat": 38.92250266666667, "is_disabled": 0, "type": "electric_scooter", "lon": -77.0288035, "bike_id": "6cb7962e29e8fd999b86d83f46c79cfc", "fusion_lat": 0.0, "name": "6cb7962e29e8fd999b86d83f46c79cfc", "is_reserved": 0, "rental_uris": {"android": "https://dc.lft.to/lastmile_qr_scan", "ios": "https://dc.lft.to/lastmile_qr_scan"}, "fusion_lon": 0.0}, {"lat": 38.9196495, "is_disabled": 0, "type": "electric_scooter", "lon": -77.02493233333334, "bike_id": "873d5d230e4fb3dac1939f5451845166", "fusion_lat": 0.0, "name": "873d5d230e4fb3dac1939f5451845166", "is_reserved": 0, "rental_uris": {"android": "https://dc.lft.to/lastmile_qr_scan", "ios": "https://dc.lft.to/lastmile_qr_scan"}, "fusion_lon": 0.0}, {"lat": 38.901108666666666, "is_disabled": 0, "type": "electric_scooter", "lon": -77.01817466666667, "bike_id": "48e48903e3a84623ce5a167d542f5cb3", "fusion_lat": 0.0, "name": "48e48903e3a84623ce5a167d542f5cb3", "is_reserved": 0, "rental_uris": {"android": "https://dc.lft.to/lastmile_qr_scan", "ios": "https://dc.lft.to/lastmile_qr_scan"}, "fusion_lon": 0.0}, {"lat": 38.896749166666666, "is_disabled": 0, "type": "electric_scooter", "lon": -77.00515, "bike_id": "9d248139bd3d8bf99d7514f4b07f6286", "fusion_lat": 0.0, "name": "9d248139bd3d8bf99d7514f4b07f6286", "is_reserved": 0, "rental_uris": {"android": "https://dc.lft.to/lastmile_qr_scan", "ios": "https://dc.lft.to/lastmile_qr_scan"}, "fusion_lon": 0.0}, {"lat": 38.90403366666666, "is_disabled": 0, "type": "electric_scooter", "lon": -76.9929815, "bike_id": "91e3160d16bfe3eb2998ede73ad09eb3", "fusion_lat": 0.0, "name": "91e3160d16bfe3eb2998ede73ad09eb3", "is_reserved": 0, "rental_uris": {"android": "https://dc.lft.to/lastmile_qr_scan", "ios": "https://dc.lft.to/lastmile_qr_scan"}, "fusion_lon": 0.0}, {"lat": 38.92061733333333, "is_disabled": 0, "type": "electric_scooter", "lon": -77.03395583333334, "bike_id": "94692eb5480cc0f266a927ee697bc44e", "fusion_lat": 0.0, "name": "94692eb5480cc0f266a927ee697bc44e", "is_reserved": 0, "rental_uris": {"android": "https://dc.lft.to/lastmile_qr_scan", "ios": "https://dc.lft.to/lastmile_qr_scan"}, "fusion_lon": 0.0}, {"lat": 38.89897083333334, "is_disabled": 0, "type": "electric_scooter", "lon": -76.98424133333333, "bike_id": "bff863ddc0dc39e50c8b430dde21fd8b", "fusion_lat": 0.0, "name": "bff863ddc0dc39e50c8b430dde21fd8b", "is_reserved": 0, "rental_uris": {"android": "https://dc.lft.to/lastmile_qr_scan", "ios": "https://dc.lft.to/lastmile_qr_scan"}, "fusion_lon": 0.0}, {"lat": 38.89733283333333, "is_disabled": 0, "type": "electric_scooter", "lon": -76.94724316666667, "bike_id": "323c48a0913ea24176db01f50f07d0bd", "fusion_lat": 0.0, "name": "323c48a0913ea24176db01f50f07d0bd", "is_reserved": 0, "rental_uris": {"android": "https://dc.lft.to/lastmile_qr_scan", "ios": "https://dc.lft.to/lastmile_qr_scan"}, "fusion_lon": 0.0}, {"lat": 38.869595833333335, "is_disabled": 0, "type": "electric_bike", "lon": -77.010796, "bike_id": "df6ba654ce980086254263ac756e9671", "fusion_lat": 0.0, "name": "df6ba654ce980086254263ac756e9671", "is_reserved": 0, "rental_uris": {"android": "https://dc.lft.to/lastmile_qr_scan", "ios": "https://dc.lft.to/lastmile_qr_scan"}, "fusion_lon": 0.0}, {"lat": 38.9319215, "is_disabled": 0, "type": "electric_scooter", "lon": -77.02964983333334, "bike_id": "7c16cef7aa6f6caf28e58ba52ae19c66", "fusion_lat": 0.0, "name": "7c16cef7aa6f6caf28e58ba52ae19c66", "is_reserved": 0, "rental_uris": {"android": "https://dc.lft.to/lastmile_qr_scan", "ios": "https://dc.lft.to/lastmile_qr_scan"}, "fusion_lon": 0.0}, {"lat": 38.95651, "is_disabled": 0, "type": "electric_scooter", "lon": -77.01283216666667, "bike_id": "e37d2fbc13b9e4541ee1a0caa25cd4e7", "fusion_lat": 0.0, "name": "e37d2fbc13b9e4541ee1a0caa25cd4e7", "is_reserved": 0, "rental_uris": {"android": "https://dc.lft.to/lastmile_qr_scan", "ios": "https://dc.lft.to/lastmile_qr_scan"}, "fusion_lon": 0.0}, {"lat": 38.82870783333333, "is_disabled": 0, "type": "electric_bike", "lon": -77.1122185, "bike_id": "b6cc759c477bc655a86565e3c40bb26e", "fusion_lat": 0.0, "name": "b6cc759c477bc655a86565e3c40bb26e", "is_reserved": 0, "rental_uris": {"android": "https://dc.lft.to/lastmile_qr_scan", "ios": "https://dc.lft.to/lastmile_qr_scan"}, "fusion_lon": 0.0}, {"lat": 39.0001845, "is_disabled": 0, "type": "electric_bike", "lon": -76.91078416666667, "bike_id": "6e9118ca058c9aed125b5ebd93136756", "fusion_lat": 0.0, "name": "6e9118ca058c9aed125b5ebd93136756", "is_reserved": 0, "rental_uris": {"android": "https://dc.lft.to/lastmile_qr_scan", "ios": "https://dc.lft.to/lastmile_qr_scan"}, "fusion_lon": 0.0}, {"lat": 38.90991433333333, "is_disabled": 0, "type": "electric_scooter", "lon": -76.99739816666667, "bike_id": "cc4c0360975fab959c50be7bd9b7217a", "fusion_lat": 0.0, "name": "cc4c0360975fab959c50be7bd9b7217a", "is_reserved": 0, "rental_uris": {"android": "https://dc.lft.to/lastmile_qr_scan", "ios": "https://dc.lft.to/lastmile_qr_scan"}, "fusion_lon": 0.0}, {"lat": 38.90016983333334, "is_disabled": 0, "type": "electric_scooter", "lon": -77.00684466666667, "bike_id": "4bcde6d9dd61f1269b0f6a8ee7092fe7", "fusion_lat": 0.0, "name": "4bcde6d9dd61f1269b0f6a8ee7092fe7", "is_reserved": 0, "rental_uris": {"android": "https://dc.lft.to/lastmile_qr_scan", "ios": "https://dc.lft.to/lastmile_qr_scan"}, "fusion_lon": 0.0}, {"lat": 38.90357733333333, "is_disabled": 0, "type": "electric_scooter", "lon": -77.03840783333334, "bike_id": "a04c46ceafb39252ce97da40910ec8e5", "fusion_lat": 0.0, "name": "a04c46ceafb39252ce97da40910ec8e5", "is_reserved": 0, "rental_uris": {"android": "https://dc.lft.to/lastmile_qr_scan", "ios": "https://dc.lft.to/lastmile_qr_scan"}, "fusion_lon": 0.0}, {"lat": 38.92960683333333, "is_disabled": 0, "type": "electric_scooter", "lon": -77.03180566666667, "bike_id": "c0120e63f6033e23c239f256244c6ef2", "fusion_lat": 0.0, "name": "c0120e63f6033e23c239f256244c6ef2", "is_reserved": 0, "rental_uris": {"android": "https://dc.lft.to/lastmile_qr_scan", "ios": "https://dc.lft.to/lastmile_qr_scan"}, "fusion_lon": 0.0}, {"lat": 38.8923345, "is_disabled": 0, "type": "electric_scooter", "lon": -77.05001283333333, "bike_id": "099a9d727086fdaa9136624b5ab1a7fb", "fusion_lat": 0.0, "name": "099a9d727086fdaa9136624b5ab1a7fb", "is_reserved": 0, "rental_uris": {"android": "https://dc.lft.to/lastmile_qr_scan", "ios": "https://dc.lft.to/lastmile_qr_scan"}, "fusion_lon": 0.0}, {"lat": 38.953281, "is_disabled": 0, "type": "electric_scooter", "lon": -77.02752916666667, "bike_id": "2c004afa4fad3391e0a000647008c77b", "fusion_lat": 0.0, "name": "2c004afa4fad3391e0a000647008c77b", "is_reserved": 0, "rental_uris": {"android": "https://dc.lft.to/lastmile_qr_scan", "ios": "https://dc.lft.to/lastmile_qr_scan"}, "fusion_lon": 0.0}, {"lat": 38.919846666666665, "is_disabled": 0, "type": "electric_scooter", "lon": -76.97310333333333, "bike_id": "e62fe8c033470ec4b3131be19beb733c", "fusion_lat": 0.0, "name": "e62fe8c033470ec4b3131be19beb733c", "is_reserved": 0, "rental_uris": {"android": "https://dc.lft.to/lastmile_qr_scan", "ios": "https://dc.lft.to/lastmile_qr_scan"}, "fusion_lon": 0.0}, {"lat": 39.029300666666664, "is_disabled": 0, "type": "electric_bike", "lon": -77.04931166666667, "bike_id": "5f400d9ff4bfc7689cbd31a271f48319", "fusion_lat": 0.0, "name": "5f400d9ff4bfc7689cbd31a271f48319", "is_reserved": 0, "rental_uris": {"android": "https://dc.lft.to/lastmile_qr_scan", "ios": "https://dc.lft.to/lastmile_qr_scan"}, "fusion_lon": 0.0}, {"lat": 38.88491066666667, "is_disabled": 0, "type": "electric_scooter", "lon": -77.007149, "bike_id": "44a449a93a8bf48203c813934511ff5c", "fusion_lat": 0.0, "name": "44a449a93a8bf48203c813934511ff5c", "is_reserved": 0, "rental_uris": {"android": "https://dc.lft.to/lastmile_qr_scan", "ios": "https://dc.lft.to/lastmile_qr_scan"}, "fusion_lon": 0.0}, {"lat": 38.9734725, "is_disabled": 0, "type": "electric_scooter", "lon": -77.01794616666666, "bike_id": "2d1776586dc152eaf8f4cf3e6bbb8f7e", "fusion_lat": 0.0, "name": "2d1776586dc152eaf8f4cf3e6bbb8f7e", "is_reserved": 0, "rental_uris": {"android": "https://dc.lft.to/lastmile_qr_scan", "ios": "https://dc.lft.to/lastmile_qr_scan"}, "fusion_lon": 0.0}, {"lat": 38.87630883333333, "is_disabled": 0, "type": "electric_scooter", "lon": -77.0095375, "bike_id": "8d024a12b16958eaf79f62dfa7c846a6", "fusion_lat": 0.0, "name": "8d024a12b16958eaf79f62dfa7c846a6", "is_reserved": 0, "rental_uris": {"android": "https://dc.lft.to/lastmile_qr_scan", "ios": "https://dc.lft.to/lastmile_qr_scan"}, "fusion_lon": 0.0}, {"lat": 38.960209166666665, "is_disabled": 0, "type": "electric_bike", "lon": -77.0172895, "bike_id": "9e1121c3856f7eb54f43c96638fe6063", "fusion_lat": 0.0, "name": "9e1121c3856f7eb54f43c96638fe6063", "is_reserved": 0, "rental_uris": {"android": "https://dc.lft.to/lastmile_qr_scan", "ios": "https://dc.lft.to/lastmile_qr_scan"}, "fusion_lon": 0.0}, {"lat": 38.876461166666665, "is_disabled": 0, "type": "electric_scooter", "lon": -77.00412783333333, "bike_id": "820b9c95428d5494ad7ad6c63e3980e0", "fusion_lat": 0.0, "name": "820b9c95428d5494ad7ad6c63e3980e0", "is_reserved": 0, "rental_uris": {"android": "https://dc.lft.to/lastmile_qr_scan", "ios": "https://dc.lft.to/lastmile_qr_scan"}, "fusion_lon": 0.0}, {"lat": 38.884733, "is_disabled": 0, "type": "electric_scooter", "lon": -76.99255916666667, "bike_id": "6e4731d051055205ab978c0b12021050", "fusion_lat": 0.0, "name": "6e4731d051055205ab978c0b12021050", "is_reserved": 0, "rental_uris": {"android": "https://dc.lft.to/lastmile_qr_scan", "ios": "https://dc.lft.to/lastmile_qr_scan"}, "fusion_lon": 0.0}, {"lat": 38.93882633333333, "is_disabled": 0, "type": "electric_scooter", "lon": -77.032329, "bike_id": "3e7ef14a78593da400d0b2e86157a85c", "fusion_lat": 0.0, "name": "3e7ef14a78593da400d0b2e86157a85c", "is_reserved": 0, "rental_uris": {"android": "https://dc.lft.to/lastmile_qr_scan", "ios": "https://dc.lft.to/lastmile_qr_scan"}, "fusion_lon": 0.0}, {"lat": 38.88659116666667, "is_disabled": 0, "type": "electric_bike", "lon": -77.16233383333334, "bike_id": "e3a216f49f365fa96bd7804812ad5197", "fusion_lat": 0.0, "name": "e3a216f49f365fa96bd7804812ad5197", "is_reserved": 0, "rental_uris": {"android": "https://dc.lft.to/lastmile_qr_scan", "ios": "https://dc.lft.to/lastmile_qr_scan"}, "fusion_lon": 0.0}, {"lat": 38.93572616666667, "is_disabled": 0, "type": "electric_scooter", "lon": -77.06089833333333, "bike_id": "d821f7784fe4b466011963570c840e9d", "fusion_lat": 0.0, "name": "d821f7784fe4b466011963570c840e9d", "is_reserved": 0, "rental_uris": {"android": "https://dc.lft.to/lastmile_qr_scan", "ios": "https://dc.lft.to/lastmile_qr_scan"}, "fusion_lon": 0.0}, {"lat": 38.89663483333333, "is_disabled": 0, "type": "electric_scooter", "lon": -77.03977783333333, "bike_id": "05fa7960150e2205b0917304325e17b1", "fusion_lat": 0.0, "name": "05fa7960150e2205b0917304325e17b1", "is_reserved": 0, "rental_uris": {"android": "https://dc.lft.to/lastmile_qr_scan", "ios": "https://dc.lft.to/lastmile_qr_scan"}, "fusion_lon": 0.0}, {"lat": 38.9104795, "is_disabled": 0, "type": "electric_scooter", "lon": -77.04579983333333, "bike_id": "f2666b1d02588bcc25a51dbe1218c585", "fusion_lat": 0.0, "name": "f2666b1d02588bcc25a51dbe1218c585", "is_reserved": 0, "rental_uris": {"android": "https://dc.lft.to/lastmile_qr_scan", "ios": "https://dc.lft.to/lastmile_qr_scan"}, "fusion_lon": 0.0}, {"lat": 38.905119166666665, "is_disabled": 0, "type": "electric_scooter", "lon": -77.064714, "bike_id": "ceb7092b76433bd4797e3c474548ce21", "fusion_lat": 0.0, "name": "ceb7092b76433bd4797e3c474548ce21", "is_reserved": 0, "rental_uris": {"android": "https://dc.lft.to/lastmile_qr_scan", "ios": "https://dc.lft.to/lastmile_qr_scan"}, "fusion_lon": 0.0}, {"lat": 38.900556, "is_disabled": 0, "type": "electric_scooter", "lon": -77.00205616666666, "bike_id": "970c82003e9be8514def2c69d80fbc34", "fusion_lat": 0.0, "name": "970c82003e9be8514def2c69d80fbc34", "is_reserved": 0, "rental_uris": {"android": "https://dc.lft.to/lastmile_qr_scan", "ios": "https://dc.lft.to/lastmile_qr_scan"}, "fusion_lon": 0.0}, {"lat": 38.90137683333333, "is_disabled": 0, "type": "electric_scooter", "lon": -77.016019, "bike_id": "da9b652208bcc2eccd2661a8614a4fbf", "fusion_lat": 0.0, "name": "da9b652208bcc2eccd2661a8614a4fbf", "is_reserved": 0, "rental_uris": {"android": "https://dc.lft.to/lastmile_qr_scan", "ios": "https://dc.lft.to/lastmile_qr_scan"}, "fusion_lon": 0.0}, {"lat": 38.9002425, "is_disabled": 0, "type": "electric_scooter", "lon": -76.998727, "bike_id": "0b9ab37a55ca68a27c52d4c1cc3185b5", "fusion_lat": 0.0, "name": "0b9ab37a55ca68a27c52d4c1cc3185b5", "is_reserved": 0, "rental_uris": {"android": "https://dc.lft.to/lastmile_qr_scan", "ios": "https://dc.lft.to/lastmile_qr_scan"}, "fusion_lon": 0.0}, {"lat": 38.91888633333333, "is_disabled": 0, "type": "electric_scooter", "lon": -77.03917116666666, "bike_id": "6b26ffce4a6a93f97451022d5a8f448c", "fusion_lat": 0.0, "name": "6b26ffce4a6a93f97451022d5a8f448c", "is_reserved": 0, "rental_uris": {"android": "https://dc.lft.to/lastmile_qr_scan", "ios": "https://dc.lft.to/lastmile_qr_scan"}, "fusion_lon": 0.0}, {"lat": 38.905756833333335, "is_disabled": 0, "type": "electric_scooter", "lon": -77.00885233333334, "bike_id": "24252af6bacf1f3ffc14bfcaf9bfe3d8", "fusion_lat": 0.0, "name": "24252af6bacf1f3ffc14bfcaf9bfe3d8", "is_reserved": 0, "rental_uris": {"android": "https://dc.lft.to/lastmile_qr_scan", "ios": "https://dc.lft.to/lastmile_qr_scan"}, "fusion_lon": 0.0}, {"lat": 38.896186666666665, "is_disabled": 0, "type": "electric_scooter", "lon": -76.95601266666667, "bike_id": "e0535e75f81bc5b5098fe24084149040", "fusion_lat": 0.0, "name": "e0535e75f81bc5b5098fe24084149040", "is_reserved": 0, "rental_uris": {"android": "https://dc.lft.to/lastmile_qr_scan", "ios": "https://dc.lft.to/lastmile_qr_scan"}, "fusion_lon": 0.0}, {"lat": 38.92315816666667, "is_disabled": 0, "type": "electric_scooter", "lon": -77.04465366666666, "bike_id": "6ed07216276e32bfc66ce389d58257d4", "fusion_lat": 0.0, "name": "6ed07216276e32bfc66ce389d58257d4", "is_reserved": 0, "rental_uris": {"android": "https://dc.lft.to/lastmile_qr_scan", "ios": "https://dc.lft.to/lastmile_qr_scan"}, "fusion_lon": 0.0}, {"lat": 38.9213035, "is_disabled": 0, "type": "electric_scooter", "lon": -77.04138166666667, "bike_id": "8dcfce318f202ac1194b0fbae6cd2783", "fusion_lat": 0.0, "name": "8dcfce318f202ac1194b0fbae6cd2783", "is_reserved": 0, "rental_uris": {"android": "https://dc.lft.to/lastmile_qr_scan", "ios": "https://dc.lft.to/lastmile_qr_scan"}, "fusion_lon": 0.0}, {"lat": 38.93862166666667, "is_disabled": 0, "type": "electric_scooter", "lon": -77.0265355, "bike_id": "9c71e995f53f1f63dc05567573f9be5d", "fusion_lat": 0.0, "name": "9c71e995f53f1f63dc05567573f9be5d", "is_reserved": 0, "rental_uris": {"android": "https://dc.lft.to/lastmile_qr_scan", "ios": "https://dc.lft.to/lastmile_qr_scan"}, "fusion_lon": 0.0}, {"lat": 38.87633966666667, "is_disabled": 0, "type": "electric_scooter", "lon": -76.965258, "bike_id": "8f1041e3f90e152af96571d12f39d1ff", "fusion_lat": 0.0, "name": "8f1041e3f90e152af96571d12f39d1ff", "is_reserved": 0, "rental_uris": {"android": "https://dc.lft.to/lastmile_qr_scan", "ios": "https://dc.lft.to/lastmile_qr_scan"}, "fusion_lon": 0.0}, {"lat": 38.9075035, "is_disabled": 0, "type": "electric_scooter", "lon": -77.0037785, "bike_id": "dd2fdece24b738061550f188824169bf", "fusion_lat": 0.0, "name": "dd2fdece24b738061550f188824169bf", "is_reserved": 0, "rental_uris": {"android": "https://dc.lft.to/lastmile_qr_scan", "ios": "https://dc.lft.to/lastmile_qr_scan"}, "fusion_lon": 0.0}, {"lat": 38.899102166666665, "is_disabled": 0, "type": "electric_scooter", "lon": -77.03328583333334, "bike_id": "8715b436cf1bb10373e76d2ccee43e42", "fusion_lat": 0.0, "name": "8715b436cf1bb10373e76d2ccee43e42", "is_reserved": 0, "rental_uris": {"android": "https://dc.lft.to/lastmile_qr_scan", "ios": "https://dc.lft.to/lastmile_qr_scan"}, "fusion_lon": 0.0}, {"lat": 38.928552, "is_disabled": 0, "type": "electric_scooter", "lon": -77.033253, "bike_id": "1a3eba85b2e25e7259d2d1ad85179747", "fusion_lat": 0.0, "name": "1a3eba85b2e25e7259d2d1ad85179747", "is_reserved": 0, "rental_uris": {"android": "https://dc.lft.to/lastmile_qr_scan", "ios": "https://dc.lft.to/lastmile_qr_scan"}, "fusion_lon": 0.0}, {"lat": 38.893299666666664, "is_disabled": 0, "type": "electric_scooter", "lon": -76.92990816666666, "bike_id": "a2c534d6d2b67bb53bcc18ed30d93361", "fusion_lat": 0.0, "name": "a2c534d6d2b67bb53bcc18ed30d93361", "is_reserved": 0, "rental_uris": {"android": "https://dc.lft.to/lastmile_qr_scan", "ios": "https://dc.lft.to/lastmile_qr_scan"}, "fusion_lon": 0.0}, {"lat": 38.897287166666665, "is_disabled": 0, "type": "electric_scooter", "lon": -77.026379, "bike_id": "8b3a39d2ab2095bc09d837e9fb0d240b", "fusion_lat": 0.0, "name": "8b3a39d2ab2095bc09d837e9fb0d240b", "is_reserved": 0, "rental_uris": {"android": "https://dc.lft.to/lastmile_qr_scan", "ios": "https://dc.lft.to/lastmile_qr_scan"}, "fusion_lon": 0.0}, {"lat": 38.91709083333333, "is_disabled": 0, "type": "electric_scooter", "lon": -77.03500183333334, "bike_id": "23bc12d365a3fbbe53447c186e602321", "fusion_lat": 0.0, "name": "23bc12d365a3fbbe53447c186e602321", "is_reserved": 0, "rental_uris": {"android": "https://dc.lft.to/lastmile_qr_scan", "ios": "https://dc.lft.to/lastmile_qr_scan"}, "fusion_lon": 0.0}, {"lat": 38.898315, "is_disabled": 0, "type": "electric_scooter", "lon": -77.04337766666667, "bike_id": "7d4c1edba68410dcd683eeae721cfac6", "fusion_lat": 0.0, "name": "7d4c1edba68410dcd683eeae721cfac6", "is_reserved": 0, "rental_uris": {"android": "https://dc.lft.to/lastmile_qr_scan", "ios": "https://dc.lft.to/lastmile_qr_scan"}, "fusion_lon": 0.0}, {"lat": 38.896193833333335, "is_disabled": 0, "type": "electric_scooter", "lon": -76.998464, "bike_id": "4025f25104aa2891dcc3503426a0092f", "fusion_lat": 0.0, "name": "4025f25104aa2891dcc3503426a0092f", "is_reserved": 0, "rental_uris": {"android": "https://dc.lft.to/lastmile_qr_scan", "ios": "https://dc.lft.to/lastmile_qr_scan"}, "fusion_lon": 0.0}, {"lat": 39.033998, "is_disabled": 0, "type": "electric_bike", "lon": -77.04205233333333, "bike_id": "2ce3efd38ad0e29288392898f35bdb06", "fusion_lat": 0.0, "name": "2ce3efd38ad0e29288392898f35bdb06", "is_reserved": 0, "rental_uris": {"android": "https://dc.lft.to/lastmile_qr_scan", "ios": "https://dc.lft.to/lastmile_qr_scan"}, "fusion_lon": 0.0}, {"lat": 38.91694366666667, "is_disabled": 0, "type": "electric_scooter", "lon": -77.033117, "bike_id": "67753519cf71ae53e2c21684001d434a", "fusion_lat": 0.0, "name": "67753519cf71ae53e2c21684001d434a", "is_reserved": 0, "rental_uris": {"android": "https://dc.lft.to/lastmile_qr_scan", "ios": "https://dc.lft.to/lastmile_qr_scan"}, "fusion_lon": 0.0}, {"lat": 38.92267483333333, "is_disabled": 0, "type": "electric_scooter", "lon": -77.03640883333334, "bike_id": "df53018e531a036388bd777f37b764f5", "fusion_lat": 0.0, "name": "df53018e531a036388bd777f37b764f5", "is_reserved": 0, "rental_uris": {"android": "https://dc.lft.to/lastmile_qr_scan", "ios": "https://dc.lft.to/lastmile_qr_scan"}, "fusion_lon": 0.0}, {"lat": 38.917051, "is_disabled": 0, "type": "electric_scooter", "lon": -77.032356, "bike_id": "5ec5b07a2b1496c0f37cba9f232a910f", "fusion_lat": 0.0, "name": "5ec5b07a2b1496c0f37cba9f232a910f", "is_reserved": 0, "rental_uris": {"android": "https://dc.lft.to/lastmile_qr_scan", "ios": "https://dc.lft.to/lastmile_qr_scan"}, "fusion_lon": 0.0}, {"lat": 38.89867266666667, "is_disabled": 0, "type": "electric_scooter", "lon": -77.02376433333333, "bike_id": "deffd74c759323347ebc891cdf6a63aa", "fusion_lat": 0.0, "name": "deffd74c759323347ebc891cdf6a63aa", "is_reserved": 0, "rental_uris": {"android": "https://dc.lft.to/lastmile_qr_scan", "ios": "https://dc.lft.to/lastmile_qr_scan"}, "fusion_lon": 0.0}, {"lat": 38.9595745, "is_disabled": 0, "type": "electric_bike", "lon": -77.10093766666667, "bike_id": "2aeeee522e17d2629458bc3fc4d0b96f", "fusion_lat": 0.0, "name": "2aeeee522e17d2629458bc3fc4d0b96f", "is_reserved": 0, "rental_uris": {"android": "https://dc.lft.to/lastmile_qr_scan", "ios": "https://dc.lft.to/lastmile_qr_scan"}, "fusion_lon": 0.0}, {"lat": 38.915714666666666, "is_disabled": 0, "type": "electric_scooter", "lon": -77.031534, "bike_id": "738791672cc7f615831b84480c888ae5", "fusion_lat": 0.0, "name": "738791672cc7f615831b84480c888ae5", "is_reserved": 0, "rental_uris": {"android": "https://dc.lft.to/lastmile_qr_scan", "ios": "https://dc.lft.to/lastmile_qr_scan"}, "fusion_lon": 0.0}, {"lat": 38.8740505, "is_disabled": 0, "type": "electric_bike", "lon": -77.000394, "bike_id": "41e8bc7f8846bb0be6e324d65b06ddf5", "fusion_lat": 0.0, "name": "41e8bc7f8846bb0be6e324d65b06ddf5", "is_reserved": 0, "rental_uris": {"android": "https://dc.lft.to/lastmile_qr_scan", "ios": "https://dc.lft.to/lastmile_qr_scan"}, "fusion_lon": 0.0}, {"lat": 38.903677, "is_disabled": 0, "type": "electric_scooter", "lon": -77.06025433333333, "bike_id": "62d9459e24d42b3a2ae988ee19c010e7", "fusion_lat": 0.0, "name": "62d9459e24d42b3a2ae988ee19c010e7", "is_reserved": 0, "rental_uris": {"android": "https://dc.lft.to/lastmile_qr_scan", "ios": "https://dc.lft.to/lastmile_qr_scan"}, "fusion_lon": 0.0}, {"lat": 38.896879, "is_disabled": 0, "type": "electric_scooter", "lon": -76.935317, "bike_id": "95b13a22225affb11996c8076675d436", "fusion_lat": 0.0, "name": "95b13a22225affb11996c8076675d436", "is_reserved": 0, "rental_uris": {"android": "https://dc.lft.to/lastmile_qr_scan", "ios": "https://dc.lft.to/lastmile_qr_scan"}, "fusion_lon": 0.0}, {"lat": 38.91708116666667, "is_disabled": 0, "type": "electric_scooter", "lon": -77.03869816666666, "bike_id": "d1f753e0e5f9fd1c485a6d4ae5946663", "fusion_lat": 0.0, "name": "d1f753e0e5f9fd1c485a6d4ae5946663", "is_reserved": 0, "rental_uris": {"android": "https://dc.lft.to/lastmile_qr_scan", "ios": "https://dc.lft.to/lastmile_qr_scan"}, "fusion_lon": 0.0}, {"lat": 38.9185375, "is_disabled": 0, "type": "electric_scooter", "lon": -77.0459085, "bike_id": "db08c2d02f89e86f11ce7f2630d4e3ba", "fusion_lat": 0.0, "name": "db08c2d02f89e86f11ce7f2630d4e3ba", "is_reserved": 0, "rental_uris": {"android": "https://dc.lft.to/lastmile_qr_scan", "ios": "https://dc.lft.to/lastmile_qr_scan"}, "fusion_lon": 0.0}, {"lat": 38.91773166666667, "is_disabled": 0, "type": "electric_scooter", "lon": -77.02311433333334, "bike_id": "6f5f5cffd8110392c97d5344cd525219", "fusion_lat": 0.0, "name": "6f5f5cffd8110392c97d5344cd525219", "is_reserved": 0, "rental_uris": {"android": "https://dc.lft.to/lastmile_qr_scan", "ios": "https://dc.lft.to/lastmile_qr_scan"}, "fusion_lon": 0.0}, {"lat": 38.91326466666666, "is_disabled": 0, "type": "electric_scooter", "lon": -77.03263933333334, "bike_id": "268fb464c55387ceb64494e911281c2c", "fusion_lat": 0.0, "name": "268fb464c55387ceb64494e911281c2c", "is_reserved": 0, "rental_uris": {"android": "https://dc.lft.to/lastmile_qr_scan", "ios": "https://dc.lft.to/lastmile_qr_scan"}, "fusion_lon": 0.0}, {"lat": 38.884365333333335, "is_disabled": 0, "type": "electric_scooter", "lon": -77.030394, "bike_id": "33741eec4625bc81b9456869ec6adc43", "fusion_lat": 0.0, "name": "33741eec4625bc81b9456869ec6adc43", "is_reserved": 0, "rental_uris": {"android": "https://dc.lft.to/lastmile_qr_scan", "ios": "https://dc.lft.to/lastmile_qr_scan"}, "fusion_lon": 0.0}, {"lat": 38.917057666666665, "is_disabled": 0, "type": "electric_scooter", "lon": -77.02487283333333, "bike_id": "41c7013e263eb98bafa7521ff5d1c3b0", "fusion_lat": 0.0, "name": "41c7013e263eb98bafa7521ff5d1c3b0", "is_reserved": 0, "rental_uris": {"android": "https://dc.lft.to/lastmile_qr_scan", "ios": "https://dc.lft.to/lastmile_qr_scan"}, "fusion_lon": 0.0}, {"lat": 38.9206775, "is_disabled": 0, "type": "electric_scooter", "lon": -77.04336666666667, "bike_id": "f7a42860f77caba82ebaf5c07e453a41", "fusion_lat": 0.0, "name": "f7a42860f77caba82ebaf5c07e453a41", "is_reserved": 0, "rental_uris": {"android": "https://dc.lft.to/lastmile_qr_scan", "ios": "https://dc.lft.to/lastmile_qr_scan"}, "fusion_lon": 0.0}, {"lat": 38.9615595, "is_disabled": 0, "type": "electric_scooter", "lon": -77.02778883333333, "bike_id": "037054ba87c4d19175f59ec52259056a", "fusion_lat": 0.0, "name": "037054ba87c4d19175f59ec52259056a", "is_reserved": 0, "rental_uris": {"android": "https://dc.lft.to/lastmile_qr_scan", "ios": "https://dc.lft.to/lastmile_qr_scan"}, "fusion_lon": 0.0}, {"lat": 38.91118733333333, "is_disabled": 0, "type": "electric_scooter", "lon": -77.04459633333333, "bike_id": "7574de91a51c97ecc7025684f1bfebac", "fusion_lat": 0.0, "name": "7574de91a51c97ecc7025684f1bfebac", "is_reserved": 0, "rental_uris": {"android": "https://dc.lft.to/lastmile_qr_scan", "ios": "https://dc.lft.to/lastmile_qr_scan"}, "fusion_lon": 0.0}, {"lat": 38.86442516666666, "is_disabled": 0, "type": "electric_scooter", "lon": -77.01336966666666, "bike_id": "09508d5b2eb069259fe275f273cbdf7e", "fusion_lat": 0.0, "name": "09508d5b2eb069259fe275f273cbdf7e", "is_reserved": 0, "rental_uris": {"android": "https://dc.lft.to/lastmile_qr_scan", "ios": "https://dc.lft.to/lastmile_qr_scan"}, "fusion_lon": 0.0}, {"lat": 38.933507666666664, "is_disabled": 0, "type": "electric_scooter", "lon": -77.05701633333334, "bike_id": "a8bb8ddbb59ad1009686ec732711c0af", "fusion_lat": 0.0, "name": "a8bb8ddbb59ad1009686ec732711c0af", "is_reserved": 0, "rental_uris": {"android": "https://dc.lft.to/lastmile_qr_scan", "ios": "https://dc.lft.to/lastmile_qr_scan"}, "fusion_lon": 0.0}, {"lat": 38.906088, "is_disabled": 0, "type": "electric_scooter", "lon": -77.063014, "bike_id": "d258d9d6959038bb29466fe1d084800c", "fusion_lat": 0.0, "name": "d258d9d6959038bb29466fe1d084800c", "is_reserved": 0, "rental_uris": {"android": "https://dc.lft.to/lastmile_qr_scan", "ios": "https://dc.lft.to/lastmile_qr_scan"}, "fusion_lon": 0.0}, {"lat": 38.836762666666665, "is_disabled": 0, "type": "electric_scooter", "lon": -77.0057175, "bike_id": "95b4a4ca3f26ffbdbea843ae0f4d0502", "fusion_lat": 0.0, "name": "95b4a4ca3f26ffbdbea843ae0f4d0502", "is_reserved": 0, "rental_uris": {"android": "https://dc.lft.to/lastmile_qr_scan", "ios": "https://dc.lft.to/lastmile_qr_scan"}, "fusion_lon": 0.0}, {"lat": 38.9192305, "is_disabled": 0, "type": "electric_scooter", "lon": -77.01345283333333, "bike_id": "14904fd30c9588f53e85abe40e07936e", "fusion_lat": 0.0, "name": "14904fd30c9588f53e85abe40e07936e", "is_reserved": 0, "rental_uris": {"android": "https://dc.lft.to/lastmile_qr_scan", "ios": "https://dc.lft.to/lastmile_qr_scan"}, "fusion_lon": 0.0}, {"lat": 38.9349575, "is_disabled": 0, "type": "electric_scooter", "lon": -77.05805, "bike_id": "f1810fb47566987c6f2dc54d297c2cda", "fusion_lat": 0.0, "name": "f1810fb47566987c6f2dc54d297c2cda", "is_reserved": 0, "rental_uris": {"android": "https://dc.lft.to/lastmile_qr_scan", "ios": "https://dc.lft.to/lastmile_qr_scan"}, "fusion_lon": 0.0}, {"lat": 38.930425, "is_disabled": 0, "type": "electric_scooter", "lon": -77.036331, "bike_id": "20156ac04f8e1c7d4c0cd705e55d6712", "fusion_lat": 0.0, "name": "20156ac04f8e1c7d4c0cd705e55d6712", "is_reserved": 0, "rental_uris": {"android": "https://dc.lft.to/lastmile_qr_scan", "ios": "https://dc.lft.to/lastmile_qr_scan"}, "fusion_lon": 0.0}, {"lat": 38.870117666666665, "is_disabled": 0, "type": "electric_bike", "lon": -76.96022933333333, "bike_id": "c1730dad4601957f87680466756d57bb", "fusion_lat": 0.0, "name": "c1730dad4601957f87680466756d57bb", "is_reserved": 0, "rental_uris": {"android": "https://dc.lft.to/lastmile_qr_scan", "ios": "https://dc.lft.to/lastmile_qr_scan"}, "fusion_lon": 0.0}, {"lat": 38.90861833333334, "is_disabled": 0, "type": "electric_scooter", "lon": -77.04591316666667, "bike_id": "b46e139c214e5e372c18424d7772133c", "fusion_lat": 0.0, "name": "b46e139c214e5e372c18424d7772133c", "is_reserved": 0, "rental_uris": {"android": "https://dc.lft.to/lastmile_qr_scan", "ios": "https://dc.lft.to/lastmile_qr_scan"}, "fusion_lon": 0.0}, {"lat": 38.91887466666667, "is_disabled": 0, "type": "electric_scooter", "lon": -77.04126583333333, "bike_id": "53e6ef8a6035b6aa4eb349cd14fc805a", "fusion_lat": 0.0, "name": "53e6ef8a6035b6aa4eb349cd14fc805a", "is_reserved": 0, "rental_uris": {"android": "https://dc.lft.to/lastmile_qr_scan", "ios": "https://dc.lft.to/lastmile_qr_scan"}, "fusion_lon": 0.0}, {"lat": 38.89971383333334, "is_disabled": 0, "type": "electric_scooter", "lon": -76.98543183333334, "bike_id": "93ea050af6100e044f8878143087c686", "fusion_lat": 0.0, "name": "93ea050af6100e044f8878143087c686", "is_reserved": 0, "rental_uris": {"android": "https://dc.lft.to/lastmile_qr_scan", "ios": "https://dc.lft.to/lastmile_qr_scan"}, "fusion_lon": 0.0}, {"lat": 38.907422333333336, "is_disabled": 0, "type": "electric_scooter", "lon": -77.04142566666667, "bike_id": "15f94cd0d3efa8a3d5cbd32eb10c9219", "fusion_lat": 0.0, "name": "15f94cd0d3efa8a3d5cbd32eb10c9219", "is_reserved": 0, "rental_uris": {"android": "https://dc.lft.to/lastmile_qr_scan", "ios": "https://dc.lft.to/lastmile_qr_scan"}, "fusion_lon": 0.0}, {"lat": 38.899445, "is_disabled": 0, "type": "electric_scooter", "lon": -77.02398516666666, "bike_id": "6a82a53c1882e01dc2333a5fbd5dd1dc", "fusion_lat": 0.0, "name": "6a82a53c1882e01dc2333a5fbd5dd1dc", "is_reserved": 0, "rental_uris": {"android": "https://dc.lft.to/lastmile_qr_scan", "ios": "https://dc.lft.to/lastmile_qr_scan"}, "fusion_lon": 0.0}, {"lat": 38.87068133333333, "is_disabled": 0, "type": "electric_scooter", "lon": -77.00840833333334, "bike_id": "fcec92defc4e0f366bb6286832da8c78", "fusion_lat": 0.0, "name": "fcec92defc4e0f366bb6286832da8c78", "is_reserved": 0, "rental_uris": {"android": "https://dc.lft.to/lastmile_qr_scan", "ios": "https://dc.lft.to/lastmile_qr_scan"}, "fusion_lon": 0.0}, {"lat": 38.91733816666667, "is_disabled": 0, "type": "electric_scooter", "lon": -77.03660066666667, "bike_id": "5ded51223e8a075743098e6d90b10cc9", "fusion_lat": 0.0, "name": "5ded51223e8a075743098e6d90b10cc9", "is_reserved": 0, "rental_uris": {"android": "https://dc.lft.to/lastmile_qr_scan", "ios": "https://dc.lft.to/lastmile_qr_scan"}, "fusion_lon": 0.0}, {"lat": 38.911225333333334, "is_disabled": 0, "type": "electric_scooter", "lon": -77.02197366666667, "bike_id": "7c5e5a06393e561b1d642e0cb783db93", "fusion_lat": 0.0, "name": "7c5e5a06393e561b1d642e0cb783db93", "is_reserved": 0, "rental_uris": {"android": "https://dc.lft.to/lastmile_qr_scan", "ios": "https://dc.lft.to/lastmile_qr_scan"}, "fusion_lon": 0.0}, {"lat": 38.91974333333334, "is_disabled": 0, "type": "electric_scooter", "lon": -77.02380766666667, "bike_id": "cb997c3e3c37ec9306125a25dfc11f95", "fusion_lat": 0.0, "name": "cb997c3e3c37ec9306125a25dfc11f95", "is_reserved": 0, "rental_uris": {"android": "https://dc.lft.to/lastmile_qr_scan", "ios": "https://dc.lft.to/lastmile_qr_scan"}, "fusion_lon": 0.0}, {"lat": 38.88455733333333, "is_disabled": 0, "type": "electric_scooter", "lon": -77.01758433333333, "bike_id": "1ba8da9c7e0525aa8516553874563ea1", "fusion_lat": 0.0, "name": "1ba8da9c7e0525aa8516553874563ea1", "is_reserved": 0, "rental_uris": {"android": "https://dc.lft.to/lastmile_qr_scan", "ios": "https://dc.lft.to/lastmile_qr_scan"}, "fusion_lon": 0.0}, {"lat": 38.917799333333335, "is_disabled": 0, "type": "electric_scooter", "lon": -77.022633, "bike_id": "f5a9f5ff67200795e747932339ac64e2", "fusion_lat": 0.0, "name": "f5a9f5ff67200795e747932339ac64e2", "is_reserved": 0, "rental_uris": {"android": "https://dc.lft.to/lastmile_qr_scan", "ios": "https://dc.lft.to/lastmile_qr_scan"}, "fusion_lon": 0.0}, {"lat": 38.95884866666667, "is_disabled": 0, "type": "electric_bike", "lon": -76.9248825, "bike_id": "5920d4776fe265df566c0ed23874bdc4", "fusion_lat": 0.0, "name": "5920d4776fe265df566c0ed23874bdc4", "is_reserved": 0, "rental_uris": {"android": "https://dc.lft.to/lastmile_qr_scan", "ios": "https://dc.lft.to/lastmile_qr_scan"}, "fusion_lon": 0.0}, {"lat": 38.92631333333333, "is_disabled": 0, "type": "electric_scooter", "lon": -77.03791116666666, "bike_id": "9b414ca86f7b4be6533add190113f45a", "fusion_lat": 0.0, "name": "9b414ca86f7b4be6533add190113f45a", "is_reserved": 0, "rental_uris": {"android": "https://dc.lft.to/lastmile_qr_scan", "ios": "https://dc.lft.to/lastmile_qr_scan"}, "fusion_lon": 0.0}, {"lat": 38.90559583333334, "is_disabled": 0, "type": "electric_scooter", "lon": -77.00422683333333, "bike_id": "f4251d69a9e87af3d165e7a796a791cf", "fusion_lat": 0.0, "name": "f4251d69a9e87af3d165e7a796a791cf", "is_reserved": 0, "rental_uris": {"android": "https://dc.lft.to/lastmile_qr_scan", "ios": "https://dc.lft.to/lastmile_qr_scan"}, "fusion_lon": 0.0}, {"lat": 38.90614333333333, "is_disabled": 0, "type": "electric_scooter", "lon": -77.06282683333333, "bike_id": "6fcb4d32227dfa201058234ae64da51f", "fusion_lat": 0.0, "name": "6fcb4d32227dfa201058234ae64da51f", "is_reserved": 0, "rental_uris": {"android": "https://dc.lft.to/lastmile_qr_scan", "ios": "https://dc.lft.to/lastmile_qr_scan"}, "fusion_lon": 0.0}, {"lat": 38.9882425, "is_disabled": 0, "type": "electric_bike", "lon": -76.996471, "bike_id": "dc932241f1ca6ab5fd1568ceebddea56", "fusion_lat": 0.0, "name": "dc932241f1ca6ab5fd1568ceebddea56", "is_reserved": 0, "rental_uris": {"android": "https://dc.lft.to/lastmile_qr_scan", "ios": "https://dc.lft.to/lastmile_qr_scan"}, "fusion_lon": 0.0}, {"lat": 38.91687233333333, "is_disabled": 0, "type": "electric_scooter", "lon": -77.00199933333333, "bike_id": "e8ef234fa75d5ab6ebb08eb8aac1bb28", "fusion_lat": 0.0, "name": "e8ef234fa75d5ab6ebb08eb8aac1bb28", "is_reserved": 0, "rental_uris": {"android": "https://dc.lft.to/lastmile_qr_scan", "ios": "https://dc.lft.to/lastmile_qr_scan"}, "fusion_lon": 0.0}, {"lat": 38.924864, "is_disabled": 0, "type": "electric_scooter", "lon": -77.03071533333333, "bike_id": "abd662f291de2ea09d8d604cb62d8614", "fusion_lat": 0.0, "name": "abd662f291de2ea09d8d604cb62d8614", "is_reserved": 0, "rental_uris": {"android": "https://dc.lft.to/lastmile_qr_scan", "ios": "https://dc.lft.to/lastmile_qr_scan"}, "fusion_lon": 0.0}, {"lat": 38.917610833333335, "is_disabled": 0, "type": "electric_scooter", "lon": -76.97630466666666, "bike_id": "f23638852bd91d77bad2af2b66a12507", "fusion_lat": 0.0, "name": "f23638852bd91d77bad2af2b66a12507", "is_reserved": 0, "rental_uris": {"android": "https://dc.lft.to/lastmile_qr_scan", "ios": "https://dc.lft.to/lastmile_qr_scan"}, "fusion_lon": 0.0}, {"lat": 38.92565233333333, "is_disabled": 0, "type": "electric_scooter", "lon": -77.0378865, "bike_id": "62f41e04e95ae63944c886a7307cef3d", "fusion_lat": 0.0, "name": "62f41e04e95ae63944c886a7307cef3d", "is_reserved": 0, "rental_uris": {"android": "https://dc.lft.to/lastmile_qr_scan", "ios": "https://dc.lft.to/lastmile_qr_scan"}, "fusion_lon": 0.0}, {"lat": 38.8836395, "is_disabled": 0, "type": "electric_scooter", "lon": -76.94154166666667, "bike_id": "37753ad22bf977a8b3dfa572db47626d", "fusion_lat": 0.0, "name": "37753ad22bf977a8b3dfa572db47626d", "is_reserved": 0, "rental_uris": {"android": "https://dc.lft.to/lastmile_qr_scan", "ios": "https://dc.lft.to/lastmile_qr_scan"}, "fusion_lon": 0.0}, {"lat": 38.902551833333334, "is_disabled": 0, "type": "electric_scooter", "lon": -77.03478883333334, "bike_id": "090ad8f69b3902a3cf92fa3df1d2128f", "fusion_lat": 0.0, "name": "090ad8f69b3902a3cf92fa3df1d2128f", "is_reserved": 0, "rental_uris": {"android": "https://dc.lft.to/lastmile_qr_scan", "ios": "https://dc.lft.to/lastmile_qr_scan"}, "fusion_lon": 0.0}, {"lat": 38.94125533333333, "is_disabled": 0, "type": "electric_scooter", "lon": -77.00070233333334, "bike_id": "821432509705236cc71f62e4075866fd", "fusion_lat": 0.0, "name": "821432509705236cc71f62e4075866fd", "is_reserved": 0, "rental_uris": {"android": "https://dc.lft.to/lastmile_qr_scan", "ios": "https://dc.lft.to/lastmile_qr_scan"}, "fusion_lon": 0.0}, {"lat": 38.918646333333335, "is_disabled": 0, "type": "electric_scooter", "lon": -77.040304, "bike_id": "9dfc11bb5cc37dad52ae2b38405a9115", "fusion_lat": 0.0, "name": "9dfc11bb5cc37dad52ae2b38405a9115", "is_reserved": 0, "rental_uris": {"android": "https://dc.lft.to/lastmile_qr_scan", "ios": "https://dc.lft.to/lastmile_qr_scan"}, "fusion_lon": 0.0}, {"lat": 38.90387116666667, "is_disabled": 0, "type": "electric_scooter", "lon": -77.0282335, "bike_id": "10259bd696d82428e197ce1c810666f3", "fusion_lat": 0.0, "name": "10259bd696d82428e197ce1c810666f3", "is_reserved": 0, "rental_uris": {"android": "https://dc.lft.to/lastmile_qr_scan", "ios": "https://dc.lft.to/lastmile_qr_scan"}, "fusion_lon": 0.0}, {"lat": 38.9308555, "is_disabled": 0, "type": "electric_scooter", "lon": -77.02794933333334, "bike_id": "5fccc900b3878b565aa1b438e75f83c0", "fusion_lat": 0.0, "name": "5fccc900b3878b565aa1b438e75f83c0", "is_reserved": 0, "rental_uris": {"android": "https://dc.lft.to/lastmile_qr_scan", "ios": "https://dc.lft.to/lastmile_qr_scan"}, "fusion_lon": 0.0}, {"lat": 38.89600933333333, "is_disabled": 0, "type": "electric_scooter", "lon": -77.01334483333333, "bike_id": "53af710263c3acacbb596e0e59dd03c3", "fusion_lat": 0.0, "name": "53af710263c3acacbb596e0e59dd03c3", "is_reserved": 0, "rental_uris": {"android": "https://dc.lft.to/lastmile_qr_scan", "ios": "https://dc.lft.to/lastmile_qr_scan"}, "fusion_lon": 0.0}, {"lat": 38.93112416666666, "is_disabled": 0, "type": "electric_scooter", "lon": -77.03812166666667, "bike_id": "a421bdc70a642d8f9c7d228e1f1552ce", "fusion_lat": 0.0, "name": "a421bdc70a642d8f9c7d228e1f1552ce", "is_reserved": 0, "rental_uris": {"android": "https://dc.lft.to/lastmile_qr_scan", "ios": "https://dc.lft.to/lastmile_qr_scan"}, "fusion_lon": 0.0}, {"lat": 38.924263833333335, "is_disabled": 0, "type": "electric_scooter", "lon": -77.05178916666667, "bike_id": "6716ab545b6d8b75fd0a764ca0b94e1e", "fusion_lat": 0.0, "name": "6716ab545b6d8b75fd0a764ca0b94e1e", "is_reserved": 0, "rental_uris": {"android": "https://dc.lft.to/lastmile_qr_scan", "ios": "https://dc.lft.to/lastmile_qr_scan"}, "fusion_lon": 0.0}, {"lat": 38.901073833333335, "is_disabled": 0, "type": "electric_scooter", "lon": -77.059015, "bike_id": "4093948e25d5f6ca4be5c6a2b5769a95", "fusion_lat": 0.0, "name": "4093948e25d5f6ca4be5c6a2b5769a95", "is_reserved": 0, "rental_uris": {"android": "https://dc.lft.to/lastmile_qr_scan", "ios": "https://dc.lft.to/lastmile_qr_scan"}, "fusion_lon": 0.0}, {"lat": 38.905662, "is_disabled": 0, "type": "electric_scooter", "lon": -77.03414383333333, "bike_id": "f9eaf0089cb8ca0c6ed8a82beb2d9626", "fusion_lat": 0.0, "name": "f9eaf0089cb8ca0c6ed8a82beb2d9626", "is_reserved": 0, "rental_uris": {"android": "https://dc.lft.to/lastmile_qr_scan", "ios": "https://dc.lft.to/lastmile_qr_scan"}, "fusion_lon": 0.0}, {"lat": 38.90976833333333, "is_disabled": 0, "type": "electric_bike", "lon": -76.98518383333334, "bike_id": "bd13358c4867d045e468ee96a37e7a7f", "fusion_lat": 0.0, "name": "bd13358c4867d045e468ee96a37e7a7f", "is_reserved": 0, "rental_uris": {"android": "https://dc.lft.to/lastmile_qr_scan", "ios": "https://dc.lft.to/lastmile_qr_scan"}, "fusion_lon": 0.0}, {"lat": 38.97195816666667, "is_disabled": 0, "type": "electric_bike", "lon": -77.02719933333333, "bike_id": "96ce620b5788bbd84b1795cbf4f12e95", "fusion_lat": 0.0, "name": "96ce620b5788bbd84b1795cbf4f12e95", "is_reserved": 0, "rental_uris": {"android": "https://dc.lft.to/lastmile_qr_scan", "ios": "https://dc.lft.to/lastmile_qr_scan"}, "fusion_lon": 0.0}, {"lat": 38.8935115, "is_disabled": 0, "type": "electric_scooter", "lon": -76.94936916666667, "bike_id": "f17ecab6dcb1874468a9cb0d70efd1c2", "fusion_lat": 0.0, "name": "f17ecab6dcb1874468a9cb0d70efd1c2", "is_reserved": 0, "rental_uris": {"android": "https://dc.lft.to/lastmile_qr_scan", "ios": "https://dc.lft.to/lastmile_qr_scan"}, "fusion_lon": 0.0}, {"lat": 38.886138833333334, "is_disabled": 0, "type": "electric_scooter", "lon": -77.02170683333334, "bike_id": "7ada203655146a0427e2fd0df39a5bac", "fusion_lat": 0.0, "name": "7ada203655146a0427e2fd0df39a5bac", "is_reserved": 0, "rental_uris": {"android": "https://dc.lft.to/lastmile_qr_scan", "ios": "https://dc.lft.to/lastmile_qr_scan"}, "fusion_lon": 0.0}, {"lat": 38.9233595, "is_disabled": 0, "type": "electric_scooter", "lon": -77.04348133333333, "bike_id": "939568c377851739fb3b9b787f799155", "fusion_lat": 0.0, "name": "939568c377851739fb3b9b787f799155", "is_reserved": 0, "rental_uris": {"android": "https://dc.lft.to/lastmile_qr_scan", "ios": "https://dc.lft.to/lastmile_qr_scan"}, "fusion_lon": 0.0}, {"lat": 38.909676833333336, "is_disabled": 0, "type": "electric_scooter", "lon": -77.00922866666667, "bike_id": "4799e4b2082322197cdbeaf262b44cdc", "fusion_lat": 0.0, "name": "4799e4b2082322197cdbeaf262b44cdc", "is_reserved": 0, "rental_uris": {"android": "https://dc.lft.to/lastmile_qr_scan", "ios": "https://dc.lft.to/lastmile_qr_scan"}, "fusion_lon": 0.0}, {"lat": 38.902323, "is_disabled": 0, "type": "electric_scooter", "lon": -77.020721, "bike_id": "bb465909d1556714342ab3d5ed466acf", "fusion_lat": 0.0, "name": "bb465909d1556714342ab3d5ed466acf", "is_reserved": 0, "rental_uris": {"android": "https://dc.lft.to/lastmile_qr_scan", "ios": "https://dc.lft.to/lastmile_qr_scan"}, "fusion_lon": 0.0}, {"lat": 38.886934833333335, "is_disabled": 0, "type": "electric_scooter", "lon": -76.993856, "bike_id": "880e99b9fb3c53a1c9932b7b4f322aba", "fusion_lat": 0.0, "name": "880e99b9fb3c53a1c9932b7b4f322aba", "is_reserved": 0, "rental_uris": {"android": "https://dc.lft.to/lastmile_qr_scan", "ios": "https://dc.lft.to/lastmile_qr_scan"}, "fusion_lon": 0.0}, {"lat": 38.9358385, "is_disabled": 0, "type": "electric_bike", "lon": -77.1068575, "bike_id": "f6a2f53b5543f6e18c418d5dc5b8e19c", "fusion_lat": 0.0, "name": "f6a2f53b5543f6e18c418d5dc5b8e19c", "is_reserved": 0, "rental_uris": {"android": "https://dc.lft.to/lastmile_qr_scan", "ios": "https://dc.lft.to/lastmile_qr_scan"}, "fusion_lon": 0.0}, {"lat": 38.90023816666667, "is_disabled": 0, "type": "electric_scooter", "lon": -77.03316916666667, "bike_id": "86a88ca391b04b7fa05c05bc8a97ae9f", "fusion_lat": 0.0, "name": "86a88ca391b04b7fa05c05bc8a97ae9f", "is_reserved": 0, "rental_uris": {"android": "https://dc.lft.to/lastmile_qr_scan", "ios": "https://dc.lft.to/lastmile_qr_scan"}, "fusion_lon": 0.0}, {"lat": 38.91985433333333, "is_disabled": 0, "type": "electric_scooter", "lon": -77.04159183333333, "bike_id": "d5b885365bb27e18f99edb9e06f8cb2b", "fusion_lat": 0.0, "name": "d5b885365bb27e18f99edb9e06f8cb2b", "is_reserved": 0, "rental_uris": {"android": "https://dc.lft.to/lastmile_qr_scan", "ios": "https://dc.lft.to/lastmile_qr_scan"}, "fusion_lon": 0.0}, {"lat": 38.9299285, "is_disabled": 0, "type": "electric_scooter", "lon": -77.03234166666667, "bike_id": "f0610692278165acca4fe96d14c4d6fd", "fusion_lat": 0.0, "name": "f0610692278165acca4fe96d14c4d6fd", "is_reserved": 0, "rental_uris": {"android": "https://dc.lft.to/lastmile_qr_scan", "ios": "https://dc.lft.to/lastmile_qr_scan"}, "fusion_lon": 0.0}, {"lat": 38.9261295, "is_disabled": 0, "type": "electric_scooter", "lon": -77.00069183333333, "bike_id": "897685bb431d9a944c7c579a9ea1845c", "fusion_lat": 0.0, "name": "897685bb431d9a944c7c579a9ea1845c", "is_reserved": 0, "rental_uris": {"android": "https://dc.lft.to/lastmile_qr_scan", "ios": "https://dc.lft.to/lastmile_qr_scan"}, "fusion_lon": 0.0}, {"lat": 38.934101, "is_disabled": 0, "type": "electric_scooter", "lon": -77.020408, "bike_id": "15c23bb9b50c1e1ab3da159dd95df84f", "fusion_lat": 0.0, "name": "15c23bb9b50c1e1ab3da159dd95df84f", "is_reserved": 0, "rental_uris": {"android": "https://dc.lft.to/lastmile_qr_scan", "ios": "https://dc.lft.to/lastmile_qr_scan"}, "fusion_lon": 0.0}, {"lat": 38.87148, "is_disabled": 0, "type": "electric_bike", "lon": -76.9366905, "bike_id": "5296ad35ed9b7d26bb3a8828f326111f", "fusion_lat": 0.0, "name": "5296ad35ed9b7d26bb3a8828f326111f", "is_reserved": 0, "rental_uris": {"android": "https://dc.lft.to/lastmile_qr_scan", "ios": "https://dc.lft.to/lastmile_qr_scan"}, "fusion_lon": 0.0}, {"lat": 38.90560983333334, "is_disabled": 0, "type": "electric_scooter", "lon": -77.043358, "bike_id": "6f8b8737116dba8e8ae7654d613316a9", "fusion_lat": 0.0, "name": "6f8b8737116dba8e8ae7654d613316a9", "is_reserved": 0, "rental_uris": {"android": "https://dc.lft.to/lastmile_qr_scan", "ios": "https://dc.lft.to/lastmile_qr_scan"}, "fusion_lon": 0.0}, {"lat": 38.944339166666666, "is_disabled": 0, "type": "electric_scooter", "lon": -77.06306233333333, "bike_id": "7d349969b1ce6bc39322ad00e18569e9", "fusion_lat": 0.0, "name": "7d349969b1ce6bc39322ad00e18569e9", "is_reserved": 0, "rental_uris": {"android": "https://dc.lft.to/lastmile_qr_scan", "ios": "https://dc.lft.to/lastmile_qr_scan"}, "fusion_lon": 0.0}, {"lat": 38.91570766666667, "is_disabled": 0, "type": "electric_scooter", "lon": -77.038413, "bike_id": "7df5f72dec80fa5ca325403082564777", "fusion_lat": 0.0, "name": "7df5f72dec80fa5ca325403082564777", "is_reserved": 0, "rental_uris": {"android": "https://dc.lft.to/lastmile_qr_scan", "ios": "https://dc.lft.to/lastmile_qr_scan"}, "fusion_lon": 0.0}, {"lat": 38.9227115, "is_disabled": 0, "type": "electric_scooter", "lon": -77.0424365, "bike_id": "0b5d567f02c17efef790a459c51108a3", "fusion_lat": 0.0, "name": "0b5d567f02c17efef790a459c51108a3", "is_reserved": 0, "rental_uris": {"android": "https://dc.lft.to/lastmile_qr_scan", "ios": "https://dc.lft.to/lastmile_qr_scan"}, "fusion_lon": 0.0}, {"lat": 38.893997166666665, "is_disabled": 0, "type": "electric_scooter", "lon": -77.0558845, "bike_id": "7023fae345de01d6b18979698d5ddd6c", "fusion_lat": 0.0, "name": "7023fae345de01d6b18979698d5ddd6c", "is_reserved": 0, "rental_uris": {"android": "https://dc.lft.to/lastmile_qr_scan", "ios": "https://dc.lft.to/lastmile_qr_scan"}, "fusion_lon": 0.0}, {"lat": 38.909423333333336, "is_disabled": 0, "type": "electric_scooter", "lon": -77.0466695, "bike_id": "12e51690ae4464f8ad7e8c389761e54c", "fusion_lat": 0.0, "name": "12e51690ae4464f8ad7e8c389761e54c", "is_reserved": 0, "rental_uris": {"android": "https://dc.lft.to/lastmile_qr_scan", "ios": "https://dc.lft.to/lastmile_qr_scan"}, "fusion_lon": 0.0}, {"lat": 38.944962, "is_disabled": 0, "type": "electric_bike", "lon": -77.0068095, "bike_id": "9d41a65e7c3c6452fbed88c5bd5b867d", "fusion_lat": 0.0, "name": "9d41a65e7c3c6452fbed88c5bd5b867d", "is_reserved": 0, "rental_uris": {"android": "https://dc.lft.to/lastmile_qr_scan", "ios": "https://dc.lft.to/lastmile_qr_scan"}, "fusion_lon": 0.0}, {"lat": 38.918585, "is_disabled": 0, "type": "electric_scooter", "lon": -77.04171333333333, "bike_id": "4c784d16cb530edb024a45f8ec2b34fe", "fusion_lat": 0.0, "name": "4c784d16cb530edb024a45f8ec2b34fe", "is_reserved": 0, "rental_uris": {"android": "https://dc.lft.to/lastmile_qr_scan", "ios": "https://dc.lft.to/lastmile_qr_scan"}, "fusion_lon": 0.0}, {"lat": 38.9662925, "is_disabled": 0, "type": "electric_scooter", "lon": -77.02002133333333, "bike_id": "ed6a586001ebb38ab9be88ccb6d82d2d", "fusion_lat": 0.0, "name": "ed6a586001ebb38ab9be88ccb6d82d2d", "is_reserved": 0, "rental_uris": {"android": "https://dc.lft.to/lastmile_qr_scan", "ios": "https://dc.lft.to/lastmile_qr_scan"}, "fusion_lon": 0.0}, {"lat": 38.941359, "is_disabled": 0, "type": "electric_scooter", "lon": -77.07617216666667, "bike_id": "ab8868619871f538c69226b089539427", "fusion_lat": 0.0, "name": "ab8868619871f538c69226b089539427", "is_reserved": 0, "rental_uris": {"android": "https://dc.lft.to/lastmile_qr_scan", "ios": "https://dc.lft.to/lastmile_qr_scan"}, "fusion_lon": 0.0}, {"lat": 38.90257033333334, "is_disabled": 0, "type": "electric_scooter", "lon": -77.03971966666667, "bike_id": "023c5ffdcefce814e92646141c0e7e5b", "fusion_lat": 0.0, "name": "023c5ffdcefce814e92646141c0e7e5b", "is_reserved": 0, "rental_uris": {"android": "https://dc.lft.to/lastmile_qr_scan", "ios": "https://dc.lft.to/lastmile_qr_scan"}, "fusion_lon": 0.0}, {"lat": 38.90590783333333, "is_disabled": 0, "type": "electric_scooter", "lon": -76.9862185, "bike_id": "3ce000c10463633acd8d973091f16556", "fusion_lat": 0.0, "name": "3ce000c10463633acd8d973091f16556", "is_reserved": 0, "rental_uris": {"android": "https://dc.lft.to/lastmile_qr_scan", "ios": "https://dc.lft.to/lastmile_qr_scan"}, "fusion_lon": 0.0}, {"lat": 38.921217166666665, "is_disabled": 0, "type": "electric_scooter", "lon": -77.04578783333334, "bike_id": "efdc62d83a5413ec44de4a9ebecf822a", "fusion_lat": 0.0, "name": "efdc62d83a5413ec44de4a9ebecf822a", "is_reserved": 0, "rental_uris": {"android": "https://dc.lft.to/lastmile_qr_scan", "ios": "https://dc.lft.to/lastmile_qr_scan"}, "fusion_lon": 0.0}, {"lat": 38.90464633333333, "is_disabled": 0, "type": "electric_scooter", "lon": -77.04193766666667, "bike_id": "5de961c846cf235247f19475530535e0", "fusion_lat": 0.0, "name": "5de961c846cf235247f19475530535e0", "is_reserved": 0, "rental_uris": {"android": "https://dc.lft.to/lastmile_qr_scan", "ios": "https://dc.lft.to/lastmile_qr_scan"}, "fusion_lon": 0.0}, {"lat": 38.93912016666667, "is_disabled": 0, "type": "electric_scooter", "lon": -77.06675983333334, "bike_id": "438caf0b244edc1ba767e906af6c455d", "fusion_lat": 0.0, "name": "438caf0b244edc1ba767e906af6c455d", "is_reserved": 0, "rental_uris": {"android": "https://dc.lft.to/lastmile_qr_scan", "ios": "https://dc.lft.to/lastmile_qr_scan"}, "fusion_lon": 0.0}, {"lat": 38.92580616666667, "is_disabled": 0, "type": "electric_scooter", "lon": -77.05281933333333, "bike_id": "b2154d79fb58886fbba0accb8b4d895f", "fusion_lat": 0.0, "name": "b2154d79fb58886fbba0accb8b4d895f", "is_reserved": 0, "rental_uris": {"android": "https://dc.lft.to/lastmile_qr_scan", "ios": "https://dc.lft.to/lastmile_qr_scan"}, "fusion_lon": 0.0}, {"lat": 38.928842833333334, "is_disabled": 0, "type": "electric_scooter", "lon": -77.0574685, "bike_id": "ed9c4bb5b2293ea8b90523c95b9e9661", "fusion_lat": 0.0, "name": "ed9c4bb5b2293ea8b90523c95b9e9661", "is_reserved": 0, "rental_uris": {"android": "https://dc.lft.to/lastmile_qr_scan", "ios": "https://dc.lft.to/lastmile_qr_scan"}, "fusion_lon": 0.0}, {"lat": 38.9086485, "is_disabled": 0, "type": "electric_bike", "lon": -76.94008383333333, "bike_id": "da4919f061d0310872847954a3c99142", "fusion_lat": 0.0, "name": "da4919f061d0310872847954a3c99142", "is_reserved": 0, "rental_uris": {"android": "https://dc.lft.to/lastmile_qr_scan", "ios": "https://dc.lft.to/lastmile_qr_scan"}, "fusion_lon": 0.0}, {"lat": 38.8671185, "is_disabled": 0, "type": "electric_scooter", "lon": -76.9872765, "bike_id": "3c2ca183946ba6c70a82cb8d30fe439b", "fusion_lat": 0.0, "name": "3c2ca183946ba6c70a82cb8d30fe439b", "is_reserved": 0, "rental_uris": {"android": "https://dc.lft.to/lastmile_qr_scan", "ios": "https://dc.lft.to/lastmile_qr_scan"}, "fusion_lon": 0.0}, {"lat": 38.917368833333335, "is_disabled": 0, "type": "electric_scooter", "lon": -77.03195183333334, "bike_id": "1c97c9e329d13944f28c0738efcc1ff0", "fusion_lat": 0.0, "name": "1c97c9e329d13944f28c0738efcc1ff0", "is_reserved": 0, "rental_uris": {"android": "https://dc.lft.to/lastmile_qr_scan", "ios": "https://dc.lft.to/lastmile_qr_scan"}, "fusion_lon": 0.0}, {"lat": 38.90668816666667, "is_disabled": 0, "type": "electric_scooter", "lon": -77.04193066666667, "bike_id": "084d3872d3520a1763b377dd591d68d7", "fusion_lat": 0.0, "name": "084d3872d3520a1763b377dd591d68d7", "is_reserved": 0, "rental_uris": {"android": "https://dc.lft.to/lastmile_qr_scan", "ios": "https://dc.lft.to/lastmile_qr_scan"}, "fusion_lon": 0.0}, {"lat": 38.95887066666667, "is_disabled": 0, "type": "electric_bike", "lon": -76.925006, "bike_id": "281c937914449fb429a40b6b37d2e25f", "fusion_lat": 0.0, "name": "281c937914449fb429a40b6b37d2e25f", "is_reserved": 0, "rental_uris": {"android": "https://dc.lft.to/lastmile_qr_scan", "ios": "https://dc.lft.to/lastmile_qr_scan"}, "fusion_lon": 0.0}, {"lat": 38.908408666666666, "is_disabled": 0, "type": "electric_scooter", "lon": -77.06351216666667, "bike_id": "709304a15149912311c29b73e3967a87", "fusion_lat": 0.0, "name": "709304a15149912311c29b73e3967a87", "is_reserved": 0, "rental_uris": {"android": "https://dc.lft.to/lastmile_qr_scan", "ios": "https://dc.lft.to/lastmile_qr_scan"}, "fusion_lon": 0.0}, {"lat": 38.940401, "is_disabled": 0, "type": "electric_bike", "lon": -77.0516165, "bike_id": "7caf6a5297d812d7439ca92fbdced680", "fusion_lat": 0.0, "name": "7caf6a5297d812d7439ca92fbdced680", "is_reserved": 0, "rental_uris": {"android": "https://dc.lft.to/lastmile_qr_scan", "ios": "https://dc.lft.to/lastmile_qr_scan"}, "fusion_lon": 0.0}, {"lat": 38.920663166666664, "is_disabled": 0, "type": "electric_scooter", "lon": -77.02501416666667, "bike_id": "0c13bc81d3aca7265f2a577354b5abbf", "fusion_lat": 0.0, "name": "0c13bc81d3aca7265f2a577354b5abbf", "is_reserved": 0, "rental_uris": {"android": "https://dc.lft.to/lastmile_qr_scan", "ios": "https://dc.lft.to/lastmile_qr_scan"}, "fusion_lon": 0.0}, {"lat": 38.890427, "is_disabled": 0, "type": "electric_scooter", "lon": -76.94082266666666, "bike_id": "1dcb51945a394b8a31c3870b94f9d64e", "fusion_lat": 0.0, "name": "1dcb51945a394b8a31c3870b94f9d64e", "is_reserved": 0, "rental_uris": {"android": "https://dc.lft.to/lastmile_qr_scan", "ios": "https://dc.lft.to/lastmile_qr_scan"}, "fusion_lon": 0.0}, {"lat": 38.929205333333336, "is_disabled": 0, "type": "electric_scooter", "lon": -77.03180766666667, "bike_id": "2a39682f0eadc29a20c470d4b8bcff16", "fusion_lat": 0.0, "name": "2a39682f0eadc29a20c470d4b8bcff16", "is_reserved": 0, "rental_uris": {"android": "https://dc.lft.to/lastmile_qr_scan", "ios": "https://dc.lft.to/lastmile_qr_scan"}, "fusion_lon": 0.0}, {"lat": 38.91792516666667, "is_disabled": 0, "type": "electric_scooter", "lon": -77.03204166666667, "bike_id": "091a5ad0248f5abcfbe181c349aa621c", "fusion_lat": 0.0, "name": "091a5ad0248f5abcfbe181c349aa621c", "is_reserved": 0, "rental_uris": {"android": "https://dc.lft.to/lastmile_qr_scan", "ios": "https://dc.lft.to/lastmile_qr_scan"}, "fusion_lon": 0.0}, {"lat": 38.921121666666664, "is_disabled": 0, "type": "electric_bike", "lon": -76.98578433333333, "bike_id": "ed9b4cb22a601dcee724f5d389465953", "fusion_lat": 0.0, "name": "ed9b4cb22a601dcee724f5d389465953", "is_reserved": 0, "rental_uris": {"android": "https://dc.lft.to/lastmile_qr_scan", "ios": "https://dc.lft.to/lastmile_qr_scan"}, "fusion_lon": 0.0}, {"lat": 38.8900355, "is_disabled": 0, "type": "electric_scooter", "lon": -77.04894516666667, "bike_id": "c3fd30b4946e7bed655988bc361f2735", "fusion_lat": 0.0, "name": "c3fd30b4946e7bed655988bc361f2735", "is_reserved": 0, "rental_uris": {"android": "https://dc.lft.to/lastmile_qr_scan", "ios": "https://dc.lft.to/lastmile_qr_scan"}, "fusion_lon": 0.0}, {"lat": 38.85854666666667, "is_disabled": 0, "type": "electric_bike", "lon": -77.09757116666667, "bike_id": "0e91eee118b417f408f06fc88fa88a9a", "fusion_lat": 0.0, "name": "0e91eee118b417f408f06fc88fa88a9a", "is_reserved": 0, "rental_uris": {"android": "https://dc.lft.to/lastmile_qr_scan", "ios": "https://dc.lft.to/lastmile_qr_scan"}, "fusion_lon": 0.0}, {"lat": 38.94420216666666, "is_disabled": 0, "type": "electric_scooter", "lon": -77.03191516666666, "bike_id": "0f15500d2a340738ef81fa64084efc6b", "fusion_lat": 0.0, "name": "0f15500d2a340738ef81fa64084efc6b", "is_reserved": 0, "rental_uris": {"android": "https://dc.lft.to/lastmile_qr_scan", "ios": "https://dc.lft.to/lastmile_qr_scan"}, "fusion_lon": 0.0}, {"lat": 38.911240166666666, "is_disabled": 0, "type": "electric_scooter", "lon": -77.03253683333334, "bike_id": "3851078cd558d8f3af2e937d57c77061", "fusion_lat": 0.0, "name": "3851078cd558d8f3af2e937d57c77061", "is_reserved": 0, "rental_uris": {"android": "https://dc.lft.to/lastmile_qr_scan", "ios": "https://dc.lft.to/lastmile_qr_scan"}, "fusion_lon": 0.0}, {"lat": 38.92481633333333, "is_disabled": 0, "type": "electric_scooter", "lon": -77.028435, "bike_id": "f7ce4ea28a3ff1fa948df3dfcafdfd17", "fusion_lat": 0.0, "name": "f7ce4ea28a3ff1fa948df3dfcafdfd17", "is_reserved": 0, "rental_uris": {"android": "https://dc.lft.to/lastmile_qr_scan", "ios": "https://dc.lft.to/lastmile_qr_scan"}, "fusion_lon": 0.0}, {"lat": 38.89819516666667, "is_disabled": 0, "type": "electric_scooter", "lon": -76.99693166666667, "bike_id": "372cf95ca6a9ddd041e416105aaf7fd1", "fusion_lat": 0.0, "name": "372cf95ca6a9ddd041e416105aaf7fd1", "is_reserved": 0, "rental_uris": {"android": "https://dc.lft.to/lastmile_qr_scan", "ios": "https://dc.lft.to/lastmile_qr_scan"}, "fusion_lon": 0.0}, {"lat": 38.922434333333335, "is_disabled": 0, "type": "electric_scooter", "lon": -77.04270083333333, "bike_id": "2314aafd2194cb0c84bdb2c810de6e9f", "fusion_lat": 0.0, "name": "2314aafd2194cb0c84bdb2c810de6e9f", "is_reserved": 0, "rental_uris": {"android": "https://dc.lft.to/lastmile_qr_scan", "ios": "https://dc.lft.to/lastmile_qr_scan"}, "fusion_lon": 0.0}, {"lat": 38.862309333333336, "is_disabled": 0, "type": "electric_scooter", "lon": -76.99549016666667, "bike_id": "c6d4d4011a35b3251857d90589ace4b3", "fusion_lat": 0.0, "name": "c6d4d4011a35b3251857d90589ace4b3", "is_reserved": 0, "rental_uris": {"android": "https://dc.lft.to/lastmile_qr_scan", "ios": "https://dc.lft.to/lastmile_qr_scan"}, "fusion_lon": 0.0}, {"lat": 38.91372616666666, "is_disabled": 0, "type": "electric_scooter", "lon": -77.026911, "bike_id": "1dec1a56759464520c3d16c142207457", "fusion_lat": 0.0, "name": "1dec1a56759464520c3d16c142207457", "is_reserved": 0, "rental_uris": {"android": "https://dc.lft.to/lastmile_qr_scan", "ios": "https://dc.lft.to/lastmile_qr_scan"}, "fusion_lon": 0.0}, {"lat": 38.8889135, "is_disabled": 0, "type": "electric_scooter", "lon": -76.93152816666667, "bike_id": "74802219184bfb10c95ba410de466ea7", "fusion_lat": 0.0, "name": "74802219184bfb10c95ba410de466ea7", "is_reserved": 0, "rental_uris": {"android": "https://dc.lft.to/lastmile_qr_scan", "ios": "https://dc.lft.to/lastmile_qr_scan"}, "fusion_lon": 0.0}, {"lat": 38.92759083333333, "is_disabled": 0, "type": "electric_scooter", "lon": -77.032228, "bike_id": "78245c477be32f02580eb16753227078", "fusion_lat": 0.0, "name": "78245c477be32f02580eb16753227078", "is_reserved": 0, "rental_uris": {"android": "https://dc.lft.to/lastmile_qr_scan", "ios": "https://dc.lft.to/lastmile_qr_scan"}, "fusion_lon": 0.0}, {"lat": 38.96148983333333, "is_disabled": 0, "type": "electric_scooter", "lon": -77.02787033333334, "bike_id": "9aaf91e3f073f52a8c074708588b1338", "fusion_lat": 0.0, "name": "9aaf91e3f073f52a8c074708588b1338", "is_reserved": 0, "rental_uris": {"android": "https://dc.lft.to/lastmile_qr_scan", "ios": "https://dc.lft.to/lastmile_qr_scan"}, "fusion_lon": 0.0}, {"lat": 38.886335333333335, "is_disabled": 0, "type": "electric_bike", "lon": -76.95473933333334, "bike_id": "2573db6a3ba4573b49bf27871517e030", "fusion_lat": 0.0, "name": "2573db6a3ba4573b49bf27871517e030", "is_reserved": 0, "rental_uris": {"android": "https://dc.lft.to/lastmile_qr_scan", "ios": "https://dc.lft.to/lastmile_qr_scan"}, "fusion_lon": 0.0}, {"lat": 38.9171075, "is_disabled": 0, "type": "electric_scooter", "lon": -77.02709966666667, "bike_id": "9127682e63278431829315cde056ed80", "fusion_lat": 0.0, "name": "9127682e63278431829315cde056ed80", "is_reserved": 0, "rental_uris": {"android": "https://dc.lft.to/lastmile_qr_scan", "ios": "https://dc.lft.to/lastmile_qr_scan"}, "fusion_lon": 0.0}, {"lat": 39.05634583333333, "is_disabled": 0, "type": "electric_bike", "lon": -77.12528083333333, "bike_id": "9933b88174d6f33389d6d08a4a68874d", "fusion_lat": 0.0, "name": "9933b88174d6f33389d6d08a4a68874d", "is_reserved": 0, "rental_uris": {"android": "https://dc.lft.to/lastmile_qr_scan", "ios": "https://dc.lft.to/lastmile_qr_scan"}, "fusion_lon": 0.0}, {"lat": 38.84295433333333, "is_disabled": 0, "type": "electric_scooter", "lon": -76.99947016666667, "bike_id": "b414f5ad6cad7ed063cba65ee85aa789", "fusion_lat": 0.0, "name": "b414f5ad6cad7ed063cba65ee85aa789", "is_reserved": 0, "rental_uris": {"android": "https://dc.lft.to/lastmile_qr_scan", "ios": "https://dc.lft.to/lastmile_qr_scan"}, "fusion_lon": 0.0}, {"lat": 38.90024316666667, "is_disabled": 0, "type": "electric_scooter", "lon": -77.01134633333334, "bike_id": "c306f854ebc92b52f1705934e52b947f", "fusion_lat": 0.0, "name": "c306f854ebc92b52f1705934e52b947f", "is_reserved": 0, "rental_uris": {"android": "https://dc.lft.to/lastmile_qr_scan", "ios": "https://dc.lft.to/lastmile_qr_scan"}, "fusion_lon": 0.0}, {"lat": 38.9302775, "is_disabled": 0, "type": "electric_scooter", "lon": -77.02353083333334, "bike_id": "dcbf69ea43022d616fea0273a21ba0d6", "fusion_lat": 0.0, "name": "dcbf69ea43022d616fea0273a21ba0d6", "is_reserved": 0, "rental_uris": {"android": "https://dc.lft.to/lastmile_qr_scan", "ios": "https://dc.lft.to/lastmile_qr_scan"}, "fusion_lon": 0.0}, {"lat": 38.907368, "is_disabled": 0, "type": "electric_scooter", "lon": -77.04784033333334, "bike_id": "d76205dd81e27e381169afb9f320f054", "fusion_lat": 0.0, "name": "d76205dd81e27e381169afb9f320f054", "is_reserved": 0, "rental_uris": {"android": "https://dc.lft.to/lastmile_qr_scan", "ios": "https://dc.lft.to/lastmile_qr_scan"}, "fusion_lon": 0.0}, {"lat": 38.90075433333333, "is_disabled": 0, "type": "electric_scooter", "lon": -77.04402483333334, "bike_id": "62a42f635e16cab6bd3583300bf6e4e0", "fusion_lat": 0.0, "name": "62a42f635e16cab6bd3583300bf6e4e0", "is_reserved": 0, "rental_uris": {"android": "https://dc.lft.to/lastmile_qr_scan", "ios": "https://dc.lft.to/lastmile_qr_scan"}, "fusion_lon": 0.0}, {"lat": 38.90012883333333, "is_disabled": 0, "type": "electric_scooter", "lon": -76.98810533333334, "bike_id": "c03208a7cba4f5ae3f25d5bc6ac078d6", "fusion_lat": 0.0, "name": "c03208a7cba4f5ae3f25d5bc6ac078d6", "is_reserved": 0, "rental_uris": {"android": "https://dc.lft.to/lastmile_qr_scan", "ios": "https://dc.lft.to/lastmile_qr_scan"}, "fusion_lon": 0.0}, {"lat": 38.902710666666664, "is_disabled": 0, "type": "electric_scooter", "lon": -77.034331, "bike_id": "fa1c4e8303a4bca11aa3642dc79f1b3a", "fusion_lat": 0.0, "name": "fa1c4e8303a4bca11aa3642dc79f1b3a", "is_reserved": 0, "rental_uris": {"android": "https://dc.lft.to/lastmile_qr_scan", "ios": "https://dc.lft.to/lastmile_qr_scan"}, "fusion_lon": 0.0}, {"lat": 38.941550666666664, "is_disabled": 0, "type": "electric_scooter", "lon": -77.03283866666666, "bike_id": "9afc61044c6e47190b84247c30355711", "fusion_lat": 0.0, "name": "9afc61044c6e47190b84247c30355711", "is_reserved": 0, "rental_uris": {"android": "https://dc.lft.to/lastmile_qr_scan", "ios": "https://dc.lft.to/lastmile_qr_scan"}, "fusion_lon": 0.0}, {"lat": 38.8904295, "is_disabled": 0, "type": "electric_scooter", "lon": -77.047682, "bike_id": "77f0337529b1e4998b9564f95f5988a0", "fusion_lat": 0.0, "name": "77f0337529b1e4998b9564f95f5988a0", "is_reserved": 0, "rental_uris": {"android": "https://dc.lft.to/lastmile_qr_scan", "ios": "https://dc.lft.to/lastmile_qr_scan"}, "fusion_lon": 0.0}, {"lat": 38.9027105, "is_disabled": 0, "type": "electric_scooter", "lon": -77.0469755, "bike_id": "2e73b1fa732e32cb2f3e39a01d3f77a1", "fusion_lat": 0.0, "name": "2e73b1fa732e32cb2f3e39a01d3f77a1", "is_reserved": 0, "rental_uris": {"android": "https://dc.lft.to/lastmile_qr_scan", "ios": "https://dc.lft.to/lastmile_qr_scan"}, "fusion_lon": 0.0}, {"lat": 38.94171133333333, "is_disabled": 0, "type": "electric_scooter", "lon": -77.03283016666667, "bike_id": "1ca86affe553de1add2feeb7630768c8", "fusion_lat": 0.0, "name": "1ca86affe553de1add2feeb7630768c8", "is_reserved": 0, "rental_uris": {"android": "https://dc.lft.to/lastmile_qr_scan", "ios": "https://dc.lft.to/lastmile_qr_scan"}, "fusion_lon": 0.0}, {"lat": 38.873406333333335, "is_disabled": 0, "type": "electric_scooter", "lon": -76.99166316666667, "bike_id": "e7464686a8c96bf292949bbea78f3dd2", "fusion_lat": 0.0, "name": "e7464686a8c96bf292949bbea78f3dd2", "is_reserved": 0, "rental_uris": {"android": "https://dc.lft.to/lastmile_qr_scan", "ios": "https://dc.lft.to/lastmile_qr_scan"}, "fusion_lon": 0.0}, {"lat": 38.95070166666667, "is_disabled": 0, "type": "electric_scooter", "lon": -77.06656833333334, "bike_id": "7157330a24a840a4d5b26e20a9d04cc9", "fusion_lat": 0.0, "name": "7157330a24a840a4d5b26e20a9d04cc9", "is_reserved": 0, "rental_uris": {"android": "https://dc.lft.to/lastmile_qr_scan", "ios": "https://dc.lft.to/lastmile_qr_scan"}, "fusion_lon": 0.0}, {"lat": 38.87629866666666, "is_disabled": 0, "type": "electric_scooter", "lon": -76.96526216666666, "bike_id": "e3ae716f53f74743c9b34ac4260b2f34", "fusion_lat": 0.0, "name": "e3ae716f53f74743c9b34ac4260b2f34", "is_reserved": 0, "rental_uris": {"android": "https://dc.lft.to/lastmile_qr_scan", "ios": "https://dc.lft.to/lastmile_qr_scan"}, "fusion_lon": 0.0}, {"lat": 38.90725316666666, "is_disabled": 0, "type": "electric_scooter", "lon": -77.05336766666667, "bike_id": "296d28b8c6d9787d1bb29cc13338045f", "fusion_lat": 0.0, "name": "296d28b8c6d9787d1bb29cc13338045f", "is_reserved": 0, "rental_uris": {"android": "https://dc.lft.to/lastmile_qr_scan", "ios": "https://dc.lft.to/lastmile_qr_scan"}, "fusion_lon": 0.0}, {"lat": 38.9120775, "is_disabled": 0, "type": "electric_scooter", "lon": -77.03202616666667, "bike_id": "e7e71179eaf8d2da0b000c6fce52a77e", "fusion_lat": 0.0, "name": "e7e71179eaf8d2da0b000c6fce52a77e", "is_reserved": 0, "rental_uris": {"android": "https://dc.lft.to/lastmile_qr_scan", "ios": "https://dc.lft.to/lastmile_qr_scan"}, "fusion_lon": 0.0}, {"lat": 38.850508166666664, "is_disabled": 0, "type": "electric_bike", "lon": -76.97320716666667, "bike_id": "d94a11bb5aa84f26386e9e6131cdf4f3", "fusion_lat": 0.0, "name": "d94a11bb5aa84f26386e9e6131cdf4f3", "is_reserved": 0, "rental_uris": {"android": "https://dc.lft.to/lastmile_qr_scan", "ios": "https://dc.lft.to/lastmile_qr_scan"}, "fusion_lon": 0.0}, {"lat": 38.897455666666666, "is_disabled": 0, "type": "electric_scooter", "lon": -77.0476325, "bike_id": "9febbad78a4365580a9b612bdaf54840", "fusion_lat": 0.0, "name": "9febbad78a4365580a9b612bdaf54840", "is_reserved": 0, "rental_uris": {"android": "https://dc.lft.to/lastmile_qr_scan", "ios": "https://dc.lft.to/lastmile_qr_scan"}, "fusion_lon": 0.0}, {"lat": 38.89885316666667, "is_disabled": 0, "type": "electric_scooter", "lon": -76.93176166666667, "bike_id": "ff6bd2d3200f1d9c294a52f4b103888b", "fusion_lat": 0.0, "name": "ff6bd2d3200f1d9c294a52f4b103888b", "is_reserved": 0, "rental_uris": {"android": "https://dc.lft.to/lastmile_qr_scan", "ios": "https://dc.lft.to/lastmile_qr_scan"}, "fusion_lon": 0.0}, {"lat": 38.905749, "is_disabled": 0, "type": "electric_scooter", "lon": -77.04096783333334, "bike_id": "498d87e9fdc2a374c684bbf3a6389333", "fusion_lat": 0.0, "name": "498d87e9fdc2a374c684bbf3a6389333", "is_reserved": 0, "rental_uris": {"android": "https://dc.lft.to/lastmile_qr_scan", "ios": "https://dc.lft.to/lastmile_qr_scan"}, "fusion_lon": 0.0}, {"lat": 38.90121166666667, "is_disabled": 0, "type": "electric_scooter", "lon": -77.04983666666666, "bike_id": "22a52370365d0254a27246feb03dc081", "fusion_lat": 0.0, "name": "22a52370365d0254a27246feb03dc081", "is_reserved": 0, "rental_uris": {"android": "https://dc.lft.to/lastmile_qr_scan", "ios": "https://dc.lft.to/lastmile_qr_scan"}, "fusion_lon": 0.0}, {"lat": 38.900228166666665, "is_disabled": 0, "type": "electric_scooter", "lon": -77.02613333333333, "bike_id": "6a3e722503b46d7b7866a9c5730da40e", "fusion_lat": 0.0, "name": "6a3e722503b46d7b7866a9c5730da40e", "is_reserved": 0, "rental_uris": {"android": "https://dc.lft.to/lastmile_qr_scan", "ios": "https://dc.lft.to/lastmile_qr_scan"}, "fusion_lon": 0.0}, {"lat": 38.92249666666667, "is_disabled": 0, "type": "electric_scooter", "lon": -77.04576016666667, "bike_id": "a735814a01bc804e0690b907719f6e3d", "fusion_lat": 0.0, "name": "a735814a01bc804e0690b907719f6e3d", "is_reserved": 0, "rental_uris": {"android": "https://dc.lft.to/lastmile_qr_scan", "ios": "https://dc.lft.to/lastmile_qr_scan"}, "fusion_lon": 0.0}, {"lat": 38.936047333333335, "is_disabled": 0, "type": "electric_scooter", "lon": -77.05894566666667, "bike_id": "68ed51765c53ccd3276e698af82f7c62", "fusion_lat": 0.0, "name": "68ed51765c53ccd3276e698af82f7c62", "is_reserved": 0, "rental_uris": {"android": "https://dc.lft.to/lastmile_qr_scan", "ios": "https://dc.lft.to/lastmile_qr_scan"}, "fusion_lon": 0.0}, {"lat": 38.92650233333333, "is_disabled": 0, "type": "electric_scooter", "lon": -77.040598, "bike_id": "9e4e41f24532dd808ebd8439662a3569", "fusion_lat": 0.0, "name": "9e4e41f24532dd808ebd8439662a3569", "is_reserved": 0, "rental_uris": {"android": "https://dc.lft.to/lastmile_qr_scan", "ios": "https://dc.lft.to/lastmile_qr_scan"}, "fusion_lon": 0.0}, {"lat": 38.908257166666665, "is_disabled": 0, "type": "electric_scooter", "lon": -77.06383566666666, "bike_id": "a32843454dbb491de603636389c2676c", "fusion_lat": 0.0, "name": "a32843454dbb491de603636389c2676c", "is_reserved": 0, "rental_uris": {"android": "https://dc.lft.to/lastmile_qr_scan", "ios": "https://dc.lft.to/lastmile_qr_scan"}, "fusion_lon": 0.0}, {"lat": 38.91792383333333, "is_disabled": 0, "type": "electric_scooter", "lon": -77.03204966666667, "bike_id": "132cea5ce455d8fcf1ed0d61e674f732", "fusion_lat": 0.0, "name": "132cea5ce455d8fcf1ed0d61e674f732", "is_reserved": 0, "rental_uris": {"android": "https://dc.lft.to/lastmile_qr_scan", "ios": "https://dc.lft.to/lastmile_qr_scan"}, "fusion_lon": 0.0}, {"lat": 38.86049916666666, "is_disabled": 0, "type": "electric_scooter", "lon": -77.05731783333333, "bike_id": "8b1d561979e9982aad249e9cff381e68", "fusion_lat": 0.0, "name": "8b1d561979e9982aad249e9cff381e68", "is_reserved": 0, "rental_uris": {"android": "https://dc.lft.to/lastmile_qr_scan", "ios": "https://dc.lft.to/lastmile_qr_scan"}, "fusion_lon": 0.0}, {"lat": 38.9722615, "is_disabled": 0, "type": "electric_bike", "lon": -76.99344966666666, "bike_id": "378bf35cdecaebdc5eac30005f1b7ff3", "fusion_lat": 0.0, "name": "378bf35cdecaebdc5eac30005f1b7ff3", "is_reserved": 0, "rental_uris": {"android": "https://dc.lft.to/lastmile_qr_scan", "ios": "https://dc.lft.to/lastmile_qr_scan"}, "fusion_lon": 0.0}, {"lat": 38.92242566666667, "is_disabled": 0, "type": "electric_scooter", "lon": -77.04573466666666, "bike_id": "56b63e4a8fe7d0077d94541c9c415ecf", "fusion_lat": 0.0, "name": "56b63e4a8fe7d0077d94541c9c415ecf", "is_reserved": 0, "rental_uris": {"android": "https://dc.lft.to/lastmile_qr_scan", "ios": "https://dc.lft.to/lastmile_qr_scan"}, "fusion_lon": 0.0}, {"lat": 38.915734, "is_disabled": 0, "type": "electric_scooter", "lon": -77.03209716666667, "bike_id": "1a3ff08a4fc3c7a7e07986fda46c157c", "fusion_lat": 0.0, "name": "1a3ff08a4fc3c7a7e07986fda46c157c", "is_reserved": 0, "rental_uris": {"android": "https://dc.lft.to/lastmile_qr_scan", "ios": "https://dc.lft.to/lastmile_qr_scan"}, "fusion_lon": 0.0}, {"lat": 38.919519333333334, "is_disabled": 0, "type": "electric_scooter", "lon": -76.98081433333333, "bike_id": "13285eff875e66a10d8ced5d3fcd6b0a", "fusion_lat": 0.0, "name": "13285eff875e66a10d8ced5d3fcd6b0a", "is_reserved": 0, "rental_uris": {"android": "https://dc.lft.to/lastmile_qr_scan", "ios": "https://dc.lft.to/lastmile_qr_scan"}, "fusion_lon": 0.0}, {"lat": 38.933823833333335, "is_disabled": 0, "type": "electric_scooter", "lon": -77.03796333333334, "bike_id": "502b16e552f091245e11f28771eef269", "fusion_lat": 0.0, "name": "502b16e552f091245e11f28771eef269", "is_reserved": 0, "rental_uris": {"android": "https://dc.lft.to/lastmile_qr_scan", "ios": "https://dc.lft.to/lastmile_qr_scan"}, "fusion_lon": 0.0}, {"lat": 38.911561666666664, "is_disabled": 0, "type": "electric_scooter", "lon": -77.0449755, "bike_id": "5e4d739bd3fa3d4de06d96c66ab553fa", "fusion_lat": 0.0, "name": "5e4d739bd3fa3d4de06d96c66ab553fa", "is_reserved": 0, "rental_uris": {"android": "https://dc.lft.to/lastmile_qr_scan", "ios": "https://dc.lft.to/lastmile_qr_scan"}, "fusion_lon": 0.0}, {"lat": 38.903352166666664, "is_disabled": 0, "type": "electric_scooter", "lon": -77.0377115, "bike_id": "3bb54aebc209c5ebfd6559a28eecb705", "fusion_lat": 0.0, "name": "3bb54aebc209c5ebfd6559a28eecb705", "is_reserved": 0, "rental_uris": {"android": "https://dc.lft.to/lastmile_qr_scan", "ios": "https://dc.lft.to/lastmile_qr_scan"}, "fusion_lon": 0.0}, {"lat": 38.91998566666667, "is_disabled": 0, "type": "electric_scooter", "lon": -77.03235516666666, "bike_id": "e8dc74f7a54b4fcaad71bc94db6d502d", "fusion_lat": 0.0, "name": "e8dc74f7a54b4fcaad71bc94db6d502d", "is_reserved": 0, "rental_uris": {"android": "https://dc.lft.to/lastmile_qr_scan", "ios": "https://dc.lft.to/lastmile_qr_scan"}, "fusion_lon": 0.0}, {"lat": 38.80574816666667, "is_disabled": 0, "type": "electric_bike", "lon": -77.06861233333333, "bike_id": "f4b912067cd310db62f66a96c89a0c3a", "fusion_lat": 0.0, "name": "f4b912067cd310db62f66a96c89a0c3a", "is_reserved": 0, "rental_uris": {"android": "https://dc.lft.to/lastmile_qr_scan", "ios": "https://dc.lft.to/lastmile_qr_scan"}, "fusion_lon": 0.0}, {"lat": 38.919823666666666, "is_disabled": 0, "type": "electric_scooter", "lon": -77.04170033333334, "bike_id": "84103c5f83d951aa445b101c4e42bab6", "fusion_lat": 0.0, "name": "84103c5f83d951aa445b101c4e42bab6", "is_reserved": 0, "rental_uris": {"android": "https://dc.lft.to/lastmile_qr_scan", "ios": "https://dc.lft.to/lastmile_qr_scan"}, "fusion_lon": 0.0}, {"lat": 38.928296333333336, "is_disabled": 0, "type": "electric_scooter", "lon": -77.021949, "bike_id": "49734b3617b3f86dfbdde23993cebc54", "fusion_lat": 0.0, "name": "49734b3617b3f86dfbdde23993cebc54", "is_reserved": 0, "rental_uris": {"android": "https://dc.lft.to/lastmile_qr_scan", "ios": "https://dc.lft.to/lastmile_qr_scan"}, "fusion_lon": 0.0}, {"lat": 38.896118333333334, "is_disabled": 0, "type": "electric_scooter", "lon": -77.05470866666667, "bike_id": "abca6d2308ddc018919bff018aa550af", "fusion_lat": 0.0, "name": "abca6d2308ddc018919bff018aa550af", "is_reserved": 0, "rental_uris": {"android": "https://dc.lft.to/lastmile_qr_scan", "ios": "https://dc.lft.to/lastmile_qr_scan"}, "fusion_lon": 0.0}, {"lat": 38.905592666666664, "is_disabled": 0, "type": "electric_scooter", "lon": -77.00608483333333, "bike_id": "7b5f51b7b412d02ce7e08f5138cdada7", "fusion_lat": 0.0, "name": "7b5f51b7b412d02ce7e08f5138cdada7", "is_reserved": 0, "rental_uris": {"android": "https://dc.lft.to/lastmile_qr_scan", "ios": "https://dc.lft.to/lastmile_qr_scan"}, "fusion_lon": 0.0}, {"lat": 38.86999766666667, "is_disabled": 0, "type": "electric_bike", "lon": -76.95983016666666, "bike_id": "cf4e918b2a3a744e00c732489dbeba5d", "fusion_lat": 0.0, "name": "cf4e918b2a3a744e00c732489dbeba5d", "is_reserved": 0, "rental_uris": {"android": "https://dc.lft.to/lastmile_qr_scan", "ios": "https://dc.lft.to/lastmile_qr_scan"}, "fusion_lon": 0.0}, {"lat": 38.89825183333333, "is_disabled": 0, "type": "electric_scooter", "lon": -77.03156666666666, "bike_id": "1acf098cc3c00f0ecf798d5c5fad32b9", "fusion_lat": 0.0, "name": "1acf098cc3c00f0ecf798d5c5fad32b9", "is_reserved": 0, "rental_uris": {"android": "https://dc.lft.to/lastmile_qr_scan", "ios": "https://dc.lft.to/lastmile_qr_scan"}, "fusion_lon": 0.0}, {"lat": 38.9078215, "is_disabled": 0, "type": "electric_scooter", "lon": -77.03665816666667, "bike_id": "5f4738b11792523a02a6c8bfd4237d95", "fusion_lat": 0.0, "name": "5f4738b11792523a02a6c8bfd4237d95", "is_reserved": 0, "rental_uris": {"android": "https://dc.lft.to/lastmile_qr_scan", "ios": "https://dc.lft.to/lastmile_qr_scan"}, "fusion_lon": 0.0}, {"lat": 38.9648955, "is_disabled": 0, "type": "electric_scooter", "lon": -77.027889, "bike_id": "088f541d5d53e789111bba1e2a10ce2b", "fusion_lat": 0.0, "name": "088f541d5d53e789111bba1e2a10ce2b", "is_reserved": 0, "rental_uris": {"android": "https://dc.lft.to/lastmile_qr_scan", "ios": "https://dc.lft.to/lastmile_qr_scan"}, "fusion_lon": 0.0}, {"lat": 38.9203765, "is_disabled": 0, "type": "electric_scooter", "lon": -77.03046683333334, "bike_id": "b455d41a09994fe4ed3fbfe017891192", "fusion_lat": 0.0, "name": "b455d41a09994fe4ed3fbfe017891192", "is_reserved": 0, "rental_uris": {"android": "https://dc.lft.to/lastmile_qr_scan", "ios": "https://dc.lft.to/lastmile_qr_scan"}, "fusion_lon": 0.0}, {"lat": 38.985019333333334, "is_disabled": 0, "type": "electric_bike", "lon": -76.982021, "bike_id": "2aaa6619dcdf5c626b950dff9e9e5415", "fusion_lat": 0.0, "name": "2aaa6619dcdf5c626b950dff9e9e5415", "is_reserved": 0, "rental_uris": {"android": "https://dc.lft.to/lastmile_qr_scan", "ios": "https://dc.lft.to/lastmile_qr_scan"},