{"data": {"bikes": [{"bike_id": "288cb983abd6b6c0e220e589e1fbf5f0", "fusion_lon": 0.0, "lon": -77.071108, "name": "288cb983abd6b6c0e220e589e1fbf5f0", "is_disabled": 0, "rental_uris": {"android": "https://dc.lft.to/lastmile_qr_scan", "ios": "https://dc.lft.to/lastmile_qr_scan"}, "type": "electric_bike", "lat": 38.920031, "is_reserved": 0, "fusion_lat": 0.0}, {"bike_id": "80e047e0ae5ad54d31a2be3260379aa6", "fusion_lon": 0.0, "lon": -77.02823383333333, "name": "80e047e0ae5ad54d31a2be3260379aa6", "is_disabled": 0, "rental_uris": {"android": "https://dc.lft.to/lastmile_qr_scan", "ios": "https://dc.lft.to/lastmile_qr_scan"}, "type": "electric_scooter", "lat": 38.887329, "is_reserved": 0, "fusion_lat": 0.0}, {"bike_id": "2f85eb8b0ec28b3fb9213efc79ba1e60", "fusion_lon": 0.0, "lon": -77.05856133333333, "name": "2f85eb8b0ec28b3fb9213efc79ba1e60", "is_disabled": 0, "rental_uris": {"android": "https://dc.lft.to/lastmile_qr_scan", "ios": "https://dc.lft.to/lastmile_qr_scan"}, "type": "electric_scooter", "lat": 38.93608116666667, "is_reserved": 0, "fusion_lat": 0.0}, {"bike_id": "a9b7e2e97e503d7c62bd90a7dd7a0669", "fusion_lon": 0.0, "lon": -77.0231505, "name": "a9b7e2e97e503d7c62bd90a7dd7a0669", "is_disabled": 0, "rental_uris": {"android": "https://dc.lft.to/lastmile_qr_scan", "ios": "https://dc.lft.to/lastmile_qr_scan"}, "type": "electric_scooter", "lat": 38.895700166666664, "is_reserved": 0, "fusion_lat": 0.0}, {"bike_id": "7bde05445b2a33f1cd757ee875c68494", "fusion_lon": 0.0, "lon": -77.02756283333333, "name": "7bde05445b2a33f1cd757ee875c68494", "is_disabled": 0, "rental_uris": {"android": "https://dc.lft.to/lastmile_qr_scan", "ios": "https://dc.lft.to/lastmile_qr_scan"}, "type": "electric_scooter", "lat": 38.95431966666666, "is_reserved": 0, "fusion_lat": 0.0}, {"bike_id": "0837af22faaed203879018751f5987a7", "fusion_lon": 0.0, "lon": -77.032528, "name": "0837af22faaed203879018751f5987a7", "is_disabled": 0, "rental_uris": {"android": "https://dc.lft.to/lastmile_qr_scan", "ios": "https://dc.lft.to/lastmile_qr_scan"}, "type": "electric_scooter", "lat": 38.92850816666667, "is_reserved": 0, "fusion_lat": 0.0}, {"bike_id": "3ccf08996a7ec1163e93bfef21eac61c", "fusion_lon": 0.0, "lon": -77.03310033333334, "name": "3ccf08996a7ec1163e93bfef21eac61c", "is_disabled": 0, "rental_uris": {"android": "https://dc.lft.to/lastmile_qr_scan", "ios": "https://dc.lft.to/lastmile_qr_scan"}, "type": "electric_scooter", "lat": 38.93196116666667, "is_reserved": 0, "fusion_lat": 0.0}, {"bike_id": "944ce2b86398233a2d23567abce021ed", "fusion_lon": 0.0, "lon": -77.03267783333334, "name": "944ce2b86398233a2d23567abce021ed", "is_disabled": 0, "rental_uris": {"android": "https://dc.lft.to/lastmile_qr_scan", "ios": "https://dc.lft.to/lastmile_qr_scan"}, "type": "electric_scooter", "lat": 38.9365365, "is_reserved": 0, "fusion_lat": 0.0}, {"bike_id": "9278943f756c4a3ac9b5173da9174ee8", "fusion_lon": 0.0, "lon": -77.02688816666667, "name": "9278943f756c4a3ac9b5173da9174ee8", "is_disabled": 0, "rental_uris": {"android": "https://dc.lft.to/lastmile_qr_scan", "ios": "https://dc.lft.to/lastmile_qr_scan"}, "type": "electric_scooter", "lat": 38.906871333333335, "is_reserved": 0, "fusion_lat": 0.0}, {"bike_id": "78f958385b126ea283b28662f14d970a", "fusion_lon": 0.0, "lon": -77.052899, "name": "78f958385b126ea283b28662f14d970a", "is_disabled": 0, "rental_uris": {"android": "https://dc.lft.to/lastmile_qr_scan", "ios": "https://dc.lft.to/lastmile_qr_scan"}, "type": "electric_scooter", "lat": 38.90427866666667, "is_reserved": 0, "fusion_lat": 0.0}, {"bike_id": "9e20cc98b53a08aa0fa2f98b846f48ab", "fusion_lon": 0.0, "lon": -77.05524, "name": "9e20cc98b53a08aa0fa2f98b846f48ab", "is_disabled": 0, "rental_uris": {"android": "https://dc.lft.to/lastmile_qr_scan", "ios": "https://dc.lft.to/lastmile_qr_scan"}, "type": "electric_scooter", "lat": 38.93020416666667, "is_reserved": 0, "fusion_lat": 0.0}, {"bike_id": "aca59161a826311862313e511b34675b", "fusion_lon": 0.0, "lon": -77.04411433333334, "name": "aca59161a826311862313e511b34675b", "is_disabled": 0, "rental_uris": {"android": "https://dc.lft.to/lastmile_qr_scan", "ios": "https://dc.lft.to/lastmile_qr_scan"}, "type": "electric_scooter", "lat": 38.9091085, "is_reserved": 0, "fusion_lat": 0.0}, {"bike_id": "99b23e73ba8a8f78a6161e35a023d864", "fusion_lon": 0.0, "lon": -77.02721083333333, "name": "99b23e73ba8a8f78a6161e35a023d864", "is_disabled": 0, "rental_uris": {"android": "https://dc.lft.to/lastmile_qr_scan", "ios": "https://dc.lft.to/lastmile_qr_scan"}, "type": "electric_scooter", "lat": 38.924831166666664, "is_reserved": 0, "fusion_lat": 0.0}, {"bike_id": "228f1a74c215c7a58971ef445016eeba", "fusion_lon": 0.0, "lon": -77.00567816666667, "name": "228f1a74c215c7a58971ef445016eeba", "is_disabled": 0, "rental_uris": {"android": "https://dc.lft.to/lastmile_qr_scan", "ios": "https://dc.lft.to/lastmile_qr_scan"}, "type": "electric_scooter", "lat": 38.873236, "is_reserved": 0, "fusion_lat": 0.0}, {"bike_id": "7ad48de97d7651f830732a88eb571c30", "fusion_lon": 0.0, "lon": -77.02718733333333, "name": "7ad48de97d7651f830732a88eb571c30", "is_disabled": 0, "rental_uris": {"android": "https://dc.lft.to/lastmile_qr_scan", "ios": "https://dc.lft.to/lastmile_qr_scan"}, "type": "electric_scooter", "lat": 38.916943333333336, "is_reserved": 0, "fusion_lat": 0.0}, {"bike_id": "74229babf45329d16b936dfe7f5d60b1", "fusion_lon": 0.0, "lon": -77.02488333333334, "name": "74229babf45329d16b936dfe7f5d60b1", "is_disabled": 0, "rental_uris": {"android": "https://dc.lft.to/lastmile_qr_scan", "ios": "https://dc.lft.to/lastmile_qr_scan"}, "type": "electric_scooter", "lat": 38.941853, "is_reserved": 0, "fusion_lat": 0.0}, {"bike_id": "a9d7d836e5c26c0ccad45d4e677833af", "fusion_lon": 0.0, "lon": -77.03294966666667, "name": "a9d7d836e5c26c0ccad45d4e677833af", "is_disabled": 0, "rental_uris": {"android": "https://dc.lft.to/lastmile_qr_scan", "ios": "https://dc.lft.to/lastmile_qr_scan"}, "type": "electric_scooter", "lat": 38.9471445, "is_reserved": 0, "fusion_lat": 0.0}, {"bike_id": "5c3496ee93cf8395a9d8f50bd53a3e7e", "fusion_lon": 0.0, "lon": -77.04015266666667, "name": "5c3496ee93cf8395a9d8f50bd53a3e7e", "is_disabled": 0, "rental_uris": {"android": "https://dc.lft.to/lastmile_qr_scan", "ios": "https://dc.lft.to/lastmile_qr_scan"}, "type": "electric_scooter", "lat": 38.9182495, "is_reserved": 0, "fusion_lat": 0.0}, {"bike_id": "c2cd5a371899d3bb47b1629666d9b081", "fusion_lon": 0.0, "lon": -77.04182983333334, "name": "c2cd5a371899d3bb47b1629666d9b081", "is_disabled": 0, "rental_uris": {"android": "https://dc.lft.to/lastmile_qr_scan", "ios": "https://dc.lft.to/lastmile_qr_scan"}, "type": "electric_scooter", "lat": 38.89290116666667, "is_reserved": 0, "fusion_lat": 0.0}, {"bike_id": "02b17af8bac7c9be28e63b6492e08900", "fusion_lon": 0.0, "lon": -77.01026433333334, "name": "02b17af8bac7c9be28e63b6492e08900", "is_disabled": 0, "rental_uris": {"android": "https://dc.lft.to/lastmile_qr_scan", "ios": "https://dc.lft.to/lastmile_qr_scan"}, "type": "electric_scooter", "lat": 38.91702316666667, "is_reserved": 0, "fusion_lat": 0.0}, {"bike_id": "e59bc2ea5ba0896b9fa706f24ab96a76", "fusion_lon": 0.0, "lon": -77.03327933333334, "name": "e59bc2ea5ba0896b9fa706f24ab96a76", "is_disabled": 0, "rental_uris": {"android": "https://dc.lft.to/lastmile_qr_scan", "ios": "https://dc.lft.to/lastmile_qr_scan"}, "type": "electric_scooter", "lat": 38.91361583333333, "is_reserved": 0, "fusion_lat": 0.0}, {"bike_id": "42150b008772c06c6f7a6c1110f98b19", "fusion_lon": 0.0, "lon": -76.99122333333334, "name": "42150b008772c06c6f7a6c1110f98b19", "is_disabled": 0, "rental_uris": {"android": "https://dc.lft.to/lastmile_qr_scan", "ios": "https://dc.lft.to/lastmile_qr_scan"}, "type": "electric_scooter", "lat": 38.862049666666664, "is_reserved": 0, "fusion_lat": 0.0}, {"bike_id": "350741589e7ec5f6a7d14ac7b7009929", "fusion_lon": 0.0, "lon": -77.03434716666666, "name": "350741589e7ec5f6a7d14ac7b7009929", "is_disabled": 0, "rental_uris": {"android": "https://dc.lft.to/lastmile_qr_scan", "ios": "https://dc.lft.to/lastmile_qr_scan"}, "type": "electric_scooter", "lat": 38.917417666666665, "is_reserved": 0, "fusion_lat": 0.0}, {"bike_id": "4480c6fb84c79cd9b63c91e212b32dbc", "fusion_lon": 0.0, "lon": -77.0390365, "name": "4480c6fb84c79cd9b63c91e212b32dbc", "is_disabled": 0, "rental_uris": {"android": "https://dc.lft.to/lastmile_qr_scan", "ios": "https://dc.lft.to/lastmile_qr_scan"}, "type": "electric_scooter", "lat": 38.91417333333333, "is_reserved": 0, "fusion_lat": 0.0}, {"bike_id": "3c90093456180bc55ba7180553be98a7", "fusion_lon": 0.0, "lon": -76.96539116666666, "name": "3c90093456180bc55ba7180553be98a7", "is_disabled": 0, "rental_uris": {"android": "https://dc.lft.to/lastmile_qr_scan", "ios": "https://dc.lft.to/lastmile_qr_scan"}, "type": "electric_scooter", "lat": 38.9185165, "is_reserved": 0, "fusion_lat": 0.0}, {"bike_id": "407fd2a7ab7557e17c59776588fe773e", "fusion_lon": 0.0, "lon": -77.0071915, "name": "407fd2a7ab7557e17c59776588fe773e", "is_disabled": 0, "rental_uris": {"android": "https://dc.lft.to/lastmile_qr_scan", "ios": "https://dc.lft.to/lastmile_qr_scan"}, "type": "electric_scooter", "lat": 38.8980925, "is_reserved": 0, "fusion_lat": 0.0}, {"bike_id": "db455963c49582afc6b1fc8d5ef040c3", "fusion_lon": 0.0, "lon": -77.03462183333333, "name": "db455963c49582afc6b1fc8d5ef040c3", "is_disabled": 0, "rental_uris": {"android": "https://dc.lft.to/lastmile_qr_scan", "ios": "https://dc.lft.to/lastmile_qr_scan"}, "type": "electric_scooter", "lat": 38.90880083333333, "is_reserved": 0, "fusion_lat": 0.0}, {"bike_id": "29a0f9fad023db907422f185e0667510", "fusion_lon": 0.0, "lon": -77.02911916666666, "name": "29a0f9fad023db907422f185e0667510", "is_disabled": 0, "rental_uris": {"android": "https://dc.lft.to/lastmile_qr_scan", "ios": "https://dc.lft.to/lastmile_qr_scan"}, "type": "electric_scooter", "lat": 38.92584433333333, "is_reserved": 0, "fusion_lat": 0.0}, {"bike_id": "fc153976fbb8bddc6a7beeead2124c44", "fusion_lon": 0.0, "lon": -77.02366616666667, "name": "fc153976fbb8bddc6a7beeead2124c44", "is_disabled": 0, "rental_uris": {"android": "https://dc.lft.to/lastmile_qr_scan", "ios": "https://dc.lft.to/lastmile_qr_scan"}, "type": "electric_scooter", "lat": 38.892216, "is_reserved": 0, "fusion_lat": 0.0}, {"bike_id": "c9926544f3371ce36b0f5e01c89a54d6", "fusion_lon": 0.0, "lon": -77.02154816666666, "name": "c9926544f3371ce36b0f5e01c89a54d6", "is_disabled": 0, "rental_uris": {"android": "https://dc.lft.to/lastmile_qr_scan", "ios": "https://dc.lft.to/lastmile_qr_scan"}, "type": "electric_scooter", "lat": 38.92606266666667, "is_reserved": 0, "fusion_lat": 0.0}, {"bike_id": "73e27bd608aaeee48943ad5c3ee29daa", "fusion_lon": 0.0, "lon": -77.0410085, "name": "73e27bd608aaeee48943ad5c3ee29daa", "is_disabled": 0, "rental_uris": {"android": "https://dc.lft.to/lastmile_qr_scan", "ios": "https://dc.lft.to/lastmile_qr_scan"}, "type": "electric_scooter", "lat": 38.9049505, "is_reserved": 0, "fusion_lat": 0.0}, {"bike_id": "b4b81c3520f1e1d497afa7e6b8735ed7", "fusion_lon": 0.0, "lon": -77.00932283333333, "name": "b4b81c3520f1e1d497afa7e6b8735ed7", "is_disabled": 0, "rental_uris": {"android": "https://dc.lft.to/lastmile_qr_scan", "ios": "https://dc.lft.to/lastmile_qr_scan"}, "type": "electric_scooter", "lat": 38.918177666666665, "is_reserved": 0, "fusion_lat": 0.0}, {"bike_id": "92f4d9ff6b97507f3b15b528c52ea6d9", "fusion_lon": 0.0, "lon": -77.03207416666666, "name": "92f4d9ff6b97507f3b15b528c52ea6d9", "is_disabled": 0, "rental_uris": {"android": "https://dc.lft.to/lastmile_qr_scan", "ios": "https://dc.lft.to/lastmile_qr_scan"}, "type": "electric_scooter", "lat": 38.91558166666667, "is_reserved": 0, "fusion_lat": 0.0}, {"bike_id": "d2dfbef16ab7dee0d4973663fdd811e2", "fusion_lon": 0.0, "lon": -77.00069233333333, "name": "d2dfbef16ab7dee0d4973663fdd811e2", "is_disabled": 0, "rental_uris": {"android": "https://dc.lft.to/lastmile_qr_scan", "ios": "https://dc.lft.to/lastmile_qr_scan"}, "type": "electric_scooter", "lat": 38.925505, "is_reserved": 0, "fusion_lat": 0.0}, {"bike_id": "249da31a92c4535549af9e84166a1f82", "fusion_lon": 0.0, "lon": -77.0230925, "name": "249da31a92c4535549af9e84166a1f82", "is_disabled": 0, "rental_uris": {"android": "https://dc.lft.to/lastmile_qr_scan", "ios": "https://dc.lft.to/lastmile_qr_scan"}, "type": "electric_scooter", "lat": 38.90960783333333, "is_reserved": 0, "fusion_lat": 0.0}, {"bike_id": "91f1443e3cd92b8ed564a54789e57cbd", "fusion_lon": 0.0, "lon": -77.01605283333333, "name": "91f1443e3cd92b8ed564a54789e57cbd", "is_disabled": 0, "rental_uris": {"android": "https://dc.lft.to/lastmile_qr_scan", "ios": "https://dc.lft.to/lastmile_qr_scan"}, "type": "electric_scooter", "lat": 38.92049433333333, "is_reserved": 0, "fusion_lat": 0.0}, {"bike_id": "21c3ff88ffe3a7f8286fed86c1ca1bff", "fusion_lon": 0.0, "lon": -76.93183783333333, "name": "21c3ff88ffe3a7f8286fed86c1ca1bff", "is_disabled": 0, "rental_uris": {"android": "https://dc.lft.to/lastmile_qr_scan", "ios": "https://dc.lft.to/lastmile_qr_scan"}, "type": "electric_scooter", "lat": 38.898762, "is_reserved": 0, "fusion_lat": 0.0}, {"bike_id": "866bb95cd4e03210263f28bd778d02fc", "fusion_lon": 0.0, "lon": -77.1013215, "name": "866bb95cd4e03210263f28bd778d02fc", "is_disabled": 0, "rental_uris": {"android": "https://dc.lft.to/lastmile_qr_scan", "ios": "https://dc.lft.to/lastmile_qr_scan"}, "type": "electric_bike", "lat": 38.852075, "is_reserved": 0, "fusion_lat": 0.0}, {"bike_id": "977095289a68dd03f46ccfc22e254682", "fusion_lon": 0.0, "lon": -77.03351683333334, "name": "977095289a68dd03f46ccfc22e254682", "is_disabled": 0, "rental_uris": {"android": "https://dc.lft.to/lastmile_qr_scan", "ios": "https://dc.lft.to/lastmile_qr_scan"}, "type": "electric_scooter", "lat": 38.88502916666667, "is_reserved": 0, "fusion_lat": 0.0}, {"bike_id": "40b2f954068a26f734f5a8c7315dbc5c", "fusion_lon": 0.0, "lon": -77.04234133333334, "name": "40b2f954068a26f734f5a8c7315dbc5c", "is_disabled": 0, "rental_uris": {"android": "https://dc.lft.to/lastmile_qr_scan", "ios": "https://dc.lft.to/lastmile_qr_scan"}, "type": "electric_scooter", "lat": 38.91789583333333, "is_reserved": 0, "fusion_lat": 0.0}, {"bike_id": "811e492b3098711e6c7c7e9640f27537", "fusion_lon": 0.0, "lon": -77.06336816666666, "name": "811e492b3098711e6c7c7e9640f27537", "is_disabled": 0, "rental_uris": {"android": "https://dc.lft.to/lastmile_qr_scan", "ios": "https://dc.lft.to/lastmile_qr_scan"}, "type": "electric_scooter", "lat": 38.906799, "is_reserved": 0, "fusion_lat": 0.0}, {"bike_id": "b460049659ded336d18da153913739f3", "fusion_lon": 0.0, "lon": -77.04511516666666, "name": "b460049659ded336d18da153913739f3", "is_disabled": 0, "rental_uris": {"android": "https://dc.lft.to/lastmile_qr_scan", "ios": "https://dc.lft.to/lastmile_qr_scan"}, "type": "electric_scooter", "lat": 38.886037333333334, "is_reserved": 0, "fusion_lat": 0.0}, {"bike_id": "cde8fec20bff48ff96cf1f9fd544e103", "fusion_lon": 0.0, "lon": -77.02297316666667, "name": "cde8fec20bff48ff96cf1f9fd544e103", "is_disabled": 0, "rental_uris": {"android": "https://dc.lft.to/lastmile_qr_scan", "ios": "https://dc.lft.to/lastmile_qr_scan"}, "type": "electric_scooter", "lat": 38.9160955, "is_reserved": 0, "fusion_lat": 0.0}, {"bike_id": "a38deabc25742df0bfd90b11e91ec986", "fusion_lon": 0.0, "lon": -77.11058233333333, "name": "a38deabc25742df0bfd90b11e91ec986", "is_disabled": 0, "rental_uris": {"android": "https://dc.lft.to/lastmile_qr_scan", "ios": "https://dc.lft.to/lastmile_qr_scan"}, "type": "electric_bike", "lat": 38.870787166666666, "is_reserved": 0, "fusion_lat": 0.0}, {"bike_id": "c005dbbf542fc4e1ddccfedf2a509168", "fusion_lon": 0.0, "lon": -76.93195783333333, "name": "c005dbbf542fc4e1ddccfedf2a509168", "is_disabled": 0, "rental_uris": {"android": "https://dc.lft.to/lastmile_qr_scan", "ios": "https://dc.lft.to/lastmile_qr_scan"}, "type": "electric_scooter", "lat": 38.898800333333334, "is_reserved": 0, "fusion_lat": 0.0}, {"bike_id": "3ec39675c073e5ff4498e40f3301df3f", "fusion_lon": 0.0, "lon": -77.02926166666667, "name": "3ec39675c073e5ff4498e40f3301df3f", "is_disabled": 0, "rental_uris": {"android": "https://dc.lft.to/lastmile_qr_scan", "ios": "https://dc.lft.to/lastmile_qr_scan"}, "type": "electric_scooter", "lat": 38.899317333333336, "is_reserved": 0, "fusion_lat": 0.0}, {"bike_id": "f1118d5eeb53c0ea21e20c40ebd9aeee", "fusion_lon": 0.0, "lon": -77.04695166666667, "name": "f1118d5eeb53c0ea21e20c40ebd9aeee", "is_disabled": 0, "rental_uris": {"android": "https://dc.lft.to/lastmile_qr_scan", "ios": "https://dc.lft.to/lastmile_qr_scan"}, "type": "electric_scooter", "lat": 38.921038833333334, "is_reserved": 0, "fusion_lat": 0.0}, {"bike_id": "02019cc1bb958e3845ae724ca3e178cf", "fusion_lon": 0.0, "lon": -77.03584666666667, "name": "02019cc1bb958e3845ae724ca3e178cf", "is_disabled": 0, "rental_uris": {"android": "https://dc.lft.to/lastmile_qr_scan", "ios": "https://dc.lft.to/lastmile_qr_scan"}, "type": "electric_scooter", "lat": 38.936737, "is_reserved": 0, "fusion_lat": 0.0}, {"bike_id": "e8921ae48f53c30744005b8c207b5d28", "fusion_lon": 0.0, "lon": -76.99906066666667, "name": "e8921ae48f53c30744005b8c207b5d28", "is_disabled": 0, "rental_uris": {"android": "https://dc.lft.to/lastmile_qr_scan", "ios": "https://dc.lft.to/lastmile_qr_scan"}, "type": "electric_scooter", "lat": 38.94814566666667, "is_reserved": 0, "fusion_lat": 0.0}, {"bike_id": "c9aefe6164c94ab33009bd9649e47654", "fusion_lon": 0.0, "lon": -76.99874016666666, "name": "c9aefe6164c94ab33009bd9649e47654", "is_disabled": 0, "rental_uris": {"android": "https://dc.lft.to/lastmile_qr_scan", "ios": "https://dc.lft.to/lastmile_qr_scan"}, "type": "electric_scooter", "lat": 38.90028183333333, "is_reserved": 0, "fusion_lat": 0.0}, {"bike_id": "11aac65b1a6b845b6882b722b68a0010", "fusion_lon": 0.0, "lon": -77.0221035, "name": "11aac65b1a6b845b6882b722b68a0010", "is_disabled": 0, "rental_uris": {"android": "https://dc.lft.to/lastmile_qr_scan", "ios": "https://dc.lft.to/lastmile_qr_scan"}, "type": "electric_scooter", "lat": 38.9155545, "is_reserved": 0, "fusion_lat": 0.0}, {"bike_id": "eb98381957f176f845a79ef246229288", "fusion_lon": 0.0, "lon": -76.979553, "name": "eb98381957f176f845a79ef246229288", "is_disabled": 0, "rental_uris": {"android": "https://dc.lft.to/lastmile_qr_scan", "ios": "https://dc.lft.to/lastmile_qr_scan"}, "type": "electric_scooter", "lat": 38.91688083333333, "is_reserved": 0, "fusion_lat": 0.0}, {"bike_id": "2d6c2d5f1509c1464c9ce924fc4e2e3d", "fusion_lon": 0.0, "lon": -77.13891883333334, "name": "2d6c2d5f1509c1464c9ce924fc4e2e3d", "is_disabled": 0, "rental_uris": {"android": "https://dc.lft.to/lastmile_qr_scan", "ios": "https://dc.lft.to/lastmile_qr_scan"}, "type": "electric_bike", "lat": 38.8968385, "is_reserved": 0, "fusion_lat": 0.0}, {"bike_id": "e5953dd3fc67e50ada48d56ffd1c30ea", "fusion_lon": 0.0, "lon": -77.02854216666667, "name": "e5953dd3fc67e50ada48d56ffd1c30ea", "is_disabled": 0, "rental_uris": {"android": "https://dc.lft.to/lastmile_qr_scan", "ios": "https://dc.lft.to/lastmile_qr_scan"}, "type": "electric_scooter", "lat": 38.925804166666666, "is_reserved": 0, "fusion_lat": 0.0}, {"bike_id": "934a03f57f92eaac2c4bc05c0f0dda5c", "fusion_lon": 0.0, "lon": -77.000626, "name": "934a03f57f92eaac2c4bc05c0f0dda5c", "is_disabled": 0, "rental_uris": {"android": "https://dc.lft.to/lastmile_qr_scan", "ios": "https://dc.lft.to/lastmile_qr_scan"}, "type": "electric_scooter", "lat": 38.900287, "is_reserved": 0, "fusion_lat": 0.0}, {"bike_id": "d15442e9d8cbb9cd3968b5e2021b05e4", "fusion_lon": 0.0, "lon": -77.01584, "name": "d15442e9d8cbb9cd3968b5e2021b05e4", "is_disabled": 0, "rental_uris": {"android": "https://dc.lft.to/lastmile_qr_scan", "ios": "https://dc.lft.to/lastmile_qr_scan"}, "type": "electric_scooter", "lat": 38.950156, "is_reserved": 0, "fusion_lat": 0.0}, {"bike_id": "e4e66fe8d5f4e3f5f5dd23dc42ece917", "fusion_lon": 0.0, "lon": -77.02284966666667, "name": "e4e66fe8d5f4e3f5f5dd23dc42ece917", "is_disabled": 0, "rental_uris": {"android": "https://dc.lft.to/lastmile_qr_scan", "ios": "https://dc.lft.to/lastmile_qr_scan"}, "type": "electric_scooter", "lat": 38.890606166666664, "is_reserved": 0, "fusion_lat": 0.0}, {"bike_id": "a33bef9404863f8b237408ecddc91444", "fusion_lon": 0.0, "lon": -77.0297955, "name": "a33bef9404863f8b237408ecddc91444", "is_disabled": 0, "rental_uris": {"android": "https://dc.lft.to/lastmile_qr_scan", "ios": "https://dc.lft.to/lastmile_qr_scan"}, "type": "electric_scooter", "lat": 38.94595983333333, "is_reserved": 0, "fusion_lat": 0.0}, {"bike_id": "ece5e630c5ae65ea84d82faf68928d10", "fusion_lon": 0.0, "lon": -77.00933033333334, "name": "ece5e630c5ae65ea84d82faf68928d10", "is_disabled": 0, "rental_uris": {"android": "https://dc.lft.to/lastmile_qr_scan", "ios": "https://dc.lft.to/lastmile_qr_scan"}, "type": "electric_scooter", "lat": 38.908283, "is_reserved": 0, "fusion_lat": 0.0}, {"bike_id": "77b7cb7d26d836ae1b7e7aa89c15c4b2", "fusion_lon": 0.0, "lon": -77.03398883333334, "name": "77b7cb7d26d836ae1b7e7aa89c15c4b2", "is_disabled": 0, "rental_uris": {"android": "https://dc.lft.to/lastmile_qr_scan", "ios": "https://dc.lft.to/lastmile_qr_scan"}, "type": "electric_scooter", "lat": 38.931313, "is_reserved": 0, "fusion_lat": 0.0}, {"bike_id": "6995452fd462a365155cb09283347150", "fusion_lon": 0.0, "lon": -77.13467116666666, "name": "6995452fd462a365155cb09283347150", "is_disabled": 0, "rental_uris": {"android": "https://dc.lft.to/lastmile_qr_scan", "ios": "https://dc.lft.to/lastmile_qr_scan"}, "type": "electric_bike", "lat": 38.8535845, "is_reserved": 0, "fusion_lat": 0.0}, {"bike_id": "2c66e941571318f3e5fb9df5e69ab6d5", "fusion_lon": 0.0, "lon": -77.02707433333333, "name": "2c66e941571318f3e5fb9df5e69ab6d5", "is_disabled": 0, "rental_uris": {"android": "https://dc.lft.to/lastmile_qr_scan", "ios": "https://dc.lft.to/lastmile_qr_scan"}, "type": "electric_scooter", "lat": 38.91669783333333, "is_reserved": 0, "fusion_lat": 0.0}, {"bike_id": "5e942ea0682f66301d0cb5d9363e278d", "fusion_lon": 0.0, "lon": -77.028806, "name": "5e942ea0682f66301d0cb5d9363e278d", "is_disabled": 0, "rental_uris": {"android": "https://dc.lft.to/lastmile_qr_scan", "ios": "https://dc.lft.to/lastmile_qr_scan"}, "type": "electric_scooter", "lat": 38.907302666666666, "is_reserved": 0, "fusion_lat": 0.0}, {"bike_id": "8a89e187a0f31863048464e7cbc39332", "fusion_lon": 0.0, "lon": -77.0399075, "name": "8a89e187a0f31863048464e7cbc39332", "is_disabled": 0, "rental_uris": {"android": "https://dc.lft.to/lastmile_qr_scan", "ios": "https://dc.lft.to/lastmile_qr_scan"}, "type": "electric_scooter", "lat": 38.91759666666667, "is_reserved": 0, "fusion_lat": 0.0}, {"bike_id": "14912ff61df726d605a71cb38138fdc3", "fusion_lon": 0.0, "lon": -77.0312825, "name": "14912ff61df726d605a71cb38138fdc3", "is_disabled": 0, "rental_uris": {"android": "https://dc.lft.to/lastmile_qr_scan", "ios": "https://dc.lft.to/lastmile_qr_scan"}, "type": "electric_scooter", "lat": 38.91558, "is_reserved": 0, "fusion_lat": 0.0}, {"bike_id": "139f931a55c52f20f92b867306a11310", "fusion_lon": 0.0, "lon": -76.92486566666666, "name": "139f931a55c52f20f92b867306a11310", "is_disabled": 0, "rental_uris": {"android": "https://dc.lft.to/lastmile_qr_scan", "ios": "https://dc.lft.to/lastmile_qr_scan"}, "type": "electric_bike", "lat": 38.95899166666667, "is_reserved": 0, "fusion_lat": 0.0}, {"bike_id": "f4afb6ff6874ea90ce8b7e99afe0db81", "fusion_lon": 0.0, "lon": -77.03067783333333, "name": "f4afb6ff6874ea90ce8b7e99afe0db81", "is_disabled": 0, "rental_uris": {"android": "https://dc.lft.to/lastmile_qr_scan", "ios": "https://dc.lft.to/lastmile_qr_scan"}, "type": "electric_scooter", "lat": 38.897572, "is_reserved": 0, "fusion_lat": 0.0}, {"bike_id": "b96b956c06a570f26e845de388af2489", "fusion_lon": 0.0, "lon": -77.03252083333334, "name": "b96b956c06a570f26e845de388af2489", "is_disabled": 0, "rental_uris": {"android": "https://dc.lft.to/lastmile_qr_scan", "ios": "https://dc.lft.to/lastmile_qr_scan"}, "type": "electric_scooter", "lat": 38.92859116666666, "is_reserved": 0, "fusion_lat": 0.0}, {"bike_id": "00d129734e7829a47789d3f3265451e2", "fusion_lon": 0.0, "lon": -77.00865716666667, "name": "00d129734e7829a47789d3f3265451e2", "is_disabled": 0, "rental_uris": {"android": "https://dc.lft.to/lastmile_qr_scan", "ios": "https://dc.lft.to/lastmile_qr_scan"}, "type": "electric_scooter", "lat": 38.91706383333333, "is_reserved": 0, "fusion_lat": 0.0}, {"bike_id": "24fef12e6d34ffff8398bca6090476dc", "fusion_lon": 0.0, "lon": -77.0160595, "name": "24fef12e6d34ffff8398bca6090476dc", "is_disabled": 0, "rental_uris": {"android": "https://dc.lft.to/lastmile_qr_scan", "ios": "https://dc.lft.to/lastmile_qr_scan"}, "type": "electric_scooter", "lat": 38.90591466666667, "is_reserved": 0, "fusion_lat": 0.0}, {"bike_id": "b626420d29ce7a4b2fa87d4f4f43b594", "fusion_lon": 0.0, "lon": -77.03445166666667, "name": "b626420d29ce7a4b2fa87d4f4f43b594", "is_disabled": 0, "rental_uris": {"android": "https://dc.lft.to/lastmile_qr_scan", "ios": "https://dc.lft.to/lastmile_qr_scan"}, "type": "electric_scooter", "lat": 38.91818716666667, "is_reserved": 0, "fusion_lat": 0.0}, {"bike_id": "6cb7520f3b9caf3924855745929348df", "fusion_lon": 0.0, "lon": -77.0350105, "name": "6cb7520f3b9caf3924855745929348df", "is_disabled": 0, "rental_uris": {"android": "https://dc.lft.to/lastmile_qr_scan", "ios": "https://dc.lft.to/lastmile_qr_scan"}, "type": "electric_scooter", "lat": 38.918765, "is_reserved": 0, "fusion_lat": 0.0}, {"bike_id": "0e3b8537127b5b10aba2d179aa1b18a8", "fusion_lon": 0.0, "lon": -76.93752333333333, "name": "0e3b8537127b5b10aba2d179aa1b18a8", "is_disabled": 0, "rental_uris": {"android": "https://dc.lft.to/lastmile_qr_scan", "ios": "https://dc.lft.to/lastmile_qr_scan"}, "type": "electric_scooter", "lat": 38.89047633333333, "is_reserved": 0, "fusion_lat": 0.0}, {"bike_id": "5682b31a657a1fc1f85ee30bef44255d", "fusion_lon": 0.0, "lon": -77.05028783333333, "name": "5682b31a657a1fc1f85ee30bef44255d", "is_disabled": 0, "rental_uris": {"android": "https://dc.lft.to/lastmile_qr_scan", "ios": "https://dc.lft.to/lastmile_qr_scan"}, "type": "electric_scooter", "lat": 38.900892, "is_reserved": 0, "fusion_lat": 0.0}, {"bike_id": "1244867ab2b7b0bb614bc3d98f55b7a3", "fusion_lon": 0.0, "lon": -77.02709966666667, "name": "1244867ab2b7b0bb614bc3d98f55b7a3", "is_disabled": 0, "rental_uris": {"android": "https://dc.lft.to/lastmile_qr_scan", "ios": "https://dc.lft.to/lastmile_qr_scan"}, "type": "electric_scooter", "lat": 38.92877683333333, "is_reserved": 0, "fusion_lat": 0.0}, {"bike_id": "3e3150974c8885c42230e4fa9c296b13", "fusion_lon": 0.0, "lon": -77.03442066666666, "name": "3e3150974c8885c42230e4fa9c296b13", "is_disabled": 0, "rental_uris": {"android": "https://dc.lft.to/lastmile_qr_scan", "ios": "https://dc.lft.to/lastmile_qr_scan"}, "type": "electric_scooter", "lat": 38.907649, "is_reserved": 0, "fusion_lat": 0.0}, {"bike_id": "cb08885539cf34c0c3ee07014722a5ce", "fusion_lon": 0.0, "lon": -76.99777816666666, "name": "cb08885539cf34c0c3ee07014722a5ce", "is_disabled": 0, "rental_uris": {"android": "https://dc.lft.to/lastmile_qr_scan", "ios": "https://dc.lft.to/lastmile_qr_scan"}, "type": "electric_scooter", "lat": 38.844251, "is_reserved": 0, "fusion_lat": 0.0}, {"bike_id": "ba286881580b695f8363048dfeb0dbe8", "fusion_lon": 0.0, "lon": -76.946361, "name": "ba286881580b695f8363048dfeb0dbe8", "is_disabled": 0, "rental_uris": {"android": "https://dc.lft.to/lastmile_qr_scan", "ios": "https://dc.lft.to/lastmile_qr_scan"}, "type": "electric_scooter", "lat": 38.89843466666667, "is_reserved": 0, "fusion_lat": 0.0}, {"bike_id": "c312dca5e4526cf0f1dfa39bb3111468", "fusion_lon": 0.0, "lon": -76.957538, "name": "c312dca5e4526cf0f1dfa39bb3111468", "is_disabled": 0, "rental_uris": {"android": "https://dc.lft.to/lastmile_qr_scan", "ios": "https://dc.lft.to/lastmile_qr_scan"}, "type": "electric_scooter", "lat": 38.88430483333333, "is_reserved": 0, "fusion_lat": 0.0}, {"bike_id": "3712f008410831118e72c0b8a9fca215", "fusion_lon": 0.0, "lon": -77.00335033333333, "name": "3712f008410831118e72c0b8a9fca215", "is_disabled": 0, "rental_uris": {"android": "https://dc.lft.to/lastmile_qr_scan", "ios": "https://dc.lft.to/lastmile_qr_scan"}, "type": "electric_scooter", "lat": 38.89522516666667, "is_reserved": 0, "fusion_lat": 0.0}, {"bike_id": "8bbdfc40e3c276804a65b20fd97dd9d6", "fusion_lon": 0.0, "lon": -76.99776133333333, "name": "8bbdfc40e3c276804a65b20fd97dd9d6", "is_disabled": 0, "rental_uris": {"android": "https://dc.lft.to/lastmile_qr_scan", "ios": "https://dc.lft.to/lastmile_qr_scan"}, "type": "electric_scooter", "lat": 38.8443285, "is_reserved": 0, "fusion_lat": 0.0}, {"bike_id": "17256ccf193348be9439db4d7a4cd7b7", "fusion_lon": 0.0, "lon": -77.02030033333334, "name": "17256ccf193348be9439db4d7a4cd7b7", "is_disabled": 0, "rental_uris": {"android": "https://dc.lft.to/lastmile_qr_scan", "ios": "https://dc.lft.to/lastmile_qr_scan"}, "type": "electric_scooter", "lat": 38.92413033333333, "is_reserved": 0, "fusion_lat": 0.0}, {"bike_id": "c61474ca1f8b4c242b9d234e304caee3", "fusion_lon": 0.0, "lon": -76.9709725, "name": "c61474ca1f8b4c242b9d234e304caee3", "is_disabled": 0, "rental_uris": {"android": "https://dc.lft.to/lastmile_qr_scan", "ios": "https://dc.lft.to/lastmile_qr_scan"}, "type": "electric_bike", "lat": 38.857173833333334, "is_reserved": 0, "fusion_lat": 0.0}, {"bike_id": "df5e681a356c71ad33cf74cf24fe8355", "fusion_lon": 0.0, "lon": -77.0238495, "name": "df5e681a356c71ad33cf74cf24fe8355", "is_disabled": 0, "rental_uris": {"android": "https://dc.lft.to/lastmile_qr_scan", "ios": "https://dc.lft.to/lastmile_qr_scan"}, "type": "electric_scooter", "lat": 38.919591, "is_reserved": 0, "fusion_lat": 0.0}, {"bike_id": "42d11ff24902d8ccc601b5f58ab04f66", "fusion_lon": 0.0, "lon": -77.04329516666667, "name": "42d11ff24902d8ccc601b5f58ab04f66", "is_disabled": 0, "rental_uris": {"android": "https://dc.lft.to/lastmile_qr_scan", "ios": "https://dc.lft.to/lastmile_qr_scan"}, "type": "electric_scooter", "lat": 38.90734533333333, "is_reserved": 0, "fusion_lat": 0.0}, {"bike_id": "98b31df36fd5272069e049d77d2aa34a", "fusion_lon": 0.0, "lon": -77.03980033333333, "name": "98b31df36fd5272069e049d77d2aa34a", "is_disabled": 0, "rental_uris": {"android": "https://dc.lft.to/lastmile_qr_scan", "ios": "https://dc.lft.to/lastmile_qr_scan"}, "type": "electric_scooter", "lat": 38.911998833333335, "is_reserved": 0, "fusion_lat": 0.0}, {"bike_id": "6248ec1e6fae5a8733f6e233686d9d13", "fusion_lon": 0.0, "lon": -77.034791, "name": "6248ec1e6fae5a8733f6e233686d9d13", "is_disabled": 0, "rental_uris": {"android": "https://dc.lft.to/lastmile_qr_scan", "ios": "https://dc.lft.to/lastmile_qr_scan"}, "type": "electric_scooter", "lat": 38.918522833333334, "is_reserved": 0, "fusion_lat": 0.0}, {"bike_id": "3b9356b97d6c472376f4f8580da84b92", "fusion_lon": 0.0, "lon": -77.03657266666667, "name": "3b9356b97d6c472376f4f8580da84b92", "is_disabled": 0, "rental_uris": {"android": "https://dc.lft.to/lastmile_qr_scan", "ios": "https://dc.lft.to/lastmile_qr_scan"}, "type": "electric_scooter", "lat": 38.92286333333333, "is_reserved": 0, "fusion_lat": 0.0}, {"bike_id": "e3442c05fa2238bc39b35ec242410f8a", "fusion_lon": 0.0, "lon": -77.02617933333333, "name": "e3442c05fa2238bc39b35ec242410f8a", "is_disabled": 0, "rental_uris": {"android": "https://dc.lft.to/lastmile_qr_scan", "ios": "https://dc.lft.to/lastmile_qr_scan"}, "type": "electric_bike", "lat": 38.962221166666666, "is_reserved": 0, "fusion_lat": 0.0}, {"bike_id": "3862e26853bddc1b5d61df8756d1a68b", "fusion_lon": 0.0, "lon": -77.032957, "name": "3862e26853bddc1b5d61df8756d1a68b", "is_disabled": 0, "rental_uris": {"android": "https://dc.lft.to/lastmile_qr_scan", "ios": "https://dc.lft.to/lastmile_qr_scan"}, "type": "electric_scooter", "lat": 38.900272333333334, "is_reserved": 0, "fusion_lat": 0.0}, {"bike_id": "d9a9af4f26984488b9a1649535ba1ca6", "fusion_lon": 0.0, "lon": -77.02825716666666, "name": "d9a9af4f26984488b9a1649535ba1ca6", "is_disabled": 0, "rental_uris": {"android": "https://dc.lft.to/lastmile_qr_scan", "ios": "https://dc.lft.to/lastmile_qr_scan"}, "type": "electric_bike", "lat": 38.96510133333334, "is_reserved": 0, "fusion_lat": 0.0}, {"bike_id": "dcfbd30430343add974699855d3d0f1b", "fusion_lon": 0.0, "lon": -77.02102, "name": "dcfbd30430343add974699855d3d0f1b", "is_disabled": 0, "rental_uris": {"android": "https://dc.lft.to/lastmile_qr_scan", "ios": "https://dc.lft.to/lastmile_qr_scan"}, "type": "electric_scooter", "lat": 38.92413066666667, "is_reserved": 0, "fusion_lat": 0.0}, {"bike_id": "6583c14f498fa3023232c04b02c0f22d", "fusion_lon": 0.0, "lon": -76.95140166666667, "name": "6583c14f498fa3023232c04b02c0f22d", "is_disabled": 0, "rental_uris": {"android": "https://dc.lft.to/lastmile_qr_scan", "ios": "https://dc.lft.to/lastmile_qr_scan"}, "type": "electric_scooter", "lat": 38.8903645, "is_reserved": 0, "fusion_lat": 0.0}, {"bike_id": "072d842bc614c29fe896565ea6aa7fe0", "fusion_lon": 0.0, "lon": -76.97705333333333, "name": "072d842bc614c29fe896565ea6aa7fe0", "is_disabled": 0, "rental_uris": {"android": "https://dc.lft.to/lastmile_qr_scan", "ios": "https://dc.lft.to/lastmile_qr_scan"}, "type": "electric_bike", "lat": 38.949140666666665, "is_reserved": 0, "fusion_lat": 0.0}, {"bike_id": "e4967a3dc3570219ff1cfce28cfa0fcf", "fusion_lon": 0.0, "lon": -77.05270666666667, "name": "e4967a3dc3570219ff1cfce28cfa0fcf", "is_disabled": 0, "rental_uris": {"android": "https://dc.lft.to/lastmile_qr_scan", "ios": "https://dc.lft.to/lastmile_qr_scan"}, "type": "electric_scooter", "lat": 38.92572283333333, "is_reserved": 0, "fusion_lat": 0.0}, {"bike_id": "9532489a46aca921d0f1ac7b4b2482c7", "fusion_lon": 0.0, "lon": -77.00148516666667, "name": "9532489a46aca921d0f1ac7b4b2482c7", "is_disabled": 0, "rental_uris": {"android": "https://dc.lft.to/lastmile_qr_scan", "ios": "https://dc.lft.to/lastmile_qr_scan"}, "type": "electric_scooter", "lat": 38.923378666666665, "is_reserved": 0, "fusion_lat": 0.0}, {"bike_id": "c99f5fb91c94ae43ac995a8d1b905eb9", "fusion_lon": 0.0, "lon": -76.88373533333333, "name": "c99f5fb91c94ae43ac995a8d1b905eb9", "is_disabled": 0, "rental_uris": {"android": "https://dc.lft.to/lastmile_qr_scan", "ios": "https://dc.lft.to/lastmile_qr_scan"}, "type": "electric_bike", "lat": 38.998174, "is_reserved": 0, "fusion_lat": 0.0}, {"bike_id": "8a39dbfd0589a8336d5589748dc8f2e5", "fusion_lon": 0.0, "lon": -77.3609185, "name": "8a39dbfd0589a8336d5589748dc8f2e5", "is_disabled": 0, "rental_uris": {"android": "https://dc.lft.to/lastmile_qr_scan", "ios": "https://dc.lft.to/lastmile_qr_scan"}, "type": "electric_bike", "lat": 38.939626833333335, "is_reserved": 0, "fusion_lat": 0.0}, {"bike_id": "793173bac2a63637d277b75eab13bd4a", "fusion_lon": 0.0, "lon": -77.038906, "name": "793173bac2a63637d277b75eab13bd4a", "is_disabled": 0, "rental_uris": {"android": "https://dc.lft.to/lastmile_qr_scan", "ios": "https://dc.lft.to/lastmile_qr_scan"}, "type": "electric_scooter", "lat": 38.93267183333333, "is_reserved": 0, "fusion_lat": 0.0}, {"bike_id": "a8ba68e00d2efdd2bd27df9768fc65b2", "fusion_lon": 0.0, "lon": -77.01995066666667, "name": "a8ba68e00d2efdd2bd27df9768fc65b2", "is_disabled": 0, "rental_uris": {"android": "https://dc.lft.to/lastmile_qr_scan", "ios": "https://dc.lft.to/lastmile_qr_scan"}, "type": "electric_scooter", "lat": 38.897357, "is_reserved": 0, "fusion_lat": 0.0}, {"bike_id": "ffd1313600ee306c333c879e85144163", "fusion_lon": 0.0, "lon": -77.02993983333333, "name": "ffd1313600ee306c333c879e85144163", "is_disabled": 0, "rental_uris": {"android": "https://dc.lft.to/lastmile_qr_scan", "ios": "https://dc.lft.to/lastmile_qr_scan"}, "type": "electric_scooter", "lat": 38.895676333333334, "is_reserved": 0, "fusion_lat": 0.0}, {"bike_id": "3bc752bac5a6d2cc0d4a3543be6c6fd3", "fusion_lon": 0.0, "lon": -76.99510283333333, "name": "3bc752bac5a6d2cc0d4a3543be6c6fd3", "is_disabled": 0, "rental_uris": {"android": "https://dc.lft.to/lastmile_qr_scan", "ios": "https://dc.lft.to/lastmile_qr_scan"}, "type": "electric_scooter", "lat": 38.88253733333333, "is_reserved": 0, "fusion_lat": 0.0}, {"bike_id": "2515bbff817eb10f729bcdce05b6aae8", "fusion_lon": 0.0, "lon": -77.0307915, "name": "2515bbff817eb10f729bcdce05b6aae8", "is_disabled": 0, "rental_uris": {"android": "https://dc.lft.to/lastmile_qr_scan", "ios": "https://dc.lft.to/lastmile_qr_scan"}, "type": "electric_scooter", "lat": 38.9237455, "is_reserved": 0, "fusion_lat": 0.0}, {"bike_id": "96c9c1f105cf7f252627337700368372", "fusion_lon": 0.0, "lon": -76.98694683333333, "name": "96c9c1f105cf7f252627337700368372", "is_disabled": 0, "rental_uris": {"android": "https://dc.lft.to/lastmile_qr_scan", "ios": "https://dc.lft.to/lastmile_qr_scan"}, "type": "electric_scooter", "lat": 38.862602833333334, "is_reserved": 0, "fusion_lat": 0.0}, {"bike_id": "ff64b526747e052d77d3e10c80d4c13e", "fusion_lon": 0.0, "lon": -77.0218005, "name": "ff64b526747e052d77d3e10c80d4c13e", "is_disabled": 0, "rental_uris": {"android": "https://dc.lft.to/lastmile_qr_scan", "ios": "https://dc.lft.to/lastmile_qr_scan"}, "type": "electric_scooter", "lat": 38.914171833333334, "is_reserved": 0, "fusion_lat": 0.0}, {"bike_id": "50a98e0f9ca2c673d7fcc58bb4705321", "fusion_lon": 0.0, "lon": -77.03129883333334, "name": "50a98e0f9ca2c673d7fcc58bb4705321", "is_disabled": 0, "rental_uris": {"android": "https://dc.lft.to/lastmile_qr_scan", "ios": "https://dc.lft.to/lastmile_qr_scan"}, "type": "electric_scooter", "lat": 38.9237525, "is_reserved": 0, "fusion_lat": 0.0}, {"bike_id": "993d51c148c65c76ed08995cff3717b8", "fusion_lon": 0.0, "lon": -77.04998033333334, "name": "993d51c148c65c76ed08995cff3717b8", "is_disabled": 0, "rental_uris": {"android": "https://dc.lft.to/lastmile_qr_scan", "ios": "https://dc.lft.to/lastmile_qr_scan"}, "type": "electric_scooter", "lat": 38.89229183333333, "is_reserved": 0, "fusion_lat": 0.0}, {"bike_id": "44742d60eb0378b9e1c3c12595de708c", "fusion_lon": 0.0, "lon": -77.0532375, "name": "44742d60eb0378b9e1c3c12595de708c", "is_disabled": 0, "rental_uris": {"android": "https://dc.lft.to/lastmile_qr_scan", "ios": "https://dc.lft.to/lastmile_qr_scan"}, "type": "electric_scooter", "lat": 38.9234795, "is_reserved": 0, "fusion_lat": 0.0}, {"bike_id": "81048c8aea6b913504be83b6c925f9d4", "fusion_lon": 0.0, "lon": -77.04658133333334, "name": "81048c8aea6b913504be83b6c925f9d4", "is_disabled": 0, "rental_uris": {"android": "https://dc.lft.to/lastmile_qr_scan", "ios": "https://dc.lft.to/lastmile_qr_scan"}, "type": "electric_scooter", "lat": 38.892543833333335, "is_reserved": 0, "fusion_lat": 0.0}, {"bike_id": "33382299519204d953c326cbc926adf1", "fusion_lon": 0.0, "lon": -77.0231485, "name": "33382299519204d953c326cbc926adf1", "is_disabled": 0, "rental_uris": {"android": "https://dc.lft.to/lastmile_qr_scan", "ios": "https://dc.lft.to/lastmile_qr_scan"}, "type": "electric_scooter", "lat": 38.8955765, "is_reserved": 0, "fusion_lat": 0.0}, {"bike_id": "607b9a6191608284cdd530e0b6b706e7", "fusion_lon": 0.0, "lon": -76.91598533333334, "name": "607b9a6191608284cdd530e0b6b706e7", "is_disabled": 0, "rental_uris": {"android": "https://dc.lft.to/lastmile_qr_scan", "ios": "https://dc.lft.to/lastmile_qr_scan"}, "type": "electric_bike", "lat": 38.879807166666666, "is_reserved": 0, "fusion_lat": 0.0}, {"bike_id": "baf473ba24778a1f8d5eff756e3a555e", "fusion_lon": 0.0, "lon": -77.01834833333334, "name": "baf473ba24778a1f8d5eff756e3a555e", "is_disabled": 0, "rental_uris": {"android": "https://dc.lft.to/lastmile_qr_scan", "ios": "https://dc.lft.to/lastmile_qr_scan"}, "type": "electric_scooter", "lat": 38.900266, "is_reserved": 0, "fusion_lat": 0.0}, {"bike_id": "746ebce9e5d9022b5a3d01173bb2bb96", "fusion_lon": 0.0, "lon": -77.03171283333333, "name": "746ebce9e5d9022b5a3d01173bb2bb96", "is_disabled": 0, "rental_uris": {"android": "https://dc.lft.to/lastmile_qr_scan", "ios": "https://dc.lft.to/lastmile_qr_scan"}, "type": "electric_scooter", "lat": 38.909607333333334, "is_reserved": 0, "fusion_lat": 0.0}, {"bike_id": "f1a78e1f81140ce308ad77bf1a4bb8e2", "fusion_lon": 0.0, "lon": -77.01604383333333, "name": "f1a78e1f81140ce308ad77bf1a4bb8e2", "is_disabled": 0, "rental_uris": {"android": "https://dc.lft.to/lastmile_qr_scan", "ios": "https://dc.lft.to/lastmile_qr_scan"}, "type": "electric_scooter", "lat": 38.918069, "is_reserved": 0, "fusion_lat": 0.0}, {"bike_id": "688833e991fc403c291399f256fe1ed0", "fusion_lon": 0.0, "lon": -77.01464733333333, "name": "688833e991fc403c291399f256fe1ed0", "is_disabled": 0, "rental_uris": {"android": "https://dc.lft.to/lastmile_qr_scan", "ios": "https://dc.lft.to/lastmile_qr_scan"}, "type": "electric_scooter", "lat": 38.917703, "is_reserved": 0, "fusion_lat": 0.0}, {"bike_id": "1658e246e4bde42b98eae3c84e0b4990", "fusion_lon": 0.0, "lon": -77.02288283333333, "name": "1658e246e4bde42b98eae3c84e0b4990", "is_disabled": 0, "rental_uris": {"android": "https://dc.lft.to/lastmile_qr_scan", "ios": "https://dc.lft.to/lastmile_qr_scan"}, "type": "electric_scooter", "lat": 38.91803866666667, "is_reserved": 0, "fusion_lat": 0.0}, {"bike_id": "9e18e295d67922a9fb92b67d04929c35", "fusion_lon": 0.0, "lon": -77.053064, "name": "9e18e295d67922a9fb92b67d04929c35", "is_disabled": 0, "rental_uris": {"android": "https://dc.lft.to/lastmile_qr_scan", "ios": "https://dc.lft.to/lastmile_qr_scan"}, "type": "electric_scooter", "lat": 38.904203833333334, "is_reserved": 0, "fusion_lat": 0.0}, {"bike_id": "b0f5e8886954a2650c159ef358558d69", "fusion_lon": 0.0, "lon": -77.02735133333333, "name": "b0f5e8886954a2650c159ef358558d69", "is_disabled": 0, "rental_uris": {"android": "https://dc.lft.to/lastmile_qr_scan", "ios": "https://dc.lft.to/lastmile_qr_scan"}, "type": "electric_scooter", "lat": 38.92763383333333, "is_reserved": 0, "fusion_lat": 0.0}, {"bike_id": "b9bc989873a02668db8a4432d7c7c62b", "fusion_lon": 0.0, "lon": -76.988222, "name": "b9bc989873a02668db8a4432d7c7c62b", "is_disabled": 0, "rental_uris": {"android": "https://dc.lft.to/lastmile_qr_scan", "ios": "https://dc.lft.to/lastmile_qr_scan"}, "type": "electric_scooter", "lat": 38.900379, "is_reserved": 0, "fusion_lat": 0.0}, {"bike_id": "91d55ec9bc5cdd4c0d9b59d5cc35eb65", "fusion_lon": 0.0, "lon": -77.0276345, "name": "91d55ec9bc5cdd4c0d9b59d5cc35eb65", "is_disabled": 0, "rental_uris": {"android": "https://dc.lft.to/lastmile_qr_scan", "ios": "https://dc.lft.to/lastmile_qr_scan"}, "type": "electric_scooter", "lat": 38.954237166666665, "is_reserved": 0, "fusion_lat": 0.0}, {"bike_id": "c29ff6a8e46c4b26048307c5c8ccd75c", "fusion_lon": 0.0, "lon": -77.02717583333333, "name": "c29ff6a8e46c4b26048307c5c8ccd75c", "is_disabled": 0, "rental_uris": {"android": "https://dc.lft.to/lastmile_qr_scan", "ios": "https://dc.lft.to/lastmile_qr_scan"}, "type": "electric_scooter", "lat": 38.90665716666667, "is_reserved": 0, "fusion_lat": 0.0}, {"bike_id": "baaafb35ab8cf4bee13135f9daccfc18", "fusion_lon": 0.0, "lon": -77.0772445, "name": "baaafb35ab8cf4bee13135f9daccfc18", "is_disabled": 0, "rental_uris": {"android": "https://dc.lft.to/lastmile_qr_scan", "ios": "https://dc.lft.to/lastmile_qr_scan"}, "type": "electric_scooter", "lat": 38.9576835, "is_reserved": 0, "fusion_lat": 0.0}, {"bike_id": "ea10e1ae415c76afa87b112ec8ff37f1", "fusion_lon": 0.0, "lon": -77.02350383333334, "name": "ea10e1ae415c76afa87b112ec8ff37f1", "is_disabled": 0, "rental_uris": {"android": "https://dc.lft.to/lastmile_qr_scan", "ios": "https://dc.lft.to/lastmile_qr_scan"}, "type": "electric_scooter", "lat": 38.946143, "is_reserved": 0, "fusion_lat": 0.0}, {"bike_id": "349843a68069b4b5315083ef10d721a3", "fusion_lon": 0.0, "lon": -76.98838916666666, "name": "349843a68069b4b5315083ef10d721a3", "is_disabled": 0, "rental_uris": {"android": "https://dc.lft.to/lastmile_qr_scan", "ios": "https://dc.lft.to/lastmile_qr_scan"}, "type": "electric_scooter", "lat": 38.89259833333333, "is_reserved": 0, "fusion_lat": 0.0}, {"bike_id": "5a0062145fd77b56b266526651565fd4", "fusion_lon": 0.0, "lon": -77.03257966666666, "name": "5a0062145fd77b56b266526651565fd4", "is_disabled": 0, "rental_uris": {"android": "https://dc.lft.to/lastmile_qr_scan", "ios": "https://dc.lft.to/lastmile_qr_scan"}, "type": "electric_scooter", "lat": 38.9140735, "is_reserved": 0, "fusion_lat": 0.0}, {"bike_id": "ea5cb34c0b8b86e1ff9b00fae0a4557b", "fusion_lon": 0.0, "lon": -77.02500866666666, "name": "ea5cb34c0b8b86e1ff9b00fae0a4557b", "is_disabled": 0, "rental_uris": {"android": "https://dc.lft.to/lastmile_qr_scan", "ios": "https://dc.lft.to/lastmile_qr_scan"}, "type": "electric_scooter", "lat": 38.9040195, "is_reserved": 0, "fusion_lat": 0.0}, {"bike_id": "7717f2e754ffced5aefdeebcb3960327", "fusion_lon": 0.0, "lon": -76.987068, "name": "7717f2e754ffced5aefdeebcb3960327", "is_disabled": 0, "rental_uris": {"android": "https://dc.lft.to/lastmile_qr_scan", "ios": "https://dc.lft.to/lastmile_qr_scan"}, "type": "electric_scooter", "lat": 38.86695516666666, "is_reserved": 0, "fusion_lat": 0.0}, {"bike_id": "468b958fe7923b6b29c4aeef9a130a2a", "fusion_lon": 0.0, "lon": -77.01455066666666, "name": "468b958fe7923b6b29c4aeef9a130a2a", "is_disabled": 0, "rental_uris": {"android": "https://dc.lft.to/lastmile_qr_scan", "ios": "https://dc.lft.to/lastmile_qr_scan"}, "type": "electric_scooter", "lat": 38.918226, "is_reserved": 0, "fusion_lat": 0.0}, {"bike_id": "f20632a23c00b64b8dbaac55a4e01e81", "fusion_lon": 0.0, "lon": -77.03915083333334, "name": "f20632a23c00b64b8dbaac55a4e01e81", "is_disabled": 0, "rental_uris": {"android": "https://dc.lft.to/lastmile_qr_scan", "ios": "https://dc.lft.to/lastmile_qr_scan"}, "type": "electric_scooter", "lat": 38.924728, "is_reserved": 0, "fusion_lat": 0.0}, {"bike_id": "ae90baf36a31372b54c676270beda46f", "fusion_lon": 0.0, "lon": -77.02093383333333, "name": "ae90baf36a31372b54c676270beda46f", "is_disabled": 0, "rental_uris": {"android": "https://dc.lft.to/lastmile_qr_scan", "ios": "https://dc.lft.to/lastmile_qr_scan"}, "type": "electric_scooter", "lat": 38.93117183333333, "is_reserved": 0, "fusion_lat": 0.0}, {"bike_id": "d19d95b48cac1ff925a3515508588af6", "fusion_lon": 0.0, "lon": -76.99901933333334, "name": "d19d95b48cac1ff925a3515508588af6", "is_disabled": 0, "rental_uris": {"android": "https://dc.lft.to/lastmile_qr_scan", "ios": "https://dc.lft.to/lastmile_qr_scan"}, "type": "electric_scooter", "lat": 38.94691783333333, "is_reserved": 0, "fusion_lat": 0.0}, {"bike_id": "8b0ca4be80db936330ace2bc6738c8c5", "fusion_lon": 0.0, "lon": -77.01267716666666, "name": "8b0ca4be80db936330ace2bc6738c8c5", "is_disabled": 0, "rental_uris": {"android": "https://dc.lft.to/lastmile_qr_scan", "ios": "https://dc.lft.to/lastmile_qr_scan"}, "type": "electric_scooter", "lat": 38.88156333333333, "is_reserved": 0, "fusion_lat": 0.0}, {"bike_id": "fbd797b688f23512a1b19e23f4cc1b1e", "fusion_lon": 0.0, "lon": -77.02048216666667, "name": "fbd797b688f23512a1b19e23f4cc1b1e", "is_disabled": 0, "rental_uris": {"android": "https://dc.lft.to/lastmile_qr_scan", "ios": "https://dc.lft.to/lastmile_qr_scan"}, "type": "electric_scooter", "lat": 38.9156025, "is_reserved": 0, "fusion_lat": 0.0}, {"bike_id": "3d1d01d967856c8276e11dad7a522292", "fusion_lon": 0.0, "lon": -77.037583, "name": "3d1d01d967856c8276e11dad7a522292", "is_disabled": 0, "rental_uris": {"android": "https://dc.lft.to/lastmile_qr_scan", "ios": "https://dc.lft.to/lastmile_qr_scan"}, "type": "electric_scooter", "lat": 38.906718, "is_reserved": 0, "fusion_lat": 0.0}, {"bike_id": "c37e190984bb59af780edad88cbc6293", "fusion_lon": 0.0, "lon": -77.04364916666667, "name": "c37e190984bb59af780edad88cbc6293", "is_disabled": 0, "rental_uris": {"android": "https://dc.lft.to/lastmile_qr_scan", "ios": "https://dc.lft.to/lastmile_qr_scan"}, "type": "electric_scooter", "lat": 38.89222433333333, "is_reserved": 0, "fusion_lat": 0.0}, {"bike_id": "8d4dc7a6394f9808233753b3ddd79d3f", "fusion_lon": 0.0, "lon": -77.04874616666666, "name": "8d4dc7a6394f9808233753b3ddd79d3f", "is_disabled": 0, "rental_uris": {"android": "https://dc.lft.to/lastmile_qr_scan", "ios": "https://dc.lft.to/lastmile_qr_scan"}, "type": "electric_scooter", "lat": 38.909741833333335, "is_reserved": 0, "fusion_lat": 0.0}, {"bike_id": "1c0eb531838201f556310fdab944d0ce", "fusion_lon": 0.0, "lon": -77.02416383333333, "name": "1c0eb531838201f556310fdab944d0ce", "is_disabled": 0, "rental_uris": {"android": "https://dc.lft.to/lastmile_qr_scan", "ios": "https://dc.lft.to/lastmile_qr_scan"}, "type": "electric_scooter", "lat": 38.91697716666667, "is_reserved": 0, "fusion_lat": 0.0}, {"bike_id": "8cf8bcbb8a9895a620375934a0b1be52", "fusion_lon": 0.0, "lon": -77.05858066666667, "name": "8cf8bcbb8a9895a620375934a0b1be52", "is_disabled": 0, "rental_uris": {"android": "https://dc.lft.to/lastmile_qr_scan", "ios": "https://dc.lft.to/lastmile_qr_scan"}, "type": "electric_scooter", "lat": 38.936088, "is_reserved": 0, "fusion_lat": 0.0}, {"bike_id": "8936c0fd8cfad98c3beb93a80e8ed1e6", "fusion_lon": 0.0, "lon": -77.029618, "name": "8936c0fd8cfad98c3beb93a80e8ed1e6", "is_disabled": 0, "rental_uris": {"android": "https://dc.lft.to/lastmile_qr_scan", "ios": "https://dc.lft.to/lastmile_qr_scan"}, "type": "electric_scooter", "lat": 38.923241833333336, "is_reserved": 0, "fusion_lat": 0.0}, {"bike_id": "92ac918c2b09844ab0e63154bdef1918", "fusion_lon": 0.0, "lon": -77.01408666666667, "name": "92ac918c2b09844ab0e63154bdef1918", "is_disabled": 0, "rental_uris": {"android": "https://dc.lft.to/lastmile_qr_scan", "ios": "https://dc.lft.to/lastmile_qr_scan"}, "type": "electric_scooter", "lat": 38.88125983333333, "is_reserved": 0, "fusion_lat": 0.0}, {"bike_id": "81576eac18a53c44102940f91e83422c", "fusion_lon": 0.0, "lon": -76.99029783333333, "name": "81576eac18a53c44102940f91e83422c", "is_disabled": 0, "rental_uris": {"android": "https://dc.lft.to/lastmile_qr_scan", "ios": "https://dc.lft.to/lastmile_qr_scan"}, "type": "electric_scooter", "lat": 38.898511166666665, "is_reserved": 0, "fusion_lat": 0.0}, {"bike_id": "d337744f22bf39927e4398dc0effd8b0", "fusion_lon": 0.0, "lon": -77.00802083333333, "name": "d337744f22bf39927e4398dc0effd8b0", "is_disabled": 0, "rental_uris": {"android": "https://dc.lft.to/lastmile_qr_scan", "ios": "https://dc.lft.to/lastmile_qr_scan"}, "type": "electric_bike", "lat": 38.94922, "is_reserved": 0, "fusion_lat": 0.0}, {"bike_id": "2d655bbce4be0e70aca16dc852765367", "fusion_lon": 0.0, "lon": -77.03265883333333, "name": "2d655bbce4be0e70aca16dc852765367", "is_disabled": 0, "rental_uris": {"android": "https://dc.lft.to/lastmile_qr_scan", "ios": "https://dc.lft.to/lastmile_qr_scan"}, "type": "electric_scooter", "lat": 38.932419333333335, "is_reserved": 0, "fusion_lat": 0.0}, {"bike_id": "f2cc1507440d6d8e644e357a156fe339", "fusion_lon": 0.0, "lon": -77.03090566666667, "name": "f2cc1507440d6d8e644e357a156fe339", "is_disabled": 0, "rental_uris": {"android": "https://dc.lft.to/lastmile_qr_scan", "ios": "https://dc.lft.to/lastmile_qr_scan"}, "type": "electric_scooter", "lat": 38.9192015, "is_reserved": 0, "fusion_lat": 0.0}, {"bike_id": "6952238cc2f2214e92fcc10088ed5711", "fusion_lon": 0.0, "lon": -77.02962916666667, "name": "6952238cc2f2214e92fcc10088ed5711", "is_disabled": 0, "rental_uris": {"android": "https://dc.lft.to/lastmile_qr_scan", "ios": "https://dc.lft.to/lastmile_qr_scan"}, "type": "electric_scooter", "lat": 38.9237055, "is_reserved": 0, "fusion_lat": 0.0}, {"bike_id": "e41cabf5348244a3eacd5cfc2b2b45ca", "fusion_lon": 0.0, "lon": -77.04419966666667, "name": "e41cabf5348244a3eacd5cfc2b2b45ca", "is_disabled": 0, "rental_uris": {"android": "https://dc.lft.to/lastmile_qr_scan", "ios": "https://dc.lft.to/lastmile_qr_scan"}, "type": "electric_bike", "lat": 39.01575, "is_reserved": 0, "fusion_lat": 0.0}, {"bike_id": "e77f69cf88d6895c046944d1496acadc", "fusion_lon": 0.0, "lon": -77.03125283333334, "name": "e77f69cf88d6895c046944d1496acadc", "is_disabled": 0, "rental_uris": {"android": "https://dc.lft.to/lastmile_qr_scan", "ios": "https://dc.lft.to/lastmile_qr_scan"}, "type": "electric_scooter", "lat": 38.915550333333336, "is_reserved": 0, "fusion_lat": 0.0}, {"bike_id": "303779b6c630f483778b307b49f033ca", "fusion_lon": 0.0, "lon": -77.034496, "name": "303779b6c630f483778b307b49f033ca", "is_disabled": 0, "rental_uris": {"android": "https://dc.lft.to/lastmile_qr_scan", "ios": "https://dc.lft.to/lastmile_qr_scan"}, "type": "electric_scooter", "lat": 38.9072505, "is_reserved": 0, "fusion_lat": 0.0}, {"bike_id": "3afeb9ea17ed2497a48baefb9fbd81b4", "fusion_lon": 0.0, "lon": -77.03216416666666, "name": "3afeb9ea17ed2497a48baefb9fbd81b4", "is_disabled": 0, "rental_uris": {"android": "https://dc.lft.to/lastmile_qr_scan", "ios": "https://dc.lft.to/lastmile_qr_scan"}, "type": "electric_scooter", "lat": 38.9140065, "is_reserved": 0, "fusion_lat": 0.0}, {"bike_id": "aa91c379b518b18fcb0fc2d3bfbd40fd", "fusion_lon": 0.0, "lon": -76.9987055, "name": "aa91c379b518b18fcb0fc2d3bfbd40fd", "is_disabled": 0, "rental_uris": {"android": "https://dc.lft.to/lastmile_qr_scan", "ios": "https://dc.lft.to/lastmile_qr_scan"}, "type": "electric_scooter", "lat": 38.90028266666667, "is_reserved": 0, "fusion_lat": 0.0}, {"bike_id": "53f25e2e031a5472d8e9d4a7490bb4d9", "fusion_lon": 0.0, "lon": -76.98368966666666, "name": "53f25e2e031a5472d8e9d4a7490bb4d9", "is_disabled": 0, "rental_uris": {"android": "https://dc.lft.to/lastmile_qr_scan", "ios": "https://dc.lft.to/lastmile_qr_scan"}, "type": "electric_bike", "lat": 38.87836166666666, "is_reserved": 0, "fusion_lat": 0.0}, {"bike_id": "36d4903727dd8f0b997d4fc11a799cf9", "fusion_lon": 0.0, "lon": -77.18736833333334, "name": "36d4903727dd8f0b997d4fc11a799cf9", "is_disabled": 0, "rental_uris": {"android": "https://dc.lft.to/lastmile_qr_scan", "ios": "https://dc.lft.to/lastmile_qr_scan"}, "type": "electric_bike", "lat": 38.893553833333335, "is_reserved": 0, "fusion_lat": 0.0}, {"bike_id": "c4f2715eb3eddfeefed919bfd67649cc", "fusion_lon": 0.0, "lon": -76.97728766666667, "name": "c4f2715eb3eddfeefed919bfd67649cc", "is_disabled": 0, "rental_uris": {"android": "https://dc.lft.to/lastmile_qr_scan", "ios": "https://dc.lft.to/lastmile_qr_scan"}, "type": "electric_scooter", "lat": 38.8724425, "is_reserved": 0, "fusion_lat": 0.0}, {"bike_id": "2da883fcc8919863f119a0df0e37e10e", "fusion_lon": 0.0, "lon": -77.04187566666667, "name": "2da883fcc8919863f119a0df0e37e10e", "is_disabled": 0, "rental_uris": {"android": "https://dc.lft.to/lastmile_qr_scan", "ios": "https://dc.lft.to/lastmile_qr_scan"}, "type": "electric_scooter", "lat": 38.92035033333333, "is_reserved": 0, "fusion_lat": 0.0}, {"bike_id": "1038aad021c121acc1693c9e24f8f4aa", "fusion_lon": 0.0, "lon": -77.04135066666667, "name": "1038aad021c121acc1693c9e24f8f4aa", "is_disabled": 0, "rental_uris": {"android": "https://dc.lft.to/lastmile_qr_scan", "ios": "https://dc.lft.to/lastmile_qr_scan"}, "type": "electric_scooter", "lat": 38.92268933333333, "is_reserved": 0, "fusion_lat": 0.0}, {"bike_id": "0a3ae08f62c238f797268632a66174d6", "fusion_lon": 0.0, "lon": -77.04360933333334, "name": "0a3ae08f62c238f797268632a66174d6", "is_disabled": 0, "rental_uris": {"android": "https://dc.lft.to/lastmile_qr_scan", "ios": "https://dc.lft.to/lastmile_qr_scan"}, "type": "electric_scooter", "lat": 38.902643, "is_reserved": 0, "fusion_lat": 0.0}, {"bike_id": "b305091b3886b53c96de26b437521529", "fusion_lon": 0.0, "lon": -77.002062, "name": "b305091b3886b53c96de26b437521529", "is_disabled": 0, "rental_uris": {"android": "https://dc.lft.to/lastmile_qr_scan", "ios": "https://dc.lft.to/lastmile_qr_scan"}, "type": "electric_scooter", "lat": 38.900784, "is_reserved": 0, "fusion_lat": 0.0}, {"bike_id": "aec52622c9f93925775540ce881d4b1e", "fusion_lon": 0.0, "lon": -77.03904116666666, "name": "aec52622c9f93925775540ce881d4b1e", "is_disabled": 0, "rental_uris": {"android": "https://dc.lft.to/lastmile_qr_scan", "ios": "https://dc.lft.to/lastmile_qr_scan"}, "type": "electric_scooter", "lat": 38.922023333333335, "is_reserved": 0, "fusion_lat": 0.0}, {"bike_id": "2357d6f2a21782358ad636b4f35ce132", "fusion_lon": 0.0, "lon": -77.04173716666666, "name": "2357d6f2a21782358ad636b4f35ce132", "is_disabled": 0, "rental_uris": {"android": "https://dc.lft.to/lastmile_qr_scan", "ios": "https://dc.lft.to/lastmile_qr_scan"}, "type": "electric_scooter", "lat": 38.91232566666667, "is_reserved": 0, "fusion_lat": 0.0}, {"bike_id": "5a623a9901339dde0c84460f5615a9bb", "fusion_lon": 0.0, "lon": -76.979716, "name": "5a623a9901339dde0c84460f5615a9bb", "is_disabled": 0, "rental_uris": {"android": "https://dc.lft.to/lastmile_qr_scan", "ios": "https://dc.lft.to/lastmile_qr_scan"}, "type": "electric_bike", "lat": 38.953771, "is_reserved": 0, "fusion_lat": 0.0}, {"bike_id": "8a2dd0ff83478d53b0e1e68156392266", "fusion_lon": 0.0, "lon": -77.03872, "name": "8a2dd0ff83478d53b0e1e68156392266", "is_disabled": 0, "rental_uris": {"android": "https://dc.lft.to/lastmile_qr_scan", "ios": "https://dc.lft.to/lastmile_qr_scan"}, "type": "electric_scooter", "lat": 38.9324345, "is_reserved": 0, "fusion_lat": 0.0}, {"bike_id": "478e9bf55ae0ac8b2d3c293081a89581", "fusion_lon": 0.0, "lon": -77.04042833333334, "name": "478e9bf55ae0ac8b2d3c293081a89581", "is_disabled": 0, "rental_uris": {"android": "https://dc.lft.to/lastmile_qr_scan", "ios": "https://dc.lft.to/lastmile_qr_scan"}, "type": "electric_scooter", "lat": 38.890826833333335, "is_reserved": 0, "fusion_lat": 0.0}, {"bike_id": "0ef18b4c472660fb69e6f0d79c432067", "fusion_lon": 0.0, "lon": -77.01755316666667, "name": "0ef18b4c472660fb69e6f0d79c432067", "is_disabled": 0, "rental_uris": {"android": "https://dc.lft.to/lastmile_qr_scan", "ios": "https://dc.lft.to/lastmile_qr_scan"}, "type": "electric_scooter", "lat": 38.9024915, "is_reserved": 0, "fusion_lat": 0.0}, {"bike_id": "3dc2bd94960f8f431123e0e2eb8a4a02", "fusion_lon": 0.0, "lon": -76.99482833333333, "name": "3dc2bd94960f8f431123e0e2eb8a4a02", "is_disabled": 0, "rental_uris": {"android": "https://dc.lft.to/lastmile_qr_scan", "ios": "https://dc.lft.to/lastmile_qr_scan"}, "type": "electric_scooter", "lat": 38.909865, "is_reserved": 0, "fusion_lat": 0.0}, {"bike_id": "e2ebbf2357608931e747ce89c2815663", "fusion_lon": 0.0, "lon": -77.04136733333333, "name": "e2ebbf2357608931e747ce89c2815663", "is_disabled": 0, "rental_uris": {"android": "https://dc.lft.to/lastmile_qr_scan", "ios": "https://dc.lft.to/lastmile_qr_scan"}, "type": "electric_scooter", "lat": 38.93131416666667, "is_reserved": 0, "fusion_lat": 0.0}, {"bike_id": "76177322ffe0ba12af3033b7cfa64b69", "fusion_lon": 0.0, "lon": -77.008383, "name": "76177322ffe0ba12af3033b7cfa64b69", "is_disabled": 0, "rental_uris": {"android": "https://dc.lft.to/lastmile_qr_scan", "ios": "https://dc.lft.to/lastmile_qr_scan"}, "type": "electric_bike", "lat": 38.82910433333333, "is_reserved": 0, "fusion_lat": 0.0}, {"bike_id": "e3768ad86b30b8ace56cd281ac11f7d6", "fusion_lon": 0.0, "lon": -77.02714283333333, "name": "e3768ad86b30b8ace56cd281ac11f7d6", "is_disabled": 0, "rental_uris": {"android": "https://dc.lft.to/lastmile_qr_scan", "ios": "https://dc.lft.to/lastmile_qr_scan"}, "type": "electric_scooter", "lat": 38.9066865, "is_reserved": 0, "fusion_lat": 0.0}, {"bike_id": "034e096649ed46b308aa376c109d5037", "fusion_lon": 0.0, "lon": -76.93343733333333, "name": "034e096649ed46b308aa376c109d5037", "is_disabled": 0, "rental_uris": {"android": "https://dc.lft.to/lastmile_qr_scan", "ios": "https://dc.lft.to/lastmile_qr_scan"}, "type": "electric_scooter", "lat": 38.89910366666667, "is_reserved": 0, "fusion_lat": 0.0}, {"bike_id": "59a07d3f66f1d611a36acacfdae6268c", "fusion_lon": 0.0, "lon": -76.96600666666667, "name": "59a07d3f66f1d611a36acacfdae6268c", "is_disabled": 0, "rental_uris": {"android": "https://dc.lft.to/lastmile_qr_scan", "ios": "https://dc.lft.to/lastmile_qr_scan"}, "type": "electric_scooter", "lat": 38.87390216666667, "is_reserved": 0, "fusion_lat": 0.0}, {"bike_id": "a8fec5849af92f0426834794839dbdff", "fusion_lon": 0.0, "lon": -77.03209666666666, "name": "a8fec5849af92f0426834794839dbdff", "is_disabled": 0, "rental_uris": {"android": "https://dc.lft.to/lastmile_qr_scan", "ios": "https://dc.lft.to/lastmile_qr_scan"}, "type": "electric_scooter", "lat": 38.89973166666667, "is_reserved": 0, "fusion_lat": 0.0}, {"bike_id": "38ca787425126457622514fe9e578b47", "fusion_lon": 0.0, "lon": -77.0341835, "name": "38ca787425126457622514fe9e578b47", "is_disabled": 0, "rental_uris": {"android": "https://dc.lft.to/lastmile_qr_scan", "ios": "https://dc.lft.to/lastmile_qr_scan"}, "type": "electric_scooter", "lat": 38.90433183333333, "is_reserved": 0, "fusion_lat": 0.0}, {"bike_id": "92d455af12121f84dbae1e2661a13928", "fusion_lon": 0.0, "lon": -77.0233705, "name": "92d455af12121f84dbae1e2661a13928", "is_disabled": 0, "rental_uris": {"android": "https://dc.lft.to/lastmile_qr_scan", "ios": "https://dc.lft.to/lastmile_qr_scan"}, "type": "electric_scooter", "lat": 38.9167115, "is_reserved": 0, "fusion_lat": 0.0}, {"bike_id": "4331faad4a0d6965ed9186e247ebb519", "fusion_lon": 0.0, "lon": -77.03676816666666, "name": "4331faad4a0d6965ed9186e247ebb519", "is_disabled": 0, "rental_uris": {"android": "https://dc.lft.to/lastmile_qr_scan", "ios": "https://dc.lft.to/lastmile_qr_scan"}, "type": "electric_scooter", "lat": 38.91873233333333, "is_reserved": 0, "fusion_lat": 0.0}, {"bike_id": "1ffb5ac03a7474d1eb59b5f1a3b0b44c", "fusion_lon": 0.0, "lon": -77.00223933333334, "name": "1ffb5ac03a7474d1eb59b5f1a3b0b44c", "is_disabled": 0, "rental_uris": {"android": "https://dc.lft.to/lastmile_qr_scan", "ios": "https://dc.lft.to/lastmile_qr_scan"}, "type": "electric_scooter", "lat": 38.92510733333334, "is_reserved": 0, "fusion_lat": 0.0}, {"bike_id": "51944b65b9427c9b4755ee73e45d69b5", "fusion_lon": 0.0, "lon": -77.04166316666667, "name": "51944b65b9427c9b4755ee73e45d69b5", "is_disabled": 0, "rental_uris": {"android": "https://dc.lft.to/lastmile_qr_scan", "ios": "https://dc.lft.to/lastmile_qr_scan"}, "type": "electric_scooter", "lat": 38.90349583333333, "is_reserved": 0, "fusion_lat": 0.0}, {"bike_id": "4d5ed5bf46f3d4173c1ccfe899b8f6b0", "fusion_lon": 0.0, "lon": -77.02780483333333, "name": "4d5ed5bf46f3d4173c1ccfe899b8f6b0", "is_disabled": 0, "rental_uris": {"android": "https://dc.lft.to/lastmile_qr_scan", "ios": "https://dc.lft.to/lastmile_qr_scan"}, "type": "electric_scooter", "lat": 38.892200333333335, "is_reserved": 0, "fusion_lat": 0.0}, {"bike_id": "8f511039a7feda9c49e75f554f46662f", "fusion_lon": 0.0, "lon": -77.03088366666667, "name": "8f511039a7feda9c49e75f554f46662f", "is_disabled": 0, "rental_uris": {"android": "https://dc.lft.to/lastmile_qr_scan", "ios": "https://dc.lft.to/lastmile_qr_scan"}, "type": "electric_scooter", "lat": 38.937607, "is_reserved": 0, "fusion_lat": 0.0}, {"bike_id": "7717355447466369c6ccb5cc6c379140", "fusion_lon": 0.0, "lon": -77.04613116666667, "name": "7717355447466369c6ccb5cc6c379140", "is_disabled": 0, "rental_uris": {"android": "https://dc.lft.to/lastmile_qr_scan", "ios": "https://dc.lft.to/lastmile_qr_scan"}, "type": "electric_scooter", "lat": 38.9193075, "is_reserved": 0, "fusion_lat": 0.0}, {"bike_id": "cb17cc63807c859850414bd278a51377", "fusion_lon": 0.0, "lon": -76.98356183333334, "name": "cb17cc63807c859850414bd278a51377", "is_disabled": 0, "rental_uris": {"android": "https://dc.lft.to/lastmile_qr_scan", "ios": "https://dc.lft.to/lastmile_qr_scan"}, "type": "electric_scooter", "lat": 38.885865833333334, "is_reserved": 0, "fusion_lat": 0.0}, {"bike_id": "9df61c24c5d0dda0d02674c646d8f705", "fusion_lon": 0.0, "lon": -77.02788716666667, "name": "9df61c24c5d0dda0d02674c646d8f705", "is_disabled": 0, "rental_uris": {"android": "https://dc.lft.to/lastmile_qr_scan", "ios": "https://dc.lft.to/lastmile_qr_scan"}, "type": "electric_scooter", "lat": 38.929701, "is_reserved": 0, "fusion_lat": 0.0}, {"bike_id": "e7a8f0dc3477adbd8b56a9f9386935a7", "fusion_lon": 0.0, "lon": -77.00196716666666, "name": "e7a8f0dc3477adbd8b56a9f9386935a7", "is_disabled": 0, "rental_uris": {"android": "https://dc.lft.to/lastmile_qr_scan", "ios": "https://dc.lft.to/lastmile_qr_scan"}, "type": "electric_scooter", "lat": 38.90239483333333, "is_reserved": 0, "fusion_lat": 0.0}, {"bike_id": "17cd42756645177de14bc0c5b99fa4f9", "fusion_lon": 0.0, "lon": -76.93643366666667, "name": "17cd42756645177de14bc0c5b99fa4f9", "is_disabled": 0, "rental_uris": {"android": "https://dc.lft.to/lastmile_qr_scan", "ios": "https://dc.lft.to/lastmile_qr_scan"}, "type": "electric_bike", "lat": 38.871526333333335, "is_reserved": 0, "fusion_lat": 0.0}, {"bike_id": "37c602928235ea20f61014fa211f8b55", "fusion_lon": 0.0, "lon": -77.00633466666666, "name": "37c602928235ea20f61014fa211f8b55", "is_disabled": 0, "rental_uris": {"android": "https://dc.lft.to/lastmile_qr_scan", "ios": "https://dc.lft.to/lastmile_qr_scan"}, "type": "electric_bike", "lat": 38.94836816666667, "is_reserved": 0, "fusion_lat": 0.0}, {"bike_id": "b57eac22b11c21e506f9110e3434572d", "fusion_lon": 0.0, "lon": -76.9686355, "name": "b57eac22b11c21e506f9110e3434572d", "is_disabled": 0, "rental_uris": {"android": "https://dc.lft.to/lastmile_qr_scan", "ios": "https://dc.lft.to/lastmile_qr_scan"}, "type": "electric_scooter", "lat": 38.870971, "is_reserved": 0, "fusion_lat": 0.0}, {"bike_id": "1e88ce144c2003756fae5d28c6d27954", "fusion_lon": 0.0, "lon": -77.04824383333333, "name": "1e88ce144c2003756fae5d28c6d27954", "is_disabled": 0, "rental_uris": {"android": "https://dc.lft.to/lastmile_qr_scan", "ios": "https://dc.lft.to/lastmile_qr_scan"}, "type": "electric_scooter", "lat": 38.8889055, "is_reserved": 0, "fusion_lat": 0.0}, {"bike_id": "6cee7eb4a82f64c3cff3ab29c6f20759", "fusion_lon": 0.0, "lon": -77.03446483333333, "name": "6cee7eb4a82f64c3cff3ab29c6f20759", "is_disabled": 0, "rental_uris": {"android": "https://dc.lft.to/lastmile_qr_scan", "ios": "https://dc.lft.to/lastmile_qr_scan"}, "type": "electric_scooter", "lat": 38.907363833333335, "is_reserved": 0, "fusion_lat": 0.0}, {"bike_id": "5d80601de663d1dda52dd4dcb85c384d", "fusion_lon": 0.0, "lon": -77.03699683333333, "name": "5d80601de663d1dda52dd4dcb85c384d", "is_disabled": 0, "rental_uris": {"android": "https://dc.lft.to/lastmile_qr_scan", "ios": "https://dc.lft.to/lastmile_qr_scan"}, "type": "electric_scooter", "lat": 38.916540833333336, "is_reserved": 0, "fusion_lat": 0.0}, {"bike_id": "2d737f4744ff922203395864fd3ced2b", "fusion_lon": 0.0, "lon": -77.02941133333333, "name": "2d737f4744ff922203395864fd3ced2b", "is_disabled": 0, "rental_uris": {"android": "https://dc.lft.to/lastmile_qr_scan", "ios": "https://dc.lft.to/lastmile_qr_scan"}, "type": "electric_scooter", "lat": 38.905061333333336, "is_reserved": 0, "fusion_lat": 0.0}, {"bike_id": "55bb4b61048fd544f4fd8817ed287d2f", "fusion_lon": 0.0, "lon": -77.03017833333334, "name": "55bb4b61048fd544f4fd8817ed287d2f", "is_disabled": 0, "rental_uris": {"android": "https://dc.lft.to/lastmile_qr_scan", "ios": "https://dc.lft.to/lastmile_qr_scan"}, "type": "electric_scooter", "lat": 38.8961315, "is_reserved": 0, "fusion_lat": 0.0}, {"bike_id": "a76dad9bf8598581fc08447f15afc37e", "fusion_lon": 0.0, "lon": -77.05325116666667, "name": "a76dad9bf8598581fc08447f15afc37e", "is_disabled": 0, "rental_uris": {"android": "https://dc.lft.to/lastmile_qr_scan", "ios": "https://dc.lft.to/lastmile_qr_scan"}, "type": "electric_scooter", "lat": 38.9279635, "is_reserved": 0, "fusion_lat": 0.0}, {"bike_id": "2d12615f218a33817ef7cd06a6f94965", "fusion_lon": 0.0, "lon": -76.99777683333333, "name": "2d12615f218a33817ef7cd06a6f94965", "is_disabled": 0, "rental_uris": {"android": "https://dc.lft.to/lastmile_qr_scan", "ios": "https://dc.lft.to/lastmile_qr_scan"}, "type": "electric_bike", "lat": 38.862118333333335, "is_reserved": 0, "fusion_lat": 0.0}, {"bike_id": "c598cf1e32b0409e532820c7a94e4574", "fusion_lon": 0.0, "lon": -77.01839066666666, "name": "c598cf1e32b0409e532820c7a94e4574", "is_disabled": 0, "rental_uris": {"android": "https://dc.lft.to/lastmile_qr_scan", "ios": "https://dc.lft.to/lastmile_qr_scan"}, "type": "electric_scooter", "lat": 38.9004225, "is_reserved": 0, "fusion_lat": 0.0}, {"bike_id": "713ed5816b2fa507416b5220a38511c1", "fusion_lon": 0.0, "lon": -76.98521983333333, "name": "713ed5816b2fa507416b5220a38511c1", "is_disabled": 0, "rental_uris": {"android": "https://dc.lft.to/lastmile_qr_scan", "ios": "https://dc.lft.to/lastmile_qr_scan"}, "type": "electric_scooter", "lat": 38.86655783333333, "is_reserved": 0, "fusion_lat": 0.0}, {"bike_id": "26de246c7e49ec8ef10c0931ce9baeff", "fusion_lon": 0.0, "lon": -77.023807, "name": "26de246c7e49ec8ef10c0931ce9baeff", "is_disabled": 0, "rental_uris": {"android": "https://dc.lft.to/lastmile_qr_scan", "ios": "https://dc.lft.to/lastmile_qr_scan"}, "type": "electric_scooter", "lat": 38.901961166666666, "is_reserved": 0, "fusion_lat": 0.0}, {"bike_id": "7f9271687c700b80ce3ec66e978c0485", "fusion_lon": 0.0, "lon": -77.05313783333334, "name": "7f9271687c700b80ce3ec66e978c0485", "is_disabled": 0, "rental_uris": {"android": "https://dc.lft.to/lastmile_qr_scan", "ios": "https://dc.lft.to/lastmile_qr_scan"}, "type": "electric_scooter", "lat": 38.90269716666667, "is_reserved": 0, "fusion_lat": 0.0}, {"bike_id": "20f161fb9951772cd1ffa15fcfc337d9", "fusion_lon": 0.0, "lon": -77.0377695, "name": "20f161fb9951772cd1ffa15fcfc337d9", "is_disabled": 0, "rental_uris": {"android": "https://dc.lft.to/lastmile_qr_scan", "ios": "https://dc.lft.to/lastmile_qr_scan"}, "type": "electric_scooter", "lat": 38.925068333333336, "is_reserved": 0, "fusion_lat": 0.0}, {"bike_id": "1b6a1719d465e33838279d34cab1498c", "fusion_lon": 0.0, "lon": -77.0347545, "name": "1b6a1719d465e33838279d34cab1498c", "is_disabled": 0, "rental_uris": {"android": "https://dc.lft.to/lastmile_qr_scan", "ios": "https://dc.lft.to/lastmile_qr_scan"}, "type": "electric_bike", "lat": 38.93533216666667, "is_reserved": 0, "fusion_lat": 0.0}, {"bike_id": "641eb616a75714587052cd833150cf49", "fusion_lon": 0.0, "lon": -76.99428333333333, "name": "641eb616a75714587052cd833150cf49", "is_disabled": 0, "rental_uris": {"android": "https://dc.lft.to/lastmile_qr_scan", "ios": "https://dc.lft.to/lastmile_qr_scan"}, "type": "electric_scooter", "lat": 38.903191, "is_reserved": 0, "fusion_lat": 0.0}, {"bike_id": "f6164f824932e9c59a986a027b9c6b98", "fusion_lon": 0.0, "lon": -77.02976933333333, "name": "f6164f824932e9c59a986a027b9c6b98", "is_disabled": 0, "rental_uris": {"android": "https://dc.lft.to/lastmile_qr_scan", "ios": "https://dc.lft.to/lastmile_qr_scan"}, "type": "electric_scooter", "lat": 38.88415283333333, "is_reserved": 0, "fusion_lat": 0.0}, {"bike_id": "ea4be3d847ddfb28dcc839a888c3842d", "fusion_lon": 0.0, "lon": -77.03795616666666, "name": "ea4be3d847ddfb28dcc839a888c3842d", "is_disabled": 0, "rental_uris": {"android": "https://dc.lft.to/lastmile_qr_scan", "ios": "https://dc.lft.to/lastmile_qr_scan"}, "type": "electric_scooter", "lat": 38.925074333333335, "is_reserved": 0, "fusion_lat": 0.0}, {"bike_id": "ebc5d90814ea09659f3480c5f4e0d4a6", "fusion_lon": 0.0, "lon": -77.03208433333333, "name": "ebc5d90814ea09659f3480c5f4e0d4a6", "is_disabled": 0, "rental_uris": {"android": "https://dc.lft.to/lastmile_qr_scan", "ios": "https://dc.lft.to/lastmile_qr_scan"}, "type": "electric_scooter", "lat": 38.914681333333334, "is_reserved": 0, "fusion_lat": 0.0}, {"bike_id": "bd9e73b70a4a77b3ae85eaa4ce7215f2", "fusion_lon": 0.0, "lon": -76.9882525, "name": "bd9e73b70a4a77b3ae85eaa4ce7215f2", "is_disabled": 0, "rental_uris": {"android": "https://dc.lft.to/lastmile_qr_scan", "ios": "https://dc.lft.to/lastmile_qr_scan"}, "type": "electric_scooter", "lat": 38.900302833333335, "is_reserved": 0, "fusion_lat": 0.0}, {"bike_id": "a7ac693576643bbf87c7914dde2ef6e0", "fusion_lon": 0.0, "lon": -77.01669183333334, "name": "a7ac693576643bbf87c7914dde2ef6e0", "is_disabled": 0, "rental_uris": {"android": "https://dc.lft.to/lastmile_qr_scan", "ios": "https://dc.lft.to/lastmile_qr_scan"}, "type": "electric_scooter", "lat": 38.88110733333333, "is_reserved": 0, "fusion_lat": 0.0}, {"bike_id": "d42e7ef9cb36e98b71066c5a3b29df8b", "fusion_lon": 0.0, "lon": -77.100895, "name": "d42e7ef9cb36e98b71066c5a3b29df8b", "is_disabled": 0, "rental_uris": {"android": "https://dc.lft.to/lastmile_qr_scan", "ios": "https://dc.lft.to/lastmile_qr_scan"}, "type": "electric_bike", "lat": 38.959565833333336, "is_reserved": 0, "fusion_lat": 0.0}, {"bike_id": "431e49531f9e8f4750b0ef007a91934b", "fusion_lon": 0.0, "lon": -77.02319483333333, "name": "431e49531f9e8f4750b0ef007a91934b", "is_disabled": 0, "rental_uris": {"android": "https://dc.lft.to/lastmile_qr_scan", "ios": "https://dc.lft.to/lastmile_qr_scan"}, "type": "electric_scooter", "lat": 38.92770316666667, "is_reserved": 0, "fusion_lat": 0.0}, {"bike_id": "2e7f245abb82cc43bd567ccc98acbd6b", "fusion_lon": 0.0, "lon": -77.0272335, "name": "2e7f245abb82cc43bd567ccc98acbd6b", "is_disabled": 0, "rental_uris": {"android": "https://dc.lft.to/lastmile_qr_scan", "ios": "https://dc.lft.to/lastmile_qr_scan"}, "type": "electric_scooter", "lat": 38.940912, "is_reserved": 0, "fusion_lat": 0.0}, {"bike_id": "15f84251daed9f862dfeef670f5d33ae", "fusion_lon": 0.0, "lon": -77.035752, "name": "15f84251daed9f862dfeef670f5d33ae", "is_disabled": 0, "rental_uris": {"android": "https://dc.lft.to/lastmile_qr_scan", "ios": "https://dc.lft.to/lastmile_qr_scan"}, "type": "electric_scooter", "lat": 38.9280015, "is_reserved": 0, "fusion_lat": 0.0}, {"bike_id": "63cfb4d5c51786d7464ecdc112ad0f9a", "fusion_lon": 0.0, "lon": -77.0488675, "name": "63cfb4d5c51786d7464ecdc112ad0f9a", "is_disabled": 0, "rental_uris": {"android": "https://dc.lft.to/lastmile_qr_scan", "ios": "https://dc.lft.to/lastmile_qr_scan"}, "type": "electric_scooter", "lat": 38.900656166666664, "is_reserved": 0, "fusion_lat": 0.0}, {"bike_id": "d6a471e78df23955080c4f24b83ca210", "fusion_lon": 0.0, "lon": -77.00213266666667, "name": "d6a471e78df23955080c4f24b83ca210", "is_disabled": 0, "rental_uris": {"android": "https://dc.lft.to/lastmile_qr_scan", "ios": "https://dc.lft.to/lastmile_qr_scan"}, "type": "electric_scooter", "lat": 38.90783116666667, "is_reserved": 0, "fusion_lat": 0.0}, {"bike_id": "c3f44f6ea5740a6ed5f2542c846fe388", "fusion_lon": 0.0, "lon": -77.03544866666667, "name": "c3f44f6ea5740a6ed5f2542c846fe388", "is_disabled": 0, "rental_uris": {"android": "https://dc.lft.to/lastmile_qr_scan", "ios": "https://dc.lft.to/lastmile_qr_scan"}, "type": "electric_scooter", "lat": 38.92473916666667, "is_reserved": 0, "fusion_lat": 0.0}, {"bike_id": "cc5e959873352d17d9d0bc328458293d", "fusion_lon": 0.0, "lon": -77.02434516666666, "name": "cc5e959873352d17d9d0bc328458293d", "is_disabled": 0, "rental_uris": {"android": "https://dc.lft.to/lastmile_qr_scan", "ios": "https://dc.lft.to/lastmile_qr_scan"}, "type": "electric_bike", "lat": 38.94833366666667, "is_reserved": 0, "fusion_lat": 0.0}, {"bike_id": "f418f3323399d709a20238904bf51372", "fusion_lon": 0.0, "lon": -77.032555, "name": "f418f3323399d709a20238904bf51372", "is_disabled": 0, "rental_uris": {"android": "https://dc.lft.to/lastmile_qr_scan", "ios": "https://dc.lft.to/lastmile_qr_scan"}, "type": "electric_scooter", "lat": 38.91631833333334, "is_reserved": 0, "fusion_lat": 0.0}, {"bike_id": "6cec263a260b4f06a0539955a022f9f8", "fusion_lon": 0.0, "lon": -77.02701033333334, "name": "6cec263a260b4f06a0539955a022f9f8", "is_disabled": 0, "rental_uris": {"android": "https://dc.lft.to/lastmile_qr_scan", "ios": "https://dc.lft.to/lastmile_qr_scan"}, "type": "electric_scooter", "lat": 38.917978833333336, "is_reserved": 0, "fusion_lat": 0.0}, {"bike_id": "d9f2276947e1aa8b60dc47ec8d852fb6", "fusion_lon": 0.0, "lon": -77.043241, "name": "d9f2276947e1aa8b60dc47ec8d852fb6", "is_disabled": 0, "rental_uris": {"android": "https://dc.lft.to/lastmile_qr_scan", "ios": "https://dc.lft.to/lastmile_qr_scan"}, "type": "electric_scooter", "lat": 38.89223533333333, "is_reserved": 0, "fusion_lat": 0.0}, {"bike_id": "4eab96eb3e0ffcca6699ca49ddce188b", "fusion_lon": 0.0, "lon": -77.04179533333334, "name": "4eab96eb3e0ffcca6699ca49ddce188b", "is_disabled": 0, "rental_uris": {"android": "https://dc.lft.to/lastmile_qr_scan", "ios": "https://dc.lft.to/lastmile_qr_scan"}, "type": "electric_scooter", "lat": 38.9035355, "is_reserved": 0, "fusion_lat": 0.0}, {"bike_id": "4df2d7b8877ee9ef29cb750ef6e869ab", "fusion_lon": 0.0, "lon": -77.046923, "name": "4df2d7b8877ee9ef29cb750ef6e869ab", "is_disabled": 0, "rental_uris": {"android": "https://dc.lft.to/lastmile_qr_scan", "ios": "https://dc.lft.to/lastmile_qr_scan"}, "type": "electric_scooter", "lat": 38.909709166666666, "is_reserved": 0, "fusion_lat": 0.0}, {"bike_id": "4bb8e44c6a138c0295b9bf55c96b9e04", "fusion_lon": 0.0, "lon": -77.01875616666666, "name": "4bb8e44c6a138c0295b9bf55c96b9e04", "is_disabled": 0, "rental_uris": {"android": "https://dc.lft.to/lastmile_qr_scan", "ios": "https://dc.lft.to/lastmile_qr_scan"}, "type": "electric_scooter", "lat": 38.90438983333333, "is_reserved": 0, "fusion_lat": 0.0}, {"bike_id": "65653444a66334639e33f7af61dd8a90", "fusion_lon": 0.0, "lon": -77.026849, "name": "65653444a66334639e33f7af61dd8a90", "is_disabled": 0, "rental_uris": {"android": "https://dc.lft.to/lastmile_qr_scan", "ios": "https://dc.lft.to/lastmile_qr_scan"}, "type": "electric_scooter", "lat": 38.912700666666666, "is_reserved": 0, "fusion_lat": 0.0}, {"bike_id": "b92cdd1c20e1cde9e96bfe96b8177592", "fusion_lon": 0.0, "lon": -77.03222033333333, "name": "b92cdd1c20e1cde9e96bfe96b8177592", "is_disabled": 0, "rental_uris": {"android": "https://dc.lft.to/lastmile_qr_scan", "ios": "https://dc.lft.to/lastmile_qr_scan"}, "type": "electric_scooter", "lat": 38.9615915, "is_reserved": 0, "fusion_lat": 0.0}, {"bike_id": "cecfda2a0f9e11317503836aa984b6dd", "fusion_lon": 0.0, "lon": -76.97184516666667, "name": "cecfda2a0f9e11317503836aa984b6dd", "is_disabled": 0, "rental_uris": {"android": "https://dc.lft.to/lastmile_qr_scan", "ios": "https://dc.lft.to/lastmile_qr_scan"}, "type": "electric_bike", "lat": 38.91644683333333, "is_reserved": 0, "fusion_lat": 0.0}, {"bike_id": "cec0deed577d217303460401d5470161", "fusion_lon": 0.0, "lon": -77.23317683333333, "name": "cec0deed577d217303460401d5470161", "is_disabled": 0, "rental_uris": {"android": "https://dc.lft.to/lastmile_qr_scan", "ios": "https://dc.lft.to/lastmile_qr_scan"}, "type": "electric_bike", "lat": 38.872874, "is_reserved": 0, "fusion_lat": 0.0}, {"bike_id": "1d24a8a858ecd915bd9ffbc993e07217", "fusion_lon": 0.0, "lon": -77.02946983333334, "name": "1d24a8a858ecd915bd9ffbc993e07217", "is_disabled": 0, "rental_uris": {"android": "https://dc.lft.to/lastmile_qr_scan", "ios": "https://dc.lft.to/lastmile_qr_scan"}, "type": "electric_scooter", "lat": 38.90732716666667, "is_reserved": 0, "fusion_lat": 0.0}, {"bike_id": "651e603edd25700a5fba26492441ea24", "fusion_lon": 0.0, "lon": -77.02719, "name": "651e603edd25700a5fba26492441ea24", "is_disabled": 0, "rental_uris": {"android": "https://dc.lft.to/lastmile_qr_scan", "ios": "https://dc.lft.to/lastmile_qr_scan"}, "type": "electric_scooter", "lat": 38.92481316666667, "is_reserved": 0, "fusion_lat": 0.0}, {"bike_id": "cc8e2eea93aeac57201963631f647ef1", "fusion_lon": 0.0, "lon": -77.0176335, "name": "cc8e2eea93aeac57201963631f647ef1", "is_disabled": 0, "rental_uris": {"android": "https://dc.lft.to/lastmile_qr_scan", "ios": "https://dc.lft.to/lastmile_qr_scan"}, "type": "electric_bike", "lat": 38.8787825, "is_reserved": 0, "fusion_lat": 0.0}, {"bike_id": "b19713f586fa02e989e12d5e0353249f", "fusion_lon": 0.0, "lon": -77.003536, "name": "b19713f586fa02e989e12d5e0353249f", "is_disabled": 0, "rental_uris": {"android": "https://dc.lft.to/lastmile_qr_scan", "ios": "https://dc.lft.to/lastmile_qr_scan"}, "type": "electric_scooter", "lat": 38.901424166666665, "is_reserved": 0, "fusion_lat": 0.0}, {"bike_id": "d23743093e186863a825a5743e71faad", "fusion_lon": 0.0, "lon": -77.04325183333333, "name": "d23743093e186863a825a5743e71faad", "is_disabled": 0, "rental_uris": {"android": "https://dc.lft.to/lastmile_qr_scan", "ios": "https://dc.lft.to/lastmile_qr_scan"}, "type": "electric_scooter", "lat": 38.89227316666667, "is_reserved": 0, "fusion_lat": 0.0}, {"bike_id": "1879f32fdccf0f930d364d2d56b32029", "fusion_lon": 0.0, "lon": -77.04332833333333, "name": "1879f32fdccf0f930d364d2d56b32029", "is_disabled": 0, "rental_uris": {"android": "https://dc.lft.to/lastmile_qr_scan", "ios": "https://dc.lft.to/lastmile_qr_scan"}, "type": "electric_scooter", "lat": 38.908824833333334, "is_reserved": 0, "fusion_lat": 0.0}, {"bike_id": "f9da9468758ef2af382947d0ef06f4e1", "fusion_lon": 0.0, "lon": -77.0217095, "name": "f9da9468758ef2af382947d0ef06f4e1", "is_disabled": 0, "rental_uris": {"android": "https://dc.lft.to/lastmile_qr_scan", "ios": "https://dc.lft.to/lastmile_qr_scan"}, "type": "electric_scooter", "lat": 38.883322, "is_reserved": 0, "fusion_lat": 0.0}, {"bike_id": "dd99224563c6b2008369e69c5040f9da", "fusion_lon": 0.0, "lon": -76.937513, "name": "dd99224563c6b2008369e69c5040f9da", "is_disabled": 0, "rental_uris": {"android": "https://dc.lft.to/lastmile_qr_scan", "ios": "https://dc.lft.to/lastmile_qr_scan"}, "type": "electric_scooter", "lat": 38.89046333333334, "is_reserved": 0, "fusion_lat": 0.0}, {"bike_id": "97622226e6305b297aa9257c286f6498", "fusion_lon": 0.0, "lon": -77.2444515, "name": "97622226e6305b297aa9257c286f6498", "is_disabled": 0, "rental_uris": {"android": "https://dc.lft.to/lastmile_qr_scan", "ios": "https://dc.lft.to/lastmile_qr_scan"}, "type": "electric_bike", "lat": 38.8819355, "is_reserved": 0, "fusion_lat": 0.0}, {"bike_id": "54ad4cb4d2e8772445d3ecd53aa03573", "fusion_lon": 0.0, "lon": -77.03950916666666, "name": "54ad4cb4d2e8772445d3ecd53aa03573", "is_disabled": 0, "rental_uris": {"android": "https://dc.lft.to/lastmile_qr_scan", "ios": "https://dc.lft.to/lastmile_qr_scan"}, "type": "electric_scooter", "lat": 38.902451166666665, "is_reserved": 0, "fusion_lat": 0.0}, {"bike_id": "6435b755ba36502b491437cc5b87ef9d", "fusion_lon": 0.0, "lon": -76.99553266666666, "name": "6435b755ba36502b491437cc5b87ef9d", "is_disabled": 0, "rental_uris": {"android": "https://dc.lft.to/lastmile_qr_scan", "ios": "https://dc.lft.to/lastmile_qr_scan"}, "type": "electric_scooter", "lat": 38.88266, "is_reserved": 0, "fusion_lat": 0.0}, {"bike_id": "51e91a6fb2f0780ab30a4477d9afaf50", "fusion_lon": 0.0, "lon": -76.9830835, "name": "51e91a6fb2f0780ab30a4477d9afaf50", "is_disabled": 0, "rental_uris": {"android": "https://dc.lft.to/lastmile_qr_scan", "ios": "https://dc.lft.to/lastmile_qr_scan"}, "type": "electric_scooter", "lat": 38.86886466666667, "is_reserved": 0, "fusion_lat": 0.0}, {"bike_id": "f7e0783ab8b122997bc1456a2ec706f2", "fusion_lon": 0.0, "lon": -76.98512233333334, "name": "f7e0783ab8b122997bc1456a2ec706f2", "is_disabled": 0, "rental_uris": {"android": "https://dc.lft.to/lastmile_qr_scan", "ios": "https://dc.lft.to/lastmile_qr_scan"}, "type": "electric_scooter", "lat": 38.86660166666667, "is_reserved": 0, "fusion_lat": 0.0}, {"bike_id": "164b90f7eceb13af96792c86b20a0b08", "fusion_lon": 0.0, "lon": -76.99776733333333, "name": "164b90f7eceb13af96792c86b20a0b08", "is_disabled": 0, "rental_uris": {"android": "https://dc.lft.to/lastmile_qr_scan", "ios": "https://dc.lft.to/lastmile_qr_scan"}, "type": "electric_scooter", "lat": 38.844273666666666, "is_reserved": 0, "fusion_lat": 0.0}, {"bike_id": "d8abd49750550097c0a69a7f896fb675", "fusion_lon": 0.0, "lon": -77.04348283333333, "name": "d8abd49750550097c0a69a7f896fb675", "is_disabled": 0, "rental_uris": {"android": "https://dc.lft.to/lastmile_qr_scan", "ios": "https://dc.lft.to/lastmile_qr_scan"}, "type": "electric_scooter", "lat": 38.92155016666667, "is_reserved": 0, "fusion_lat": 0.0}, {"bike_id": "83fa8783f009a66dfc6eea45e9d511a6", "fusion_lon": 0.0, "lon": -77.02701316666666, "name": "83fa8783f009a66dfc6eea45e9d511a6", "is_disabled": 0, "rental_uris": {"android": "https://dc.lft.to/lastmile_qr_scan", "ios": "https://dc.lft.to/lastmile_qr_scan"}, "type": "electric_scooter", "lat": 38.89602766666667, "is_reserved": 0, "fusion_lat": 0.0}, {"bike_id": "e90061f30321570396db9afb16368b49", "fusion_lon": 0.0, "lon": -77.02938883333333, "name": "e90061f30321570396db9afb16368b49", "is_disabled": 0, "rental_uris": {"android": "https://dc.lft.to/lastmile_qr_scan", "ios": "https://dc.lft.to/lastmile_qr_scan"}, "type": "electric_scooter", "lat": 38.90494533333333, "is_reserved": 0, "fusion_lat": 0.0}, {"bike_id": "0948ea33e73312d1d0b80b5bc858d202", "fusion_lon": 0.0, "lon": -77.030467, "name": "0948ea33e73312d1d0b80b5bc858d202", "is_disabled": 0, "rental_uris": {"android": "https://dc.lft.to/lastmile_qr_scan", "ios": "https://dc.lft.to/lastmile_qr_scan"}, "type": "electric_scooter", "lat": 38.88407333333333, "is_reserved": 0, "fusion_lat": 0.0}, {"bike_id": "dabb12263603f098e632cd7891873d20", "fusion_lon": 0.0, "lon": -77.0416285, "name": "dabb12263603f098e632cd7891873d20", "is_disabled": 0, "rental_uris": {"android": "https://dc.lft.to/lastmile_qr_scan", "ios": "https://dc.lft.to/lastmile_qr_scan"}, "type": "electric_scooter", "lat": 38.91650666666666, "is_reserved": 0, "fusion_lat": 0.0}, {"bike_id": "0379c6c495562b04f344a6087bd96392", "fusion_lon": 0.0, "lon": -76.98274266666667, "name": "0379c6c495562b04f344a6087bd96392", "is_disabled": 0, "rental_uris": {"android": "https://dc.lft.to/lastmile_qr_scan", "ios": "https://dc.lft.to/lastmile_qr_scan"}, "type": "electric_scooter", "lat": 38.904303, "is_reserved": 0, "fusion_lat": 0.0}, {"bike_id": "2a05e5e488be28f6ee56ecbb4243fec5", "fusion_lon": 0.0, "lon": -77.02254833333333, "name": "2a05e5e488be28f6ee56ecbb4243fec5", "is_disabled": 0, "rental_uris": {"android": "https://dc.lft.to/lastmile_qr_scan", "ios": "https://dc.lft.to/lastmile_qr_scan"}, "type": "electric_scooter", "lat": 38.923089, "is_reserved": 0, "fusion_lat": 0.0}, {"bike_id": "9174945f6e5464aeab8661c45b48a52f", "fusion_lon": 0.0, "lon": -77.0236715, "name": "9174945f6e5464aeab8661c45b48a52f", "is_disabled": 0, "rental_uris": {"android": "https://dc.lft.to/lastmile_qr_scan", "ios": "https://dc.lft.to/lastmile_qr_scan"}, "type": "electric_scooter", "lat": 38.902012166666665, "is_reserved": 0, "fusion_lat": 0.0}, {"bike_id": "37ff5a211573949cc35f898afb7946b7", "fusion_lon": 0.0, "lon": -77.02763883333333, "name": "37ff5a211573949cc35f898afb7946b7", "is_disabled": 0, "rental_uris": {"android": "https://dc.lft.to/lastmile_qr_scan", "ios": "https://dc.lft.to/lastmile_qr_scan"}, "type": "electric_scooter", "lat": 38.95425933333333, "is_reserved": 0, "fusion_lat": 0.0}, {"bike_id": "b4171c7aea2496fc84e115c15dc3dd8f", "fusion_lon": 0.0, "lon": -77.04443116666667, "name": "b4171c7aea2496fc84e115c15dc3dd8f", "is_disabled": 0, "rental_uris": {"android": "https://dc.lft.to/lastmile_qr_scan", "ios": "https://dc.lft.to/lastmile_qr_scan"}, "type": "electric_scooter", "lat": 38.9302025, "is_reserved": 0, "fusion_lat": 0.0}, {"bike_id": "a172fcf2b993a8e904f42570d4033360", "fusion_lon": 0.0, "lon": -77.02939, "name": "a172fcf2b993a8e904f42570d4033360", "is_disabled": 0, "rental_uris": {"android": "https://dc.lft.to/lastmile_qr_scan", "ios": "https://dc.lft.to/lastmile_qr_scan"}, "type": "electric_scooter", "lat": 38.90488666666667, "is_reserved": 0, "fusion_lat": 0.0}, {"bike_id": "18850d97802d5bd0660b75a4eb55a17e", "fusion_lon": 0.0, "lon": -76.99162366666667, "name": "18850d97802d5bd0660b75a4eb55a17e", "is_disabled": 0, "rental_uris": {"android": "https://dc.lft.to/lastmile_qr_scan", "ios": "https://dc.lft.to/lastmile_qr_scan"}, "type": "electric_scooter", "lat": 38.86310616666667, "is_reserved": 0, "fusion_lat": 0.0}, {"bike_id": "4448d73362be04825201a634356a9d19", "fusion_lon": 0.0, "lon": -77.01606466666667, "name": "4448d73362be04825201a634356a9d19", "is_disabled": 0, "rental_uris": {"android": "https://dc.lft.to/lastmile_qr_scan", "ios": "https://dc.lft.to/lastmile_qr_scan"}, "type": "electric_scooter", "lat": 38.8953645, "is_reserved": 0, "fusion_lat": 0.0}, {"bike_id": "940cc2f2e7cff241923da0aaad2bb9cc", "fusion_lon": 0.0, "lon": -77.06812183333334, "name": "940cc2f2e7cff241923da0aaad2bb9cc", "is_disabled": 0, "rental_uris": {"android": "https://dc.lft.to/lastmile_qr_scan", "ios": "https://dc.lft.to/lastmile_qr_scan"}, "type": "electric_scooter", "lat": 38.952798666666666, "is_reserved": 0, "fusion_lat": 0.0}, {"bike_id": "20fb90137f1bac4b73fcab78b51f236e", "fusion_lon": 0.0, "lon": -76.97728366666666, "name": "20fb90137f1bac4b73fcab78b51f236e", "is_disabled": 0, "rental_uris": {"android": "https://dc.lft.to/lastmile_qr_scan", "ios": "https://dc.lft.to/lastmile_qr_scan"}, "type": "electric_scooter", "lat": 38.89515183333334, "is_reserved": 0, "fusion_lat": 0.0}, {"bike_id": "1e29577800f3255f4538fda64398d719", "fusion_lon": 0.0, "lon": -76.9399405, "name": "1e29577800f3255f4538fda64398d719", "is_disabled": 0, "rental_uris": {"android": "https://dc.lft.to/lastmile_qr_scan", "ios": "https://dc.lft.to/lastmile_qr_scan"}, "type": "electric_scooter", "lat": 38.8997955, "is_reserved": 0, "fusion_lat": 0.0}, {"bike_id": "6dd290b579fe2b8a98fbbc8b3b87cedb", "fusion_lon": 0.0, "lon": -77.0271485, "name": "6dd290b579fe2b8a98fbbc8b3b87cedb", "is_disabled": 0, "rental_uris": {"android": "https://dc.lft.to/lastmile_qr_scan", "ios": "https://dc.lft.to/lastmile_qr_scan"}, "type": "electric_scooter", "lat": 38.909550833333334, "is_reserved": 0, "fusion_lat": 0.0}, {"bike_id": "e39a159c36d2d068faf396b141995525", "fusion_lon": 0.0, "lon": -77.03658583333333, "name": "e39a159c36d2d068faf396b141995525", "is_disabled": 0, "rental_uris": {"android": "https://dc.lft.to/lastmile_qr_scan", "ios": "https://dc.lft.to/lastmile_qr_scan"}, "type": "electric_scooter", "lat": 38.92104033333333, "is_reserved": 0, "fusion_lat": 0.0}, {"bike_id": "d16a8d8ccec137eed0f5d995ec001473", "fusion_lon": 0.0, "lon": -77.03188766666666, "name": "d16a8d8ccec137eed0f5d995ec001473", "is_disabled": 0, "rental_uris": {"android": "https://dc.lft.to/lastmile_qr_scan", "ios": "https://dc.lft.to/lastmile_qr_scan"}, "type": "electric_scooter", "lat": 38.918571166666666, "is_reserved": 0, "fusion_lat": 0.0}, {"bike_id": "31212ecb2e8a4f239614f9d9bca3cb5f", "fusion_lon": 0.0, "lon": -76.99268583333334, "name": "31212ecb2e8a4f239614f9d9bca3cb5f", "is_disabled": 0, "rental_uris": {"android": "https://dc.lft.to/lastmile_qr_scan", "ios": "https://dc.lft.to/lastmile_qr_scan"}, "type": "electric_scooter", "lat": 38.88638483333333, "is_reserved": 0, "fusion_lat": 0.0}, {"bike_id": "cb12afedd9b2142494fc718757883e9e", "fusion_lon": 0.0, "lon": -77.029381, "name": "cb12afedd9b2142494fc718757883e9e", "is_disabled": 0, "rental_uris": {"android": "https://dc.lft.to/lastmile_qr_scan", "ios": "https://dc.lft.to/lastmile_qr_scan"}, "type": "electric_scooter", "lat": 38.89916766666666, "is_reserved": 0, "fusion_lat": 0.0}, {"bike_id": "bf77252df94eb5fb29c16c916c43dc48", "fusion_lon": 0.0, "lon": -76.94873366666667, "name": "bf77252df94eb5fb29c16c916c43dc48", "is_disabled": 0, "rental_uris": {"android": "https://dc.lft.to/lastmile_qr_scan", "ios": "https://dc.lft.to/lastmile_qr_scan"}, "type": "electric_scooter", "lat": 38.8949885, "is_reserved": 0, "fusion_lat": 0.0}, {"bike_id": "95ff2974851c89a9be4e8be801b35ee8", "fusion_lon": 0.0, "lon": -76.98876516666667, "name": "95ff2974851c89a9be4e8be801b35ee8", "is_disabled": 0, "rental_uris": {"android": "https://dc.lft.to/lastmile_qr_scan", "ios": "https://dc.lft.to/lastmile_qr_scan"}, "type": "electric_scooter", "lat": 38.8665925, "is_reserved": 0, "fusion_lat": 0.0}, {"bike_id": "f10cc39a067017abec1f18908e7db9a8", "fusion_lon": 0.0, "lon": -77.02597416666667, "name": "f10cc39a067017abec1f18908e7db9a8", "is_disabled": 0, "rental_uris": {"android": "https://dc.lft.to/lastmile_qr_scan", "ios": "https://dc.lft.to/lastmile_qr_scan"}, "type": "electric_scooter", "lat": 38.902274166666665, "is_reserved": 0, "fusion_lat": 0.0}, {"bike_id": "980a79ebe468151e684a13fa7aaf20a7", "fusion_lon": 0.0, "lon": -77.00568666666666, "name": "980a79ebe468151e684a13fa7aaf20a7", "is_disabled": 0, "rental_uris": {"android": "https://dc.lft.to/lastmile_qr_scan", "ios": "https://dc.lft.to/lastmile_qr_scan"}, "type": "electric_scooter", "lat": 38.880609166666666, "is_reserved": 0, "fusion_lat": 0.0}, {"bike_id": "03c36b82262c735925d8931fd38e22b7", "fusion_lon": 0.0, "lon": -77.0431355, "name": "03c36b82262c735925d8931fd38e22b7", "is_disabled": 0, "rental_uris": {"android": "https://dc.lft.to/lastmile_qr_scan", "ios": "https://dc.lft.to/lastmile_qr_scan"}, "type": "electric_scooter", "lat": 38.92656083333333, "is_reserved": 0, "fusion_lat": 0.0}, {"bike_id": "b12f9e0609997b0c7580966051815eb9", "fusion_lon": 0.0, "lon": -76.98728466666667, "name": "b12f9e0609997b0c7580966051815eb9", "is_disabled": 0, "rental_uris": {"android": "https://dc.lft.to/lastmile_qr_scan", "ios": "https://dc.lft.to/lastmile_qr_scan"}, "type": "electric_scooter", "lat": 38.9069915, "is_reserved": 0, "fusion_lat": 0.0}, {"bike_id": "4b1db5bf7f9979d55853d4722b5f1783", "fusion_lon": 0.0, "lon": -77.02692266666666, "name": "4b1db5bf7f9979d55853d4722b5f1783", "is_disabled": 0, "rental_uris": {"android": "https://dc.lft.to/lastmile_qr_scan", "ios": "https://dc.lft.to/lastmile_qr_scan"}, "type": "electric_scooter", "lat": 38.9240275, "is_reserved": 0, "fusion_lat": 0.0}, {"bike_id": "a6af72e188aaa73a07276ef1cb2b8b73", "fusion_lon": 0.0, "lon": -77.01853983333334, "name": "a6af72e188aaa73a07276ef1cb2b8b73", "is_disabled": 0, "rental_uris": {"android": "https://dc.lft.to/lastmile_qr_scan", "ios": "https://dc.lft.to/lastmile_qr_scan"}, "type": "electric_scooter", "lat": 38.9153065, "is_reserved": 0, "fusion_lat": 0.0}, {"bike_id": "f111d6334efe340a98cd824e40b8792e", "fusion_lon": 0.0, "lon": -76.98613716666667, "name": "f111d6334efe340a98cd824e40b8792e", "is_disabled": 0, "rental_uris": {"android": "https://dc.lft.to/lastmile_qr_scan", "ios": "https://dc.lft.to/lastmile_qr_scan"}, "type": "electric_scooter", "lat": 38.93827683333333, "is_reserved": 0, "fusion_lat": 0.0}, {"bike_id": "7cf7a3fc5a9a7628dc0a166872b5a4eb", "fusion_lon": 0.0, "lon": -77.02723116666667, "name": "7cf7a3fc5a9a7628dc0a166872b5a4eb", "is_disabled": 0, "rental_uris": {"android": "https://dc.lft.to/lastmile_qr_scan", "ios": "https://dc.lft.to/lastmile_qr_scan"}, "type": "electric_scooter", "lat": 38.9495645, "is_reserved": 0, "fusion_lat": 0.0}, {"bike_id": "9820c0a10fe0e866aae5b3ab62ab49bb", "fusion_lon": 0.0, "lon": -76.93615783333334, "name": "9820c0a10fe0e866aae5b3ab62ab49bb", "is_disabled": 0, "rental_uris": {"android": "https://dc.lft.to/lastmile_qr_scan", "ios": "https://dc.lft.to/lastmile_qr_scan"}, "type": "electric_scooter", "lat": 38.88671266666667, "is_reserved": 0, "fusion_lat": 0.0}, {"bike_id": "b2d32a985b5248aa535031fde5281325", "fusion_lon": 0.0, "lon": -77.012213, "name": "b2d32a985b5248aa535031fde5281325", "is_disabled": 0, "rental_uris": {"android": "https://dc.lft.to/lastmile_qr_scan", "ios": "https://dc.lft.to/lastmile_qr_scan"}, "type": "electric_scooter", "lat": 38.915469, "is_reserved": 0, "fusion_lat": 0.0}, {"bike_id": "6c0d0c27b6d4900a43f08775502e0059", "fusion_lon": 0.0, "lon": -76.997758, "name": "6c0d0c27b6d4900a43f08775502e0059", "is_disabled": 0, "rental_uris": {"android": "https://dc.lft.to/lastmile_qr_scan", "ios": "https://dc.lft.to/lastmile_qr_scan"}, "type": "electric_scooter", "lat": 38.909146666666665, "is_reserved": 0, "fusion_lat": 0.0}, {"bike_id": "bf20f2715f8c1f2d3fdd6854af0bf786", "fusion_lon": 0.0, "lon": -77.02505, "name": "bf20f2715f8c1f2d3fdd6854af0bf786", "is_disabled": 0, "rental_uris": {"android": "https://dc.lft.to/lastmile_qr_scan", "ios": "https://dc.lft.to/lastmile_qr_scan"}, "type": "electric_scooter", "lat": 38.91563216666667, "is_reserved": 0, "fusion_lat": 0.0}, {"bike_id": "434ff8ebb9b3d005aead276e7cff42c9", "fusion_lon": 0.0, "lon": -77.01222666666666, "name": "434ff8ebb9b3d005aead276e7cff42c9", "is_disabled": 0, "rental_uris": {"android": "https://dc.lft.to/lastmile_qr_scan", "ios": "https://dc.lft.to/lastmile_qr_scan"}, "type": "electric_scooter", "lat": 38.91534033333333, "is_reserved": 0, "fusion_lat": 0.0}, {"bike_id": "2e9559f4c6b102e4d6087b2d16364783", "fusion_lon": 0.0, "lon": -77.03638283333333, "name": "2e9559f4c6b102e4d6087b2d16364783", "is_disabled": 0, "rental_uris": {"android": "https://dc.lft.to/lastmile_qr_scan", "ios": "https://dc.lft.to/lastmile_qr_scan"}, "type": "electric_scooter", "lat": 38.931766333333336, "is_reserved": 0, "fusion_lat": 0.0}, {"bike_id": "459a275573bab37dd00a95e0e6403355", "fusion_lon": 0.0, "lon": -77.02710583333334, "name": "459a275573bab37dd00a95e0e6403355", "is_disabled": 0, "rental_uris": {"android": "https://dc.lft.to/lastmile_qr_scan", "ios": "https://dc.lft.to/lastmile_qr_scan"}, "type": "electric_scooter", "lat": 38.90668066666667, "is_reserved": 0, "fusion_lat": 0.0}, {"bike_id": "59c002b422d1d35f586a1026200418f0", "fusion_lon": 0.0, "lon": -76.99607833333333, "name": "59c002b422d1d35f586a1026200418f0", "is_disabled": 0, "rental_uris": {"android": "https://dc.lft.to/lastmile_qr_scan", "ios": "https://dc.lft.to/lastmile_qr_scan"}, "type": "electric_scooter", "lat": 38.903659, "is_reserved": 0, "fusion_lat": 0.0}, {"bike_id": "1511627f16ec71c6ae3443438bde8aed", "fusion_lon": 0.0, "lon": -77.04800933333334, "name": "1511627f16ec71c6ae3443438bde8aed", "is_disabled": 0, "rental_uris": {"android": "https://dc.lft.to/lastmile_qr_scan", "ios": "https://dc.lft.to/lastmile_qr_scan"}, "type": "electric_scooter", "lat": 38.89223916666667, "is_reserved": 0, "fusion_lat": 0.0}, {"bike_id": "671bf4d33954016d14c4675d212c6271", "fusion_lon": 0.0, "lon": -77.0325105, "name": "671bf4d33954016d14c4675d212c6271", "is_disabled": 0, "rental_uris": {"android": "https://dc.lft.to/lastmile_qr_scan", "ios": "https://dc.lft.to/lastmile_qr_scan"}, "type": "electric_scooter", "lat": 38.92860116666667, "is_reserved": 0, "fusion_lat": 0.0}, {"bike_id": "4d2100888ad22c8d8e539c3364f99a73", "fusion_lon": 0.0, "lon": -77.02560766666667, "name": "4d2100888ad22c8d8e539c3364f99a73", "is_disabled": 0, "rental_uris": {"android": "https://dc.lft.to/lastmile_qr_scan", "ios": "https://dc.lft.to/lastmile_qr_scan"}, "type": "electric_scooter", "lat": 38.9253735, "is_reserved": 0, "fusion_lat": 0.0}, {"bike_id": "c80e5291d887d40015e3578f635a194b", "fusion_lon": 0.0, "lon": -77.02595583333333, "name": "c80e5291d887d40015e3578f635a194b", "is_disabled": 0, "rental_uris": {"android": "https://dc.lft.to/lastmile_qr_scan", "ios": "https://dc.lft.to/lastmile_qr_scan"}, "type": "electric_scooter", "lat": 38.90527816666667, "is_reserved": 0, "fusion_lat": 0.0}, {"bike_id": "b81e37377fbdeb5f5e2259d138163ffe", "fusion_lon": 0.0, "lon": -77.02309916666667, "name": "b81e37377fbdeb5f5e2259d138163ffe", "is_disabled": 0, "rental_uris": {"android": "https://dc.lft.to/lastmile_qr_scan", "ios": "https://dc.lft.to/lastmile_qr_scan"}, "type": "electric_scooter", "lat": 38.915940166666665, "is_reserved": 0, "fusion_lat": 0.0}, {"bike_id": "a105808722907d367eb006cb6818281d", "fusion_lon": 0.0, "lon": -77.04120483333334, "name": "a105808722907d367eb006cb6818281d", "is_disabled": 0, "rental_uris": {"android": "https://dc.lft.to/lastmile_qr_scan", "ios": "https://dc.lft.to/lastmile_qr_scan"}, "type": "electric_scooter", "lat": 38.92146316666667, "is_reserved": 0, "fusion_lat": 0.0}, {"bike_id": "54ceb22acdccca0cf5b8dd731108b4c1", "fusion_lon": 0.0, "lon": -77.04131183333334, "name": "54ceb22acdccca0cf5b8dd731108b4c1", "is_disabled": 0, "rental_uris": {"android": "https://dc.lft.to/lastmile_qr_scan", "ios": "https://dc.lft.to/lastmile_qr_scan"}, "type": "electric_bike", "lat": 38.80501266666667, "is_reserved": 0, "fusion_lat": 0.0}, {"bike_id": "3242fc0507dfd4e8fc18cf3468924262", "fusion_lon": 0.0, "lon": -77.0297115, "name": "3242fc0507dfd4e8fc18cf3468924262", "is_disabled": 0, "rental_uris": {"android": "https://dc.lft.to/lastmile_qr_scan", "ios": "https://dc.lft.to/lastmile_qr_scan"}, "type": "electric_scooter", "lat": 38.922830166666664, "is_reserved": 0, "fusion_lat": 0.0},