{"data": {"bikes": [{"lat": 38.91105833333334, "is_disabled": 0, "type": "electric_scooter", "lon": -77.0481925, "bike_id": "f12d75ede44edd91cf053899c184893b", "fusion_lat": 0.0, "name": "f12d75ede44edd91cf053899c184893b", "is_reserved": 0, "rental_uris": {"android": "https://dc.lft.to/lastmile_qr_scan", "ios": "https://dc.lft.to/lastmile_qr_scan"}, "fusion_lon": 0.0}, {"lat": 38.9036325, "is_disabled": 0, "type": "electric_scooter", "lon": -77.0627795, "bike_id": "a69ad7478573bf67b011d38b0d2955cd", "fusion_lat": 0.0, "name": "a69ad7478573bf67b011d38b0d2955cd", "is_reserved": 0, "rental_uris": {"android": "https://dc.lft.to/lastmile_qr_scan", "ios": "https://dc.lft.to/lastmile_qr_scan"}, "fusion_lon": 0.0}, {"lat": 38.813412166666666, "is_disabled": 0, "type": "electric_bike", "lon": -77.04926433333333, "bike_id": "baa005d267449a35ed1b59331d87b4f7", "fusion_lat": 0.0, "name": "baa005d267449a35ed1b59331d87b4f7", "is_reserved": 0, "rental_uris": {"android": "https://dc.lft.to/lastmile_qr_scan", "ios": "https://dc.lft.to/lastmile_qr_scan"}, "fusion_lon": 0.0}, {"lat": 38.897572, "is_disabled": 0, "type": "electric_scooter", "lon": -76.941838, "bike_id": "a0f9bb5f42c7f0e7998d34d471ae0dec", "fusion_lat": 0.0, "name": "a0f9bb5f42c7f0e7998d34d471ae0dec", "is_reserved": 0, "rental_uris": {"android": "https://dc.lft.to/lastmile_qr_scan", "ios": "https://dc.lft.to/lastmile_qr_scan"}, "fusion_lon": 0.0}, {"lat": 38.90723833333333, "is_disabled": 0, "type": "electric_scooter", "lon": -77.04352266666666, "bike_id": "43a17b9726dc5a995f5bfd87d8fd41af", "fusion_lat": 0.0, "name": "43a17b9726dc5a995f5bfd87d8fd41af", "is_reserved": 0, "rental_uris": {"android": "https://dc.lft.to/lastmile_qr_scan", "ios": "https://dc.lft.to/lastmile_qr_scan"}, "fusion_lon": 0.0}, {"lat": 38.91782533333333, "is_disabled": 0, "type": "electric_scooter", "lon": -77.02317233333333, "bike_id": "6554f2e9f9d93e98e6fc0c3bdd73e1dd", "fusion_lat": 0.0, "name": "6554f2e9f9d93e98e6fc0c3bdd73e1dd", "is_reserved": 0, "rental_uris": {"android": "https://dc.lft.to/lastmile_qr_scan", "ios": "https://dc.lft.to/lastmile_qr_scan"}, "fusion_lon": 0.0}, {"lat": 38.922290333333336, "is_disabled": 0, "type": "electric_scooter", "lon": -77.04348083333333, "bike_id": "b9d403b416d3c9c7f141b198f046c56f", "fusion_lat": 0.0, "name": "b9d403b416d3c9c7f141b198f046c56f", "is_reserved": 0, "rental_uris": {"android": "https://dc.lft.to/lastmile_qr_scan", "ios": "https://dc.lft.to/lastmile_qr_scan"}, "fusion_lon": 0.0}, {"lat": 38.9238015, "is_disabled": 0, "type": "electric_scooter", "lon": -77.0305795, "bike_id": "8da15a0f3a9185df5520219741de8dff", "fusion_lat": 0.0, "name": "8da15a0f3a9185df5520219741de8dff", "is_reserved": 0, "rental_uris": {"android": "https://dc.lft.to/lastmile_qr_scan", "ios": "https://dc.lft.to/lastmile_qr_scan"}, "fusion_lon": 0.0}, {"lat": 38.91479833333333, "is_disabled": 0, "type": "electric_scooter", "lon": -77.01383416666667, "bike_id": "43b73b1355c04f708caf80a8d5c396d4", "fusion_lat": 0.0, "name": "43b73b1355c04f708caf80a8d5c396d4", "is_reserved": 0, "rental_uris": {"android": "https://dc.lft.to/lastmile_qr_scan", "ios": "https://dc.lft.to/lastmile_qr_scan"}, "fusion_lon": 0.0}, {"lat": 38.90036383333333, "is_disabled": 0, "type": "electric_scooter", "lon": -77.0019295, "bike_id": "df49a9b88eb05460a174ce6955cb575c", "fusion_lat": 0.0, "name": "df49a9b88eb05460a174ce6955cb575c", "is_reserved": 0, "rental_uris": {"android": "https://dc.lft.to/lastmile_qr_scan", "ios": "https://dc.lft.to/lastmile_qr_scan"}, "fusion_lon": 0.0}, {"lat": 38.90027583333333, "is_disabled": 0, "type": "electric_scooter", "lon": -76.99907633333333, "bike_id": "e20173ce3c94716ca640c644bab79190", "fusion_lat": 0.0, "name": "e20173ce3c94716ca640c644bab79190", "is_reserved": 0, "rental_uris": {"android": "https://dc.lft.to/lastmile_qr_scan", "ios": "https://dc.lft.to/lastmile_qr_scan"}, "fusion_lon": 0.0}, {"lat": 38.85518583333333, "is_disabled": 0, "type": "electric_bike", "lon": -76.98439616666667, "bike_id": "be0117b9d271e1b37b608dade64c26e3", "fusion_lat": 0.0, "name": "be0117b9d271e1b37b608dade64c26e3", "is_reserved": 0, "rental_uris": {"android": "https://dc.lft.to/lastmile_qr_scan", "ios": "https://dc.lft.to/lastmile_qr_scan"}, "fusion_lon": 0.0}, {"lat": 38.89300333333333, "is_disabled": 0, "type": "electric_scooter", "lon": -77.00013783333333, "bike_id": "9d4aa2617718c6f137e3b79f6b9cb8f6", "fusion_lat": 0.0, "name": "9d4aa2617718c6f137e3b79f6b9cb8f6", "is_reserved": 0, "rental_uris": {"android": "https://dc.lft.to/lastmile_qr_scan", "ios": "https://dc.lft.to/lastmile_qr_scan"}, "fusion_lon": 0.0}, {"lat": 38.9130065, "is_disabled": 0, "type": "electric_scooter", "lon": -77.06165866666667, "bike_id": "bf401a09f7ab059b27dede77761b56df", "fusion_lat": 0.0, "name": "bf401a09f7ab059b27dede77761b56df", "is_reserved": 0, "rental_uris": {"android": "https://dc.lft.to/lastmile_qr_scan", "ios": "https://dc.lft.to/lastmile_qr_scan"}, "fusion_lon": 0.0}, {"lat": 38.9166455, "is_disabled": 0, "type": "electric_scooter", "lon": -77.03855133333333, "bike_id": "5b794e76c54a74c8d44e454e221f5c49", "fusion_lat": 0.0, "name": "5b794e76c54a74c8d44e454e221f5c49", "is_reserved": 0, "rental_uris": {"android": "https://dc.lft.to/lastmile_qr_scan", "ios": "https://dc.lft.to/lastmile_qr_scan"}, "fusion_lon": 0.0}, {"lat": 38.901266666666665, "is_disabled": 0, "type": "electric_scooter", "lon": -77.0330755, "bike_id": "75a5731db28ba535084cbd2ba2809ef6", "fusion_lat": 0.0, "name": "75a5731db28ba535084cbd2ba2809ef6", "is_reserved": 0, "rental_uris": {"android": "https://dc.lft.to/lastmile_qr_scan", "ios": "https://dc.lft.to/lastmile_qr_scan"}, "fusion_lon": 0.0}, {"lat": 38.91961116666667, "is_disabled": 0, "type": "electric_scooter", "lon": -77.048928, "bike_id": "f3784cd1f984049ac65ca9231c90df4a", "fusion_lat": 0.0, "name": "f3784cd1f984049ac65ca9231c90df4a", "is_reserved": 0, "rental_uris": {"android": "https://dc.lft.to/lastmile_qr_scan", "ios": "https://dc.lft.to/lastmile_qr_scan"}, "fusion_lon": 0.0}, {"lat": 38.906224333333334, "is_disabled": 0, "type": "electric_scooter", "lon": -77.02188083333333, "bike_id": "32196877e33262b749e3c1996cda70b2", "fusion_lat": 0.0, "name": "32196877e33262b749e3c1996cda70b2", "is_reserved": 0, "rental_uris": {"android": "https://dc.lft.to/lastmile_qr_scan", "ios": "https://dc.lft.to/lastmile_qr_scan"}, "fusion_lon": 0.0}, {"lat": 38.87626933333333, "is_disabled": 0, "type": "electric_scooter", "lon": -76.9652665, "bike_id": "60d6ea9d8d5118c675b6bccad544c2c9", "fusion_lat": 0.0, "name": "60d6ea9d8d5118c675b6bccad544c2c9", "is_reserved": 0, "rental_uris": {"android": "https://dc.lft.to/lastmile_qr_scan", "ios": "https://dc.lft.to/lastmile_qr_scan"}, "fusion_lon": 0.0}, {"lat": 38.873426333333335, "is_disabled": 0, "type": "electric_scooter", "lon": -76.99166216666667, "bike_id": "3d1840531552453501fb2f4818dff189", "fusion_lat": 0.0, "name": "3d1840531552453501fb2f4818dff189", "is_reserved": 0, "rental_uris": {"android": "https://dc.lft.to/lastmile_qr_scan", "ios": "https://dc.lft.to/lastmile_qr_scan"}, "fusion_lon": 0.0}, {"lat": 38.954066, "is_disabled": 0, "type": "electric_bike", "lon": -76.98058316666666, "bike_id": "4d9c78f517bbf1c0bef5301f84de28af", "fusion_lat": 0.0, "name": "4d9c78f517bbf1c0bef5301f84de28af", "is_reserved": 0, "rental_uris": {"android": "https://dc.lft.to/lastmile_qr_scan", "ios": "https://dc.lft.to/lastmile_qr_scan"}, "fusion_lon": 0.0}, {"lat": 38.900166166666665, "is_disabled": 0, "type": "electric_scooter", "lon": -77.044262, "bike_id": "0814fc0f95fcd2dbf9b8a61048b5f54c", "fusion_lat": 0.0, "name": "0814fc0f95fcd2dbf9b8a61048b5f54c", "is_reserved": 0, "rental_uris": {"android": "https://dc.lft.to/lastmile_qr_scan", "ios": "https://dc.lft.to/lastmile_qr_scan"}, "fusion_lon": 0.0}, {"lat": 38.887222666666666, "is_disabled": 0, "type": "electric_scooter", "lon": -77.0238315, "bike_id": "0fec1aa941d9b3becaee1dc49e1a64bb", "fusion_lat": 0.0, "name": "0fec1aa941d9b3becaee1dc49e1a64bb", "is_reserved": 0, "rental_uris": {"android": "https://dc.lft.to/lastmile_qr_scan", "ios": "https://dc.lft.to/lastmile_qr_scan"}, "fusion_lon": 0.0}, {"lat": 38.907862, "is_disabled": 0, "type": "electric_scooter", "lon": -77.042468, "bike_id": "27866e99c0d4d8540f254ef5bb593019", "fusion_lat": 0.0, "name": "27866e99c0d4d8540f254ef5bb593019", "is_reserved": 0, "rental_uris": {"android": "https://dc.lft.to/lastmile_qr_scan", "ios": "https://dc.lft.to/lastmile_qr_scan"}, "fusion_lon": 0.0}, {"lat": 38.926696166666666, "is_disabled": 0, "type": "electric_scooter", "lon": -77.02669766666666, "bike_id": "dc391d7f97c811d678dbcf165c0d6663", "fusion_lat": 0.0, "name": "dc391d7f97c811d678dbcf165c0d6663", "is_reserved": 0, "rental_uris": {"android": "https://dc.lft.to/lastmile_qr_scan", "ios": "https://dc.lft.to/lastmile_qr_scan"}, "fusion_lon": 0.0}, {"lat": 38.927616, "is_disabled": 0, "type": "electric_scooter", "lon": -77.02776166666666, "bike_id": "4d4c9f8e3e6aadddc3d7f165d0665653", "fusion_lat": 0.0, "name": "4d4c9f8e3e6aadddc3d7f165d0665653", "is_reserved": 0, "rental_uris": {"android": "https://dc.lft.to/lastmile_qr_scan", "ios": "https://dc.lft.to/lastmile_qr_scan"}, "fusion_lon": 0.0}, {"lat": 38.89723766666667, "is_disabled": 0, "type": "electric_scooter", "lon": -77.00799216666667, "bike_id": "b8240b57980ff44217e10d11b2200088", "fusion_lat": 0.0, "name": "b8240b57980ff44217e10d11b2200088", "is_reserved": 0, "rental_uris": {"android": "https://dc.lft.to/lastmile_qr_scan", "ios": "https://dc.lft.to/lastmile_qr_scan"}, "fusion_lon": 0.0}, {"lat": 38.905807, "is_disabled": 0, "type": "electric_scooter", "lon": -77.02971733333334, "bike_id": "4a361e1e3489ac0c27bd65e299441d00", "fusion_lat": 0.0, "name": "4a361e1e3489ac0c27bd65e299441d00", "is_reserved": 0, "rental_uris": {"android": "https://dc.lft.to/lastmile_qr_scan", "ios": "https://dc.lft.to/lastmile_qr_scan"}, "fusion_lon": 0.0}, {"lat": 38.90723033333333, "is_disabled": 0, "type": "electric_scooter", "lon": -77.0435485, "bike_id": "d9ddd4b6e058e11ff25825d4470e1710", "fusion_lat": 0.0, "name": "d9ddd4b6e058e11ff25825d4470e1710", "is_reserved": 0, "rental_uris": {"android": "https://dc.lft.to/lastmile_qr_scan", "ios": "https://dc.lft.to/lastmile_qr_scan"}, "fusion_lon": 0.0}, {"lat": 38.91044383333333, "is_disabled": 0, "type": "electric_scooter", "lon": -77.01517783333334, "bike_id": "95ca658105c13a6bb5e939962028ab55", "fusion_lat": 0.0, "name": "95ca658105c13a6bb5e939962028ab55", "is_reserved": 0, "rental_uris": {"android": "https://dc.lft.to/lastmile_qr_scan", "ios": "https://dc.lft.to/lastmile_qr_scan"}, "fusion_lon": 0.0}, {"lat": 38.897306, "is_disabled": 0, "type": "electric_scooter", "lon": -77.0075355, "bike_id": "0d4eb44406b089f92de8c892e5e4096d", "fusion_lat": 0.0, "name": "0d4eb44406b089f92de8c892e5e4096d", "is_reserved": 0, "rental_uris": {"android": "https://dc.lft.to/lastmile_qr_scan", "ios": "https://dc.lft.to/lastmile_qr_scan"}, "fusion_lon": 0.0}, {"lat": 38.95401433333333, "is_disabled": 0, "type": "electric_scooter", "lon": -77.03626933333334, "bike_id": "d0317a632d4b26952df5c25e3adb78d7", "fusion_lat": 0.0, "name": "d0317a632d4b26952df5c25e3adb78d7", "is_reserved": 0, "rental_uris": {"android": "https://dc.lft.to/lastmile_qr_scan", "ios": "https://dc.lft.to/lastmile_qr_scan"}, "fusion_lon": 0.0}, {"lat": 38.90385466666667, "is_disabled": 0, "type": "electric_scooter", "lon": -77.04353983333333, "bike_id": "e94dd94dfc6cf4b1382cbb2d09e84bee", "fusion_lat": 0.0, "name": "e94dd94dfc6cf4b1382cbb2d09e84bee", "is_reserved": 0, "rental_uris": {"android": "https://dc.lft.to/lastmile_qr_scan", "ios": "https://dc.lft.to/lastmile_qr_scan"}, "fusion_lon": 0.0}, {"lat": 38.905490666666665, "is_disabled": 0, "type": "electric_scooter", "lon": -77.05713366666667, "bike_id": "385c7e26a89bf06706a9b3ac89ea9b0d", "fusion_lat": 0.0, "name": "385c7e26a89bf06706a9b3ac89ea9b0d", "is_reserved": 0, "rental_uris": {"android": "https://dc.lft.to/lastmile_qr_scan", "ios": "https://dc.lft.to/lastmile_qr_scan"}, "fusion_lon": 0.0}, {"lat": 38.89044483333333, "is_disabled": 0, "type": "electric_scooter", "lon": -76.95139816666666, "bike_id": "229eaa455a7e1fd5dd86eda349f58245", "fusion_lat": 0.0, "name": "229eaa455a7e1fd5dd86eda349f58245", "is_reserved": 0, "rental_uris": {"android": "https://dc.lft.to/lastmile_qr_scan", "ios": "https://dc.lft.to/lastmile_qr_scan"}, "fusion_lon": 0.0}, {"lat": 38.906553833333334, "is_disabled": 0, "type": "electric_scooter", "lon": -77.02601466666667, "bike_id": "8f70d1cd7e7fe3927a81b78374eb93dd", "fusion_lat": 0.0, "name": "8f70d1cd7e7fe3927a81b78374eb93dd", "is_reserved": 0, "rental_uris": {"android": "https://dc.lft.to/lastmile_qr_scan", "ios": "https://dc.lft.to/lastmile_qr_scan"}, "fusion_lon": 0.0}, {"lat": 38.91611733333333, "is_disabled": 0, "type": "electric_scooter", "lon": -77.02127083333333, "bike_id": "b8a365b2fc4878b6726487908ffd9e3e", "fusion_lat": 0.0, "name": "b8a365b2fc4878b6726487908ffd9e3e", "is_reserved": 0, "rental_uris": {"android": "https://dc.lft.to/lastmile_qr_scan", "ios": "https://dc.lft.to/lastmile_qr_scan"}, "fusion_lon": 0.0}, {"lat": 38.9557315, "is_disabled": 0, "type": "electric_scooter", "lon": -77.07012616666667, "bike_id": "35ff564edf23b651c343edd035a7c803", "fusion_lat": 0.0, "name": "35ff564edf23b651c343edd035a7c803", "is_reserved": 0, "rental_uris": {"android": "https://dc.lft.to/lastmile_qr_scan", "ios": "https://dc.lft.to/lastmile_qr_scan"}, "fusion_lon": 0.0}, {"lat": 38.92201633333333, "is_disabled": 0, "type": "electric_scooter", "lon": -77.04014283333333, "bike_id": "3c72dd45392b22145e3ab85a3b7a92a7", "fusion_lat": 0.0, "name": "3c72dd45392b22145e3ab85a3b7a92a7", "is_reserved": 0, "rental_uris": {"android": "https://dc.lft.to/lastmile_qr_scan", "ios": "https://dc.lft.to/lastmile_qr_scan"}, "fusion_lon": 0.0}, {"lat": 38.86904783333333, "is_disabled": 0, "type": "electric_bike", "lon": -77.13181266666666, "bike_id": "e0c2eb37d8da2c132125675f8674b787", "fusion_lat": 0.0, "name": "e0c2eb37d8da2c132125675f8674b787", "is_reserved": 0, "rental_uris": {"android": "https://dc.lft.to/lastmile_qr_scan", "ios": "https://dc.lft.to/lastmile_qr_scan"}, "fusion_lon": 0.0}, {"lat": 38.92003483333333, "is_disabled": 0, "type": "electric_scooter", "lon": -77.02062933333333, "bike_id": "dca3b6ff89e5de053923d0bae6a2af18", "fusion_lat": 0.0, "name": "dca3b6ff89e5de053923d0bae6a2af18", "is_reserved": 0, "rental_uris": {"android": "https://dc.lft.to/lastmile_qr_scan", "ios": "https://dc.lft.to/lastmile_qr_scan"}, "fusion_lon": 0.0}, {"lat": 38.88639933333333, "is_disabled": 0, "type": "electric_scooter", "lon": -76.9548665, "bike_id": "233235ebb043240759012ab43a421b99", "fusion_lat": 0.0, "name": "233235ebb043240759012ab43a421b99", "is_reserved": 0, "rental_uris": {"android": "https://dc.lft.to/lastmile_qr_scan", "ios": "https://dc.lft.to/lastmile_qr_scan"}, "fusion_lon": 0.0}, {"lat": 38.9065915, "is_disabled": 0, "type": "electric_scooter", "lon": -77.0385825, "bike_id": "70b7d2bb6b0b45f4e884001e3e876c67", "fusion_lat": 0.0, "name": "70b7d2bb6b0b45f4e884001e3e876c67", "is_reserved": 0, "rental_uris": {"android": "https://dc.lft.to/lastmile_qr_scan", "ios": "https://dc.lft.to/lastmile_qr_scan"}, "fusion_lon": 0.0}, {"lat": 38.91359766666667, "is_disabled": 0, "type": "electric_scooter", "lon": -77.04659966666667, "bike_id": "99f62631c821650e10f8a9a9873ef984", "fusion_lat": 0.0, "name": "99f62631c821650e10f8a9a9873ef984", "is_reserved": 0, "rental_uris": {"android": "https://dc.lft.to/lastmile_qr_scan", "ios": "https://dc.lft.to/lastmile_qr_scan"}, "fusion_lon": 0.0}, {"lat": 38.89509433333333, "is_disabled": 0, "type": "electric_scooter", "lon": -77.01615083333333, "bike_id": "3c7d695aa6d66904a736feb79780a8c9", "fusion_lat": 0.0, "name": "3c7d695aa6d66904a736feb79780a8c9", "is_reserved": 0, "rental_uris": {"android": "https://dc.lft.to/lastmile_qr_scan", "ios": "https://dc.lft.to/lastmile_qr_scan"}, "fusion_lon": 0.0}, {"lat": 38.92476666666666, "is_disabled": 0, "type": "electric_scooter", "lon": -77.03489166666667, "bike_id": "0af463674c3b26a44f83bb273c527a48", "fusion_lat": 0.0, "name": "0af463674c3b26a44f83bb273c527a48", "is_reserved": 0, "rental_uris": {"android": "https://dc.lft.to/lastmile_qr_scan", "ios": "https://dc.lft.to/lastmile_qr_scan"}, "fusion_lon": 0.0}, {"lat": 38.894835666666665, "is_disabled": 0, "type": "electric_scooter", "lon": -77.00227133333334, "bike_id": "e0382a12bbbdf19af569cccbf05d4b75", "fusion_lat": 0.0, "name": "e0382a12bbbdf19af569cccbf05d4b75", "is_reserved": 0, "rental_uris": {"android": "https://dc.lft.to/lastmile_qr_scan", "ios": "https://dc.lft.to/lastmile_qr_scan"}, "fusion_lon": 0.0}, {"lat": 38.90285016666667, "is_disabled": 0, "type": "electric_scooter", "lon": -77.03643816666667, "bike_id": "c8f5211007c565b36dd99c15bad3fabf", "fusion_lat": 0.0, "name": "c8f5211007c565b36dd99c15bad3fabf", "is_reserved": 0, "rental_uris": {"android": "https://dc.lft.to/lastmile_qr_scan", "ios": "https://dc.lft.to/lastmile_qr_scan"}, "fusion_lon": 0.0}, {"lat": 38.92117833333333, "is_disabled": 0, "type": "electric_scooter", "lon": -77.041867, "bike_id": "1c433a910c3583c60c9d86f1d642930f", "fusion_lat": 0.0, "name": "1c433a910c3583c60c9d86f1d642930f", "is_reserved": 0, "rental_uris": {"android": "https://dc.lft.to/lastmile_qr_scan", "ios": "https://dc.lft.to/lastmile_qr_scan"}, "fusion_lon": 0.0}, {"lat": 38.92679416666667, "is_disabled": 0, "type": "electric_scooter", "lon": -77.01495933333334, "bike_id": "b6e63f36a5fc6088650ec47c0711ed23", "fusion_lat": 0.0, "name": "b6e63f36a5fc6088650ec47c0711ed23", "is_reserved": 0, "rental_uris": {"android": "https://dc.lft.to/lastmile_qr_scan", "ios": "https://dc.lft.to/lastmile_qr_scan"}, "fusion_lon": 0.0}, {"lat": 38.915713833333335, "is_disabled": 0, "type": "electric_scooter", "lon": -77.05025166666667, "bike_id": "d7e281f23bc47b0edc625a02d8127e85", "fusion_lat": 0.0, "name": "d7e281f23bc47b0edc625a02d8127e85", "is_reserved": 0, "rental_uris": {"android": "https://dc.lft.to/lastmile_qr_scan", "ios": "https://dc.lft.to/lastmile_qr_scan"}, "fusion_lon": 0.0}, {"lat": 38.943109166666666, "is_disabled": 0, "type": "electric_scooter", "lon": -77.06134733333333, "bike_id": "9f2eb0d59d21a21f0028a876d65a1165", "fusion_lat": 0.0, "name": "9f2eb0d59d21a21f0028a876d65a1165", "is_reserved": 0, "rental_uris": {"android": "https://dc.lft.to/lastmile_qr_scan", "ios": "https://dc.lft.to/lastmile_qr_scan"}, "fusion_lon": 0.0}, {"lat": 38.92170333333333, "is_disabled": 0, "type": "electric_scooter", "lon": -77.04013633333334, "bike_id": "e85bf17a46cdc05262874d41b8b0ea32", "fusion_lat": 0.0, "name": "e85bf17a46cdc05262874d41b8b0ea32", "is_reserved": 0, "rental_uris": {"android": "https://dc.lft.to/lastmile_qr_scan", "ios": "https://dc.lft.to/lastmile_qr_scan"}, "fusion_lon": 0.0}, {"lat": 38.89372216666667, "is_disabled": 0, "type": "electric_scooter", "lon": -77.0282675, "bike_id": "a6f6eee2d2ff203ec3696212a316a46e", "fusion_lat": 0.0, "name": "a6f6eee2d2ff203ec3696212a316a46e", "is_reserved": 0, "rental_uris": {"android": "https://dc.lft.to/lastmile_qr_scan", "ios": "https://dc.lft.to/lastmile_qr_scan"}, "fusion_lon": 0.0}, {"lat": 38.92031266666667, "is_disabled": 0, "type": "electric_scooter", "lon": -77.01329433333333, "bike_id": "2218d6b38287d346631595886fd22d6a", "fusion_lat": 0.0, "name": "2218d6b38287d346631595886fd22d6a", "is_reserved": 0, "rental_uris": {"android": "https://dc.lft.to/lastmile_qr_scan", "ios": "https://dc.lft.to/lastmile_qr_scan"}, "fusion_lon": 0.0}, {"lat": 38.94422683333333, "is_disabled": 0, "type": "electric_scooter", "lon": -77.06264633333333, "bike_id": "5c8ae1b89bf889a990436da0d847b3ea", "fusion_lat": 0.0, "name": "5c8ae1b89bf889a990436da0d847b3ea", "is_reserved": 0, "rental_uris": {"android": "https://dc.lft.to/lastmile_qr_scan", "ios": "https://dc.lft.to/lastmile_qr_scan"}, "fusion_lon": 0.0}, {"lat": 38.926191, "is_disabled": 0, "type": "electric_scooter", "lon": -77.04190516666667, "bike_id": "6dbf7cf6d38a042edb6d41eb049a8598", "fusion_lat": 0.0, "name": "6dbf7cf6d38a042edb6d41eb049a8598", "is_reserved": 0, "rental_uris": {"android": "https://dc.lft.to/lastmile_qr_scan", "ios": "https://dc.lft.to/lastmile_qr_scan"}, "fusion_lon": 0.0}, {"lat": 38.89659, "is_disabled": 0, "type": "electric_scooter", "lon": -77.02427516666667, "bike_id": "1477306fdf2fb1455c757a349a8ac381", "fusion_lat": 0.0, "name": "1477306fdf2fb1455c757a349a8ac381", "is_reserved": 0, "rental_uris": {"android": "https://dc.lft.to/lastmile_qr_scan", "ios": "https://dc.lft.to/lastmile_qr_scan"}, "fusion_lon": 0.0}, {"lat": 38.9156315, "is_disabled": 0, "type": "electric_scooter", "lon": -77.00335116666666, "bike_id": "2aa81ddc6c24e217de4e17916ac16c89", "fusion_lat": 0.0, "name": "2aa81ddc6c24e217de4e17916ac16c89", "is_reserved": 0, "rental_uris": {"android": "https://dc.lft.to/lastmile_qr_scan", "ios": "https://dc.lft.to/lastmile_qr_scan"}, "fusion_lon": 0.0}, {"lat": 38.892231833333334, "is_disabled": 0, "type": "electric_scooter", "lon": -77.03344033333333, "bike_id": "9e181c4f8ae216795a57e3158d6ec719", "fusion_lat": 0.0, "name": "9e181c4f8ae216795a57e3158d6ec719", "is_reserved": 0, "rental_uris": {"android": "https://dc.lft.to/lastmile_qr_scan", "ios": "https://dc.lft.to/lastmile_qr_scan"}, "fusion_lon": 0.0}, {"lat": 38.907300166666666, "is_disabled": 0, "type": "electric_scooter", "lon": -77.01093816666666, "bike_id": "a22465e5b3df228397fe800ba5b437fe", "fusion_lat": 0.0, "name": "a22465e5b3df228397fe800ba5b437fe", "is_reserved": 0, "rental_uris": {"android": "https://dc.lft.to/lastmile_qr_scan", "ios": "https://dc.lft.to/lastmile_qr_scan"}, "fusion_lon": 0.0}, {"lat": 38.935995, "is_disabled": 0, "type": "electric_scooter", "lon": -77.03175866666666, "bike_id": "e7a7de4387dea2ef5c0b554bb2e6eece", "fusion_lat": 0.0, "name": "e7a7de4387dea2ef5c0b554bb2e6eece", "is_reserved": 0, "rental_uris": {"android": "https://dc.lft.to/lastmile_qr_scan", "ios": "https://dc.lft.to/lastmile_qr_scan"}, "fusion_lon": 0.0}, {"lat": 38.894972833333334, "is_disabled": 0, "type": "electric_scooter", "lon": -77.00212466666666, "bike_id": "edeeac000a99b544e4ca10431262401b", "fusion_lat": 0.0, "name": "edeeac000a99b544e4ca10431262401b", "is_reserved": 0, "rental_uris": {"android": "https://dc.lft.to/lastmile_qr_scan", "ios": "https://dc.lft.to/lastmile_qr_scan"}, "fusion_lon": 0.0}, {"lat": 38.9261215, "is_disabled": 0, "type": "electric_scooter", "lon": -77.0215925, "bike_id": "4c82257f0764a6108a3b8ec1731954e4", "fusion_lat": 0.0, "name": "4c82257f0764a6108a3b8ec1731954e4", "is_reserved": 0, "rental_uris": {"android": "https://dc.lft.to/lastmile_qr_scan", "ios": "https://dc.lft.to/lastmile_qr_scan"}, "fusion_lon": 0.0}, {"lat": 38.914463, "is_disabled": 0, "type": "electric_scooter", "lon": -77.04158666666666, "bike_id": "9cdd7c55209845941ab1eccd96a72d12", "fusion_lat": 0.0, "name": "9cdd7c55209845941ab1eccd96a72d12", "is_reserved": 0, "rental_uris": {"android": "https://dc.lft.to/lastmile_qr_scan", "ios": "https://dc.lft.to/lastmile_qr_scan"}, "fusion_lon": 0.0}, {"lat": 38.97089183333333, "is_disabled": 0, "type": "electric_bike", "lon": -77.06968066666667, "bike_id": "9771602921307de77fef082abb2f6f9b", "fusion_lat": 0.0, "name": "9771602921307de77fef082abb2f6f9b", "is_reserved": 0, "rental_uris": {"android": "https://dc.lft.to/lastmile_qr_scan", "ios": "https://dc.lft.to/lastmile_qr_scan"}, "fusion_lon": 0.0}, {"lat": 38.907317, "is_disabled": 0, "type": "electric_scooter", "lon": -77.04336266666667, "bike_id": "5e9ce3a746050c811437d02eaa5b7a6b", "fusion_lat": 0.0, "name": "5e9ce3a746050c811437d02eaa5b7a6b", "is_reserved": 0, "rental_uris": {"android": "https://dc.lft.to/lastmile_qr_scan", "ios": "https://dc.lft.to/lastmile_qr_scan"}, "fusion_lon": 0.0}, {"lat": 38.9028485, "is_disabled": 0, "type": "electric_scooter", "lon": -77.03863833333334, "bike_id": "55ac3ee603c33b7896f422e19b20d81d", "fusion_lat": 0.0, "name": "55ac3ee603c33b7896f422e19b20d81d", "is_reserved": 0, "rental_uris": {"android": "https://dc.lft.to/lastmile_qr_scan", "ios": "https://dc.lft.to/lastmile_qr_scan"}, "fusion_lon": 0.0}, {"lat": 38.879191666666664, "is_disabled": 0, "type": "electric_scooter", "lon": -77.03100083333334, "bike_id": "980611edca2c380eb1ead7027b1d5918", "fusion_lat": 0.0, "name": "980611edca2c380eb1ead7027b1d5918", "is_reserved": 0, "rental_uris": {"android": "https://dc.lft.to/lastmile_qr_scan", "ios": "https://dc.lft.to/lastmile_qr_scan"}, "fusion_lon": 0.0}, {"lat": 38.841014333333334, "is_disabled": 0, "type": "electric_bike", "lon": -77.08942216666667, "bike_id": "7e1ce59de1d2999005931e34eae63de2", "fusion_lat": 0.0, "name": "7e1ce59de1d2999005931e34eae63de2", "is_reserved": 0, "rental_uris": {"android": "https://dc.lft.to/lastmile_qr_scan", "ios": "https://dc.lft.to/lastmile_qr_scan"}, "fusion_lon": 0.0}, {"lat": 38.91742, "is_disabled": 0, "type": "electric_scooter", "lon": -77.03181633333334, "bike_id": "713cebe4022af8ad4d0f77c58d75ccd3", "fusion_lat": 0.0, "name": "713cebe4022af8ad4d0f77c58d75ccd3", "is_reserved": 0, "rental_uris": {"android": "https://dc.lft.to/lastmile_qr_scan", "ios": "https://dc.lft.to/lastmile_qr_scan"}, "fusion_lon": 0.0}, {"lat": 38.90013116666667, "is_disabled": 0, "type": "electric_scooter", "lon": -77.03313516666667, "bike_id": "5ecc5e515184bef23989e3fd50253580", "fusion_lat": 0.0, "name": "5ecc5e515184bef23989e3fd50253580", "is_reserved": 0, "rental_uris": {"android": "https://dc.lft.to/lastmile_qr_scan", "ios": "https://dc.lft.to/lastmile_qr_scan"}, "fusion_lon": 0.0}, {"lat": 38.9494895, "is_disabled": 0, "type": "electric_scooter", "lon": -77.01581916666666, "bike_id": "78323d3cdef5fe85bbb6aae2d90c7763", "fusion_lat": 0.0, "name": "78323d3cdef5fe85bbb6aae2d90c7763", "is_reserved": 0, "rental_uris": {"android": "https://dc.lft.to/lastmile_qr_scan", "ios": "https://dc.lft.to/lastmile_qr_scan"}, "fusion_lon": 0.0}, {"lat": 38.86351783333333, "is_disabled": 0, "type": "electric_scooter", "lon": -76.99051, "bike_id": "c643c335d242be6f9915bb9a4b8d185d", "fusion_lat": 0.0, "name": "c643c335d242be6f9915bb9a4b8d185d", "is_reserved": 0, "rental_uris": {"android": "https://dc.lft.to/lastmile_qr_scan", "ios": "https://dc.lft.to/lastmile_qr_scan"}, "fusion_lon": 0.0}, {"lat": 38.895274666666666, "is_disabled": 0, "type": "electric_scooter", "lon": -77.00063966666667, "bike_id": "853fb7e319009e5a2c38d44c18ce5429", "fusion_lat": 0.0, "name": "853fb7e319009e5a2c38d44c18ce5429", "is_reserved": 0, "rental_uris": {"android": "https://dc.lft.to/lastmile_qr_scan", "ios": "https://dc.lft.to/lastmile_qr_scan"}, "fusion_lon": 0.0}, {"lat": 38.911757333333334, "is_disabled": 0, "type": "electric_scooter", "lon": -77.0626605, "bike_id": "846f9968dd69d91716644acf23be4150", "fusion_lat": 0.0, "name": "846f9968dd69d91716644acf23be4150", "is_reserved": 0, "rental_uris": {"android": "https://dc.lft.to/lastmile_qr_scan", "ios": "https://dc.lft.to/lastmile_qr_scan"}, "fusion_lon": 0.0}, {"lat": 38.944958166666666, "is_disabled": 0, "type": "electric_bike", "lon": -77.00681316666666, "bike_id": "979512f01b17fed9adbd5a87e0aef042", "fusion_lat": 0.0, "name": "979512f01b17fed9adbd5a87e0aef042", "is_reserved": 0, "rental_uris": {"android": "https://dc.lft.to/lastmile_qr_scan", "ios": "https://dc.lft.to/lastmile_qr_scan"}, "fusion_lon": 0.0}, {"lat": 38.90948083333333, "is_disabled": 0, "type": "electric_scooter", "lon": -77.04667233333333, "bike_id": "e4eff80a829b54198bc83bcd7a7caec0", "fusion_lat": 0.0, "name": "e4eff80a829b54198bc83bcd7a7caec0", "is_reserved": 0, "rental_uris": {"android": "https://dc.lft.to/lastmile_qr_scan", "ios": "https://dc.lft.to/lastmile_qr_scan"}, "fusion_lon": 0.0}, {"lat": 38.900273, "is_disabled": 0, "type": "electric_scooter", "lon": -77.03332716666667, "bike_id": "6aaf1288f08f76ec594a2600a3248d8a", "fusion_lat": 0.0, "name": "6aaf1288f08f76ec594a2600a3248d8a", "is_reserved": 0, "rental_uris": {"android": "https://dc.lft.to/lastmile_qr_scan", "ios": "https://dc.lft.to/lastmile_qr_scan"}, "fusion_lon": 0.0}, {"lat": 38.92866, "is_disabled": 0, "type": "electric_scooter", "lon": -77.03344566666667, "bike_id": "68e033700da06f81bc4a660f89153032", "fusion_lat": 0.0, "name": "68e033700da06f81bc4a660f89153032", "is_reserved": 0, "rental_uris": {"android": "https://dc.lft.to/lastmile_qr_scan", "ios": "https://dc.lft.to/lastmile_qr_scan"}, "fusion_lon": 0.0}, {"lat": 38.91264866666667, "is_disabled": 0, "type": "electric_scooter", "lon": -77.02254283333333, "bike_id": "6376ddd5c1bf54c0f352c1f4a4a604a4", "fusion_lat": 0.0, "name": "6376ddd5c1bf54c0f352c1f4a4a604a4", "is_reserved": 0, "rental_uris": {"android": "https://dc.lft.to/lastmile_qr_scan", "ios": "https://dc.lft.to/lastmile_qr_scan"}, "fusion_lon": 0.0}, {"lat": 38.95004766666667, "is_disabled": 0, "type": "electric_scooter", "lon": -77.08195683333334, "bike_id": "e80a12e6c32e117033b77d89583bbd9f", "fusion_lat": 0.0, "name": "e80a12e6c32e117033b77d89583bbd9f", "is_reserved": 0, "rental_uris": {"android": "https://dc.lft.to/lastmile_qr_scan", "ios": "https://dc.lft.to/lastmile_qr_scan"}, "fusion_lon": 0.0}, {"lat": 38.915618, "is_disabled": 0, "type": "electric_scooter", "lon": -77.03267716666667, "bike_id": "f98a070b994dbb9747c6cd6f73b0128d", "fusion_lat": 0.0, "name": "f98a070b994dbb9747c6cd6f73b0128d", "is_reserved": 0, "rental_uris": {"android": "https://dc.lft.to/lastmile_qr_scan", "ios": "https://dc.lft.to/lastmile_qr_scan"}, "fusion_lon": 0.0}, {"lat": 38.900296166666664, "is_disabled": 0, "type": "electric_scooter", "lon": -76.988813, "bike_id": "277df947c9a55894b68fa07f5bddb12f", "fusion_lat": 0.0, "name": "277df947c9a55894b68fa07f5bddb12f", "is_reserved": 0, "rental_uris": {"android": "https://dc.lft.to/lastmile_qr_scan", "ios": "https://dc.lft.to/lastmile_qr_scan"}, "fusion_lon": 0.0}, {"lat": 38.90081966666666, "is_disabled": 0, "type": "electric_scooter", "lon": -77.04464583333333, "bike_id": "2bc8fc6887268b688309f63baaf455f8", "fusion_lat": 0.0, "name": "2bc8fc6887268b688309f63baaf455f8", "is_reserved": 0, "rental_uris": {"android": "https://dc.lft.to/lastmile_qr_scan", "ios": "https://dc.lft.to/lastmile_qr_scan"}, "fusion_lon": 0.0}, {"lat": 38.871415666666664, "is_disabled": 0, "type": "electric_bike", "lon": -76.9367775, "bike_id": "401c6340b6f709bbeec0ee49f7080ac8", "fusion_lat": 0.0, "name": "401c6340b6f709bbeec0ee49f7080ac8", "is_reserved": 0, "rental_uris": {"android": "https://dc.lft.to/lastmile_qr_scan", "ios": "https://dc.lft.to/lastmile_qr_scan"}, "fusion_lon": 0.0}, {"lat": 38.89644966666667, "is_disabled": 0, "type": "electric_scooter", "lon": -77.00923583333334, "bike_id": "4e85a446e28e96143474b3005431eba6", "fusion_lat": 0.0, "name": "4e85a446e28e96143474b3005431eba6", "is_reserved": 0, "rental_uris": {"android": "https://dc.lft.to/lastmile_qr_scan", "ios": "https://dc.lft.to/lastmile_qr_scan"}, "fusion_lon": 0.0}, {"lat": 38.93578733333333, "is_disabled": 0, "type": "electric_bike", "lon": -77.10683783333333, "bike_id": "57f714dce0b1cd80a5910de3569dc8ba", "fusion_lat": 0.0, "name": "57f714dce0b1cd80a5910de3569dc8ba", "is_reserved": 0, "rental_uris": {"android": "https://dc.lft.to/lastmile_qr_scan", "ios": "https://dc.lft.to/lastmile_qr_scan"}, "fusion_lon": 0.0}, {"lat": 38.92096333333333, "is_disabled": 0, "type": "electric_scooter", "lon": -77.02503116666666, "bike_id": "e9eaa9912fd789d24bb5bc0e98aef8f6", "fusion_lat": 0.0, "name": "e9eaa9912fd789d24bb5bc0e98aef8f6", "is_reserved": 0, "rental_uris": {"android": "https://dc.lft.to/lastmile_qr_scan", "ios": "https://dc.lft.to/lastmile_qr_scan"}, "fusion_lon": 0.0}, {"lat": 38.910372, "is_disabled": 0, "type": "electric_scooter", "lon": -77.034413, "bike_id": "9b3e7c511fb1a03fb8d1707ccf9d7ea7", "fusion_lat": 0.0, "name": "9b3e7c511fb1a03fb8d1707ccf9d7ea7", "is_reserved": 0, "rental_uris": {"android": "https://dc.lft.to/lastmile_qr_scan", "ios": "https://dc.lft.to/lastmile_qr_scan"}, "fusion_lon": 0.0}, {"lat": 38.93110983333333, "is_disabled": 0, "type": "electric_scooter", "lon": -77.03414016666666, "bike_id": "a778debda85e8cf25d0d587acd9bff1d", "fusion_lat": 0.0, "name": "a778debda85e8cf25d0d587acd9bff1d", "is_reserved": 0, "rental_uris": {"android": "https://dc.lft.to/lastmile_qr_scan", "ios": "https://dc.lft.to/lastmile_qr_scan"}, "fusion_lon": 0.0}, {"lat": 38.90282666666667, "is_disabled": 0, "type": "electric_scooter", "lon": -77.06352083333333, "bike_id": "fe8c5bc846dd568739e9884c5f3faa8b", "fusion_lat": 0.0, "name": "fe8c5bc846dd568739e9884c5f3faa8b", "is_reserved": 0, "rental_uris": {"android": "https://dc.lft.to/lastmile_qr_scan", "ios": "https://dc.lft.to/lastmile_qr_scan"}, "fusion_lon": 0.0}, {"lat": 38.921176333333335, "is_disabled": 0, "type": "electric_bike", "lon": -76.98573833333333, "bike_id": "8090e9e71f8b7c4af69ac5623f2098bf", "fusion_lat": 0.0, "name": "8090e9e71f8b7c4af69ac5623f2098bf", "is_reserved": 0, "rental_uris": {"android": "https://dc.lft.to/lastmile_qr_scan", "ios": "https://dc.lft.to/lastmile_qr_scan"}, "fusion_lon": 0.0}, {"lat": 38.9404075, "is_disabled": 0, "type": "electric_bike", "lon": -77.05164383333333, "bike_id": "a1e08957f1e092a1bd35327687391117", "fusion_lat": 0.0, "name": "a1e08957f1e092a1bd35327687391117", "is_reserved": 0, "rental_uris": {"android": "https://dc.lft.to/lastmile_qr_scan", "ios": "https://dc.lft.to/lastmile_qr_scan"}, "fusion_lon": 0.0}, {"lat": 38.917067, "is_disabled": 0, "type": "electric_scooter", "lon": -77.03472883333333, "bike_id": "c394a8ca1591bb46d2d00b2a5b7b8238", "fusion_lat": 0.0, "name": "c394a8ca1591bb46d2d00b2a5b7b8238", "is_reserved": 0, "rental_uris": {"android": "https://dc.lft.to/lastmile_qr_scan", "ios": "https://dc.lft.to/lastmile_qr_scan"}, "fusion_lon": 0.0}, {"lat": 38.911736, "is_disabled": 0, "type": "electric_scooter", "lon": -77.03854333333334, "bike_id": "f611911a56a7159df5a63a5dacf8bbea", "fusion_lat": 0.0, "name": "f611911a56a7159df5a63a5dacf8bbea", "is_reserved": 0, "rental_uris": {"android": "https://dc.lft.to/lastmile_qr_scan", "ios": "https://dc.lft.to/lastmile_qr_scan"}, "fusion_lon": 0.0}, {"lat": 38.841005333333335, "is_disabled": 0, "type": "electric_bike", "lon": -77.089416, "bike_id": "86c6b1c73694ed6d4120b79f2c4d96ee", "fusion_lat": 0.0, "name": "86c6b1c73694ed6d4120b79f2c4d96ee", "is_reserved": 0, "rental_uris": {"android": "https://dc.lft.to/lastmile_qr_scan", "ios": "https://dc.lft.to/lastmile_qr_scan"}, "fusion_lon": 0.0}, {"lat": 38.90548733333333, "is_disabled": 0, "type": "electric_scooter", "lon": -77.05712266666667, "bike_id": "108906b48ff23feecfb699a2545aef93", "fusion_lat": 0.0, "name": "108906b48ff23feecfb699a2545aef93", "is_reserved": 0, "rental_uris": {"android": "https://dc.lft.to/lastmile_qr_scan", "ios": "https://dc.lft.to/lastmile_qr_scan"}, "fusion_lon": 0.0}, {"lat": 38.925671666666666, "is_disabled": 0, "type": "electric_scooter", "lon": -77.03782816666667, "bike_id": "8b63d4e5a7e883ea74ef871d261934c4", "fusion_lat": 0.0, "name": "8b63d4e5a7e883ea74ef871d261934c4", "is_reserved": 0, "rental_uris": {"android": "https://dc.lft.to/lastmile_qr_scan", "ios": "https://dc.lft.to/lastmile_qr_scan"}, "fusion_lon": 0.0}, {"lat": 38.9347135, "is_disabled": 0, "type": "electric_scooter", "lon": -77.02420183333334, "bike_id": "e079c533a4d296b2c560c768887ce00b", "fusion_lat": 0.0, "name": "e079c533a4d296b2c560c768887ce00b", "is_reserved": 0, "rental_uris": {"android": "https://dc.lft.to/lastmile_qr_scan", "ios": "https://dc.lft.to/lastmile_qr_scan"}, "fusion_lon": 0.0}, {"lat": 38.958802166666665, "is_disabled": 0, "type": "electric_bike", "lon": -76.92497766666666, "bike_id": "c17aa82277b20bfa3ebea346190260b0", "fusion_lat": 0.0, "name": "c17aa82277b20bfa3ebea346190260b0", "is_reserved": 0, "rental_uris": {"android": "https://dc.lft.to/lastmile_qr_scan", "ios": "https://dc.lft.to/lastmile_qr_scan"}, "fusion_lon": 0.0}, {"lat": 38.912923666666664, "is_disabled": 0, "type": "electric_scooter", "lon": -77.0319215, "bike_id": "5d168fc6d9a95b4cf66086817dd379f9", "fusion_lat": 0.0, "name": "5d168fc6d9a95b4cf66086817dd379f9", "is_reserved": 0, "rental_uris": {"android": "https://dc.lft.to/lastmile_qr_scan", "ios": "https://dc.lft.to/lastmile_qr_scan"}, "fusion_lon": 0.0}, {"lat": 38.920982333333335, "is_disabled": 0, "type": "electric_scooter", "lon": -77.025274, "bike_id": "c0d0a6b3c8923285ed8ed1bcb26b1c84", "fusion_lat": 0.0, "name": "c0d0a6b3c8923285ed8ed1bcb26b1c84", "is_reserved": 0, "rental_uris": {"android": "https://dc.lft.to/lastmile_qr_scan", "ios": "https://dc.lft.to/lastmile_qr_scan"}, "fusion_lon": 0.0}, {"lat": 38.93114, "is_disabled": 0, "type": "electric_scooter", "lon": -77.03810566666667, "bike_id": "e66c78f4ae520945f772fa3b40ac9b06", "fusion_lat": 0.0, "name": "e66c78f4ae520945f772fa3b40ac9b06", "is_reserved": 0, "rental_uris": {"android": "https://dc.lft.to/lastmile_qr_scan", "ios": "https://dc.lft.to/lastmile_qr_scan"}, "fusion_lon": 0.0}, {"lat": 38.908369, "is_disabled": 0, "type": "electric_scooter", "lon": -77.00206316666667, "bike_id": "ccfaa686320d8e26892e15dba9b10658", "fusion_lat": 0.0, "name": "ccfaa686320d8e26892e15dba9b10658", "is_reserved": 0, "rental_uris": {"android": "https://dc.lft.to/lastmile_qr_scan", "ios": "https://dc.lft.to/lastmile_qr_scan"}, "fusion_lon": 0.0}, {"lat": 38.9056695, "is_disabled": 0, "type": "electric_scooter", "lon": -77.0242455, "bike_id": "effb767a594d10a30e37821845d45d98", "fusion_lat": 0.0, "name": "effb767a594d10a30e37821845d45d98", "is_reserved": 0, "rental_uris": {"android": "https://dc.lft.to/lastmile_qr_scan", "ios": "https://dc.lft.to/lastmile_qr_scan"}, "fusion_lon": 0.0}, {"lat": 38.919688666666666, "is_disabled": 0, "type": "electric_scooter", "lon": -77.01212716666667, "bike_id": "5a5d98acefe248fb56eb12a67caec963", "fusion_lat": 0.0, "name": "5a5d98acefe248fb56eb12a67caec963", "is_reserved": 0, "rental_uris": {"android": "https://dc.lft.to/lastmile_qr_scan", "ios": "https://dc.lft.to/lastmile_qr_scan"}, "fusion_lon": 0.0}, {"lat": 38.90250833333333, "is_disabled": 0, "type": "electric_scooter", "lon": -77.04380866666666, "bike_id": "c4ffdcc12b02b17c3c0c2d48b277eb75", "fusion_lat": 0.0, "name": "c4ffdcc12b02b17c3c0c2d48b277eb75", "is_reserved": 0, "rental_uris": {"android": "https://dc.lft.to/lastmile_qr_scan", "ios": "https://dc.lft.to/lastmile_qr_scan"}, "fusion_lon": 0.0}, {"lat": 38.884008333333334, "is_disabled": 0, "type": "electric_bike", "lon": -76.954295, "bike_id": "357853bc3c85f833d5f5affde314e531", "fusion_lat": 0.0, "name": "357853bc3c85f833d5f5affde314e531", "is_reserved": 0, "rental_uris": {"android": "https://dc.lft.to/lastmile_qr_scan", "ios": "https://dc.lft.to/lastmile_qr_scan"}, "fusion_lon": 0.0}, {"lat": 39.056341333333336, "is_disabled": 0, "type": "electric_bike", "lon": -77.12528916666666, "bike_id": "d213e197dcdeb42a4fa27fda80cf337c", "fusion_lat": 0.0, "name": "d213e197dcdeb42a4fa27fda80cf337c", "is_reserved": 0, "rental_uris": {"android": "https://dc.lft.to/lastmile_qr_scan", "ios": "https://dc.lft.to/lastmile_qr_scan"}, "fusion_lon": 0.0}, {"lat": 38.8888605, "is_disabled": 0, "type": "electric_scooter", "lon": -76.93156983333333, "bike_id": "49f54929dc420964371199015a76c463", "fusion_lat": 0.0, "name": "49f54929dc420964371199015a76c463", "is_reserved": 0, "rental_uris": {"android": "https://dc.lft.to/lastmile_qr_scan", "ios": "https://dc.lft.to/lastmile_qr_scan"}, "fusion_lon": 0.0}, {"lat": 38.887341, "is_disabled": 0, "type": "electric_scooter", "lon": -77.01540466666667, "bike_id": "6593176e5e45965785955a0ee71f164d", "fusion_lat": 0.0, "name": "6593176e5e45965785955a0ee71f164d", "is_reserved": 0, "rental_uris": {"android": "https://dc.lft.to/lastmile_qr_scan", "ios": "https://dc.lft.to/lastmile_qr_scan"}, "fusion_lon": 0.0}, {"lat": 38.89041233333333, "is_disabled": 0, "type": "electric_scooter", "lon": -76.95247516666667, "bike_id": "5baa634d235f4c0b73e6e54a1b0600c5", "fusion_lat": 0.0, "name": "5baa634d235f4c0b73e6e54a1b0600c5", "is_reserved": 0, "rental_uris": {"android": "https://dc.lft.to/lastmile_qr_scan", "ios": "https://dc.lft.to/lastmile_qr_scan"}, "fusion_lon": 0.0}, {"lat": 38.91121666666667, "is_disabled": 0, "type": "electric_scooter", "lon": -77.03834733333333, "bike_id": "b3f47e1f8ba9e0879ab6e5c70f5ec353", "fusion_lat": 0.0, "name": "b3f47e1f8ba9e0879ab6e5c70f5ec353", "is_reserved": 0, "rental_uris": {"android": "https://dc.lft.to/lastmile_qr_scan", "ios": "https://dc.lft.to/lastmile_qr_scan"}, "fusion_lon": 0.0}, {"lat": 38.9560655, "is_disabled": 0, "type": "electric_scooter", "lon": -77.02762666666666, "bike_id": "0701a193debb571c3bf5114a63d8fca3", "fusion_lat": 0.0, "name": "0701a193debb571c3bf5114a63d8fca3", "is_reserved": 0, "rental_uris": {"android": "https://dc.lft.to/lastmile_qr_scan", "ios": "https://dc.lft.to/lastmile_qr_scan"}, "fusion_lon": 0.0}, {"lat": 38.911933, "is_disabled": 0, "type": "electric_scooter", "lon": -77.04293, "bike_id": "6a33371177c5885f3c713b17a0e1fe59", "fusion_lat": 0.0, "name": "6a33371177c5885f3c713b17a0e1fe59", "is_reserved": 0, "rental_uris": {"android": "https://dc.lft.to/lastmile_qr_scan", "ios": "https://dc.lft.to/lastmile_qr_scan"}, "fusion_lon": 0.0}, {"lat": 38.932112333333336, "is_disabled": 0, "type": "electric_scooter", "lon": -77.02251816666667, "bike_id": "0f430f0518c871dcbbf0bd726ce68895", "fusion_lat": 0.0, "name": "0f430f0518c871dcbbf0bd726ce68895", "is_reserved": 0, "rental_uris": {"android": "https://dc.lft.to/lastmile_qr_scan", "ios": "https://dc.lft.to/lastmile_qr_scan"}, "fusion_lon": 0.0}, {"lat": 38.911701666666666, "is_disabled": 0, "type": "electric_scooter", "lon": -77.0467245, "bike_id": "fac86e04f41183029a5a0ceca58e7089", "fusion_lat": 0.0, "name": "fac86e04f41183029a5a0ceca58e7089", "is_reserved": 0, "rental_uris": {"android": "https://dc.lft.to/lastmile_qr_scan", "ios": "https://dc.lft.to/lastmile_qr_scan"}, "fusion_lon": 0.0}, {"lat": 38.898113, "is_disabled": 0, "type": "electric_scooter", "lon": -76.996985, "bike_id": "6c13100094a4b0c14c0cf90ead18a754", "fusion_lat": 0.0, "name": "6c13100094a4b0c14c0cf90ead18a754", "is_reserved": 0, "rental_uris": {"android": "https://dc.lft.to/lastmile_qr_scan", "ios": "https://dc.lft.to/lastmile_qr_scan"}, "fusion_lon": 0.0}, {"lat": 38.90527183333333, "is_disabled": 0, "type": "electric_scooter", "lon": -77.06242366666666, "bike_id": "4657b6c1e0f55d6895b67ffda63953d3", "fusion_lat": 0.0, "name": "4657b6c1e0f55d6895b67ffda63953d3", "is_reserved": 0, "rental_uris": {"android": "https://dc.lft.to/lastmile_qr_scan", "ios": "https://dc.lft.to/lastmile_qr_scan"}, "fusion_lon": 0.0}, {"lat": 38.933217166666665, "is_disabled": 0, "type": "electric_scooter", "lon": -77.0437255, "bike_id": "4736878938f5994e28fe6e3685cdb360", "fusion_lat": 0.0, "name": "4736878938f5994e28fe6e3685cdb360", "is_reserved": 0, "rental_uris": {"android": "https://dc.lft.to/lastmile_qr_scan", "ios": "https://dc.lft.to/lastmile_qr_scan"}, "fusion_lon": 0.0}, {"lat": 38.89223483333333, "is_disabled": 0, "type": "electric_scooter", "lon": -77.0263, "bike_id": "8277d028faaa5e5e7108868cdf8aa4d2", "fusion_lat": 0.0, "name": "8277d028faaa5e5e7108868cdf8aa4d2", "is_reserved": 0, "rental_uris": {"android": "https://dc.lft.to/lastmile_qr_scan", "ios": "https://dc.lft.to/lastmile_qr_scan"}, "fusion_lon": 0.0}, {"lat": 38.919545666666664, "is_disabled": 0, "type": "electric_scooter", "lon": -76.9808505, "bike_id": "5631d75902304f4f1e41b8dc600b8725", "fusion_lat": 0.0, "name": "5631d75902304f4f1e41b8dc600b8725", "is_reserved": 0, "rental_uris": {"android": "https://dc.lft.to/lastmile_qr_scan", "ios": "https://dc.lft.to/lastmile_qr_scan"}, "fusion_lon": 0.0}, {"lat": 38.90256016666667, "is_disabled": 0, "type": "electric_scooter", "lon": -77.02819783333334, "bike_id": "9d939085dfad908e502ffee56b4fc03e", "fusion_lat": 0.0, "name": "9d939085dfad908e502ffee56b4fc03e", "is_reserved": 0, "rental_uris": {"android": "https://dc.lft.to/lastmile_qr_scan", "ios": "https://dc.lft.to/lastmile_qr_scan"}, "fusion_lon": 0.0}, {"lat": 38.8556795, "is_disabled": 0, "type": "electric_bike", "lon": -77.111443, "bike_id": "ab261565212e732976e496025cb5d813", "fusion_lat": 0.0, "name": "ab261565212e732976e496025cb5d813", "is_reserved": 0, "rental_uris": {"android": "https://dc.lft.to/lastmile_qr_scan", "ios": "https://dc.lft.to/lastmile_qr_scan"}, "fusion_lon": 0.0}, {"lat": 38.902602333333334, "is_disabled": 0, "type": "electric_scooter", "lon": -77.03207883333333, "bike_id": "6a93cf53ed322c2176cb81e8044840f2", "fusion_lat": 0.0, "name": "6a93cf53ed322c2176cb81e8044840f2", "is_reserved": 0, "rental_uris": {"android": "https://dc.lft.to/lastmile_qr_scan", "ios": "https://dc.lft.to/lastmile_qr_scan"}, "fusion_lon": 0.0}, {"lat": 38.92580383333333, "is_disabled": 0, "type": "electric_scooter", "lon": -77.0283465, "bike_id": "7c7d0a207787b77f779d57350263ab3a", "fusion_lat": 0.0, "name": "7c7d0a207787b77f779d57350263ab3a", "is_reserved": 0, "rental_uris": {"android": "https://dc.lft.to/lastmile_qr_scan", "ios": "https://dc.lft.to/lastmile_qr_scan"}, "fusion_lon": 0.0}, {"lat": 38.8655525, "is_disabled": 0, "type": "electric_scooter", "lon": -76.97423266666667, "bike_id": "416e398351a84a4cf7d9ebcb118aa651", "fusion_lat": 0.0, "name": "416e398351a84a4cf7d9ebcb118aa651", "is_reserved": 0, "rental_uris": {"android": "https://dc.lft.to/lastmile_qr_scan", "ios": "https://dc.lft.to/lastmile_qr_scan"}, "fusion_lon": 0.0}, {"lat": 38.93461383333333, "is_disabled": 0, "type": "electric_scooter", "lon": -77.06194833333333, "bike_id": "2e60631605f16c5d50e28556e3fa9fff", "fusion_lat": 0.0, "name": "2e60631605f16c5d50e28556e3fa9fff", "is_reserved": 0, "rental_uris": {"android": "https://dc.lft.to/lastmile_qr_scan", "ios": "https://dc.lft.to/lastmile_qr_scan"}, "fusion_lon": 0.0}, {"lat": 38.900763833333336, "is_disabled": 0, "type": "electric_scooter", "lon": -77.04904883333333, "bike_id": "5311fbd90a57d4dcc2d0b9f8ae73f17a", "fusion_lat": 0.0, "name": "5311fbd90a57d4dcc2d0b9f8ae73f17a", "is_reserved": 0, "rental_uris": {"android": "https://dc.lft.to/lastmile_qr_scan", "ios": "https://dc.lft.to/lastmile_qr_scan"}, "fusion_lon": 0.0}, {"lat": 39.00005616666667, "is_disabled": 0, "type": "electric_bike", "lon": -76.9108375, "bike_id": "30231c590d18a949ddfbffd22bd815cb", "fusion_lat": 0.0, "name": "30231c590d18a949ddfbffd22bd815cb", "is_reserved": 0, "rental_uris": {"android": "https://dc.lft.to/lastmile_qr_scan", "ios": "https://dc.lft.to/lastmile_qr_scan"}, "fusion_lon": 0.0}, {"lat": 38.8638795, "is_disabled": 0, "type": "electric_bike", "lon": -76.98990166666667, "bike_id": "24607fed367149d800da658e8bf1e322", "fusion_lat": 0.0, "name": "24607fed367149d800da658e8bf1e322", "is_reserved": 0, "rental_uris": {"android": "https://dc.lft.to/lastmile_qr_scan", "ios": "https://dc.lft.to/lastmile_qr_scan"}, "fusion_lon": 0.0}, {"lat": 38.933046, "is_disabled": 0, "type": "electric_scooter", "lon": -77.0285105, "bike_id": "09a69ae692be81782a1c075e8deab0ec", "fusion_lat": 0.0, "name": "09a69ae692be81782a1c075e8deab0ec", "is_reserved": 0, "rental_uris": {"android": "https://dc.lft.to/lastmile_qr_scan", "ios": "https://dc.lft.to/lastmile_qr_scan"}, "fusion_lon": 0.0}, {"lat": 38.93876866666667, "is_disabled": 0, "type": "electric_scooter", "lon": -77.02012383333333, "bike_id": "8c83ef09ce48835e65934e8ce880cace", "fusion_lat": 0.0, "name": "8c83ef09ce48835e65934e8ce880cace", "is_reserved": 0, "rental_uris": {"android": "https://dc.lft.to/lastmile_qr_scan", "ios": "https://dc.lft.to/lastmile_qr_scan"}, "fusion_lon": 0.0}, {"lat": 38.902894, "is_disabled": 0, "type": "electric_scooter", "lon": -77.03342183333334, "bike_id": "918420211717d42be38e718175720ce1", "fusion_lat": 0.0, "name": "918420211717d42be38e718175720ce1", "is_reserved": 0, "rental_uris": {"android": "https://dc.lft.to/lastmile_qr_scan", "ios": "https://dc.lft.to/lastmile_qr_scan"}, "fusion_lon": 0.0}, {"lat": 38.933733, "is_disabled": 0, "type": "electric_scooter", "lon": -77.02378766666666, "bike_id": "5dba731c9d1b1a12b24616b1620e58af", "fusion_lat": 0.0, "name": "5dba731c9d1b1a12b24616b1620e58af", "is_reserved": 0, "rental_uris": {"android": "https://dc.lft.to/lastmile_qr_scan", "ios": "https://dc.lft.to/lastmile_qr_scan"}, "fusion_lon": 0.0}, {"lat": 38.9533225, "is_disabled": 0, "type": "electric_bike", "lon": -76.97366916666667, "bike_id": "e089918a0b3a3af4fadf452b41c770a9", "fusion_lat": 0.0, "name": "e089918a0b3a3af4fadf452b41c770a9", "is_reserved": 0, "rental_uris": {"android": "https://dc.lft.to/lastmile_qr_scan", "ios": "https://dc.lft.to/lastmile_qr_scan"}, "fusion_lon": 0.0}, {"lat": 38.892494666666664, "is_disabled": 0, "type": "electric_scooter", "lon": -77.048942, "bike_id": "773052ff79c2cc76a06929f1895abe9e", "fusion_lat": 0.0, "name": "773052ff79c2cc76a06929f1895abe9e", "is_reserved": 0, "rental_uris": {"android": "https://dc.lft.to/lastmile_qr_scan", "ios": "https://dc.lft.to/lastmile_qr_scan"}, "fusion_lon": 0.0}, {"lat": 38.87666, "is_disabled": 0, "type": "electric_scooter", "lon": -77.00895183333333, "bike_id": "b3e9892052cf42aa67b985cb67455036", "fusion_lat": 0.0, "name": "b3e9892052cf42aa67b985cb67455036", "is_reserved": 0, "rental_uris": {"android": "https://dc.lft.to/lastmile_qr_scan", "ios": "https://dc.lft.to/lastmile_qr_scan"}, "fusion_lon": 0.0}, {"lat": 38.898299333333334, "is_disabled": 0, "type": "electric_scooter", "lon": -76.9310675, "bike_id": "576251e8743ca3ef1754e598c443af76", "fusion_lat": 0.0, "name": "576251e8743ca3ef1754e598c443af76", "is_reserved": 0, "rental_uris": {"android": "https://dc.lft.to/lastmile_qr_scan", "ios": "https://dc.lft.to/lastmile_qr_scan"}, "fusion_lon": 0.0}, {"lat": 38.969273, "is_disabled": 0, "type": "electric_bike", "lon": -77.0262165, "bike_id": "ce95f0fd89db3ce3f1f8ac3f77e3fbc9", "fusion_lat": 0.0, "name": "ce95f0fd89db3ce3f1f8ac3f77e3fbc9", "is_reserved": 0, "rental_uris": {"android": "https://dc.lft.to/lastmile_qr_scan", "ios": "https://dc.lft.to/lastmile_qr_scan"}, "fusion_lon": 0.0}, {"lat": 38.90687666666667, "is_disabled": 0, "type": "electric_scooter", "lon": -77.058271, "bike_id": "ec7f96fe22c8f0d55bfdfdd206201dcf", "fusion_lat": 0.0, "name": "ec7f96fe22c8f0d55bfdfdd206201dcf", "is_reserved": 0, "rental_uris": {"android": "https://dc.lft.to/lastmile_qr_scan", "ios": "https://dc.lft.to/lastmile_qr_scan"}, "fusion_lon": 0.0}, {"lat": 38.9031275, "is_disabled": 0, "type": "electric_scooter", "lon": -76.98999366666666, "bike_id": "cd532f3176a1c37315c4d132b1c536f5", "fusion_lat": 0.0, "name": "cd532f3176a1c37315c4d132b1c536f5", "is_reserved": 0, "rental_uris": {"android": "https://dc.lft.to/lastmile_qr_scan", "ios": "https://dc.lft.to/lastmile_qr_scan"}, "fusion_lon": 0.0}, {"lat": 38.90452616666666, "is_disabled": 0, "type": "electric_scooter", "lon": -76.994613, "bike_id": "501bdc53842100ecd4299bda99ffb7ed", "fusion_lat": 0.0, "name": "501bdc53842100ecd4299bda99ffb7ed", "is_reserved": 0, "rental_uris": {"android": "https://dc.lft.to/lastmile_qr_scan", "ios": "https://dc.lft.to/lastmile_qr_scan"}, "fusion_lon": 0.0}, {"lat": 38.90606583333334, "is_disabled": 0, "type": "electric_scooter", "lon": -77.06349866666666, "bike_id": "bc187ee589c79827619ba9adc1cff1e3", "fusion_lat": 0.0, "name": "bc187ee589c79827619ba9adc1cff1e3", "is_reserved": 0, "rental_uris": {"android": "https://dc.lft.to/lastmile_qr_scan", "ios": "https://dc.lft.to/lastmile_qr_scan"}, "fusion_lon": 0.0}, {"lat": 38.93359066666667, "is_disabled": 0, "type": "electric_scooter", "lon": -77.07373483333333, "bike_id": "93f2a918b08039b43c6a40cbb153edd9", "fusion_lat": 0.0, "name": "93f2a918b08039b43c6a40cbb153edd9", "is_reserved": 0, "rental_uris": {"android": "https://dc.lft.to/lastmile_qr_scan", "ios": "https://dc.lft.to/lastmile_qr_scan"}, "fusion_lon": 0.0}, {"lat": 38.905538166666666, "is_disabled": 0, "type": "electric_scooter", "lon": -77.034286, "bike_id": "6432399382a6e9bd52cd2b0ed346f62a", "fusion_lat": 0.0, "name": "6432399382a6e9bd52cd2b0ed346f62a", "is_reserved": 0, "rental_uris": {"android": "https://dc.lft.to/lastmile_qr_scan", "ios": "https://dc.lft.to/lastmile_qr_scan"}, "fusion_lon": 0.0}, {"lat": 38.920804333333336, "is_disabled": 0, "type": "electric_bike", "lon": -76.99188666666667, "bike_id": "be9e1efc77e8d86be818ed99c34383cd", "fusion_lat": 0.0, "name": "be9e1efc77e8d86be818ed99c34383cd", "is_reserved": 0, "rental_uris": {"android": "https://dc.lft.to/lastmile_qr_scan", "ios": "https://dc.lft.to/lastmile_qr_scan"}, "fusion_lon": 0.0}, {"lat": 38.90864633333333, "is_disabled": 0, "type": "electric_bike", "lon": -76.93164283333333, "bike_id": "aa98f2209ccde747967327601c59428b", "fusion_lat": 0.0, "name": "aa98f2209ccde747967327601c59428b", "is_reserved": 0, "rental_uris": {"android": "https://dc.lft.to/lastmile_qr_scan", "ios": "https://dc.lft.to/lastmile_qr_scan"}, "fusion_lon": 0.0}, {"lat": 38.931006333333336, "is_disabled": 0, "type": "electric_scooter", "lon": -77.02556983333334, "bike_id": "3753f1440af3e2d75e1011610f16da9b", "fusion_lat": 0.0, "name": "3753f1440af3e2d75e1011610f16da9b", "is_reserved": 0, "rental_uris": {"android": "https://dc.lft.to/lastmile_qr_scan", "ios": "https://dc.lft.to/lastmile_qr_scan"}, "fusion_lon": 0.0}, {"lat": 38.90144633333333, "is_disabled": 0, "type": "electric_scooter", "lon": -77.0007185, "bike_id": "59e86c0dd927d543119e7cbdf1c321d1", "fusion_lat": 0.0, "name": "59e86c0dd927d543119e7cbdf1c321d1", "is_reserved": 0, "rental_uris": {"android": "https://dc.lft.to/lastmile_qr_scan", "ios": "https://dc.lft.to/lastmile_qr_scan"}, "fusion_lon": 0.0}, {"lat": 38.9124345, "is_disabled": 0, "type": "electric_scooter", "lon": -77.03179966666667, "bike_id": "5c375ca55fb052c5a51e03eeed85004a", "fusion_lat": 0.0, "name": "5c375ca55fb052c5a51e03eeed85004a", "is_reserved": 0, "rental_uris": {"android": "https://dc.lft.to/lastmile_qr_scan", "ios": "https://dc.lft.to/lastmile_qr_scan"}, "fusion_lon": 0.0}, {"lat": 38.902626166666664, "is_disabled": 0, "type": "electric_scooter", "lon": -77.06251066666667, "bike_id": "3c6ebcefe734f29558f96cf5d4bc6d17", "fusion_lat": 0.0, "name": "3c6ebcefe734f29558f96cf5d4bc6d17", "is_reserved": 0, "rental_uris": {"android": "https://dc.lft.to/lastmile_qr_scan", "ios": "https://dc.lft.to/lastmile_qr_scan"}, "fusion_lon": 0.0}, {"lat": 38.946300666666666, "is_disabled": 0, "type": "electric_scooter", "lon": -77.0252335, "bike_id": "182d7060ac4e344c50fd8ef20c29df09", "fusion_lat": 0.0, "name": "182d7060ac4e344c50fd8ef20c29df09", "is_reserved": 0, "rental_uris": {"android": "https://dc.lft.to/lastmile_qr_scan", "ios": "https://dc.lft.to/lastmile_qr_scan"}, "fusion_lon": 0.0}, {"lat": 38.905175166666666, "is_disabled": 0, "type": "electric_scooter", "lon": -77.06497666666667, "bike_id": "7ef274b99a8a8e1e445e975600d92de5", "fusion_lat": 0.0, "name": "7ef274b99a8a8e1e445e975600d92de5", "is_reserved": 0, "rental_uris": {"android": "https://dc.lft.to/lastmile_qr_scan", "ios": "https://dc.lft.to/lastmile_qr_scan"}, "fusion_lon": 0.0}, {"lat": 38.911915, "is_disabled": 0, "type": "electric_scooter", "lon": -77.04462466666666, "bike_id": "50cad62635dae47f12d2dcd8f0eedc55", "fusion_lat": 0.0, "name": "50cad62635dae47f12d2dcd8f0eedc55", "is_reserved": 0, "rental_uris": {"android": "https://dc.lft.to/lastmile_qr_scan", "ios": "https://dc.lft.to/lastmile_qr_scan"}, "fusion_lon": 0.0}, {"lat": 38.918035, "is_disabled": 0, "type": "electric_scooter", "lon": -77.02701866666666, "bike_id": "c764fac4bdf37b0c852f3afc711cf2ab", "fusion_lat": 0.0, "name": "c764fac4bdf37b0c852f3afc711cf2ab", "is_reserved": 0, "rental_uris": {"android": "https://dc.lft.to/lastmile_qr_scan", "ios": "https://dc.lft.to/lastmile_qr_scan"}, "fusion_lon": 0.0}, {"lat": 38.917501333333334, "is_disabled": 0, "type": "electric_scooter", "lon": -77.03602483333333, "bike_id": "308f3724b93263c536da1a35143e73c5", "fusion_lat": 0.0, "name": "308f3724b93263c536da1a35143e73c5", "is_reserved": 0, "rental_uris": {"android": "https://dc.lft.to/lastmile_qr_scan", "ios": "https://dc.lft.to/lastmile_qr_scan"}, "fusion_lon": 0.0}, {"lat": 38.919775, "is_disabled": 0, "type": "electric_scooter", "lon": -77.023776, "bike_id": "338993f464850cab52b072fdda29ddb1", "fusion_lat": 0.0, "name": "338993f464850cab52b072fdda29ddb1", "is_reserved": 0, "rental_uris": {"android": "https://dc.lft.to/lastmile_qr_scan", "ios": "https://dc.lft.to/lastmile_qr_scan"}, "fusion_lon": 0.0}, {"lat": 38.902059, "is_disabled": 0, "type": "electric_scooter", "lon": -77.023152, "bike_id": "1e3281e05d08a99e8dd48a47901ba26f", "fusion_lat": 0.0, "name": "1e3281e05d08a99e8dd48a47901ba26f", "is_reserved": 0, "rental_uris": {"android": "https://dc.lft.to/lastmile_qr_scan", "ios": "https://dc.lft.to/lastmile_qr_scan"}, "fusion_lon": 0.0}, {"lat": 38.90246233333333, "is_disabled": 0, "type": "electric_scooter", "lon": -77.03339466666667, "bike_id": "25352fde92c56180e6a4c536ce2ae0df", "fusion_lat": 0.0, "name": "25352fde92c56180e6a4c536ce2ae0df", "is_reserved": 0, "rental_uris": {"android": "https://dc.lft.to/lastmile_qr_scan", "ios": "https://dc.lft.to/lastmile_qr_scan"}, "fusion_lon": 0.0}, {"lat": 38.896068166666666, "is_disabled": 0, "type": "electric_scooter", "lon": -77.05472116666667, "bike_id": "78e706b24ea5e31cfb477251007f8d35", "fusion_lat": 0.0, "name": "78e706b24ea5e31cfb477251007f8d35", "is_reserved": 0, "rental_uris": {"android": "https://dc.lft.to/lastmile_qr_scan", "ios": "https://dc.lft.to/lastmile_qr_scan"}, "fusion_lon": 0.0}, {"lat": 38.900625833333336, "is_disabled": 0, "type": "electric_scooter", "lon": -77.00200666666667, "bike_id": "bd03616426e195065c19fea848a44fd5", "fusion_lat": 0.0, "name": "bd03616426e195065c19fea848a44fd5", "is_reserved": 0, "rental_uris": {"android": "https://dc.lft.to/lastmile_qr_scan", "ios": "https://dc.lft.to/lastmile_qr_scan"}, "fusion_lon": 0.0}, {"lat": 38.90847266666667, "is_disabled": 0, "type": "electric_scooter", "lon": -77.047743, "bike_id": "24fc73fcf85131ba23c106b494ea811b", "fusion_lat": 0.0, "name": "24fc73fcf85131ba23c106b494ea811b", "is_reserved": 0, "rental_uris": {"android": "https://dc.lft.to/lastmile_qr_scan", "ios": "https://dc.lft.to/lastmile_qr_scan"}, "fusion_lon": 0.0}, {"lat": 38.900858666666664, "is_disabled": 0, "type": "electric_scooter", "lon": -77.027079, "bike_id": "f8464f668aa58010d5e34710b7484c61", "fusion_lat": 0.0, "name": "f8464f668aa58010d5e34710b7484c61", "is_reserved": 0, "rental_uris": {"android": "https://dc.lft.to/lastmile_qr_scan", "ios": "https://dc.lft.to/lastmile_qr_scan"}, "fusion_lon": 0.0}, {"lat": 38.8892645, "is_disabled": 0, "type": "electric_scooter", "lon": -76.97374416666666, "bike_id": "35f90b32116a1815060da343e56e06d3", "fusion_lat": 0.0, "name": "35f90b32116a1815060da343e56e06d3", "is_reserved": 0, "rental_uris": {"android": "https://dc.lft.to/lastmile_qr_scan", "ios": "https://dc.lft.to/lastmile_qr_scan"}, "fusion_lon": 0.0}, {"lat": 38.862572666666665, "is_disabled": 0, "type": "electric_scooter", "lon": -76.99512033333333, "bike_id": "8743b565d4272a4add53e9eb08554254", "fusion_lat": 0.0, "name": "8743b565d4272a4add53e9eb08554254", "is_reserved": 0, "rental_uris": {"android": "https://dc.lft.to/lastmile_qr_scan", "ios": "https://dc.lft.to/lastmile_qr_scan"}, "fusion_lon": 0.0}, {"lat": 38.94320583333333, "is_disabled": 0, "type": "electric_scooter", "lon": -77.01708733333334, "bike_id": "01aa07e4dd1d158876a56c0a4a687732", "fusion_lat": 0.0, "name": "01aa07e4dd1d158876a56c0a4a687732", "is_reserved": 0, "rental_uris": {"android": "https://dc.lft.to/lastmile_qr_scan", "ios": "https://dc.lft.to/lastmile_qr_scan"}, "fusion_lon": 0.0}, {"lat": 38.9019915, "is_disabled": 0, "type": "electric_scooter", "lon": -77.02318283333334, "bike_id": "34faaebc3a57a1398188d319de2c0538", "fusion_lat": 0.0, "name": "34faaebc3a57a1398188d319de2c0538", "is_reserved": 0, "rental_uris": {"android": "https://dc.lft.to/lastmile_qr_scan", "ios": "https://dc.lft.to/lastmile_qr_scan"}, "fusion_lon": 0.0}, {"lat": 38.8616085, "is_disabled": 0, "type": "electric_bike", "lon": -77.13097516666667, "bike_id": "8f3ea914d8d17156610597f11f2d420c", "fusion_lat": 0.0, "name": "8f3ea914d8d17156610597f11f2d420c", "is_reserved": 0, "rental_uris": {"android": "https://dc.lft.to/lastmile_qr_scan", "ios": "https://dc.lft.to/lastmile_qr_scan"}, "fusion_lon": 0.0}, {"lat": 38.90235583333333, "is_disabled": 0, "type": "electric_scooter", "lon": -77.0458255, "bike_id": "333d42fd24552e325a8950bb791c19d7", "fusion_lat": 0.0, "name": "333d42fd24552e325a8950bb791c19d7", "is_reserved": 0, "rental_uris": {"android": "https://dc.lft.to/lastmile_qr_scan", "ios": "https://dc.lft.to/lastmile_qr_scan"}, "fusion_lon": 0.0}, {"lat": 38.9162565, "is_disabled": 0, "type": "electric_scooter", "lon": -77.02307033333334, "bike_id": "ac0b4741e82077394b1474d808fd1689", "fusion_lat": 0.0, "name": "ac0b4741e82077394b1474d808fd1689", "is_reserved": 0, "rental_uris": {"android": "https://dc.lft.to/lastmile_qr_scan", "ios": "https://dc.lft.to/lastmile_qr_scan"}, "fusion_lon": 0.0}, {"lat": 38.929706833333334, "is_disabled": 0, "type": "electric_scooter", "lon": -77.01304533333334, "bike_id": "9eb0f1912a6d710d9a700889cd72e8bc", "fusion_lat": 0.0, "name": "9eb0f1912a6d710d9a700889cd72e8bc", "is_reserved": 0, "rental_uris": {"android": "https://dc.lft.to/lastmile_qr_scan", "ios": "https://dc.lft.to/lastmile_qr_scan"}, "fusion_lon": 0.0}, {"lat": 38.9066145, "is_disabled": 0, "type": "electric_scooter", "lon": -77.03857033333334, "bike_id": "6271badfa10a5eb931e47f8c6a4bfd12", "fusion_lat": 0.0, "name": "6271badfa10a5eb931e47f8c6a4bfd12", "is_reserved": 0, "rental_uris": {"android": "https://dc.lft.to/lastmile_qr_scan", "ios": "https://dc.lft.to/lastmile_qr_scan"}, "fusion_lon": 0.0}, {"lat": 38.857123666666666, "is_disabled": 0, "type": "electric_bike", "lon": -76.97110933333333, "bike_id": "07cede5a12df71f804c0ea41d92c65a5", "fusion_lat": 0.0, "name": "07cede5a12df71f804c0ea41d92c65a5", "is_reserved": 0, "rental_uris": {"android": "https://dc.lft.to/lastmile_qr_scan", "ios": "https://dc.lft.to/lastmile_qr_scan"}, "fusion_lon": 0.0}, {"lat": 38.923701666666666, "is_disabled": 0, "type": "electric_scooter", "lon": -77.0317, "bike_id": "223a32fce3c0844c55f58661b1fa08a4", "fusion_lat": 0.0, "name": "223a32fce3c0844c55f58661b1fa08a4", "is_reserved": 0, "rental_uris": {"android": "https://dc.lft.to/lastmile_qr_scan", "ios": "https://dc.lft.to/lastmile_qr_scan"}, "fusion_lon": 0.0}, {"lat": 38.871466166666664, "is_disabled": 0, "type": "electric_bike", "lon": -76.937056, "bike_id": "674402497dead35f376085096c013c3c", "fusion_lat": 0.0, "name": "674402497dead35f376085096c013c3c", "is_reserved": 0, "rental_uris": {"android": "https://dc.lft.to/lastmile_qr_scan", "ios": "https://dc.lft.to/lastmile_qr_scan"}, "fusion_lon": 0.0}, {"lat": 38.96131616666667, "is_disabled": 0, "type": "electric_scooter", "lon": -77.0223345, "bike_id": "8cbcc53dbca923f81b5be23d81dd0fc9", "fusion_lat": 0.0, "name": "8cbcc53dbca923f81b5be23d81dd0fc9", "is_reserved": 0, "rental_uris": {"android": "https://dc.lft.to/lastmile_qr_scan", "ios": "https://dc.lft.to/lastmile_qr_scan"}, "fusion_lon": 0.0}, {"lat": 38.903580166666664, "is_disabled": 0, "type": "electric_scooter", "lon": -77.04459883333334, "bike_id": "cf9e7c871f65b05476d73cb24a77ca28", "fusion_lat": 0.0, "name": "cf9e7c871f65b05476d73cb24a77ca28", "is_reserved": 0, "rental_uris": {"android": "https://dc.lft.to/lastmile_qr_scan", "ios": "https://dc.lft.to/lastmile_qr_scan"}, "fusion_lon": 0.0}, {"lat": 38.951700333333335, "is_disabled": 0, "type": "electric_bike", "lon": -76.96900066666667, "bike_id": "012e401a96c6562ab6979c8506411318", "fusion_lat": 0.0, "name": "012e401a96c6562ab6979c8506411318", "is_reserved": 0, "rental_uris": {"android": "https://dc.lft.to/lastmile_qr_scan", "ios": "https://dc.lft.to/lastmile_qr_scan"}, "fusion_lon": 0.0}, {"lat": 38.902636333333334, "is_disabled": 0, "type": "electric_scooter", "lon": -77.0397305, "bike_id": "e03f43440112c0cf27359eef533b8bb2", "fusion_lat": 0.0, "name": "e03f43440112c0cf27359eef533b8bb2", "is_reserved": 0, "rental_uris": {"android": "https://dc.lft.to/lastmile_qr_scan", "ios": "https://dc.lft.to/lastmile_qr_scan"}, "fusion_lon": 0.0}, {"lat": 38.905185, "is_disabled": 0, "type": "electric_scooter", "lon": -77.06467433333333, "bike_id": "2f4830217cbf1e98d1a4f97fb46c1f06", "fusion_lat": 0.0, "name": "2f4830217cbf1e98d1a4f97fb46c1f06", "is_reserved": 0, "rental_uris": {"android": "https://dc.lft.to/lastmile_qr_scan", "ios": "https://dc.lft.to/lastmile_qr_scan"}, "fusion_lon": 0.0}, {"lat": 38.9129255, "is_disabled": 0, "type": "electric_scooter", "lon": -77.023881, "bike_id": "1016d68beeeb5b4149ccbc0f6fb4ef66", "fusion_lat": 0.0, "name": "1016d68beeeb5b4149ccbc0f6fb4ef66", "is_reserved": 0, "rental_uris": {"android": "https://dc.lft.to/lastmile_qr_scan", "ios": "https://dc.lft.to/lastmile_qr_scan"}, "fusion_lon": 0.0}, {"lat": 38.958198333333335, "is_disabled": 0, "type": "electric_bike", "lon": -76.940955, "bike_id": "94c4aa2ef21789d5e22b3e5319a7010b", "fusion_lat": 0.0, "name": "94c4aa2ef21789d5e22b3e5319a7010b", "is_reserved": 0, "rental_uris": {"android": "https://dc.lft.to/lastmile_qr_scan", "ios": "https://dc.lft.to/lastmile_qr_scan"}, "fusion_lon": 0.0}, {"lat": 38.911197, "is_disabled": 0, "type": "electric_scooter", "lon": -77.03206433333334, "bike_id": "6de4b2e07f9a0f3bae76648faaba41fa", "fusion_lat": 0.0, "name": "6de4b2e07f9a0f3bae76648faaba41fa", "is_reserved": 0, "rental_uris": {"android": "https://dc.lft.to/lastmile_qr_scan", "ios": "https://dc.lft.to/lastmile_qr_scan"}, "fusion_lon": 0.0}, {"lat": 38.91868516666667, "is_disabled": 0, "type": "electric_scooter", "lon": -77.0121755, "bike_id": "30e5c551d54d6738f061821276649a83", "fusion_lat": 0.0, "name": "30e5c551d54d6738f061821276649a83", "is_reserved": 0, "rental_uris": {"android": "https://dc.lft.to/lastmile_qr_scan", "ios": "https://dc.lft.to/lastmile_qr_scan"}, "fusion_lon": 0.0}, {"lat": 38.90068633333333, "is_disabled": 0, "type": "electric_scooter", "lon": -77.00213316666667, "bike_id": "9ef014232c88fe13dd35d28cd5effd58", "fusion_lat": 0.0, "name": "9ef014232c88fe13dd35d28cd5effd58", "is_reserved": 0, "rental_uris": {"android": "https://dc.lft.to/lastmile_qr_scan", "ios": "https://dc.lft.to/lastmile_qr_scan"}, "fusion_lon": 0.0}, {"lat": 38.928457333333334, "is_disabled": 0, "type": "electric_scooter", "lon": -77.0135995, "bike_id": "a54cc0250181d6c8586b90b3e197fed4", "fusion_lat": 0.0, "name": "a54cc0250181d6c8586b90b3e197fed4", "is_reserved": 0, "rental_uris": {"android": "https://dc.lft.to/lastmile_qr_scan", "ios": "https://dc.lft.to/lastmile_qr_scan"}, "fusion_lon": 0.0}, {"lat": 38.933556, "is_disabled": 0, "type": "electric_bike", "lon": -77.09966266666666, "bike_id": "94099b8b3a30adfc346588d45e83a91a", "fusion_lat": 0.0, "name": "94099b8b3a30adfc346588d45e83a91a", "is_reserved": 0, "rental_uris": {"android": "https://dc.lft.to/lastmile_qr_scan", "ios": "https://dc.lft.to/lastmile_qr_scan"}, "fusion_lon": 0.0}, {"lat": 38.91780333333333, "is_disabled": 0, "type": "electric_scooter", "lon": -77.04341083333334, "bike_id": "86e21afee603334083ffa7ee0a93ae73", "fusion_lat": 0.0, "name": "86e21afee603334083ffa7ee0a93ae73", "is_reserved": 0, "rental_uris": {"android": "https://dc.lft.to/lastmile_qr_scan", "ios": "https://dc.lft.to/lastmile_qr_scan"}, "fusion_lon": 0.0}, {"lat": 38.92576783333333, "is_disabled": 0, "type": "electric_scooter", "lon": -77.05773766666667, "bike_id": "1bdde8f4ef93f5bba47de662cabbaf08", "fusion_lat": 0.0, "name": "1bdde8f4ef93f5bba47de662cabbaf08", "is_reserved": 0, "rental_uris": {"android": "https://dc.lft.to/lastmile_qr_scan", "ios": "https://dc.lft.to/lastmile_qr_scan"}, "fusion_lon": 0.0}, {"lat": 38.921474, "is_disabled": 0, "type": "electric_scooter", "lon": -77.043511, "bike_id": "ba26dcd514c545140c1e3f547eaa1b78", "fusion_lat": 0.0, "name": "ba26dcd514c545140c1e3f547eaa1b78", "is_reserved": 0, "rental_uris": {"android": "https://dc.lft.to/lastmile_qr_scan", "ios": "https://dc.lft.to/lastmile_qr_scan"}, "fusion_lon": 0.0}, {"lat": 38.80686216666667, "is_disabled": 0, "type": "electric_bike", "lon": -77.0812155, "bike_id": "519e69d1fcd9936889c2ba7b58a5eca4", "fusion_lat": 0.0, "name": "519e69d1fcd9936889c2ba7b58a5eca4", "is_reserved": 0, "rental_uris": {"android": "https://dc.lft.to/lastmile_qr_scan", "ios": "https://dc.lft.to/lastmile_qr_scan"}, "fusion_lon": 0.0}, {"lat": 38.90328783333333, "is_disabled": 0, "type": "electric_scooter", "lon": -76.97595933333334, "bike_id": "4a7a18d58407d9a8b353008ac57f7e23", "fusion_lat": 0.0, "name": "4a7a18d58407d9a8b353008ac57f7e23", "is_reserved": 0, "rental_uris": {"android": "https://dc.lft.to/lastmile_qr_scan", "ios": "https://dc.lft.to/lastmile_qr_scan"}, "fusion_lon": 0.0}, {"lat": 38.939864666666665, "is_disabled": 0, "type": "electric_scooter", "lon": -77.071798, "bike_id": "7ae71ce8f1a3fc11f51a4df4d7f85862", "fusion_lat": 0.0, "name": "7ae71ce8f1a3fc11f51a4df4d7f85862", "is_reserved": 0, "rental_uris": {"android": "https://dc.lft.to/lastmile_qr_scan", "ios": "https://dc.lft.to/lastmile_qr_scan"}, "fusion_lon": 0.0}, {"lat": 38.907570666666665, "is_disabled": 0, "type": "electric_scooter", "lon": -77.07034666666667, "bike_id": "b000d487c538c7a1155c667967fd0d02", "fusion_lat": 0.0, "name": "b000d487c538c7a1155c667967fd0d02", "is_reserved": 0, "rental_uris": {"android": "https://dc.lft.to/lastmile_qr_scan", "ios": "https://dc.lft.to/lastmile_qr_scan"}, "fusion_lon": 0.0}, {"lat": 38.90350683333333, "is_disabled": 0, "type": "electric_scooter", "lon": -77.0253045, "bike_id": "58c06b3389586e5f5577c784f3a796d7", "fusion_lat": 0.0, "name": "58c06b3389586e5f5577c784f3a796d7", "is_reserved": 0, "rental_uris": {"android": "https://dc.lft.to/lastmile_qr_scan", "ios": "https://dc.lft.to/lastmile_qr_scan"}, "fusion_lon": 0.0}, {"lat": 38.897298, "is_disabled": 0, "type": "electric_scooter", "lon": -77.04536566666667, "bike_id": "d8d46aefb6b38baf7a19e9db542df646", "fusion_lat": 0.0, "name": "d8d46aefb6b38baf7a19e9db542df646", "is_reserved": 0, "rental_uris": {"android": "https://dc.lft.to/lastmile_qr_scan", "ios": "https://dc.lft.to/lastmile_qr_scan"}, "fusion_lon": 0.0}, {"lat": 38.9319225, "is_disabled": 0, "type": "electric_scooter", "lon": -77.03754266666667, "bike_id": "ce24789d8fa01cc7608c61fe649a0e18", "fusion_lat": 0.0, "name": "ce24789d8fa01cc7608c61fe649a0e18", "is_reserved": 0, "rental_uris": {"android": "https://dc.lft.to/lastmile_qr_scan", "ios": "https://dc.lft.to/lastmile_qr_scan"}, "fusion_lon": 0.0}, {"lat": 38.87408966666667, "is_disabled": 0, "type": "electric_scooter", "lon": -76.97311066666667, "bike_id": "b035ac369e76977a680bc4581ff3587a", "fusion_lat": 0.0, "name": "b035ac369e76977a680bc4581ff3587a", "is_reserved": 0, "rental_uris": {"android": "https://dc.lft.to/lastmile_qr_scan", "ios": "https://dc.lft.to/lastmile_qr_scan"}, "fusion_lon": 0.0}, {"lat": 38.86658033333333, "is_disabled": 0, "type": "electric_scooter", "lon": -76.988809, "bike_id": "86b82ebf66c8bbe41c3a4db9099fb9d1", "fusion_lat": 0.0, "name": "86b82ebf66c8bbe41c3a4db9099fb9d1", "is_reserved": 0, "rental_uris": {"android": "https://dc.lft.to/lastmile_qr_scan", "ios": "https://dc.lft.to/lastmile_qr_scan"}, "fusion_lon": 0.0}, {"lat": 38.92638516666667, "is_disabled": 0, "type": "electric_scooter", "lon": -77.04313833333333, "bike_id": "0a4a5e6b8f10950eac201cb199e7c578", "fusion_lat": 0.0, "name": "0a4a5e6b8f10950eac201cb199e7c578", "is_reserved": 0, "rental_uris": {"android": "https://dc.lft.to/lastmile_qr_scan", "ios": "https://dc.lft.to/lastmile_qr_scan"}, "fusion_lon": 0.0}, {"lat": 38.908521, "is_disabled": 0, "type": "electric_scooter", "lon": -77.00628683333333, "bike_id": "586ac9accb5becb50e688e7efc24cf31", "fusion_lat": 0.0, "name": "586ac9accb5becb50e688e7efc24cf31", "is_reserved": 0, "rental_uris": {"android": "https://dc.lft.to/lastmile_qr_scan", "ios": "https://dc.lft.to/lastmile_qr_scan"}, "fusion_lon": 0.0}, {"lat": 38.937589, "is_disabled": 0, "type": "electric_scooter", "lon": -77.021384, "bike_id": "0ca331fc855823badd140aea57eef2cf", "fusion_lat": 0.0, "name": "0ca331fc855823badd140aea57eef2cf", "is_reserved": 0, "rental_uris": {"android": "https://dc.lft.to/lastmile_qr_scan", "ios": "https://dc.lft.to/lastmile_qr_scan"}, "fusion_lon": 0.0}, {"lat": 38.89680233333333, "is_disabled": 0, "type": "electric_scooter", "lon": -77.05133166666667, "bike_id": "7f02b2303cda662efbce7d63900d2296", "fusion_lat": 0.0, "name": "7f02b2303cda662efbce7d63900d2296", "is_reserved": 0, "rental_uris": {"android": "https://dc.lft.to/lastmile_qr_scan", "ios": "https://dc.lft.to/lastmile_qr_scan"}, "fusion_lon": 0.0}, {"lat": 38.91802083333333, "is_disabled": 0, "type": "electric_bike", "lon": -77.22328, "bike_id": "79a4e7efee345e128178340c635ada58", "fusion_lat": 0.0, "name": "79a4e7efee345e128178340c635ada58", "is_reserved": 0, "rental_uris": {"android": "https://dc.lft.to/lastmile_qr_scan", "ios": "https://dc.lft.to/lastmile_qr_scan"}, "fusion_lon": 0.0}, {"lat": 38.9224845, "is_disabled": 0, "type": "electric_scooter", "lon": -77.03393233333334, "bike_id": "087b7c483f8cd45664653a65bec864cb", "fusion_lat": 0.0, "name": "087b7c483f8cd45664653a65bec864cb", "is_reserved": 0, "rental_uris": {"android": "https://dc.lft.to/lastmile_qr_scan", "ios": "https://dc.lft.to/lastmile_qr_scan"}, "fusion_lon": 0.0}, {"lat": 38.9011105, "is_disabled": 0, "type": "electric_scooter", "lon": -77.02507133333333, "bike_id": "86861b573f56ca5a8149db6bbcbaac7a", "fusion_lat": 0.0, "name": "86861b573f56ca5a8149db6bbcbaac7a", "is_reserved": 0, "rental_uris": {"android": "https://dc.lft.to/lastmile_qr_scan", "ios": "https://dc.lft.to/lastmile_qr_scan"}, "fusion_lon": 0.0}, {"lat": 38.901040333333334, "is_disabled": 0, "type": "electric_scooter", "lon": -77.03221083333334, "bike_id": "510a93f4632fa1130677b0918d728187", "fusion_lat": 0.0, "name": "510a93f4632fa1130677b0918d728187", "is_reserved": 0, "rental_uris": {"android": "https://dc.lft.to/lastmile_qr_scan", "ios": "https://dc.lft.to/lastmile_qr_scan"}, "fusion_lon": 0.0}, {"lat": 38.9306525, "is_disabled": 0, "type": "electric_scooter", "lon": -77.0319245, "bike_id": "9b239fc4dcde18d983bdcaa485b2fb22", "fusion_lat": 0.0, "name": "9b239fc4dcde18d983bdcaa485b2fb22", "is_reserved": 0, "rental_uris": {"android": "https://dc.lft.to/lastmile_qr_scan", "ios": "https://dc.lft.to/lastmile_qr_scan"}, "fusion_lon": 0.0}, {"lat": 38.944445333333334, "is_disabled": 0, "type": "electric_scooter", "lon": -77.01504816666667, "bike_id": "b83dfaab70a3a1a3e4fc9691ae3a1f5a", "fusion_lat": 0.0, "name": "b83dfaab70a3a1a3e4fc9691ae3a1f5a", "is_reserved": 0, "rental_uris": {"android": "https://dc.lft.to/lastmile_qr_scan", "ios": "https://dc.lft.to/lastmile_qr_scan"}, "fusion_lon": 0.0}, {"lat": 38.943936, "is_disabled": 0, "type": "electric_scooter", "lon": -77.01986, "bike_id": "0fd5db310518bb6baa79b889fe5b9aae", "fusion_lat": 0.0, "name": "0fd5db310518bb6baa79b889fe5b9aae", "is_reserved": 0, "rental_uris": {"android": "https://dc.lft.to/lastmile_qr_scan", "ios": "https://dc.lft.to/lastmile_qr_scan"}, "fusion_lon": 0.0}, {"lat": 38.85512466666667, "is_disabled": 0, "type": "electric_bike", "lon": -77.12039516666667, "bike_id": "6a44288c2ae4d2d58e45af186a401c2a", "fusion_lat": 0.0, "name": "6a44288c2ae4d2d58e45af186a401c2a", "is_reserved": 0, "rental_uris": {"android": "https://dc.lft.to/lastmile_qr_scan", "ios": "https://dc.lft.to/lastmile_qr_scan"}, "fusion_lon": 0.0}, {"lat": 38.92285533333333, "is_disabled": 0, "type": "electric_scooter", "lon": -77.022465, "bike_id": "8a4abbb6de2bca2c098a14e024a07e04", "fusion_lat": 0.0, "name": "8a4abbb6de2bca2c098a14e024a07e04", "is_reserved": 0, "rental_uris": {"android": "https://dc.lft.to/lastmile_qr_scan", "ios": "https://dc.lft.to/lastmile_qr_scan"}, "fusion_lon": 0.0}, {"lat": 38.851887166666664, "is_disabled": 0, "type": "electric_bike", "lon": -76.9611425, "bike_id": "6277bff521b4e5dc010c74a0f8d9e345", "fusion_lat": 0.0, "name": "6277bff521b4e5dc010c74a0f8d9e345", "is_reserved": 0, "rental_uris": {"android": "https://dc.lft.to/lastmile_qr_scan", "ios": "https://dc.lft.to/lastmile_qr_scan"}, "fusion_lon": 0.0}, {"lat": 38.911137333333336, "is_disabled": 0, "type": "electric_scooter", "lon": -77.03835066666667, "bike_id": "9495b72dff067a838d3ce7e76c234744", "fusion_lat": 0.0, "name": "9495b72dff067a838d3ce7e76c234744", "is_reserved": 0, "rental_uris": {"android": "https://dc.lft.to/lastmile_qr_scan", "ios": "https://dc.lft.to/lastmile_qr_scan"}, "fusion_lon": 0.0}, {"lat": 38.9006045, "is_disabled": 0, "type": "electric_scooter", "lon": -77.00198283333333, "bike_id": "2b565e553bc021af474e84e6a4905005", "fusion_lat": 0.0, "name": "2b565e553bc021af474e84e6a4905005", "is_reserved": 0, "rental_uris": {"android": "https://dc.lft.to/lastmile_qr_scan", "ios": "https://dc.lft.to/lastmile_qr_scan"}, "fusion_lon": 0.0}, {"lat": 38.911704666666665, "is_disabled": 0, "type": "electric_scooter", "lon": -77.02975283333333, "bike_id": "320d842098c4799fce2cd7649d77677a", "fusion_lat": 0.0, "name": "320d842098c4799fce2cd7649d77677a", "is_reserved": 0, "rental_uris": {"android": "https://dc.lft.to/lastmile_qr_scan", "ios": "https://dc.lft.to/lastmile_qr_scan"}, "fusion_lon": 0.0}, {"lat": 38.9027315, "is_disabled": 0, "type": "electric_scooter", "lon": -77.03383466666666, "bike_id": "d89d82e292257e7b793363ba6e8b451c", "fusion_lat": 0.0, "name": "d89d82e292257e7b793363ba6e8b451c", "is_reserved": 0, "rental_uris": {"android": "https://dc.lft.to/lastmile_qr_scan", "ios": "https://dc.lft.to/lastmile_qr_scan"}, "fusion_lon": 0.0}, {"lat": 38.9727575, "is_disabled": 0, "type": "electric_bike", "lon": -77.03630583333333, "bike_id": "4a2d7d74c348f6756534e53f552ad99e", "fusion_lat": 0.0, "name": "4a2d7d74c348f6756534e53f552ad99e", "is_reserved": 0, "rental_uris": {"android": "https://dc.lft.to/lastmile_qr_scan", "ios": "https://dc.lft.to/lastmile_qr_scan"}, "fusion_lon": 0.0}, {"lat": 38.91421366666667, "is_disabled": 0, "type": "electric_scooter", "lon": -77.022054, "bike_id": "4ff346a5721d405491ff53902a8b70f5", "fusion_lat": 0.0, "name": "4ff346a5721d405491ff53902a8b70f5", "is_reserved": 0, "rental_uris": {"android": "https://dc.lft.to/lastmile_qr_scan", "ios": "https://dc.lft.to/lastmile_qr_scan"}, "fusion_lon": 0.0}, {"lat": 38.923359166666664, "is_disabled": 0, "type": "electric_scooter", "lon": -77.04191933333334, "bike_id": "728ea56c508352caafd77aa71cc07d18", "fusion_lat": 0.0, "name": "728ea56c508352caafd77aa71cc07d18", "is_reserved": 0, "rental_uris": {"android": "https://dc.lft.to/lastmile_qr_scan", "ios": "https://dc.lft.to/lastmile_qr_scan"}, "fusion_lon": 0.0}, {"lat": 38.894845333333336, "is_disabled": 0, "type": "electric_scooter", "lon": -77.02116033333333, "bike_id": "64a1e1f39ce1243ba2a8cd77478b99bb", "fusion_lat": 0.0, "name": "64a1e1f39ce1243ba2a8cd77478b99bb", "is_reserved": 0, "rental_uris": {"android": "https://dc.lft.to/lastmile_qr_scan", "ios": "https://dc.lft.to/lastmile_qr_scan"}, "fusion_lon": 0.0}, {"lat": 38.918206166666664, "is_disabled": 0, "type": "electric_scooter", "lon": -77.03915266666667, "bike_id": "7f431bdcca4ad3c7fe1db8bc4a5cb447", "fusion_lat": 0.0, "name": "7f431bdcca4ad3c7fe1db8bc4a5cb447", "is_reserved": 0, "rental_uris": {"android": "https://dc.lft.to/lastmile_qr_scan", "ios": "https://dc.lft.to/lastmile_qr_scan"}, "fusion_lon": 0.0}, {"lat": 38.907693333333334, "is_disabled": 0, "type": "electric_scooter", "lon": -76.98312316666667, "bike_id": "d38df82c91648288ae02fdb0c5a2ca52", "fusion_lat": 0.0, "name": "d38df82c91648288ae02fdb0c5a2ca52", "is_reserved": 0, "rental_uris": {"android": "https://dc.lft.to/lastmile_qr_scan", "ios": "https://dc.lft.to/lastmile_qr_scan"}, "fusion_lon": 0.0}, {"lat": 38.90371533333333, "is_disabled": 0, "type": "electric_scooter", "lon": -77.0399935, "bike_id": "c6ee7f7c065477123a14234ee2269101", "fusion_lat": 0.0, "name": "c6ee7f7c065477123a14234ee2269101", "is_reserved": 0, "rental_uris": {"android": "https://dc.lft.to/lastmile_qr_scan", "ios": "https://dc.lft.to/lastmile_qr_scan"}, "fusion_lon": 0.0}, {"lat": 38.90982316666667, "is_disabled": 0, "type": "electric_bike", "lon": -76.98525216666667, "bike_id": "81d8144a11d3f56670b698adaa7d2dd9", "fusion_lat": 0.0, "name": "81d8144a11d3f56670b698adaa7d2dd9", "is_reserved": 0, "rental_uris": {"android": "https://dc.lft.to/lastmile_qr_scan", "ios": "https://dc.lft.to/lastmile_qr_scan"}, "fusion_lon": 0.0}, {"lat": 38.893451166666665, "is_disabled": 0, "type": "electric_scooter", "lon": -76.9493735, "bike_id": "af28ba3eafe9497d590b7641af80d5dd", "fusion_lat": 0.0, "name": "af28ba3eafe9497d590b7641af80d5dd", "is_reserved": 0, "rental_uris": {"android": "https://dc.lft.to/lastmile_qr_scan", "ios": "https://dc.lft.to/lastmile_qr_scan"}, "fusion_lon": 0.0}, {"lat": 38.908666333333336, "is_disabled": 0, "type": "electric_scooter", "lon": -77.04594083333333, "bike_id": "eab5c487029a518aff3211531b6999b7", "fusion_lat": 0.0, "name": "eab5c487029a518aff3211531b6999b7", "is_reserved": 0, "rental_uris": {"android": "https://dc.lft.to/lastmile_qr_scan", "ios": "https://dc.lft.to/lastmile_qr_scan"}, "fusion_lon": 0.0}, {"lat": 38.89751566666666, "is_disabled": 0, "type": "electric_scooter", "lon": -77.00745866666666, "bike_id": "a4d5d85b2eefc3a580dc7b355d4f6a92", "fusion_lat": 0.0, "name": "a4d5d85b2eefc3a580dc7b355d4f6a92", "is_reserved": 0, "rental_uris": {"android": "https://dc.lft.to/lastmile_qr_scan", "ios": "https://dc.lft.to/lastmile_qr_scan"}, "fusion_lon": 0.0}, {"lat": 38.8367485, "is_disabled": 0, "type": "electric_scooter", "lon": -77.00572233333334, "bike_id": "ee2dfd223f7fef0a14b1e13ae12a1677", "fusion_lat": 0.0, "name": "ee2dfd223f7fef0a14b1e13ae12a1677", "is_reserved": 0, "rental_uris": {"android": "https://dc.lft.to/lastmile_qr_scan", "ios": "https://dc.lft.to/lastmile_qr_scan"}, "fusion_lon": 0.0}, {"lat": 38.90758616666667, "is_disabled": 0, "type": "electric_scooter", "lon": -77.03444433333334, "bike_id": "dab86b1f9202f33d450eb178bb6c94e2", "fusion_lat": 0.0, "name": "dab86b1f9202f33d450eb178bb6c94e2", "is_reserved": 0, "rental_uris": {"android": "https://dc.lft.to/lastmile_qr_scan", "ios": "https://dc.lft.to/lastmile_qr_scan"}, "fusion_lon": 0.0}, {"lat": 38.900243833333334, "is_disabled": 0, "type": "electric_scooter", "lon": -76.988762, "bike_id": "d436c80c36dd9c63cec60677352417f6", "fusion_lat": 0.0, "name": "d436c80c36dd9c63cec60677352417f6", "is_reserved": 0, "rental_uris": {"android": "https://dc.lft.to/lastmile_qr_scan", "ios": "https://dc.lft.to/lastmile_qr_scan"}, "fusion_lon": 0.0}, {"lat": 38.90851283333333, "is_disabled": 0, "type": "electric_scooter", "lon": -77.04770683333334, "bike_id": "f7141eed6c7d1bf28543fa6c3bdec9e1", "fusion_lat": 0.0, "name": "f7141eed6c7d1bf28543fa6c3bdec9e1", "is_reserved": 0, "rental_uris": {"android": "https://dc.lft.to/lastmile_qr_scan", "ios": "https://dc.lft.to/lastmile_qr_scan"}, "fusion_lon": 0.0}, {"lat": 38.91816333333333, "is_disabled": 0, "type": "electric_scooter", "lon": -77.02478116666667, "bike_id": "e2594a7e6e3e10b0c8d041a7d5b9c6e8", "fusion_lat": 0.0, "name": "e2594a7e6e3e10b0c8d041a7d5b9c6e8", "is_reserved": 0, "rental_uris": {"android": "https://dc.lft.to/lastmile_qr_scan", "ios": "https://dc.lft.to/lastmile_qr_scan"}, "fusion_lon": 0.0}, {"lat": 38.9024075, "is_disabled": 0, "type": "electric_scooter", "lon": -77.02492966666667, "bike_id": "7b4140edf1169fe083b9c2e6b0d8cc89", "fusion_lat": 0.0, "name": "7b4140edf1169fe083b9c2e6b0d8cc89", "is_reserved": 0, "rental_uris": {"android": "https://dc.lft.to/lastmile_qr_scan", "ios": "https://dc.lft.to/lastmile_qr_scan"}, "fusion_lon": 0.0}, {"lat": 38.9007335, "is_disabled": 0, "type": "electric_scooter", "lon": -77.00211516666667, "bike_id": "70d1a6c323fff45271b0faa3140d1f56", "fusion_lat": 0.0, "name": "70d1a6c323fff45271b0faa3140d1f56", "is_reserved": 0, "rental_uris": {"android": "https://dc.lft.to/lastmile_qr_scan", "ios": "https://dc.lft.to/lastmile_qr_scan"}, "fusion_lon": 0.0}, {"lat": 38.8700975, "is_disabled": 0, "type": "electric_bike", "lon": -76.960244, "bike_id": "2843ef13772f1e7af0d5dc7c6913353d", "fusion_lat": 0.0, "name": "2843ef13772f1e7af0d5dc7c6913353d", "is_reserved": 0, "rental_uris": {"android": "https://dc.lft.to/lastmile_qr_scan", "ios": "https://dc.lft.to/lastmile_qr_scan"}, "fusion_lon": 0.0}, {"lat": 38.898248, "is_disabled": 0, "type": "electric_scooter", "lon": -77.02423916666666, "bike_id": "28c46d9362bdd9b9e270a32815217a6b", "fusion_lat": 0.0, "name": "28c46d9362bdd9b9e270a32815217a6b", "is_reserved": 0, "rental_uris": {"android": "https://dc.lft.to/lastmile_qr_scan", "ios": "https://dc.lft.to/lastmile_qr_scan"}, "fusion_lon": 0.0}, {"lat": 38.93336583333333, "is_disabled": 0, "type": "electric_scooter", "lon": -76.99311816666666, "bike_id": "d32036677bc83d612164576e5e1b5d47", "fusion_lat": 0.0, "name": "d32036677bc83d612164576e5e1b5d47", "is_reserved": 0, "rental_uris": {"android": "https://dc.lft.to/lastmile_qr_scan", "ios": "https://dc.lft.to/lastmile_qr_scan"}, "fusion_lon": 0.0}, {"lat": 38.852116, "is_disabled": 0, "type": "electric_bike", "lon": -76.9957975, "bike_id": "54fd698d8270328b9f764f8db3957182", "fusion_lat": 0.0, "name": "54fd698d8270328b9f764f8db3957182", "is_reserved": 0, "rental_uris": {"android": "https://dc.lft.to/lastmile_qr_scan", "ios": "https://dc.lft.to/lastmile_qr_scan"}, "fusion_lon": 0.0}, {"lat": 38.866212166666664, "is_disabled": 0, "type": "electric_scooter", "lon": -76.98642033333333, "bike_id": "a3da21617f84a990021a5a9af35da3dd", "fusion_lat": 0.0, "name": "a3da21617f84a990021a5a9af35da3dd", "is_reserved": 0, "rental_uris": {"android": "https://dc.lft.to/lastmile_qr_scan", "ios": "https://dc.lft.to/lastmile_qr_scan"}, "fusion_lon": 0.0}, {"lat": 38.91290583333333, "is_disabled": 0, "type": "electric_scooter", "lon": -77.03853616666666, "bike_id": "7bfefed7e0d2bf01ca579c6c959000fc", "fusion_lat": 0.0, "name": "7bfefed7e0d2bf01ca579c6c959000fc", "is_reserved": 0, "rental_uris": {"android": "https://dc.lft.to/lastmile_qr_scan", "ios": "https://dc.lft.to/lastmile_qr_scan"}, "fusion_lon": 0.0}, {"lat": 38.91840166666667, "is_disabled": 0, "type": "electric_scooter", "lon": -77.0230775, "bike_id": "f3e81d428d525a2d83c17bb7599103b0", "fusion_lat": 0.0, "name": "f3e81d428d525a2d83c17bb7599103b0", "is_reserved": 0, "rental_uris": {"android": "https://dc.lft.to/lastmile_qr_scan", "ios": "https://dc.lft.to/lastmile_qr_scan"}, "fusion_lon": 0.0}, {"lat": 38.897523166666666, "is_disabled": 0, "type": "electric_scooter", "lon": -77.05503183333333, "bike_id": "449b8de7a0a5beacd1cc0f6cdc6738ad", "fusion_lat": 0.0, "name": "449b8de7a0a5beacd1cc0f6cdc6738ad", "is_reserved": 0, "rental_uris": {"android": "https://dc.lft.to/lastmile_qr_scan", "ios": "https://dc.lft.to/lastmile_qr_scan"}, "fusion_lon": 0.0}, {"lat": 38.93743666666667, "is_disabled": 0, "type": "electric_scooter", "lon": -77.03448283333333, "bike_id": "4eecc65b0c666eb7e4d33bed9e1f5a96", "fusion_lat": 0.0, "name": "4eecc65b0c666eb7e4d33bed9e1f5a96", "is_reserved": 0, "rental_uris": {"android": "https://dc.lft.to/lastmile_qr_scan", "ios": "https://dc.lft.to/lastmile_qr_scan"}, "fusion_lon": 0.0}, {"lat": 38.9132745, "is_disabled": 0, "type": "electric_scooter", "lon": -77.031856, "bike_id": "2d6935d81eaa0f57510ae621dba51066", "fusion_lat": 0.0, "name": "2d6935d81eaa0f57510ae621dba51066", "is_reserved": 0, "rental_uris": {"android": "https://dc.lft.to/lastmile_qr_scan", "ios": "https://dc.lft.to/lastmile_qr_scan"}, "fusion_lon": 0.0}, {"lat": 38.804998833333336, "is_disabled": 0, "type": "electric_bike", "lon": -77.04135533333333, "bike_id": "604bc2d82a0b4f4e6a241511f9414f18", "fusion_lat": 0.0, "name": "604bc2d82a0b4f4e6a241511f9414f18", "is_reserved": 0, "rental_uris": {"android": "https://dc.lft.to/lastmile_qr_scan", "ios": "https://dc.lft.to/lastmile_qr_scan"}, "fusion_lon": 0.0}, {"lat": 38.91421233333333, "is_disabled": 0, "type": "electric_scooter", "lon": -77.03186466666666, "bike_id": "806682989b5e15a36bc9160ca16d59f7", "fusion_lat": 0.0, "name": "806682989b5e15a36bc9160ca16d59f7", "is_reserved": 0, "rental_uris": {"android": "https://dc.lft.to/lastmile_qr_scan", "ios": "https://dc.lft.to/lastmile_qr_scan"}, "fusion_lon": 0.0}, {"lat": 38.90646266666667, "is_disabled": 0, "type": "electric_scooter", "lon": -76.9902585, "bike_id": "695c83fb10dd026dd345da7d7c340823", "fusion_lat": 0.0, "name": "695c83fb10dd026dd345da7d7c340823", "is_reserved": 0, "rental_uris": {"android": "https://dc.lft.to/lastmile_qr_scan", "ios": "https://dc.lft.to/lastmile_qr_scan"}, "fusion_lon": 0.0}, {"lat": 38.91534866666667, "is_disabled": 0, "type": "electric_scooter", "lon": -77.03211466666667, "bike_id": "daa3d03f31b50e6ab12405db3e33c7c8", "fusion_lat": 0.0, "name": "daa3d03f31b50e6ab12405db3e33c7c8", "is_reserved": 0, "rental_uris": {"android": "https://dc.lft.to/lastmile_qr_scan", "ios": "https://dc.lft.to/lastmile_qr_scan"}, "fusion_lon": 0.0}, {"lat": 38.95608816666667, "is_disabled": 0, "type": "electric_scooter", "lon": -77.01017366666666, "bike_id": "62fc2afec55c61fdc16b4031400a481b", "fusion_lat": 0.0, "name": "62fc2afec55c61fdc16b4031400a481b", "is_reserved": 0, "rental_uris": {"android": "https://dc.lft.to/lastmile_qr_scan", "ios": "https://dc.lft.to/lastmile_qr_scan"}, "fusion_lon": 0.0}, {"lat": 38.844210333333336, "is_disabled": 0, "type": "electric_scooter", "lon": -76.99784116666666, "bike_id": "ab50f29b4309691382df50649eb56cc1", "fusion_lat": 0.0, "name": "ab50f29b4309691382df50649eb56cc1", "is_reserved": 0, "rental_uris": {"android": "https://dc.lft.to/lastmile_qr_scan", "ios": "https://dc.lft.to/lastmile_qr_scan"}, "fusion_lon": 0.0}, {"lat": 38.921235833333334, "is_disabled": 0, "type": "electric_scooter", "lon": -77.04121716666667, "bike_id": "670691a51b0b00ad7741bc5d56c37c3c", "fusion_lat": 0.0, "name": "670691a51b0b00ad7741bc5d56c37c3c", "is_reserved": 0, "rental_uris": {"android": "https://dc.lft.to/lastmile_qr_scan", "ios": "https://dc.lft.to/lastmile_qr_scan"}, "fusion_lon": 0.0}, {"lat": 38.93814616666667, "is_disabled": 0, "type": "electric_bike", "lon": -76.99046466666667, "bike_id": "7b2b15cdf28059f117ca08896f9dc07a", "fusion_lat": 0.0, "name": "7b2b15cdf28059f117ca08896f9dc07a", "is_reserved": 0, "rental_uris": {"android": "https://dc.lft.to/lastmile_qr_scan", "ios": "https://dc.lft.to/lastmile_qr_scan"}, "fusion_lon": 0.0}, {"lat": 38.9079415, "is_disabled": 0, "type": "electric_scooter", "lon": -77.00188316666667, "bike_id": "2f7bea6033aef08290aeb26ed8c0c556", "fusion_lat": 0.0, "name": "2f7bea6033aef08290aeb26ed8c0c556", "is_reserved": 0, "rental_uris": {"android": "https://dc.lft.to/lastmile_qr_scan", "ios": "https://dc.lft.to/lastmile_qr_scan"}, "fusion_lon": 0.0}, {"lat": 38.932513, "is_disabled": 0, "type": "electric_scooter", "lon": -77.034657, "bike_id": "4915a20cc19bccca5bbc8f1e85a41727", "fusion_lat": 0.0, "name": "4915a20cc19bccca5bbc8f1e85a41727", "is_reserved": 0, "rental_uris": {"android": "https://dc.lft.to/lastmile_qr_scan", "ios": "https://dc.lft.to/lastmile_qr_scan"}, "fusion_lon": 0.0}, {"lat": 38.89713316666667, "is_disabled": 0, "type": "electric_scooter", "lon": -77.008415, "bike_id": "e99de5a6c507c15498e72ebd95ef4be7", "fusion_lat": 0.0, "name": "e99de5a6c507c15498e72ebd95ef4be7", "is_reserved": 0, "rental_uris": {"android": "https://dc.lft.to/lastmile_qr_scan", "ios": "https://dc.lft.to/lastmile_qr_scan"}, "fusion_lon": 0.0}, {"lat": 38.911107666666666, "is_disabled": 0, "type": "electric_scooter", "lon": -77.03723516666666, "bike_id": "348dac9a065d8b372de3c60ffbe7c020", "fusion_lat": 0.0, "name": "348dac9a065d8b372de3c60ffbe7c020", "is_reserved": 0, "rental_uris": {"android": "https://dc.lft.to/lastmile_qr_scan", "ios": "https://dc.lft.to/lastmile_qr_scan"}, "fusion_lon": 0.0}, {"lat": 38.91402866666667, "is_disabled": 0, "type": "electric_scooter", "lon": -77.03158316666666, "bike_id": "abfd1f30602c5a6d361bd65a13eda590", "fusion_lat": 0.0, "name": "abfd1f30602c5a6d361bd65a13eda590", "is_reserved": 0, "rental_uris": {"android": "https://dc.lft.to/lastmile_qr_scan", "ios": "https://dc.lft.to/lastmile_qr_scan"}, "fusion_lon": 0.0}, {"lat": 38.9338205, "is_disabled": 0, "type": "electric_scooter", "lon": -76.99517083333333, "bike_id": "6c2bd8ea017fee25c5762d9bce429e95", "fusion_lat": 0.0, "name": "6c2bd8ea017fee25c5762d9bce429e95", "is_reserved": 0, "rental_uris": {"android": "https://dc.lft.to/lastmile_qr_scan", "ios": "https://dc.lft.to/lastmile_qr_scan"}, "fusion_lon": 0.0}, {"lat": 38.915065166666665, "is_disabled": 0, "type": "electric_bike", "lon": -77.01879683333334, "bike_id": "3ee60136a90bc3e615307820cd7718cd", "fusion_lat": 0.0, "name": "3ee60136a90bc3e615307820cd7718cd", "is_reserved": 0, "rental_uris": {"android": "https://dc.lft.to/lastmile_qr_scan", "ios": "https://dc.lft.to/lastmile_qr_scan"}, "fusion_lon": 0.0}, {"lat": 38.91560533333333, "is_disabled": 0, "type": "electric_scooter", "lon": -77.03223516666667, "bike_id": "498361cac40c1b934f80b4d6769bfb8b", "fusion_lat": 0.0, "name": "498361cac40c1b934f80b4d6769bfb8b", "is_reserved": 0, "rental_uris": {"android": "https://dc.lft.to/lastmile_qr_scan", "ios": "https://dc.lft.to/lastmile_qr_scan"}, "fusion_lon": 0.0}, {"lat": 38.8960235, "is_disabled": 0, "type": "electric_scooter", "lon": -77.009269, "bike_id": "788da1561c046fa31288db2d7ddc7b35", "fusion_lat": 0.0, "name": "788da1561c046fa31288db2d7ddc7b35", "is_reserved": 0, "rental_uris": {"android": "https://dc.lft.to/lastmile_qr_scan", "ios": "https://dc.lft.to/lastmile_qr_scan"}, "fusion_lon": 0.0}, {"lat": 38.915287166666666, "is_disabled": 0, "type": "electric_scooter", "lon": -77.03214016666666, "bike_id": "05b33663df0bcbcbaf0c5802a15c1ed4", "fusion_lat": 0.0, "name": "05b33663df0bcbcbaf0c5802a15c1ed4", "is_reserved": 0, "rental_uris": {"android": "https://dc.lft.to/lastmile_qr_scan", "ios": "https://dc.lft.to/lastmile_qr_scan"}, "fusion_lon": 0.0}, {"lat": 38.936646333333336, "is_disabled": 0, "type": "electric_scooter", "lon": -77.059327, "bike_id": "72732fc36aa3fb5604ca1dba91aead31", "fusion_lat": 0.0, "name": "72732fc36aa3fb5604ca1dba91aead31", "is_reserved": 0, "rental_uris": {"android": "https://dc.lft.to/lastmile_qr_scan", "ios": "https://dc.lft.to/lastmile_qr_scan"}, "fusion_lon": 0.0}, {"lat": 38.93571683333333, "is_disabled": 0, "type": "electric_scooter", "lon": -77.032663, "bike_id": "41ddb84229b2cf1c664e99d97332d73c", "fusion_lat": 0.0, "name": "41ddb84229b2cf1c664e99d97332d73c", "is_reserved": 0, "rental_uris": {"android": "https://dc.lft.to/lastmile_qr_scan", "ios": "https://dc.lft.to/lastmile_qr_scan"}, "fusion_lon": 0.0}, {"lat": 38.9037885, "is_disabled": 0, "type": "electric_scooter", "lon": -77.04481366666667, "bike_id": "c48dddbaf9ef5b813d5db3a6d527fba7", "fusion_lat": 0.0, "name": "c48dddbaf9ef5b813d5db3a6d527fba7", "is_reserved": 0, "rental_uris": {"android": "https://dc.lft.to/lastmile_qr_scan", "ios": "https://dc.lft.to/lastmile_qr_scan"}, "fusion_lon": 0.0}, {"lat": 38.91613733333333, "is_disabled": 0, "type": "electric_scooter", "lon": -77.02311683333333, "bike_id": "93cc4871fdebd8960bee43ce80437365", "fusion_lat": 0.0, "name": "93cc4871fdebd8960bee43ce80437365", "is_reserved": 0, "rental_uris": {"android": "https://dc.lft.to/lastmile_qr_scan", "ios": "https://dc.lft.to/lastmile_qr_scan"}, "fusion_lon": 0.0}, {"lat": 38.93614433333333, "is_disabled": 0, "type": "electric_scooter", "lon": -77.05757233333334, "bike_id": "6ed9b8e5b6c8d95f647af2182e16988c", "fusion_lat": 0.0, "name": "6ed9b8e5b6c8d95f647af2182e16988c", "is_reserved": 0, "rental_uris": {"android": "https://dc.lft.to/lastmile_qr_scan", "ios": "https://dc.lft.to/lastmile_qr_scan"}, "fusion_lon": 0.0}, {"lat": 38.9149925, "is_disabled": 0, "type": "electric_scooter", "lon": -77.06790666666667, "bike_id": "70680a60f21f82f1b267c76f5ba3d982", "fusion_lat": 0.0, "name": "70680a60f21f82f1b267c76f5ba3d982", "is_reserved": 0, "rental_uris": {"android": "https://dc.lft.to/lastmile_qr_scan", "ios": "https://dc.lft.to/lastmile_qr_scan"}, "fusion_lon": 0.0}, {"lat": 38.910191166666664, "is_disabled": 0, "type": "electric_scooter", "lon": -77.04279066666666, "bike_id": "2b5d22b238d466239e488c07ee0374bb", "fusion_lat": 0.0, "name": "2b5d22b238d466239e488c07ee0374bb", "is_reserved": 0, "rental_uris": {"android": "https://dc.lft.to/lastmile_qr_scan", "ios": "https://dc.lft.to/lastmile_qr_scan"}, "fusion_lon": 0.0}, {"lat": 38.9132405, "is_disabled": 0, "type": "electric_scooter", "lon": -77.0161505, "bike_id": "bd42138344525a4f1123671720f7a2d6", "fusion_lat": 0.0, "name": "bd42138344525a4f1123671720f7a2d6", "is_reserved": 0, "rental_uris": {"android": "https://dc.lft.to/lastmile_qr_scan", "ios": "https://dc.lft.to/lastmile_qr_scan"}, "fusion_lon": 0.0}, {"lat": 38.8669815, "is_disabled": 0, "type": "electric_scooter", "lon": -76.9871285, "bike_id": "eef6458438b0a94d3764959b6f512ac0", "fusion_lat": 0.0, "name": "eef6458438b0a94d3764959b6f512ac0", "is_reserved": 0, "rental_uris": {"android": "https://dc.lft.to/lastmile_qr_scan", "ios": "https://dc.lft.to/lastmile_qr_scan"}, "fusion_lon": 0.0}, {"lat": 38.93249683333333, "is_disabled": 0, "type": "electric_scooter", "lon": -77.0665945, "bike_id": "d2796156cfb640dd54653053d6040bbb", "fusion_lat": 0.0, "name": "d2796156cfb640dd54653053d6040bbb", "is_reserved": 0, "rental_uris": {"android": "https://dc.lft.to/lastmile_qr_scan", "ios": "https://dc.lft.to/lastmile_qr_scan"}, "fusion_lon": 0.0}, {"lat": 38.887396, "is_disabled": 0, "type": "electric_bike", "lon": -76.99636483333333, "bike_id": "c62c4f042096960fbe0128e133a9aec6", "fusion_lat": 0.0, "name": "c62c4f042096960fbe0128e133a9aec6", "is_reserved": 0, "rental_uris": {"android": "https://dc.lft.to/lastmile_qr_scan", "ios": "https://dc.lft.to/lastmile_qr_scan"}, "fusion_lon": 0.0}, {"lat": 38.87989616666667, "is_disabled": 0, "type": "electric_scooter", "lon": -76.9867915, "bike_id": "5d076e874263f56cde4b20de89a6257f", "fusion_lat": 0.0, "name": "5d076e874263f56cde4b20de89a6257f", "is_reserved": 0, "rental_uris": {"android": "https://dc.lft.to/lastmile_qr_scan", "ios": "https://dc.lft.to/lastmile_qr_scan"}, "fusion_lon": 0.0}, {"lat": 38.86708333333333, "is_disabled": 0, "type": "electric_scooter", "lon": -76.987289, "bike_id": "a8790e141890f7ce0caaad53805fbf82", "fusion_lat": 0.0, "name": "a8790e141890f7ce0caaad53805fbf82", "is_reserved": 0, "rental_uris": {"android": "https://dc.lft.to/lastmile_qr_scan", "ios": "https://dc.lft.to/lastmile_qr_scan"}, "fusion_lon": 0.0}, {"lat": 38.904308666666665, "is_disabled": 0, "type": "electric_scooter", "lon": -77.05338083333334, "bike_id": "90f7ba48552618fdb6da9b8dd167398a", "fusion_lat": 0.0, "name": "90f7ba48552618fdb6da9b8dd167398a", "is_reserved": 0, "rental_uris": {"android": "https://dc.lft.to/lastmile_qr_scan", "ios": "https://dc.lft.to/lastmile_qr_scan"}, "fusion_lon": 0.0}, {"lat": 38.918841666666665, "is_disabled": 0, "type": "electric_scooter", "lon": -77.0349905, "bike_id": "634862f64ecef2bf46788af064b50a1e", "fusion_lat": 0.0, "name": "634862f64ecef2bf46788af064b50a1e", "is_reserved": 0, "rental_uris": {"android": "https://dc.lft.to/lastmile_qr_scan", "ios": "https://dc.lft.to/lastmile_qr_scan"}, "fusion_lon": 0.0}, {"lat": 38.9126205, "is_disabled": 0, "type": "electric_scooter", "lon": -77.0225755, "bike_id": "b8a6ffa8706dff871a6626ed2640c229", "fusion_lat": 0.0, "name": "b8a6ffa8706dff871a6626ed2640c229", "is_reserved": 0, "rental_uris": {"android": "https://dc.lft.to/lastmile_qr_scan", "ios": "https://dc.lft.to/lastmile_qr_scan"}, "fusion_lon": 0.0}, {"lat": 38.896525, "is_disabled": 0, "type": "electric_scooter", "lon": -77.00522966666666, "bike_id": "21a0971466a6636c86e530f340efd968", "fusion_lat": 0.0, "name": "21a0971466a6636c86e530f340efd968", "is_reserved": 0, "rental_uris": {"android": "https://dc.lft.to/lastmile_qr_scan", "ios": "https://dc.lft.to/lastmile_qr_scan"}, "fusion_lon": 0.0},