{"data": {"bikes": [{"bike_id": "51ad061dcfa270274a85e867fbff26ca", "fusion_lon": 0.0, "type": "electric_scooter", "name": "51ad061dcfa270274a85e867fbff26ca", "rental_uris": {"android": "https://dc.lft.to/lastmile_qr_scan", "ios": "https://dc.lft.to/lastmile_qr_scan"}, "fusion_lat": 0.0, "lat": 38.9327855, "is_disabled": 0, "lon": -77.0239185, "is_reserved": 0}, {"bike_id": "c93b1ff02a0b80e5ca47e022d111a6a8", "fusion_lon": 0.0, "type": "electric_scooter", "name": "c93b1ff02a0b80e5ca47e022d111a6a8", "rental_uris": {"android": "https://dc.lft.to/lastmile_qr_scan", "ios": "https://dc.lft.to/lastmile_qr_scan"}, "fusion_lat": 0.0, "lat": 38.87936466666667, "is_disabled": 0, "lon": -77.01718283333334, "is_reserved": 0}, {"bike_id": "94644fd25935f111a1f07ad6f9dd886d", "fusion_lon": 0.0, "type": "electric_scooter", "name": "94644fd25935f111a1f07ad6f9dd886d", "rental_uris": {"android": "https://dc.lft.to/lastmile_qr_scan", "ios": "https://dc.lft.to/lastmile_qr_scan"}, "fusion_lat": 0.0, "lat": 38.8794955, "is_disabled": 0, "lon": -77.005421, "is_reserved": 0}, {"bike_id": "5abcede1a28e3ce950e5435ace19c6f0", "fusion_lon": 0.0, "type": "electric_scooter", "name": "5abcede1a28e3ce950e5435ace19c6f0", "rental_uris": {"android": "https://dc.lft.to/lastmile_qr_scan", "ios": "https://dc.lft.to/lastmile_qr_scan"}, "fusion_lat": 0.0, "lat": 38.896661333333334, "is_disabled": 0, "lon": -77.04341766666667, "is_reserved": 0}, {"bike_id": "43bf93e3ba9ef6a5c940e7b24e0b0594", "fusion_lon": 0.0, "type": "electric_scooter", "name": "43bf93e3ba9ef6a5c940e7b24e0b0594", "rental_uris": {"android": "https://dc.lft.to/lastmile_qr_scan", "ios": "https://dc.lft.to/lastmile_qr_scan"}, "fusion_lat": 0.0, "lat": 38.9257835, "is_disabled": 0, "lon": -77.03248066666667, "is_reserved": 0}, {"bike_id": "e5b1efd1e8c36349173b35faabc8c8f7", "fusion_lon": 0.0, "type": "electric_scooter", "name": "e5b1efd1e8c36349173b35faabc8c8f7", "rental_uris": {"android": "https://dc.lft.to/lastmile_qr_scan", "ios": "https://dc.lft.to/lastmile_qr_scan"}, "fusion_lat": 0.0, "lat": 38.88451416666667, "is_disabled": 0, "lon": -77.01042866666667, "is_reserved": 0}, {"bike_id": "10822bbed52d8ebcac270d30c0532371", "fusion_lon": 0.0, "type": "electric_scooter", "name": "10822bbed52d8ebcac270d30c0532371", "rental_uris": {"android": "https://dc.lft.to/lastmile_qr_scan", "ios": "https://dc.lft.to/lastmile_qr_scan"}, "fusion_lat": 0.0, "lat": 38.885982166666665, "is_disabled": 0, "lon": -76.95263066666666, "is_reserved": 0}, {"bike_id": "b3ec1629ee5a1c1a66819c9f8f50c616", "fusion_lon": 0.0, "type": "electric_scooter", "name": "b3ec1629ee5a1c1a66819c9f8f50c616", "rental_uris": {"android": "https://dc.lft.to/lastmile_qr_scan", "ios": "https://dc.lft.to/lastmile_qr_scan"}, "fusion_lat": 0.0, "lat": 38.911401833333336, "is_disabled": 0, "lon": -76.99013216666667, "is_reserved": 0}, {"bike_id": "010390a8136770a34c2058fcfa0ad77b", "fusion_lon": 0.0, "type": "electric_scooter", "name": "010390a8136770a34c2058fcfa0ad77b", "rental_uris": {"android": "https://dc.lft.to/lastmile_qr_scan", "ios": "https://dc.lft.to/lastmile_qr_scan"}, "fusion_lat": 0.0, "lat": 38.910492833333336, "is_disabled": 0, "lon": -77.064646, "is_reserved": 0}, {"bike_id": "bfb9f1f8cf5be310b8ca163f76e97bbb", "fusion_lon": 0.0, "type": "electric_scooter", "name": "bfb9f1f8cf5be310b8ca163f76e97bbb", "rental_uris": {"android": "https://dc.lft.to/lastmile_qr_scan", "ios": "https://dc.lft.to/lastmile_qr_scan"}, "fusion_lat": 0.0, "lat": 38.90391566666667, "is_disabled": 0, "lon": -76.97908833333334, "is_reserved": 0}, {"bike_id": "a40e5baef4b5b17b21b382c74db29e15", "fusion_lon": 0.0, "type": "electric_scooter", "name": "a40e5baef4b5b17b21b382c74db29e15", "rental_uris": {"android": "https://dc.lft.to/lastmile_qr_scan", "ios": "https://dc.lft.to/lastmile_qr_scan"}, "fusion_lat": 0.0, "lat": 38.906961, "is_disabled": 0, "lon": -77.034492, "is_reserved": 0}, {"bike_id": "d2040412daa8df9a9bc8646c504381fa", "fusion_lon": 0.0, "type": "electric_scooter", "name": "d2040412daa8df9a9bc8646c504381fa", "rental_uris": {"android": "https://dc.lft.to/lastmile_qr_scan", "ios": "https://dc.lft.to/lastmile_qr_scan"}, "fusion_lat": 0.0, "lat": 38.928847166666664, "is_disabled": 0, "lon": -77.02703416666667, "is_reserved": 0}, {"bike_id": "498ab0037437fec00100dab53ddb371c", "fusion_lon": 0.0, "type": "electric_scooter", "name": "498ab0037437fec00100dab53ddb371c", "rental_uris": {"android": "https://dc.lft.to/lastmile_qr_scan", "ios": "https://dc.lft.to/lastmile_qr_scan"}, "fusion_lat": 0.0, "lat": 38.93426816666667, "is_disabled": 0, "lon": -77.043206, "is_reserved": 0}, {"bike_id": "3f77ffd364da8f00a6581a52653b6568", "fusion_lon": 0.0, "type": "electric_scooter", "name": "3f77ffd364da8f00a6581a52653b6568", "rental_uris": {"android": "https://dc.lft.to/lastmile_qr_scan", "ios": "https://dc.lft.to/lastmile_qr_scan"}, "fusion_lat": 0.0, "lat": 38.932146, "is_disabled": 0, "lon": -77.03264466666667, "is_reserved": 0}, {"bike_id": "39f78e08f62b4d013445ec31fee56b0f", "fusion_lon": 0.0, "type": "electric_bike", "name": "39f78e08f62b4d013445ec31fee56b0f", "rental_uris": {"android": "https://dc.lft.to/lastmile_qr_scan", "ios": "https://dc.lft.to/lastmile_qr_scan"}, "fusion_lat": 0.0, "lat": 38.841298, "is_disabled": 0, "lon": -77.063124, "is_reserved": 0}, {"bike_id": "5f97eb4ea3d121353c7ae9a6a38b8cb3", "fusion_lon": 0.0, "type": "electric_scooter", "name": "5f97eb4ea3d121353c7ae9a6a38b8cb3", "rental_uris": {"android": "https://dc.lft.to/lastmile_qr_scan", "ios": "https://dc.lft.to/lastmile_qr_scan"}, "fusion_lat": 0.0, "lat": 38.8971485, "is_disabled": 0, "lon": -77.021302, "is_reserved": 0}, {"bike_id": "acbdcd4cafe4bf05db16e5fbd25d7327", "fusion_lon": 0.0, "type": "electric_scooter", "name": "acbdcd4cafe4bf05db16e5fbd25d7327", "rental_uris": {"android": "https://dc.lft.to/lastmile_qr_scan", "ios": "https://dc.lft.to/lastmile_qr_scan"}, "fusion_lat": 0.0, "lat": 38.883343333333336, "is_disabled": 0, "lon": -77.005067, "is_reserved": 0}, {"bike_id": "36fbadf8d21a734747a477688165f2c1", "fusion_lon": 0.0, "type": "electric_scooter", "name": "36fbadf8d21a734747a477688165f2c1", "rental_uris": {"android": "https://dc.lft.to/lastmile_qr_scan", "ios": "https://dc.lft.to/lastmile_qr_scan"}, "fusion_lat": 0.0, "lat": 38.902747166666664, "is_disabled": 0, "lon": -77.01810333333333, "is_reserved": 0}, {"bike_id": "a972c528bf7ad8783b4f30700d914dac", "fusion_lon": 0.0, "type": "electric_bike", "name": "a972c528bf7ad8783b4f30700d914dac", "rental_uris": {"android": "https://dc.lft.to/lastmile_qr_scan", "ios": "https://dc.lft.to/lastmile_qr_scan"}, "fusion_lat": 0.0, "lat": 38.85555016666667, "is_disabled": 0, "lon": -77.10726933333333, "is_reserved": 0}, {"bike_id": "266474967a564357dd4de965cb59ac84", "fusion_lon": 0.0, "type": "electric_scooter", "name": "266474967a564357dd4de965cb59ac84", "rental_uris": {"android": "https://dc.lft.to/lastmile_qr_scan", "ios": "https://dc.lft.to/lastmile_qr_scan"}, "fusion_lat": 0.0, "lat": 38.900288833333335, "is_disabled": 0, "lon": -76.987804, "is_reserved": 0}, {"bike_id": "3b52128046909e2ec7b9e6306ee1cc16", "fusion_lon": 0.0, "type": "electric_scooter", "name": "3b52128046909e2ec7b9e6306ee1cc16", "rental_uris": {"android": "https://dc.lft.to/lastmile_qr_scan", "ios": "https://dc.lft.to/lastmile_qr_scan"}, "fusion_lat": 0.0, "lat": 38.900271333333336, "is_disabled": 0, "lon": -77.00154416666666, "is_reserved": 0}, {"bike_id": "fabe8beec9b1678d00ad424c442230bc", "fusion_lon": 0.0, "type": "electric_scooter", "name": "fabe8beec9b1678d00ad424c442230bc", "rental_uris": {"android": "https://dc.lft.to/lastmile_qr_scan", "ios": "https://dc.lft.to/lastmile_qr_scan"}, "fusion_lat": 0.0, "lat": 38.90443633333334, "is_disabled": 0, "lon": -76.975628, "is_reserved": 0}, {"bike_id": "aeb2f4301a177858f671555924024267", "fusion_lon": 0.0, "type": "electric_bike", "name": "aeb2f4301a177858f671555924024267", "rental_uris": {"android": "https://dc.lft.to/lastmile_qr_scan", "ios": "https://dc.lft.to/lastmile_qr_scan"}, "fusion_lat": 0.0, "lat": 38.9193505, "is_disabled": 0, "lon": -76.9750305, "is_reserved": 0}, {"bike_id": "98109f523ec0edeed9abfe66f755f72a", "fusion_lon": 0.0, "type": "electric_scooter", "name": "98109f523ec0edeed9abfe66f755f72a", "rental_uris": {"android": "https://dc.lft.to/lastmile_qr_scan", "ios": "https://dc.lft.to/lastmile_qr_scan"}, "fusion_lat": 0.0, "lat": 38.91932, "is_disabled": 0, "lon": -77.04596483333333, "is_reserved": 0}, {"bike_id": "2e66653bc7b0b8048e16b3a648300c4e", "fusion_lon": 0.0, "type": "electric_scooter", "name": "2e66653bc7b0b8048e16b3a648300c4e", "rental_uris": {"android": "https://dc.lft.to/lastmile_qr_scan", "ios": "https://dc.lft.to/lastmile_qr_scan"}, "fusion_lat": 0.0, "lat": 38.8603805, "is_disabled": 0, "lon": -76.98374433333333, "is_reserved": 0}, {"bike_id": "6a9701396949142af9ef008d865173db", "fusion_lon": 0.0, "type": "electric_scooter", "name": "6a9701396949142af9ef008d865173db", "rental_uris": {"android": "https://dc.lft.to/lastmile_qr_scan", "ios": "https://dc.lft.to/lastmile_qr_scan"}, "fusion_lat": 0.0, "lat": 38.91556166666667, "is_disabled": 0, "lon": -77.03836283333334, "is_reserved": 0}, {"bike_id": "241905cb3bf73408b9003d749271cff6", "fusion_lon": 0.0, "type": "electric_bike", "name": "241905cb3bf73408b9003d749271cff6", "rental_uris": {"android": "https://dc.lft.to/lastmile_qr_scan", "ios": "https://dc.lft.to/lastmile_qr_scan"}, "fusion_lat": 0.0, "lat": 38.8084905, "is_disabled": 0, "lon": -77.083652, "is_reserved": 0}, {"bike_id": "c36113d6493bada9d6b76bfa93928f87", "fusion_lon": 0.0, "type": "electric_scooter", "name": "c36113d6493bada9d6b76bfa93928f87", "rental_uris": {"android": "https://dc.lft.to/lastmile_qr_scan", "ios": "https://dc.lft.to/lastmile_qr_scan"}, "fusion_lat": 0.0, "lat": 38.91651983333333, "is_disabled": 0, "lon": -76.98226883333334, "is_reserved": 0}, {"bike_id": "7a1ef7df18c4b19bd8e43259c5b099b5", "fusion_lon": 0.0, "type": "electric_scooter", "name": "7a1ef7df18c4b19bd8e43259c5b099b5", "rental_uris": {"android": "https://dc.lft.to/lastmile_qr_scan", "ios": "https://dc.lft.to/lastmile_qr_scan"}, "fusion_lat": 0.0, "lat": 38.90267866666667, "is_disabled": 0, "lon": -77.01756616666667, "is_reserved": 0}, {"bike_id": "65ae321fe2dda86190dca3efe0f24a75", "fusion_lon": 0.0, "type": "electric_scooter", "name": "65ae321fe2dda86190dca3efe0f24a75", "rental_uris": {"android": "https://dc.lft.to/lastmile_qr_scan", "ios": "https://dc.lft.to/lastmile_qr_scan"}, "fusion_lat": 0.0, "lat": 38.86101766666667, "is_disabled": 0, "lon": -76.9860155, "is_reserved": 0}, {"bike_id": "52177fe9f2bc7a98f5c231319da85e87", "fusion_lon": 0.0, "type": "electric_scooter", "name": "52177fe9f2bc7a98f5c231319da85e87", "rental_uris": {"android": "https://dc.lft.to/lastmile_qr_scan", "ios": "https://dc.lft.to/lastmile_qr_scan"}, "fusion_lat": 0.0, "lat": 38.871192666666666, "is_disabled": 0, "lon": -77.01071, "is_reserved": 0}, {"bike_id": "1e69c2ab39d3b6056706514c5936476e", "fusion_lon": 0.0, "type": "electric_scooter", "name": "1e69c2ab39d3b6056706514c5936476e", "rental_uris": {"android": "https://dc.lft.to/lastmile_qr_scan", "ios": "https://dc.lft.to/lastmile_qr_scan"}, "fusion_lat": 0.0, "lat": 38.919214, "is_disabled": 0, "lon": -77.03179866666666, "is_reserved": 0}, {"bike_id": "ad1498330b8663e7be4c84dc28cf5a44", "fusion_lon": 0.0, "type": "electric_scooter", "name": "ad1498330b8663e7be4c84dc28cf5a44", "rental_uris": {"android": "https://dc.lft.to/lastmile_qr_scan", "ios": "https://dc.lft.to/lastmile_qr_scan"}, "fusion_lat": 0.0, "lat": 38.918186166666665, "is_disabled": 0, "lon": -77.04003216666666, "is_reserved": 0}, {"bike_id": "82d80b752cd4f9a00a2aedcd2bef739f", "fusion_lon": 0.0, "type": "electric_scooter", "name": "82d80b752cd4f9a00a2aedcd2bef739f", "rental_uris": {"android": "https://dc.lft.to/lastmile_qr_scan", "ios": "https://dc.lft.to/lastmile_qr_scan"}, "fusion_lat": 0.0, "lat": 38.90732766666667, "is_disabled": 0, "lon": -77.04281483333334, "is_reserved": 0}, {"bike_id": "ace1256bb966c451b99d06baa1880e41", "fusion_lon": 0.0, "type": "electric_scooter", "name": "ace1256bb966c451b99d06baa1880e41", "rental_uris": {"android": "https://dc.lft.to/lastmile_qr_scan", "ios": "https://dc.lft.to/lastmile_qr_scan"}, "fusion_lat": 0.0, "lat": 38.906848833333335, "is_disabled": 0, "lon": -77.027371, "is_reserved": 0}, {"bike_id": "b8eb1b68a7862c5b78d1d05d58207d3b", "fusion_lon": 0.0, "type": "electric_scooter", "name": "b8eb1b68a7862c5b78d1d05d58207d3b", "rental_uris": {"android": "https://dc.lft.to/lastmile_qr_scan", "ios": "https://dc.lft.to/lastmile_qr_scan"}, "fusion_lat": 0.0, "lat": 38.95651483333333, "is_disabled": 0, "lon": -77.03286633333333, "is_reserved": 0}, {"bike_id": "eafc61702b4957cc9ce9228fb48b6a9f", "fusion_lon": 0.0, "type": "electric_bike", "name": "eafc61702b4957cc9ce9228fb48b6a9f", "rental_uris": {"android": "https://dc.lft.to/lastmile_qr_scan", "ios": "https://dc.lft.to/lastmile_qr_scan"}, "fusion_lat": 0.0, "lat": 38.836139833333334, "is_disabled": 0, "lon": -77.0036775, "is_reserved": 0}, {"bike_id": "885d2cfd74ccf418c21b5afe17b6f39a", "fusion_lon": 0.0, "type": "electric_bike", "name": "885d2cfd74ccf418c21b5afe17b6f39a", "rental_uris": {"android": "https://dc.lft.to/lastmile_qr_scan", "ios": "https://dc.lft.to/lastmile_qr_scan"}, "fusion_lat": 0.0, "lat": 38.975924, "is_disabled": 0, "lon": -77.03512283333333, "is_reserved": 0}, {"bike_id": "f80cd2da2280e2c92bcff18713460b24", "fusion_lon": 0.0, "type": "electric_scooter", "name": "f80cd2da2280e2c92bcff18713460b24", "rental_uris": {"android": "https://dc.lft.to/lastmile_qr_scan", "ios": "https://dc.lft.to/lastmile_qr_scan"}, "fusion_lat": 0.0, "lat": 38.89353933333334, "is_disabled": 0, "lon": -77.0116445, "is_reserved": 0}, {"bike_id": "612e157a6ce070cb0fa27556d97396b4", "fusion_lon": 0.0, "type": "electric_scooter", "name": "612e157a6ce070cb0fa27556d97396b4", "rental_uris": {"android": "https://dc.lft.to/lastmile_qr_scan", "ios": "https://dc.lft.to/lastmile_qr_scan"}, "fusion_lat": 0.0, "lat": 38.88321666666667, "is_disabled": 0, "lon": -76.94942516666667, "is_reserved": 0}, {"bike_id": "7539492eefd289303fc2267be4ced931", "fusion_lon": 0.0, "type": "electric_bike", "name": "7539492eefd289303fc2267be4ced931", "rental_uris": {"android": "https://dc.lft.to/lastmile_qr_scan", "ios": "https://dc.lft.to/lastmile_qr_scan"}, "fusion_lat": 0.0, "lat": 38.83737083333333, "is_disabled": 0, "lon": -77.09549816666667, "is_reserved": 0}, {"bike_id": "0a16514e5f0b71a25efaafe7c4f29701", "fusion_lon": 0.0, "type": "electric_scooter", "name": "0a16514e5f0b71a25efaafe7c4f29701", "rental_uris": {"android": "https://dc.lft.to/lastmile_qr_scan", "ios": "https://dc.lft.to/lastmile_qr_scan"}, "fusion_lat": 0.0, "lat": 38.844274166666665, "is_disabled": 0, "lon": -76.99777766666666, "is_reserved": 0}, {"bike_id": "01c959744141da45290eb26dd4be6620", "fusion_lon": 0.0, "type": "electric_scooter", "name": "01c959744141da45290eb26dd4be6620", "rental_uris": {"android": "https://dc.lft.to/lastmile_qr_scan", "ios": "https://dc.lft.to/lastmile_qr_scan"}, "fusion_lat": 0.0, "lat": 38.9087175, "is_disabled": 0, "lon": -77.023971, "is_reserved": 0}, {"bike_id": "f2b877d307447be7ba9bc2199806c68d", "fusion_lon": 0.0, "type": "electric_scooter", "name": "f2b877d307447be7ba9bc2199806c68d", "rental_uris": {"android": "https://dc.lft.to/lastmile_qr_scan", "ios": "https://dc.lft.to/lastmile_qr_scan"}, "fusion_lat": 0.0, "lat": 38.89629, "is_disabled": 0, "lon": -76.94766383333334, "is_reserved": 0}, {"bike_id": "feb6aaeec5491da0c1c3fe3250c4306c", "fusion_lon": 0.0, "type": "electric_scooter", "name": "feb6aaeec5491da0c1c3fe3250c4306c", "rental_uris": {"android": "https://dc.lft.to/lastmile_qr_scan", "ios": "https://dc.lft.to/lastmile_qr_scan"}, "fusion_lat": 0.0, "lat": 38.90039083333333, "is_disabled": 0, "lon": -76.99627783333334, "is_reserved": 0}, {"bike_id": "87660657893b3b07e3501d2403b51d06", "fusion_lon": 0.0, "type": "electric_scooter", "name": "87660657893b3b07e3501d2403b51d06", "rental_uris": {"android": "https://dc.lft.to/lastmile_qr_scan", "ios": "https://dc.lft.to/lastmile_qr_scan"}, "fusion_lat": 0.0, "lat": 38.906789833333335, "is_disabled": 0, "lon": -77.02706383333333, "is_reserved": 0}, {"bike_id": "3a38dc17b6cc496d6423aabc8b46980f", "fusion_lon": 0.0, "type": "electric_scooter", "name": "3a38dc17b6cc496d6423aabc8b46980f", "rental_uris": {"android": "https://dc.lft.to/lastmile_qr_scan", "ios": "https://dc.lft.to/lastmile_qr_scan"}, "fusion_lat": 0.0, "lat": 38.885969333333335, "is_disabled": 0, "lon": -77.01721333333333, "is_reserved": 0}, {"bike_id": "ade66c1a861a3ad84d8d92a444a69dd0", "fusion_lon": 0.0, "type": "electric_scooter", "name": "ade66c1a861a3ad84d8d92a444a69dd0", "rental_uris": {"android": "https://dc.lft.to/lastmile_qr_scan", "ios": "https://dc.lft.to/lastmile_qr_scan"}, "fusion_lat": 0.0, "lat": 38.908405, "is_disabled": 0, "lon": -77.03342483333333, "is_reserved": 0}, {"bike_id": "7ffbc2e6ba6f3245914a0797f40c70ea", "fusion_lon": 0.0, "type": "electric_scooter", "name": "7ffbc2e6ba6f3245914a0797f40c70ea", "rental_uris": {"android": "https://dc.lft.to/lastmile_qr_scan", "ios": "https://dc.lft.to/lastmile_qr_scan"}, "fusion_lat": 0.0, "lat": 38.877279, "is_disabled": 0, "lon": -77.00611016666667, "is_reserved": 0}, {"bike_id": "fe6af1428fec879609753ae585fab068", "fusion_lon": 0.0, "type": "electric_bike", "name": "fe6af1428fec879609753ae585fab068", "rental_uris": {"android": "https://dc.lft.to/lastmile_qr_scan", "ios": "https://dc.lft.to/lastmile_qr_scan"}, "fusion_lat": 0.0, "lat": 39.003862166666664, "is_disabled": 0, "lon": -77.0129175, "is_reserved": 0}, {"bike_id": "4cfa24ce06e8daaba8834084a300bea1", "fusion_lon": 0.0, "type": "electric_scooter", "name": "4cfa24ce06e8daaba8834084a300bea1", "rental_uris": {"android": "https://dc.lft.to/lastmile_qr_scan", "ios": "https://dc.lft.to/lastmile_qr_scan"}, "fusion_lat": 0.0, "lat": 38.9036225, "is_disabled": 0, "lon": -77.01113266666667, "is_reserved": 0}, {"bike_id": "45b6dda8af961fe0d70bb6cb00baf243", "fusion_lon": 0.0, "type": "electric_bike", "name": "45b6dda8af961fe0d70bb6cb00baf243", "rental_uris": {"android": "https://dc.lft.to/lastmile_qr_scan", "ios": "https://dc.lft.to/lastmile_qr_scan"}, "fusion_lat": 0.0, "lat": 38.8585225, "is_disabled": 0, "lon": -77.0975525, "is_reserved": 0}, {"bike_id": "e035b3426b4a43518639aebc9c4bf173", "fusion_lon": 0.0, "type": "electric_scooter", "name": "e035b3426b4a43518639aebc9c4bf173", "rental_uris": {"android": "https://dc.lft.to/lastmile_qr_scan", "ios": "https://dc.lft.to/lastmile_qr_scan"}, "fusion_lat": 0.0, "lat": 38.9134075, "is_disabled": 0, "lon": -77.04838116666667, "is_reserved": 0}, {"bike_id": "aa56aad47591d0708b4d9d9f9c440c74", "fusion_lon": 0.0, "type": "electric_scooter", "name": "aa56aad47591d0708b4d9d9f9c440c74", "rental_uris": {"android": "https://dc.lft.to/lastmile_qr_scan", "ios": "https://dc.lft.to/lastmile_qr_scan"}, "fusion_lat": 0.0, "lat": 38.89230116666667, "is_disabled": 0, "lon": -77.02552316666667, "is_reserved": 0}, {"bike_id": "3034766c9a6962d8690c7f3a2d702ce9", "fusion_lon": 0.0, "type": "electric_scooter", "name": "3034766c9a6962d8690c7f3a2d702ce9", "rental_uris": {"android": "https://dc.lft.to/lastmile_qr_scan", "ios": "https://dc.lft.to/lastmile_qr_scan"}, "fusion_lat": 0.0, "lat": 38.89487783333333, "is_disabled": 0, "lon": -76.94839583333334, "is_reserved": 0}, {"bike_id": "abaf6522374bbe1a63db4ffa4affa7d2", "fusion_lon": 0.0, "type": "electric_scooter", "name": "abaf6522374bbe1a63db4ffa4affa7d2", "rental_uris": {"android": "https://dc.lft.to/lastmile_qr_scan", "ios": "https://dc.lft.to/lastmile_qr_scan"}, "fusion_lat": 0.0, "lat": 38.915204333333335, "is_disabled": 0, "lon": -77.03208033333334, "is_reserved": 0}, {"bike_id": "5279c42490edd016b3f2903a719e38fb", "fusion_lon": 0.0, "type": "electric_scooter", "name": "5279c42490edd016b3f2903a719e38fb", "rental_uris": {"android": "https://dc.lft.to/lastmile_qr_scan", "ios": "https://dc.lft.to/lastmile_qr_scan"}, "fusion_lat": 0.0, "lat": 38.90946816666667, "is_disabled": 0, "lon": -77.02692866666666, "is_reserved": 0}, {"bike_id": "904fce442a4a4cfbbaf5908fc3977759", "fusion_lon": 0.0, "type": "electric_scooter", "name": "904fce442a4a4cfbbaf5908fc3977759", "rental_uris": {"android": "https://dc.lft.to/lastmile_qr_scan", "ios": "https://dc.lft.to/lastmile_qr_scan"}, "fusion_lat": 0.0, "lat": 38.876354166666665, "is_disabled": 0, "lon": -76.96525716666666, "is_reserved": 0}, {"bike_id": "c31f56e79fab16b384b6ba1eec055eea", "fusion_lon": 0.0, "type": "electric_scooter", "name": "c31f56e79fab16b384b6ba1eec055eea", "rental_uris": {"android": "https://dc.lft.to/lastmile_qr_scan", "ios": "https://dc.lft.to/lastmile_qr_scan"}, "fusion_lat": 0.0, "lat": 38.892197, "is_disabled": 0, "lon": -77.027193, "is_reserved": 0}, {"bike_id": "60619e6941426445a66f84e02875cb8f", "fusion_lon": 0.0, "type": "electric_bike", "name": "60619e6941426445a66f84e02875cb8f", "rental_uris": {"android": "https://dc.lft.to/lastmile_qr_scan", "ios": "https://dc.lft.to/lastmile_qr_scan"}, "fusion_lat": 0.0, "lat": 38.94286816666666, "is_disabled": 0, "lon": -77.02801183333334, "is_reserved": 0}, {"bike_id": "cc60a8506b50f7362898426c2cbcd40e", "fusion_lon": 0.0, "type": "electric_scooter", "name": "cc60a8506b50f7362898426c2cbcd40e", "rental_uris": {"android": "https://dc.lft.to/lastmile_qr_scan", "ios": "https://dc.lft.to/lastmile_qr_scan"}, "fusion_lat": 0.0, "lat": 38.903627666666665, "is_disabled": 0, "lon": -77.01115533333333, "is_reserved": 0}, {"bike_id": "f67a152396085c8813558dd92b4540de", "fusion_lon": 0.0, "type": "electric_scooter", "name": "f67a152396085c8813558dd92b4540de", "rental_uris": {"android": "https://dc.lft.to/lastmile_qr_scan", "ios": "https://dc.lft.to/lastmile_qr_scan"}, "fusion_lat": 0.0, "lat": 38.912707, "is_disabled": 0, "lon": -77.02230283333333, "is_reserved": 0}, {"bike_id": "9f3d905c44f35680e9fcdffe556d98be", "fusion_lon": 0.0, "type": "electric_bike", "name": "9f3d905c44f35680e9fcdffe556d98be", "rental_uris": {"android": "https://dc.lft.to/lastmile_qr_scan", "ios": "https://dc.lft.to/lastmile_qr_scan"}, "fusion_lat": 0.0, "lat": 38.9527325, "is_disabled": 0, "lon": -77.06975783333333, "is_reserved": 0}, {"bike_id": "a38a93152232bfa7e8f6723541c71705", "fusion_lon": 0.0, "type": "electric_scooter", "name": "a38a93152232bfa7e8f6723541c71705", "rental_uris": {"android": "https://dc.lft.to/lastmile_qr_scan", "ios": "https://dc.lft.to/lastmile_qr_scan"}, "fusion_lat": 0.0, "lat": 38.915980833333336, "is_disabled": 0, "lon": -77.02817166666667, "is_reserved": 0}, {"bike_id": "ba0442442a29ca24bf6ab320ca7cb2b6", "fusion_lon": 0.0, "type": "electric_scooter", "name": "ba0442442a29ca24bf6ab320ca7cb2b6", "rental_uris": {"android": "https://dc.lft.to/lastmile_qr_scan", "ios": "https://dc.lft.to/lastmile_qr_scan"}, "fusion_lat": 0.0, "lat": 38.9233435, "is_disabled": 0, "lon": -77.0389615, "is_reserved": 0}, {"bike_id": "7a61eb2b832af57527513602dd8e0fff", "fusion_lon": 0.0, "type": "electric_scooter", "name": "7a61eb2b832af57527513602dd8e0fff", "rental_uris": {"android": "https://dc.lft.to/lastmile_qr_scan", "ios": "https://dc.lft.to/lastmile_qr_scan"}, "fusion_lat": 0.0, "lat": 38.912394, "is_disabled": 0, "lon": -77.03836333333334, "is_reserved": 0}, {"bike_id": "85d074b62929b143d21cf8414a9e38d3", "fusion_lon": 0.0, "type": "electric_scooter", "name": "85d074b62929b143d21cf8414a9e38d3", "rental_uris": {"android": "https://dc.lft.to/lastmile_qr_scan", "ios": "https://dc.lft.to/lastmile_qr_scan"}, "fusion_lat": 0.0, "lat": 38.87470616666667, "is_disabled": 0, "lon": -77.00669333333333, "is_reserved": 0}, {"bike_id": "9c9bc77cdd385505d55194ef45046763", "fusion_lon": 0.0, "type": "electric_scooter", "name": "9c9bc77cdd385505d55194ef45046763", "rental_uris": {"android": "https://dc.lft.to/lastmile_qr_scan", "ios": "https://dc.lft.to/lastmile_qr_scan"}, "fusion_lat": 0.0, "lat": 38.89686916666667, "is_disabled": 0, "lon": -76.93537966666666, "is_reserved": 0}, {"bike_id": "49f30696ba1229500da4c1594ee6f6f2", "fusion_lon": 0.0, "type": "electric_scooter", "name": "49f30696ba1229500da4c1594ee6f6f2", "rental_uris": {"android": "https://dc.lft.to/lastmile_qr_scan", "ios": "https://dc.lft.to/lastmile_qr_scan"}, "fusion_lat": 0.0, "lat": 38.90643933333333, "is_disabled": 0, "lon": -77.01792733333333, "is_reserved": 0}, {"bike_id": "ad1205d585d47c990ed72460594ee8bd", "fusion_lon": 0.0, "type": "electric_scooter", "name": "ad1205d585d47c990ed72460594ee8bd", "rental_uris": {"android": "https://dc.lft.to/lastmile_qr_scan", "ios": "https://dc.lft.to/lastmile_qr_scan"}, "fusion_lat": 0.0, "lat": 38.925209833333334, "is_disabled": 0, "lon": -77.05235116666667, "is_reserved": 0}, {"bike_id": "933d532ec77afe64b3483c9c9230c51c", "fusion_lon": 0.0, "type": "electric_scooter", "name": "933d532ec77afe64b3483c9c9230c51c", "rental_uris": {"android": "https://dc.lft.to/lastmile_qr_scan", "ios": "https://dc.lft.to/lastmile_qr_scan"}, "fusion_lat": 0.0, "lat": 38.9012555, "is_disabled": 0, "lon": -77.04983333333334, "is_reserved": 0}, {"bike_id": "1c058cbcf8356b84f8430a84ce88f7a0", "fusion_lon": 0.0, "type": "electric_scooter", "name": "1c058cbcf8356b84f8430a84ce88f7a0", "rental_uris": {"android": "https://dc.lft.to/lastmile_qr_scan", "ios": "https://dc.lft.to/lastmile_qr_scan"}, "fusion_lat": 0.0, "lat": 38.87461016666666, "is_disabled": 0, "lon": -77.00598666666667, "is_reserved": 0}, {"bike_id": "b8625f41b0484adcb302c95023ca5e8c", "fusion_lon": 0.0, "type": "electric_scooter", "name": "b8625f41b0484adcb302c95023ca5e8c", "rental_uris": {"android": "https://dc.lft.to/lastmile_qr_scan", "ios": "https://dc.lft.to/lastmile_qr_scan"}, "fusion_lat": 0.0, "lat": 38.93330366666667, "is_disabled": 0, "lon": -77.02351183333333, "is_reserved": 0}, {"bike_id": "9aed338bc2251258a1a2b6a57cfa1c72", "fusion_lon": 0.0, "type": "electric_scooter", "name": "9aed338bc2251258a1a2b6a57cfa1c72", "rental_uris": {"android": "https://dc.lft.to/lastmile_qr_scan", "ios": "https://dc.lft.to/lastmile_qr_scan"}, "fusion_lat": 0.0, "lat": 38.911321666666666, "is_disabled": 0, "lon": -77.0218035, "is_reserved": 0}, {"bike_id": "ad7d9c54858a4cae16903a3df5467543", "fusion_lon": 0.0, "type": "electric_bike", "name": "ad7d9c54858a4cae16903a3df5467543", "rental_uris": {"android": "https://dc.lft.to/lastmile_qr_scan", "ios": "https://dc.lft.to/lastmile_qr_scan"}, "fusion_lat": 0.0, "lat": 38.816055666666664, "is_disabled": 0, "lon": -77.1412155, "is_reserved": 0}, {"bike_id": "007a47df57bea174e125046ce8cd7ba2", "fusion_lon": 0.0, "type": "electric_scooter", "name": "007a47df57bea174e125046ce8cd7ba2", "rental_uris": {"android": "https://dc.lft.to/lastmile_qr_scan", "ios": "https://dc.lft.to/lastmile_qr_scan"}, "fusion_lat": 0.0, "lat": 38.902474, "is_disabled": 0, "lon": -76.98967116666667, "is_reserved": 0}, {"bike_id": "e638d40ac87b4fb3bce201cfef17d20b", "fusion_lon": 0.0, "type": "electric_scooter", "name": "e638d40ac87b4fb3bce201cfef17d20b", "rental_uris": {"android": "https://dc.lft.to/lastmile_qr_scan", "ios": "https://dc.lft.to/lastmile_qr_scan"}, "fusion_lat": 0.0, "lat": 38.900711, "is_disabled": 0, "lon": -77.04824583333334, "is_reserved": 0}, {"bike_id": "46a34d6c36029c04293983fb53980ed8", "fusion_lon": 0.0, "type": "electric_scooter", "name": "46a34d6c36029c04293983fb53980ed8", "rental_uris": {"android": "https://dc.lft.to/lastmile_qr_scan", "ios": "https://dc.lft.to/lastmile_qr_scan"}, "fusion_lat": 0.0, "lat": 38.93519633333333, "is_disabled": 0, "lon": -77.025457, "is_reserved": 0}, {"bike_id": "2389f6746f5000ff75524c5f96ace6be", "fusion_lon": 0.0, "type": "electric_scooter", "name": "2389f6746f5000ff75524c5f96ace6be", "rental_uris": {"android": "https://dc.lft.to/lastmile_qr_scan", "ios": "https://dc.lft.to/lastmile_qr_scan"}, "fusion_lat": 0.0, "lat": 38.924036666666666, "is_disabled": 0, "lon": -77.02547083333333, "is_reserved": 0}, {"bike_id": "d3596e4a1db9b22d3e2457027df65ec5", "fusion_lon": 0.0, "type": "electric_scooter", "name": "d3596e4a1db9b22d3e2457027df65ec5", "rental_uris": {"android": "https://dc.lft.to/lastmile_qr_scan", "ios": "https://dc.lft.to/lastmile_qr_scan"}, "fusion_lat": 0.0, "lat": 38.887405666666666, "is_disabled": 0, "lon": -77.02393066666667, "is_reserved": 0}, {"bike_id": "fdf710523f1db3c9139982b46dec7f68", "fusion_lon": 0.0, "type": "electric_scooter", "name": "fdf710523f1db3c9139982b46dec7f68", "rental_uris": {"android": "https://dc.lft.to/lastmile_qr_scan", "ios": "https://dc.lft.to/lastmile_qr_scan"}, "fusion_lat": 0.0, "lat": 38.914715666666666, "is_disabled": 0, "lon": -77.03469116666666, "is_reserved": 0}, {"bike_id": "0d3667409d9ae71e2c1c970b9ae4a927", "fusion_lon": 0.0, "type": "electric_scooter", "name": "0d3667409d9ae71e2c1c970b9ae4a927", "rental_uris": {"android": "https://dc.lft.to/lastmile_qr_scan", "ios": "https://dc.lft.to/lastmile_qr_scan"}, "fusion_lat": 0.0, "lat": 38.942246833333336, "is_disabled": 0, "lon": -77.0616415, "is_reserved": 0}, {"bike_id": "e452d825e088530f5b7f18350c9ed21e", "fusion_lon": 0.0, "type": "electric_scooter", "name": "e452d825e088530f5b7f18350c9ed21e", "rental_uris": {"android": "https://dc.lft.to/lastmile_qr_scan", "ios": "https://dc.lft.to/lastmile_qr_scan"}, "fusion_lat": 0.0, "lat": 38.91854133333333, "is_disabled": 0, "lon": -77.0419005, "is_reserved": 0}, {"bike_id": "95ef2f503a4f47788917cd76efdde849", "fusion_lon": 0.0, "type": "electric_bike", "name": "95ef2f503a4f47788917cd76efdde849", "rental_uris": {"android": "https://dc.lft.to/lastmile_qr_scan", "ios": "https://dc.lft.to/lastmile_qr_scan"}, "fusion_lat": 0.0, "lat": 38.888249, "is_disabled": 0, "lon": -77.1274195, "is_reserved": 0}, {"bike_id": "43cea0b026032e56776f0ff97f422d7a", "fusion_lon": 0.0, "type": "electric_scooter", "name": "43cea0b026032e56776f0ff97f422d7a", "rental_uris": {"android": "https://dc.lft.to/lastmile_qr_scan", "ios": "https://dc.lft.to/lastmile_qr_scan"}, "fusion_lat": 0.0, "lat": 38.90719883333333, "is_disabled": 0, "lon": -77.01730516666667, "is_reserved": 0}, {"bike_id": "e2d146d49935e0fce4a76ed3170557d5", "fusion_lon": 0.0, "type": "electric_scooter", "name": "e2d146d49935e0fce4a76ed3170557d5", "rental_uris": {"android": "https://dc.lft.to/lastmile_qr_scan", "ios": "https://dc.lft.to/lastmile_qr_scan"}, "fusion_lat": 0.0, "lat": 38.911775166666665, "is_disabled": 0, "lon": -76.98773816666667, "is_reserved": 0}, {"bike_id": "d1907adb05e9365bcc1dc5b3c673afa1", "fusion_lon": 0.0, "type": "electric_scooter", "name": "d1907adb05e9365bcc1dc5b3c673afa1", "rental_uris": {"android": "https://dc.lft.to/lastmile_qr_scan", "ios": "https://dc.lft.to/lastmile_qr_scan"}, "fusion_lat": 0.0, "lat": 38.898871, "is_disabled": 0, "lon": -76.93159766666666, "is_reserved": 0}, {"bike_id": "b226c2103e572bbdb52da441ca849464", "fusion_lon": 0.0, "type": "electric_scooter", "name": "b226c2103e572bbdb52da441ca849464", "rental_uris": {"android": "https://dc.lft.to/lastmile_qr_scan", "ios": "https://dc.lft.to/lastmile_qr_scan"}, "fusion_lat": 0.0, "lat": 38.9111275, "is_disabled": 0, "lon": -77.0382985, "is_reserved": 0}, {"bike_id": "f3b8bf90bc2f90632cdeaa4106fd6bc1", "fusion_lon": 0.0, "type": "electric_scooter", "name": "f3b8bf90bc2f90632cdeaa4106fd6bc1", "rental_uris": {"android": "https://dc.lft.to/lastmile_qr_scan", "ios": "https://dc.lft.to/lastmile_qr_scan"}, "fusion_lat": 0.0, "lat": 38.908009166666666, "is_disabled": 0, "lon": -76.94122566666667, "is_reserved": 0}, {"bike_id": "d10ff282fe83a945b55d190d6863bae6", "fusion_lon": 0.0, "type": "electric_scooter", "name": "d10ff282fe83a945b55d190d6863bae6", "rental_uris": {"android": "https://dc.lft.to/lastmile_qr_scan", "ios": "https://dc.lft.to/lastmile_qr_scan"}, "fusion_lat": 0.0, "lat": 38.9037385, "is_disabled": 0, "lon": -77.02891416666667, "is_reserved": 0}, {"bike_id": "109c0787c92b791f797946447f4ce6a0", "fusion_lon": 0.0, "type": "electric_scooter", "name": "109c0787c92b791f797946447f4ce6a0", "rental_uris": {"android": "https://dc.lft.to/lastmile_qr_scan", "ios": "https://dc.lft.to/lastmile_qr_scan"}, "fusion_lat": 0.0, "lat": 38.9086795, "is_disabled": 0, "lon": -76.99957616666667, "is_reserved": 0}, {"bike_id": "a3b0124d5002339d0cd101fa8b874842", "fusion_lon": 0.0, "type": "electric_scooter", "name": "a3b0124d5002339d0cd101fa8b874842", "rental_uris": {"android": "https://dc.lft.to/lastmile_qr_scan", "ios": "https://dc.lft.to/lastmile_qr_scan"}, "fusion_lat": 0.0, "lat": 38.90435216666667, "is_disabled": 0, "lon": -77.046486, "is_reserved": 0}, {"bike_id": "6f4a59713d4058acb357afe7ac2edd01", "fusion_lon": 0.0, "type": "electric_scooter", "name": "6f4a59713d4058acb357afe7ac2edd01", "rental_uris": {"android": "https://dc.lft.to/lastmile_qr_scan", "ios": "https://dc.lft.to/lastmile_qr_scan"}, "fusion_lat": 0.0, "lat": 38.9233625, "is_disabled": 0, "lon": -77.04443716666667, "is_reserved": 0}, {"bike_id": "7a7770ce626dd1f4061109354a933685", "fusion_lon": 0.0, "type": "electric_scooter", "name": "7a7770ce626dd1f4061109354a933685", "rental_uris": {"android": "https://dc.lft.to/lastmile_qr_scan", "ios": "https://dc.lft.to/lastmile_qr_scan"}, "fusion_lat": 0.0, "lat": 38.89859333333333, "is_disabled": 0, "lon": -77.01780683333334, "is_reserved": 0}, {"bike_id": "feaeeccded20702cd72751528ac907dd", "fusion_lon": 0.0, "type": "electric_scooter", "name": "feaeeccded20702cd72751528ac907dd", "rental_uris": {"android": "https://dc.lft.to/lastmile_qr_scan", "ios": "https://dc.lft.to/lastmile_qr_scan"}, "fusion_lat": 0.0, "lat": 38.902878666666666, "is_disabled": 0, "lon": -76.936584, "is_reserved": 0}, {"bike_id": "7bf2bf5cd7882c28d7670724ad4a7e0d", "fusion_lon": 0.0, "type": "electric_scooter", "name": "7bf2bf5cd7882c28d7670724ad4a7e0d", "rental_uris": {"android": "https://dc.lft.to/lastmile_qr_scan", "ios": "https://dc.lft.to/lastmile_qr_scan"}, "fusion_lat": 0.0, "lat": 38.91844566666666, "is_disabled": 0, "lon": -77.02302883333333, "is_reserved": 0}, {"bike_id": "0aeac88389efd88f867c44073a57b89c", "fusion_lon": 0.0, "type": "electric_scooter", "name": "0aeac88389efd88f867c44073a57b89c", "rental_uris": {"android": "https://dc.lft.to/lastmile_qr_scan", "ios": "https://dc.lft.to/lastmile_qr_scan"}, "fusion_lat": 0.0, "lat": 38.92488816666667, "is_disabled": 0, "lon": -77.02140866666667, "is_reserved": 0}, {"bike_id": "dd79bb2cb6ca35ad6e09f098ecfa0d02", "fusion_lon": 0.0, "type": "electric_scooter", "name": "dd79bb2cb6ca35ad6e09f098ecfa0d02", "rental_uris": {"android": "https://dc.lft.to/lastmile_qr_scan", "ios": "https://dc.lft.to/lastmile_qr_scan"}, "fusion_lat": 0.0, "lat": 38.938783666666666, "is_disabled": 0, "lon": -77.02478533333333, "is_reserved": 0}, {"bike_id": "3329cf9c926a42c9bdc3b71a1ac508ac", "fusion_lon": 0.0, "type": "electric_scooter", "name": "3329cf9c926a42c9bdc3b71a1ac508ac", "rental_uris": {"android": "https://dc.lft.to/lastmile_qr_scan", "ios": "https://dc.lft.to/lastmile_qr_scan"}, "fusion_lat": 0.0, "lat": 38.90015266666666, "is_disabled": 0, "lon": -76.99119483333334, "is_reserved": 0}, {"bike_id": "002db0c4f7507fa4086c2e5031c662da", "fusion_lon": 0.0, "type": "electric_bike", "name": "002db0c4f7507fa4086c2e5031c662da", "rental_uris": {"android": "https://dc.lft.to/lastmile_qr_scan", "ios": "https://dc.lft.to/lastmile_qr_scan"}, "fusion_lat": 0.0, "lat": 38.990656666666666, "is_disabled": 0, "lon": -77.100274, "is_reserved": 0}, {"bike_id": "dd8ec1b8979d26ca4a3cfc9b3e8d0d7b", "fusion_lon": 0.0, "type": "electric_scooter", "name": "dd8ec1b8979d26ca4a3cfc9b3e8d0d7b", "rental_uris": {"android": "https://dc.lft.to/lastmile_qr_scan", "ios": "https://dc.lft.to/lastmile_qr_scan"}, "fusion_lat": 0.0, "lat": 38.92777483333333, "is_disabled": 0, "lon": -77.037039, "is_reserved": 0}, {"bike_id": "903c23008f48fff47f2ef62763f8a289", "fusion_lon": 0.0, "type": "electric_scooter", "name": "903c23008f48fff47f2ef62763f8a289", "rental_uris": {"android": "https://dc.lft.to/lastmile_qr_scan", "ios": "https://dc.lft.to/lastmile_qr_scan"}, "fusion_lat": 0.0, "lat": 38.937612, "is_disabled": 0, "lon": -77.0328255, "is_reserved": 0}, {"bike_id": "1b67ef21e95dc6cbade85176656932ac", "fusion_lon": 0.0, "type": "electric_scooter", "name": "1b67ef21e95dc6cbade85176656932ac", "rental_uris": {"android": "https://dc.lft.to/lastmile_qr_scan", "ios": "https://dc.lft.to/lastmile_qr_scan"}, "fusion_lat": 0.0, "lat": 38.9236955, "is_disabled": 0, "lon": -77.02801133333334, "is_reserved": 0}, {"bike_id": "64804c11aefa9cf627852e5191a349a3", "fusion_lon": 0.0, "type": "electric_scooter", "name": "64804c11aefa9cf627852e5191a349a3", "rental_uris": {"android": "https://dc.lft.to/lastmile_qr_scan", "ios": "https://dc.lft.to/lastmile_qr_scan"}, "fusion_lat": 0.0, "lat": 38.898948833333336, "is_disabled": 0, "lon": -76.98571483333333, "is_reserved": 0}, {"bike_id": "1331ceda052fa628b25c65c96f0b2333", "fusion_lon": 0.0, "type": "electric_scooter", "name": "1331ceda052fa628b25c65c96f0b2333", "rental_uris": {"android": "https://dc.lft.to/lastmile_qr_scan", "ios": "https://dc.lft.to/lastmile_qr_scan"}, "fusion_lat": 0.0, "lat": 38.912603833333336, "is_disabled": 0, "lon": -77.04092816666666, "is_reserved": 0}, {"bike_id": "b9117ad2685dfa55a481e1b829d02b26", "fusion_lon": 0.0, "type": "electric_scooter", "name": "b9117ad2685dfa55a481e1b829d02b26", "rental_uris": {"android": "https://dc.lft.to/lastmile_qr_scan", "ios": "https://dc.lft.to/lastmile_qr_scan"}, "fusion_lat": 0.0, "lat": 38.91198833333333, "is_disabled": 0, "lon": -77.01815866666666, "is_reserved": 0}, {"bike_id": "ec858b1140efe323ebdf810cd94ddfe3", "fusion_lon": 0.0, "type": "electric_scooter", "name": "ec858b1140efe323ebdf810cd94ddfe3", "rental_uris": {"android": "https://dc.lft.to/lastmile_qr_scan", "ios": "https://dc.lft.to/lastmile_qr_scan"}, "fusion_lat": 0.0, "lat": 38.906964333333335, "is_disabled": 0, "lon": -77.0099785, "is_reserved": 0}, {"bike_id": "49199609f15a1a0a37bb7d51f8ca2a4e", "fusion_lon": 0.0, "type": "electric_scooter", "name": "49199609f15a1a0a37bb7d51f8ca2a4e", "rental_uris": {"android": "https://dc.lft.to/lastmile_qr_scan", "ios": "https://dc.lft.to/lastmile_qr_scan"}, "fusion_lat": 0.0, "lat": 38.917138, "is_disabled": 0, "lon": -77.03900716666666, "is_reserved": 0}, {"bike_id": "d86aa70fd55f4fa36ff7411620f7cd59", "fusion_lon": 0.0, "type": "electric_bike", "name": "d86aa70fd55f4fa36ff7411620f7cd59", "rental_uris": {"android": "https://dc.lft.to/lastmile_qr_scan", "ios": "https://dc.lft.to/lastmile_qr_scan"}, "fusion_lat": 0.0, "lat": 38.8749525, "is_disabled": 0, "lon": -77.04898266666666, "is_reserved": 0}, {"bike_id": "2b0d7a0bd4bfbd3cdf4a7e4b76be7b55", "fusion_lon": 0.0, "type": "electric_scooter", "name": "2b0d7a0bd4bfbd3cdf4a7e4b76be7b55", "rental_uris": {"android": "https://dc.lft.to/lastmile_qr_scan", "ios": "https://dc.lft.to/lastmile_qr_scan"}, "fusion_lat": 0.0, "lat": 38.9070295, "is_disabled": 0, "lon": -77.00604066666666, "is_reserved": 0}, {"bike_id": "8fbe0ec73b35d3acbe223b98ae66040c", "fusion_lon": 0.0, "type": "electric_scooter", "name": "8fbe0ec73b35d3acbe223b98ae66040c", "rental_uris": {"android": "https://dc.lft.to/lastmile_qr_scan", "ios": "https://dc.lft.to/lastmile_qr_scan"}, "fusion_lat": 0.0, "lat": 38.8982635, "is_disabled": 0, "lon": -76.94654066666666, "is_reserved": 0}, {"bike_id": "9ab38ecec74491eb90758deb9b096635", "fusion_lon": 0.0, "type": "electric_scooter", "name": "9ab38ecec74491eb90758deb9b096635", "rental_uris": {"android": "https://dc.lft.to/lastmile_qr_scan", "ios": "https://dc.lft.to/lastmile_qr_scan"}, "fusion_lat": 0.0, "lat": 38.93274483333333, "is_disabled": 0, "lon": -77.044293, "is_reserved": 0}, {"bike_id": "77ecd6db17510f020a48826c750c2511", "fusion_lon": 0.0, "type": "electric_scooter", "name": "77ecd6db17510f020a48826c750c2511", "rental_uris": {"android": "https://dc.lft.to/lastmile_qr_scan", "ios": "https://dc.lft.to/lastmile_qr_scan"}, "fusion_lat": 0.0, "lat": 38.92046933333334, "is_disabled": 0, "lon": -77.04186183333333, "is_reserved": 0}, {"bike_id": "e7da1742f003d20e3ae39b58ded50667", "fusion_lon": 0.0, "type": "electric_scooter", "name": "e7da1742f003d20e3ae39b58ded50667", "rental_uris": {"android": "https://dc.lft.to/lastmile_qr_scan", "ios": "https://dc.lft.to/lastmile_qr_scan"}, "fusion_lat": 0.0, "lat": 38.91764283333333, "is_disabled": 0, "lon": -77.0160265, "is_reserved": 0}, {"bike_id": "ef798a1e3382247011e28e6ae3e0f8c7", "fusion_lon": 0.0, "type": "electric_scooter", "name": "ef798a1e3382247011e28e6ae3e0f8c7", "rental_uris": {"android": "https://dc.lft.to/lastmile_qr_scan", "ios": "https://dc.lft.to/lastmile_qr_scan"}, "fusion_lat": 0.0, "lat": 38.906752, "is_disabled": 0, "lon": -77.07301266666667, "is_reserved": 0}, {"bike_id": "18f4ad15d4f656d38e2303ebd696150b", "fusion_lon": 0.0, "type": "electric_scooter", "name": "18f4ad15d4f656d38e2303ebd696150b", "rental_uris": {"android": "https://dc.lft.to/lastmile_qr_scan", "ios": "https://dc.lft.to/lastmile_qr_scan"}, "fusion_lat": 0.0, "lat": 38.927058833333334, "is_disabled": 0, "lon": -77.02395066666666, "is_reserved": 0}, {"bike_id": "9c9dc0ea9185ebfc88786419190a0ca4", "fusion_lon": 0.0, "type": "electric_scooter", "name": "9c9dc0ea9185ebfc88786419190a0ca4", "rental_uris": {"android": "https://dc.lft.to/lastmile_qr_scan", "ios": "https://dc.lft.to/lastmile_qr_scan"}, "fusion_lat": 0.0, "lat": 38.915602666666665, "is_disabled": 0, "lon": -77.02048316666666, "is_reserved": 0}, {"bike_id": "1f79ce88c4c54d7367d7c124744a44d3", "fusion_lon": 0.0, "type": "electric_scooter", "name": "1f79ce88c4c54d7367d7c124744a44d3", "rental_uris": {"android": "https://dc.lft.to/lastmile_qr_scan", "ios": "https://dc.lft.to/lastmile_qr_scan"}, "fusion_lat": 0.0, "lat": 38.92429966666667, "is_disabled": 0, "lon": -77.03626416666667, "is_reserved": 0}, {"bike_id": "514c3205d94b15ed8ff22d9f6cf65394", "fusion_lon": 0.0, "type": "electric_scooter", "name": "514c3205d94b15ed8ff22d9f6cf65394", "rental_uris": {"android": "https://dc.lft.to/lastmile_qr_scan", "ios": "https://dc.lft.to/lastmile_qr_scan"}, "fusion_lat": 0.0, "lat": 38.95764966666667, "is_disabled": 0, "lon": -77.015909, "is_reserved": 0}, {"bike_id": "1957823031b9fbec4fee04cdbaa5c796", "fusion_lon": 0.0, "type": "electric_scooter", "name": "1957823031b9fbec4fee04cdbaa5c796", "rental_uris": {"android": "https://dc.lft.to/lastmile_qr_scan", "ios": "https://dc.lft.to/lastmile_qr_scan"}, "fusion_lat": 0.0, "lat": 38.90723966666667, "is_disabled": 0, "lon": -77.02376266666667, "is_reserved": 0}, {"bike_id": "32be474ab44a1b21248d90a6251e4162", "fusion_lon": 0.0, "type": "electric_scooter", "name": "32be474ab44a1b21248d90a6251e4162", "rental_uris": {"android": "https://dc.lft.to/lastmile_qr_scan", "ios": "https://dc.lft.to/lastmile_qr_scan"}, "fusion_lat": 0.0, "lat": 38.8763225, "is_disabled": 0, "lon": -77.01250383333333, "is_reserved": 0}, {"bike_id": "7b5b1ac70ad4fb13851a744490b047d8", "fusion_lon": 0.0, "type": "electric_scooter", "name": "7b5b1ac70ad4fb13851a744490b047d8", "rental_uris": {"android": "https://dc.lft.to/lastmile_qr_scan", "ios": "https://dc.lft.to/lastmile_qr_scan"}, "fusion_lat": 0.0, "lat": 38.92998216666667, "is_disabled": 0, "lon": -77.03256383333333, "is_reserved": 0}, {"bike_id": "ebc71823cd8e79d8e19d2b32005a8054", "fusion_lon": 0.0, "type": "electric_scooter", "name": "ebc71823cd8e79d8e19d2b32005a8054", "rental_uris": {"android": "https://dc.lft.to/lastmile_qr_scan", "ios": "https://dc.lft.to/lastmile_qr_scan"}, "fusion_lat": 0.0, "lat": 38.8913155, "is_disabled": 0, "lon": -76.951836, "is_reserved": 0}, {"bike_id": "6e4aa305dd4ca4e7f7ca863b7971df53", "fusion_lon": 0.0, "type": "electric_scooter", "name": "6e4aa305dd4ca4e7f7ca863b7971df53", "rental_uris": {"android": "https://dc.lft.to/lastmile_qr_scan", "ios": "https://dc.lft.to/lastmile_qr_scan"}, "fusion_lat": 0.0, "lat": 38.890192, "is_disabled": 0, "lon": -76.93736083333333, "is_reserved": 0}, {"bike_id": "22339b16134ca7c5110610d8336841b9", "fusion_lon": 0.0, "type": "electric_scooter", "name": "22339b16134ca7c5110610d8336841b9", "rental_uris": {"android": "https://dc.lft.to/lastmile_qr_scan", "ios": "https://dc.lft.to/lastmile_qr_scan"}, "fusion_lat": 0.0, "lat": 38.9056085, "is_disabled": 0, "lon": -77.005885, "is_reserved": 0}, {"bike_id": "3fd24716d2bd30710ef1ef26f389d349", "fusion_lon": 0.0, "type": "electric_scooter", "name": "3fd24716d2bd30710ef1ef26f389d349", "rental_uris": {"android": "https://dc.lft.to/lastmile_qr_scan", "ios": "https://dc.lft.to/lastmile_qr_scan"}, "fusion_lat": 0.0, "lat": 38.92611333333333, "is_disabled": 0, "lon": -77.02421116666666, "is_reserved": 0}, {"bike_id": "7a1a1a02a95011fa9f36cded2f7f9dd6", "fusion_lon": 0.0, "type": "electric_scooter", "name": "7a1a1a02a95011fa9f36cded2f7f9dd6", "rental_uris": {"android": "https://dc.lft.to/lastmile_qr_scan", "ios": "https://dc.lft.to/lastmile_qr_scan"}, "fusion_lat": 0.0, "lat": 38.911075333333336, "is_disabled": 0, "lon": -77.0735265, "is_reserved": 0}, {"bike_id": "df88bb4715fb2805fe307bb7e09509cc", "fusion_lon": 0.0, "type": "electric_scooter", "name": "df88bb4715fb2805fe307bb7e09509cc", "rental_uris": {"android": "https://dc.lft.to/lastmile_qr_scan", "ios": "https://dc.lft.to/lastmile_qr_scan"}, "fusion_lat": 0.0, "lat": 38.904879666666666, "is_disabled": 0, "lon": -77.00726733333333, "is_reserved": 0}, {"bike_id": "94645db1963ac3caee9faaf177957067", "fusion_lon": 0.0, "type": "electric_scooter", "name": "94645db1963ac3caee9faaf177957067", "rental_uris": {"android": "https://dc.lft.to/lastmile_qr_scan", "ios": "https://dc.lft.to/lastmile_qr_scan"}, "fusion_lat": 0.0, "lat": 38.9044485, "is_disabled": 0, "lon": -77.0515075, "is_reserved": 0}, {"bike_id": "febab20994c7b4385354190f30b34c2e", "fusion_lon": 0.0, "type": "electric_scooter", "name": "febab20994c7b4385354190f30b34c2e", "rental_uris": {"android": "https://dc.lft.to/lastmile_qr_scan", "ios": "https://dc.lft.to/lastmile_qr_scan"}, "fusion_lat": 0.0, "lat": 38.88002683333333, "is_disabled": 0, "lon": -76.98539983333333, "is_reserved": 0}, {"bike_id": "3b0f3804f54f18dd414289068a788cd0", "fusion_lon": 0.0, "type": "electric_scooter", "name": "3b0f3804f54f18dd414289068a788cd0", "rental_uris": {"android": "https://dc.lft.to/lastmile_qr_scan", "ios": "https://dc.lft.to/lastmile_qr_scan"}, "fusion_lat": 0.0, "lat": 38.919245, "is_disabled": 0, "lon": -77.0317445, "is_reserved": 0}, {"bike_id": "e245d1b2d45bb1201e126555030ef84d", "fusion_lon": 0.0, "type": "electric_scooter", "name": "e245d1b2d45bb1201e126555030ef84d", "rental_uris": {"android": "https://dc.lft.to/lastmile_qr_scan", "ios": "https://dc.lft.to/lastmile_qr_scan"}, "fusion_lat": 0.0, "lat": 38.89231783333334, "is_disabled": 0, "lon": -77.02828783333334, "is_reserved": 0}, {"bike_id": "dd76a612a1a45fd8da66d1b0d5b96ca6", "fusion_lon": 0.0, "type": "electric_scooter", "name": "dd76a612a1a45fd8da66d1b0d5b96ca6", "rental_uris": {"android": "https://dc.lft.to/lastmile_qr_scan", "ios": "https://dc.lft.to/lastmile_qr_scan"}, "fusion_lat": 0.0, "lat": 38.90797233333333, "is_disabled": 0, "lon": -76.94122883333333, "is_reserved": 0}, {"bike_id": "3ef9455120afbdb4b021f68f56f1ad12", "fusion_lon": 0.0, "type": "electric_scooter", "name": "3ef9455120afbdb4b021f68f56f1ad12", "rental_uris": {"android": "https://dc.lft.to/lastmile_qr_scan", "ios": "https://dc.lft.to/lastmile_qr_scan"}, "fusion_lat": 0.0, "lat": 38.91554033333333, "is_disabled": 0, "lon": -77.02206716666667, "is_reserved": 0}, {"bike_id": "33e82acc25e4b3d7cc0993a3b32c764c", "fusion_lon": 0.0, "type": "electric_scooter", "name": "33e82acc25e4b3d7cc0993a3b32c764c", "rental_uris": {"android": "https://dc.lft.to/lastmile_qr_scan", "ios": "https://dc.lft.to/lastmile_qr_scan"}, "fusion_lat": 0.0, "lat": 38.899127166666666, "is_disabled": 0, "lon": -76.93341183333334, "is_reserved": 0}, {"bike_id": "361a76e45ddfff8bdffce401752546a5", "fusion_lon": 0.0, "type": "electric_scooter", "name": "361a76e45ddfff8bdffce401752546a5", "rental_uris": {"android": "https://dc.lft.to/lastmile_qr_scan", "ios": "https://dc.lft.to/lastmile_qr_scan"}, "fusion_lat": 0.0, "lat": 38.939219333333334, "is_disabled": 0, "lon": -77.060181, "is_reserved": 0}, {"bike_id": "d33db9d841d7036ff4e0ac938b985b5d", "fusion_lon": 0.0, "type": "electric_scooter", "name": "d33db9d841d7036ff4e0ac938b985b5d", "rental_uris": {"android": "https://dc.lft.to/lastmile_qr_scan", "ios": "https://dc.lft.to/lastmile_qr_scan"}, "fusion_lat": 0.0, "lat": 38.92053883333333, "is_disabled": 0, "lon": -77.0242565, "is_reserved": 0}, {"bike_id": "99ae0721094c5f0f3fe7d6db8f6e8d87", "fusion_lon": 0.0, "type": "electric_bike", "name": "99ae0721094c5f0f3fe7d6db8f6e8d87", "rental_uris": {"android": "https://dc.lft.to/lastmile_qr_scan", "ios": "https://dc.lft.to/lastmile_qr_scan"}, "fusion_lat": 0.0, "lat": 38.926613833333334, "is_disabled": 0, "lon": -77.023741, "is_reserved": 0}, {"bike_id": "8870f6b83d014b98c87e3fb6bafa9833", "fusion_lon": 0.0, "type": "electric_scooter", "name": "8870f6b83d014b98c87e3fb6bafa9833", "rental_uris": {"android": "https://dc.lft.to/lastmile_qr_scan", "ios": "https://dc.lft.to/lastmile_qr_scan"}, "fusion_lat": 0.0, "lat": 38.9030285, "is_disabled": 0, "lon": -77.02117333333334, "is_reserved": 0}, {"bike_id": "ae45490aa576687037279ea51a73e59f", "fusion_lon": 0.0, "type": "electric_bike", "name": "ae45490aa576687037279ea51a73e59f", "rental_uris": {"android": "https://dc.lft.to/lastmile_qr_scan", "ios": "https://dc.lft.to/lastmile_qr_scan"}, "fusion_lat": 0.0, "lat": 38.88013266666667, "is_disabled": 0, "lon": -76.91594816666667, "is_reserved": 0}, {"bike_id": "632443a93130e7c36b97f9a8c3911d5e", "fusion_lon": 0.0, "type": "electric_bike", "name": "632443a93130e7c36b97f9a8c3911d5e", "rental_uris": {"android": "https://dc.lft.to/lastmile_qr_scan", "ios": "https://dc.lft.to/lastmile_qr_scan"}, "fusion_lat": 0.0, "lat": 38.845405, "is_disabled": 0, "lon": -76.987883, "is_reserved": 0}, {"bike_id": "ceba845441ac09cc258d2c6b2ec4db55", "fusion_lon": 0.0, "type": "electric_scooter", "name": "ceba845441ac09cc258d2c6b2ec4db55", "rental_uris": {"android": "https://dc.lft.to/lastmile_qr_scan", "ios": "https://dc.lft.to/lastmile_qr_scan"}, "fusion_lat": 0.0, "lat": 38.914084333333335, "is_disabled": 0, "lon": -77.0326045, "is_reserved": 0}, {"bike_id": "2e902c3fd9c6744f99d839e4b388c3b2", "fusion_lon": 0.0, "type": "electric_scooter", "name": "2e902c3fd9c6744f99d839e4b388c3b2", "rental_uris": {"android": "https://dc.lft.to/lastmile_qr_scan", "ios": "https://dc.lft.to/lastmile_qr_scan"}, "fusion_lat": 0.0, "lat": 38.9298765, "is_disabled": 0, "lon": -77.03211166666667, "is_reserved": 0}, {"bike_id": "5bf620964e140989608244392da3f8d0", "fusion_lon": 0.0, "type": "electric_scooter", "name": "5bf620964e140989608244392da3f8d0", "rental_uris": {"android": "https://dc.lft.to/lastmile_qr_scan", "ios": "https://dc.lft.to/lastmile_qr_scan"}, "fusion_lat": 0.0, "lat": 38.93477766666667, "is_disabled": 0, "lon": -77.06530433333333, "is_reserved": 0}, {"bike_id": "a19c6883dc8124ebd38a7987985b8a5d", "fusion_lon": 0.0, "type": "electric_scooter", "name": "a19c6883dc8124ebd38a7987985b8a5d", "rental_uris": {"android": "https://dc.lft.to/lastmile_qr_scan", "ios": "https://dc.lft.to/lastmile_qr_scan"}, "fusion_lat": 0.0, "lat": 38.90737583333333, "is_disabled": 0, "lon": -77.03463383333333, "is_reserved": 0}, {"bike_id": "acd491df627bf6ef7b7a6c45232293cf", "fusion_lon": 0.0, "type": "electric_scooter", "name": "acd491df627bf6ef7b7a6c45232293cf", "rental_uris": {"android": "https://dc.lft.to/lastmile_qr_scan", "ios": "https://dc.lft.to/lastmile_qr_scan"}, "fusion_lat": 0.0, "lat": 38.906511, "is_disabled": 0, "lon": -77.0006415, "is_reserved": 0}, {"bike_id": "2cd5125086cb477c0c4c536167ee75f3", "fusion_lon": 0.0, "type": "electric_scooter", "name": "2cd5125086cb477c0c4c536167ee75f3", "rental_uris": {"android": "https://dc.lft.to/lastmile_qr_scan", "ios": "https://dc.lft.to/lastmile_qr_scan"}, "fusion_lat": 0.0, "lat": 38.9133455, "is_disabled": 0, "lon": -77.0481985, "is_reserved": 0}, {"bike_id": "14eb60bdfc281c1fbe9cd0dd02a1708c", "fusion_lon": 0.0, "type": "electric_bike", "name": "14eb60bdfc281c1fbe9cd0dd02a1708c", "rental_uris": {"android": "https://dc.lft.to/lastmile_qr_scan", "ios": "https://dc.lft.to/lastmile_qr_scan"}, "fusion_lat": 0.0, "lat": 38.99456, "is_disabled": 0, "lon": -76.90817116666666, "is_reserved": 0}, {"bike_id": "fa85562b3395377c7acd940a1a7f9277", "fusion_lon": 0.0, "type": "electric_scooter", "name": "fa85562b3395377c7acd940a1a7f9277", "rental_uris": {"android": "https://dc.lft.to/lastmile_qr_scan", "ios": "https://dc.lft.to/lastmile_qr_scan"}, "fusion_lat": 0.0, "lat": 38.914099, "is_disabled": 0, "lon": -77.04182166666666, "is_reserved": 0}, {"bike_id": "0815f9dda065301e9cc97c84bd686790", "fusion_lon": 0.0, "type": "electric_scooter", "name": "0815f9dda065301e9cc97c84bd686790", "rental_uris": {"android": "https://dc.lft.to/lastmile_qr_scan", "ios": "https://dc.lft.to/lastmile_qr_scan"}, "fusion_lat": 0.0, "lat": 38.933701166666665, "is_disabled": 0, "lon": -77.05732833333333, "is_reserved": 0}, {"bike_id": "873a4a135d3d7fb9e353e27e22ec6e13", "fusion_lon": 0.0, "type": "electric_scooter", "name": "873a4a135d3d7fb9e353e27e22ec6e13", "rental_uris": {"android": "https://dc.lft.to/lastmile_qr_scan", "ios": "https://dc.lft.to/lastmile_qr_scan"}, "fusion_lat": 0.0, "lat": 38.92678316666667, "is_disabled": 0, "lon": -77.07834966666667, "is_reserved": 0}, {"bike_id": "22bbdf293a8f62255e7a830889edfa9d", "fusion_lon": 0.0, "type": "electric_bike", "name": "22bbdf293a8f62255e7a830889edfa9d", "rental_uris": {"android": "https://dc.lft.to/lastmile_qr_scan", "ios": "https://dc.lft.to/lastmile_qr_scan"}, "fusion_lat": 0.0, "lat": 38.942072333333336, "is_disabled": 0, "lon": -76.96627083333334, "is_reserved": 0}, {"bike_id": "e9669b4641862641c6f5c79c43726231", "fusion_lon": 0.0, "type": "electric_scooter", "name": "e9669b4641862641c6f5c79c43726231", "rental_uris": {"android": "https://dc.lft.to/lastmile_qr_scan", "ios": "https://dc.lft.to/lastmile_qr_scan"}, "fusion_lat": 0.0, "lat": 38.8873215, "is_disabled": 0, "lon": -77.02267783333333, "is_reserved": 0}, {"bike_id": "4c18f66c20d94d8ef4ef40b10bd616e6", "fusion_lon": 0.0, "type": "electric_scooter", "name": "4c18f66c20d94d8ef4ef40b10bd616e6", "rental_uris": {"android": "https://dc.lft.to/lastmile_qr_scan", "ios": "https://dc.lft.to/lastmile_qr_scan"}, "fusion_lat": 0.0, "lat": 38.886115333333336, "is_disabled": 0, "lon": -77.0219705, "is_reserved": 0}, {"bike_id": "817f27a6d9e607cb15a1d8965e1bf81e", "fusion_lon": 0.0, "type": "electric_scooter", "name": "817f27a6d9e607cb15a1d8965e1bf81e", "rental_uris": {"android": "https://dc.lft.to/lastmile_qr_scan", "ios": "https://dc.lft.to/lastmile_qr_scan"}, "fusion_lat": 0.0, "lat": 38.90019083333333, "is_disabled": 0, "lon": -76.98698883333333, "is_reserved": 0}, {"bike_id": "71c6c0ccd2e50d1a478952b4a8281476", "fusion_lon": 0.0, "type": "electric_scooter", "name": "71c6c0ccd2e50d1a478952b4a8281476", "rental_uris": {"android": "https://dc.lft.to/lastmile_qr_scan", "ios": "https://dc.lft.to/lastmile_qr_scan"}, "fusion_lat": 0.0, "lat": 38.938619333333335, "is_disabled": 0, "lon": -77.0264955, "is_reserved": 0}, {"bike_id": "c227d7464246be075fca97fa76643b39", "fusion_lon": 0.0, "type": "electric_scooter", "name": "c227d7464246be075fca97fa76643b39", "rental_uris": {"android": "https://dc.lft.to/lastmile_qr_scan", "ios": "https://dc.lft.to/lastmile_qr_scan"}, "fusion_lat": 0.0, "lat": 38.922496, "is_disabled": 0, "lon": -77.09961566666666, "is_reserved": 0}, {"bike_id": "48bbb9c66850d91b575277f10f997bfc", "fusion_lon": 0.0, "type": "electric_scooter", "name": "48bbb9c66850d91b575277f10f997bfc", "rental_uris": {"android": "https://dc.lft.to/lastmile_qr_scan", "ios": "https://dc.lft.to/lastmile_qr_scan"}, "fusion_lat": 0.0, "lat": 38.9212195, "is_disabled": 0, "lon": -77.0365745, "is_reserved": 0}, {"bike_id": "10d8034d8f556d4c331bf06740e5bb4f", "fusion_lon": 0.0, "type": "electric_scooter", "name": "10d8034d8f556d4c331bf06740e5bb4f", "rental_uris": {"android": "https://dc.lft.to/lastmile_qr_scan", "ios": "https://dc.lft.to/lastmile_qr_scan"}, "fusion_lat": 0.0, "lat": 38.922332, "is_disabled": 0, "lon": -77.04642783333334, "is_reserved": 0}, {"bike_id": "ce157d15f6a9bedbc8d4f433977b6566", "fusion_lon": 0.0, "type": "electric_scooter", "name": "ce157d15f6a9bedbc8d4f433977b6566", "rental_uris": {"android": "https://dc.lft.to/lastmile_qr_scan", "ios": "https://dc.lft.to/lastmile_qr_scan"}, "fusion_lat": 0.0, "lat": 38.887511, "is_disabled": 0, "lon": -77.016058, "is_reserved": 0}, {"bike_id": "9e4f7fafc2f01a731125aafbe15c084c", "fusion_lon": 0.0, "type": "electric_scooter", "name": "9e4f7fafc2f01a731125aafbe15c084c", "rental_uris": {"android": "https://dc.lft.to/lastmile_qr_scan", "ios": "https://dc.lft.to/lastmile_qr_scan"}, "fusion_lat": 0.0, "lat": 38.91270683333333, "is_disabled": 0, "lon": -77.02234433333334, "is_reserved": 0}, {"bike_id": "9b6587f4f15459ad22b4c4dd5fbd44ae", "fusion_lon": 0.0, "type": "electric_scooter", "name": "9b6587f4f15459ad22b4c4dd5fbd44ae", "rental_uris": {"android": "https://dc.lft.to/lastmile_qr_scan", "ios": "https://dc.lft.to/lastmile_qr_scan"}, "fusion_lat": 0.0, "lat": 38.9197865, "is_disabled": 0, "lon": -77.01845833333333, "is_reserved": 0}, {"bike_id": "b7cd046cdb1a355dac40403b44473172", "fusion_lon": 0.0, "type": "electric_scooter", "name": "b7cd046cdb1a355dac40403b44473172", "rental_uris": {"android": "https://dc.lft.to/lastmile_qr_scan", "ios": "https://dc.lft.to/lastmile_qr_scan"}, "fusion_lat": 0.0, "lat": 38.900132166666666, "is_disabled": 0, "lon": -76.99123433333334, "is_reserved": 0}, {"bike_id": "47c951b10e583b6bfcd4eba11c11554b", "fusion_lon": 0.0, "type": "electric_bike", "name": "47c951b10e583b6bfcd4eba11c11554b", "rental_uris": {"android": "https://dc.lft.to/lastmile_qr_scan", "ios": "https://dc.lft.to/lastmile_qr_scan"}, "fusion_lat": 0.0, "lat": 38.845949, "is_disabled": 0, "lon": -76.96883683333333, "is_reserved": 0}, {"bike_id": "3de43bd7fa86cff591671c04d56f9530", "fusion_lon": 0.0, "type": "electric_scooter", "name": "3de43bd7fa86cff591671c04d56f9530", "rental_uris": {"android": "https://dc.lft.to/lastmile_qr_scan", "ios": "https://dc.lft.to/lastmile_qr_scan"}, "fusion_lat": 0.0, "lat": 38.92424616666667, "is_disabled": 0, "lon": -77.036402, "is_reserved": 0}, {"bike_id": "d931fe6f523b024cc6b444dfda2307b0", "fusion_lon": 0.0, "type": "electric_scooter", "name": "d931fe6f523b024cc6b444dfda2307b0", "rental_uris": {"android": "https://dc.lft.to/lastmile_qr_scan", "ios": "https://dc.lft.to/lastmile_qr_scan"}, "fusion_lat": 0.0, "lat": 38.959754333333336, "is_disabled": 0, "lon": -77.00728983333333, "is_reserved": 0}, {"bike_id": "228d1c7fbd3ac390a6820c4635e744bf", "fusion_lon": 0.0, "type": "electric_scooter", "name": "228d1c7fbd3ac390a6820c4635e744bf", "rental_uris": {"android": "https://dc.lft.to/lastmile_qr_scan", "ios": "https://dc.lft.to/lastmile_qr_scan"}, "fusion_lat": 0.0, "lat": 38.90058633333334, "is_disabled": 0, "lon": -77.0129655, "is_reserved": 0}, {"bike_id": "34190cd7f78a97b70968b7c140aa36d6", "fusion_lon": 0.0, "type": "electric_bike", "name": "34190cd7f78a97b70968b7c140aa36d6", "rental_uris": {"android": "https://dc.lft.to/lastmile_qr_scan", "ios": "https://dc.lft.to/lastmile_qr_scan"}, "fusion_lat": 0.0, "lat": 38.87673766666666, "is_disabled": 0, "lon": -77.01445483333333, "is_reserved": 0}, {"bike_id": "99f04b036fa64ca32a6594de07b636fc", "fusion_lon": 0.0, "type": "electric_scooter", "name": "99f04b036fa64ca32a6594de07b636fc", "rental_uris": {"android": "https://dc.lft.to/lastmile_qr_scan", "ios": "https://dc.lft.to/lastmile_qr_scan"}, "fusion_lat": 0.0, "lat": 38.949838166666666, "is_disabled": 0, "lon": -77.06757166666667, "is_reserved": 0}, {"bike_id": "9b42f9ed0e42ed90c9a377caba50f6f5", "fusion_lon": 0.0, "type": "electric_bike", "name": "9b42f9ed0e42ed90c9a377caba50f6f5", "rental_uris": {"android": "https://dc.lft.to/lastmile_qr_scan", "ios": "https://dc.lft.to/lastmile_qr_scan"}, "fusion_lat": 0.0, "lat": 38.84480166666667, "is_disabled": 0, "lon": -76.972176, "is_reserved": 0}, {"bike_id": "d0d5d5574ab2f4728a338736ccee663f", "fusion_lon": 0.0, "type": "electric_scooter", "name": "d0d5d5574ab2f4728a338736ccee663f", "rental_uris": {"android": "https://dc.lft.to/lastmile_qr_scan", "ios": "https://dc.lft.to/lastmile_qr_scan"}, "fusion_lat": 0.0, "lat": 38.92225233333333, "is_disabled": 0, "lon": -77.04239766666667, "is_reserved": 0}, {"bike_id": "f73edad2db6deb066ae724a6c67b8ff9", "fusion_lon": 0.0, "type": "electric_bike", "name": "f73edad2db6deb066ae724a6c67b8ff9", "rental_uris": {"android": "https://dc.lft.to/lastmile_qr_scan", "ios": "https://dc.lft.to/lastmile_qr_scan"}, "fusion_lat": 0.0, "lat": 38.92226516666667, "is_disabled": 0, "lon": -77.02237816666667, "is_reserved": 0}, {"bike_id": "27374334e9310e588a7e291694f9eeba", "fusion_lon": 0.0, "type": "electric_bike", "name": "27374334e9310e588a7e291694f9eeba", "rental_uris": {"android": "https://dc.lft.to/lastmile_qr_scan", "ios": "https://dc.lft.to/lastmile_qr_scan"}, "fusion_lat": 0.0, "lat": 38.99965616666667, "is_disabled": 0, "lon": -77.051174, "is_reserved": 0}, {"bike_id": "a2b5cd22b847d2b7a7d66ab29d1b4d12", "fusion_lon": 0.0, "type": "electric_scooter", "name": "a2b5cd22b847d2b7a7d66ab29d1b4d12", "rental_uris": {"android": "https://dc.lft.to/lastmile_qr_scan", "ios": "https://dc.lft.to/lastmile_qr_scan"}, "fusion_lat": 0.0, "lat": 38.877053333333336, "is_disabled": 0, "lon": -77.00308266666667, "is_reserved": 0}, {"bike_id": "7006f45c82973c0027c9cf0d3e8d967d", "fusion_lon": 0.0, "type": "electric_scooter", "name": "7006f45c82973c0027c9cf0d3e8d967d", "rental_uris": {"android": "https://dc.lft.to/lastmile_qr_scan", "ios": "https://dc.lft.to/lastmile_qr_scan"}, "fusion_lat": 0.0, "lat": 38.90003983333333, "is_disabled": 0, "lon": -77.00184033333333, "is_reserved": 0}, {"bike_id": "f179a4d6fec9ee4e3c9f070ab8054dc1", "fusion_lon": 0.0, "type": "electric_scooter", "name": "f179a4d6fec9ee4e3c9f070ab8054dc1", "rental_uris": {"android": "https://dc.lft.to/lastmile_qr_scan", "ios": "https://dc.lft.to/lastmile_qr_scan"}, "fusion_lat": 0.0, "lat": 38.9171375, "is_disabled": 0, "lon": -77.03211366666666, "is_reserved": 0}, {"bike_id": "4dc61ee74e34a1167cc1e7a55c5bbec2", "fusion_lon": 0.0, "type": "electric_scooter", "name": "4dc61ee74e34a1167cc1e7a55c5bbec2", "rental_uris": {"android": "https://dc.lft.to/lastmile_qr_scan", "ios": "https://dc.lft.to/lastmile_qr_scan"}, "fusion_lat": 0.0, "lat": 38.91787633333333, "is_disabled": 0, "lon": -76.97329333333333, "is_reserved": 0}, {"bike_id": "eacddb19b66a4aeadac6eaf0512189f8", "fusion_lon": 0.0, "type": "electric_bike", "name": "eacddb19b66a4aeadac6eaf0512189f8", "rental_uris": {"android": "https://dc.lft.to/lastmile_qr_scan", "ios": "https://dc.lft.to/lastmile_qr_scan"}, "fusion_lat": 0.0, "lat": 39.099444, "is_disabled": 0, "lon": -77.18793, "is_reserved": 0}, {"bike_id": "4c4b83b861c5a407707b4d03685baee5", "fusion_lon": 0.0, "type": "electric_bike", "name": "4c4b83b861c5a407707b4d03685baee5", "rental_uris": {"android": "https://dc.lft.to/lastmile_qr_scan", "ios": "https://dc.lft.to/lastmile_qr_scan"}, "fusion_lat": 0.0, "lat": 38.85796583333333, "is_disabled": 0, "lon": -76.9874275, "is_reserved": 0}, {"bike_id": "b9c1cc72191d5e3f3f1b9a621c1ada81", "fusion_lon": 0.0, "type": "electric_scooter", "name": "b9c1cc72191d5e3f3f1b9a621c1ada81", "rental_uris": {"android": "https://dc.lft.to/lastmile_qr_scan", "ios": "https://dc.lft.to/lastmile_qr_scan"}, "fusion_lat": 0.0, "lat": 38.8922305, "is_disabled": 0, "lon": -77.02954716666666, "is_reserved": 0}, {"bike_id": "f0671fa5ecec654dad508322c2284662", "fusion_lon": 0.0, "type": "electric_bike", "name": "f0671fa5ecec654dad508322c2284662", "rental_uris": {"android": "https://dc.lft.to/lastmile_qr_scan", "ios": "https://dc.lft.to/lastmile_qr_scan"}, "fusion_lat": 0.0, "lat": 38.922103666666665, "is_disabled": 0, "lon": -76.987987, "is_reserved": 0}, {"bike_id": "a80e96550da84f1c82f83e9f408f0f69", "fusion_lon": 0.0, "type": "electric_scooter", "name": "a80e96550da84f1c82f83e9f408f0f69", "rental_uris": {"android": "https://dc.lft.to/lastmile_qr_scan", "ios": "https://dc.lft.to/lastmile_qr_scan"}, "fusion_lat": 0.0, "lat": 38.9103905, "is_disabled": 0, "lon": -77.03147733333333, "is_reserved": 0}, {"bike_id": "33c7c79a0c43337b3fedeadbee45c1bf", "fusion_lon": 0.0, "type": "electric_scooter", "name": "33c7c79a0c43337b3fedeadbee45c1bf", "rental_uris": {"android": "https://dc.lft.to/lastmile_qr_scan", "ios": "https://dc.lft.to/lastmile_qr_scan"}, "fusion_lat": 0.0, "lat": 38.919281166666664, "is_disabled": 0, "lon": -77.03178283333334, "is_reserved": 0}, {"bike_id": "da7fd5f691d7c567c39c8b45d7aabda4", "fusion_lon": 0.0, "type": "electric_scooter", "name": "da7fd5f691d7c567c39c8b45d7aabda4", "rental_uris": {"android": "https://dc.lft.to/lastmile_qr_scan", "ios": "https://dc.lft.to/lastmile_qr_scan"}, "fusion_lat": 0.0, "lat": 38.916426666666666, "is_disabled": 0, "lon": -77.0227745, "is_reserved": 0}, {"bike_id": "02706299388d0e4e141b0346877b30cb", "fusion_lon": 0.0, "type": "electric_scooter", "name": "02706299388d0e4e141b0346877b30cb", "rental_uris": {"android": "https://dc.lft.to/lastmile_qr_scan", "ios": "https://dc.lft.to/lastmile_qr_scan"}, "fusion_lat": 0.0, "lat": 38.84427316666667, "is_disabled": 0, "lon": -76.998283, "is_reserved": 0}, {"bike_id": "0c6062cf2865943dbfa56571109951cb", "fusion_lon": 0.0, "type": "electric_scooter", "name": "0c6062cf2865943dbfa56571109951cb", "rental_uris": {"android": "https://dc.lft.to/lastmile_qr_scan", "ios": "https://dc.lft.to/lastmile_qr_scan"}, "fusion_lat": 0.0, "lat": 38.931130333333336, "is_disabled": 0, "lon": -77.03812533333333, "is_reserved": 0}, {"bike_id": "ea702852c62728e0f52234318f1dce57", "fusion_lon": 0.0, "type": "electric_scooter", "name": "ea702852c62728e0f52234318f1dce57", "rental_uris": {"android": "https://dc.lft.to/lastmile_qr_scan", "ios": "https://dc.lft.to/lastmile_qr_scan"}, "fusion_lat": 0.0, "lat": 38.973713833333335, "is_disabled": 0, "lon": -77.01861783333334, "is_reserved": 0}, {"bike_id": "62e56c82242031db8dee1a7b0aef21ed", "fusion_lon": 0.0, "type": "electric_scooter", "name": "62e56c82242031db8dee1a7b0aef21ed", "rental_uris": {"android": "https://dc.lft.to/lastmile_qr_scan", "ios": "https://dc.lft.to/lastmile_qr_scan"}, "fusion_lat": 0.0, "lat": 38.9559215, "is_disabled": 0, "lon": -77.0364945, "is_reserved": 0}, {"bike_id": "8d1b656f816400cf06b52d265b2c3f73", "fusion_lon": 0.0, "type": "electric_bike", "name": "8d1b656f816400cf06b52d265b2c3f73", "rental_uris": {"android": "https://dc.lft.to/lastmile_qr_scan", "ios": "https://dc.lft.to/lastmile_qr_scan"}, "fusion_lat": 0.0, "lat": 38.9512245, "is_disabled": 0, "lon": -76.9654655, "is_reserved": 0}, {"bike_id": "c6fd760ad2b2b76f266f21ecaa010204", "fusion_lon": 0.0, "type": "electric_bike", "name": "c6fd760ad2b2b76f266f21ecaa010204", "rental_uris": {"android": "https://dc.lft.to/lastmile_qr_scan", "ios": "https://dc.lft.to/lastmile_qr_scan"}, "fusion_lat": 0.0, "lat": 39.058171333333334, "is_disabled": 0, "lon": -77.12625, "is_reserved": 0}, {"bike_id": "c796401c8cf43e3d70a5c48cd0372cb6", "fusion_lon": 0.0, "type": "electric_scooter", "name": "c796401c8cf43e3d70a5c48cd0372cb6", "rental_uris": {"android": "https://dc.lft.to/lastmile_qr_scan", "ios": "https://dc.lft.to/lastmile_qr_scan"}, "fusion_lat": 0.0, "lat": 38.906559666666666, "is_disabled": 0, "lon": -77.0531305, "is_reserved": 0}, {"bike_id": "b7a20ef3d2f9f701fec3d257431c95e8", "fusion_lon": 0.0, "type": "electric_scooter", "name": "b7a20ef3d2f9f701fec3d257431c95e8", "rental_uris": {"android": "https://dc.lft.to/lastmile_qr_scan", "ios": "https://dc.lft.to/lastmile_qr_scan"}, "fusion_lat": 0.0, "lat": 38.9038245, "is_disabled": 0, "lon": -77.0403685, "is_reserved": 0}, {"bike_id": "35780cb43d42e9ddba7eb8e704cca03e", "fusion_lon": 0.0, "type": "electric_bike", "name": "35780cb43d42e9ddba7eb8e704cca03e", "rental_uris": {"android": "https://dc.lft.to/lastmile_qr_scan", "ios": "https://dc.lft.to/lastmile_qr_scan"}, "fusion_lat": 0.0, "lat": 38.911887666666665, "is_disabled": 0, "lon": -77.00278066666667, "is_reserved": 0}, {"bike_id": "a00f85cf3c79e0aedb439607e98d0bd3", "fusion_lon": 0.0, "type": "electric_scooter", "name": "a00f85cf3c79e0aedb439607e98d0bd3", "rental_uris": {"android": "https://dc.lft.to/lastmile_qr_scan", "ios": "https://dc.lft.to/lastmile_qr_scan"}, "fusion_lat": 0.0, "lat": 38.919934, "is_disabled": 0, "lon": -77.03964816666667, "is_reserved": 0}, {"bike_id": "002d0841baf5552cb3c20968a03b3798", "fusion_lon": 0.0, "type": "electric_scooter", "name": "002d0841baf5552cb3c20968a03b3798", "rental_uris": {"android": "https://dc.lft.to/lastmile_qr_scan", "ios": "https://dc.lft.to/lastmile_qr_scan"}, "fusion_lat": 0.0, "lat": 38.915433666666665, "is_disabled": 0, "lon": -77.01221466666667, "is_reserved": 0}, {"bike_id": "398a1226800cd699aaa5adf9b06d318e", "fusion_lon": 0.0, "type": "electric_scooter", "name": "398a1226800cd699aaa5adf9b06d318e", "rental_uris": {"android": "https://dc.lft.to/lastmile_qr_scan", "ios": "https://dc.lft.to/lastmile_qr_scan"}, "fusion_lat": 0.0, "lat": 38.900318666666664, "is_disabled": 0, "lon": -76.98776766666667, "is_reserved": 0}, {"bike_id": "b4bd464a43ce780d9aab944def2e0210", "fusion_lon": 0.0, "type": "electric_scooter", "name": "b4bd464a43ce780d9aab944def2e0210", "rental_uris": {"android": "https://dc.lft.to/lastmile_qr_scan", "ios": "https://dc.lft.to/lastmile_qr_scan"}, "fusion_lat": 0.0, "lat": 38.912596, "is_disabled": 0, "lon": -77.0496525, "is_reserved": 0}, {"bike_id": "e2255507ad464a05c23b292c00314e76", "fusion_lon": 0.0, "type": "electric_bike", "name": "e2255507ad464a05c23b292c00314e76", "rental_uris": {"android": "https://dc.lft.to/lastmile_qr_scan", "ios": "https://dc.lft.to/lastmile_qr_scan"}, "fusion_lat": 0.0, "lat": 38.8880165, "is_disabled": 0, "lon": -76.92998133333333, "is_reserved": 0}, {"bike_id": "c243a03a45073af359652efebefba9ff", "fusion_lon": 0.0, "type": "electric_scooter", "name": "c243a03a45073af359652efebefba9ff", "rental_uris": {"android": "https://dc.lft.to/lastmile_qr_scan", "ios": "https://dc.lft.to/lastmile_qr_scan"}, "fusion_lat": 0.0, "lat": 38.915521166666664, "is_disabled": 0, "lon": -77.02636983333333, "is_reserved": 0}, {"bike_id": "f12afb60db08e33113410d7c72e11ef4", "fusion_lon": 0.0, "type": "electric_scooter", "name": "f12afb60db08e33113410d7c72e11ef4", "rental_uris": {"android": "https://dc.lft.to/lastmile_qr_scan", "ios": "https://dc.lft.to/lastmile_qr_scan"}, "fusion_lat": 0.0, "lat": 38.864075166666666, "is_disabled": 0, "lon": -76.990272, "is_reserved": 0}, {"bike_id": "43a0bac0bdc83a7429bc7f58de796a16", "fusion_lon": 0.0, "type": "electric_scooter", "name": "43a0bac0bdc83a7429bc7f58de796a16", "rental_uris": {"android": "https://dc.lft.to/lastmile_qr_scan", "ios": "https://dc.lft.to/lastmile_qr_scan"}, "fusion_lat": 0.0, "lat": 38.94871916666666, "is_disabled": 0, "lon": -77.07934883333333, "is_reserved": 0}, {"bike_id": "5eb1125e52e6f743bc20a6cd784964cb", "fusion_lon": 0.0, "type": "electric_bike", "name": "5eb1125e52e6f743bc20a6cd784964cb", "rental_uris": {"android": "https://dc.lft.to/lastmile_qr_scan", "ios": "https://dc.lft.to/lastmile_qr_scan"}, "fusion_lat": 0.0, "lat": 38.94286483333333, "is_disabled": 0, "lon": -77.0692615, "is_reserved": 0}, {"bike_id": "0819acdbf1d7e9fcd717bd94d1993b1c", "fusion_lon": 0.0, "type": "electric_scooter", "name": "0819acdbf1d7e9fcd717bd94d1993b1c", "rental_uris": {"android": "https://dc.lft.to/lastmile_qr_scan", "ios": "https://dc.lft.to/lastmile_qr_scan"}, "fusion_lat": 0.0, "lat": 38.87587033333333, "is_disabled": 0, "lon": -77.01392466666667, "is_reserved": 0}, {"bike_id": "687cda1c441d9eb388885e3a58244ddd", "fusion_lon": 0.0, "type": "electric_scooter", "name": "687cda1c441d9eb388885e3a58244ddd", "rental_uris": {"android": "https://dc.lft.to/lastmile_qr_scan", "ios": "https://dc.lft.to/lastmile_qr_scan"}, "fusion_lat": 0.0, "lat": 38.94464116666666, "is_disabled": 0, "lon": -77.0280975, "is_reserved": 0}, {"bike_id": "a9fbef2d2062ba7c3d8944e3025a749a", "fusion_lon": 0.0, "type": "electric_scooter", "name": "a9fbef2d2062ba7c3d8944e3025a749a", "rental_uris": {"android": "https://dc.lft.to/lastmile_qr_scan", "ios": "https://dc.lft.to/lastmile_qr_scan"}, "fusion_lat": 0.0, "lat": 38.918399, "is_disabled": 0, "lon": -77.03923, "is_reserved": 0}, {"bike_id": "4d0e499f70abd56310e2fb0533056b04", "fusion_lon": 0.0, "type": "electric_scooter", "name": "4d0e499f70abd56310e2fb0533056b04", "rental_uris": {"android": "https://dc.lft.to/lastmile_qr_scan", "ios": "https://dc.lft.to/lastmile_qr_scan"}, "fusion_lat": 0.0, "lat": 38.894377166666665, "is_disabled": 0, "lon": -77.00117, "is_reserved": 0}, {"bike_id": "7717dee344ca500772c1079b6a5749aa", "fusion_lon": 0.0, "type": "electric_scooter", "name": "7717dee344ca500772c1079b6a5749aa", "rental_uris": {"android": "https://dc.lft.to/lastmile_qr_scan", "ios": "https://dc.lft.to/lastmile_qr_scan"}, "fusion_lat": 0.0, "lat": 38.892234, "is_disabled": 0, "lon": -77.02720083333334, "is_reserved": 0}, {"bike_id": "e7fbc7c439b05c2d7ddcd68ee7eb48c8", "fusion_lon": 0.0, "type": "electric_scooter", "name": "e7fbc7c439b05c2d7ddcd68ee7eb48c8", "rental_uris": {"android": "https://dc.lft.to/lastmile_qr_scan", "ios": "https://dc.lft.to/lastmile_qr_scan"}, "fusion_lat": 0.0, "lat": 38.892337166666664, "is_disabled": 0, "lon": -77.04998783333333, "is_reserved": 0}, {"bike_id": "191a16342200afd101b6fb6f7154ccf7", "fusion_lon": 0.0, "type": "electric_scooter", "name": "191a16342200afd101b6fb6f7154ccf7", "rental_uris": {"android": "https://dc.lft.to/lastmile_qr_scan", "ios": "https://dc.lft.to/lastmile_qr_scan"}, "fusion_lat": 0.0, "lat": 38.9026405, "is_disabled": 0, "lon": -77.026022, "is_reserved": 0}, {"bike_id": "36680dc928b957e55263d5706b7cf2e8", "fusion_lon": 0.0, "type": "electric_scooter", "name": "36680dc928b957e55263d5706b7cf2e8", "rental_uris": {"android": "https://dc.lft.to/lastmile_qr_scan", "ios": "https://dc.lft.to/lastmile_qr_scan"}, "fusion_lat": 0.0, "lat": 38.924687, "is_disabled": 0, "lon": -77.028366, "is_reserved": 0}, {"bike_id": "dcd01d4956297ef186dafb535e83fedf", "fusion_lon": 0.0, "type": "electric_scooter", "name": "dcd01d4956297ef186dafb535e83fedf", "rental_uris": {"android": "https://dc.lft.to/lastmile_qr_scan", "ios": "https://dc.lft.to/lastmile_qr_scan"}, "fusion_lat": 0.0, "lat": 38.93557833333333, "is_disabled": 0, "lon": -77.08212466666667, "is_reserved": 0}, {"bike_id": "d73fcf2e3fa33edf45ade5ccdc9b8662", "fusion_lon": 0.0, "type": "electric_bike", "name": "d73fcf2e3fa33edf45ade5ccdc9b8662", "rental_uris": {"android": "https://dc.lft.to/lastmile_qr_scan", "ios": "https://dc.lft.to/lastmile_qr_scan"}, "fusion_lat": 0.0, "lat": 38.868927, "is_disabled": 0, "lon": -76.9855965, "is_reserved": 0}, {"bike_id": "8cac0795b95d92826809a2950e054282", "fusion_lon": 0.0, "type": "electric_scooter", "name": "8cac0795b95d92826809a2950e054282", "rental_uris": {"android": "https://dc.lft.to/lastmile_qr_scan", "ios": "https://dc.lft.to/lastmile_qr_scan"}, "fusion_lat": 0.0, "lat": 38.911105, "is_disabled": 0, "lon": -77.0422715, "is_reserved": 0}, {"bike_id": "acc02d68fc34cd81a7d89f91e8663e0b", "fusion_lon": 0.0, "type": "electric_scooter", "name": "acc02d68fc34cd81a7d89f91e8663e0b", "rental_uris": {"android": "https://dc.lft.to/lastmile_qr_scan", "ios": "https://dc.lft.to/lastmile_qr_scan"}, "fusion_lat": 0.0, "lat": 38.91127066666667, "is_disabled": 0, "lon": -77.02192666666667, "is_reserved": 0}, {"bike_id": "46e17c39aec027b6681fb37bf48178c8", "fusion_lon": 0.0, "type": "electric_scooter", "name": "46e17c39aec027b6681fb37bf48178c8", "rental_uris": {"android": "https://dc.lft.to/lastmile_qr_scan", "ios": "https://dc.lft.to/lastmile_qr_scan"}, "fusion_lat": 0.0, "lat": 38.91695266666667, "is_disabled": 0, "lon": -77.02199683333333, "is_reserved": 0}, {"bike_id": "0922f89570752a8faa9f35aebb450024", "fusion_lon": 0.0, "type": "electric_scooter", "name": "0922f89570752a8faa9f35aebb450024", "rental_uris": {"android": "https://dc.lft.to/lastmile_qr_scan", "ios": "https://dc.lft.to/lastmile_qr_scan"}, "fusion_lat": 0.0, "lat": 38.89388433333333, "is_disabled": 0, "lon": -77.0318575, "is_reserved": 0}, {"bike_id": "3875f239786fa6e8c546e834f9100839", "fusion_lon": 0.0, "type": "electric_scooter", "name": "3875f239786fa6e8c546e834f9100839", "rental_uris": {"android": "https://dc.lft.to/lastmile_qr_scan", "ios": "https://dc.lft.to/lastmile_qr_scan"}, "fusion_lat": 0.0, "lat": 38.90408433333333, "is_disabled": 0, "lon": -76.99064666666666, "is_reserved": 0}, {"bike_id": "d86061f8ddbab9a73d91bcae4b209fe0", "fusion_lon": 0.0, "type": "electric_scooter", "name": "d86061f8ddbab9a73d91bcae4b209fe0", "rental_uris": {"android": "https://dc.lft.to/lastmile_qr_scan", "ios": "https://dc.lft.to/lastmile_qr_scan"}, "fusion_lat": 0.0, "lat": 38.920102166666666, "is_disabled": 0, "lon": -77.02472283333333, "is_reserved": 0}, {"bike_id": "f704639e74755211deee4307b65fd166", "fusion_lon": 0.0, "type": "electric_bike", "name": "f704639e74755211deee4307b65fd166", "rental_uris": {"android": "https://dc.lft.to/lastmile_qr_scan", "ios": "https://dc.lft.to/lastmile_qr_scan"}, "fusion_lat": 0.0, "lat": 38.89477383333333, "is_disabled": 0, "lon": -77.00380416666667, "is_reserved": 0}, {"bike_id": "cf9187fa2c8505fcbde4d2984979afa5", "fusion_lon": 0.0, "type": "electric_scooter", "name": "cf9187fa2c8505fcbde4d2984979afa5", "rental_uris": {"android": "https://dc.lft.to/lastmile_qr_scan", "ios": "https://dc.lft.to/lastmile_qr_scan"}, "fusion_lat": 0.0, "lat": 38.89055833333333, "is_disabled": 0, "lon": -76.955208, "is_reserved": 0}, {"bike_id": "4949cd0f3083452946faab88a4b5bd3b", "fusion_lon": 0.0, "type": "electric_scooter", "name": "4949cd0f3083452946faab88a4b5bd3b", "rental_uris": {"android": "https://dc.lft.to/lastmile_qr_scan", "ios": "https://dc.lft.to/lastmile_qr_scan"}, "fusion_lat": 0.0, "lat": 38.9307055, "is_disabled": 0, "lon": -77.03261866666666, "is_reserved": 0}, {"bike_id": "fdf824bc7a69993f903a5e6688cf6df7", "fusion_lon": 0.0, "type": "electric_scooter", "name": "fdf824bc7a69993f903a5e6688cf6df7", "rental_uris": {"android": "https://dc.lft.to/lastmile_qr_scan", "ios": "https://dc.lft.to/lastmile_qr_scan"}, "fusion_lat": 0.0, "lat": 38.891984, "is_disabled": 0, "lon": -76.9812375, "is_reserved": 0}, {"bike_id": "4400e699360a1161f7dc13e1a7920e7d", "fusion_lon": 0.0, "type": "electric_scooter", "name": "4400e699360a1161f7dc13e1a7920e7d", "rental_uris": {"android": "https://dc.lft.to/lastmile_qr_scan", "ios": "https://dc.lft.to/lastmile_qr_scan"}, "fusion_lat": 0.0, "lat": 38.92165116666666, "is_disabled": 0, "lon": -77.03365466666666, "is_reserved": 0}, {"bike_id": "2979120898b4fafd68127dc5cf0f7200", "fusion_lon": 0.0, "type": "electric_scooter", "name": "2979120898b4fafd68127dc5cf0f7200", "rental_uris": {"android": "https://dc.lft.to/lastmile_qr_scan", "ios": "https://dc.lft.to/lastmile_qr_scan"}, "fusion_lat": 0.0, "lat": 38.93796416666667, "is_disabled": 0, "lon": -77.0327935, "is_reserved": 0}, {"bike_id": "debde7212ee66673d8b3e6922dfacf4a", "fusion_lon": 0.0, "type": "electric_scooter", "name": "debde7212ee66673d8b3e6922dfacf4a", "rental_uris": {"android": "https://dc.lft.to/lastmile_qr_scan", "ios": "https://dc.lft.to/lastmile_qr_scan"}, "fusion_lat": 0.0, "lat": 38.913401666666665, "is_disabled": 0, "lon": -77.01825383333333, "is_reserved": 0}, {"bike_id": "35a789be59fa15763a6ea43fb63a6e4c", "fusion_lon": 0.0, "type": "electric_bike", "name": "35a789be59fa15763a6ea43fb63a6e4c", "rental_uris": {"android": "https://dc.lft.to/lastmile_qr_scan", "ios": "https://dc.lft.to/lastmile_qr_scan"}, "fusion_lat": 0.0, "lat": 38.9562755, "is_disabled": 0, "lon": -76.93887316666667, "is_reserved": 0}, {"bike_id": "0fffbd515a6f8504c3b2f0403407fb8b", "fusion_lon": 0.0, "type": "electric_scooter", "name": "0fffbd515a6f8504c3b2f0403407fb8b", "rental_uris": {"android": "https://dc.lft.to/lastmile_qr_scan", "ios": "https://dc.lft.to/lastmile_qr_scan"}, "fusion_lat": 0.0, "lat": 38.9045185, "is_disabled": 0, "lon": -77.03137666666667, "is_reserved": 0}, {"bike_id": "83fc532c6a7e6b9c1df21ac80f557723", "fusion_lon": 0.0, "type": "electric_scooter", "name": "83fc532c6a7e6b9c1df21ac80f557723", "rental_uris": {"android": "https://dc.lft.to/lastmile_qr_scan", "ios": "https://dc.lft.to/lastmile_qr_scan"}, "fusion_lat": 0.0, "lat": 38.90626566666667, "is_disabled": 0, "lon": -77.07660733333333, "is_reserved": 0}, {"bike_id": "48cb016403a44e9a7560cb5aea892370", "fusion_lon": 0.0, "type": "electric_bike", "name": "48cb016403a44e9a7560cb5aea892370", "rental_uris": {"android": "https://dc.lft.to/lastmile_qr_scan", "ios": "https://dc.lft.to/lastmile_qr_scan"}, "fusion_lat": 0.0, "lat": 38.925095166666665, "is_disabled": 0, "lon": -76.98230116666667, "is_reserved": 0}, {"bike_id": "f2c518b489044d8bb13ccd5b9082ecce", "fusion_lon": 0.0, "type": "electric_scooter", "name": "f2c518b489044d8bb13ccd5b9082ecce", "rental_uris": {"android": "https://dc.lft.to/lastmile_qr_scan", "ios": "https://dc.lft.to/lastmile_qr_scan"}, "fusion_lat": 0.0, "lat": 38.89940266666667, "is_disabled": 0, "lon": -77.05512716666667, "is_reserved": 0}, {"bike_id": "3eb29db8c7007b0fde643269d2d4c5da", "fusion_lon": 0.0, "type": "electric_scooter", "name": "3eb29db8c7007b0fde643269d2d4c5da", "rental_uris": {"android": "https://dc.lft.to/lastmile_qr_scan", "ios": "https://dc.lft.to/lastmile_qr_scan"}, "fusion_lat": 0.0, "lat": 38.900427, "is_disabled": 0, "lon": -76.98174633333333, "is_reserved": 0}, {"bike_id": "8f06f0843499ed83e3d36721767ce8ed", "fusion_lon": 0.0, "type": "electric_scooter", "name": "8f06f0843499ed83e3d36721767ce8ed", "rental_uris": {"android": "https://dc.lft.to/lastmile_qr_scan", "ios": "https://dc.lft.to/lastmile_qr_scan"}, "fusion_lat": 0.0, "lat": 38.900359333333334, "is_disabled": 0, "lon": -76.987764, "is_reserved": 0}, {"bike_id": "2a312afd6ab7268abc7fe1aa2850f428", "fusion_lon": 0.0, "type": "electric_scooter", "name": "2a312afd6ab7268abc7fe1aa2850f428", "rental_uris": {"android": "https://dc.lft.to/lastmile_qr_scan", "ios": "https://dc.lft.to/lastmile_qr_scan"}, "fusion_lat": 0.0, "lat": 38.90016966666666, "is_disabled": 0, "lon": -76.97745566666667, "is_reserved": 0}, {"bike_id": "b464cba7cad43c31554c030a40165f91", "fusion_lon": 0.0, "type": "electric_bike", "name": "b464cba7cad43c31554c030a40165f91", "rental_uris": {"android": "https://dc.lft.to/lastmile_qr_scan", "ios": "https://dc.lft.to/lastmile_qr_scan"}, "fusion_lat": 0.0, "lat": 38.88962016666667, "is_disabled": 0, "lon": -76.94874966666667, "is_reserved": 0}, {"bike_id": "729de05a2de312a7f47138319ad3f3d5", "fusion_lon": 0.0, "type": "electric_scooter", "name": "729de05a2de312a7f47138319ad3f3d5", "rental_uris": {"android": "https://dc.lft.to/lastmile_qr_scan", "ios": "https://dc.lft.to/lastmile_qr_scan"}, "fusion_lat": 0.0, "lat": 38.89937616666667, "is_disabled": 0, "lon": -77.02028016666667, "is_reserved": 0}, {"bike_id": "e8c7fea32fb754bc8d36148292462765", "fusion_lon": 0.0, "type": "electric_bike", "name": "e8c7fea32fb754bc8d36148292462765", "rental_uris": {"android": "https://dc.lft.to/lastmile_qr_scan", "ios": "https://dc.lft.to/lastmile_qr_scan"}, "fusion_lat": 0.0, "lat": 38.992301, "is_disabled": 0, "lon": -76.87819383333333, "is_reserved": 0}, {"bike_id": "f97814abcfe81fcd33add9137b30a14c", "fusion_lon": 0.0, "type": "electric_scooter", "name": "f97814abcfe81fcd33add9137b30a14c", "rental_uris": {"android": "https://dc.lft.to/lastmile_qr_scan", "ios": "https://dc.lft.to/lastmile_qr_scan"}, "fusion_lat": 0.0, "lat": 38.926363, "is_disabled": 0, "lon": -77.03787033333333, "is_reserved": 0}, {"bike_id": "d445de93e7310e41903e0ccdebd3060c", "fusion_lon": 0.0, "type": "electric_bike", "name": "d445de93e7310e41903e0ccdebd3060c", "rental_uris": {"android": "https://dc.lft.to/lastmile_qr_scan", "ios": "https://dc.lft.to/lastmile_qr_scan"}, "fusion_lat": 0.0, "lat": 38.85546566666667, "is_disabled": 0, "lon": -77.10719283333333, "is_reserved": 0}, {"bike_id": "f93de8735a9c49b3ecd1977c0debef40", "fusion_lon": 0.0, "type": "electric_scooter", "name": "f93de8735a9c49b3ecd1977c0debef40", "rental_uris": {"android": "https://dc.lft.to/lastmile_qr_scan", "ios": "https://dc.lft.to/lastmile_qr_scan"}, "fusion_lat": 0.0, "lat": 38.906842166666664, "is_disabled": 0, "lon": -77.03621816666667, "is_reserved": 0}, {"bike_id": "d7266782c4be95c40d11f17db6aed712", "fusion_lon": 0.0, "type": "electric_scooter", "name": "d7266782c4be95c40d11f17db6aed712", "rental_uris": {"android": "https://dc.lft.to/lastmile_qr_scan", "ios": "https://dc.lft.to/lastmile_qr_scan"}, "fusion_lat": 0.0, "lat": 38.938647333333336, "is_disabled": 0, "lon": -77.02490233333333, "is_reserved": 0}, {"bike_id": "2c44caff437b79e8c604e52820b021b2", "fusion_lon": 0.0, "type": "electric_scooter", "name": "2c44caff437b79e8c604e52820b021b2", "rental_uris": {"android": "https://dc.lft.to/lastmile_qr_scan", "ios": "https://dc.lft.to/lastmile_qr_scan"}, "fusion_lat": 0.0, "lat": 38.891977, "is_disabled": 0, "lon": -77.01547983333333, "is_reserved": 0}, {"bike_id": "8fbed422dcf7ee7251ea13e5cd86b4c3", "fusion_lon": 0.0, "type": "electric_bike", "name": "8fbed422dcf7ee7251ea13e5cd86b4c3", "rental_uris": {"android": "https://dc.lft.to/lastmile_qr_scan", "ios": "https://dc.lft.to/lastmile_qr_scan"}, "fusion_lat": 0.0, "lat": 38.86626716666667, "is_disabled": 0, "lon": -76.94571116666667, "is_reserved": 0}, {"bike_id": "b6f9c16cd6b79468851a0c406ec11385", "fusion_lon": 0.0, "type": "electric_scooter", "name": "b6f9c16cd6b79468851a0c406ec11385", "rental_uris": {"android": "https://dc.lft.to/lastmile_qr_scan", "ios": "https://dc.lft.to/lastmile_qr_scan"}, "fusion_lat": 0.0, "lat": 38.897065166666664, "is_disabled": 0, "lon": -77.02292133333333, "is_reserved": 0}, {"bike_id": "7aec37ba49dc6721471b6680d94a2b67", "fusion_lon": 0.0, "type": "electric_scooter", "name": "7aec37ba49dc6721471b6680d94a2b67", "rental_uris": {"android": "https://dc.lft.to/lastmile_qr_scan", "ios": "https://dc.lft.to/lastmile_qr_scan"}, "fusion_lat": 0.0, "lat": 38.892269666666664, "is_disabled": 0, "lon": -77.0322575, "is_reserved": 0}, {"bike_id": "174c24b66c0000ff63690796a9790eca", "fusion_lon": 0.0, "type": "electric_scooter", "name": "174c24b66c0000ff63690796a9790eca", "rental_uris": {"android": "https://dc.lft.to/lastmile_qr_scan", "ios": "https://dc.lft.to/lastmile_qr_scan"}, "fusion_lat": 0.0, "lat": 38.941698333333335, "is_disabled": 0, "lon": -77.0619075, "is_reserved": 0}, {"bike_id": "523b8a0e7c883a4e552eba8cbf7e43e0", "fusion_lon": 0.0, "type": "electric_scooter", "name": "523b8a0e7c883a4e552eba8cbf7e43e0", "rental_uris": {"android": "https://dc.lft.to/lastmile_qr_scan", "ios": "https://dc.lft.to/lastmile_qr_scan"}, "fusion_lat": 0.0, "lat": 38.946478666666664, "is_disabled": 0, "lon": -77.03034766666667, "is_reserved": 0}, {"bike_id": "9090fa2e0215399fe765cbc556c31de6", "fusion_lon": 0.0, "type": "electric_scooter", "name": "9090fa2e0215399fe765cbc556c31de6", "rental_uris": {"android": "https://dc.lft.to/lastmile_qr_scan", "ios": "https://dc.lft.to/lastmile_qr_scan"}, "fusion_lat": 0.0, "lat": 38.919927666666666, "is_disabled": 0, "lon": -76.97303466666666, "is_reserved": 0}, {"bike_id": "29e56a521a704e1b70103ab8bcab8aa4", "fusion_lon": 0.0, "type": "electric_scooter", "name": "29e56a521a704e1b70103ab8bcab8aa4", "rental_uris": {"android": "https://dc.lft.to/lastmile_qr_scan", "ios": "https://dc.lft.to/lastmile_qr_scan"}, "fusion_lat": 0.0, "lat": 38.899142, "is_disabled": 0, "lon": -76.933471, "is_reserved": 0}, {"bike_id": "7276b646dfe6a2b2b37977a4764e07cf", "fusion_lon": 0.0, "type": "electric_scooter", "name": "7276b646dfe6a2b2b37977a4764e07cf", "rental_uris": {"android": "https://dc.lft.to/lastmile_qr_scan", "ios": "https://dc.lft.to/lastmile_qr_scan"}, "fusion_lat": 0.0, "lat": 38.93597183333333, "is_disabled": 0, "lon": -77.03503383333333, "is_reserved": 0}, {"bike_id": "2e6246215fb280b71e663636bf1f203c", "fusion_lon": 0.0, "type": "electric_scooter", "name": "2e6246215fb280b71e663636bf1f203c", "rental_uris": {"android": "https://dc.lft.to/lastmile_qr_scan", "ios": "https://dc.lft.to/lastmile_qr_scan"}, "fusion_lat": 0.0, "lat": 38.93289266666667, "is_disabled": 0, "lon": -77.036285, "is_reserved": 0}, {"bike_id": "0b74360dd7726cb272e63a4cc846616a", "fusion_lon": 0.0, "type": "electric_scooter", "name": "0b74360dd7726cb272e63a4cc846616a", "rental_uris": {"android": "https://dc.lft.to/lastmile_qr_scan", "ios": "https://dc.lft.to/lastmile_qr_scan"}, "fusion_lat": 0.0, "lat": 38.941063166666666, "is_disabled": 0, "lon": -77.02550433333333, "is_reserved": 0}, {"bike_id": "bf2001714c41574473e39d56edb6fbb5", "fusion_lon": 0.0, "type": "electric_scooter", "name": "bf2001714c41574473e39d56edb6fbb5", "rental_uris": {"android": "https://dc.lft.to/lastmile_qr_scan", "ios": "https://dc.lft.to/lastmile_qr_scan"}, "fusion_lat": 0.0, "lat": 38.915527833333336, "is_disabled": 0, "lon": -77.02328816666666, "is_reserved": 0}, {"bike_id": "8d9986adc0d68b7b2452451075f55069", "fusion_lon": 0.0, "type": "electric_scooter", "name": "8d9986adc0d68b7b2452451075f55069", "rental_uris": {"android": "https://dc.lft.to/lastmile_qr_scan", "ios": "https://dc.lft.to/lastmile_qr_scan"}, "fusion_lat": 0.0, "lat": 38.88512933333333, "is_disabled": 0, "lon": -77.03346783333333, "is_reserved": 0}, {"bike_id": "7190d0f534a82581255ee8d450792697", "fusion_lon": 0.0, "type": "electric_bike", "name": "7190d0f534a82581255ee8d450792697", "rental_uris": {"android": "https://dc.lft.to/lastmile_qr_scan", "ios": "https://dc.lft.to/lastmile_qr_scan"}, "fusion_lat": 0.0, "lat": 38.856238166666664, "is_disabled": 0, "lon": -77.08545416666666, "is_reserved": 0}, {"bike_id": "d4c7f965174907a9f9024ec0da37c234", "fusion_lon": 0.0, "type": "electric_scooter", "name": "d4c7f965174907a9f9024ec0da37c234", "rental_uris": {"android": "https://dc.lft.to/lastmile_qr_scan", "ios": "https://dc.lft.to/lastmile_qr_scan"}, "fusion_lat": 0.0, "lat": 38.892322, "is_disabled": 0, "lon": -77.05002066666667, "is_reserved": 0}, {"bike_id": "f46c66a3cbc7b6b17c3b8c154a6ac602", "fusion_lon": 0.0, "type": "electric_bike", "name": "f46c66a3cbc7b6b17c3b8c154a6ac602", "rental_uris": {"android": "https://dc.lft.to/lastmile_qr_scan", "ios": "https://dc.lft.to/lastmile_qr_scan"}, "fusion_lat": 0.0, "lat": 38.962233166666664, "is_disabled": 0, "lon": -77.0262915, "is_reserved": 0}, {"bike_id": "81cd9ee9f4f8c0b178e577c3dc080944", "fusion_lon": 0.0, "type": "electric_scooter", "name": "81cd9ee9f4f8c0b178e577c3dc080944", "rental_uris": {"android": "https://dc.lft.to/lastmile_qr_scan", "ios": "https://dc.lft.to/lastmile_qr_scan"}, "fusion_lat": 0.0, "lat": 38.950699166666666, "is_disabled": 0, "lon": -77.06538316666666, "is_reserved": 0}, {"bike_id": "bed5f631c9646e03249959ecccaa9280", "fusion_lon": 0.0, "type": "electric_scooter", "name": "bed5f631c9646e03249959ecccaa9280", "rental_uris": {"android": "https://dc.lft.to/lastmile_qr_scan", "ios": "https://dc.lft.to/lastmile_qr_scan"}, "fusion_lat": 0.0, "lat": 38.866790333333334, "is_disabled": 0, "lon": -76.98881066666667, "is_reserved": 0}, {"bike_id": "cdf3717c7e73a875718b8d96850f12c4", "fusion_lon": 0.0, "type": "electric_bike", "name": "cdf3717c7e73a875718b8d96850f12c4", "rental_uris": {"android": "https://dc.lft.to/lastmile_qr_scan", "ios": "https://dc.lft.to/lastmile_qr_scan"}, "fusion_lat": 0.0, "lat": 39.089042666666664, "is_disabled": 0, "lon": -77.17851833333333, "is_reserved": 0}, {"bike_id": "b83826c345a0846e2b2b5e7fdc0e318d", "fusion_lon": 0.0, "type": "electric_scooter", "name": "b83826c345a0846e2b2b5e7fdc0e318d", "rental_uris": {"android": "https://dc.lft.to/lastmile_qr_scan", "ios": "https://dc.lft.to/lastmile_qr_scan"}, "fusion_lat": 0.0, "lat": 38.945764, "is_disabled": 0, "lon": -77.03458616666667, "is_reserved": 0}, {"bike_id": "04eda6fef297a13fec3752cd5ca8e10c", "fusion_lon": 0.0, "type": "electric_scooter", "name": "04eda6fef297a13fec3752cd5ca8e10c", "rental_uris": {"android": "https://dc.lft.to/lastmile_qr_scan", "ios": "https://dc.lft.to/lastmile_qr_scan"}, "fusion_lat": 0.0, "lat": 38.88608516666667, "is_disabled": 0, "lon": -76.994553, "is_reserved": 0}, {"bike_id": "fbae38d3ebdb2485db51593da64f9ff8", "fusion_lon": 0.0, "type": "electric_scooter", "name": "fbae38d3ebdb2485db51593da64f9ff8", "rental_uris": {"android": "https://dc.lft.to/lastmile_qr_scan", "ios": "https://dc.lft.to/lastmile_qr_scan"}, "fusion_lat": 0.0, "lat": 38.9168155, "is_disabled": 0, "lon": -77.02969183333333, "is_reserved": 0}, {"bike_id": "24f0d19b4cf5b71ed3c4dc9cbb9392dc", "fusion_lon": 0.0, "type": "electric_scooter", "name": "24f0d19b4cf5b71ed3c4dc9cbb9392dc", "rental_uris": {"android": "https://dc.lft.to/lastmile_qr_scan", "ios": "https://dc.lft.to/lastmile_qr_scan"}, "fusion_lat": 0.0, "lat": 38.922268, "is_disabled": 0, "lon": -77.04337016666666, "is_reserved": 0}, {"bike_id": "6353e4c69272f5f7ca5234f7123d7898", "fusion_lon": 0.0, "type": "electric_scooter", "name": "6353e4c69272f5f7ca5234f7123d7898", "rental_uris": {"android": "https://dc.lft.to/lastmile_qr_scan", "ios": "https://dc.lft.to/lastmile_qr_scan"}, "fusion_lat": 0.0, "lat": 38.938621499999996, "is_disabled": 0, "lon": -77.02651716666666, "is_reserved": 0}, {"bike_id": "b548d9daafee2fdbdeb6bad3e68df142", "fusion_lon": 0.0, "type": "electric_scooter", "name": "b548d9daafee2fdbdeb6bad3e68df142", "rental_uris": {"android": "https://dc.lft.to/lastmile_qr_scan", "ios": "https://dc.lft.to/lastmile_qr_scan"}, "fusion_lat": 0.0, "lat": 38.906431166666664, "is_disabled": 0, "lon": -77.03441233333334, "is_reserved": 0}, {"bike_id": "71171036f4783a8e35b597012f6cee8b", "fusion_lon": 0.0, "type": "electric_scooter", "name": "71171036f4783a8e35b597012f6cee8b", "rental_uris": {"android": "https://dc.lft.to/lastmile_qr_scan", "ios": "https://dc.lft.to/lastmile_qr_scan"}, "fusion_lat": 0.0, "lat": 38.9156675, "is_disabled": 0, "lon": -77.005914, "is_reserved": 0}, {"bike_id": "0cce6dd7f5ea77b0c08267d523f5daed", "fusion_lon": 0.0, "type": "electric_scooter", "name": "0cce6dd7f5ea77b0c08267d523f5daed", "rental_uris": {"android": "https://dc.lft.to/lastmile_qr_scan", "ios": "https://dc.lft.to/lastmile_qr_scan"}, "fusion_lat": 0.0, "lat": 38.962112, "is_disabled": 0, "lon": -77.02342733333333, "is_reserved": 0}, {"bike_id": "503e86cf74ea23bffcbf742557a97489", "fusion_lon": 0.0, "type": "electric_scooter", "name": "503e86cf74ea23bffcbf742557a97489", "rental_uris": {"android": "https://dc.lft.to/lastmile_qr_scan", "ios": "https://dc.lft.to/lastmile_qr_scan"}, "fusion_lat": 0.0, "lat": 38.90937816666667, "is_disabled": 0, "lon": -77.03856866666666, "is_reserved": 0}, {"bike_id": "64d4e8aa022994bbb9f2995c0898f7a0", "fusion_lon": 0.0, "type": "electric_bike", "name": "64d4e8aa022994bbb9f2995c0898f7a0", "rental_uris": {"android": "https://dc.lft.to/lastmile_qr_scan", "ios": "https://dc.lft.to/lastmile_qr_scan"}, "fusion_lat": 0.0, "lat": 39.024226666666664, "is_disabled": 0, "lon": -77.1250035, "is_reserved": 0}, {"bike_id": "c7e58302e1aaf70d3ed7e474e10c0744", "fusion_lon": 0.0, "type": "electric_scooter", "name": "c7e58302e1aaf70d3ed7e474e10c0744", "rental_uris": {"android": "https://dc.lft.to/lastmile_qr_scan", "ios": "https://dc.lft.to/lastmile_qr_scan"}, "fusion_lat": 0.0, "lat": 38.862459666666666, "is_disabled": 0, "lon": -76.99482416666666, "is_reserved": 0}, {"bike_id": "43f3cb91ff7c0e6fc67ba1cad0c81a41", "fusion_lon": 0.0, "type": "electric_scooter", "name": "43f3cb91ff7c0e6fc67ba1cad0c81a41", "rental_uris": {"android": "https://dc.lft.to/lastmile_qr_scan", "ios": "https://dc.lft.to/lastmile_qr_scan"}, "fusion_lat": 0.0, "lat": 38.91552983333333, "is_disabled": 0, "lon": -77.02632166666666, "is_reserved": 0}, {"bike_id": "d0fe9a4589a1280e3ae086c806e09033", "fusion_lon": 0.0, "type": "electric_scooter", "name": "d0fe9a4589a1280e3ae086c806e09033", "rental_uris": {"android": "https://dc.lft.to/lastmile_qr_scan", "ios": "https://dc.lft.to/lastmile_qr_scan"}, "fusion_lat": 0.0, "lat": 38.93290866666667, "is_disabled": 0, "lon": -77.0361875, "is_reserved": 0}, {"bike_id": "6ed6b005efc92a362169febd0be4ed2e", "fusion_lon": 0.0, "type": "electric_scooter", "name": "6ed6b005efc92a362169febd0be4ed2e", "rental_uris": {"android": "https://dc.lft.to/lastmile_qr_scan", "ios": "https://dc.lft.to/lastmile_qr_scan"}, "fusion_lat": 0.0, "lat": 38.930992, "is_disabled": 0, "lon": -77.02416966666667, "is_reserved": 0}, {"bike_id": "0c681bffcbf3f3a37bccd5b312a91d32", "fusion_lon": 0.0, "type": "electric_scooter", "name": "0c681bffcbf3f3a37bccd5b312a91d32", "rental_uris": {"android": "https://dc.lft.to/lastmile_qr_scan", "ios": "https://dc.lft.to/lastmile_qr_scan"}, "fusion_lat": 0.0, "lat": 38.919913, "is_disabled": 0, "lon": -77.07102866666666, "is_reserved": 0}, {"bike_id": "e486813640cdfd7b23e50bf82d11c0ce", "fusion_lon": 0.0, "type": "electric_scooter", "name": "e486813640cdfd7b23e50bf82d11c0ce", "rental_uris": {"android": "https://dc.lft.to/lastmile_qr_scan", "ios": "https://dc.lft.to/lastmile_qr_scan"}, "fusion_lat": 0.0, "lat": 38.9025505, "is_disabled": 0, "lon": -77.005825, "is_reserved": 0}, {"bike_id": "66a6f3c80cc987b80a2e7f723c5fef40", "fusion_lon": 0.0, "type": "electric_scooter", "name": "66a6f3c80cc987b80a2e7f723c5fef40", "rental_uris": {"android": "https://dc.lft.to/lastmile_qr_scan", "ios": "https://dc.lft.to/lastmile_qr_scan"}, "fusion_lat": 0.0, "lat": 38.901264833333336, "is_disabled": 0, "lon": -77.003149, "is_reserved": 0}, {"bike_id": "322ad8c268b5be992130a6a6362d5820", "fusion_lon": 0.0, "type": "electric_scooter", "name": "322ad8c268b5be992130a6a6362d5820", "rental_uris": {"android": "https://dc.lft.to/lastmile_qr_scan", "ios": "https://dc.lft.to/lastmile_qr_scan"}, "fusion_lat": 0.0, "lat": 38.90285083333333, "is_disabled": 0, "lon": -77.03653666666666, "is_reserved": 0}, {"bike_id": "56ff7db6ee229c11a9263c637ee4ce05", "fusion_lon": 0.0, "type": "electric_scooter", "name": "56ff7db6ee229c11a9263c637ee4ce05", "rental_uris": {"android": "https://dc.lft.to/lastmile_qr_scan", "ios": "https://dc.lft.to/lastmile_qr_scan"}, "fusion_lat": 0.0, "lat": 38.8794675, "is_disabled": 0, "lon": -77.00405833333333, "is_reserved": 0}, {"bike_id": "d02200210f60eb8beb31fbcb1c72abf8", "fusion_lon": 0.0, "type": "electric_scooter", "name": "d02200210f60eb8beb31fbcb1c72abf8", "rental_uris": {"android": "https://dc.lft.to/lastmile_qr_scan", "ios": "https://dc.lft.to/lastmile_qr_scan"}, "fusion_lat": 0.0, "lat": 38.8804615, "is_disabled": 0, "lon": -76.99950116666666, "is_reserved": 0}, {"bike_id": "eb7c0dd5d26daa631de2e03000fd4471", "fusion_lon": 0.0, "type": "electric_scooter", "name": "eb7c0dd5d26daa631de2e03000fd4471", "rental_uris": {"android": "https://dc.lft.to/lastmile_qr_scan", "ios": "https://dc.lft.to/lastmile_qr_scan"}, "fusion_lat": 0.0, "lat": 38.938704666666666, "is_disabled": 0, "lon": -77.03206816666666, "is_reserved": 0}, {"bike_id": "15ac9bd784bbba5fa8c29b0132b8dfc9", "fusion_lon": 0.0, "type": "electric_scooter", "name": "15ac9bd784bbba5fa8c29b0132b8dfc9", "rental_uris": {"android": "https://dc.lft.to/lastmile_qr_scan", "ios": "https://dc.lft.to/lastmile_qr_scan"}, "fusion_lat": 0.0, "lat": 38.92065266666667, "is_disabled": 0, "lon": -77.02369683333333, "is_reserved": 0}, {"bike_id": "7d71da1626871dcc42cb1d3153e5bed8", "fusion_lon": 0.0, "type": "electric_scooter", "name": "7d71da1626871dcc42cb1d3153e5bed8", "rental_uris": {"android": "https://dc.lft.to/lastmile_qr_scan", "ios": "https://dc.lft.to/lastmile_qr_scan"}, "fusion_lat": 0.0, "lat": 38.907606, "is_disabled": 0, "lon": -77.00216483333334, "is_reserved": 0},