{"data": {"bikes": [{"lat": 38.86483583333333, "is_disabled": 0, "type": "electric_bike", "lon": -77.0569525, "bike_id": "71a5d54e9b1946be329479d5640b1920", "fusion_lat": 0.0, "name": "71a5d54e9b1946be329479d5640b1920", "is_reserved": 0, "rental_uris": {"android": "https://dc.lft.to/lastmile_qr_scan", "ios": "https://dc.lft.to/lastmile_qr_scan"}, "fusion_lon": 0.0}, {"lat": 38.914037666666665, "is_disabled": 0, "type": "electric_scooter", "lon": -77.01842333333333, "bike_id": "a82af9d6ba3082e8bc0faf94e902d40a", "fusion_lat": 0.0, "name": "a82af9d6ba3082e8bc0faf94e902d40a", "is_reserved": 0, "rental_uris": {"android": "https://dc.lft.to/lastmile_qr_scan", "ios": "https://dc.lft.to/lastmile_qr_scan"}, "fusion_lon": 0.0}, {"lat": 38.90978966666667, "is_disabled": 0, "type": "electric_scooter", "lon": -77.04796816666666, "bike_id": "2b0cd096cb78cf5b9721281f9f35d019", "fusion_lat": 0.0, "name": "2b0cd096cb78cf5b9721281f9f35d019", "is_reserved": 0, "rental_uris": {"android": "https://dc.lft.to/lastmile_qr_scan", "ios": "https://dc.lft.to/lastmile_qr_scan"}, "fusion_lon": 0.0}, {"lat": 38.86517466666667, "is_disabled": 0, "type": "electric_scooter", "lon": -76.99056683333333, "bike_id": "fed93d19963655e9940c7a694430811a", "fusion_lat": 0.0, "name": "fed93d19963655e9940c7a694430811a", "is_reserved": 0, "rental_uris": {"android": "https://dc.lft.to/lastmile_qr_scan", "ios": "https://dc.lft.to/lastmile_qr_scan"}, "fusion_lon": 0.0}, {"lat": 38.937015833333334, "is_disabled": 0, "type": "electric_scooter", "lon": -77.02399016666666, "bike_id": "5119e2608476006efb4bc34861f689b0", "fusion_lat": 0.0, "name": "5119e2608476006efb4bc34861f689b0", "is_reserved": 0, "rental_uris": {"android": "https://dc.lft.to/lastmile_qr_scan", "ios": "https://dc.lft.to/lastmile_qr_scan"}, "fusion_lon": 0.0}, {"lat": 38.904942166666665, "is_disabled": 0, "type": "electric_scooter", "lon": -77.05152383333333, "bike_id": "b78eb593a02b4825a92fa4312eeda3de", "fusion_lat": 0.0, "name": "b78eb593a02b4825a92fa4312eeda3de", "is_reserved": 0, "rental_uris": {"android": "https://dc.lft.to/lastmile_qr_scan", "ios": "https://dc.lft.to/lastmile_qr_scan"}, "fusion_lon": 0.0}, {"lat": 38.90817466666667, "is_disabled": 0, "type": "electric_scooter", "lon": -77.03196733333333, "bike_id": "e6e18dd36396c18131cb46837bb32ea7", "fusion_lat": 0.0, "name": "e6e18dd36396c18131cb46837bb32ea7", "is_reserved": 0, "rental_uris": {"android": "https://dc.lft.to/lastmile_qr_scan", "ios": "https://dc.lft.to/lastmile_qr_scan"}, "fusion_lon": 0.0}, {"lat": 38.86375666666667, "is_disabled": 0, "type": "electric_scooter", "lon": -76.99062516666666, "bike_id": "534a7825869c7d5443951ad190f7a989", "fusion_lat": 0.0, "name": "534a7825869c7d5443951ad190f7a989", "is_reserved": 0, "rental_uris": {"android": "https://dc.lft.to/lastmile_qr_scan", "ios": "https://dc.lft.to/lastmile_qr_scan"}, "fusion_lon": 0.0}, {"lat": 38.91916333333333, "is_disabled": 0, "type": "electric_scooter", "lon": -77.04624233333334, "bike_id": "183cc53d35a467041c5d6009b323c61d", "fusion_lat": 0.0, "name": "183cc53d35a467041c5d6009b323c61d", "is_reserved": 0, "rental_uris": {"android": "https://dc.lft.to/lastmile_qr_scan", "ios": "https://dc.lft.to/lastmile_qr_scan"}, "fusion_lon": 0.0}, {"lat": 38.91698783333333, "is_disabled": 0, "type": "electric_scooter", "lon": -77.03093116666666, "bike_id": "cad4f92e5e1100102d2c59f23b7ee13e", "fusion_lat": 0.0, "name": "cad4f92e5e1100102d2c59f23b7ee13e", "is_reserved": 0, "rental_uris": {"android": "https://dc.lft.to/lastmile_qr_scan", "ios": "https://dc.lft.to/lastmile_qr_scan"}, "fusion_lon": 0.0}, {"lat": 38.9390935, "is_disabled": 0, "type": "electric_scooter", "lon": -77.06052766666667, "bike_id": "5828a3527dab45f5168ad7a6a8fd7ce2", "fusion_lat": 0.0, "name": "5828a3527dab45f5168ad7a6a8fd7ce2", "is_reserved": 0, "rental_uris": {"android": "https://dc.lft.to/lastmile_qr_scan", "ios": "https://dc.lft.to/lastmile_qr_scan"}, "fusion_lon": 0.0}, {"lat": 38.912065166666665, "is_disabled": 0, "type": "electric_scooter", "lon": -77.03846283333333, "bike_id": "d339f1dae1e15e750dce0008f2c5b443", "fusion_lat": 0.0, "name": "d339f1dae1e15e750dce0008f2c5b443", "is_reserved": 0, "rental_uris": {"android": "https://dc.lft.to/lastmile_qr_scan", "ios": "https://dc.lft.to/lastmile_qr_scan"}, "fusion_lon": 0.0}, {"lat": 38.908145166666664, "is_disabled": 0, "type": "electric_scooter", "lon": -77.041769, "bike_id": "5440cd77ab5f9b684d5d9e1c76db0b9a", "fusion_lat": 0.0, "name": "5440cd77ab5f9b684d5d9e1c76db0b9a", "is_reserved": 0, "rental_uris": {"android": "https://dc.lft.to/lastmile_qr_scan", "ios": "https://dc.lft.to/lastmile_qr_scan"}, "fusion_lon": 0.0}, {"lat": 38.93317533333333, "is_disabled": 0, "type": "electric_scooter", "lon": -77.03444816666666, "bike_id": "3717173cc389df6327e5a468a8960d9b", "fusion_lat": 0.0, "name": "3717173cc389df6327e5a468a8960d9b", "is_reserved": 0, "rental_uris": {"android": "https://dc.lft.to/lastmile_qr_scan", "ios": "https://dc.lft.to/lastmile_qr_scan"}, "fusion_lon": 0.0}, {"lat": 38.932018, "is_disabled": 0, "type": "electric_scooter", "lon": -77.03859316666667, "bike_id": "617b3ef21199ef052d658362ec290679", "fusion_lat": 0.0, "name": "617b3ef21199ef052d658362ec290679", "is_reserved": 0, "rental_uris": {"android": "https://dc.lft.to/lastmile_qr_scan", "ios": "https://dc.lft.to/lastmile_qr_scan"}, "fusion_lon": 0.0}, {"lat": 38.8874065, "is_disabled": 0, "type": "electric_scooter", "lon": -77.00323833333333, "bike_id": "acf181e1e014391308e1162c2dda8e84", "fusion_lat": 0.0, "name": "acf181e1e014391308e1162c2dda8e84", "is_reserved": 0, "rental_uris": {"android": "https://dc.lft.to/lastmile_qr_scan", "ios": "https://dc.lft.to/lastmile_qr_scan"}, "fusion_lon": 0.0}, {"lat": 38.90287333333333, "is_disabled": 0, "type": "electric_scooter", "lon": -77.0459135, "bike_id": "2933d58186b51136e9a0119a021f9721", "fusion_lat": 0.0, "name": "2933d58186b51136e9a0119a021f9721", "is_reserved": 0, "rental_uris": {"android": "https://dc.lft.to/lastmile_qr_scan", "ios": "https://dc.lft.to/lastmile_qr_scan"}, "fusion_lon": 0.0}, {"lat": 38.9097115, "is_disabled": 0, "type": "electric_scooter", "lon": -77.04520533333333, "bike_id": "36343dbfa671cff92e2cc08936a6d9be", "fusion_lat": 0.0, "name": "36343dbfa671cff92e2cc08936a6d9be", "is_reserved": 0, "rental_uris": {"android": "https://dc.lft.to/lastmile_qr_scan", "ios": "https://dc.lft.to/lastmile_qr_scan"}, "fusion_lon": 0.0}, {"lat": 38.908320833333335, "is_disabled": 0, "type": "electric_scooter", "lon": -76.999699, "bike_id": "5e7715096ef488aa185d60aa44b66be6", "fusion_lat": 0.0, "name": "5e7715096ef488aa185d60aa44b66be6", "is_reserved": 0, "rental_uris": {"android": "https://dc.lft.to/lastmile_qr_scan", "ios": "https://dc.lft.to/lastmile_qr_scan"}, "fusion_lon": 0.0}, {"lat": 38.899736833333336, "is_disabled": 0, "type": "electric_scooter", "lon": -76.98381033333334, "bike_id": "9f30f05116da49cbcfe4a10623b7eb80", "fusion_lat": 0.0, "name": "9f30f05116da49cbcfe4a10623b7eb80", "is_reserved": 0, "rental_uris": {"android": "https://dc.lft.to/lastmile_qr_scan", "ios": "https://dc.lft.to/lastmile_qr_scan"}, "fusion_lon": 0.0}, {"lat": 38.88877866666667, "is_disabled": 0, "type": "electric_scooter", "lon": -76.9770745, "bike_id": "493e6369fba4d00d02b335884532f126", "fusion_lat": 0.0, "name": "493e6369fba4d00d02b335884532f126", "is_reserved": 0, "rental_uris": {"android": "https://dc.lft.to/lastmile_qr_scan", "ios": "https://dc.lft.to/lastmile_qr_scan"}, "fusion_lon": 0.0}, {"lat": 38.913325, "is_disabled": 0, "type": "electric_scooter", "lon": -77.04817433333334, "bike_id": "8bd4c29265a4122bb1bb2fa152905874", "fusion_lat": 0.0, "name": "8bd4c29265a4122bb1bb2fa152905874", "is_reserved": 0, "rental_uris": {"android": "https://dc.lft.to/lastmile_qr_scan", "ios": "https://dc.lft.to/lastmile_qr_scan"}, "fusion_lon": 0.0}, {"lat": 38.91341383333334, "is_disabled": 0, "type": "electric_scooter", "lon": -77.02225733333333, "bike_id": "4a97127ba5617e57085317ca57d88316", "fusion_lat": 0.0, "name": "4a97127ba5617e57085317ca57d88316", "is_reserved": 0, "rental_uris": {"android": "https://dc.lft.to/lastmile_qr_scan", "ios": "https://dc.lft.to/lastmile_qr_scan"}, "fusion_lon": 0.0}, {"lat": 38.915095, "is_disabled": 0, "type": "electric_scooter", "lon": -77.01905583333334, "bike_id": "d8106fc459fd3d8cf055b16e4f24e2a3", "fusion_lat": 0.0, "name": "d8106fc459fd3d8cf055b16e4f24e2a3", "is_reserved": 0, "rental_uris": {"android": "https://dc.lft.to/lastmile_qr_scan", "ios": "https://dc.lft.to/lastmile_qr_scan"}, "fusion_lon": 0.0}, {"lat": 38.897381333333335, "is_disabled": 0, "type": "electric_scooter", "lon": -77.04683283333334, "bike_id": "336a808c1882f6e3e64e543a004c7990", "fusion_lat": 0.0, "name": "336a808c1882f6e3e64e543a004c7990", "is_reserved": 0, "rental_uris": {"android": "https://dc.lft.to/lastmile_qr_scan", "ios": "https://dc.lft.to/lastmile_qr_scan"}, "fusion_lon": 0.0}, {"lat": 38.9081105, "is_disabled": 0, "type": "electric_scooter", "lon": -76.985648, "bike_id": "44982d79be5200ebe1e8bc0f84641651", "fusion_lat": 0.0, "name": "44982d79be5200ebe1e8bc0f84641651", "is_reserved": 0, "rental_uris": {"android": "https://dc.lft.to/lastmile_qr_scan", "ios": "https://dc.lft.to/lastmile_qr_scan"}, "fusion_lon": 0.0}, {"lat": 38.9622715, "is_disabled": 0, "type": "electric_scooter", "lon": -77.02782733333333, "bike_id": "ba31b1c2e670f584ef730d9c211cb507", "fusion_lat": 0.0, "name": "ba31b1c2e670f584ef730d9c211cb507", "is_reserved": 0, "rental_uris": {"android": "https://dc.lft.to/lastmile_qr_scan", "ios": "https://dc.lft.to/lastmile_qr_scan"}, "fusion_lon": 0.0}, {"lat": 38.92258833333333, "is_disabled": 0, "type": "electric_scooter", "lon": -77.0414235, "bike_id": "f638af2cd3a98cffeea38d73937d9392", "fusion_lat": 0.0, "name": "f638af2cd3a98cffeea38d73937d9392", "is_reserved": 0, "rental_uris": {"android": "https://dc.lft.to/lastmile_qr_scan", "ios": "https://dc.lft.to/lastmile_qr_scan"}, "fusion_lon": 0.0}, {"lat": 38.899587333333336, "is_disabled": 0, "type": "electric_scooter", "lon": -77.05097133333334, "bike_id": "652abeed04627e3d99804a8a14d3ec6b", "fusion_lat": 0.0, "name": "652abeed04627e3d99804a8a14d3ec6b", "is_reserved": 0, "rental_uris": {"android": "https://dc.lft.to/lastmile_qr_scan", "ios": "https://dc.lft.to/lastmile_qr_scan"}, "fusion_lon": 0.0}, {"lat": 38.92256283333333, "is_disabled": 0, "type": "electric_scooter", "lon": -77.03408316666666, "bike_id": "ed21e3a10b64ac0a8b8f53af08379a23", "fusion_lat": 0.0, "name": "ed21e3a10b64ac0a8b8f53af08379a23", "is_reserved": 0, "rental_uris": {"android": "https://dc.lft.to/lastmile_qr_scan", "ios": "https://dc.lft.to/lastmile_qr_scan"}, "fusion_lon": 0.0}, {"lat": 38.92632183333333, "is_disabled": 0, "type": "electric_scooter", "lon": -77.03790983333333, "bike_id": "bb8216aea89aaa3ac1644309e0f52dd6", "fusion_lat": 0.0, "name": "bb8216aea89aaa3ac1644309e0f52dd6", "is_reserved": 0, "rental_uris": {"android": "https://dc.lft.to/lastmile_qr_scan", "ios": "https://dc.lft.to/lastmile_qr_scan"}, "fusion_lon": 0.0}, {"lat": 38.90029666666667, "is_disabled": 0, "type": "electric_scooter", "lon": -77.00214983333333, "bike_id": "8828cb3388f341e3f5d4928fa4bf832b", "fusion_lat": 0.0, "name": "8828cb3388f341e3f5d4928fa4bf832b", "is_reserved": 0, "rental_uris": {"android": "https://dc.lft.to/lastmile_qr_scan", "ios": "https://dc.lft.to/lastmile_qr_scan"}, "fusion_lon": 0.0}, {"lat": 38.87478266666667, "is_disabled": 0, "type": "electric_scooter", "lon": -77.01070766666666, "bike_id": "2e3d4a31faae8a7de2a88b9fddf14b03", "fusion_lat": 0.0, "name": "2e3d4a31faae8a7de2a88b9fddf14b03", "is_reserved": 0, "rental_uris": {"android": "https://dc.lft.to/lastmile_qr_scan", "ios": "https://dc.lft.to/lastmile_qr_scan"}, "fusion_lon": 0.0}, {"lat": 38.902904166666666, "is_disabled": 0, "type": "electric_scooter", "lon": -77.05332666666666, "bike_id": "c9f6140454a8e462ac3a1bfd64d3f8ee", "fusion_lat": 0.0, "name": "c9f6140454a8e462ac3a1bfd64d3f8ee", "is_reserved": 0, "rental_uris": {"android": "https://dc.lft.to/lastmile_qr_scan", "ios": "https://dc.lft.to/lastmile_qr_scan"}, "fusion_lon": 0.0}, {"lat": 38.892210666666664, "is_disabled": 0, "type": "electric_scooter", "lon": -77.02647416666667, "bike_id": "f965c446c26f52b5d5eb546c4a656790", "fusion_lat": 0.0, "name": "f965c446c26f52b5d5eb546c4a656790", "is_reserved": 0, "rental_uris": {"android": "https://dc.lft.to/lastmile_qr_scan", "ios": "https://dc.lft.to/lastmile_qr_scan"}, "fusion_lon": 0.0}, {"lat": 38.89672933333333, "is_disabled": 0, "type": "electric_scooter", "lon": -77.04478, "bike_id": "36a0e124485ac1a86bb79dafc73b8a90", "fusion_lat": 0.0, "name": "36a0e124485ac1a86bb79dafc73b8a90", "is_reserved": 0, "rental_uris": {"android": "https://dc.lft.to/lastmile_qr_scan", "ios": "https://dc.lft.to/lastmile_qr_scan"}, "fusion_lon": 0.0}, {"lat": 38.89953466666667, "is_disabled": 0, "type": "electric_scooter", "lon": -77.05169716666667, "bike_id": "45b43438b18e5dd09271bd0241fbba88", "fusion_lat": 0.0, "name": "45b43438b18e5dd09271bd0241fbba88", "is_reserved": 0, "rental_uris": {"android": "https://dc.lft.to/lastmile_qr_scan", "ios": "https://dc.lft.to/lastmile_qr_scan"}, "fusion_lon": 0.0}, {"lat": 38.864375333333335, "is_disabled": 0, "type": "electric_scooter", "lon": -76.97383433333333, "bike_id": "5250e8feb0c625bad8201cf89332dc89", "fusion_lat": 0.0, "name": "5250e8feb0c625bad8201cf89332dc89", "is_reserved": 0, "rental_uris": {"android": "https://dc.lft.to/lastmile_qr_scan", "ios": "https://dc.lft.to/lastmile_qr_scan"}, "fusion_lon": 0.0}, {"lat": 38.932554833333334, "is_disabled": 0, "type": "electric_scooter", "lon": -77.03264733333333, "bike_id": "37aa71591eeaba17204a96930662e6c3", "fusion_lat": 0.0, "name": "37aa71591eeaba17204a96930662e6c3", "is_reserved": 0, "rental_uris": {"android": "https://dc.lft.to/lastmile_qr_scan", "ios": "https://dc.lft.to/lastmile_qr_scan"}, "fusion_lon": 0.0}, {"lat": 38.94200033333333, "is_disabled": 0, "type": "electric_scooter", "lon": -77.01832433333334, "bike_id": "d285e81c16ec3abd36ae705782973e58", "fusion_lat": 0.0, "name": "d285e81c16ec3abd36ae705782973e58", "is_reserved": 0, "rental_uris": {"android": "https://dc.lft.to/lastmile_qr_scan", "ios": "https://dc.lft.to/lastmile_qr_scan"}, "fusion_lon": 0.0}, {"lat": 38.920670666666666, "is_disabled": 0, "type": "electric_scooter", "lon": -77.032868, "bike_id": "6dcc463fa8ad38b6ce442fae08c66d9a", "fusion_lat": 0.0, "name": "6dcc463fa8ad38b6ce442fae08c66d9a", "is_reserved": 0, "rental_uris": {"android": "https://dc.lft.to/lastmile_qr_scan", "ios": "https://dc.lft.to/lastmile_qr_scan"}, "fusion_lon": 0.0}, {"lat": 38.921097333333336, "is_disabled": 0, "type": "electric_scooter", "lon": -77.042223, "bike_id": "638aafce52f5a80aadc6e449972cced1", "fusion_lat": 0.0, "name": "638aafce52f5a80aadc6e449972cced1", "is_reserved": 0, "rental_uris": {"android": "https://dc.lft.to/lastmile_qr_scan", "ios": "https://dc.lft.to/lastmile_qr_scan"}, "fusion_lon": 0.0}, {"lat": 38.90636166666667, "is_disabled": 0, "type": "electric_scooter", "lon": -77.06291633333333, "bike_id": "49d761a885172a06629029094d6cea89", "fusion_lat": 0.0, "name": "49d761a885172a06629029094d6cea89", "is_reserved": 0, "rental_uris": {"android": "https://dc.lft.to/lastmile_qr_scan", "ios": "https://dc.lft.to/lastmile_qr_scan"}, "fusion_lon": 0.0}, {"lat": 38.91405683333333, "is_disabled": 0, "type": "electric_scooter", "lon": -77.02051633333333, "bike_id": "9ab64a601530a6f129246d292f97a3ab", "fusion_lat": 0.0, "name": "9ab64a601530a6f129246d292f97a3ab", "is_reserved": 0, "rental_uris": {"android": "https://dc.lft.to/lastmile_qr_scan", "ios": "https://dc.lft.to/lastmile_qr_scan"}, "fusion_lon": 0.0}, {"lat": 38.967021833333334, "is_disabled": 0, "type": "electric_bike", "lon": -77.1022525, "bike_id": "2775634db91d277a8829c94d4a115c03", "fusion_lat": 0.0, "name": "2775634db91d277a8829c94d4a115c03", "is_reserved": 0, "rental_uris": {"android": "https://dc.lft.to/lastmile_qr_scan", "ios": "https://dc.lft.to/lastmile_qr_scan"}, "fusion_lon": 0.0}, {"lat": 38.86160433333333, "is_disabled": 0, "type": "electric_bike", "lon": -77.13092683333333, "bike_id": "ac6ec0e3092bb27930ab48fc8aac7076", "fusion_lat": 0.0, "name": "ac6ec0e3092bb27930ab48fc8aac7076", "is_reserved": 0, "rental_uris": {"android": "https://dc.lft.to/lastmile_qr_scan", "ios": "https://dc.lft.to/lastmile_qr_scan"}, "fusion_lon": 0.0}, {"lat": 38.914082, "is_disabled": 0, "type": "electric_scooter", "lon": -77.025754, "bike_id": "ae53e0e644d72681b9bd0275a58b6cd0", "fusion_lat": 0.0, "name": "ae53e0e644d72681b9bd0275a58b6cd0", "is_reserved": 0, "rental_uris": {"android": "https://dc.lft.to/lastmile_qr_scan", "ios": "https://dc.lft.to/lastmile_qr_scan"}, "fusion_lon": 0.0}, {"lat": 38.90362616666667, "is_disabled": 0, "type": "electric_scooter", "lon": -77.04186033333333, "bike_id": "d6eba1428d3283dedb2a58323073a532", "fusion_lat": 0.0, "name": "d6eba1428d3283dedb2a58323073a532", "is_reserved": 0, "rental_uris": {"android": "https://dc.lft.to/lastmile_qr_scan", "ios": "https://dc.lft.to/lastmile_qr_scan"}, "fusion_lon": 0.0}, {"lat": 38.887229, "is_disabled": 0, "type": "electric_scooter", "lon": -77.01382366666667, "bike_id": "2669f2d3a7f5edb4f91138c2521ad23a", "fusion_lat": 0.0, "name": "2669f2d3a7f5edb4f91138c2521ad23a", "is_reserved": 0, "rental_uris": {"android": "https://dc.lft.to/lastmile_qr_scan", "ios": "https://dc.lft.to/lastmile_qr_scan"}, "fusion_lon": 0.0}, {"lat": 38.915051166666665, "is_disabled": 0, "type": "electric_scooter", "lon": -77.02197816666667, "bike_id": "66f5ad302ac5ae7f9ffb85098945795a", "fusion_lat": 0.0, "name": "66f5ad302ac5ae7f9ffb85098945795a", "is_reserved": 0, "rental_uris": {"android": "https://dc.lft.to/lastmile_qr_scan", "ios": "https://dc.lft.to/lastmile_qr_scan"}, "fusion_lon": 0.0}, {"lat": 38.88927283333334, "is_disabled": 0, "type": "electric_scooter", "lon": -76.9737705, "bike_id": "4b6ea8c27d3c5b85f76a689c72613508", "fusion_lat": 0.0, "name": "4b6ea8c27d3c5b85f76a689c72613508", "is_reserved": 0, "rental_uris": {"android": "https://dc.lft.to/lastmile_qr_scan", "ios": "https://dc.lft.to/lastmile_qr_scan"}, "fusion_lon": 0.0}, {"lat": 38.90897783333333, "is_disabled": 0, "type": "electric_scooter", "lon": -77.03210483333334, "bike_id": "4490dd0039936fcfafefed6bf70361b2", "fusion_lat": 0.0, "name": "4490dd0039936fcfafefed6bf70361b2", "is_reserved": 0, "rental_uris": {"android": "https://dc.lft.to/lastmile_qr_scan", "ios": "https://dc.lft.to/lastmile_qr_scan"}, "fusion_lon": 0.0}, {"lat": 38.91987666666667, "is_disabled": 0, "type": "electric_scooter", "lon": -77.04158616666666, "bike_id": "42156b368967751b0e822e1834c82d2f", "fusion_lat": 0.0, "name": "42156b368967751b0e822e1834c82d2f", "is_reserved": 0, "rental_uris": {"android": "https://dc.lft.to/lastmile_qr_scan", "ios": "https://dc.lft.to/lastmile_qr_scan"}, "fusion_lon": 0.0}, {"lat": 38.96254366666667, "is_disabled": 0, "type": "electric_scooter", "lon": -77.03823366666667, "bike_id": "f787a772c0b04df5b581a3da3380fc32", "fusion_lat": 0.0, "name": "f787a772c0b04df5b581a3da3380fc32", "is_reserved": 0, "rental_uris": {"android": "https://dc.lft.to/lastmile_qr_scan", "ios": "https://dc.lft.to/lastmile_qr_scan"}, "fusion_lon": 0.0}, {"lat": 38.909608, "is_disabled": 0, "type": "electric_scooter", "lon": -77.0347285, "bike_id": "0d53575f70587779f862ec88b8a61fde", "fusion_lat": 0.0, "name": "0d53575f70587779f862ec88b8a61fde", "is_reserved": 0, "rental_uris": {"android": "https://dc.lft.to/lastmile_qr_scan", "ios": "https://dc.lft.to/lastmile_qr_scan"}, "fusion_lon": 0.0}, {"lat": 38.8963195, "is_disabled": 0, "type": "electric_scooter", "lon": -77.04503566666666, "bike_id": "033475ed60635635ad51d24b4fe683f2", "fusion_lat": 0.0, "name": "033475ed60635635ad51d24b4fe683f2", "is_reserved": 0, "rental_uris": {"android": "https://dc.lft.to/lastmile_qr_scan", "ios": "https://dc.lft.to/lastmile_qr_scan"}, "fusion_lon": 0.0}, {"lat": 38.89995783333333, "is_disabled": 0, "type": "electric_scooter", "lon": -76.92233016666667, "bike_id": "146fdc4792d7643fcd6aeac4d62f9690", "fusion_lat": 0.0, "name": "146fdc4792d7643fcd6aeac4d62f9690", "is_reserved": 0, "rental_uris": {"android": "https://dc.lft.to/lastmile_qr_scan", "ios": "https://dc.lft.to/lastmile_qr_scan"}, "fusion_lon": 0.0}, {"lat": 38.93346416666667, "is_disabled": 0, "type": "electric_scooter", "lon": -77.07177583333333, "bike_id": "8ba86618a02cb7373cd433961b81d827", "fusion_lat": 0.0, "name": "8ba86618a02cb7373cd433961b81d827", "is_reserved": 0, "rental_uris": {"android": "https://dc.lft.to/lastmile_qr_scan", "ios": "https://dc.lft.to/lastmile_qr_scan"}, "fusion_lon": 0.0}, {"lat": 38.89719383333333, "is_disabled": 0, "type": "electric_scooter", "lon": -77.03120466666667, "bike_id": "da08e2299498c94b7037b924b5570afd", "fusion_lat": 0.0, "name": "da08e2299498c94b7037b924b5570afd", "is_reserved": 0, "rental_uris": {"android": "https://dc.lft.to/lastmile_qr_scan", "ios": "https://dc.lft.to/lastmile_qr_scan"}, "fusion_lon": 0.0}, {"lat": 38.906831833333335, "is_disabled": 0, "type": "electric_scooter", "lon": -77.0239305, "bike_id": "2eb3a397199f500ef71cc2b9fb747620", "fusion_lat": 0.0, "name": "2eb3a397199f500ef71cc2b9fb747620", "is_reserved": 0, "rental_uris": {"android": "https://dc.lft.to/lastmile_qr_scan", "ios": "https://dc.lft.to/lastmile_qr_scan"}, "fusion_lon": 0.0}, {"lat": 38.927582, "is_disabled": 0, "type": "electric_scooter", "lon": -77.00601383333333, "bike_id": "97a787717bb0c78fa29c0d03d42b0977", "fusion_lat": 0.0, "name": "97a787717bb0c78fa29c0d03d42b0977", "is_reserved": 0, "rental_uris": {"android": "https://dc.lft.to/lastmile_qr_scan", "ios": "https://dc.lft.to/lastmile_qr_scan"}, "fusion_lon": 0.0}, {"lat": 38.89989116666667, "is_disabled": 0, "type": "electric_bike", "lon": -76.98122383333333, "bike_id": "90458eadf1bf0855a22d458c7b4b38d0", "fusion_lat": 0.0, "name": "90458eadf1bf0855a22d458c7b4b38d0", "is_reserved": 0, "rental_uris": {"android": "https://dc.lft.to/lastmile_qr_scan", "ios": "https://dc.lft.to/lastmile_qr_scan"}, "fusion_lon": 0.0}, {"lat": 38.87819183333333, "is_disabled": 0, "type": "electric_scooter", "lon": -77.0225035, "bike_id": "6964cf4106daa967bcccaee9f4cc1a76", "fusion_lat": 0.0, "name": "6964cf4106daa967bcccaee9f4cc1a76", "is_reserved": 0, "rental_uris": {"android": "https://dc.lft.to/lastmile_qr_scan", "ios": "https://dc.lft.to/lastmile_qr_scan"}, "fusion_lon": 0.0}, {"lat": 38.9332025, "is_disabled": 0, "type": "electric_scooter", "lon": -77.02929633333333, "bike_id": "90b5f442378f35b3eb6b030f6735745e", "fusion_lat": 0.0, "name": "90b5f442378f35b3eb6b030f6735745e", "is_reserved": 0, "rental_uris": {"android": "https://dc.lft.to/lastmile_qr_scan", "ios": "https://dc.lft.to/lastmile_qr_scan"}, "fusion_lon": 0.0}, {"lat": 38.90570266666667, "is_disabled": 0, "type": "electric_scooter", "lon": -77.02796116666667, "bike_id": "4cc43a82949246db277a43cfc5a5231d", "fusion_lat": 0.0, "name": "4cc43a82949246db277a43cfc5a5231d", "is_reserved": 0, "rental_uris": {"android": "https://dc.lft.to/lastmile_qr_scan", "ios": "https://dc.lft.to/lastmile_qr_scan"}, "fusion_lon": 0.0}, {"lat": 38.90971016666667, "is_disabled": 0, "type": "electric_scooter", "lon": -77.03394833333333, "bike_id": "e876dd7e4544c4a7b7a2dff3a1ee9999", "fusion_lat": 0.0, "name": "e876dd7e4544c4a7b7a2dff3a1ee9999", "is_reserved": 0, "rental_uris": {"android": "https://dc.lft.to/lastmile_qr_scan", "ios": "https://dc.lft.to/lastmile_qr_scan"}, "fusion_lon": 0.0}, {"lat": 38.90002, "is_disabled": 0, "type": "electric_scooter", "lon": -76.99842466666666, "bike_id": "43a808fa3fbc124ab4315f828219f718", "fusion_lat": 0.0, "name": "43a808fa3fbc124ab4315f828219f718", "is_reserved": 0, "rental_uris": {"android": "https://dc.lft.to/lastmile_qr_scan", "ios": "https://dc.lft.to/lastmile_qr_scan"}, "fusion_lon": 0.0}, {"lat": 38.87458516666667, "is_disabled": 0, "type": "electric_scooter", "lon": -77.00528766666666, "bike_id": "bdbd9f869941daf1161609555c18031f", "fusion_lat": 0.0, "name": "bdbd9f869941daf1161609555c18031f", "is_reserved": 0, "rental_uris": {"android": "https://dc.lft.to/lastmile_qr_scan", "ios": "https://dc.lft.to/lastmile_qr_scan"}, "fusion_lon": 0.0}, {"lat": 38.924562333333334, "is_disabled": 0, "type": "electric_bike", "lon": -76.975662, "bike_id": "839a290ff8df3bbc88f83b8492b326bc", "fusion_lat": 0.0, "name": "839a290ff8df3bbc88f83b8492b326bc", "is_reserved": 0, "rental_uris": {"android": "https://dc.lft.to/lastmile_qr_scan", "ios": "https://dc.lft.to/lastmile_qr_scan"}, "fusion_lon": 0.0}, {"lat": 38.891985, "is_disabled": 0, "type": "electric_scooter", "lon": -77.02455883333333, "bike_id": "a79d52120b94ecfaee3c2f2be9a9c9f3", "fusion_lat": 0.0, "name": "a79d52120b94ecfaee3c2f2be9a9c9f3", "is_reserved": 0, "rental_uris": {"android": "https://dc.lft.to/lastmile_qr_scan", "ios": "https://dc.lft.to/lastmile_qr_scan"}, "fusion_lon": 0.0}, {"lat": 38.903125333333335, "is_disabled": 0, "type": "electric_scooter", "lon": -76.97805433333333, "bike_id": "f238d719b7c565fd08424c10ea6fd5f2", "fusion_lat": 0.0, "name": "f238d719b7c565fd08424c10ea6fd5f2", "is_reserved": 0, "rental_uris": {"android": "https://dc.lft.to/lastmile_qr_scan", "ios": "https://dc.lft.to/lastmile_qr_scan"}, "fusion_lon": 0.0}, {"lat": 38.8723075, "is_disabled": 0, "type": "electric_bike", "lon": -77.01167683333334, "bike_id": "20acd8cc37a9eedc5272c44178eb9377", "fusion_lat": 0.0, "name": "20acd8cc37a9eedc5272c44178eb9377", "is_reserved": 0, "rental_uris": {"android": "https://dc.lft.to/lastmile_qr_scan", "ios": "https://dc.lft.to/lastmile_qr_scan"}, "fusion_lon": 0.0}, {"lat": 38.913812166666666, "is_disabled": 0, "type": "electric_scooter", "lon": -77.00459033333334, "bike_id": "293efc75bf97cbe0468deabe9ec1ebed", "fusion_lat": 0.0, "name": "293efc75bf97cbe0468deabe9ec1ebed", "is_reserved": 0, "rental_uris": {"android": "https://dc.lft.to/lastmile_qr_scan", "ios": "https://dc.lft.to/lastmile_qr_scan"}, "fusion_lon": 0.0}, {"lat": 38.908606166666665, "is_disabled": 0, "type": "electric_scooter", "lon": -77.02353883333333, "bike_id": "11e48f7cc3c27ae61f026b1f77efc132", "fusion_lat": 0.0, "name": "11e48f7cc3c27ae61f026b1f77efc132", "is_reserved": 0, "rental_uris": {"android": "https://dc.lft.to/lastmile_qr_scan", "ios": "https://dc.lft.to/lastmile_qr_scan"}, "fusion_lon": 0.0}, {"lat": 38.885084166666665, "is_disabled": 0, "type": "electric_bike", "lon": -77.01557683333333, "bike_id": "13354b2027665ea26eadd19c62438b13", "fusion_lat": 0.0, "name": "13354b2027665ea26eadd19c62438b13", "is_reserved": 0, "rental_uris": {"android": "https://dc.lft.to/lastmile_qr_scan", "ios": "https://dc.lft.to/lastmile_qr_scan"}, "fusion_lon": 0.0}, {"lat": 38.921692166666666, "is_disabled": 0, "type": "electric_scooter", "lon": -77.03387816666667, "bike_id": "8ecfa21da9a092dc9de3c6901c138abb", "fusion_lat": 0.0, "name": "8ecfa21da9a092dc9de3c6901c138abb", "is_reserved": 0, "rental_uris": {"android": "https://dc.lft.to/lastmile_qr_scan", "ios": "https://dc.lft.to/lastmile_qr_scan"}, "fusion_lon": 0.0}, {"lat": 38.9509595, "is_disabled": 0, "type": "electric_scooter", "lon": -77.023394, "bike_id": "b4e504d8ac213c51b3e3edbf717a74fa", "fusion_lat": 0.0, "name": "b4e504d8ac213c51b3e3edbf717a74fa", "is_reserved": 0, "rental_uris": {"android": "https://dc.lft.to/lastmile_qr_scan", "ios": "https://dc.lft.to/lastmile_qr_scan"}, "fusion_lon": 0.0}, {"lat": 38.89897033333333, "is_disabled": 0, "type": "electric_scooter", "lon": -77.039567, "bike_id": "f6ff4616a876a629ac15246ef3e7f539", "fusion_lat": 0.0, "name": "f6ff4616a876a629ac15246ef3e7f539", "is_reserved": 0, "rental_uris": {"android": "https://dc.lft.to/lastmile_qr_scan", "ios": "https://dc.lft.to/lastmile_qr_scan"}, "fusion_lon": 0.0}, {"lat": 38.90257833333333, "is_disabled": 0, "type": "electric_scooter", "lon": -77.01779366666666, "bike_id": "e1fb75a964e5cd787cbffcb15601e982", "fusion_lat": 0.0, "name": "e1fb75a964e5cd787cbffcb15601e982", "is_reserved": 0, "rental_uris": {"android": "https://dc.lft.to/lastmile_qr_scan", "ios": "https://dc.lft.to/lastmile_qr_scan"}, "fusion_lon": 0.0}, {"lat": 38.861740166666664, "is_disabled": 0, "type": "electric_bike", "lon": -77.13148233333334, "bike_id": "5c57cf1f81a8cade138d2401876333d7", "fusion_lat": 0.0, "name": "5c57cf1f81a8cade138d2401876333d7", "is_reserved": 0, "rental_uris": {"android": "https://dc.lft.to/lastmile_qr_scan", "ios": "https://dc.lft.to/lastmile_qr_scan"}, "fusion_lon": 0.0}, {"lat": 38.91012033333333, "is_disabled": 0, "type": "electric_scooter", "lon": -77.08897483333334, "bike_id": "6cd0092263957e4bc4059ed65f6804ec", "fusion_lat": 0.0, "name": "6cd0092263957e4bc4059ed65f6804ec", "is_reserved": 0, "rental_uris": {"android": "https://dc.lft.to/lastmile_qr_scan", "ios": "https://dc.lft.to/lastmile_qr_scan"}, "fusion_lon": 0.0}, {"lat": 38.8853355, "is_disabled": 0, "type": "electric_scooter", "lon": -76.99826433333334, "bike_id": "11d4676bfa47d78cadd27e6f55d23e15", "fusion_lat": 0.0, "name": "11d4676bfa47d78cadd27e6f55d23e15", "is_reserved": 0, "rental_uris": {"android": "https://dc.lft.to/lastmile_qr_scan", "ios": "https://dc.lft.to/lastmile_qr_scan"}, "fusion_lon": 0.0}, {"lat": 38.91721533333333, "is_disabled": 0, "type": "electric_scooter", "lon": -77.03841983333334, "bike_id": "b32ecf836b49c4dae59a987a5ec7d7e5", "fusion_lat": 0.0, "name": "b32ecf836b49c4dae59a987a5ec7d7e5", "is_reserved": 0, "rental_uris": {"android": "https://dc.lft.to/lastmile_qr_scan", "ios": "https://dc.lft.to/lastmile_qr_scan"}, "fusion_lon": 0.0}, {"lat": 38.91587633333333, "is_disabled": 0, "type": "electric_scooter", "lon": -77.03191, "bike_id": "7649235601fd0495d7cf2c74c76dbb1b", "fusion_lat": 0.0, "name": "7649235601fd0495d7cf2c74c76dbb1b", "is_reserved": 0, "rental_uris": {"android": "https://dc.lft.to/lastmile_qr_scan", "ios": "https://dc.lft.to/lastmile_qr_scan"}, "fusion_lon": 0.0}, {"lat": 38.91114066666667, "is_disabled": 0, "type": "electric_scooter", "lon": -77.03213233333334, "bike_id": "1a68b466ca673dadea10c810164db375", "fusion_lat": 0.0, "name": "1a68b466ca673dadea10c810164db375", "is_reserved": 0, "rental_uris": {"android": "https://dc.lft.to/lastmile_qr_scan", "ios": "https://dc.lft.to/lastmile_qr_scan"}, "fusion_lon": 0.0}, {"lat": 38.92171416666667, "is_disabled": 0, "type": "electric_scooter", "lon": -77.03840216666667, "bike_id": "b6be728269abc42a7089bd3b7fcc1f6f", "fusion_lat": 0.0, "name": "b6be728269abc42a7089bd3b7fcc1f6f", "is_reserved": 0, "rental_uris": {"android": "https://dc.lft.to/lastmile_qr_scan", "ios": "https://dc.lft.to/lastmile_qr_scan"}, "fusion_lon": 0.0}, {"lat": 38.898462333333335, "is_disabled": 0, "type": "electric_scooter", "lon": -76.94472533333334, "bike_id": "87ec312f1e6a2c25c6622f319db17692", "fusion_lat": 0.0, "name": "87ec312f1e6a2c25c6622f319db17692", "is_reserved": 0, "rental_uris": {"android": "https://dc.lft.to/lastmile_qr_scan", "ios": "https://dc.lft.to/lastmile_qr_scan"}, "fusion_lon": 0.0}, {"lat": 39.09437766666667, "is_disabled": 0, "type": "electric_bike", "lon": -77.1346195, "bike_id": "a8664d7f3543a6deb92cdde66a3411a8", "fusion_lat": 0.0, "name": "a8664d7f3543a6deb92cdde66a3411a8", "is_reserved": 0, "rental_uris": {"android": "https://dc.lft.to/lastmile_qr_scan", "ios": "https://dc.lft.to/lastmile_qr_scan"}, "fusion_lon": 0.0}, {"lat": 38.905156833333336, "is_disabled": 0, "type": "electric_scooter", "lon": -77.04742516666667, "bike_id": "34913797139828aff80419e547dc5b95", "fusion_lat": 0.0, "name": "34913797139828aff80419e547dc5b95", "is_reserved": 0, "rental_uris": {"android": "https://dc.lft.to/lastmile_qr_scan", "ios": "https://dc.lft.to/lastmile_qr_scan"}, "fusion_lon": 0.0}, {"lat": 38.906796166666666, "is_disabled": 0, "type": "electric_scooter", "lon": -77.03664766666667, "bike_id": "c25b19340ebc11e6fcb87a6e0fe61161", "fusion_lat": 0.0, "name": "c25b19340ebc11e6fcb87a6e0fe61161", "is_reserved": 0, "rental_uris": {"android": "https://dc.lft.to/lastmile_qr_scan", "ios": "https://dc.lft.to/lastmile_qr_scan"}, "fusion_lon": 0.0}, {"lat": 38.91290716666666, "is_disabled": 0, "type": "electric_scooter", "lon": -77.03188, "bike_id": "12574390935dff88cad63ff63482a39a", "fusion_lat": 0.0, "name": "12574390935dff88cad63ff63482a39a", "is_reserved": 0, "rental_uris": {"android": "https://dc.lft.to/lastmile_qr_scan", "ios": "https://dc.lft.to/lastmile_qr_scan"}, "fusion_lon": 0.0}, {"lat": 38.876683666666665, "is_disabled": 0, "type": "electric_bike", "lon": -77.01454533333333, "bike_id": "c59355d7695bd8e4c12ce02103c66c04", "fusion_lat": 0.0, "name": "c59355d7695bd8e4c12ce02103c66c04", "is_reserved": 0, "rental_uris": {"android": "https://dc.lft.to/lastmile_qr_scan", "ios": "https://dc.lft.to/lastmile_qr_scan"}, "fusion_lon": 0.0}, {"lat": 38.923756, "is_disabled": 0, "type": "electric_scooter", "lon": -77.03547133333333, "bike_id": "ef878560f13a5c977acf2d5cfd403552", "fusion_lat": 0.0, "name": "ef878560f13a5c977acf2d5cfd403552", "is_reserved": 0, "rental_uris": {"android": "https://dc.lft.to/lastmile_qr_scan", "ios": "https://dc.lft.to/lastmile_qr_scan"}, "fusion_lon": 0.0}, {"lat": 38.930897, "is_disabled": 0, "type": "electric_scooter", "lon": -77.03769316666667, "bike_id": "8762d3c856028b9b1689b42473fd14f2", "fusion_lat": 0.0, "name": "8762d3c856028b9b1689b42473fd14f2", "is_reserved": 0, "rental_uris": {"android": "https://dc.lft.to/lastmile_qr_scan", "ios": "https://dc.lft.to/lastmile_qr_scan"}, "fusion_lon": 0.0}, {"lat": 38.86284583333333, "is_disabled": 0, "type": "electric_scooter", "lon": -76.99238766666667, "bike_id": "4410caa320229ff0a98d2033bb81cdd8", "fusion_lat": 0.0, "name": "4410caa320229ff0a98d2033bb81cdd8", "is_reserved": 0, "rental_uris": {"android": "https://dc.lft.to/lastmile_qr_scan", "ios": "https://dc.lft.to/lastmile_qr_scan"}, "fusion_lon": 0.0}, {"lat": 38.93085, "is_disabled": 0, "type": "electric_scooter", "lon": -77.02797033333333, "bike_id": "f92e7bd4481f39d3d106cf3dc9aed57f", "fusion_lat": 0.0, "name": "f92e7bd4481f39d3d106cf3dc9aed57f", "is_reserved": 0, "rental_uris": {"android": "https://dc.lft.to/lastmile_qr_scan", "ios": "https://dc.lft.to/lastmile_qr_scan"}, "fusion_lon": 0.0}, {"lat": 38.921736333333335, "is_disabled": 0, "type": "electric_scooter", "lon": -77.03830033333334, "bike_id": "63b660f507ad41e74e18a1bb9ba850b4", "fusion_lat": 0.0, "name": "63b660f507ad41e74e18a1bb9ba850b4", "is_reserved": 0, "rental_uris": {"android": "https://dc.lft.to/lastmile_qr_scan", "ios": "https://dc.lft.to/lastmile_qr_scan"}, "fusion_lon": 0.0}, {"lat": 38.90866533333333, "is_disabled": 0, "type": "electric_scooter", "lon": -77.04089083333334, "bike_id": "3fbab76cbdc27fc406b8afbc56cafb29", "fusion_lat": 0.0, "name": "3fbab76cbdc27fc406b8afbc56cafb29", "is_reserved": 0, "rental_uris": {"android": "https://dc.lft.to/lastmile_qr_scan", "ios": "https://dc.lft.to/lastmile_qr_scan"}, "fusion_lon": 0.0}, {"lat": 38.914862, "is_disabled": 0, "type": "electric_scooter", "lon": -77.04087383333334, "bike_id": "337a5191ceca983299cec11a34f18d0e", "fusion_lat": 0.0, "name": "337a5191ceca983299cec11a34f18d0e", "is_reserved": 0, "rental_uris": {"android": "https://dc.lft.to/lastmile_qr_scan", "ios": "https://dc.lft.to/lastmile_qr_scan"}, "fusion_lon": 0.0}, {"lat": 38.85523666666667, "is_disabled": 0, "type": "electric_bike", "lon": -76.98429966666667, "bike_id": "61439f042e4af9242a5e6a237853c558", "fusion_lat": 0.0, "name": "61439f042e4af9242a5e6a237853c558", "is_reserved": 0, "rental_uris": {"android": "https://dc.lft.to/lastmile_qr_scan", "ios": "https://dc.lft.to/lastmile_qr_scan"}, "fusion_lon": 0.0}, {"lat": 38.92402083333333, "is_disabled": 0, "type": "electric_scooter", "lon": -77.02698116666667, "bike_id": "34131a9fffeca640a484183d5284a696", "fusion_lat": 0.0, "name": "34131a9fffeca640a484183d5284a696", "is_reserved": 0, "rental_uris": {"android": "https://dc.lft.to/lastmile_qr_scan", "ios": "https://dc.lft.to/lastmile_qr_scan"}, "fusion_lon": 0.0}, {"lat": 38.884334833333334, "is_disabled": 0, "type": "electric_scooter", "lon": -76.9575945, "bike_id": "72f117a1101599e9abb1f53e3a73693d", "fusion_lat": 0.0, "name": "72f117a1101599e9abb1f53e3a73693d", "is_reserved": 0, "rental_uris": {"android": "https://dc.lft.to/lastmile_qr_scan", "ios": "https://dc.lft.to/lastmile_qr_scan"}, "fusion_lon": 0.0}, {"lat": 38.897782166666666, "is_disabled": 0, "type": "electric_scooter", "lon": -77.03206383333334, "bike_id": "d556907b06b68b784962bece5cb776df", "fusion_lat": 0.0, "name": "d556907b06b68b784962bece5cb776df", "is_reserved": 0, "rental_uris": {"android": "https://dc.lft.to/lastmile_qr_scan", "ios": "https://dc.lft.to/lastmile_qr_scan"}, "fusion_lon": 0.0}, {"lat": 38.890541999999996, "is_disabled": 0, "type": "electric_scooter", "lon": -76.937442, "bike_id": "4511856adf6a2735f17f454343ae9031", "fusion_lat": 0.0, "name": "4511856adf6a2735f17f454343ae9031", "is_reserved": 0, "rental_uris": {"android": "https://dc.lft.to/lastmile_qr_scan", "ios": "https://dc.lft.to/lastmile_qr_scan"}, "fusion_lon": 0.0}, {"lat": 38.89756633333333, "is_disabled": 0, "type": "electric_scooter", "lon": -76.941871, "bike_id": "dd21daf4f1f6f1152413290185693a59", "fusion_lat": 0.0, "name": "dd21daf4f1f6f1152413290185693a59", "is_reserved": 0, "rental_uris": {"android": "https://dc.lft.to/lastmile_qr_scan", "ios": "https://dc.lft.to/lastmile_qr_scan"}, "fusion_lon": 0.0}, {"lat": 38.90859483333333, "is_disabled": 0, "type": "electric_scooter", "lon": -77.04633516666667, "bike_id": "3cd08cf22eeca9f0069c30785513493b", "fusion_lat": 0.0, "name": "3cd08cf22eeca9f0069c30785513493b", "is_reserved": 0, "rental_uris": {"android": "https://dc.lft.to/lastmile_qr_scan", "ios": "https://dc.lft.to/lastmile_qr_scan"}, "fusion_lon": 0.0}, {"lat": 38.89608883333333, "is_disabled": 0, "type": "electric_scooter", "lon": -77.04498883333333, "bike_id": "d4363ee1cfcc9336075fc6296f37101f", "fusion_lat": 0.0, "name": "d4363ee1cfcc9336075fc6296f37101f", "is_reserved": 0, "rental_uris": {"android": "https://dc.lft.to/lastmile_qr_scan", "ios": "https://dc.lft.to/lastmile_qr_scan"}, "fusion_lon": 0.0}, {"lat": 38.91112116666667, "is_disabled": 0, "type": "electric_scooter", "lon": -77.03213466666666, "bike_id": "fc1b6a2e775a4847c72fa314f2a5a610", "fusion_lat": 0.0, "name": "fc1b6a2e775a4847c72fa314f2a5a610", "is_reserved": 0, "rental_uris": {"android": "https://dc.lft.to/lastmile_qr_scan", "ios": "https://dc.lft.to/lastmile_qr_scan"}, "fusion_lon": 0.0}, {"lat": 38.91177016666666, "is_disabled": 0, "type": "electric_scooter", "lon": -77.00651833333333, "bike_id": "066ccc85390f773f3b2f353a1a2cc1e8", "fusion_lat": 0.0, "name": "066ccc85390f773f3b2f353a1a2cc1e8", "is_reserved": 0, "rental_uris": {"android": "https://dc.lft.to/lastmile_qr_scan", "ios": "https://dc.lft.to/lastmile_qr_scan"}, "fusion_lon": 0.0}, {"lat": 38.92262066666667, "is_disabled": 0, "type": "electric_scooter", "lon": -77.04220066666667, "bike_id": "d04d4bea871c61d4679efa7007c5c260", "fusion_lat": 0.0, "name": "d04d4bea871c61d4679efa7007c5c260", "is_reserved": 0, "rental_uris": {"android": "https://dc.lft.to/lastmile_qr_scan", "ios": "https://dc.lft.to/lastmile_qr_scan"}, "fusion_lon": 0.0}, {"lat": 38.898164666666666, "is_disabled": 0, "type": "electric_scooter", "lon": -77.00913183333333, "bike_id": "988922e8e885739fe3296ecba105701a", "fusion_lat": 0.0, "name": "988922e8e885739fe3296ecba105701a", "is_reserved": 0, "rental_uris": {"android": "https://dc.lft.to/lastmile_qr_scan", "ios": "https://dc.lft.to/lastmile_qr_scan"}, "fusion_lon": 0.0}, {"lat": 38.87473583333333, "is_disabled": 0, "type": "electric_scooter", "lon": -77.009392, "bike_id": "81ae146d0d7e8a6d0a79251d2da43dd8", "fusion_lat": 0.0, "name": "81ae146d0d7e8a6d0a79251d2da43dd8", "is_reserved": 0, "rental_uris": {"android": "https://dc.lft.to/lastmile_qr_scan", "ios": "https://dc.lft.to/lastmile_qr_scan"}, "fusion_lon": 0.0}, {"lat": 38.90411433333333, "is_disabled": 0, "type": "electric_scooter", "lon": -76.97331166666666, "bike_id": "f4580501d2a6cb336358f0506c7cda4b", "fusion_lat": 0.0, "name": "f4580501d2a6cb336358f0506c7cda4b", "is_reserved": 0, "rental_uris": {"android": "https://dc.lft.to/lastmile_qr_scan", "ios": "https://dc.lft.to/lastmile_qr_scan"}, "fusion_lon": 0.0}, {"lat": 38.93410383333333, "is_disabled": 0, "type": "electric_bike", "lon": -77.02511933333334, "bike_id": "b808ac01c5b55046a427418564bf5a3f", "fusion_lat": 0.0, "name": "b808ac01c5b55046a427418564bf5a3f", "is_reserved": 0, "rental_uris": {"android": "https://dc.lft.to/lastmile_qr_scan", "ios": "https://dc.lft.to/lastmile_qr_scan"}, "fusion_lon": 0.0}, {"lat": 38.87468, "is_disabled": 0, "type": "electric_scooter", "lon": -77.00550633333333, "bike_id": "2fc77fe7d6c7b5137f880b4be728321b", "fusion_lat": 0.0, "name": "2fc77fe7d6c7b5137f880b4be728321b", "is_reserved": 0, "rental_uris": {"android": "https://dc.lft.to/lastmile_qr_scan", "ios": "https://dc.lft.to/lastmile_qr_scan"}, "fusion_lon": 0.0}, {"lat": 38.9202375, "is_disabled": 0, "type": "electric_scooter", "lon": -77.042025, "bike_id": "cc3d1f0c0b77c9c43930a26292050c78", "fusion_lat": 0.0, "name": "cc3d1f0c0b77c9c43930a26292050c78", "is_reserved": 0, "rental_uris": {"android": "https://dc.lft.to/lastmile_qr_scan", "ios": "https://dc.lft.to/lastmile_qr_scan"}, "fusion_lon": 0.0}, {"lat": 38.88173033333333, "is_disabled": 0, "type": "electric_scooter", "lon": -76.994973, "bike_id": "a5e89f322ee43202b827338e51b63f06", "fusion_lat": 0.0, "name": "a5e89f322ee43202b827338e51b63f06", "is_reserved": 0, "rental_uris": {"android": "https://dc.lft.to/lastmile_qr_scan", "ios": "https://dc.lft.to/lastmile_qr_scan"}, "fusion_lon": 0.0}, {"lat": 38.90019816666667, "is_disabled": 0, "type": "electric_scooter", "lon": -76.986388, "bike_id": "2d62ac3e67fb5f852670738f9900ba53", "fusion_lat": 0.0, "name": "2d62ac3e67fb5f852670738f9900ba53", "is_reserved": 0, "rental_uris": {"android": "https://dc.lft.to/lastmile_qr_scan", "ios": "https://dc.lft.to/lastmile_qr_scan"}, "fusion_lon": 0.0}, {"lat": 38.900388666666665, "is_disabled": 0, "type": "electric_scooter", "lon": -77.043352, "bike_id": "f82502a0c6185a0e0f55e5e481e47bfc", "fusion_lat": 0.0, "name": "f82502a0c6185a0e0f55e5e481e47bfc", "is_reserved": 0, "rental_uris": {"android": "https://dc.lft.to/lastmile_qr_scan", "ios": "https://dc.lft.to/lastmile_qr_scan"}, "fusion_lon": 0.0}, {"lat": 38.914130666666665, "is_disabled": 0, "type": "electric_scooter", "lon": -77.01288916666667, "bike_id": "f0d0fa42111dbf72f54d2608e044673d", "fusion_lat": 0.0, "name": "f0d0fa42111dbf72f54d2608e044673d", "is_reserved": 0, "rental_uris": {"android": "https://dc.lft.to/lastmile_qr_scan", "ios": "https://dc.lft.to/lastmile_qr_scan"}, "fusion_lon": 0.0}, {"lat": 38.90419583333333, "is_disabled": 0, "type": "electric_scooter", "lon": -76.990738, "bike_id": "24cf97b45a596d7f31bd9724178c8850", "fusion_lat": 0.0, "name": "24cf97b45a596d7f31bd9724178c8850", "is_reserved": 0, "rental_uris": {"android": "https://dc.lft.to/lastmile_qr_scan", "ios": "https://dc.lft.to/lastmile_qr_scan"}, "fusion_lon": 0.0}, {"lat": 38.960214, "is_disabled": 0, "type": "electric_scooter", "lon": -77.0282825, "bike_id": "44062291dfc5df5b3d8965431c6ac13b", "fusion_lat": 0.0, "name": "44062291dfc5df5b3d8965431c6ac13b", "is_reserved": 0, "rental_uris": {"android": "https://dc.lft.to/lastmile_qr_scan", "ios": "https://dc.lft.to/lastmile_qr_scan"}, "fusion_lon": 0.0}, {"lat": 38.902393833333335, "is_disabled": 0, "type": "electric_scooter", "lon": -77.06307366666667, "bike_id": "282cb380c9ad9d30aaefa5f3e756e36a", "fusion_lat": 0.0, "name": "282cb380c9ad9d30aaefa5f3e756e36a", "is_reserved": 0, "rental_uris": {"android": "https://dc.lft.to/lastmile_qr_scan", "ios": "https://dc.lft.to/lastmile_qr_scan"}, "fusion_lon": 0.0}, {"lat": 38.914649833333335, "is_disabled": 0, "type": "electric_scooter", "lon": -77.031867, "bike_id": "f897d23e37bffbf9aabf31a13b767a0f", "fusion_lat": 0.0, "name": "f897d23e37bffbf9aabf31a13b767a0f", "is_reserved": 0, "rental_uris": {"android": "https://dc.lft.to/lastmile_qr_scan", "ios": "https://dc.lft.to/lastmile_qr_scan"}, "fusion_lon": 0.0}, {"lat": 38.8927965, "is_disabled": 0, "type": "electric_scooter", "lon": -76.94238766666666, "bike_id": "cb8c53519a95c3dd913be38499b307e7", "fusion_lat": 0.0, "name": "cb8c53519a95c3dd913be38499b307e7", "is_reserved": 0, "rental_uris": {"android": "https://dc.lft.to/lastmile_qr_scan", "ios": "https://dc.lft.to/lastmile_qr_scan"}, "fusion_lon": 0.0}, {"lat": 38.89490983333334, "is_disabled": 0, "type": "electric_scooter", "lon": -77.0025815, "bike_id": "df14337de8fad4b9846bc6298e6d53ee", "fusion_lat": 0.0, "name": "df14337de8fad4b9846bc6298e6d53ee", "is_reserved": 0, "rental_uris": {"android": "https://dc.lft.to/lastmile_qr_scan", "ios": "https://dc.lft.to/lastmile_qr_scan"}, "fusion_lon": 0.0}, {"lat": 38.901412666666666, "is_disabled": 0, "type": "electric_scooter", "lon": -76.9805945, "bike_id": "daf6df4fd4e02280018d240f8b226add", "fusion_lat": 0.0, "name": "daf6df4fd4e02280018d240f8b226add", "is_reserved": 0, "rental_uris": {"android": "https://dc.lft.to/lastmile_qr_scan", "ios": "https://dc.lft.to/lastmile_qr_scan"}, "fusion_lon": 0.0}, {"lat": 38.910630833333336, "is_disabled": 0, "type": "electric_scooter", "lon": -77.05472466666667, "bike_id": "19a0581670bf22b60b05fd51c8b70a99", "fusion_lat": 0.0, "name": "19a0581670bf22b60b05fd51c8b70a99", "is_reserved": 0, "rental_uris": {"android": "https://dc.lft.to/lastmile_qr_scan", "ios": "https://dc.lft.to/lastmile_qr_scan"}, "fusion_lon": 0.0}, {"lat": 38.907178, "is_disabled": 0, "type": "electric_scooter", "lon": -77.03427666666667, "bike_id": "354a5362e47d2de9d13ed1e41fd30ea5", "fusion_lat": 0.0, "name": "354a5362e47d2de9d13ed1e41fd30ea5", "is_reserved": 0, "rental_uris": {"android": "https://dc.lft.to/lastmile_qr_scan", "ios": "https://dc.lft.to/lastmile_qr_scan"}, "fusion_lon": 0.0}, {"lat": 38.8650675, "is_disabled": 0, "type": "electric_scooter", "lon": -76.97422983333334, "bike_id": "2b9fcae888e4c9039f24b05f9cdef4ca", "fusion_lat": 0.0, "name": "2b9fcae888e4c9039f24b05f9cdef4ca", "is_reserved": 0, "rental_uris": {"android": "https://dc.lft.to/lastmile_qr_scan", "ios": "https://dc.lft.to/lastmile_qr_scan"}, "fusion_lon": 0.0}, {"lat": 38.90380366666667, "is_disabled": 0, "type": "electric_scooter", "lon": -77.0538335, "bike_id": "22d14893c26eeba84f9ca474c91c52d7", "fusion_lat": 0.0, "name": "22d14893c26eeba84f9ca474c91c52d7", "is_reserved": 0, "rental_uris": {"android": "https://dc.lft.to/lastmile_qr_scan", "ios": "https://dc.lft.to/lastmile_qr_scan"}, "fusion_lon": 0.0}, {"lat": 38.89222316666667, "is_disabled": 0, "type": "electric_scooter", "lon": -77.0479905, "bike_id": "864c84d0863ab30f6764d05f8958cbc7", "fusion_lat": 0.0, "name": "864c84d0863ab30f6764d05f8958cbc7", "is_reserved": 0, "rental_uris": {"android": "https://dc.lft.to/lastmile_qr_scan", "ios": "https://dc.lft.to/lastmile_qr_scan"}, "fusion_lon": 0.0}, {"lat": 38.917033, "is_disabled": 0, "type": "electric_scooter", "lon": -77.02659, "bike_id": "6802204da2f323ce864a6efd24282526", "fusion_lat": 0.0, "name": "6802204da2f323ce864a6efd24282526", "is_reserved": 0, "rental_uris": {"android": "https://dc.lft.to/lastmile_qr_scan", "ios": "https://dc.lft.to/lastmile_qr_scan"}, "fusion_lon": 0.0}, {"lat": 38.90963033333333, "is_disabled": 0, "type": "electric_scooter", "lon": -77.0314375, "bike_id": "8c08e4b3d546d27678f7679c4871ccc1", "fusion_lat": 0.0, "name": "8c08e4b3d546d27678f7679c4871ccc1", "is_reserved": 0, "rental_uris": {"android": "https://dc.lft.to/lastmile_qr_scan", "ios": "https://dc.lft.to/lastmile_qr_scan"}, "fusion_lon": 0.0}, {"lat": 38.916751166666664, "is_disabled": 0, "type": "electric_scooter", "lon": -77.02966466666666, "bike_id": "088215d50837713251d5e79a661958ca", "fusion_lat": 0.0, "name": "088215d50837713251d5e79a661958ca", "is_reserved": 0, "rental_uris": {"android": "https://dc.lft.to/lastmile_qr_scan", "ios": "https://dc.lft.to/lastmile_qr_scan"}, "fusion_lon": 0.0}, {"lat": 38.90068633333333, "is_disabled": 0, "type": "electric_scooter", "lon": -77.02592566666667, "bike_id": "128c5885c20213b0c957ac280ca0fe31", "fusion_lat": 0.0, "name": "128c5885c20213b0c957ac280ca0fe31", "is_reserved": 0, "rental_uris": {"android": "https://dc.lft.to/lastmile_qr_scan", "ios": "https://dc.lft.to/lastmile_qr_scan"}, "fusion_lon": 0.0}, {"lat": 38.91713716666667, "is_disabled": 0, "type": "electric_scooter", "lon": -77.03102366666667, "bike_id": "0a7fb57f2c0c446403fead47bde0cc2d", "fusion_lat": 0.0, "name": "0a7fb57f2c0c446403fead47bde0cc2d", "is_reserved": 0, "rental_uris": {"android": "https://dc.lft.to/lastmile_qr_scan", "ios": "https://dc.lft.to/lastmile_qr_scan"}, "fusion_lon": 0.0}, {"lat": 39.052057, "is_disabled": 0, "type": "electric_bike", "lon": -77.10910683333333, "bike_id": "ff22f7669077ea66d381aaa2395e9e84", "fusion_lat": 0.0, "name": "ff22f7669077ea66d381aaa2395e9e84", "is_reserved": 0, "rental_uris": {"android": "https://dc.lft.to/lastmile_qr_scan", "ios": "https://dc.lft.to/lastmile_qr_scan"}, "fusion_lon": 0.0}, {"lat": 38.90020533333333, "is_disabled": 0, "type": "electric_scooter", "lon": -77.0117935, "bike_id": "8e5d07eba120bd540485e942f00c9799", "fusion_lat": 0.0, "name": "8e5d07eba120bd540485e942f00c9799", "is_reserved": 0, "rental_uris": {"android": "https://dc.lft.to/lastmile_qr_scan", "ios": "https://dc.lft.to/lastmile_qr_scan"}, "fusion_lon": 0.0}, {"lat": 38.91694866666667, "is_disabled": 0, "type": "electric_bike", "lon": -77.04295516666667, "bike_id": "73e14f9c156485833d20982cd876147f", "fusion_lat": 0.0, "name": "73e14f9c156485833d20982cd876147f", "is_reserved": 0, "rental_uris": {"android": "https://dc.lft.to/lastmile_qr_scan", "ios": "https://dc.lft.to/lastmile_qr_scan"}, "fusion_lon": 0.0}, {"lat": 38.9334795, "is_disabled": 0, "type": "electric_scooter", "lon": -77.0586805, "bike_id": "0da91f15936fe1cbdf77edd033659be1", "fusion_lat": 0.0, "name": "0da91f15936fe1cbdf77edd033659be1", "is_reserved": 0, "rental_uris": {"android": "https://dc.lft.to/lastmile_qr_scan", "ios": "https://dc.lft.to/lastmile_qr_scan"}, "fusion_lon": 0.0}, {"lat": 38.93164816666667, "is_disabled": 0, "type": "electric_scooter", "lon": -77.03632466666667, "bike_id": "72f6a1dd63fd247df3683e628150c106", "fusion_lat": 0.0, "name": "72f6a1dd63fd247df3683e628150c106", "is_reserved": 0, "rental_uris": {"android": "https://dc.lft.to/lastmile_qr_scan", "ios": "https://dc.lft.to/lastmile_qr_scan"}, "fusion_lon": 0.0}, {"lat": 38.897385, "is_disabled": 0, "type": "electric_scooter", "lon": -77.0317505, "bike_id": "282f2054f32e19759d86f20ec24e1cc1", "fusion_lat": 0.0, "name": "282f2054f32e19759d86f20ec24e1cc1", "is_reserved": 0, "rental_uris": {"android": "https://dc.lft.to/lastmile_qr_scan", "ios": "https://dc.lft.to/lastmile_qr_scan"}, "fusion_lon": 0.0}, {"lat": 38.8986305, "is_disabled": 0, "type": "electric_scooter", "lon": -77.02858816666667, "bike_id": "ab170f88d36874c8e668a04ef084e5f1", "fusion_lat": 0.0, "name": "ab170f88d36874c8e668a04ef084e5f1", "is_reserved": 0, "rental_uris": {"android": "https://dc.lft.to/lastmile_qr_scan", "ios": "https://dc.lft.to/lastmile_qr_scan"}, "fusion_lon": 0.0}, {"lat": 38.92312416666667, "is_disabled": 0, "type": "electric_scooter", "lon": -77.03969166666667, "bike_id": "72ecbe282058a8233653933b59bfd489", "fusion_lat": 0.0, "name": "72ecbe282058a8233653933b59bfd489", "is_reserved": 0, "rental_uris": {"android": "https://dc.lft.to/lastmile_qr_scan", "ios": "https://dc.lft.to/lastmile_qr_scan"}, "fusion_lon": 0.0}, {"lat": 38.90555833333333, "is_disabled": 0, "type": "electric_scooter", "lon": -77.04475866666667, "bike_id": "052062cd518960f9414fc4f0f304e202", "fusion_lat": 0.0, "name": "052062cd518960f9414fc4f0f304e202", "is_reserved": 0, "rental_uris": {"android": "https://dc.lft.to/lastmile_qr_scan", "ios": "https://dc.lft.to/lastmile_qr_scan"}, "fusion_lon": 0.0}, {"lat": 38.91174516666667, "is_disabled": 0, "type": "electric_scooter", "lon": -77.03870066666667, "bike_id": "3c2e928ef8be4fb9fe024d3882300ede", "fusion_lat": 0.0, "name": "3c2e928ef8be4fb9fe024d3882300ede", "is_reserved": 0, "rental_uris": {"android": "https://dc.lft.to/lastmile_qr_scan", "ios": "https://dc.lft.to/lastmile_qr_scan"}, "fusion_lon": 0.0}, {"lat": 38.905708, "is_disabled": 0, "type": "electric_scooter", "lon": -76.98872866666666, "bike_id": "da161ed8f58edf80cb8bc69a3d501b25", "fusion_lat": 0.0, "name": "da161ed8f58edf80cb8bc69a3d501b25", "is_reserved": 0, "rental_uris": {"android": "https://dc.lft.to/lastmile_qr_scan", "ios": "https://dc.lft.to/lastmile_qr_scan"}, "fusion_lon": 0.0}, {"lat": 38.884341666666664, "is_disabled": 0, "type": "electric_scooter", "lon": -76.95758733333334, "bike_id": "f3ab2e47f2fa4be6aa1970e1d1cf3874", "fusion_lat": 0.0, "name": "f3ab2e47f2fa4be6aa1970e1d1cf3874", "is_reserved": 0, "rental_uris": {"android": "https://dc.lft.to/lastmile_qr_scan", "ios": "https://dc.lft.to/lastmile_qr_scan"}, "fusion_lon": 0.0}, {"lat": 38.861069666666666, "is_disabled": 0, "type": "electric_scooter", "lon": -76.9833675, "bike_id": "d218da6181be7d71db899bcbd6f1b48f", "fusion_lat": 0.0, "name": "d218da6181be7d71db899bcbd6f1b48f", "is_reserved": 0, "rental_uris": {"android": "https://dc.lft.to/lastmile_qr_scan", "ios": "https://dc.lft.to/lastmile_qr_scan"}, "fusion_lon": 0.0}, {"lat": 38.892219833333336, "is_disabled": 0, "type": "electric_scooter", "lon": -77.04865383333333, "bike_id": "f39d0a3330782d9c8cc86552f195da1c", "fusion_lat": 0.0, "name": "f39d0a3330782d9c8cc86552f195da1c", "is_reserved": 0, "rental_uris": {"android": "https://dc.lft.to/lastmile_qr_scan", "ios": "https://dc.lft.to/lastmile_qr_scan"}, "fusion_lon": 0.0}, {"lat": 38.93190516666667, "is_disabled": 0, "type": "electric_scooter", "lon": -77.0284265, "bike_id": "d5da28605a9d57531eb96a217df1fbf4", "fusion_lat": 0.0, "name": "d5da28605a9d57531eb96a217df1fbf4", "is_reserved": 0, "rental_uris": {"android": "https://dc.lft.to/lastmile_qr_scan", "ios": "https://dc.lft.to/lastmile_qr_scan"}, "fusion_lon": 0.0}, {"lat": 38.8886995, "is_disabled": 0, "type": "electric_bike", "lon": -77.04003233333333, "bike_id": "14960549057d528658d2c3c61cfd610f", "fusion_lat": 0.0, "name": "14960549057d528658d2c3c61cfd610f", "is_reserved": 0, "rental_uris": {"android": "https://dc.lft.to/lastmile_qr_scan", "ios": "https://dc.lft.to/lastmile_qr_scan"}, "fusion_lon": 0.0}, {"lat": 38.90063, "is_disabled": 0, "type": "electric_scooter", "lon": -76.9338665, "bike_id": "c1106732fbb7d77e7be45a99cf7a14c8", "fusion_lat": 0.0, "name": "c1106732fbb7d77e7be45a99cf7a14c8", "is_reserved": 0, "rental_uris": {"android": "https://dc.lft.to/lastmile_qr_scan", "ios": "https://dc.lft.to/lastmile_qr_scan"}, "fusion_lon": 0.0}, {"lat": 38.9074975, "is_disabled": 0, "type": "electric_scooter", "lon": -77.03209233333334, "bike_id": "d01bb745b45dfab9917371333ff81edc", "fusion_lat": 0.0, "name": "d01bb745b45dfab9917371333ff81edc", "is_reserved": 0, "rental_uris": {"android": "https://dc.lft.to/lastmile_qr_scan", "ios": "https://dc.lft.to/lastmile_qr_scan"}, "fusion_lon": 0.0}, {"lat": 38.916785, "is_disabled": 0, "type": "electric_scooter", "lon": -77.02970233333333, "bike_id": "f8cc88a2216379a5c637be1fe31cd6fe", "fusion_lat": 0.0, "name": "f8cc88a2216379a5c637be1fe31cd6fe", "is_reserved": 0, "rental_uris": {"android": "https://dc.lft.to/lastmile_qr_scan", "ios": "https://dc.lft.to/lastmile_qr_scan"}, "fusion_lon": 0.0}, {"lat": 39.010541, "is_disabled": 0, "type": "electric_bike", "lon": -76.91106666666667, "bike_id": "116fdee435df8f462f83a2a725940877", "fusion_lat": 0.0, "name": "116fdee435df8f462f83a2a725940877", "is_reserved": 0, "rental_uris": {"android": "https://dc.lft.to/lastmile_qr_scan", "ios": "https://dc.lft.to/lastmile_qr_scan"}, "fusion_lon": 0.0}, {"lat": 38.928695833333336, "is_disabled": 0, "type": "electric_scooter", "lon": -77.02729983333333, "bike_id": "eaa2f0b11598a29e5263467f7bdd405b", "fusion_lat": 0.0, "name": "eaa2f0b11598a29e5263467f7bdd405b", "is_reserved": 0, "rental_uris": {"android": "https://dc.lft.to/lastmile_qr_scan", "ios": "https://dc.lft.to/lastmile_qr_scan"}, "fusion_lon": 0.0}, {"lat": 38.919369, "is_disabled": 0, "type": "electric_scooter", "lon": -77.08134166666666, "bike_id": "9ba4f14658a8401bbf2c6f45009b62fe", "fusion_lat": 0.0, "name": "9ba4f14658a8401bbf2c6f45009b62fe", "is_reserved": 0, "rental_uris": {"android": "https://dc.lft.to/lastmile_qr_scan", "ios": "https://dc.lft.to/lastmile_qr_scan"}, "fusion_lon": 0.0}, {"lat": 38.80746766666667, "is_disabled": 0, "type": "electric_bike", "lon": -77.09431416666666, "bike_id": "1f5ed5de4030fea53eaca516ddf07d5e", "fusion_lat": 0.0, "name": "1f5ed5de4030fea53eaca516ddf07d5e", "is_reserved": 0, "rental_uris": {"android": "https://dc.lft.to/lastmile_qr_scan", "ios": "https://dc.lft.to/lastmile_qr_scan"}, "fusion_lon": 0.0}, {"lat": 38.934176, "is_disabled": 0, "type": "electric_scooter", "lon": -77.04412183333334, "bike_id": "6d3ca433ccab275637fcb4ebfe0c1300", "fusion_lat": 0.0, "name": "6d3ca433ccab275637fcb4ebfe0c1300", "is_reserved": 0, "rental_uris": {"android": "https://dc.lft.to/lastmile_qr_scan", "ios": "https://dc.lft.to/lastmile_qr_scan"}, "fusion_lon": 0.0}, {"lat": 38.9317765, "is_disabled": 0, "type": "electric_scooter", "lon": -77.03152516666667, "bike_id": "e782195be1f3a811ce0e9b600459703e", "fusion_lat": 0.0, "name": "e782195be1f3a811ce0e9b600459703e", "is_reserved": 0, "rental_uris": {"android": "https://dc.lft.to/lastmile_qr_scan", "ios": "https://dc.lft.to/lastmile_qr_scan"}, "fusion_lon": 0.0}, {"lat": 38.92168983333333, "is_disabled": 0, "type": "electric_scooter", "lon": -77.038277, "bike_id": "a47207343bf5ad9dc7ff212d577a7955", "fusion_lat": 0.0, "name": "a47207343bf5ad9dc7ff212d577a7955", "is_reserved": 0, "rental_uris": {"android": "https://dc.lft.to/lastmile_qr_scan", "ios": "https://dc.lft.to/lastmile_qr_scan"}, "fusion_lon": 0.0}, {"lat": 38.93758566666666, "is_disabled": 0, "type": "electric_scooter", "lon": -77.03142716666666, "bike_id": "5c6057c56cb59da355ad5d05b415687d", "fusion_lat": 0.0, "name": "5c6057c56cb59da355ad5d05b415687d", "is_reserved": 0, "rental_uris": {"android": "https://dc.lft.to/lastmile_qr_scan", "ios": "https://dc.lft.to/lastmile_qr_scan"}, "fusion_lon": 0.0}, {"lat": 38.928534166666665, "is_disabled": 0, "type": "electric_bike", "lon": -77.10679316666666, "bike_id": "2c603917cb2dc0dfdcda750288f321af", "fusion_lat": 0.0, "name": "2c603917cb2dc0dfdcda750288f321af", "is_reserved": 0, "rental_uris": {"android": "https://dc.lft.to/lastmile_qr_scan", "ios": "https://dc.lft.to/lastmile_qr_scan"}, "fusion_lon": 0.0}, {"lat": 38.90953566666666, "is_disabled": 0, "type": "electric_scooter", "lon": -77.03665966666667, "bike_id": "2c63fcf556009bcdb2bbbca073987518", "fusion_lat": 0.0, "name": "2c63fcf556009bcdb2bbbca073987518", "is_reserved": 0, "rental_uris": {"android": "https://dc.lft.to/lastmile_qr_scan", "ios": "https://dc.lft.to/lastmile_qr_scan"}, "fusion_lon": 0.0}, {"lat": 38.92556916666667, "is_disabled": 0, "type": "electric_scooter", "lon": -77.03806666666667, "bike_id": "431c9a91bf5a6292641d5efb2ba60df2", "fusion_lat": 0.0, "name": "431c9a91bf5a6292641d5efb2ba60df2", "is_reserved": 0, "rental_uris": {"android": "https://dc.lft.to/lastmile_qr_scan", "ios": "https://dc.lft.to/lastmile_qr_scan"}, "fusion_lon": 0.0}, {"lat": 38.884593333333335, "is_disabled": 0, "type": "electric_scooter", "lon": -76.9262585, "bike_id": "ffd3c5c5e793574242a59463baa33aa6", "fusion_lat": 0.0, "name": "ffd3c5c5e793574242a59463baa33aa6", "is_reserved": 0, "rental_uris": {"android": "https://dc.lft.to/lastmile_qr_scan", "ios": "https://dc.lft.to/lastmile_qr_scan"}, "fusion_lon": 0.0}, {"lat": 38.925913, "is_disabled": 0, "type": "electric_scooter", "lon": -77.0322795, "bike_id": "cf925280061f0307d245fd4f4e7d033b", "fusion_lat": 0.0, "name": "cf925280061f0307d245fd4f4e7d033b", "is_reserved": 0, "rental_uris": {"android": "https://dc.lft.to/lastmile_qr_scan", "ios": "https://dc.lft.to/lastmile_qr_scan"}, "fusion_lon": 0.0}, {"lat": 38.948279166666666, "is_disabled": 0, "type": "electric_scooter", "lon": -77.02426183333333, "bike_id": "61d3705db697f27987ad069d24163094", "fusion_lat": 0.0, "name": "61d3705db697f27987ad069d24163094", "is_reserved": 0, "rental_uris": {"android": "https://dc.lft.to/lastmile_qr_scan", "ios": "https://dc.lft.to/lastmile_qr_scan"}, "fusion_lon": 0.0}, {"lat": 38.90266583333333, "is_disabled": 0, "type": "electric_scooter", "lon": -77.03440666666667, "bike_id": "c3e15c8e36beb25c7dcc2ab0ae9ccb06", "fusion_lat": 0.0, "name": "c3e15c8e36beb25c7dcc2ab0ae9ccb06", "is_reserved": 0, "rental_uris": {"android": "https://dc.lft.to/lastmile_qr_scan", "ios": "https://dc.lft.to/lastmile_qr_scan"}, "fusion_lon": 0.0}, {"lat": 38.90025133333333, "is_disabled": 0, "type": "electric_scooter", "lon": -76.99811066666666, "bike_id": "1171d237f4eb3475c0ab2b4c783f1564", "fusion_lat": 0.0, "name": "1171d237f4eb3475c0ab2b4c783f1564", "is_reserved": 0, "rental_uris": {"android": "https://dc.lft.to/lastmile_qr_scan", "ios": "https://dc.lft.to/lastmile_qr_scan"}, "fusion_lon": 0.0}, {"lat": 38.90878383333333, "is_disabled": 0, "type": "electric_scooter", "lon": -77.06442466666667, "bike_id": "9e45d2ab90a3751e51b2105bc4d57da4", "fusion_lat": 0.0, "name": "9e45d2ab90a3751e51b2105bc4d57da4", "is_reserved": 0, "rental_uris": {"android": "https://dc.lft.to/lastmile_qr_scan", "ios": "https://dc.lft.to/lastmile_qr_scan"}, "fusion_lon": 0.0}, {"lat": 38.919712833333335, "is_disabled": 0, "type": "electric_scooter", "lon": -77.041558, "bike_id": "dcc02b9e33b5c30356c6c359a1ffa797", "fusion_lat": 0.0, "name": "dcc02b9e33b5c30356c6c359a1ffa797", "is_reserved": 0, "rental_uris": {"android": "https://dc.lft.to/lastmile_qr_scan", "ios": "https://dc.lft.to/lastmile_qr_scan"}, "fusion_lon": 0.0}, {"lat": 38.906161166666664, "is_disabled": 0, "type": "electric_scooter", "lon": -77.06512666666667, "bike_id": "26fc2a523f3a3cef322538238a58c996", "fusion_lat": 0.0, "name": "26fc2a523f3a3cef322538238a58c996", "is_reserved": 0, "rental_uris": {"android": "https://dc.lft.to/lastmile_qr_scan", "ios": "https://dc.lft.to/lastmile_qr_scan"}, "fusion_lon": 0.0}, {"lat": 38.90718733333333, "is_disabled": 0, "type": "electric_scooter", "lon": -77.04906466666667, "bike_id": "1f9438cee317cde69e31682db1017069", "fusion_lat": 0.0, "name": "1f9438cee317cde69e31682db1017069", "is_reserved": 0, "rental_uris": {"android": "https://dc.lft.to/lastmile_qr_scan", "ios": "https://dc.lft.to/lastmile_qr_scan"}, "fusion_lon": 0.0}, {"lat": 38.89884983333334, "is_disabled": 0, "type": "electric_scooter", "lon": -76.93176083333333, "bike_id": "34a2453097545b6fb815ff326ba54ebd", "fusion_lat": 0.0, "name": "34a2453097545b6fb815ff326ba54ebd", "is_reserved": 0, "rental_uris": {"android": "https://dc.lft.to/lastmile_qr_scan", "ios": "https://dc.lft.to/lastmile_qr_scan"}, "fusion_lon": 0.0}, {"lat": 38.85051466666667, "is_disabled": 0, "type": "electric_bike", "lon": -76.97321083333334, "bike_id": "f2253258d67abeb4d56687ca4776ea09", "fusion_lat": 0.0, "name": "f2253258d67abeb4d56687ca4776ea09", "is_reserved": 0, "rental_uris": {"android": "https://dc.lft.to/lastmile_qr_scan", "ios": "https://dc.lft.to/lastmile_qr_scan"}, "fusion_lon": 0.0}, {"lat": 38.906277333333335, "is_disabled": 0, "type": "electric_scooter", "lon": -77.043441, "bike_id": "189be60fb256d80bbf38b177e57fb710", "fusion_lat": 0.0, "name": "189be60fb256d80bbf38b177e57fb710", "is_reserved": 0, "rental_uris": {"android": "https://dc.lft.to/lastmile_qr_scan", "ios": "https://dc.lft.to/lastmile_qr_scan"}, "fusion_lon": 0.0}, {"lat": 38.939856, "is_disabled": 0, "type": "electric_scooter", "lon": -77.07170316666667, "bike_id": "ef99ba200a2b1006627ed0c05e5f9832", "fusion_lat": 0.0, "name": "ef99ba200a2b1006627ed0c05e5f9832", "is_reserved": 0, "rental_uris": {"android": "https://dc.lft.to/lastmile_qr_scan", "ios": "https://dc.lft.to/lastmile_qr_scan"}, "fusion_lon": 0.0}, {"lat": 38.922451833333334, "is_disabled": 0, "type": "electric_scooter", "lon": -77.04572916666666, "bike_id": "8bf2a35afaf19752e3d3f8836beccfa8", "fusion_lat": 0.0, "name": "8bf2a35afaf19752e3d3f8836beccfa8", "is_reserved": 0, "rental_uris": {"android": "https://dc.lft.to/lastmile_qr_scan", "ios": "https://dc.lft.to/lastmile_qr_scan"}, "fusion_lon": 0.0}, {"lat": 38.905143833333334, "is_disabled": 0, "type": "electric_scooter", "lon": -77.06204533333333, "bike_id": "d7c4645e19ef352c82cc422022e66837", "fusion_lat": 0.0, "name": "d7c4645e19ef352c82cc422022e66837", "is_reserved": 0, "rental_uris": {"android": "https://dc.lft.to/lastmile_qr_scan", "ios": "https://dc.lft.to/lastmile_qr_scan"}, "fusion_lon": 0.0}, {"lat": 38.91115283333333, "is_disabled": 0, "type": "electric_scooter", "lon": -77.04372483333333, "bike_id": "f6229c7219badcde6edf132f1d96eae7", "fusion_lat": 0.0, "name": "f6229c7219badcde6edf132f1d96eae7", "is_reserved": 0, "rental_uris": {"android": "https://dc.lft.to/lastmile_qr_scan", "ios": "https://dc.lft.to/lastmile_qr_scan"}, "fusion_lon": 0.0}, {"lat": 38.91255233333333, "is_disabled": 0, "type": "electric_scooter", "lon": -77.00601616666667, "bike_id": "12835949d065e753150011fbf838317b", "fusion_lat": 0.0, "name": "12835949d065e753150011fbf838317b", "is_reserved": 0, "rental_uris": {"android": "https://dc.lft.to/lastmile_qr_scan", "ios": "https://dc.lft.to/lastmile_qr_scan"}, "fusion_lon": 0.0}, {"lat": 38.896026666666664, "is_disabled": 0, "type": "electric_scooter", "lon": -77.05441683333333, "bike_id": "60a83e4a1ab5579bdee37b96f82174b8", "fusion_lat": 0.0, "name": "60a83e4a1ab5579bdee37b96f82174b8", "is_reserved": 0, "rental_uris": {"android": "https://dc.lft.to/lastmile_qr_scan", "ios": "https://dc.lft.to/lastmile_qr_scan"}, "fusion_lon": 0.0}, {"lat": 38.905558166666665, "is_disabled": 0, "type": "electric_scooter", "lon": -77.04656033333333, "bike_id": "f879a985cf7eb047f45255edaf8e9b3b", "fusion_lat": 0.0, "name": "f879a985cf7eb047f45255edaf8e9b3b", "is_reserved": 0, "rental_uris": {"android": "https://dc.lft.to/lastmile_qr_scan", "ios": "https://dc.lft.to/lastmile_qr_scan"}, "fusion_lon": 0.0}, {"lat": 38.911344666666665, "is_disabled": 0, "type": "electric_scooter", "lon": -77.03215066666667, "bike_id": "d22cf8748568c2882a1abb205242f44d", "fusion_lat": 0.0, "name": "d22cf8748568c2882a1abb205242f44d", "is_reserved": 0, "rental_uris": {"android": "https://dc.lft.to/lastmile_qr_scan", "ios": "https://dc.lft.to/lastmile_qr_scan"}, "fusion_lon": 0.0}, {"lat": 38.912756, "is_disabled": 0, "type": "electric_scooter", "lon": -77.04509183333333, "bike_id": "c4a3a139f08df02c57d488726faf2c76", "fusion_lat": 0.0, "name": "c4a3a139f08df02c57d488726faf2c76", "is_reserved": 0, "rental_uris": {"android": "https://dc.lft.to/lastmile_qr_scan", "ios": "https://dc.lft.to/lastmile_qr_scan"}, "fusion_lon": 0.0}, {"lat": 38.94302016666666, "is_disabled": 0, "type": "electric_scooter", "lon": -77.05929383333333, "bike_id": "cd79f00abf44185ffec845fd05ebeb74", "fusion_lat": 0.0, "name": "cd79f00abf44185ffec845fd05ebeb74", "is_reserved": 0, "rental_uris": {"android": "https://dc.lft.to/lastmile_qr_scan", "ios": "https://dc.lft.to/lastmile_qr_scan"}, "fusion_lon": 0.0}, {"lat": 38.86390266666667, "is_disabled": 0, "type": "electric_scooter", "lon": -76.99249333333333, "bike_id": "d52bdd4c50ee9b34489ede4b97753288", "fusion_lat": 0.0, "name": "d52bdd4c50ee9b34489ede4b97753288", "is_reserved": 0, "rental_uris": {"android": "https://dc.lft.to/lastmile_qr_scan", "ios": "https://dc.lft.to/lastmile_qr_scan"}, "fusion_lon": 0.0}, {"lat": 38.92448816666667, "is_disabled": 0, "type": "electric_scooter", "lon": -77.02038216666666, "bike_id": "c606229ca97ea30aa77500206ec31fa8", "fusion_lat": 0.0, "name": "c606229ca97ea30aa77500206ec31fa8", "is_reserved": 0, "rental_uris": {"android": "https://dc.lft.to/lastmile_qr_scan", "ios": "https://dc.lft.to/lastmile_qr_scan"}, "fusion_lon": 0.0}, {"lat": 38.898683166666665, "is_disabled": 0, "type": "electric_scooter", "lon": -77.020032, "bike_id": "75e602eb642efaa4fcd8117727b09d16", "fusion_lat": 0.0, "name": "75e602eb642efaa4fcd8117727b09d16", "is_reserved": 0, "rental_uris": {"android": "https://dc.lft.to/lastmile_qr_scan", "ios": "https://dc.lft.to/lastmile_qr_scan"}, "fusion_lon": 0.0}, {"lat": 38.97862516666667, "is_disabled": 0, "type": "electric_bike", "lon": -77.02657, "bike_id": "5b86a7e56749cda62dbc5b3bea8bbb6a", "fusion_lat": 0.0, "name": "5b86a7e56749cda62dbc5b3bea8bbb6a", "is_reserved": 0, "rental_uris": {"android": "https://dc.lft.to/lastmile_qr_scan", "ios": "https://dc.lft.to/lastmile_qr_scan"}, "fusion_lon": 0.0}, {"lat": 38.922399, "is_disabled": 0, "type": "electric_bike", "lon": -77.0224125, "bike_id": "8c996b8568eaeca7fc1c520277112e3c", "fusion_lat": 0.0, "name": "8c996b8568eaeca7fc1c520277112e3c", "is_reserved": 0, "rental_uris": {"android": "https://dc.lft.to/lastmile_qr_scan", "ios": "https://dc.lft.to/lastmile_qr_scan"}, "fusion_lon": 0.0}, {"lat": 38.832388, "is_disabled": 0, "type": "electric_bike", "lon": -76.94630883333333, "bike_id": "35028767f064d2a8784baa67eb561c5e", "fusion_lat": 0.0, "name": "35028767f064d2a8784baa67eb561c5e", "is_reserved": 0, "rental_uris": {"android": "https://dc.lft.to/lastmile_qr_scan", "ios": "https://dc.lft.to/lastmile_qr_scan"}, "fusion_lon": 0.0}, {"lat": 38.97877066666667, "is_disabled": 0, "type": "electric_scooter", "lon": -77.02549233333333, "bike_id": "6a467dcf1dc231b39de4b7c2f6c0c372", "fusion_lat": 0.0, "name": "6a467dcf1dc231b39de4b7c2f6c0c372", "is_reserved": 0, "rental_uris": {"android": "https://dc.lft.to/lastmile_qr_scan", "ios": "https://dc.lft.to/lastmile_qr_scan"}, "fusion_lon": 0.0}, {"lat": 38.837255166666665, "is_disabled": 0, "type": "electric_bike", "lon": -76.99762066666666, "bike_id": "6aa113227ae7c0a225f93b4784680fc1", "fusion_lat": 0.0, "name": "6aa113227ae7c0a225f93b4784680fc1", "is_reserved": 0, "rental_uris": {"android": "https://dc.lft.to/lastmile_qr_scan", "ios": "https://dc.lft.to/lastmile_qr_scan"}, "fusion_lon": 0.0}, {"lat": 38.95388916666667, "is_disabled": 0, "type": "electric_bike", "lon": -76.98022066666667, "bike_id": "aae4a5c5120b7fa5457a861acbfbec76", "fusion_lat": 0.0, "name": "aae4a5c5120b7fa5457a861acbfbec76", "is_reserved": 0, "rental_uris": {"android": "https://dc.lft.to/lastmile_qr_scan", "ios": "https://dc.lft.to/lastmile_qr_scan"}, "fusion_lon": 0.0}, {"lat": 38.888173333333334, "is_disabled": 0, "type": "electric_scooter", "lon": -77.0020965, "bike_id": "70246a7dc6388a807a3248e01e2a245c", "fusion_lat": 0.0, "name": "70246a7dc6388a807a3248e01e2a245c", "is_reserved": 0, "rental_uris": {"android": "https://dc.lft.to/lastmile_qr_scan", "ios": "https://dc.lft.to/lastmile_qr_scan"}, "fusion_lon": 0.0}, {"lat": 38.889948833333335, "is_disabled": 0, "type": "electric_scooter", "lon": -76.95570283333333, "bike_id": "8ca32ada7081f866778f708f9fc17f32", "fusion_lat": 0.0, "name": "8ca32ada7081f866778f708f9fc17f32", "is_reserved": 0, "rental_uris": {"android": "https://dc.lft.to/lastmile_qr_scan", "ios": "https://dc.lft.to/lastmile_qr_scan"}, "fusion_lon": 0.0}, {"lat": 38.9069095, "is_disabled": 0, "type": "electric_scooter", "lon": -77.07194433333333, "bike_id": "ed8089b684c28918dee56311a2b62e36", "fusion_lat": 0.0, "name": "ed8089b684c28918dee56311a2b62e36", "is_reserved": 0, "rental_uris": {"android": "https://dc.lft.to/lastmile_qr_scan", "ios": "https://dc.lft.to/lastmile_qr_scan"}, "fusion_lon": 0.0}, {"lat": 38.885366833333336, "is_disabled": 0, "type": "electric_scooter", "lon": -76.99831833333333, "bike_id": "595ddebad482b9968d1b83e645c5f0ad", "fusion_lat": 0.0, "name": "595ddebad482b9968d1b83e645c5f0ad", "is_reserved": 0, "rental_uris": {"android": "https://dc.lft.to/lastmile_qr_scan", "ios": "https://dc.lft.to/lastmile_qr_scan"}, "fusion_lon": 0.0}, {"lat": 38.911164166666666, "is_disabled": 0, "type": "electric_scooter", "lon": -77.04479383333333, "bike_id": "3dff8b9588e7ee0868054b09f16da2c5", "fusion_lat": 0.0, "name": "3dff8b9588e7ee0868054b09f16da2c5", "is_reserved": 0, "rental_uris": {"android": "https://dc.lft.to/lastmile_qr_scan", "ios": "https://dc.lft.to/lastmile_qr_scan"}, "fusion_lon": 0.0}, {"lat": 38.92580483333333, "is_disabled": 0, "type": "electric_scooter", "lon": -77.03362466666667, "bike_id": "31fc1339bc86549c9654c9706e9cde28", "fusion_lat": 0.0, "name": "31fc1339bc86549c9654c9706e9cde28", "is_reserved": 0, "rental_uris": {"android": "https://dc.lft.to/lastmile_qr_scan", "ios": "https://dc.lft.to/lastmile_qr_scan"}, "fusion_lon": 0.0}, {"lat": 38.85518616666667, "is_disabled": 0, "type": "electric_bike", "lon": -76.98438783333333, "bike_id": "1fba486b19af1fae99f49cbcae9930e2", "fusion_lat": 0.0, "name": "1fba486b19af1fae99f49cbcae9930e2", "is_reserved": 0, "rental_uris": {"android": "https://dc.lft.to/lastmile_qr_scan", "ios": "https://dc.lft.to/lastmile_qr_scan"}, "fusion_lon": 0.0}, {"lat": 38.93273683333334, "is_disabled": 0, "type": "electric_scooter", "lon": -77.03944416666667, "bike_id": "367610721c404139fd0a17c20d68094d", "fusion_lat": 0.0, "name": "367610721c404139fd0a17c20d68094d", "is_reserved": 0, "rental_uris": {"android": "https://dc.lft.to/lastmile_qr_scan", "ios": "https://dc.lft.to/lastmile_qr_scan"}, "fusion_lon": 0.0}, {"lat": 38.91090116666667, "is_disabled": 0, "type": "electric_scooter", "lon": -77.04673666666666, "bike_id": "ab2f12c4fccd395e4a06d20baedec7f1", "fusion_lat": 0.0, "name": "ab2f12c4fccd395e4a06d20baedec7f1", "is_reserved": 0, "rental_uris": {"android": "https://dc.lft.to/lastmile_qr_scan", "ios": "https://dc.lft.to/lastmile_qr_scan"}, "fusion_lon": 0.0}, {"lat": 38.89741433333333, "is_disabled": 0, "type": "electric_scooter", "lon": -77.04604166666667, "bike_id": "a6f057498a9b425ef0ffc8eed364a52a", "fusion_lat": 0.0, "name": "a6f057498a9b425ef0ffc8eed364a52a", "is_reserved": 0, "rental_uris": {"android": "https://dc.lft.to/lastmile_qr_scan", "ios": "https://dc.lft.to/lastmile_qr_scan"}, "fusion_lon": 0.0}, {"lat": 38.865624333333336, "is_disabled": 0, "type": "electric_scooter", "lon": -76.98949, "bike_id": "07bf8d010cd9e496b97bd00bea641ee1", "fusion_lat": 0.0, "name": "07bf8d010cd9e496b97bd00bea641ee1", "is_reserved": 0, "rental_uris": {"android": "https://dc.lft.to/lastmile_qr_scan", "ios": "https://dc.lft.to/lastmile_qr_scan"}, "fusion_lon": 0.0}, {"lat": 38.88732616666667, "is_disabled": 0, "type": "electric_scooter", "lon": -77.03217216666667, "bike_id": "2b6bc31299faabb5071f99ab95799687", "fusion_lat": 0.0, "name": "2b6bc31299faabb5071f99ab95799687", "is_reserved": 0, "rental_uris": {"android": "https://dc.lft.to/lastmile_qr_scan", "ios": "https://dc.lft.to/lastmile_qr_scan"}, "fusion_lon": 0.0}, {"lat": 38.90916466666667, "is_disabled": 0, "type": "electric_scooter", "lon": -77.03650516666667, "bike_id": "079ff60d19455fc80031dd17db14da1a", "fusion_lat": 0.0, "name": "079ff60d19455fc80031dd17db14da1a", "is_reserved": 0, "rental_uris": {"android": "https://dc.lft.to/lastmile_qr_scan", "ios": "https://dc.lft.to/lastmile_qr_scan"}, "fusion_lon": 0.0}, {"lat": 38.9175435, "is_disabled": 0, "type": "electric_scooter", "lon": -77.03190533333333, "bike_id": "455b2507696bcdeb30de666c65b5af61", "fusion_lat": 0.0, "name": "455b2507696bcdeb30de666c65b5af61", "is_reserved": 0, "rental_uris": {"android": "https://dc.lft.to/lastmile_qr_scan", "ios": "https://dc.lft.to/lastmile_qr_scan"}, "fusion_lon": 0.0}, {"lat": 38.948325, "is_disabled": 0, "type": "electric_scooter", "lon": -77.02557283333333, "bike_id": "dea6d9b562af83a47a96a777731a49f8", "fusion_lat": 0.0, "name": "dea6d9b562af83a47a96a777731a49f8", "is_reserved": 0, "rental_uris": {"android": "https://dc.lft.to/lastmile_qr_scan", "ios": "https://dc.lft.to/lastmile_qr_scan"}, "fusion_lon": 0.0}, {"lat": 38.88610416666667, "is_disabled": 0, "type": "electric_scooter", "lon": -76.98369766666667, "bike_id": "d3a96e8a27bb3f41917cdcaf498d4b41", "fusion_lat": 0.0, "name": "d3a96e8a27bb3f41917cdcaf498d4b41", "is_reserved": 0, "rental_uris": {"android": "https://dc.lft.to/lastmile_qr_scan", "ios": "https://dc.lft.to/lastmile_qr_scan"}, "fusion_lon": 0.0}, {"lat": 38.95616533333333, "is_disabled": 0, "type": "electric_scooter", "lon": -77.02784, "bike_id": "3ae286fa21c3c9af6a76c64bb9054210", "fusion_lat": 0.0, "name": "3ae286fa21c3c9af6a76c64bb9054210", "is_reserved": 0, "rental_uris": {"android": "https://dc.lft.to/lastmile_qr_scan", "ios": "https://dc.lft.to/lastmile_qr_scan"}, "fusion_lon": 0.0}, {"lat": 38.88748866666667, "is_disabled": 0, "type": "electric_scooter", "lon": -77.02174683333334, "bike_id": "abae575550e30de64e5f24736ccd5463", "fusion_lat": 0.0, "name": "abae575550e30de64e5f24736ccd5463", "is_reserved": 0, "rental_uris": {"android": "https://dc.lft.to/lastmile_qr_scan", "ios": "https://dc.lft.to/lastmile_qr_scan"}, "fusion_lon": 0.0}, {"lat": 38.88438083333333, "is_disabled": 0, "type": "electric_scooter", "lon": -77.03042633333334, "bike_id": "352b0463e5196d34d991e1ae1ef1e725", "fusion_lat": 0.0, "name": "352b0463e5196d34d991e1ae1ef1e725", "is_reserved": 0, "rental_uris": {"android": "https://dc.lft.to/lastmile_qr_scan", "ios": "https://dc.lft.to/lastmile_qr_scan"}, "fusion_lon": 0.0}, {"lat": 38.903487166666665, "is_disabled": 0, "type": "electric_scooter", "lon": -77.06580683333334, "bike_id": "e3b4e377622783921b7a082c4429cbab", "fusion_lat": 0.0, "name": "e3b4e377622783921b7a082c4429cbab", "is_reserved": 0, "rental_uris": {"android": "https://dc.lft.to/lastmile_qr_scan", "ios": "https://dc.lft.to/lastmile_qr_scan"}, "fusion_lon": 0.0}, {"lat": 38.87661133333334, "is_disabled": 0, "type": "electric_scooter", "lon": -77.0058255, "bike_id": "cbaecc434175e4d973d2923cea5edcbf", "fusion_lat": 0.0, "name": "cbaecc434175e4d973d2923cea5edcbf", "is_reserved": 0, "rental_uris": {"android": "https://dc.lft.to/lastmile_qr_scan", "ios": "https://dc.lft.to/lastmile_qr_scan"}, "fusion_lon": 0.0}, {"lat": 38.930022, "is_disabled": 0, "type": "electric_scooter", "lon": -77.03251733333333, "bike_id": "b5c70d898278bb25aa0c65d3a1cee95c", "fusion_lat": 0.0, "name": "b5c70d898278bb25aa0c65d3a1cee95c", "is_reserved": 0, "rental_uris": {"android": "https://dc.lft.to/lastmile_qr_scan", "ios": "https://dc.lft.to/lastmile_qr_scan"}, "fusion_lon": 0.0}, {"lat": 38.9055865, "is_disabled": 0, "type": "electric_scooter", "lon": -77.05696416666666, "bike_id": "f3ed0dcdaae2b018d2e6e9029773c31f", "fusion_lat": 0.0, "name": "f3ed0dcdaae2b018d2e6e9029773c31f", "is_reserved": 0, "rental_uris": {"android": "https://dc.lft.to/lastmile_qr_scan", "ios": "https://dc.lft.to/lastmile_qr_scan"}, "fusion_lon": 0.0}, {"lat": 38.87883733333334, "is_disabled": 0, "type": "electric_scooter", "lon": -77.02243716666666, "bike_id": "92ad011d162a9e872a972e4bd769a978", "fusion_lat": 0.0, "name": "92ad011d162a9e872a972e4bd769a978", "is_reserved": 0, "rental_uris": {"android": "https://dc.lft.to/lastmile_qr_scan", "ios": "https://dc.lft.to/lastmile_qr_scan"}, "fusion_lon": 0.0}, {"lat": 38.90536733333333, "is_disabled": 0, "type": "electric_scooter", "lon": -77.05703283333334, "bike_id": "2b857f8cb1cb0f09b91d30f106267703", "fusion_lat": 0.0, "name": "2b857f8cb1cb0f09b91d30f106267703", "is_reserved": 0, "rental_uris": {"android": "https://dc.lft.to/lastmile_qr_scan", "ios": "https://dc.lft.to/lastmile_qr_scan"}, "fusion_lon": 0.0}, {"lat": 38.905316, "is_disabled": 0, "type": "electric_scooter", "lon": -76.996358, "bike_id": "6f2008a88f7461d8995a3c7b5ec39112", "fusion_lat": 0.0, "name": "6f2008a88f7461d8995a3c7b5ec39112", "is_reserved": 0, "rental_uris": {"android": "https://dc.lft.to/lastmile_qr_scan", "ios": "https://dc.lft.to/lastmile_qr_scan"}, "fusion_lon": 0.0}, {"lat": 38.9595615, "is_disabled": 0, "type": "electric_bike", "lon": -77.10092416666667, "bike_id": "b78a95e931c53e1a7fc0168b9e8fc73e", "fusion_lat": 0.0, "name": "b78a95e931c53e1a7fc0168b9e8fc73e", "is_reserved": 0, "rental_uris": {"android": "https://dc.lft.to/lastmile_qr_scan", "ios": "https://dc.lft.to/lastmile_qr_scan"}, "fusion_lon": 0.0}, {"lat": 38.91836633333333, "is_disabled": 0, "type": "electric_scooter", "lon": -77.0318495, "bike_id": "dde560b10b218dac72878d8970c2260b", "fusion_lat": 0.0, "name": "dde560b10b218dac72878d8970c2260b", "is_reserved": 0, "rental_uris": {"android": "https://dc.lft.to/lastmile_qr_scan", "ios": "https://dc.lft.to/lastmile_qr_scan"}, "fusion_lon": 0.0}, {"lat": 38.92067266666667, "is_disabled": 0, "type": "electric_scooter", "lon": -76.97605866666666, "bike_id": "68b2d92d112d1e36648a23c617890809", "fusion_lat": 0.0, "name": "68b2d92d112d1e36648a23c617890809", "is_reserved": 0, "rental_uris": {"android": "https://dc.lft.to/lastmile_qr_scan", "ios": "https://dc.lft.to/lastmile_qr_scan"}, "fusion_lon": 0.0}, {"lat": 38.84466233333333, "is_disabled": 0, "type": "electric_scooter", "lon": -76.99857583333333, "bike_id": "94238044934c19f7f5f949985a43b104", "fusion_lat": 0.0, "name": "94238044934c19f7f5f949985a43b104", "is_reserved": 0, "rental_uris": {"android": "https://dc.lft.to/lastmile_qr_scan", "ios": "https://dc.lft.to/lastmile_qr_scan"}, "fusion_lon": 0.0}, {"lat": 38.920631666666665, "is_disabled": 0, "type": "electric_scooter", "lon": -77.04337583333333, "bike_id": "ac2a1856ae0274b794b6fc06b9e75145", "fusion_lat": 0.0, "name": "ac2a1856ae0274b794b6fc06b9e75145", "is_reserved": 0, "rental_uris": {"android": "https://dc.lft.to/lastmile_qr_scan", "ios": "https://dc.lft.to/lastmile_qr_scan"}, "fusion_lon": 0.0}, {"lat": 38.961548, "is_disabled": 0, "type": "electric_scooter", "lon": -77.02784183333333, "bike_id": "fc8c4b1ac0fbe9587d5128f0abe0ae32", "fusion_lat": 0.0, "name": "fc8c4b1ac0fbe9587d5128f0abe0ae32", "is_reserved": 0, "rental_uris": {"android": "https://dc.lft.to/lastmile_qr_scan", "ios": "https://dc.lft.to/lastmile_qr_scan"}, "fusion_lon": 0.0}, {"lat": 38.90053983333333, "is_disabled": 0, "type": "electric_bike", "lon": -76.98837616666667, "bike_id": "57f480983a57ffef7337830487e0183e", "fusion_lat": 0.0, "name": "57f480983a57ffef7337830487e0183e", "is_reserved": 0, "rental_uris": {"android": "https://dc.lft.to/lastmile_qr_scan", "ios": "https://dc.lft.to/lastmile_qr_scan"}, "fusion_lon": 0.0}, {"lat": 38.913282833333334, "is_disabled": 0, "type": "electric_scooter", "lon": -77.04494883333334, "bike_id": "34dde9b01b077067f9a6eb564b5e1c7e", "fusion_lat": 0.0, "name": "34dde9b01b077067f9a6eb564b5e1c7e", "is_reserved": 0, "rental_uris": {"android": "https://dc.lft.to/lastmile_qr_scan", "ios": "https://dc.lft.to/lastmile_qr_scan"}, "fusion_lon": 0.0}, {"lat": 38.907330333333334, "is_disabled": 0, "type": "electric_scooter", "lon": -77.03988033333333, "bike_id": "e554e1e48844d7e7e6aeabbe8b792b3e", "fusion_lat": 0.0, "name": "e554e1e48844d7e7e6aeabbe8b792b3e", "is_reserved": 0, "rental_uris": {"android": "https://dc.lft.to/lastmile_qr_scan", "ios": "https://dc.lft.to/lastmile_qr_scan"}, "fusion_lon": 0.0}, {"lat": 38.89613, "is_disabled": 0, "type": "electric_scooter", "lon": -76.956536, "bike_id": "973732f415e7e908e7008f968ff2406e", "fusion_lat": 0.0, "name": "973732f415e7e908e7008f968ff2406e", "is_reserved": 0, "rental_uris": {"android": "https://dc.lft.to/lastmile_qr_scan", "ios": "https://dc.lft.to/lastmile_qr_scan"}, "fusion_lon": 0.0}, {"lat": 38.9398265, "is_disabled": 0, "type": "electric_scooter", "lon": -77.03263383333334, "bike_id": "9ad835e2ab36415b611e102bcdcc27ff", "fusion_lat": 0.0, "name": "9ad835e2ab36415b611e102bcdcc27ff", "is_reserved": 0, "rental_uris": {"android": "https://dc.lft.to/lastmile_qr_scan", "ios": "https://dc.lft.to/lastmile_qr_scan"}, "fusion_lon": 0.0}, {"lat": 38.91418766666666, "is_disabled": 0, "type": "electric_scooter", "lon": -77.032623, "bike_id": "ddee16b44619e160ce8781a4780d1c7c", "fusion_lat": 0.0, "name": "ddee16b44619e160ce8781a4780d1c7c", "is_reserved": 0, "rental_uris": {"android": "https://dc.lft.to/lastmile_qr_scan", "ios": "https://dc.lft.to/lastmile_qr_scan"}, "fusion_lon": 0.0}, {"lat": 38.887472, "is_disabled": 0, "type": "electric_scooter", "lon": -77.02073683333333, "bike_id": "02d0b5ec28d14ebaed80c90933efa1c8", "fusion_lat": 0.0, "name": "02d0b5ec28d14ebaed80c90933efa1c8", "is_reserved": 0, "rental_uris": {"android": "https://dc.lft.to/lastmile_qr_scan", "ios": "https://dc.lft.to/lastmile_qr_scan"}, "fusion_lon": 0.0}, {"lat": 38.93865683333333, "is_disabled": 0, "type": "electric_scooter", "lon": -77.0264895, "bike_id": "f303b8702b852efc2a0439a63d256b98", "fusion_lat": 0.0, "name": "f303b8702b852efc2a0439a63d256b98", "is_reserved": 0, "rental_uris": {"android": "https://dc.lft.to/lastmile_qr_scan", "ios": "https://dc.lft.to/lastmile_qr_scan"}, "fusion_lon": 0.0}, {"lat": 38.876375833333334, "is_disabled": 0, "type": "electric_scooter", "lon": -77.0193565, "bike_id": "ed70aea31a5f70274ccb44bf36d0723a", "fusion_lat": 0.0, "name": "ed70aea31a5f70274ccb44bf36d0723a", "is_reserved": 0, "rental_uris": {"android": "https://dc.lft.to/lastmile_qr_scan", "ios": "https://dc.lft.to/lastmile_qr_scan"}, "fusion_lon": 0.0}, {"lat": 38.872361, "is_disabled": 0, "type": "electric_scooter", "lon": -77.01216433333333, "bike_id": "6148f22186a5db278813cec1dab19710", "fusion_lat": 0.0, "name": "6148f22186a5db278813cec1dab19710", "is_reserved": 0, "rental_uris": {"android": "https://dc.lft.to/lastmile_qr_scan", "ios": "https://dc.lft.to/lastmile_qr_scan"}, "fusion_lon": 0.0}, {"lat": 38.92618233333334, "is_disabled": 0, "type": "electric_scooter", "lon": -77.0441625, "bike_id": "49cb521d23afa5b88b6b6289532267a3", "fusion_lat": 0.0, "name": "49cb521d23afa5b88b6b6289532267a3", "is_reserved": 0, "rental_uris": {"android": "https://dc.lft.to/lastmile_qr_scan", "ios": "https://dc.lft.to/lastmile_qr_scan"}, "fusion_lon": 0.0}, {"lat": 38.9038125, "is_disabled": 0, "type": "electric_scooter", "lon": -77.04656733333333, "bike_id": "9143bc6dfb50947c4d762e2adfa12e40", "fusion_lat": 0.0, "name": "9143bc6dfb50947c4d762e2adfa12e40", "is_reserved": 0, "rental_uris": {"android": "https://dc.lft.to/lastmile_qr_scan", "ios": "https://dc.lft.to/lastmile_qr_scan"}, "fusion_lon": 0.0}, {"lat": 38.903667166666665, "is_disabled": 0, "type": "electric_scooter", "lon": -77.04550566666667, "bike_id": "ad51250bb9fb03daf6b251503d89775c", "fusion_lat": 0.0, "name": "ad51250bb9fb03daf6b251503d89775c", "is_reserved": 0, "rental_uris": {"android": "https://dc.lft.to/lastmile_qr_scan", "ios": "https://dc.lft.to/lastmile_qr_scan"}, "fusion_lon": 0.0}, {"lat": 38.93738166666667, "is_disabled": 0, "type": "electric_scooter", "lon": -77.034994, "bike_id": "2c90c4aab9abc03cb097a6c1db493ed6", "fusion_lat": 0.0, "name": "2c90c4aab9abc03cb097a6c1db493ed6", "is_reserved": 0, "rental_uris": {"android": "https://dc.lft.to/lastmile_qr_scan", "ios": "https://dc.lft.to/lastmile_qr_scan"}, "fusion_lon": 0.0}, {"lat": 38.901473833333334, "is_disabled": 0, "type": "electric_scooter", "lon": -77.0035255, "bike_id": "049c4504292828474df422164d429468", "fusion_lat": 0.0, "name": "049c4504292828474df422164d429468", "is_reserved": 0, "rental_uris": {"android": "https://dc.lft.to/lastmile_qr_scan", "ios": "https://dc.lft.to/lastmile_qr_scan"}, "fusion_lon": 0.0}, {"lat": 38.8992405, "is_disabled": 0, "type": "electric_scooter", "lon": -77.054309, "bike_id": "923e94715c96d32d779d14ab0ec6d2b5", "fusion_lat": 0.0, "name": "923e94715c96d32d779d14ab0ec6d2b5", "is_reserved": 0, "rental_uris": {"android": "https://dc.lft.to/lastmile_qr_scan", "ios": "https://dc.lft.to/lastmile_qr_scan"}, "fusion_lon": 0.0}, {"lat": 38.887087, "is_disabled": 0, "type": "electric_scooter", "lon": -77.032147, "bike_id": "663536e71fac364fd26a70e4f76041f7", "fusion_lat": 0.0, "name": "663536e71fac364fd26a70e4f76041f7", "is_reserved": 0, "rental_uris": {"android": "https://dc.lft.to/lastmile_qr_scan", "ios": "https://dc.lft.to/lastmile_qr_scan"}, "fusion_lon": 0.0}, {"lat": 38.86378233333333, "is_disabled": 0, "type": "electric_scooter", "lon": -76.99047766666666, "bike_id": "fd572ee251de3c882790e7e18a72b4af", "fusion_lat": 0.0, "name": "fd572ee251de3c882790e7e18a72b4af", "is_reserved": 0, "rental_uris": {"android": "https://dc.lft.to/lastmile_qr_scan", "ios": "https://dc.lft.to/lastmile_qr_scan"}, "fusion_lon": 0.0}, {"lat": 38.91764533333333, "is_disabled": 0, "type": "electric_scooter", "lon": -77.03666866666667, "bike_id": "3fe6aa744e9e9158626eff4f8e53bbdc", "fusion_lat": 0.0, "name": "3fe6aa744e9e9158626eff4f8e53bbdc", "is_reserved": 0, "rental_uris": {"android": "https://dc.lft.to/lastmile_qr_scan", "ios": "https://dc.lft.to/lastmile_qr_scan"}, "fusion_lon": 0.0}, {"lat": 38.9432365, "is_disabled": 0, "type": "electric_scooter", "lon": -77.0738075, "bike_id": "e7d61e9ee49cdd4d4b3fae70a90abe63", "fusion_lat": 0.0, "name": "e7d61e9ee49cdd4d4b3fae70a90abe63", "is_reserved": 0, "rental_uris": {"android": "https://dc.lft.to/lastmile_qr_scan", "ios": "https://dc.lft.to/lastmile_qr_scan"}, "fusion_lon": 0.0}, {"lat": 38.892091, "is_disabled": 0, "type": "electric_scooter", "lon": -77.01700033333333, "bike_id": "bac00e279d921e1fb7b4d5f34207b8cd", "fusion_lat": 0.0, "name": "bac00e279d921e1fb7b4d5f34207b8cd", "is_reserved": 0, "rental_uris": {"android": "https://dc.lft.to/lastmile_qr_scan", "ios": "https://dc.lft.to/lastmile_qr_scan"}, "fusion_lon": 0.0}, {"lat": 38.933478, "is_disabled": 0, "type": "electric_scooter", "lon": -76.99496116666667, "bike_id": "7d5a3077e7708adb34013e900f5c4864", "fusion_lat": 0.0, "name": "7d5a3077e7708adb34013e900f5c4864", "is_reserved": 0, "rental_uris": {"android": "https://dc.lft.to/lastmile_qr_scan", "ios": "https://dc.lft.to/lastmile_qr_scan"}, "fusion_lon": 0.0}, {"lat": 38.92305066666667, "is_disabled": 0, "type": "electric_scooter", "lon": -77.0415375, "bike_id": "74494f3605f54e454d3bd5cda92a6430", "fusion_lat": 0.0, "name": "74494f3605f54e454d3bd5cda92a6430", "is_reserved": 0, "rental_uris": {"android": "https://dc.lft.to/lastmile_qr_scan", "ios": "https://dc.lft.to/lastmile_qr_scan"}, "fusion_lon": 0.0}, {"lat": 38.896250333333334, "is_disabled": 0, "type": "electric_scooter", "lon": -77.03291266666666, "bike_id": "b12822566c612064fb2529aebd09dc92", "fusion_lat": 0.0, "name": "b12822566c612064fb2529aebd09dc92", "is_reserved": 0, "rental_uris": {"android": "https://dc.lft.to/lastmile_qr_scan", "ios": "https://dc.lft.to/lastmile_qr_scan"}, "fusion_lon": 0.0}, {"lat": 38.90872183333333, "is_disabled": 0, "type": "electric_scooter", "lon": -77.044169, "bike_id": "e0127d888004eecf2c4c943b61be5b66", "fusion_lat": 0.0, "name": "e0127d888004eecf2c4c943b61be5b66", "is_reserved": 0, "rental_uris": {"android": "https://dc.lft.to/lastmile_qr_scan", "ios": "https://dc.lft.to/lastmile_qr_scan"}, "fusion_lon": 0.0}, {"lat": 38.91257783333333, "is_disabled": 0, "type": "electric_scooter", "lon": -77.04467883333334, "bike_id": "cfa75222540768c773ecc682e51523fe", "fusion_lat": 0.0, "name": "cfa75222540768c773ecc682e51523fe", "is_reserved": 0, "rental_uris": {"android": "https://dc.lft.to/lastmile_qr_scan", "ios": "https://dc.lft.to/lastmile_qr_scan"}, "fusion_lon": 0.0}, {"lat": 38.87501233333333, "is_disabled": 0, "type": "electric_scooter", "lon": -77.002027, "bike_id": "da0719440e238647567b7d6d4faf93af", "fusion_lat": 0.0, "name": "da0719440e238647567b7d6d4faf93af", "is_reserved": 0, "rental_uris": {"android": "https://dc.lft.to/lastmile_qr_scan", "ios": "https://dc.lft.to/lastmile_qr_scan"}, "fusion_lon": 0.0}, {"lat": 38.930753, "is_disabled": 0, "type": "electric_scooter", "lon": -77.01664816666667, "bike_id": "2a4452b830c9ed3e531fd7dfedc00216", "fusion_lat": 0.0, "name": "2a4452b830c9ed3e531fd7dfedc00216", "is_reserved": 0, "rental_uris": {"android": "https://dc.lft.to/lastmile_qr_scan", "ios": "https://dc.lft.to/lastmile_qr_scan"}, "fusion_lon": 0.0}, {"lat": 38.895050499999996, "is_disabled": 0, "type": "electric_scooter", "lon": -77.02308533333333, "bike_id": "85a0e602fa9e57b1d6b5b3936ad90533", "fusion_lat": 0.0, "name": "85a0e602fa9e57b1d6b5b3936ad90533", "is_reserved": 0, "rental_uris": {"android": "https://dc.lft.to/lastmile_qr_scan", "ios": "https://dc.lft.to/lastmile_qr_scan"}, "fusion_lon": 0.0}, {"lat": 38.8872145, "is_disabled": 0, "type": "electric_scooter", "lon": -76.95475083333334, "bike_id": "2bfa96e42ef15661d53e867f395ca536", "fusion_lat": 0.0, "name": "2bfa96e42ef15661d53e867f395ca536", "is_reserved": 0, "rental_uris": {"android": "https://dc.lft.to/lastmile_qr_scan", "ios": "https://dc.lft.to/lastmile_qr_scan"}, "fusion_lon": 0.0}, {"lat": 38.8531935, "is_disabled": 0, "type": "electric_bike", "lon": -76.980114, "bike_id": "4875f94828c907ebb3816a0e3da79760", "fusion_lat": 0.0, "name": "4875f94828c907ebb3816a0e3da79760", "is_reserved": 0, "rental_uris": {"android": "https://dc.lft.to/lastmile_qr_scan", "ios": "https://dc.lft.to/lastmile_qr_scan"}, "fusion_lon": 0.0}, {"lat": 38.89685333333333, "is_disabled": 0, "type": "electric_scooter", "lon": -76.936068, "bike_id": "c90ee778bc88e9652fe47e9e1627a706", "fusion_lat": 0.0, "name": "c90ee778bc88e9652fe47e9e1627a706", "is_reserved": 0, "rental_uris": {"android": "https://dc.lft.to/lastmile_qr_scan", "ios": "https://dc.lft.to/lastmile_qr_scan"}, "fusion_lon": 0.0}, {"lat": 38.896848166666665, "is_disabled": 0, "type": "electric_scooter", "lon": -76.9962755, "bike_id": "08f89f38f63db7c18133bb22f3a744fe", "fusion_lat": 0.0, "name": "08f89f38f63db7c18133bb22f3a744fe", "is_reserved": 0, "rental_uris": {"android": "https://dc.lft.to/lastmile_qr_scan", "ios": "https://dc.lft.to/lastmile_qr_scan"}, "fusion_lon": 0.0}, {"lat": 38.91605333333333, "is_disabled": 0, "type": "electric_scooter", "lon": -77.03220066666667, "bike_id": "ca9ea3cc6a3a192931b676c39db8ebdc", "fusion_lat": 0.0, "name": "ca9ea3cc6a3a192931b676c39db8ebdc", "is_reserved": 0, "rental_uris": {"android": "https://dc.lft.to/lastmile_qr_scan", "ios": "https://dc.lft.to/lastmile_qr_scan"}, "fusion_lon": 0.0}, {"lat": 38.911420666666665, "is_disabled": 0, "type": "electric_scooter", "lon": -77.044838, "bike_id": "0a4da9c1286c0ac37cf42803581cb035", "fusion_lat": 0.0, "name": "0a4da9c1286c0ac37cf42803581cb035", "is_reserved": 0, "rental_uris": {"android": "https://dc.lft.to/lastmile_qr_scan", "ios": "https://dc.lft.to/lastmile_qr_scan"}, "fusion_lon": 0.0}, {"lat": 38.895687, "is_disabled": 0, "type": "electric_scooter", "lon": -77.0220975, "bike_id": "a4a7b9fa51597ed2918e9a3ddeb43fa8", "fusion_lat": 0.0, "name": "a4a7b9fa51597ed2918e9a3ddeb43fa8", "is_reserved": 0, "rental_uris": {"android": "https://dc.lft.to/lastmile_qr_scan", "ios": "https://dc.lft.to/lastmile_qr_scan"}, "fusion_lon": 0.0}, {"lat": 38.90956833333333, "is_disabled": 0, "type": "electric_scooter", "lon": -77.04653166666667, "bike_id": "0e3b2324fba10734372a98996251f20e", "fusion_lat": 0.0, "name": "0e3b2324fba10734372a98996251f20e", "is_reserved": 0, "rental_uris": {"android": "https://dc.lft.to/lastmile_qr_scan", "ios": "https://dc.lft.to/lastmile_qr_scan"}, "fusion_lon": 0.0}, {"lat": 38.898392666666666, "is_disabled": 0, "type": "electric_scooter", "lon": -76.93105016666667, "bike_id": "7bae61f390c4c9d53e5a59cdd40da8a6", "fusion_lat": 0.0, "name": "7bae61f390c4c9d53e5a59cdd40da8a6", "is_reserved": 0, "rental_uris": {"android": "https://dc.lft.to/lastmile_qr_scan", "ios": "https://dc.lft.to/lastmile_qr_scan"}, "fusion_lon": 0.0}, {"lat": 38.93112283333333, "is_disabled": 0, "type": "electric_scooter", "lon": -77.02344766666667, "bike_id": "0982edf4aeb9127ceba1e8645961dbba", "fusion_lat": 0.0, "name": "0982edf4aeb9127ceba1e8645961dbba", "is_reserved": 0, "rental_uris": {"android": "https://dc.lft.to/lastmile_qr_scan", "ios": "https://dc.lft.to/lastmile_qr_scan"}, "fusion_lon": 0.0}, {"lat": 38.9095995, "is_disabled": 0, "type": "electric_scooter", "lon": -77.03066033333333, "bike_id": "b144cd0994783285106e433e1b298bab", "fusion_lat": 0.0, "name": "b144cd0994783285106e433e1b298bab", "is_reserved": 0, "rental_uris": {"android": "https://dc.lft.to/lastmile_qr_scan", "ios": "https://dc.lft.to/lastmile_qr_scan"}, "fusion_lon": 0.0}, {"lat": 38.9257025, "is_disabled": 0, "type": "electric_scooter", "lon": -76.97009483333333, "bike_id": "7a125ee0e4bccae9ee2ee1c2ddef5674", "fusion_lat": 0.0, "name": "7a125ee0e4bccae9ee2ee1c2ddef5674", "is_reserved": 0, "rental_uris": {"android": "https://dc.lft.to/lastmile_qr_scan", "ios": "https://dc.lft.to/lastmile_qr_scan"}, "fusion_lon": 0.0}, {"lat": 38.932932666666666, "is_disabled": 0, "type": "electric_scooter", "lon": -77.02817166666667, "bike_id": "d795fe53aa6cddfe5b0f094d6ca6fd4f", "fusion_lat": 0.0, "name": "d795fe53aa6cddfe5b0f094d6ca6fd4f", "is_reserved": 0, "rental_uris": {"android": "https://dc.lft.to/lastmile_qr_scan", "ios": "https://dc.lft.to/lastmile_qr_scan"}, "fusion_lon": 0.0}, {"lat": 38.924436166666666, "is_disabled": 0, "type": "electric_bike", "lon": -77.027036, "bike_id": "06df6ea85fc44ed5d7bdf84b4b18b546", "fusion_lat": 0.0, "name": "06df6ea85fc44ed5d7bdf84b4b18b546", "is_reserved": 0, "rental_uris": {"android": "https://dc.lft.to/lastmile_qr_scan", "ios": "https://dc.lft.to/lastmile_qr_scan"}, "fusion_lon": 0.0}, {"lat": 38.93825416666667, "is_disabled": 0, "type": "electric_scooter", "lon": -77.06046266666667, "bike_id": "18b417d975d3723f7313d976a590a0ff", "fusion_lat": 0.0, "name": "18b417d975d3723f7313d976a590a0ff", "is_reserved": 0, "rental_uris": {"android": "https://dc.lft.to/lastmile_qr_scan", "ios": "https://dc.lft.to/lastmile_qr_scan"}, "fusion_lon": 0.0}, {"lat": 38.9660665, "is_disabled": 0, "type": "electric_bike", "lon": -76.98332933333333, "bike_id": "9de62d0bb8b1534e53e0efcb150d034e", "fusion_lat": 0.0, "name": "9de62d0bb8b1534e53e0efcb150d034e", "is_reserved": 0, "rental_uris": {"android": "https://dc.lft.to/lastmile_qr_scan", "ios": "https://dc.lft.to/lastmile_qr_scan"}, "fusion_lon": 0.0}, {"lat": 38.90684566666667, "is_disabled": 0, "type": "electric_scooter", "lon": -77.0376635, "bike_id": "b75172991042a1d3e35f0324b0405778", "fusion_lat": 0.0, "name": "b75172991042a1d3e35f0324b0405778", "is_reserved": 0, "rental_uris": {"android": "https://dc.lft.to/lastmile_qr_scan", "ios": "https://dc.lft.to/lastmile_qr_scan"}, "fusion_lon": 0.0}, {"lat": 38.920376166666664, "is_disabled": 0, "type": "electric_scooter", "lon": -77.0260675, "bike_id": "99af4aca7eba22ea4060e4e2115be765", "fusion_lat": 0.0, "name": "99af4aca7eba22ea4060e4e2115be765", "is_reserved": 0, "rental_uris": {"android": "https://dc.lft.to/lastmile_qr_scan", "ios": "https://dc.lft.to/lastmile_qr_scan"}, "fusion_lon": 0.0}, {"lat": 38.89252233333333, "is_disabled": 0, "type": "electric_scooter", "lon": -77.048752, "bike_id": "457d97237cf093373268687b178e6471", "fusion_lat": 0.0, "name": "457d97237cf093373268687b178e6471", "is_reserved": 0, "rental_uris": {"android": "https://dc.lft.to/lastmile_qr_scan", "ios": "https://dc.lft.to/lastmile_qr_scan"}, "fusion_lon": 0.0}, {"lat": 38.937365666666665, "is_disabled": 0, "type": "electric_scooter", "lon": -77.03271566666666, "bike_id": "127554c9f8450fc530cd8754b1f1187e", "fusion_lat": 0.0, "name": "127554c9f8450fc530cd8754b1f1187e", "is_reserved": 0, "rental_uris": {"android": "https://dc.lft.to/lastmile_qr_scan", "ios": "https://dc.lft.to/lastmile_qr_scan"}, "fusion_lon": 0.0}, {"lat": 38.881647666666666, "is_disabled": 0, "type": "electric_scooter", "lon": -76.92971166666666, "bike_id": "b1efb1d45aec539723a08b35189e892c", "fusion_lat": 0.0, "name": "b1efb1d45aec539723a08b35189e892c", "is_reserved": 0, "rental_uris": {"android": "https://dc.lft.to/lastmile_qr_scan", "ios": "https://dc.lft.to/lastmile_qr_scan"}, "fusion_lon": 0.0}, {"lat": 38.92475266666667, "is_disabled": 0, "type": "electric_scooter", "lon": -77.03380683333333, "bike_id": "60848cb32818378c81f1bce4c984856e", "fusion_lat": 0.0, "name": "60848cb32818378c81f1bce4c984856e", "is_reserved": 0, "rental_uris": {"android": "https://dc.lft.to/lastmile_qr_scan", "ios": "https://dc.lft.to/lastmile_qr_scan"}, "fusion_lon": 0.0},