{"data": {"bikes": [{"name": "6914a9b3716306da6314e6418fd27935", "type": "electric_scooter", "lat": 38.874509, "is_reserved": 0, "lon": -77.00765433333333, "fusion_lon": 0.0, "is_disabled": 0, "fusion_lat": 0.0, "bike_id": "6914a9b3716306da6314e6418fd27935", "rental_uris": {"ios": "https://dc.lft.to/lastmile_qr_scan", "android": "https://dc.lft.to/lastmile_qr_scan"}}, {"name": "b061632794329c9f9bf2e18bcd704d9b", "type": "electric_scooter", "lat": 38.93569816666667, "is_reserved": 0, "lon": -77.03733483333333, "fusion_lon": 0.0, "is_disabled": 0, "fusion_lat": 0.0, "bike_id": "b061632794329c9f9bf2e18bcd704d9b", "rental_uris": {"ios": "https://dc.lft.to/lastmile_qr_scan", "android": "https://dc.lft.to/lastmile_qr_scan"}}, {"name": "bb8b4053a602d9907dc1b61e2d4beb1e", "type": "electric_scooter", "lat": 38.942041833333334, "is_reserved": 0, "lon": -77.025123, "fusion_lon": 0.0, "is_disabled": 0, "fusion_lat": 0.0, "bike_id": "bb8b4053a602d9907dc1b61e2d4beb1e", "rental_uris": {"ios": "https://dc.lft.to/lastmile_qr_scan", "android": "https://dc.lft.to/lastmile_qr_scan"}}, {"name": "d7e142901fd2f6e2e19e2c96435fa047", "type": "electric_scooter", "lat": 38.8874135, "is_reserved": 0, "lon": -77.02024316666666, "fusion_lon": 0.0, "is_disabled": 0, "fusion_lat": 0.0, "bike_id": "d7e142901fd2f6e2e19e2c96435fa047", "rental_uris": {"ios": "https://dc.lft.to/lastmile_qr_scan", "android": "https://dc.lft.to/lastmile_qr_scan"}}, {"name": "a9db8c3af41e88ac3338713773525fa3", "type": "electric_scooter", "lat": 38.905560666666666, "is_reserved": 0, "lon": -77.00300283333333, "fusion_lon": 0.0, "is_disabled": 0, "fusion_lat": 0.0, "bike_id": "a9db8c3af41e88ac3338713773525fa3", "rental_uris": {"ios": "https://dc.lft.to/lastmile_qr_scan", "android": "https://dc.lft.to/lastmile_qr_scan"}}, {"name": "6b557b0643228999c7942818f78fc602", "type": "electric_bike", "lat": 38.9458065, "is_reserved": 0, "lon": -77.0026755, "fusion_lon": 0.0, "is_disabled": 0, "fusion_lat": 0.0, "bike_id": "6b557b0643228999c7942818f78fc602", "rental_uris": {"ios": "https://dc.lft.to/lastmile_qr_scan", "android": "https://dc.lft.to/lastmile_qr_scan"}}, {"name": "38d5a08022ba47aaba9461bf7855642c", "type": "electric_bike", "lat": 38.94324866666667, "is_reserved": 0, "lon": -76.961761, "fusion_lon": 0.0, "is_disabled": 0, "fusion_lat": 0.0, "bike_id": "38d5a08022ba47aaba9461bf7855642c", "rental_uris": {"ios": "https://dc.lft.to/lastmile_qr_scan", "android": "https://dc.lft.to/lastmile_qr_scan"}}, {"name": "8a29e1241a0af377b9304e30cccfe69c", "type": "electric_scooter", "lat": 38.92867783333333, "is_reserved": 0, "lon": -77.037537, "fusion_lon": 0.0, "is_disabled": 0, "fusion_lat": 0.0, "bike_id": "8a29e1241a0af377b9304e30cccfe69c", "rental_uris": {"ios": "https://dc.lft.to/lastmile_qr_scan", "android": "https://dc.lft.to/lastmile_qr_scan"}}, {"name": "c27df09406d384c3745a51ef9c7e7a32", "type": "electric_scooter", "lat": 38.896096666666665, "is_reserved": 0, "lon": -76.99973333333334, "fusion_lon": 0.0, "is_disabled": 0, "fusion_lat": 0.0, "bike_id": "c27df09406d384c3745a51ef9c7e7a32", "rental_uris": {"ios": "https://dc.lft.to/lastmile_qr_scan", "android": "https://dc.lft.to/lastmile_qr_scan"}}, {"name": "f452361d640ff4c8d5d2e57ee640edbc", "type": "electric_scooter", "lat": 38.9072175, "is_reserved": 0, "lon": -77.01144183333334, "fusion_lon": 0.0, "is_disabled": 0, "fusion_lat": 0.0, "bike_id": "f452361d640ff4c8d5d2e57ee640edbc", "rental_uris": {"ios": "https://dc.lft.to/lastmile_qr_scan", "android": "https://dc.lft.to/lastmile_qr_scan"}}, {"name": "0a868fc2ef5b1ffabb5df0e353fd5823", "type": "electric_scooter", "lat": 38.88219483333334, "is_reserved": 0, "lon": -76.94172916666666, "fusion_lon": 0.0, "is_disabled": 0, "fusion_lat": 0.0, "bike_id": "0a868fc2ef5b1ffabb5df0e353fd5823", "rental_uris": {"ios": "https://dc.lft.to/lastmile_qr_scan", "android": "https://dc.lft.to/lastmile_qr_scan"}}, {"name": "77dbb19f1a9349618d416e67e3fcb2e7", "type": "electric_scooter", "lat": 38.9071705, "is_reserved": 0, "lon": -77.02502816666667, "fusion_lon": 0.0, "is_disabled": 0, "fusion_lat": 0.0, "bike_id": "77dbb19f1a9349618d416e67e3fcb2e7", "rental_uris": {"ios": "https://dc.lft.to/lastmile_qr_scan", "android": "https://dc.lft.to/lastmile_qr_scan"}}, {"name": "67296d3dd64828bf370de8a9d290f3dc", "type": "electric_scooter", "lat": 38.929303833333336, "is_reserved": 0, "lon": -77.02336683333333, "fusion_lon": 0.0, "is_disabled": 0, "fusion_lat": 0.0, "bike_id": "67296d3dd64828bf370de8a9d290f3dc", "rental_uris": {"ios": "https://dc.lft.to/lastmile_qr_scan", "android": "https://dc.lft.to/lastmile_qr_scan"}}, {"name": "c4685257ab8a4bbb2948cf2f99c0d1b9", "type": "electric_scooter", "lat": 38.903355166666664, "is_reserved": 0, "lon": -76.98974216666667, "fusion_lon": 0.0, "is_disabled": 0, "fusion_lat": 0.0, "bike_id": "c4685257ab8a4bbb2948cf2f99c0d1b9", "rental_uris": {"ios": "https://dc.lft.to/lastmile_qr_scan", "android": "https://dc.lft.to/lastmile_qr_scan"}}, {"name": "6d42dec155a3e4e049a981420fde669f", "type": "electric_scooter", "lat": 38.916117166666666, "is_reserved": 0, "lon": -77.03208433333333, "fusion_lon": 0.0, "is_disabled": 0, "fusion_lat": 0.0, "bike_id": "6d42dec155a3e4e049a981420fde669f", "rental_uris": {"ios": "https://dc.lft.to/lastmile_qr_scan", "android": "https://dc.lft.to/lastmile_qr_scan"}}, {"name": "104d6127aa8e93b49303522468e93300", "type": "electric_scooter", "lat": 38.911212, "is_reserved": 0, "lon": -77.01819433333333, "fusion_lon": 0.0, "is_disabled": 0, "fusion_lat": 0.0, "bike_id": "104d6127aa8e93b49303522468e93300", "rental_uris": {"ios": "https://dc.lft.to/lastmile_qr_scan", "android": "https://dc.lft.to/lastmile_qr_scan"}}, {"name": "c698360b20843621aa7bc70ab821de53", "type": "electric_scooter", "lat": 38.9247325, "is_reserved": 0, "lon": -77.03050483333334, "fusion_lon": 0.0, "is_disabled": 0, "fusion_lat": 0.0, "bike_id": "c698360b20843621aa7bc70ab821de53", "rental_uris": {"ios": "https://dc.lft.to/lastmile_qr_scan", "android": "https://dc.lft.to/lastmile_qr_scan"}}, {"name": "b588007b6c45de2cfd6d6c8a91516859", "type": "electric_scooter", "lat": 38.911130666666665, "is_reserved": 0, "lon": -77.045044, "fusion_lon": 0.0, "is_disabled": 0, "fusion_lat": 0.0, "bike_id": "b588007b6c45de2cfd6d6c8a91516859", "rental_uris": {"ios": "https://dc.lft.to/lastmile_qr_scan", "android": "https://dc.lft.to/lastmile_qr_scan"}}, {"name": "95e9473a3f450dafcc5ce621848a0755", "type": "electric_scooter", "lat": 38.89727933333333, "is_reserved": 0, "lon": -77.043345, "fusion_lon": 0.0, "is_disabled": 0, "fusion_lat": 0.0, "bike_id": "95e9473a3f450dafcc5ce621848a0755", "rental_uris": {"ios": "https://dc.lft.to/lastmile_qr_scan", "android": "https://dc.lft.to/lastmile_qr_scan"}}, {"name": "114e3dfb9e346deb668f0e3b745c3dfb", "type": "electric_scooter", "lat": 38.899922333333336, "is_reserved": 0, "lon": -77.0403805, "fusion_lon": 0.0, "is_disabled": 0, "fusion_lat": 0.0, "bike_id": "114e3dfb9e346deb668f0e3b745c3dfb", "rental_uris": {"ios": "https://dc.lft.to/lastmile_qr_scan", "android": "https://dc.lft.to/lastmile_qr_scan"}}, {"name": "3a26e60976849da902e552dde69f7138", "type": "electric_scooter", "lat": 38.91101583333333, "is_reserved": 0, "lon": -77.04671633333334, "fusion_lon": 0.0, "is_disabled": 0, "fusion_lat": 0.0, "bike_id": "3a26e60976849da902e552dde69f7138", "rental_uris": {"ios": "https://dc.lft.to/lastmile_qr_scan", "android": "https://dc.lft.to/lastmile_qr_scan"}}, {"name": "33108043d1d6daa9b02ffeb8163c81ad", "type": "electric_scooter", "lat": 38.929932666666666, "is_reserved": 0, "lon": -77.02346816666666, "fusion_lon": 0.0, "is_disabled": 0, "fusion_lat": 0.0, "bike_id": "33108043d1d6daa9b02ffeb8163c81ad", "rental_uris": {"ios": "https://dc.lft.to/lastmile_qr_scan", "android": "https://dc.lft.to/lastmile_qr_scan"}}, {"name": "f36e5e61c2ef24bdbabf22fa538ee40e", "type": "electric_scooter", "lat": 38.906376333333334, "is_reserved": 0, "lon": -77.05132083333334, "fusion_lon": 0.0, "is_disabled": 0, "fusion_lat": 0.0, "bike_id": "f36e5e61c2ef24bdbabf22fa538ee40e", "rental_uris": {"ios": "https://dc.lft.to/lastmile_qr_scan", "android": "https://dc.lft.to/lastmile_qr_scan"}}, {"name": "d31f714adca970410dd9cd7884a85dee", "type": "electric_scooter", "lat": 38.92491066666667, "is_reserved": 0, "lon": -77.0271535, "fusion_lon": 0.0, "is_disabled": 0, "fusion_lat": 0.0, "bike_id": "d31f714adca970410dd9cd7884a85dee", "rental_uris": {"ios": "https://dc.lft.to/lastmile_qr_scan", "android": "https://dc.lft.to/lastmile_qr_scan"}}, {"name": "1d1c6f81c6ddf0a8a7f04aaedc1332dc", "type": "electric_scooter", "lat": 38.906410666666666, "is_reserved": 0, "lon": -77.05148716666666, "fusion_lon": 0.0, "is_disabled": 0, "fusion_lat": 0.0, "bike_id": "1d1c6f81c6ddf0a8a7f04aaedc1332dc", "rental_uris": {"ios": "https://dc.lft.to/lastmile_qr_scan", "android": "https://dc.lft.to/lastmile_qr_scan"}}, {"name": "49491c913b2f4361c7f5af65ce89cfe8", "type": "electric_scooter", "lat": 38.932533, "is_reserved": 0, "lon": -77.0400025, "fusion_lon": 0.0, "is_disabled": 0, "fusion_lat": 0.0, "bike_id": "49491c913b2f4361c7f5af65ce89cfe8", "rental_uris": {"ios": "https://dc.lft.to/lastmile_qr_scan", "android": "https://dc.lft.to/lastmile_qr_scan"}}, {"name": "3ec0adf2eb300cd1cb5cc3270df6bdc3", "type": "electric_scooter", "lat": 38.90449433333333, "is_reserved": 0, "lon": -77.0354635, "fusion_lon": 0.0, "is_disabled": 0, "fusion_lat": 0.0, "bike_id": "3ec0adf2eb300cd1cb5cc3270df6bdc3", "rental_uris": {"ios": "https://dc.lft.to/lastmile_qr_scan", "android": "https://dc.lft.to/lastmile_qr_scan"}}, {"name": "275d251e471a1f8da7df1cc2a7823cbb", "type": "electric_scooter", "lat": 38.9161665, "is_reserved": 0, "lon": -77.03645383333334, "fusion_lon": 0.0, "is_disabled": 0, "fusion_lat": 0.0, "bike_id": "275d251e471a1f8da7df1cc2a7823cbb", "rental_uris": {"ios": "https://dc.lft.to/lastmile_qr_scan", "android": "https://dc.lft.to/lastmile_qr_scan"}}, {"name": "7100e164febb477a18e234897f56785b", "type": "electric_scooter", "lat": 38.9024125, "is_reserved": 0, "lon": -77.00198566666667, "fusion_lon": 0.0, "is_disabled": 0, "fusion_lat": 0.0, "bike_id": "7100e164febb477a18e234897f56785b", "rental_uris": {"ios": "https://dc.lft.to/lastmile_qr_scan", "android": "https://dc.lft.to/lastmile_qr_scan"}}, {"name": "34ce59a2fd17653e143c45c6a80a5cc7", "type": "electric_scooter", "lat": 38.892054333333334, "is_reserved": 0, "lon": -76.98857483333333, "fusion_lon": 0.0, "is_disabled": 0, "fusion_lat": 0.0, "bike_id": "34ce59a2fd17653e143c45c6a80a5cc7", "rental_uris": {"ios": "https://dc.lft.to/lastmile_qr_scan", "android": "https://dc.lft.to/lastmile_qr_scan"}}, {"name": "950fbc285424003ce8f6d44b707e0835", "type": "electric_scooter", "lat": 38.904272666666664, "is_reserved": 0, "lon": -77.0515255, "fusion_lon": 0.0, "is_disabled": 0, "fusion_lat": 0.0, "bike_id": "950fbc285424003ce8f6d44b707e0835", "rental_uris": {"ios": "https://dc.lft.to/lastmile_qr_scan", "android": "https://dc.lft.to/lastmile_qr_scan"}}, {"name": "4367d95382535a8cef446e870497433b", "type": "electric_bike", "lat": 38.93689283333333, "is_reserved": 0, "lon": -77.05646833333333, "fusion_lon": 0.0, "is_disabled": 0, "fusion_lat": 0.0, "bike_id": "4367d95382535a8cef446e870497433b", "rental_uris": {"ios": "https://dc.lft.to/lastmile_qr_scan", "android": "https://dc.lft.to/lastmile_qr_scan"}}, {"name": "f9dac875bc0d3b8e8d402c09c65253f2", "type": "electric_scooter", "lat": 38.862211, "is_reserved": 0, "lon": -76.99495433333334, "fusion_lon": 0.0, "is_disabled": 0, "fusion_lat": 0.0, "bike_id": "f9dac875bc0d3b8e8d402c09c65253f2", "rental_uris": {"ios": "https://dc.lft.to/lastmile_qr_scan", "android": "https://dc.lft.to/lastmile_qr_scan"}}, {"name": "2d9ef808b44d8fab65e65b4ba6cafcb0", "type": "electric_scooter", "lat": 38.9062485, "is_reserved": 0, "lon": -76.9831585, "fusion_lon": 0.0, "is_disabled": 0, "fusion_lat": 0.0, "bike_id": "2d9ef808b44d8fab65e65b4ba6cafcb0", "rental_uris": {"ios": "https://dc.lft.to/lastmile_qr_scan", "android": "https://dc.lft.to/lastmile_qr_scan"}}, {"name": "ddd16268d5c49543aae502c3d2dc1314", "type": "electric_scooter", "lat": 38.919306166666665, "is_reserved": 0, "lon": -77.03182883333334, "fusion_lon": 0.0, "is_disabled": 0, "fusion_lat": 0.0, "bike_id": "ddd16268d5c49543aae502c3d2dc1314", "rental_uris": {"ios": "https://dc.lft.to/lastmile_qr_scan", "android": "https://dc.lft.to/lastmile_qr_scan"}}, {"name": "9bb3134a47e30208956b47db9d2dd367", "type": "electric_scooter", "lat": 38.89106916666667, "is_reserved": 0, "lon": -76.9870455, "fusion_lon": 0.0, "is_disabled": 0, "fusion_lat": 0.0, "bike_id": "9bb3134a47e30208956b47db9d2dd367", "rental_uris": {"ios": "https://dc.lft.to/lastmile_qr_scan", "android": "https://dc.lft.to/lastmile_qr_scan"}}, {"name": "f9ebc1dcc68a262a57bade0324ae5497", "type": "electric_scooter", "lat": 38.89881916666667, "is_reserved": 0, "lon": -77.03335016666666, "fusion_lon": 0.0, "is_disabled": 0, "fusion_lat": 0.0, "bike_id": "f9ebc1dcc68a262a57bade0324ae5497", "rental_uris": {"ios": "https://dc.lft.to/lastmile_qr_scan", "android": "https://dc.lft.to/lastmile_qr_scan"}}, {"name": "7a59e237f2532b0be1ca9629abe121c8", "type": "electric_scooter", "lat": 38.91756633333333, "is_reserved": 0, "lon": -77.02711633333334, "fusion_lon": 0.0, "is_disabled": 0, "fusion_lat": 0.0, "bike_id": "7a59e237f2532b0be1ca9629abe121c8", "rental_uris": {"ios": "https://dc.lft.to/lastmile_qr_scan", "android": "https://dc.lft.to/lastmile_qr_scan"}}, {"name": "894250576867b46aa5e9fdeceb16df42", "type": "electric_scooter", "lat": 38.90395083333333, "is_reserved": 0, "lon": -77.05325333333333, "fusion_lon": 0.0, "is_disabled": 0, "fusion_lat": 0.0, "bike_id": "894250576867b46aa5e9fdeceb16df42", "rental_uris": {"ios": "https://dc.lft.to/lastmile_qr_scan", "android": "https://dc.lft.to/lastmile_qr_scan"}}, {"name": "07e90a07e410c1ae2d8d3f6f4c0784e3", "type": "electric_scooter", "lat": 38.912745666666666, "is_reserved": 0, "lon": -77.03146466666666, "fusion_lon": 0.0, "is_disabled": 0, "fusion_lat": 0.0, "bike_id": "07e90a07e410c1ae2d8d3f6f4c0784e3", "rental_uris": {"ios": "https://dc.lft.to/lastmile_qr_scan", "android": "https://dc.lft.to/lastmile_qr_scan"}}, {"name": "48ae6d7f5726a5e1873d55180e4ace3e", "type": "electric_scooter", "lat": 38.89221233333333, "is_reserved": 0, "lon": -77.0432995, "fusion_lon": 0.0, "is_disabled": 0, "fusion_lat": 0.0, "bike_id": "48ae6d7f5726a5e1873d55180e4ace3e", "rental_uris": {"ios": "https://dc.lft.to/lastmile_qr_scan", "android": "https://dc.lft.to/lastmile_qr_scan"}}, {"name": "c5eec24cb0eb42ac01da814111f388bb", "type": "electric_scooter", "lat": 38.89434033333333, "is_reserved": 0, "lon": -77.02183683333334, "fusion_lon": 0.0, "is_disabled": 0, "fusion_lat": 0.0, "bike_id": "c5eec24cb0eb42ac01da814111f388bb", "rental_uris": {"ios": "https://dc.lft.to/lastmile_qr_scan", "android": "https://dc.lft.to/lastmile_qr_scan"}}, {"name": "27a5e2bf1d55d8a96966a0944ccae6e3", "type": "electric_scooter", "lat": 38.914101, "is_reserved": 0, "lon": -77.00841083333333, "fusion_lon": 0.0, "is_disabled": 0, "fusion_lat": 0.0, "bike_id": "27a5e2bf1d55d8a96966a0944ccae6e3", "rental_uris": {"ios": "https://dc.lft.to/lastmile_qr_scan", "android": "https://dc.lft.to/lastmile_qr_scan"}}, {"name": "6190d00bbe9bffe9d871e1ef86a044d5", "type": "electric_scooter", "lat": 38.903115, "is_reserved": 0, "lon": -77.0222295, "fusion_lon": 0.0, "is_disabled": 0, "fusion_lat": 0.0, "bike_id": "6190d00bbe9bffe9d871e1ef86a044d5", "rental_uris": {"ios": "https://dc.lft.to/lastmile_qr_scan", "android": "https://dc.lft.to/lastmile_qr_scan"}}, {"name": "630043288f1df642fc6d98509460431b", "type": "electric_bike", "lat": 38.86756966666667, "is_reserved": 0, "lon": -76.9453555, "fusion_lon": 0.0, "is_disabled": 0, "fusion_lat": 0.0, "bike_id": "630043288f1df642fc6d98509460431b", "rental_uris": {"ios": "https://dc.lft.to/lastmile_qr_scan", "android": "https://dc.lft.to/lastmile_qr_scan"}}, {"name": "35195db3fd26ecdfaef513f7b67039d5", "type": "electric_scooter", "lat": 38.898066166666666, "is_reserved": 0, "lon": -77.0313915, "fusion_lon": 0.0, "is_disabled": 0, "fusion_lat": 0.0, "bike_id": "35195db3fd26ecdfaef513f7b67039d5", "rental_uris": {"ios": "https://dc.lft.to/lastmile_qr_scan", "android": "https://dc.lft.to/lastmile_qr_scan"}}, {"name": "1ffd00fd1dab60c293c0dadfa558466d", "type": "electric_scooter", "lat": 38.962484333333336, "is_reserved": 0, "lon": -77.02977766666666, "fusion_lon": 0.0, "is_disabled": 0, "fusion_lat": 0.0, "bike_id": "1ffd00fd1dab60c293c0dadfa558466d", "rental_uris": {"ios": "https://dc.lft.to/lastmile_qr_scan", "android": "https://dc.lft.to/lastmile_qr_scan"}}, {"name": "49f594b9bf3b1bf3a7078636c86d60ce", "type": "electric_scooter", "lat": 38.907225, "is_reserved": 0, "lon": -77.04016766666666, "fusion_lon": 0.0, "is_disabled": 0, "fusion_lat": 0.0, "bike_id": "49f594b9bf3b1bf3a7078636c86d60ce", "rental_uris": {"ios": "https://dc.lft.to/lastmile_qr_scan", "android": "https://dc.lft.to/lastmile_qr_scan"}}, {"name": "dcd887af8af934a95da1304db7608b22", "type": "electric_bike", "lat": 38.880891, "is_reserved": 0, "lon": -77.11204233333333, "fusion_lon": 0.0, "is_disabled": 0, "fusion_lat": 0.0, "bike_id": "dcd887af8af934a95da1304db7608b22", "rental_uris": {"ios": "https://dc.lft.to/lastmile_qr_scan", "android": "https://dc.lft.to/lastmile_qr_scan"}}, {"name": "7618f451d8c848fd354e38ad49cd30dd", "type": "electric_scooter", "lat": 38.8977245, "is_reserved": 0, "lon": -76.97730683333333, "fusion_lon": 0.0, "is_disabled": 0, "fusion_lat": 0.0, "bike_id": "7618f451d8c848fd354e38ad49cd30dd", "rental_uris": {"ios": "https://dc.lft.to/lastmile_qr_scan", "android": "https://dc.lft.to/lastmile_qr_scan"}}, {"name": "616ed840026b0263aff4502f628f4432", "type": "electric_scooter", "lat": 38.94271333333333, "is_reserved": 0, "lon": -77.03258266666667, "fusion_lon": 0.0, "is_disabled": 0, "fusion_lat": 0.0, "bike_id": "616ed840026b0263aff4502f628f4432", "rental_uris": {"ios": "https://dc.lft.to/lastmile_qr_scan", "android": "https://dc.lft.to/lastmile_qr_scan"}}, {"name": "732680eea5a9faed929a335ebc19937b", "type": "electric_scooter", "lat": 38.86366183333333, "is_reserved": 0, "lon": -76.9905865, "fusion_lon": 0.0, "is_disabled": 0, "fusion_lat": 0.0, "bike_id": "732680eea5a9faed929a335ebc19937b", "rental_uris": {"ios": "https://dc.lft.to/lastmile_qr_scan", "android": "https://dc.lft.to/lastmile_qr_scan"}}, {"name": "0bd7c258f7874593a6788a036575b994", "type": "electric_bike", "lat": 38.892238166666665, "is_reserved": 0, "lon": -76.97024416666666, "fusion_lon": 0.0, "is_disabled": 0, "fusion_lat": 0.0, "bike_id": "0bd7c258f7874593a6788a036575b994", "rental_uris": {"ios": "https://dc.lft.to/lastmile_qr_scan", "android": "https://dc.lft.to/lastmile_qr_scan"}}, {"name": "aea886aace4b88341ea6dfac4ee4c7a5", "type": "electric_bike", "lat": 38.9034615, "is_reserved": 0, "lon": -77.05014183333333, "fusion_lon": 0.0, "is_disabled": 0, "fusion_lat": 0.0, "bike_id": "aea886aace4b88341ea6dfac4ee4c7a5", "rental_uris": {"ios": "https://dc.lft.to/lastmile_qr_scan", "android": "https://dc.lft.to/lastmile_qr_scan"}}, {"name": "0d844ce4f63ed9c2e215b31ff95d9d86", "type": "electric_scooter", "lat": 38.94053316666667, "is_reserved": 0, "lon": -77.032863, "fusion_lon": 0.0, "is_disabled": 0, "fusion_lat": 0.0, "bike_id": "0d844ce4f63ed9c2e215b31ff95d9d86", "rental_uris": {"ios": "https://dc.lft.to/lastmile_qr_scan", "android": "https://dc.lft.to/lastmile_qr_scan"}}, {"name": "cfd7db2c252928d5d5bcba7a081ac49e", "type": "electric_scooter", "lat": 38.9126585, "is_reserved": 0, "lon": -77.03591683333333, "fusion_lon": 0.0, "is_disabled": 0, "fusion_lat": 0.0, "bike_id": "cfd7db2c252928d5d5bcba7a081ac49e", "rental_uris": {"ios": "https://dc.lft.to/lastmile_qr_scan", "android": "https://dc.lft.to/lastmile_qr_scan"}}, {"name": "a00394d55948917614cb67b78aa0f5b1", "type": "electric_scooter", "lat": 38.893567, "is_reserved": 0, "lon": -77.0199735, "fusion_lon": 0.0, "is_disabled": 0, "fusion_lat": 0.0, "bike_id": "a00394d55948917614cb67b78aa0f5b1", "rental_uris": {"ios": "https://dc.lft.to/lastmile_qr_scan", "android": "https://dc.lft.to/lastmile_qr_scan"}}, {"name": "b2298d574bcbe58b06a511a3efcb7707", "type": "electric_bike", "lat": 38.950742, "is_reserved": 0, "lon": -77.01198433333333, "fusion_lon": 0.0, "is_disabled": 0, "fusion_lat": 0.0, "bike_id": "b2298d574bcbe58b06a511a3efcb7707", "rental_uris": {"ios": "https://dc.lft.to/lastmile_qr_scan", "android": "https://dc.lft.to/lastmile_qr_scan"}}, {"name": "4a4c160b59cc78022acb5b0d9f13f203", "type": "electric_scooter", "lat": 38.93718666666667, "is_reserved": 0, "lon": -77.02420783333334, "fusion_lon": 0.0, "is_disabled": 0, "fusion_lat": 0.0, "bike_id": "4a4c160b59cc78022acb5b0d9f13f203", "rental_uris": {"ios": "https://dc.lft.to/lastmile_qr_scan", "android": "https://dc.lft.to/lastmile_qr_scan"}}, {"name": "85f521039ec3fc496411c6e95ee8512f", "type": "electric_scooter", "lat": 38.90495383333333, "is_reserved": 0, "lon": -77.02594116666667, "fusion_lon": 0.0, "is_disabled": 0, "fusion_lat": 0.0, "bike_id": "85f521039ec3fc496411c6e95ee8512f", "rental_uris": {"ios": "https://dc.lft.to/lastmile_qr_scan", "android": "https://dc.lft.to/lastmile_qr_scan"}}, {"name": "c0f08d64c04174fccdc854d4b28d5e88", "type": "electric_scooter", "lat": 38.928234833333335, "is_reserved": 0, "lon": -77.022593, "fusion_lon": 0.0, "is_disabled": 0, "fusion_lat": 0.0, "bike_id": "c0f08d64c04174fccdc854d4b28d5e88", "rental_uris": {"ios": "https://dc.lft.to/lastmile_qr_scan", "android": "https://dc.lft.to/lastmile_qr_scan"}}, {"name": "dc1d3e0c0c7f5f2895e2e28c5597a979", "type": "electric_scooter", "lat": 38.900848333333336, "is_reserved": 0, "lon": -77.00202183333333, "fusion_lon": 0.0, "is_disabled": 0, "fusion_lat": 0.0, "bike_id": "dc1d3e0c0c7f5f2895e2e28c5597a979", "rental_uris": {"ios": "https://dc.lft.to/lastmile_qr_scan", "android": "https://dc.lft.to/lastmile_qr_scan"}}, {"name": "d48393967969ebc2738684bb8d18601b", "type": "electric_scooter", "lat": 38.8966555, "is_reserved": 0, "lon": -77.01185083333333, "fusion_lon": 0.0, "is_disabled": 0, "fusion_lat": 0.0, "bike_id": "d48393967969ebc2738684bb8d18601b", "rental_uris": {"ios": "https://dc.lft.to/lastmile_qr_scan", "android": "https://dc.lft.to/lastmile_qr_scan"}}, {"name": "82593076b523135d6c681fc1885b5fe2", "type": "electric_scooter", "lat": 38.90143183333333, "is_reserved": 0, "lon": -77.04703583333334, "fusion_lon": 0.0, "is_disabled": 0, "fusion_lat": 0.0, "bike_id": "82593076b523135d6c681fc1885b5fe2", "rental_uris": {"ios": "https://dc.lft.to/lastmile_qr_scan", "android": "https://dc.lft.to/lastmile_qr_scan"}}, {"name": "ad9a488e235a795193a796fea067b0e1", "type": "electric_bike", "lat": 38.8314285, "is_reserved": 0, "lon": -77.113263, "fusion_lon": 0.0, "is_disabled": 0, "fusion_lat": 0.0, "bike_id": "ad9a488e235a795193a796fea067b0e1", "rental_uris": {"ios": "https://dc.lft.to/lastmile_qr_scan", "android": "https://dc.lft.to/lastmile_qr_scan"}}, {"name": "7ba5ec3fcd4e7d1071d8d5b65f8a9394", "type": "electric_scooter", "lat": 38.9078995, "is_reserved": 0, "lon": -77.04874783333334, "fusion_lon": 0.0, "is_disabled": 0, "fusion_lat": 0.0, "bike_id": "7ba5ec3fcd4e7d1071d8d5b65f8a9394", "rental_uris": {"ios": "https://dc.lft.to/lastmile_qr_scan", "android": "https://dc.lft.to/lastmile_qr_scan"}}, {"name": "adfbccb532e4683bb4d3db9bb5e1677c", "type": "electric_bike", "lat": 38.8840755, "is_reserved": 0, "lon": -76.96061116666667, "fusion_lon": 0.0, "is_disabled": 0, "fusion_lat": 0.0, "bike_id": "adfbccb532e4683bb4d3db9bb5e1677c", "rental_uris": {"ios": "https://dc.lft.to/lastmile_qr_scan", "android": "https://dc.lft.to/lastmile_qr_scan"}}, {"name": "ed085843b218706e3f98244bf181f3f2", "type": "electric_scooter", "lat": 38.93432583333333, "is_reserved": 0, "lon": -77.039949, "fusion_lon": 0.0, "is_disabled": 0, "fusion_lat": 0.0, "bike_id": "ed085843b218706e3f98244bf181f3f2", "rental_uris": {"ios": "https://dc.lft.to/lastmile_qr_scan", "android": "https://dc.lft.to/lastmile_qr_scan"}}, {"name": "61c3d8d590853a1721ee19cb477acaa3", "type": "electric_scooter", "lat": 38.91867716666667, "is_reserved": 0, "lon": -77.03503866666667, "fusion_lon": 0.0, "is_disabled": 0, "fusion_lat": 0.0, "bike_id": "61c3d8d590853a1721ee19cb477acaa3", "rental_uris": {"ios": "https://dc.lft.to/lastmile_qr_scan", "android": "https://dc.lft.to/lastmile_qr_scan"}}, {"name": "05b2ff445cd9b967c1b901c9ed623e31", "type": "electric_scooter", "lat": 38.892198666666665, "is_reserved": 0, "lon": -77.03090116666667, "fusion_lon": 0.0, "is_disabled": 0, "fusion_lat": 0.0, "bike_id": "05b2ff445cd9b967c1b901c9ed623e31", "rental_uris": {"ios": "https://dc.lft.to/lastmile_qr_scan", "android": "https://dc.lft.to/lastmile_qr_scan"}}, {"name": "b69d465f4cac10bf3a548f0e86371f02", "type": "electric_scooter", "lat": 38.931152166666664, "is_reserved": 0, "lon": -77.02100666666666, "fusion_lon": 0.0, "is_disabled": 0, "fusion_lat": 0.0, "bike_id": "b69d465f4cac10bf3a548f0e86371f02", "rental_uris": {"ios": "https://dc.lft.to/lastmile_qr_scan", "android": "https://dc.lft.to/lastmile_qr_scan"}}, {"name": "fbaa620cf549eacec0a4f355044b4406", "type": "electric_scooter", "lat": 38.920868166666665, "is_reserved": 0, "lon": -77.02382, "fusion_lon": 0.0, "is_disabled": 0, "fusion_lat": 0.0, "bike_id": "fbaa620cf549eacec0a4f355044b4406", "rental_uris": {"ios": "https://dc.lft.to/lastmile_qr_scan", "android": "https://dc.lft.to/lastmile_qr_scan"}}, {"name": "83b6ae98d7d6a59e9e5f2f83f3acf12f", "type": "electric_scooter", "lat": 38.91124966666667, "is_reserved": 0, "lon": -77.04421233333333, "fusion_lon": 0.0, "is_disabled": 0, "fusion_lat": 0.0, "bike_id": "83b6ae98d7d6a59e9e5f2f83f3acf12f", "rental_uris": {"ios": "https://dc.lft.to/lastmile_qr_scan", "android": "https://dc.lft.to/lastmile_qr_scan"}}, {"name": "bf64cbf60dc0896f5b0e06b36298082d", "type": "electric_scooter", "lat": 38.896534, "is_reserved": 0, "lon": -76.94857616666667, "fusion_lon": 0.0, "is_disabled": 0, "fusion_lat": 0.0, "bike_id": "bf64cbf60dc0896f5b0e06b36298082d", "rental_uris": {"ios": "https://dc.lft.to/lastmile_qr_scan", "android": "https://dc.lft.to/lastmile_qr_scan"}}, {"name": "63fc4930dffd42e9b900e98298c22152", "type": "electric_scooter", "lat": 38.90378416666667, "is_reserved": 0, "lon": -77.01871583333333, "fusion_lon": 0.0, "is_disabled": 0, "fusion_lat": 0.0, "bike_id": "63fc4930dffd42e9b900e98298c22152", "rental_uris": {"ios": "https://dc.lft.to/lastmile_qr_scan", "android": "https://dc.lft.to/lastmile_qr_scan"}}, {"name": "260e28aa8f01eae7c212b7b447618cac", "type": "electric_scooter", "lat": 38.916953666666664, "is_reserved": 0, "lon": -77.0359005, "fusion_lon": 0.0, "is_disabled": 0, "fusion_lat": 0.0, "bike_id": "260e28aa8f01eae7c212b7b447618cac", "rental_uris": {"ios": "https://dc.lft.to/lastmile_qr_scan", "android": "https://dc.lft.to/lastmile_qr_scan"}}, {"name": "5418c0f00143c9c1746d591fc5a36f98", "type": "electric_scooter", "lat": 38.91867416666667, "is_reserved": 0, "lon": -77.02313066666666, "fusion_lon": 0.0, "is_disabled": 0, "fusion_lat": 0.0, "bike_id": "5418c0f00143c9c1746d591fc5a36f98", "rental_uris": {"ios": "https://dc.lft.to/lastmile_qr_scan", "android": "https://dc.lft.to/lastmile_qr_scan"}}, {"name": "471ddc35e965f110bdb7a760fbd0f7be", "type": "electric_scooter", "lat": 38.90819666666667, "is_reserved": 0, "lon": -77.00036866666666, "fusion_lon": 0.0, "is_disabled": 0, "fusion_lat": 0.0, "bike_id": "471ddc35e965f110bdb7a760fbd0f7be", "rental_uris": {"ios": "https://dc.lft.to/lastmile_qr_scan", "android": "https://dc.lft.to/lastmile_qr_scan"}}, {"name": "6c6591381e048dbfebc27bc037b9c244", "type": "electric_scooter", "lat": 38.949352833333336, "is_reserved": 0, "lon": -77.019345, "fusion_lon": 0.0, "is_disabled": 0, "fusion_lat": 0.0, "bike_id": "6c6591381e048dbfebc27bc037b9c244", "rental_uris": {"ios": "https://dc.lft.to/lastmile_qr_scan", "android": "https://dc.lft.to/lastmile_qr_scan"}}, {"name": "50a1aa0819544148d761286117abbbab", "type": "electric_scooter", "lat": 38.9098305, "is_reserved": 0, "lon": -77.06710666666666, "fusion_lon": 0.0, "is_disabled": 0, "fusion_lat": 0.0, "bike_id": "50a1aa0819544148d761286117abbbab", "rental_uris": {"ios": "https://dc.lft.to/lastmile_qr_scan", "android": "https://dc.lft.to/lastmile_qr_scan"}}, {"name": "540d6a73edf33bef4f1ff550e908fdae", "type": "electric_scooter", "lat": 38.93472783333333, "is_reserved": 0, "lon": -77.072618, "fusion_lon": 0.0, "is_disabled": 0, "fusion_lat": 0.0, "bike_id": "540d6a73edf33bef4f1ff550e908fdae", "rental_uris": {"ios": "https://dc.lft.to/lastmile_qr_scan", "android": "https://dc.lft.to/lastmile_qr_scan"}}, {"name": "ee7213ab4b71298d6ef80b20380aeb4d", "type": "electric_scooter", "lat": 38.93856233333333, "is_reserved": 0, "lon": -77.026446, "fusion_lon": 0.0, "is_disabled": 0, "fusion_lat": 0.0, "bike_id": "ee7213ab4b71298d6ef80b20380aeb4d", "rental_uris": {"ios": "https://dc.lft.to/lastmile_qr_scan", "android": "https://dc.lft.to/lastmile_qr_scan"}}, {"name": "c6edf8ae0168f273d80180506c5fbbab", "type": "electric_scooter", "lat": 38.872851, "is_reserved": 0, "lon": -77.0152705, "fusion_lon": 0.0, "is_disabled": 0, "fusion_lat": 0.0, "bike_id": "c6edf8ae0168f273d80180506c5fbbab", "rental_uris": {"ios": "https://dc.lft.to/lastmile_qr_scan", "android": "https://dc.lft.to/lastmile_qr_scan"}}, {"name": "848a6196450416b7bdaa975827a91b46", "type": "electric_scooter", "lat": 38.905128, "is_reserved": 0, "lon": -77.04154333333334, "fusion_lon": 0.0, "is_disabled": 0, "fusion_lat": 0.0, "bike_id": "848a6196450416b7bdaa975827a91b46", "rental_uris": {"ios": "https://dc.lft.to/lastmile_qr_scan", "android": "https://dc.lft.to/lastmile_qr_scan"}}, {"name": "1c8501928a3b53eada410b78029a1c38", "type": "electric_scooter", "lat": 38.921661, "is_reserved": 0, "lon": -77.04120416666666, "fusion_lon": 0.0, "is_disabled": 0, "fusion_lat": 0.0, "bike_id": "1c8501928a3b53eada410b78029a1c38", "rental_uris": {"ios": "https://dc.lft.to/lastmile_qr_scan", "android": "https://dc.lft.to/lastmile_qr_scan"}}, {"name": "10cd91c50dd1b5098d9616de6f79fd1c", "type": "electric_scooter", "lat": 38.913949333333335, "is_reserved": 0, "lon": -77.0332335, "fusion_lon": 0.0, "is_disabled": 0, "fusion_lat": 0.0, "bike_id": "10cd91c50dd1b5098d9616de6f79fd1c", "rental_uris": {"ios": "https://dc.lft.to/lastmile_qr_scan", "android": "https://dc.lft.to/lastmile_qr_scan"}}, {"name": "869b1d4b4e07993276e2cdee5bb3078f", "type": "electric_bike", "lat": 38.951831, "is_reserved": 0, "lon": -76.935445, "fusion_lon": 0.0, "is_disabled": 0, "fusion_lat": 0.0, "bike_id": "869b1d4b4e07993276e2cdee5bb3078f", "rental_uris": {"ios": "https://dc.lft.to/lastmile_qr_scan", "android": "https://dc.lft.to/lastmile_qr_scan"}}, {"name": "0bc24f5855efbf4e1527439ea7268354", "type": "electric_scooter", "lat": 38.9074505, "is_reserved": 0, "lon": -77.03070016666666, "fusion_lon": 0.0, "is_disabled": 0, "fusion_lat": 0.0, "bike_id": "0bc24f5855efbf4e1527439ea7268354", "rental_uris": {"ios": "https://dc.lft.to/lastmile_qr_scan", "android": "https://dc.lft.to/lastmile_qr_scan"}}, {"name": "a667f1ad7b53e4c2a9483292fd46f356", "type": "electric_scooter", "lat": 38.9011055, "is_reserved": 0, "lon": -77.04982766666667, "fusion_lon": 0.0, "is_disabled": 0, "fusion_lat": 0.0, "bike_id": "a667f1ad7b53e4c2a9483292fd46f356", "rental_uris": {"ios": "https://dc.lft.to/lastmile_qr_scan", "android": "https://dc.lft.to/lastmile_qr_scan"}}, {"name": "dfe3d7b164fd18ca2c522c0c62a45d09", "type": "electric_scooter", "lat": 38.89884833333333, "is_reserved": 0, "lon": -76.93175283333333, "fusion_lon": 0.0, "is_disabled": 0, "fusion_lat": 0.0, "bike_id": "dfe3d7b164fd18ca2c522c0c62a45d09", "rental_uris": {"ios": "https://dc.lft.to/lastmile_qr_scan", "android": "https://dc.lft.to/lastmile_qr_scan"}}, {"name": "a01f2a10f5ba0c09aec396d58cfac6ea", "type": "electric_scooter", "lat": 38.88054533333333, "is_reserved": 0, "lon": -77.0133075, "fusion_lon": 0.0, "is_disabled": 0, "fusion_lat": 0.0, "bike_id": "a01f2a10f5ba0c09aec396d58cfac6ea", "rental_uris": {"ios": "https://dc.lft.to/lastmile_qr_scan", "android": "https://dc.lft.to/lastmile_qr_scan"}}, {"name": "7db9ad76713c5fbf0cfecc5a33ff0795", "type": "electric_scooter", "lat": 38.904731166666664, "is_reserved": 0, "lon": -77.04367916666666, "fusion_lon": 0.0, "is_disabled": 0, "fusion_lat": 0.0, "bike_id": "7db9ad76713c5fbf0cfecc5a33ff0795", "rental_uris": {"ios": "https://dc.lft.to/lastmile_qr_scan", "android": "https://dc.lft.to/lastmile_qr_scan"}}, {"name": "6a658c870d125bb280e9435910c44533", "type": "electric_scooter", "lat": 38.913383, "is_reserved": 0, "lon": -77.04837733333333, "fusion_lon": 0.0, "is_disabled": 0, "fusion_lat": 0.0, "bike_id": "6a658c870d125bb280e9435910c44533", "rental_uris": {"ios": "https://dc.lft.to/lastmile_qr_scan", "android": "https://dc.lft.to/lastmile_qr_scan"}}, {"name": "a7f073cca2276b311a39a088d3a3a8dc", "type": "electric_scooter", "lat": 38.895195, "is_reserved": 0, "lon": -76.99148316666667, "fusion_lon": 0.0, "is_disabled": 0, "fusion_lat": 0.0, "bike_id": "a7f073cca2276b311a39a088d3a3a8dc", "rental_uris": {"ios": "https://dc.lft.to/lastmile_qr_scan", "android": "https://dc.lft.to/lastmile_qr_scan"}}, {"name": "446f7a6ce7c795f0fb0e2413c6460af4", "type": "electric_scooter", "lat": 38.89223483333333, "is_reserved": 0, "lon": -77.04538633333334, "fusion_lon": 0.0, "is_disabled": 0, "fusion_lat": 0.0, "bike_id": "446f7a6ce7c795f0fb0e2413c6460af4", "rental_uris": {"ios": "https://dc.lft.to/lastmile_qr_scan", "android": "https://dc.lft.to/lastmile_qr_scan"}}, {"name": "69b623136fe8c60a2acdefa9256981e3", "type": "electric_scooter", "lat": 38.90357866666667, "is_reserved": 0, "lon": -77.0400105, "fusion_lon": 0.0, "is_disabled": 0, "fusion_lat": 0.0, "bike_id": "69b623136fe8c60a2acdefa9256981e3", "rental_uris": {"ios": "https://dc.lft.to/lastmile_qr_scan", "android": "https://dc.lft.to/lastmile_qr_scan"}}, {"name": "0492de0181437b38690f0d373d1851b0", "type": "electric_scooter", "lat": 38.9420655, "is_reserved": 0, "lon": -77.03586416666667, "fusion_lon": 0.0, "is_disabled": 0, "fusion_lat": 0.0, "bike_id": "0492de0181437b38690f0d373d1851b0", "rental_uris": {"ios": "https://dc.lft.to/lastmile_qr_scan", "android": "https://dc.lft.to/lastmile_qr_scan"}}, {"name": "6b5ed3aaae6f6ea8c4a448cc548dd1ea", "type": "electric_scooter", "lat": 38.90380566666666, "is_reserved": 0, "lon": -77.03652416666667, "fusion_lon": 0.0, "is_disabled": 0, "fusion_lat": 0.0, "bike_id": "6b5ed3aaae6f6ea8c4a448cc548dd1ea", "rental_uris": {"ios": "https://dc.lft.to/lastmile_qr_scan", "android": "https://dc.lft.to/lastmile_qr_scan"}}, {"name": "872526fc8e9cde4db0b6fca868dff097", "type": "electric_scooter", "lat": 38.89890283333333, "is_reserved": 0, "lon": -77.03921766666667, "fusion_lon": 0.0, "is_disabled": 0, "fusion_lat": 0.0, "bike_id": "872526fc8e9cde4db0b6fca868dff097", "rental_uris": {"ios": "https://dc.lft.to/lastmile_qr_scan", "android": "https://dc.lft.to/lastmile_qr_scan"}}, {"name": "007393d00cfe548f47df1bbeaae0a7e9", "type": "electric_bike", "lat": 38.915010333333335, "is_reserved": 0, "lon": -77.03208583333333, "fusion_lon": 0.0, "is_disabled": 0, "fusion_lat": 0.0, "bike_id": "007393d00cfe548f47df1bbeaae0a7e9", "rental_uris": {"ios": "https://dc.lft.to/lastmile_qr_scan", "android": "https://dc.lft.to/lastmile_qr_scan"}}, {"name": "8b2bf12d0ddef75ad36beb713baf3158", "type": "electric_scooter", "lat": 38.921271, "is_reserved": 0, "lon": -77.0364925, "fusion_lon": 0.0, "is_disabled": 0, "fusion_lat": 0.0, "bike_id": "8b2bf12d0ddef75ad36beb713baf3158", "rental_uris": {"ios": "https://dc.lft.to/lastmile_qr_scan", "android": "https://dc.lft.to/lastmile_qr_scan"}}, {"name": "5a746685095696409d6b648c5607170c", "type": "electric_scooter", "lat": 38.903571666666664, "is_reserved": 0, "lon": -77.03547916666666, "fusion_lon": 0.0, "is_disabled": 0, "fusion_lat": 0.0, "bike_id": "5a746685095696409d6b648c5607170c", "rental_uris": {"ios": "https://dc.lft.to/lastmile_qr_scan", "android": "https://dc.lft.to/lastmile_qr_scan"}}, {"name": "11e88280f2a8f1b88753eabbaacf0205", "type": "electric_scooter", "lat": 38.907507833333334, "is_reserved": 0, "lon": -77.00765933333334, "fusion_lon": 0.0, "is_disabled": 0, "fusion_lat": 0.0, "bike_id": "11e88280f2a8f1b88753eabbaacf0205", "rental_uris": {"ios": "https://dc.lft.to/lastmile_qr_scan", "android": "https://dc.lft.to/lastmile_qr_scan"}}, {"name": "dcd73b3a712641f3c12497efcb2c3cc9", "type": "electric_scooter", "lat": 38.863526, "is_reserved": 0, "lon": -76.990713, "fusion_lon": 0.0, "is_disabled": 0, "fusion_lat": 0.0, "bike_id": "dcd73b3a712641f3c12497efcb2c3cc9", "rental_uris": {"ios": "https://dc.lft.to/lastmile_qr_scan", "android": "https://dc.lft.to/lastmile_qr_scan"}}, {"name": "07537d0f55e395e5dbca375d3cebcdd3", "type": "electric_scooter", "lat": 38.90005266666667, "is_reserved": 0, "lon": -76.99811433333333, "fusion_lon": 0.0, "is_disabled": 0, "fusion_lat": 0.0, "bike_id": "07537d0f55e395e5dbca375d3cebcdd3", "rental_uris": {"ios": "https://dc.lft.to/lastmile_qr_scan", "android": "https://dc.lft.to/lastmile_qr_scan"}}, {"name": "e46899fa196e8550d1a50f6c5005f08e", "type": "electric_scooter", "lat": 38.92058883333333, "is_reserved": 0, "lon": -77.0237805, "fusion_lon": 0.0, "is_disabled": 0, "fusion_lat": 0.0, "bike_id": "e46899fa196e8550d1a50f6c5005f08e", "rental_uris": {"ios": "https://dc.lft.to/lastmile_qr_scan", "android": "https://dc.lft.to/lastmile_qr_scan"}}, {"name": "17bfec3ac077a6edc47e19483db9b697", "type": "electric_scooter", "lat": 38.909615, "is_reserved": 0, "lon": -77.02278016666666, "fusion_lon": 0.0, "is_disabled": 0, "fusion_lat": 0.0, "bike_id": "17bfec3ac077a6edc47e19483db9b697", "rental_uris": {"ios": "https://dc.lft.to/lastmile_qr_scan", "android": "https://dc.lft.to/lastmile_qr_scan"}}, {"name": "a6676b6bc282eb4b06158bfe9725a6c9", "type": "electric_scooter", "lat": 38.907207166666666, "is_reserved": 0, "lon": -77.04873133333334, "fusion_lon": 0.0, "is_disabled": 0, "fusion_lat": 0.0, "bike_id": "a6676b6bc282eb4b06158bfe9725a6c9", "rental_uris": {"ios": "https://dc.lft.to/lastmile_qr_scan", "android": "https://dc.lft.to/lastmile_qr_scan"}}, {"name": "749ef082485273a4870b192adc4fda0a", "type": "electric_scooter", "lat": 38.93172933333334, "is_reserved": 0, "lon": -77.02360683333333, "fusion_lon": 0.0, "is_disabled": 0, "fusion_lat": 0.0, "bike_id": "749ef082485273a4870b192adc4fda0a", "rental_uris": {"ios": "https://dc.lft.to/lastmile_qr_scan", "android": "https://dc.lft.to/lastmile_qr_scan"}}, {"name": "540a9c083c13f64ed6876b321cd26e51", "type": "electric_scooter", "lat": 38.892297666666664, "is_reserved": 0, "lon": -77.05001033333333, "fusion_lon": 0.0, "is_disabled": 0, "fusion_lat": 0.0, "bike_id": "540a9c083c13f64ed6876b321cd26e51", "rental_uris": {"ios": "https://dc.lft.to/lastmile_qr_scan", "android": "https://dc.lft.to/lastmile_qr_scan"}}, {"name": "2aeba3940adcce698e366a18fda9cdb8", "type": "electric_bike", "lat": 38.94900066666667, "is_reserved": 0, "lon": -76.96375883333333, "fusion_lon": 0.0, "is_disabled": 0, "fusion_lat": 0.0, "bike_id": "2aeba3940adcce698e366a18fda9cdb8", "rental_uris": {"ios": "https://dc.lft.to/lastmile_qr_scan", "android": "https://dc.lft.to/lastmile_qr_scan"}}, {"name": "87f9337f391fb7f159bceca96e98ca8a", "type": "electric_scooter", "lat": 38.929507666666666, "is_reserved": 0, "lon": -76.9974725, "fusion_lon": 0.0, "is_disabled": 0, "fusion_lat": 0.0, "bike_id": "87f9337f391fb7f159bceca96e98ca8a", "rental_uris": {"ios": "https://dc.lft.to/lastmile_qr_scan", "android": "https://dc.lft.to/lastmile_qr_scan"}}, {"name": "8c938ae5120cd103c9375b05c511aa6f", "type": "electric_scooter", "lat": 38.921688, "is_reserved": 0, "lon": -77.02683466666667, "fusion_lon": 0.0, "is_disabled": 0, "fusion_lat": 0.0, "bike_id": "8c938ae5120cd103c9375b05c511aa6f", "rental_uris": {"ios": "https://dc.lft.to/lastmile_qr_scan", "android": "https://dc.lft.to/lastmile_qr_scan"}}, {"name": "c4c8171f5457e0b6498282b21c59f507", "type": "electric_scooter", "lat": 38.91710583333333, "is_reserved": 0, "lon": -77.0346895, "fusion_lon": 0.0, "is_disabled": 0, "fusion_lat": 0.0, "bike_id": "c4c8171f5457e0b6498282b21c59f507", "rental_uris": {"ios": "https://dc.lft.to/lastmile_qr_scan", "android": "https://dc.lft.to/lastmile_qr_scan"}}, {"name": "930d515e173f2c4855f890f6aa470a73", "type": "electric_scooter", "lat": 38.900153833333334, "is_reserved": 0, "lon": -77.00229016666667, "fusion_lon": 0.0, "is_disabled": 0, "fusion_lat": 0.0, "bike_id": "930d515e173f2c4855f890f6aa470a73", "rental_uris": {"ios": "https://dc.lft.to/lastmile_qr_scan", "android": "https://dc.lft.to/lastmile_qr_scan"}}, {"name": "ab6e814bd0eadecb356dd4507bbd1cfd", "type": "electric_scooter", "lat": 38.9113735, "is_reserved": 0, "lon": -77.04353916666666, "fusion_lon": 0.0, "is_disabled": 0, "fusion_lat": 0.0, "bike_id": "ab6e814bd0eadecb356dd4507bbd1cfd", "rental_uris": {"ios": "https://dc.lft.to/lastmile_qr_scan", "android": "https://dc.lft.to/lastmile_qr_scan"}}, {"name": "72bab67c27bc1a62b43a3070932b0524", "type": "electric_scooter", "lat": 38.88209916666667, "is_reserved": 0, "lon": -77.01445583333333, "fusion_lon": 0.0, "is_disabled": 0, "fusion_lat": 0.0, "bike_id": "72bab67c27bc1a62b43a3070932b0524", "rental_uris": {"ios": "https://dc.lft.to/lastmile_qr_scan", "android": "https://dc.lft.to/lastmile_qr_scan"}}, {"name": "c5d37a6e9896c009031835482fef1277", "type": "electric_scooter", "lat": 38.93911, "is_reserved": 0, "lon": -77.06042683333334, "fusion_lon": 0.0, "is_disabled": 0, "fusion_lat": 0.0, "bike_id": "c5d37a6e9896c009031835482fef1277", "rental_uris": {"ios": "https://dc.lft.to/lastmile_qr_scan", "android": "https://dc.lft.to/lastmile_qr_scan"}}, {"name": "4ea259e9fc7622d7dc05cb3294b5fa77", "type": "electric_scooter", "lat": 38.883309833333335, "is_reserved": 0, "lon": -77.0154895, "fusion_lon": 0.0, "is_disabled": 0, "fusion_lat": 0.0, "bike_id": "4ea259e9fc7622d7dc05cb3294b5fa77", "rental_uris": {"ios": "https://dc.lft.to/lastmile_qr_scan", "android": "https://dc.lft.to/lastmile_qr_scan"}}, {"name": "90a59a756c4cf11980909dcfc928d61c", "type": "electric_scooter", "lat": 38.88523933333333, "is_reserved": 0, "lon": -77.00588083333334, "fusion_lon": 0.0, "is_disabled": 0, "fusion_lat": 0.0, "bike_id": "90a59a756c4cf11980909dcfc928d61c", "rental_uris": {"ios": "https://dc.lft.to/lastmile_qr_scan", "android": "https://dc.lft.to/lastmile_qr_scan"}}, {"name": "e414b333e6cf6c27e712449c0507992a", "type": "electric_scooter", "lat": 38.93395916666667, "is_reserved": 0, "lon": -77.0387645, "fusion_lon": 0.0, "is_disabled": 0, "fusion_lat": 0.0, "bike_id": "e414b333e6cf6c27e712449c0507992a", "rental_uris": {"ios": "https://dc.lft.to/lastmile_qr_scan", "android": "https://dc.lft.to/lastmile_qr_scan"}}, {"name": "37e0374d821299ae6301c1972af95c43", "type": "electric_scooter", "lat": 38.892317, "is_reserved": 0, "lon": -77.01273833333333, "fusion_lon": 0.0, "is_disabled": 0, "fusion_lat": 0.0, "bike_id": "37e0374d821299ae6301c1972af95c43", "rental_uris": {"ios": "https://dc.lft.to/lastmile_qr_scan", "android": "https://dc.lft.to/lastmile_qr_scan"}}, {"name": "032b51b80752b3bc1c4c83a8d3b5f12c", "type": "electric_scooter", "lat": 38.90008783333333, "is_reserved": 0, "lon": -77.04041733333334, "fusion_lon": 0.0, "is_disabled": 0, "fusion_lat": 0.0, "bike_id": "032b51b80752b3bc1c4c83a8d3b5f12c", "rental_uris": {"ios": "https://dc.lft.to/lastmile_qr_scan", "android": "https://dc.lft.to/lastmile_qr_scan"}}, {"name": "60bad6c132a6c29b415345895ea7b820", "type": "electric_scooter", "lat": 38.880292, "is_reserved": 0, "lon": -76.988347, "fusion_lon": 0.0, "is_disabled": 0, "fusion_lat": 0.0, "bike_id": "60bad6c132a6c29b415345895ea7b820", "rental_uris": {"ios": "https://dc.lft.to/lastmile_qr_scan", "android": "https://dc.lft.to/lastmile_qr_scan"}}, {"name": "f4f825294cc38f32cc9cefd9dfa7056b", "type": "electric_scooter", "lat": 38.910021, "is_reserved": 0, "lon": -76.99675216666667, "fusion_lon": 0.0, "is_disabled": 0, "fusion_lat": 0.0, "bike_id": "f4f825294cc38f32cc9cefd9dfa7056b", "rental_uris": {"ios": "https://dc.lft.to/lastmile_qr_scan", "android": "https://dc.lft.to/lastmile_qr_scan"}}, {"name": "802d3d886bc2705a1a4c0ed0e859c07b", "type": "electric_scooter", "lat": 38.900811833333336, "is_reserved": 0, "lon": -77.0590735, "fusion_lon": 0.0, "is_disabled": 0, "fusion_lat": 0.0, "bike_id": "802d3d886bc2705a1a4c0ed0e859c07b", "rental_uris": {"ios": "https://dc.lft.to/lastmile_qr_scan", "android": "https://dc.lft.to/lastmile_qr_scan"}}, {"name": "5b4f5df2b0f91f6b30ff2812a1357027", "type": "electric_scooter", "lat": 38.905256666666666, "is_reserved": 0, "lon": -77.053305, "fusion_lon": 0.0, "is_disabled": 0, "fusion_lat": 0.0, "bike_id": "5b4f5df2b0f91f6b30ff2812a1357027", "rental_uris": {"ios": "https://dc.lft.to/lastmile_qr_scan", "android": "https://dc.lft.to/lastmile_qr_scan"}}, {"name": "43304451c299a4ecb08e6508387a0ae4", "type": "electric_scooter", "lat": 38.92738466666667, "is_reserved": 0, "lon": -77.024922, "fusion_lon": 0.0, "is_disabled": 0, "fusion_lat": 0.0, "bike_id": "43304451c299a4ecb08e6508387a0ae4", "rental_uris": {"ios": "https://dc.lft.to/lastmile_qr_scan", "android": "https://dc.lft.to/lastmile_qr_scan"}}, {"name": "e99783b3c2c8049bff944b1a69a131b0", "type": "electric_scooter", "lat": 38.884997166666665, "is_reserved": 0, "lon": -77.03073183333333, "fusion_lon": 0.0, "is_disabled": 0, "fusion_lat": 0.0, "bike_id": "e99783b3c2c8049bff944b1a69a131b0", "rental_uris": {"ios": "https://dc.lft.to/lastmile_qr_scan", "android": "https://dc.lft.to/lastmile_qr_scan"}}, {"name": "eeb725204d2bb5c4bf94121698b41e68", "type": "electric_scooter", "lat": 38.91556383333333, "is_reserved": 0, "lon": -77.04489066666666, "fusion_lon": 0.0, "is_disabled": 0, "fusion_lat": 0.0, "bike_id": "eeb725204d2bb5c4bf94121698b41e68", "rental_uris": {"ios": "https://dc.lft.to/lastmile_qr_scan", "android": "https://dc.lft.to/lastmile_qr_scan"}}, {"name": "c5deed8ee511dfbd2b460abb6f4c29a3", "type": "electric_scooter", "lat": 38.883249, "is_reserved": 0, "lon": -77.01744366666667, "fusion_lon": 0.0, "is_disabled": 0, "fusion_lat": 0.0, "bike_id": "c5deed8ee511dfbd2b460abb6f4c29a3", "rental_uris": {"ios": "https://dc.lft.to/lastmile_qr_scan", "android": "https://dc.lft.to/lastmile_qr_scan"}}, {"name": "dcc4b815e5ac97a1f866ae74d956ddff", "type": "electric_scooter", "lat": 38.916631, "is_reserved": 0, "lon": -77.023762, "fusion_lon": 0.0, "is_disabled": 0, "fusion_lat": 0.0, "bike_id": "dcc4b815e5ac97a1f866ae74d956ddff", "rental_uris": {"ios": "https://dc.lft.to/lastmile_qr_scan", "android": "https://dc.lft.to/lastmile_qr_scan"}}, {"name": "c736d2855fd693961b4b98542513e52c", "type": "electric_scooter", "lat": 38.908735, "is_reserved": 0, "lon": -77.0318, "fusion_lon": 0.0, "is_disabled": 0, "fusion_lat": 0.0, "bike_id": "c736d2855fd693961b4b98542513e52c", "rental_uris": {"ios": "https://dc.lft.to/lastmile_qr_scan", "android": "https://dc.lft.to/lastmile_qr_scan"}}, {"name": "540c4f294b6d7927910bf3b2c3642fc6", "type": "electric_bike", "lat": 39.03887533333333, "is_reserved": 0, "lon": -76.99045966666667, "fusion_lon": 0.0, "is_disabled": 0, "fusion_lat": 0.0, "bike_id": "540c4f294b6d7927910bf3b2c3642fc6", "rental_uris": {"ios": "https://dc.lft.to/lastmile_qr_scan", "android": "https://dc.lft.to/lastmile_qr_scan"}}, {"name": "34f883670b756e713dec2d9e1f2fbb00", "type": "electric_scooter", "lat": 38.90079566666667, "is_reserved": 0, "lon": -77.05026333333333, "fusion_lon": 0.0, "is_disabled": 0, "fusion_lat": 0.0, "bike_id": "34f883670b756e713dec2d9e1f2fbb00", "rental_uris": {"ios": "https://dc.lft.to/lastmile_qr_scan", "android": "https://dc.lft.to/lastmile_qr_scan"}}, {"name": "b70770193f2497021dad21a88b3b34b4", "type": "electric_scooter", "lat": 38.90916416666666, "is_reserved": 0, "lon": -77.03201116666666, "fusion_lon": 0.0, "is_disabled": 0, "fusion_lat": 0.0, "bike_id": "b70770193f2497021dad21a88b3b34b4", "rental_uris": {"ios": "https://dc.lft.to/lastmile_qr_scan", "android": "https://dc.lft.to/lastmile_qr_scan"}}, {"name": "9a441bd2a98dedd2a332d091b8dfa71f", "type": "electric_scooter", "lat": 38.90104766666666, "is_reserved": 0, "lon": -77.04135216666667, "fusion_lon": 0.0, "is_disabled": 0, "fusion_lat": 0.0, "bike_id": "9a441bd2a98dedd2a332d091b8dfa71f", "rental_uris": {"ios": "https://dc.lft.to/lastmile_qr_scan", "android": "https://dc.lft.to/lastmile_qr_scan"}}, {"name": "227dca036f28e3932558c901cf20db28", "type": "electric_scooter", "lat": 38.94317933333333, "is_reserved": 0, "lon": -77.05928666666667, "fusion_lon": 0.0, "is_disabled": 0, "fusion_lat": 0.0, "bike_id": "227dca036f28e3932558c901cf20db28", "rental_uris": {"ios": "https://dc.lft.to/lastmile_qr_scan", "android": "https://dc.lft.to/lastmile_qr_scan"}}, {"name": "1dc2194db76d37714cda029e54f800b3", "type": "electric_scooter", "lat": 38.9342675, "is_reserved": 0, "lon": -77.0399925, "fusion_lon": 0.0, "is_disabled": 0, "fusion_lat": 0.0, "bike_id": "1dc2194db76d37714cda029e54f800b3", "rental_uris": {"ios": "https://dc.lft.to/lastmile_qr_scan", "android": "https://dc.lft.to/lastmile_qr_scan"}}, {"name": "c65a117d5ea43e8ba409c054a827a139", "type": "electric_scooter", "lat": 38.958232833333334, "is_reserved": 0, "lon": -77.029248, "fusion_lon": 0.0, "is_disabled": 0, "fusion_lat": 0.0, "bike_id": "c65a117d5ea43e8ba409c054a827a139", "rental_uris": {"ios": "https://dc.lft.to/lastmile_qr_scan", "android": "https://dc.lft.to/lastmile_qr_scan"}}, {"name": "f8736c169dad56a786959a88b8dbfef3", "type": "electric_scooter", "lat": 38.900649666666666, "is_reserved": 0, "lon": -77.045359, "fusion_lon": 0.0, "is_disabled": 0, "fusion_lat": 0.0, "bike_id": "f8736c169dad56a786959a88b8dbfef3", "rental_uris": {"ios": "https://dc.lft.to/lastmile_qr_scan", "android": "https://dc.lft.to/lastmile_qr_scan"}}, {"name": "d09aa2aa36c549d9469cd8f1fd60c9fe", "type": "electric_scooter", "lat": 38.933788666666665, "is_reserved": 0, "lon": -77.03464083333333, "fusion_lon": 0.0, "is_disabled": 0, "fusion_lat": 0.0, "bike_id": "d09aa2aa36c549d9469cd8f1fd60c9fe", "rental_uris": {"ios": "https://dc.lft.to/lastmile_qr_scan", "android": "https://dc.lft.to/lastmile_qr_scan"}}, {"name": "dd030038cc8268942b33b72f553379e7", "type": "electric_scooter", "lat": 38.917037666666666, "is_reserved": 0, "lon": -77.04173316666666, "fusion_lon": 0.0, "is_disabled": 0, "fusion_lat": 0.0, "bike_id": "dd030038cc8268942b33b72f553379e7", "rental_uris": {"ios": "https://dc.lft.to/lastmile_qr_scan", "android": "https://dc.lft.to/lastmile_qr_scan"}}, {"name": "f8ae20d5716b036935d40e7dd2861e06", "type": "electric_bike", "lat": 38.94830866666667, "is_reserved": 0, "lon": -77.03899566666666, "fusion_lon": 0.0, "is_disabled": 0, "fusion_lat": 0.0, "bike_id": "f8ae20d5716b036935d40e7dd2861e06", "rental_uris": {"ios": "https://dc.lft.to/lastmile_qr_scan", "android": "https://dc.lft.to/lastmile_qr_scan"}}, {"name": "47952b00011d4008ee5081c50303c01f", "type": "electric_scooter", "lat": 38.923988666666666, "is_reserved": 0, "lon": -77.02538966666667, "fusion_lon": 0.0, "is_disabled": 0, "fusion_lat": 0.0, "bike_id": "47952b00011d4008ee5081c50303c01f", "rental_uris": {"ios": "https://dc.lft.to/lastmile_qr_scan", "android": "https://dc.lft.to/lastmile_qr_scan"}}, {"name": "701642462d5e68b37778df4e3b7b288e", "type": "electric_scooter", "lat": 38.9342205, "is_reserved": 0, "lon": -77.07248116666666, "fusion_lon": 0.0, "is_disabled": 0, "fusion_lat": 0.0, "bike_id": "701642462d5e68b37778df4e3b7b288e", "rental_uris": {"ios": "https://dc.lft.to/lastmile_qr_scan", "android": "https://dc.lft.to/lastmile_qr_scan"}}, {"name": "89dc542db8b7f0a6c72d9642322d112a", "type": "electric_scooter", "lat": 38.894535833333336, "is_reserved": 0, "lon": -77.03062133333333, "fusion_lon": 0.0, "is_disabled": 0, "fusion_lat": 0.0, "bike_id": "89dc542db8b7f0a6c72d9642322d112a", "rental_uris": {"ios": "https://dc.lft.to/lastmile_qr_scan", "android": "https://dc.lft.to/lastmile_qr_scan"}}, {"name": "1cda78c1097e20cdc262219b14ffb58d", "type": "electric_scooter", "lat": 38.912111, "is_reserved": 0, "lon": -77.04477, "fusion_lon": 0.0, "is_disabled": 0, "fusion_lat": 0.0, "bike_id": "1cda78c1097e20cdc262219b14ffb58d", "rental_uris": {"ios": "https://dc.lft.to/lastmile_qr_scan", "android": "https://dc.lft.to/lastmile_qr_scan"}}, {"name": "85ed04b4405894753b07da6dfa1899d0", "type": "electric_scooter", "lat": 38.894903666666664, "is_reserved": 0, "lon": -77.00208166666667, "fusion_lon": 0.0, "is_disabled": 0, "fusion_lat": 0.0, "bike_id": "85ed04b4405894753b07da6dfa1899d0", "rental_uris": {"ios": "https://dc.lft.to/lastmile_qr_scan", "android": "https://dc.lft.to/lastmile_qr_scan"}}, {"name": "0848cd49963de4121496fff81457c660", "type": "electric_bike", "lat": 38.84053566666667, "is_reserved": 0, "lon": -77.064059, "fusion_lon": 0.0, "is_disabled": 0, "fusion_lat": 0.0, "bike_id": "0848cd49963de4121496fff81457c660", "rental_uris": {"ios": "https://dc.lft.to/lastmile_qr_scan", "android": "https://dc.lft.to/lastmile_qr_scan"}}, {"name": "c8eca13c585b94c8ce8dfa5e51c0ce1c", "type": "electric_scooter", "lat": 38.86243066666667, "is_reserved": 0, "lon": -76.994966, "fusion_lon": 0.0, "is_disabled": 0, "fusion_lat": 0.0, "bike_id": "c8eca13c585b94c8ce8dfa5e51c0ce1c", "rental_uris": {"ios": "https://dc.lft.to/lastmile_qr_scan", "android": "https://dc.lft.to/lastmile_qr_scan"}}, {"name": "80a93b1d2bb1a6776e6bd988c7a26fd0", "type": "electric_scooter", "lat": 38.898908666666664, "is_reserved": 0, "lon": -76.93360816666667, "fusion_lon": 0.0, "is_disabled": 0, "fusion_lat": 0.0, "bike_id": "80a93b1d2bb1a6776e6bd988c7a26fd0", "rental_uris": {"ios": "https://dc.lft.to/lastmile_qr_scan", "android": "https://dc.lft.to/lastmile_qr_scan"}}, {"name": "d7647dda39b5c3bba17e51fe0d622b9c", "type": "electric_scooter", "lat": 38.929514166666664, "is_reserved": 0, "lon": -77.05499833333333, "fusion_lon": 0.0, "is_disabled": 0, "fusion_lat": 0.0, "bike_id": "d7647dda39b5c3bba17e51fe0d622b9c", "rental_uris": {"ios": "https://dc.lft.to/lastmile_qr_scan", "android": "https://dc.lft.to/lastmile_qr_scan"}}, {"name": "41a58fade322d70529f7392718d395a1", "type": "electric_scooter", "lat": 38.927259, "is_reserved": 0, "lon": -77.0056495, "fusion_lon": 0.0, "is_disabled": 0, "fusion_lat": 0.0, "bike_id": "41a58fade322d70529f7392718d395a1", "rental_uris": {"ios": "https://dc.lft.to/lastmile_qr_scan", "android": "https://dc.lft.to/lastmile_qr_scan"}}, {"name": "56ab9f6cdbdac8e152c1bc8d5cad0adf", "type": "electric_bike", "lat": 38.857909166666666, "is_reserved": 0, "lon": -77.0996155, "fusion_lon": 0.0, "is_disabled": 0, "fusion_lat": 0.0, "bike_id": "56ab9f6cdbdac8e152c1bc8d5cad0adf", "rental_uris": {"ios": "https://dc.lft.to/lastmile_qr_scan", "android": "https://dc.lft.to/lastmile_qr_scan"}}, {"name": "1ac4d22666920068e634be2cdc4ec692", "type": "electric_bike", "lat": 38.875265, "is_reserved": 0, "lon": -77.19906433333334, "fusion_lon": 0.0, "is_disabled": 0, "fusion_lat": 0.0, "bike_id": "1ac4d22666920068e634be2cdc4ec692", "rental_uris": {"ios": "https://dc.lft.to/lastmile_qr_scan", "android": "https://dc.lft.to/lastmile_qr_scan"}}, {"name": "3a42fd35886738c545164b8d64bccd43", "type": "electric_scooter", "lat": 38.897311, "is_reserved": 0, "lon": -77.010489, "fusion_lon": 0.0, "is_disabled": 0, "fusion_lat": 0.0, "bike_id": "3a42fd35886738c545164b8d64bccd43", "rental_uris": {"ios": "https://dc.lft.to/lastmile_qr_scan", "android": "https://dc.lft.to/lastmile_qr_scan"}}, {"name": "a165cdcc0137c7059bb66b205b3478fe", "type": "electric_bike", "lat": 39.094626833333336, "is_reserved": 0, "lon": -77.14994266666666, "fusion_lon": 0.0, "is_disabled": 0, "fusion_lat": 0.0, "bike_id": "a165cdcc0137c7059bb66b205b3478fe", "rental_uris": {"ios": "https://dc.lft.to/lastmile_qr_scan", "android": "https://dc.lft.to/lastmile_qr_scan"}}, {"name": "8162051abfb26068d939f070734da08e", "type": "electric_scooter", "lat": 38.89013816666667, "is_reserved": 0, "lon": -76.93730383333333, "fusion_lon": 0.0, "is_disabled": 0, "fusion_lat": 0.0, "bike_id": "8162051abfb26068d939f070734da08e", "rental_uris": {"ios": "https://dc.lft.to/lastmile_qr_scan", "android": "https://dc.lft.to/lastmile_qr_scan"}}, {"name": "5b8eb5bba468b0408845af2a72b202ff", "type": "electric_bike", "lat": 38.91489833333333, "is_reserved": 0, "lon": -77.01858616666667, "fusion_lon": 0.0, "is_disabled": 0, "fusion_lat": 0.0, "bike_id": "5b8eb5bba468b0408845af2a72b202ff", "rental_uris": {"ios": "https://dc.lft.to/lastmile_qr_scan", "android": "https://dc.lft.to/lastmile_qr_scan"}}, {"name": "83befae85b7896831e69c5c745cbd2c5", "type": "electric_scooter", "lat": 38.863728, "is_reserved": 0, "lon": -77.0135905, "fusion_lon": 0.0, "is_disabled": 0, "fusion_lat": 0.0, "bike_id": "83befae85b7896831e69c5c745cbd2c5", "rental_uris": {"ios": "https://dc.lft.to/lastmile_qr_scan", "android": "https://dc.lft.to/lastmile_qr_scan"}}, {"name": "632f37bfe89d6a14c4d9be79e74fd529", "type": "electric_scooter", "lat": 38.91260533333333, "is_reserved": 0, "lon": -77.03537966666667, "fusion_lon": 0.0, "is_disabled": 0, "fusion_lat": 0.0, "bike_id": "632f37bfe89d6a14c4d9be79e74fd529", "rental_uris": {"ios": "https://dc.lft.to/lastmile_qr_scan", "android": "https://dc.lft.to/lastmile_qr_scan"}}, {"name": "4e4273bc7b8422772692e2fb8d8939a7", "type": "electric_scooter", "lat": 38.88345133333333, "is_reserved": 0, "lon": -76.949325, "fusion_lon": 0.0, "is_disabled": 0, "fusion_lat": 0.0, "bike_id": "4e4273bc7b8422772692e2fb8d8939a7", "rental_uris": {"ios": "https://dc.lft.to/lastmile_qr_scan", "android": "https://dc.lft.to/lastmile_qr_scan"}}, {"name": "072bc17f6e6c872272b6da1cb9538178", "type": "electric_scooter", "lat": 38.89224083333333, "is_reserved": 0, "lon": -77.04642633333333, "fusion_lon": 0.0, "is_disabled": 0, "fusion_lat": 0.0, "bike_id": "072bc17f6e6c872272b6da1cb9538178", "rental_uris": {"ios": "https://dc.lft.to/lastmile_qr_scan", "android": "https://dc.lft.to/lastmile_qr_scan"}}, {"name": "733a681a20b9cb992c6acd2c99730945", "type": "electric_scooter", "lat": 38.9025235, "is_reserved": 0, "lon": -77.04513366666667, "fusion_lon": 0.0, "is_disabled": 0, "fusion_lat": 0.0, "bike_id": "733a681a20b9cb992c6acd2c99730945", "rental_uris": {"ios": "https://dc.lft.to/lastmile_qr_scan", "android": "https://dc.lft.to/lastmile_qr_scan"}}, {"name": "9e33daa59eb6b0dc8fe69d5bba7963dc", "type": "electric_scooter", "lat": 38.892192333333334, "is_reserved": 0, "lon": -77.04261866666667, "fusion_lon": 0.0, "is_disabled": 0, "fusion_lat": 0.0, "bike_id": "9e33daa59eb6b0dc8fe69d5bba7963dc", "rental_uris": {"ios": "https://dc.lft.to/lastmile_qr_scan", "android": "https://dc.lft.to/lastmile_qr_scan"}}, {"name": "b5dbc4037c532109d551fb3758854aaf", "type": "electric_scooter", "lat": 38.92559833333333, "is_reserved": 0, "lon": -77.0628385, "fusion_lon": 0.0, "is_disabled": 0, "fusion_lat": 0.0, "bike_id": "b5dbc4037c532109d551fb3758854aaf", "rental_uris": {"ios": "https://dc.lft.to/lastmile_qr_scan", "android": "https://dc.lft.to/lastmile_qr_scan"}}, {"name": "4b1a3c1dd703ace2033f12fa6c8d4bed", "type": "electric_scooter", "lat": 38.92423466666666, "is_reserved": 0, "lon": -77.051737, "fusion_lon": 0.0, "is_disabled": 0, "fusion_lat": 0.0, "bike_id": "4b1a3c1dd703ace2033f12fa6c8d4bed", "rental_uris": {"ios": "https://dc.lft.to/lastmile_qr_scan", "android": "https://dc.lft.to/lastmile_qr_scan"}}, {"name": "cf114f44e37c6dbd073705c8cec5590a", "type": "electric_scooter", "lat": 38.93063516666667, "is_reserved": 0, "lon": -77.0231855, "fusion_lon": 0.0, "is_disabled": 0, "fusion_lat": 0.0, "bike_id": "cf114f44e37c6dbd073705c8cec5590a", "rental_uris": {"ios": "https://dc.lft.to/lastmile_qr_scan", "android": "https://dc.lft.to/lastmile_qr_scan"}}, {"name": "3e8066494ababfd1873a64d505e4bf04", "type": "electric_scooter", "lat": 38.912542, "is_reserved": 0, "lon": -77.00766583333333, "fusion_lon": 0.0, "is_disabled": 0, "fusion_lat": 0.0, "bike_id": "3e8066494ababfd1873a64d505e4bf04", "rental_uris": {"ios": "https://dc.lft.to/lastmile_qr_scan", "android": "https://dc.lft.to/lastmile_qr_scan"}}, {"name": "789600fb3fb0a7b8d402992f31868be4", "type": "electric_scooter", "lat": 38.90131216666666, "is_reserved": 0, "lon": -77.0293715, "fusion_lon": 0.0, "is_disabled": 0, "fusion_lat": 0.0, "bike_id": "789600fb3fb0a7b8d402992f31868be4", "rental_uris": {"ios": "https://dc.lft.to/lastmile_qr_scan", "android": "https://dc.lft.to/lastmile_qr_scan"}}, {"name": "9e9e7e1fd225ce58206e9fb0bfa20bc9", "type": "electric_scooter", "lat": 38.894782666666664, "is_reserved": 0, "lon": -77.010698, "fusion_lon": 0.0, "is_disabled": 0, "fusion_lat": 0.0, "bike_id": "9e9e7e1fd225ce58206e9fb0bfa20bc9", "rental_uris": {"ios": "https://dc.lft.to/lastmile_qr_scan", "android": "https://dc.lft.to/lastmile_qr_scan"}}, {"name": "ef57447b0e2d031224a5927e8811f670", "type": "electric_scooter", "lat": 38.92222233333333, "is_reserved": 0, "lon": -77.042422, "fusion_lon": 0.0, "is_disabled": 0, "fusion_lat": 0.0, "bike_id": "ef57447b0e2d031224a5927e8811f670", "rental_uris": {"ios": "https://dc.lft.to/lastmile_qr_scan", "android": "https://dc.lft.to/lastmile_qr_scan"}}, {"name": "bf7f24bee267fc87e0d34afdf38f1a44", "type": "electric_bike", "lat": 38.9285355, "is_reserved": 0, "lon": -77.1067785, "fusion_lon": 0.0, "is_disabled": 0, "fusion_lat": 0.0, "bike_id": "bf7f24bee267fc87e0d34afdf38f1a44", "rental_uris": {"ios": "https://dc.lft.to/lastmile_qr_scan", "android": "https://dc.lft.to/lastmile_qr_scan"}}, {"name": "823e60279af8b1b424a15d18db0f295c", "type": "electric_scooter", "lat": 38.862022833333334, "is_reserved": 0, "lon": -76.99465616666667, "fusion_lon": 0.0, "is_disabled": 0, "fusion_lat": 0.0, "bike_id": "823e60279af8b1b424a15d18db0f295c", "rental_uris": {"ios": "https://dc.lft.to/lastmile_qr_scan", "android": "https://dc.lft.to/lastmile_qr_scan"}}, {"name": "f9b192cbf505093a4686f2826656af9e", "type": "electric_scooter", "lat": 38.91916583333333, "is_reserved": 0, "lon": -77.03339533333333, "fusion_lon": 0.0, "is_disabled": 0, "fusion_lat": 0.0, "bike_id": "f9b192cbf505093a4686f2826656af9e", "rental_uris": {"ios": "https://dc.lft.to/lastmile_qr_scan", "android": "https://dc.lft.to/lastmile_qr_scan"}}, {"name": "6593c211588b750d3ecbbcdcf83ad2b3", "type": "electric_scooter", "lat": 38.928994833333334, "is_reserved": 0, "lon": -77.02500116666667, "fusion_lon": 0.0, "is_disabled": 0, "fusion_lat": 0.0, "bike_id": "6593c211588b750d3ecbbcdcf83ad2b3", "rental_uris": {"ios": "https://dc.lft.to/lastmile_qr_scan", "android": "https://dc.lft.to/lastmile_qr_scan"}}, {"name": "2392035e8ac7f691d1e2a18b6f4a863a", "type": "electric_scooter", "lat": 38.93498983333333, "is_reserved": 0, "lon": -77.027241, "fusion_lon": 0.0, "is_disabled": 0, "fusion_lat": 0.0, "bike_id": "2392035e8ac7f691d1e2a18b6f4a863a", "rental_uris": {"ios": "https://dc.lft.to/lastmile_qr_scan", "android": "https://dc.lft.to/lastmile_qr_scan"}}, {"name": "e70e51a11ddf4ff6a926a7a2202f0406", "type": "electric_scooter", "lat": 38.903447166666666, "is_reserved": 0, "lon": -77.025228, "fusion_lon": 0.0, "is_disabled": 0, "fusion_lat": 0.0, "bike_id": "e70e51a11ddf4ff6a926a7a2202f0406", "rental_uris": {"ios": "https://dc.lft.to/lastmile_qr_scan", "android": "https://dc.lft.to/lastmile_qr_scan"}}, {"name": "00644bacf6313753318127c18edc5bff", "type": "electric_scooter", "lat": 38.87734533333333, "is_reserved": 0, "lon": -76.97281416666667, "fusion_lon": 0.0, "is_disabled": 0, "fusion_lat": 0.0, "bike_id": "00644bacf6313753318127c18edc5bff", "rental_uris": {"ios": "https://dc.lft.to/lastmile_qr_scan", "android": "https://dc.lft.to/lastmile_qr_scan"}}, {"name": "350e4c0452b2b70d961539e19ff7bbaa", "type": "electric_bike", "lat": 38.9286205, "is_reserved": 0, "lon": -77.03273766666666, "fusion_lon": 0.0, "is_disabled": 0, "fusion_lat": 0.0, "bike_id": "350e4c0452b2b70d961539e19ff7bbaa", "rental_uris": {"ios": "https://dc.lft.to/lastmile_qr_scan", "android": "https://dc.lft.to/lastmile_qr_scan"}}, {"name": "0fb1274bfaa61123c73e0714e3188934", "type": "electric_scooter", "lat": 38.918306333333334, "is_reserved": 0, "lon": -77.04013466666666, "fusion_lon": 0.0, "is_disabled": 0, "fusion_lat": 0.0, "bike_id": "0fb1274bfaa61123c73e0714e3188934", "rental_uris": {"ios": "https://dc.lft.to/lastmile_qr_scan", "android": "https://dc.lft.to/lastmile_qr_scan"}}, {"name": "3815b885e673bf076dc67ca74054dac0", "type": "electric_scooter", "lat": 38.9483045, "is_reserved": 0, "lon": -77.02549233333333, "fusion_lon": 0.0, "is_disabled": 0, "fusion_lat": 0.0, "bike_id": "3815b885e673bf076dc67ca74054dac0", "rental_uris": {"ios": "https://dc.lft.to/lastmile_qr_scan", "android": "https://dc.lft.to/lastmile_qr_scan"}}, {"name": "c1881f816c188272fde0c4610f1707b5", "type": "electric_scooter", "lat": 38.91954583333333, "is_reserved": 0, "lon": -77.02393116666667, "fusion_lon": 0.0, "is_disabled": 0, "fusion_lat": 0.0, "bike_id": "c1881f816c188272fde0c4610f1707b5", "rental_uris": {"ios": "https://dc.lft.to/lastmile_qr_scan", "android": "https://dc.lft.to/lastmile_qr_scan"}}, {"name": "09a318ae210f8f211096bc1d5aff3a07", "type": "electric_scooter", "lat": 38.90564283333333, "is_reserved": 0, "lon": -77.00245733333334, "fusion_lon": 0.0, "is_disabled": 0, "fusion_lat": 0.0, "bike_id": "09a318ae210f8f211096bc1d5aff3a07", "rental_uris": {"ios": "https://dc.lft.to/lastmile_qr_scan", "android": "https://dc.lft.to/lastmile_qr_scan"}}, {"name": "526f42bad93e03c432639e43348b5aac", "type": "electric_scooter", "lat": 38.90240516666667, "is_reserved": 0, "lon": -76.97409766666667, "fusion_lon": 0.0, "is_disabled": 0, "fusion_lat": 0.0, "bike_id": "526f42bad93e03c432639e43348b5aac", "rental_uris": {"ios": "https://dc.lft.to/lastmile_qr_scan", "android": "https://dc.lft.to/lastmile_qr_scan"}}, {"name": "69609fb44de33077008ee547ffae09d4", "type": "electric_scooter", "lat": 38.90335733333333, "is_reserved": 0, "lon": -77.02550933333333, "fusion_lon": 0.0, "is_disabled": 0, "fusion_lat": 0.0, "bike_id": "69609fb44de33077008ee547ffae09d4", "rental_uris": {"ios": "https://dc.lft.to/lastmile_qr_scan", "android": "https://dc.lft.to/lastmile_qr_scan"}}, {"name": "e09b9ccba01c895a70a2fa9d52559db7", "type": "electric_scooter", "lat": 38.8798325, "is_reserved": 0, "lon": -77.02410333333333, "fusion_lon": 0.0, "is_disabled": 0, "fusion_lat": 0.0, "bike_id": "e09b9ccba01c895a70a2fa9d52559db7", "rental_uris": {"ios": "https://dc.lft.to/lastmile_qr_scan", "android": "https://dc.lft.to/lastmile_qr_scan"}}, {"name": "cd305098e581e4af52d2688c897b590e", "type": "electric_scooter", "lat": 38.899737, "is_reserved": 0, "lon": -77.0271185, "fusion_lon": 0.0, "is_disabled": 0, "fusion_lat": 0.0, "bike_id": "cd305098e581e4af52d2688c897b590e", "rental_uris": {"ios": "https://dc.lft.to/lastmile_qr_scan", "android": "https://dc.lft.to/lastmile_qr_scan"}}, {"name": "2fa83e194270791fbe984cc25480cad4", "type": "electric_scooter", "lat": 38.89682066666667, "is_reserved": 0, "lon": -76.9474335, "fusion_lon": 0.0, "is_disabled": 0, "fusion_lat": 0.0, "bike_id": "2fa83e194270791fbe984cc25480cad4", "rental_uris": {"ios": "https://dc.lft.to/lastmile_qr_scan", "android": "https://dc.lft.to/lastmile_qr_scan"}}, {"name": "3fcd65293bea2664752c26d6abcf9a48", "type": "electric_scooter", "lat": 38.8986965, "is_reserved": 0, "lon": -77.0401325, "fusion_lon": 0.0, "is_disabled": 0, "fusion_lat": 0.0, "bike_id": "3fcd65293bea2664752c26d6abcf9a48", "rental_uris": {"ios": "https://dc.lft.to/lastmile_qr_scan", "android": "https://dc.lft.to/lastmile_qr_scan"}}, {"name": "07e57d8ce8022ae5bce76f03d0471a8b", "type": "electric_scooter", "lat": 38.914172666666666, "is_reserved": 0, "lon": -77.00972583333333, "fusion_lon": 0.0, "is_disabled": 0, "fusion_lat": 0.0, "bike_id": "07e57d8ce8022ae5bce76f03d0471a8b", "rental_uris": {"ios": "https://dc.lft.to/lastmile_qr_scan", "android": "https://dc.lft.to/lastmile_qr_scan"}}, {"name": "febcf88fd120bfd70275ca56259e8054", "type": "electric_scooter", "lat": 38.949439166666664, "is_reserved": 0, "lon": -77.0161885, "fusion_lon": 0.0, "is_disabled": 0, "fusion_lat": 0.0, "bike_id": "febcf88fd120bfd70275ca56259e8054", "rental_uris": {"ios": "https://dc.lft.to/lastmile_qr_scan", "android": "https://dc.lft.to/lastmile_qr_scan"}}, {"name": "86e976f4023054904186940d760a167d", "type": "electric_scooter", "lat": 38.912023, "is_reserved": 0, "lon": -77.03203266666667, "fusion_lon": 0.0, "is_disabled": 0, "fusion_lat": 0.0, "bike_id": "86e976f4023054904186940d760a167d", "rental_uris": {"ios": "https://dc.lft.to/lastmile_qr_scan", "android": "https://dc.lft.to/lastmile_qr_scan"}}, {"name": "dbc705af44499695edea62787ff4f400", "type": "electric_scooter", "lat": 38.90309116666667, "is_reserved": 0, "lon": -77.03832233333333, "fusion_lon": 0.0, "is_disabled": 0, "fusion_lat": 0.0, "bike_id": "dbc705af44499695edea62787ff4f400", "rental_uris": {"ios": "https://dc.lft.to/lastmile_qr_scan", "android": "https://dc.lft.to/lastmile_qr_scan"}}, {"name": "4e96a437af7151206e3e59c5156ef3dd", "type": "electric_scooter", "lat": 38.91177966666667, "is_reserved": 0, "lon": -77.03202016666667, "fusion_lon": 0.0, "is_disabled": 0, "fusion_lat": 0.0, "bike_id": "4e96a437af7151206e3e59c5156ef3dd", "rental_uris": {"ios": "https://dc.lft.to/lastmile_qr_scan", "android": "https://dc.lft.to/lastmile_qr_scan"}}, {"name": "be60e57ffbe237469691aaaeaff0f103", "type": "electric_scooter", "lat": 38.927985, "is_reserved": 0, "lon": -77.043549, "fusion_lon": 0.0, "is_disabled": 0, "fusion_lat": 0.0, "bike_id": "be60e57ffbe237469691aaaeaff0f103", "rental_uris": {"ios": "https://dc.lft.to/lastmile_qr_scan", "android": "https://dc.lft.to/lastmile_qr_scan"}}, {"name": "c708ddfed3d39a631ee2304f6f6f7b7b", "type": "electric_scooter", "lat": 38.911003666666666, "is_reserved": 0, "lon": -77.04670366666667, "fusion_lon": 0.0, "is_disabled": 0, "fusion_lat": 0.0, "bike_id": "c708ddfed3d39a631ee2304f6f6f7b7b", "rental_uris": {"ios": "https://dc.lft.to/lastmile_qr_scan", "android": "https://dc.lft.to/lastmile_qr_scan"}}, {"name": "43da6adb68f203f359a57948393aeca6", "type": "electric_scooter", "lat": 38.94288983333333, "is_reserved": 0, "lon": -77.027952, "fusion_lon": 0.0, "is_disabled": 0, "fusion_lat": 0.0, "bike_id": "43da6adb68f203f359a57948393aeca6", "rental_uris": {"ios": "https://dc.lft.to/lastmile_qr_scan", "android": "https://dc.lft.to/lastmile_qr_scan"}}, {"name": "c042d6beb427047fe7f69fa7ec4c1011", "type": "electric_scooter", "lat": 38.926216, "is_reserved": 0, "lon": -77.035027, "fusion_lon": 0.0, "is_disabled": 0, "fusion_lat": 0.0, "bike_id": "c042d6beb427047fe7f69fa7ec4c1011", "rental_uris": {"ios": "https://dc.lft.to/lastmile_qr_scan", "android": "https://dc.lft.to/lastmile_qr_scan"}}, {"name": "12c73744426dade19643f3c133d6bd73", "type": "electric_scooter", "lat": 38.919229, "is_reserved": 0, "lon": -77.00162233333333, "fusion_lon": 0.0, "is_disabled": 0, "fusion_lat": 0.0, "bike_id": "12c73744426dade19643f3c133d6bd73", "rental_uris": {"ios": "https://dc.lft.to/lastmile_qr_scan", "android": "https://dc.lft.to/lastmile_qr_scan"}}, {"name": "85fa5de973fdd448cd43cf870bb7cdf9", "type": "electric_bike", "lat": 38.88839133333333, "is_reserved": 0, "lon": -76.99366833333333, "fusion_lon": 0.0, "is_disabled": 0, "fusion_lat": 0.0, "bike_id": "85fa5de973fdd448cd43cf870bb7cdf9", "rental_uris": {"ios": "https://dc.lft.to/lastmile_qr_scan", "android": "https://dc.lft.to/lastmile_qr_scan"}}, {"name": "e9826f22f60db338e3ca42b55c7fb14b", "type": "electric_scooter", "lat": 38.909689, "is_reserved": 0, "lon": -77.01118633333333, "fusion_lon": 0.0, "is_disabled": 0, "fusion_lat": 0.0, "bike_id": "e9826f22f60db338e3ca42b55c7fb14b", "rental_uris": {"ios": "https://dc.lft.to/lastmile_qr_scan", "android": "https://dc.lft.to/lastmile_qr_scan"}}, {"name": "959fe041c2cc1de27f9a48afb852640f", "type": "electric_scooter", "lat": 38.9206615, "is_reserved": 0, "lon": -76.978073, "fusion_lon": 0.0, "is_disabled": 0, "fusion_lat": 0.0, "bike_id": "959fe041c2cc1de27f9a48afb852640f", "rental_uris": {"ios": "https://dc.lft.to/lastmile_qr_scan", "android": "https://dc.lft.to/lastmile_qr_scan"}}, {"name": "2fcd71baaf035458e37414458210bf0c", "type": "electric_scooter", "lat": 38.909620833333335, "is_reserved": 0, "lon": -77.04768266666666, "fusion_lon": 0.0, "is_disabled": 0, "fusion_lat": 0.0, "bike_id": "2fcd71baaf035458e37414458210bf0c", "rental_uris": {"ios": "https://dc.lft.to/lastmile_qr_scan", "android": "https://dc.lft.to/lastmile_qr_scan"}}, {"name": "f5b3ad0ae77c8c08e8f0bdb462fd5520", "type": "electric_bike", "lat": 38.93678166666667, "is_reserved": 0, "lon": -77.026862, "fusion_lon": 0.0, "is_disabled": 0, "fusion_lat": 0.0, "bike_id": "f5b3ad0ae77c8c08e8f0bdb462fd5520", "rental_uris": {"ios": "https://dc.lft.to/lastmile_qr_scan", "android": "https://dc.lft.to/lastmile_qr_scan"}}, {"name": "8dbf24a50d7d97dd8cd455393e8eb553", "type": "electric_scooter", "lat": 38.917221833333336, "is_reserved": 0, "lon": -77.00821016666667, "fusion_lon": 0.0, "is_disabled": 0, "fusion_lat": 0.0, "bike_id": "8dbf24a50d7d97dd8cd455393e8eb553", "rental_uris": {"ios": "https://dc.lft.to/lastmile_qr_scan", "android": "https://dc.lft.to/lastmile_qr_scan"}}, {"name": "6a88d10a73792b5afa3f0552112339bd", "type": "electric_scooter", "lat": 38.865358666666665, "is_reserved": 0, "lon": -76.98710866666667, "fusion_lon": 0.0, "is_disabled": 0, "fusion_lat": 0.0, "bike_id": "6a88d10a73792b5afa3f0552112339bd", "rental_uris": {"ios": "https://dc.lft.to/lastmile_qr_scan", "android": "https://dc.lft.to/lastmile_qr_scan"}}, {"name": "5c778d24690bbb4eef16d5f41c775917", "type": "electric_scooter", "lat": 38.9058345, "is_reserved": 0, "lon": -77.06526833333334, "fusion_lon": 0.0, "is_disabled": 0, "fusion_lat": 0.0, "bike_id": "5c778d24690bbb4eef16d5f41c775917", "rental_uris": {"ios": "https://dc.lft.to/lastmile_qr_scan", "android": "https://dc.lft.to/lastmile_qr_scan"}}, {"name": "a94ab82776a4f73534039dbada8bbf24", "type": "electric_scooter", "lat": 38.92337083333334, "is_reserved": 0, "lon": -77.01912066666667, "fusion_lon": 0.0, "is_disabled": 0, "fusion_lat": 0.0, "bike_id": "a94ab82776a4f73534039dbada8bbf24", "rental_uris": {"ios": "https://dc.lft.to/lastmile_qr_scan", "android": "https://dc.lft.to/lastmile_qr_scan"}}, {"name": "d1ef29519452753c021aae23e1e28650", "type": "electric_scooter", "lat": 38.9316745, "is_reserved": 0, "lon": -77.03634833333334, "fusion_lon": 0.0, "is_disabled": 0, "fusion_lat": 0.0, "bike_id": "d1ef29519452753c021aae23e1e28650", "rental_uris": {"ios": "https://dc.lft.to/lastmile_qr_scan", "android": "https://dc.lft.to/lastmile_qr_scan"}}, {"name": "6b187aea76557a31023aee7e2d613235", "type": "electric_scooter", "lat": 38.900541, "is_reserved": 0, "lon": -77.0219765, "fusion_lon": 0.0, "is_disabled": 0, "fusion_lat": 0.0, "bike_id": "6b187aea76557a31023aee7e2d613235", "rental_uris": {"ios": "https://dc.lft.to/lastmile_qr_scan", "android": "https://dc.lft.to/lastmile_qr_scan"}}, {"name": "ebd274fa75531ed5cb2aa8678e060006", "type": "electric_scooter", "lat": 38.8978225, "is_reserved": 0, "lon": -76.925841, "fusion_lon": 0.0, "is_disabled": 0, "fusion_lat": 0.0, "bike_id": "ebd274fa75531ed5cb2aa8678e060006", "rental_uris": {"ios": "https://dc.lft.to/lastmile_qr_scan", "android": "https://dc.lft.to/lastmile_qr_scan"}}, {"name": "f027aa37156f4c14a383f382e7323632", "type": "electric_scooter", "lat": 38.93356466666667, "is_reserved": 0, "lon": -77.0693985, "fusion_lon": 0.0, "is_disabled": 0, "fusion_lat": 0.0, "bike_id": "f027aa37156f4c14a383f382e7323632", "rental_uris": {"ios": "https://dc.lft.to/lastmile_qr_scan", "android": "https://dc.lft.to/lastmile_qr_scan"}}, {"name": "98422a6184757cd45c26e5fc9e8dee76", "type": "electric_scooter", "lat": 38.93770716666667, "is_reserved": 0, "lon": -77.03283, "fusion_lon": 0.0, "is_disabled": 0, "fusion_lat": 0.0, "bike_id": "98422a6184757cd45c26e5fc9e8dee76", "rental_uris": {"ios": "https://dc.lft.to/lastmile_qr_scan", "android": "https://dc.lft.to/lastmile_qr_scan"}}, {"name": "acd40c9b199ed3bd785874dba8c5f0ac", "type": "electric_scooter", "lat": 38.90262666666667, "is_reserved": 0, "lon": -77.03831366666667, "fusion_lon": 0.0, "is_disabled": 0, "fusion_lat": 0.0, "bike_id": "acd40c9b199ed3bd785874dba8c5f0ac", "rental_uris": {"ios": "https://dc.lft.to/lastmile_qr_scan", "android": "https://dc.lft.to/lastmile_qr_scan"}}, {"name": "a3c3127e576f5518df9928dc39cfa223", "type": "electric_scooter", "lat": 38.919805833333335, "is_reserved": 0, "lon": -77.03481883333333, "fusion_lon": 0.0, "is_disabled": 0, "fusion_lat": 0.0, "bike_id": "a3c3127e576f5518df9928dc39cfa223", "rental_uris": {"ios": "https://dc.lft.to/lastmile_qr_scan", "android": "https://dc.lft.to/lastmile_qr_scan"}}, {"name": "d7ceefb461b0668afdbe06fa09013ed0", "type": "electric_scooter", "lat": 38.9117875, "is_reserved": 0, "lon": -77.04537583333334, "fusion_lon": 0.0, "is_disabled": 0, "fusion_lat": 0.0, "bike_id": "d7ceefb461b0668afdbe06fa09013ed0", "rental_uris": {"ios": "https://dc.lft.to/lastmile_qr_scan", "android": "https://dc.lft.to/lastmile_qr_scan"}}, {"name": "db7c0e60b09294495e93919062db1f82", "type": "electric_scooter", "lat": 38.8919575, "is_reserved": 0, "lon": -77.00241266666667, "fusion_lon": 0.0, "is_disabled": 0, "fusion_lat": 0.0, "bike_id": "db7c0e60b09294495e93919062db1f82", "rental_uris": {"ios": "https://dc.lft.to/lastmile_qr_scan", "android": "https://dc.lft.to/lastmile_qr_scan"}}, {"name": "6301788547db47859d67ca7322f19db5", "type": "electric_scooter", "lat": 38.94278216666667, "is_reserved": 0, "lon": -77.02501616666666, "fusion_lon": 0.0, "is_disabled": 0, "fusion_lat": 0.0, "bike_id": "6301788547db47859d67ca7322f19db5", "rental_uris": {"ios": "https://dc.lft.to/lastmile_qr_scan", "android": "https://dc.lft.to/lastmile_qr_scan"}}, {"name": "7ec9f2f308f65e5d686139427fe6e7c0", "type": "electric_bike", "lat": 38.831932333333334, "is_reserved": 0, "lon": -77.076836, "fusion_lon": 0.0, "is_disabled": 0, "fusion_lat": 0.0, "bike_id": "7ec9f2f308f65e5d686139427fe6e7c0", "rental_uris": {"ios": "https://dc.lft.to/lastmile_qr_scan", "android": "https://dc.lft.to/lastmile_qr_scan"}}, {"name": "e778c44e068d044beecf79180d935145", "type": "electric_scooter", "lat": 38.90507566666667, "is_reserved": 0, "lon": -77.0504265, "fusion_lon": 0.0, "is_disabled": 0, "fusion_lat": 0.0, "bike_id": "e778c44e068d044beecf79180d935145", "rental_uris": {"ios": "https://dc.lft.to/lastmile_qr_scan", "android": "https://dc.lft.to/lastmile_qr_scan"}}, {"name": "c3e728e9807cdfa02650f81fc0c8a1c7", "type": "electric_scooter", "lat": 38.9111545, "is_reserved": 0, "lon": -77.04931016666667, "fusion_lon": 0.0, "is_disabled": 0, "fusion_lat": 0.0, "bike_id": "c3e728e9807cdfa02650f81fc0c8a1c7", "rental_uris": {"ios": "https://dc.lft.to/lastmile_qr_scan", "android": "https://dc.lft.to/lastmile_qr_scan"}}, {"name": "68d7de0742aaff5a294cbf83cf45216b", "type": "electric_scooter", "lat": 38.9217885, "is_reserved": 0, "lon": -77.04243866666667, "fusion_lon": 0.0, "is_disabled": 0, "fusion_lat": 0.0, "bike_id": "68d7de0742aaff5a294cbf83cf45216b", "rental_uris": {"ios": "https://dc.lft.to/lastmile_qr_scan", "android": "https://dc.lft.to/lastmile_qr_scan"}}, {"name": "c5fc657f640f38feb9f308a91f0a1fa3", "type": "electric_scooter", "lat": 38.909742333333334, "is_reserved": 0, "lon": -77.04239333333334, "fusion_lon": 0.0, "is_disabled": 0, "fusion_lat": 0.0, "bike_id": "c5fc657f640f38feb9f308a91f0a1fa3", "rental_uris": {"ios": "https://dc.lft.to/lastmile_qr_scan", "android": "https://dc.lft.to/lastmile_qr_scan"}}, {"name": "6d05cd14720d8b7d14d54403f0a68e9c", "type": "electric_scooter", "lat": 38.91014716666667, "is_reserved": 0, "lon": -77.05267316666666, "fusion_lon": 0.0, "is_disabled": 0, "fusion_lat": 0.0, "bike_id": "6d05cd14720d8b7d14d54403f0a68e9c", "rental_uris": {"ios": "https://dc.lft.to/lastmile_qr_scan", "android": "https://dc.lft.to/lastmile_qr_scan"}}, {"name": "057ff3d64c41d70fdbee9cc8e756f8bd", "type": "electric_scooter", "lat": 38.934264666666664, "is_reserved": 0, "lon": -77.034068, "fusion_lon": 0.0, "is_disabled": 0, "fusion_lat": 0.0, "bike_id": "057ff3d64c41d70fdbee9cc8e756f8bd", "rental_uris": {"ios": "https://dc.lft.to/lastmile_qr_scan", "android": "https://dc.lft.to/lastmile_qr_scan"}}, {"name": "6806cec0dbc3003b06f83446a1533239", "type": "electric_scooter", "lat": 38.9067955, "is_reserved": 0, "lon": -76.978113, "fusion_lon": 0.0, "is_disabled": 0, "fusion_lat": 0.0, "bike_id": "6806cec0dbc3003b06f83446a1533239", "rental_uris": {"ios": "https://dc.lft.to/lastmile_qr_scan", "android": "https://dc.lft.to/lastmile_qr_scan"}}, {"name": "161f67827f59168228987123e68d5d6c", "type": "electric_bike", "lat": 38.95542016666667, "is_reserved": 0, "lon": -76.93521066666666, "fusion_lon": 0.0, "is_disabled": 0, "fusion_lat": 0.0, "bike_id": "161f67827f59168228987123e68d5d6c", "rental_uris": {"ios": "https://dc.lft.to/lastmile_qr_scan", "android": "https://dc.lft.to/lastmile_qr_scan"}}, {"name": "5203ad5d966b314ecfec35b62240b426", "type": "electric_bike", "lat": 38.9246085, "is_reserved": 0, "lon": -77.2083895, "fusion_lon": 0.0, "is_disabled": 0, "fusion_lat": 0.0, "bike_id": "5203ad5d966b314ecfec35b62240b426", "rental_uris": {"ios": "https://dc.lft.to/lastmile_qr_scan", "android": "https://dc.lft.to/lastmile_qr_scan"}}, {"name": "08082491d75a5d361363e0fe4c7cc9f0", "type": "electric_scooter", "lat": 38.905961166666664, "is_reserved": 0, "lon": -77.0630045, "fusion_lon": 0.0, "is_disabled": 0, "fusion_lat": 0.0, "bike_id": "08082491d75a5d361363e0fe4c7cc9f0", "rental_uris": {"ios": "https://dc.lft.to/lastmile_qr_scan", "android": "https://dc.lft.to/lastmile_qr_scan"}}, {"name": "ba23e7cb8ae1c3076368ce3d71cd62d4", "type": "electric_scooter", "lat": 38.88040183333333, "is_reserved": 0, "lon": -76.92724233333334, "fusion_lon": 0.0, "is_disabled": 0, "fusion_lat": 0.0, "bike_id": "ba23e7cb8ae1c3076368ce3d71cd62d4", "rental_uris": {"ios": "https://dc.lft.to/lastmile_qr_scan", "android": "https://dc.lft.to/lastmile_qr_scan"}}, {"name": "920c662b3263dd313ceefd01f090a651", "type": "electric_scooter", "lat": 38.911298333333335, "is_reserved": 0, "lon": -77.04416083333334, "fusion_lon": 0.0, "is_disabled": 0, "fusion_lat": 0.0, "bike_id": "920c662b3263dd313ceefd01f090a651", "rental_uris": {"ios": "https://dc.lft.to/lastmile_qr_scan", "android": "https://dc.lft.to/lastmile_qr_scan"}}, {"name": "a64004efaf230850778bb34a6f099b94", "type": "electric_scooter", "lat": 38.90211683333333, "is_reserved": 0, "lon": -77.04564566666667, "fusion_lon": 0.0, "is_disabled": 0, "fusion_lat": 0.0, "bike_id": "a64004efaf230850778bb34a6f099b94", "rental_uris": {"ios": "https://dc.lft.to/lastmile_qr_scan", "android": "https://dc.lft.to/lastmile_qr_scan"}}, {"name": "cd3c45e28003915edd944daa27cd5b87", "type": "electric_scooter", "lat": 38.92839433333333, "is_reserved": 0, "lon": -77.05438, "fusion_lon": 0.0, "is_disabled": 0, "fusion_lat": 0.0, "bike_id": "cd3c45e28003915edd944daa27cd5b87", "rental_uris": {"ios": "https://dc.lft.to/lastmile_qr_scan", "android": "https://dc.lft.to/lastmile_qr_scan"}}, {"name": "702cb0f761bf9b9da2de9b6e19e5493c", "type": "electric_scooter", "lat": 38.90641816666667, "is_reserved": 0, "lon": -76.99379166666667, "fusion_lon": 0.0, "is_disabled": 0, "fusion_lat": 0.0, "bike_id": "702cb0f761bf9b9da2de9b6e19e5493c", "rental_uris": {"ios": "https://dc.lft.to/lastmile_qr_scan", "android": "https://dc.lft.to/lastmile_qr_scan"}}, {"name": "eb7079eda4673d8f2cd82ade75d28437", "type": "electric_scooter", "lat": 38.922423, "is_reserved": 0, "lon": -77.042571, "fusion_lon": 0.0, "is_disabled": 0, "fusion_lat": 0.0, "bike_id": "eb7079eda4673d8f2cd82ade75d28437", "rental_uris": {"ios": "https://dc.lft.to/lastmile_qr_scan", "android": "https://dc.lft.to/lastmile_qr_scan"}}, {"name": "ae4e1ef15a94b423bfb6a29da8a3511e", "type": "electric_scooter", "lat": 38.92541, "is_reserved": 0, "lon": -77.03381916666666, "fusion_lon": 0.0, "is_disabled": 0, "fusion_lat": 0.0, "bike_id": "ae4e1ef15a94b423bfb6a29da8a3511e", "rental_uris": {"ios": "https://dc.lft.to/lastmile_qr_scan", "android": "https://dc.lft.to/lastmile_qr_scan"}}, {"name": "178df5d0e061370d59bea631e9b91a04", "type": "electric_scooter", "lat": 38.871961166666665, "is_reserved": 0, "lon": -77.00575966666666, "fusion_lon": 0.0, "is_disabled": 0, "fusion_lat": 0.0, "bike_id": "178df5d0e061370d59bea631e9b91a04", "rental_uris": {"ios": "https://dc.lft.to/lastmile_qr_scan", "android": "https://dc.lft.to/lastmile_qr_scan"}}, {"name": "229693ef4fb09dc126489c8f527ad247", "type": "electric_scooter", "lat": 38.8951555, "is_reserved": 0, "lon": -77.04850533333334, "fusion_lon": 0.0, "is_disabled": 0, "fusion_lat": 0.0, "bike_id": "229693ef4fb09dc126489c8f527ad247", "rental_uris": {"ios": "https://dc.lft.to/lastmile_qr_scan", "android": "https://dc.lft.to/lastmile_qr_scan"}}, {"name": "24d6ff2e488d853e1e9fc3fd1a3ec93e", "type": "electric_scooter", "lat": 38.9037935, "is_reserved": 0, "lon": -77.03401133333334, "fusion_lon": 0.0, "is_disabled": 0, "fusion_lat": 0.0, "bike_id": "24d6ff2e488d853e1e9fc3fd1a3ec93e", "rental_uris": {"ios": "https://dc.lft.to/lastmile_qr_scan", "android": "https://dc.lft.to/lastmile_qr_scan"}}, {"name": "b07c1f8f4a8464cf68c6d1df12cbf50f", "type": "electric_bike", "lat": 38.96935766666667, "is_reserved": 0, "lon": -76.95633183333334, "fusion_lon": 0.0, "is_disabled": 0, "fusion_lat": 0.0, "bike_id": "b07c1f8f4a8464cf68c6d1df12cbf50f", "rental_uris": {"ios": "https://dc.lft.to/lastmile_qr_scan", "android": "https://dc.lft.to/lastmile_qr_scan"}}, {"name": "169ce10664a49220ddcf5c335e68443b", "type": "electric_scooter", "lat": 38.87433133333333, "is_reserved": 0, "lon": -77.02067766666667, "fusion_lon": 0.0, "is_disabled": 0, "fusion_lat": 0.0, "bike_id": "169ce10664a49220ddcf5c335e68443b", "rental_uris": {"ios": "https://dc.lft.to/lastmile_qr_scan", "android": "https://dc.lft.to/lastmile_qr_scan"}}, {"name": "f0914fab305a44f3d890032fb52ab901", "type": "electric_scooter", "lat": 38.914887666666665, "is_reserved": 0, "lon": -77.0463595, "fusion_lon": 0.0, "is_disabled": 0, "fusion_lat": 0.0, "bike_id": "f0914fab305a44f3d890032fb52ab901", "rental_uris": {"ios": "https://dc.lft.to/lastmile_qr_scan", "android": "https://dc.lft.to/lastmile_qr_scan"}}, {"name": "21a772e048081e404850968de51b0f61", "type": "electric_scooter", "lat": 38.90730416666667, "is_reserved": 0, "lon": -77.01091066666666, "fusion_lon": 0.0, "is_disabled": 0, "fusion_lat": 0.0, "bike_id": "21a772e048081e404850968de51b0f61", "rental_uris": {"ios": "https://dc.lft.to/lastmile_qr_scan", "android": "https://dc.lft.to/lastmile_qr_scan"}}, {"name": "c2bea8ecc24821b4cbd518e04626b636", "type": "electric_scooter", "lat": 38.899929, "is_reserved": 0, "lon": -76.98553666666666, "fusion_lon": 0.0, "is_disabled": 0, "fusion_lat": 0.0, "bike_id": "c2bea8ecc24821b4cbd518e04626b636", "rental_uris": {"ios": "https://dc.lft.to/lastmile_qr_scan", "android": "https://dc.lft.to/lastmile_qr_scan"}}, {"name": "c6978cf1a490614f155b98b83a0b3223", "type": "electric_scooter", "lat": 38.9140465, "is_reserved": 0, "lon": -77.0389805, "fusion_lon": 0.0, "is_disabled": 0, "fusion_lat": 0.0, "bike_id": "c6978cf1a490614f155b98b83a0b3223", "rental_uris": {"ios": "https://dc.lft.to/lastmile_qr_scan", "android": "https://dc.lft.to/lastmile_qr_scan"}}, {"name": "803edbbe29f1124364fb8564581e19c5", "type": "electric_scooter", "lat": 38.89554233333333, "is_reserved": 0, "lon": -77.05002816666666, "fusion_lon": 0.0, "is_disabled": 0, "fusion_lat": 0.0, "bike_id": "803edbbe29f1124364fb8564581e19c5", "rental_uris": {"ios": "https://dc.lft.to/lastmile_qr_scan", "android": "https://dc.lft.to/lastmile_qr_scan"}}, {"name": "78677b53785c44665e2b3cb7696b769e", "type": "electric_bike", "lat": 38.936513166666664, "is_reserved": 0, "lon": -77.03283816666666, "fusion_lon": 0.0, "is_disabled": 0, "fusion_lat": 0.0, "bike_id": "78677b53785c44665e2b3cb7696b769e", "rental_uris": {"ios": "https://dc.lft.to/lastmile_qr_scan", "android": "https://dc.lft.to/lastmile_qr_scan"}}, {"name": "61f2b23dd046d68e7ddab7e019630b20", "type": "electric_scooter", "lat": 38.91269716666667, "is_reserved": 0, "lon": -77.03144516666667, "fusion_lon": 0.0, "is_disabled": 0, "fusion_lat": 0.0, "bike_id": "61f2b23dd046d68e7ddab7e019630b20", "rental_uris": {"ios": "https://dc.lft.to/lastmile_qr_scan", "android": "https://dc.lft.to/lastmile_qr_scan"}}, {"name": "722f6234074d4bb75c9e43e3fbad103c", "type": "electric_scooter", "lat": 38.89219283333333, "is_reserved": 0, "lon": -77.04365633333333, "fusion_lon": 0.0, "is_disabled": 0, "fusion_lat": 0.0, "bike_id": "722f6234074d4bb75c9e43e3fbad103c", "rental_uris": {"ios": "https://dc.lft.to/lastmile_qr_scan", "android": "https://dc.lft.to/lastmile_qr_scan"}}, {"name": "2275621961fb48c9f421672d9956823d", "type": "electric_scooter", "lat": 38.9176315, "is_reserved": 0, "lon": -77.02708533333333, "fusion_lon": 0.0, "is_disabled": 0, "fusion_lat": 0.0, "bike_id": "2275621961fb48c9f421672d9956823d", "rental_uris": {"ios": "https://dc.lft.to/lastmile_qr_scan", "android": "https://dc.lft.to/lastmile_qr_scan"}}, {"name": "6a2eefc9281f721177ea9ee37ed6b6ff", "type": "electric_scooter", "lat": 38.87633483333333, "is_reserved": 0, "lon": -77.00437583333333, "fusion_lon": 0.0, "is_disabled": 0, "fusion_lat": 0.0, "bike_id": "6a2eefc9281f721177ea9ee37ed6b6ff", "rental_uris": {"ios": "https://dc.lft.to/lastmile_qr_scan", "android": "https://dc.lft.to/lastmile_qr_scan"}}, {"name": "c35987278acc9b708e9ab1b47c5f28d9", "type": "electric_scooter", "lat": 38.911856, "is_reserved": 0, "lon": -77.04008416666667, "fusion_lon": 0.0, "is_disabled": 0, "fusion_lat": 0.0, "bike_id": "c35987278acc9b708e9ab1b47c5f28d9", "rental_uris": {"ios": "https://dc.lft.to/lastmile_qr_scan", "android": "https://dc.lft.to/lastmile_qr_scan"}}, {"name": "b74463561b13c14160a0c2e27ce7102b", "type": "electric_bike", "lat": 38.8804835, "is_reserved": 0, "lon": -77.02516566666667, "fusion_lon": 0.0, "is_disabled": 0, "fusion_lat": 0.0, "bike_id": "b74463561b13c14160a0c2e27ce7102b", "rental_uris": {"ios": "https://dc.lft.to/lastmile_qr_scan", "android": "https://dc.lft.to/lastmile_qr_scan"}}, {"name": "3da79a5b103dbd5767bc1d51b36e004d", "type": "electric_scooter", "lat": 38.957337333333335, "is_reserved": 0, "lon": -77.0240315, "fusion_lon": 0.0, "is_disabled": 0, "fusion_lat": 0.0, "bike_id": "3da79a5b103dbd5767bc1d51b36e004d", "rental_uris": {"ios": "https://dc.lft.to/lastmile_qr_scan", "android": "https://dc.lft.to/lastmile_qr_scan"}}, {"name": "2e8ecd83c5c627e87024d2899c6e4888", "type": "electric_scooter", "lat": 38.92418716666667, "is_reserved": 0, "lon": -77.05185966666667, "fusion_lon": 0.0, "is_disabled": 0, "fusion_lat": 0.0, "bike_id": "2e8ecd83c5c627e87024d2899c6e4888", "rental_uris": {"ios": "https://dc.lft.to/lastmile_qr_scan", "android": "https://dc.lft.to/lastmile_qr_scan"}}, {"name": "cdf2b4af1d08c69be19feacf36f939a9", "type": "electric_bike", "lat": 38.851587333333335, "is_reserved": 0, "lon": -77.12876566666667, "fusion_lon": 0.0, "is_disabled": 0, "fusion_lat": 0.0, "bike_id": "cdf2b4af1d08c69be19feacf36f939a9", "rental_uris": {"ios": "https://dc.lft.to/lastmile_qr_scan", "android": "https://dc.lft.to/lastmile_qr_scan"}}, {"name": "cd1a28329b7b7b8e42317dd10f186608", "type": "electric_scooter", "lat": 38.89478616666667, "is_reserved": 0, "lon": -76.984005, "fusion_lon": 0.0, "is_disabled": 0, "fusion_lat": 0.0, "bike_id": "cd1a28329b7b7b8e42317dd10f186608", "rental_uris": {"ios": "https://dc.lft.to/lastmile_qr_scan", "android": "https://dc.lft.to/lastmile_qr_scan"}}, {"name": "a97859e37cae7f15e934af2eaf22433e", "type": "electric_scooter", "lat": 38.94309066666667, "is_reserved": 0, "lon": -77.05921183333334, "fusion_lon": 0.0, "is_disabled": 0, "fusion_lat": 0.0, "bike_id": "a97859e37cae7f15e934af2eaf22433e", "rental_uris": {"ios": "https://dc.lft.to/lastmile_qr_scan", "android": "https://dc.lft.to/lastmile_qr_scan"}}, {"name": "222b9b09850a88d7988ff93694d4bf0a", "type": "electric_scooter", "lat": 38.9359755, "is_reserved": 0, "lon": -77.03651816666667, "fusion_lon": 0.0, "is_disabled": 0, "fusion_lat": 0.0, "bike_id": "222b9b09850a88d7988ff93694d4bf0a", "rental_uris": {"ios": "https://dc.lft.to/lastmile_qr_scan", "android": "https://dc.lft.to/lastmile_qr_scan"}}, {"name": "ba259a3f077531ca38c4575e1d14996e", "type": "electric_scooter", "lat": 38.869459166666665, "is_reserved": 0, "lon": -76.97855066666666, "fusion_lon": 0.0, "is_disabled": 0, "fusion_lat": 0.0, "bike_id": "ba259a3f077531ca38c4575e1d14996e", "rental_uris": {"ios": "https://dc.lft.to/lastmile_qr_scan", "android": "https://dc.lft.to/lastmile_qr_scan"}}, {"name": "d20f145cbdceb2c1fbb407998949d915", "type": "electric_scooter", "lat": 38.901333, "is_reserved": 0, "lon": -77.04480066666666, "fusion_lon": 0.0, "is_disabled": 0, "fusion_lat": 0.0, "bike_id": "d20f145cbdceb2c1fbb407998949d915", "rental_uris": {"ios": "https://dc.lft.to/lastmile_qr_scan", "android": "https://dc.lft.to/lastmile_qr_scan"}}, {"name": "b81f762e008becaaffa67a24b8f7aaad", "type": "electric_scooter", "lat": 38.895597, "is_reserved": 0, "lon": -76.97467783333333, "fusion_lon": 0.0, "is_disabled": 0, "fusion_lat": 0.0, "bike_id": "b81f762e008becaaffa67a24b8f7aaad", "rental_uris": {"ios": "https://dc.lft.to/lastmile_qr_scan", "android": "https://dc.lft.to/lastmile_qr_scan"}}, {"name": "3f27a470f5c15670d22ee195b496a64f", "type": "electric_scooter", "lat": 38.865655333333336, "is_reserved": 0, "lon": -76.989506, "fusion_lon": 0.0, "is_disabled": 0, "fusion_lat": 0.0, "bike_id": "3f27a470f5c15670d22ee195b496a64f", "rental_uris": {"ios": "https://dc.lft.to/lastmile_qr_scan", "android": "https://dc.lft.to/lastmile_qr_scan"}}, {"name": "979ede170cbf5b75f3b90fb554959cf3", "type": "electric_bike", "lat": 38.8728495, "is_reserved": 0, "lon": -77.01703333333333, "fusion_lon": 0.0, "is_disabled": 0, "fusion_lat": 0.0, "bike_id": "979ede170cbf5b75f3b90fb554959cf3", "rental_uris": {"ios": "https://dc.lft.to/lastmile_qr_scan", "android": "https://dc.lft.to/lastmile_qr_scan"}}, {"name": "491cb30b179aaf232b78e8d18aaea08c", "type": "electric_scooter", "lat": 38.90080316666667, "is_reserved": 0, "lon": -77.05908933333333, "fusion_lon": 0.0, "is_disabled": 0, "fusion_lat": 0.0, "bike_id": "491cb30b179aaf232b78e8d18aaea08c", "rental_uris": {"ios": "https://dc.lft.to/lastmile_qr_scan", "android": "https://dc.lft.to/lastmile_qr_scan"}}, {"name": "1b0968b0c5465957ddcd5d38c254465d", "type": "electric_bike", "lat": 38.911791, "is_reserved": 0, "lon": -77.00288733333333, "fusion_lon": 0.0, "is_disabled": 0, "fusion_lat": 0.0, "bike_id": "1b0968b0c5465957ddcd5d38c254465d", "rental_uris": {"ios": "https://dc.lft.to/lastmile_qr_scan", "android": "https://dc.lft.to/lastmile_qr_scan"}}, {"name": "378fd8d407cb7c5f50c98ba7303ae9ac", "type": "electric_scooter", "lat": 38.92484483333333, "is_reserved": 0, "lon": -77.02713016666667, "fusion_lon": 0.0, "is_disabled": 0, "fusion_lat": 0.0, "bike_id": "378fd8d407cb7c5f50c98ba7303ae9ac", "rental_uris": {"ios": "https://dc.lft.to/lastmile_qr_scan", "android": "https://dc.lft.to/lastmile_qr_scan"}}, {"name": "6609862126347076693120381e5dd9d2", "type": "electric_scooter", "lat": 38.92303666666667, "is_reserved": 0, "lon": -77.04194066666666, "fusion_lon": 0.0, "is_disabled": 0, "fusion_lat": 0.0, "bike_id": "6609862126347076693120381e5dd9d2", "rental_uris": {"ios": "https://dc.lft.to/lastmile_qr_scan", "android": "https://dc.lft.to/lastmile_qr_scan"}}, {"name": "f2b0482528359eec58f15971cd11bb26", "type": "electric_scooter", "lat": 38.89918733333333, "is_reserved": 0, "lon": -76.9338205, "fusion_lon": 0.0, "is_disabled": 0, "fusion_lat": 0.0, "bike_id": "f2b0482528359eec58f15971cd11bb26", "rental_uris": {"ios": "https://dc.lft.to/lastmile_qr_scan", "android": "https://dc.lft.to/lastmile_qr_scan"}}, {"name": "f713bfe6550e6177853117d0c582d3ee", "type": "electric_scooter", "lat": 38.9076095, "is_reserved": 0, "lon": -77.02976066666666, "fusion_lon": 0.0, "is_disabled": 0, "fusion_lat": 0.0, "bike_id": "f713bfe6550e6177853117d0c582d3ee", "rental_uris": {"ios": "https://dc.lft.to/lastmile_qr_scan", "android": "https://dc.lft.to/lastmile_qr_scan"}}, {"name": "789d792339dd2f4f7a0de8298f4a60f1", "type": "electric_bike", "lat": 39.030552666666665, "is_reserved": 0, "lon": -77.094797, "fusion_lon": 0.0, "is_disabled": 0, "fusion_lat": 0.0, "bike_id": "789d792339dd2f4f7a0de8298f4a60f1", "rental_uris": {"ios": "https://dc.lft.to/lastmile_qr_scan", "android": "https://dc.lft.to/lastmile_qr_scan"}}, {"name": "801b0d26a544bd953ae203ee359fc532", "type": "electric_scooter", "lat": 38.91807883333333, "is_reserved": 0, "lon": -77.001698, "fusion_lon": 0.0, "is_disabled": 0, "fusion_lat": 0.0, "bike_id": "801b0d26a544bd953ae203ee359fc532", "rental_uris": {"ios": "https://dc.lft.to/lastmile_qr_scan", "android": "https://dc.lft.to/lastmile_qr_scan"}}, {"name": "fa0f3ae7b61219a69a1f80a7ceaa05b9", "type": "electric_scooter", "lat": 38.88407083333333, "is_reserved": 0, "lon": -77.0196465, "fusion_lon": 0.0, "is_disabled": 0, "fusion_lat": 0.0, "bike_id": "fa0f3ae7b61219a69a1f80a7ceaa05b9", "rental_uris": {"ios": "https://dc.lft.to/lastmile_qr_scan", "android": "https://dc.lft.to/lastmile_qr_scan"}}, {"name": "b6c9af8b3e5841f6ef6a3c98c4178261", "type": "electric_scooter", "lat": 38.903818, "is_reserved": 0, "lon": -77.017646, "fusion_lon": 0.0, "is_disabled": 0, "fusion_lat": 0.0, "bike_id": "b6c9af8b3e5841f6ef6a3c98c4178261", "rental_uris": {"ios": "https://dc.lft.to/lastmile_qr_scan", "android": "https://dc.lft.to/lastmile_qr_scan"}}, {"name": "f3ab685d9af5993155cf6b9c95115396", "type": "electric_scooter", "lat": 38.928388166666664, "is_reserved": 0, "lon": -77.054327, "fusion_lon": 0.0, "is_disabled": 0, "fusion_lat": 0.0, "bike_id": "f3ab685d9af5993155cf6b9c95115396", "rental_uris": {"ios": "https://dc.lft.to/lastmile_qr_scan", "android": "https://dc.lft.to/lastmile_qr_scan"}}, {"name": "9cabcdce0d611453c93781cbe1ebbaea", "type": "electric_scooter", "lat": 38.90826583333333, "is_reserved": 0, "lon": -76.996911, "fusion_lon": 0.0, "is_disabled": 0, "fusion_lat": 0.0, "bike_id": "9cabcdce0d611453c93781cbe1ebbaea", "rental_uris": {"ios": "https://dc.lft.to/lastmile_qr_scan", "android": "https://dc.lft.to/lastmile_qr_scan"}}, {"name": "3f159e6ac53ec2efc57b6620404ca9f9", "type": "electric_scooter", "lat": 38.900236, "is_reserved": 0, "lon": -77.01015316666667, "fusion_lon": 0.0, "is_disabled": 0, "fusion_lat": 0.0, "bike_id": "3f159e6ac53ec2efc57b6620404ca9f9", "rental_uris": {"ios": "https://dc.lft.to/lastmile_qr_scan", "android": "https://dc.lft.to/lastmile_qr_scan"}}, {"name": "5cbee335f8de5cac48a6d0f4e3ab840a", "type": "electric_scooter", "lat": 38.89595033333333, "is_reserved": 0, "lon": -77.02574816666667, "fusion_lon": 0.0, "is_disabled": 0, "fusion_lat": 0.0, "bike_id": "5cbee335f8de5cac48a6d0f4e3ab840a", "rental_uris": {"ios": "https://dc.lft.to/lastmile_qr_scan", "android": "https://dc.lft.to/lastmile_qr_scan"}}, {"name": "8fcca4f51cd31f086faa2b11faee01d0", "type": "electric_scooter", "lat": 38.906693, "is_reserved": 0, "lon": -77.026937, "fusion_lon": 0.0, "is_disabled": 0, "fusion_lat": 0.0, "bike_id": "8fcca4f51cd31f086faa2b11faee01d0", "rental_uris": {"ios": "https://dc.lft.to/lastmile_qr_scan", "android": "https://dc.lft.to/lastmile_qr_scan"}}, {"name": "47fead5606008d94d0c60dafd427baa7", "type": "electric_scooter", "lat": 38.910105333333334, "is_reserved": 0, "lon": -77.044258, "fusion_lon": 0.0, "is_disabled": 0, "fusion_lat": 0.0, "bike_id": "47fead5606008d94d0c60dafd427baa7", "rental_uris": {"ios": "https://dc.lft.to/lastmile_qr_scan", "android": "https://dc.lft.to/lastmile_qr_scan"}},