{"data": {"bikes": [{"is_reserved": 0, "type": "electric_scooter", "fusion_lat": 0.0, "is_disabled": 0, "rental_uris": {"ios": "https://dc.lft.to/lastmile_qr_scan", "android": "https://dc.lft.to/lastmile_qr_scan"}, "bike_id": "eeee8674ff7b19842597ce3a71afb050", "lat": 38.92223216666667, "name": "eeee8674ff7b19842597ce3a71afb050", "lon": -77.04335533333334, "fusion_lon": 0.0}, {"is_reserved": 0, "type": "electric_scooter", "fusion_lat": 0.0, "is_disabled": 0, "rental_uris": {"ios": "https://dc.lft.to/lastmile_qr_scan", "android": "https://dc.lft.to/lastmile_qr_scan"}, "bike_id": "2e47858f98563f5be976f0b0cee47841", "lat": 38.87567033333333, "name": "2e47858f98563f5be976f0b0cee47841", "lon": -77.00599633333333, "fusion_lon": 0.0}, {"is_reserved": 0, "type": "electric_scooter", "fusion_lat": 0.0, "is_disabled": 0, "rental_uris": {"ios": "https://dc.lft.to/lastmile_qr_scan", "android": "https://dc.lft.to/lastmile_qr_scan"}, "bike_id": "1b4110407f09197f75e082846a1aeec3", "lat": 38.899487666666666, "name": "1b4110407f09197f75e082846a1aeec3", "lon": -77.04751333333333, "fusion_lon": 0.0}, {"is_reserved": 0, "type": "electric_scooter", "fusion_lat": 0.0, "is_disabled": 0, "rental_uris": {"ios": "https://dc.lft.to/lastmile_qr_scan", "android": "https://dc.lft.to/lastmile_qr_scan"}, "bike_id": "ff031506fecc64b5c22c012cbdf62a59", "lat": 38.910479, "name": "ff031506fecc64b5c22c012cbdf62a59", "lon": -77.02684333333333, "fusion_lon": 0.0}, {"is_reserved": 0, "type": "electric_scooter", "fusion_lat": 0.0, "is_disabled": 0, "rental_uris": {"ios": "https://dc.lft.to/lastmile_qr_scan", "android": "https://dc.lft.to/lastmile_qr_scan"}, "bike_id": "1a19eb8acebe651f878904f2b5e8e2a2", "lat": 38.88102633333333, "name": "1a19eb8acebe651f878904f2b5e8e2a2", "lon": -76.9877245, "fusion_lon": 0.0}, {"is_reserved": 0, "type": "electric_scooter", "fusion_lat": 0.0, "is_disabled": 0, "rental_uris": {"ios": "https://dc.lft.to/lastmile_qr_scan", "android": "https://dc.lft.to/lastmile_qr_scan"}, "bike_id": "020409bd3ff9bfc04b488344527116ad", "lat": 38.91084683333333, "name": "020409bd3ff9bfc04b488344527116ad", "lon": -77.0218765, "fusion_lon": 0.0}, {"is_reserved": 0, "type": "electric_scooter", "fusion_lat": 0.0, "is_disabled": 0, "rental_uris": {"ios": "https://dc.lft.to/lastmile_qr_scan", "android": "https://dc.lft.to/lastmile_qr_scan"}, "bike_id": "cd1730d9ff69f6e9820650ae5fc9e55b", "lat": 38.894980833333335, "name": "cd1730d9ff69f6e9820650ae5fc9e55b", "lon": -77.02288966666667, "fusion_lon": 0.0}, {"is_reserved": 0, "type": "electric_scooter", "fusion_lat": 0.0, "is_disabled": 0, "rental_uris": {"ios": "https://dc.lft.to/lastmile_qr_scan", "android": "https://dc.lft.to/lastmile_qr_scan"}, "bike_id": "b1df1ca792eb07bc6f3714933fdee75c", "lat": 38.89259533333333, "name": "b1df1ca792eb07bc6f3714933fdee75c", "lon": -77.04661, "fusion_lon": 0.0}, {"is_reserved": 0, "type": "electric_scooter", "fusion_lat": 0.0, "is_disabled": 0, "rental_uris": {"ios": "https://dc.lft.to/lastmile_qr_scan", "android": "https://dc.lft.to/lastmile_qr_scan"}, "bike_id": "8182a38666f1a511584bf82b8b215228", "lat": 38.92045383333333, "name": "8182a38666f1a511584bf82b8b215228", "lon": -77.02608866666667, "fusion_lon": 0.0}, {"is_reserved": 0, "type": "electric_scooter", "fusion_lat": 0.0, "is_disabled": 0, "rental_uris": {"ios": "https://dc.lft.to/lastmile_qr_scan", "android": "https://dc.lft.to/lastmile_qr_scan"}, "bike_id": "e04254c1af1cb517769c8bd1170b07dd", "lat": 38.9112315, "name": "e04254c1af1cb517769c8bd1170b07dd", "lon": -77.0436485, "fusion_lon": 0.0}, {"is_reserved": 0, "type": "electric_scooter", "fusion_lat": 0.0, "is_disabled": 0, "rental_uris": {"ios": "https://dc.lft.to/lastmile_qr_scan", "android": "https://dc.lft.to/lastmile_qr_scan"}, "bike_id": "24ee27f0a9c999be17cb977529f3531e", "lat": 38.929879666666665, "name": "24ee27f0a9c999be17cb977529f3531e", "lon": -77.03472233333333, "fusion_lon": 0.0}, {"is_reserved": 0, "type": "electric_scooter", "fusion_lat": 0.0, "is_disabled": 0, "rental_uris": {"ios": "https://dc.lft.to/lastmile_qr_scan", "android": "https://dc.lft.to/lastmile_qr_scan"}, "bike_id": "4e31162e3e082d4e0a78124374bb4547", "lat": 38.881225666666666, "name": "4e31162e3e082d4e0a78124374bb4547", "lon": -77.01483, "fusion_lon": 0.0}, {"is_reserved": 0, "type": "electric_scooter", "fusion_lat": 0.0, "is_disabled": 0, "rental_uris": {"ios": "https://dc.lft.to/lastmile_qr_scan", "android": "https://dc.lft.to/lastmile_qr_scan"}, "bike_id": "fe2706d9c462ce8cceaebbb08c3f7160", "lat": 38.91963116666667, "name": "fe2706d9c462ce8cceaebbb08c3f7160", "lon": -77.00210433333334, "fusion_lon": 0.0}, {"is_reserved": 0, "type": "electric_scooter", "fusion_lat": 0.0, "is_disabled": 0, "rental_uris": {"ios": "https://dc.lft.to/lastmile_qr_scan", "android": "https://dc.lft.to/lastmile_qr_scan"}, "bike_id": "ebf8a6dd11d84e42146d7272b5efb559", "lat": 38.916619833333336, "name": "ebf8a6dd11d84e42146d7272b5efb559", "lon": -77.037097, "fusion_lon": 0.0}, {"is_reserved": 0, "type": "electric_scooter", "fusion_lat": 0.0, "is_disabled": 0, "rental_uris": {"ios": "https://dc.lft.to/lastmile_qr_scan", "android": "https://dc.lft.to/lastmile_qr_scan"}, "bike_id": "60e03a188f1b1bbca1043c938e9650b0", "lat": 38.8922785, "name": "60e03a188f1b1bbca1043c938e9650b0", "lon": -77.0500565, "fusion_lon": 0.0}, {"is_reserved": 0, "type": "electric_scooter", "fusion_lat": 0.0, "is_disabled": 0, "rental_uris": {"ios": "https://dc.lft.to/lastmile_qr_scan", "android": "https://dc.lft.to/lastmile_qr_scan"}, "bike_id": "e02a1f372c4fcb102bc1945bc7dac796", "lat": 38.916350666666666, "name": "e02a1f372c4fcb102bc1945bc7dac796", "lon": -77.02246633333333, "fusion_lon": 0.0}, {"is_reserved": 0, "type": "electric_scooter", "fusion_lat": 0.0, "is_disabled": 0, "rental_uris": {"ios": "https://dc.lft.to/lastmile_qr_scan", "android": "https://dc.lft.to/lastmile_qr_scan"}, "bike_id": "1a0859841c67a6cf13bae278d60a3140", "lat": 38.880252666666664, "name": "1a0859841c67a6cf13bae278d60a3140", "lon": -76.99502916666667, "fusion_lon": 0.0}, {"is_reserved": 0, "type": "electric_scooter", "fusion_lat": 0.0, "is_disabled": 0, "rental_uris": {"ios": "https://dc.lft.to/lastmile_qr_scan", "android": "https://dc.lft.to/lastmile_qr_scan"}, "bike_id": "bd1f6ff22da8ddfa4a96a3ae6a95e659", "lat": 38.908738666666665, "name": "bd1f6ff22da8ddfa4a96a3ae6a95e659", "lon": -77.02959883333334, "fusion_lon": 0.0}, {"is_reserved": 0, "type": "electric_bike", "fusion_lat": 0.0, "is_disabled": 0, "rental_uris": {"ios": "https://dc.lft.to/lastmile_qr_scan", "android": "https://dc.lft.to/lastmile_qr_scan"}, "bike_id": "2173b05a87d29e67e6fcac0f02bcad28", "lat": 39.00449583333333, "name": "2173b05a87d29e67e6fcac0f02bcad28", "lon": -76.9011945, "fusion_lon": 0.0}, {"is_reserved": 0, "type": "electric_scooter", "fusion_lat": 0.0, "is_disabled": 0, "rental_uris": {"ios": "https://dc.lft.to/lastmile_qr_scan", "android": "https://dc.lft.to/lastmile_qr_scan"}, "bike_id": "8be6cc06238e4ec7b8fd4800fe62755b", "lat": 38.89982466666667, "name": "8be6cc06238e4ec7b8fd4800fe62755b", "lon": -77.02173766666667, "fusion_lon": 0.0}, {"is_reserved": 0, "type": "electric_scooter", "fusion_lat": 0.0, "is_disabled": 0, "rental_uris": {"ios": "https://dc.lft.to/lastmile_qr_scan", "android": "https://dc.lft.to/lastmile_qr_scan"}, "bike_id": "98d06b2587994f9678e1f1cc22d3f6ea", "lat": 38.912556, "name": "98d06b2587994f9678e1f1cc22d3f6ea", "lon": -77.04791266666666, "fusion_lon": 0.0}, {"is_reserved": 0, "type": "electric_scooter", "fusion_lat": 0.0, "is_disabled": 0, "rental_uris": {"ios": "https://dc.lft.to/lastmile_qr_scan", "android": "https://dc.lft.to/lastmile_qr_scan"}, "bike_id": "9d0b8357af501f5b098f55fb77224d7a", "lat": 38.926137, "name": "9d0b8357af501f5b098f55fb77224d7a", "lon": -77.00649833333334, "fusion_lon": 0.0}, {"is_reserved": 0, "type": "electric_bike", "fusion_lat": 0.0, "is_disabled": 0, "rental_uris": {"ios": "https://dc.lft.to/lastmile_qr_scan", "android": "https://dc.lft.to/lastmile_qr_scan"}, "bike_id": "e9bb51f7fa6cae6acad85b741ffa11d7", "lat": 38.90394516666667, "name": "e9bb51f7fa6cae6acad85b741ffa11d7", "lon": -77.051379, "fusion_lon": 0.0}, {"is_reserved": 0, "type": "electric_scooter", "fusion_lat": 0.0, "is_disabled": 0, "rental_uris": {"ios": "https://dc.lft.to/lastmile_qr_scan", "android": "https://dc.lft.to/lastmile_qr_scan"}, "bike_id": "64c595f8254921c68d32bcc280540251", "lat": 38.87565216666667, "name": "64c595f8254921c68d32bcc280540251", "lon": -77.005947, "fusion_lon": 0.0}, {"is_reserved": 0, "type": "electric_scooter", "fusion_lat": 0.0, "is_disabled": 0, "rental_uris": {"ios": "https://dc.lft.to/lastmile_qr_scan", "android": "https://dc.lft.to/lastmile_qr_scan"}, "bike_id": "946de668c2a812c71ea94dd68a88291c", "lat": 38.95738566666667, "name": "946de668c2a812c71ea94dd68a88291c", "lon": -77.02320033333334, "fusion_lon": 0.0}, {"is_reserved": 0, "type": "electric_scooter", "fusion_lat": 0.0, "is_disabled": 0, "rental_uris": {"ios": "https://dc.lft.to/lastmile_qr_scan", "android": "https://dc.lft.to/lastmile_qr_scan"}, "bike_id": "e12246034f749a8c80504223c3f818e5", "lat": 38.93969383333334, "name": "e12246034f749a8c80504223c3f818e5", "lon": -77.03254283333334, "fusion_lon": 0.0}, {"is_reserved": 0, "type": "electric_scooter", "fusion_lat": 0.0, "is_disabled": 0, "rental_uris": {"ios": "https://dc.lft.to/lastmile_qr_scan", "android": "https://dc.lft.to/lastmile_qr_scan"}, "bike_id": "f1e74476b8a5ab3a9e36b85e8a2c65ce", "lat": 38.91714783333333, "name": "f1e74476b8a5ab3a9e36b85e8a2c65ce", "lon": -77.04157716666667, "fusion_lon": 0.0}, {"is_reserved": 0, "type": "electric_scooter", "fusion_lat": 0.0, "is_disabled": 0, "rental_uris": {"ios": "https://dc.lft.to/lastmile_qr_scan", "android": "https://dc.lft.to/lastmile_qr_scan"}, "bike_id": "10afae6ec5b9c1d08094d42675a8bf86", "lat": 38.893609, "name": "10afae6ec5b9c1d08094d42675a8bf86", "lon": -77.04476033333333, "fusion_lon": 0.0}, {"is_reserved": 0, "type": "electric_scooter", "fusion_lat": 0.0, "is_disabled": 0, "rental_uris": {"ios": "https://dc.lft.to/lastmile_qr_scan", "android": "https://dc.lft.to/lastmile_qr_scan"}, "bike_id": "7eed3cd3067a7c4a1b9da62f34864225", "lat": 38.92613266666667, "name": "7eed3cd3067a7c4a1b9da62f34864225", "lon": -77.02158916666667, "fusion_lon": 0.0}, {"is_reserved": 0, "type": "electric_bike", "fusion_lat": 0.0, "is_disabled": 0, "rental_uris": {"ios": "https://dc.lft.to/lastmile_qr_scan", "android": "https://dc.lft.to/lastmile_qr_scan"}, "bike_id": "2c7fc82ad985056cb2784820d980c7a5", "lat": 38.94162433333333, "name": "2c7fc82ad985056cb2784820d980c7a5", "lon": -76.994115, "fusion_lon": 0.0}, {"is_reserved": 0, "type": "electric_scooter", "fusion_lat": 0.0, "is_disabled": 0, "rental_uris": {"ios": "https://dc.lft.to/lastmile_qr_scan", "android": "https://dc.lft.to/lastmile_qr_scan"}, "bike_id": "c1aec6b41f5ebbe2f6cfb3a063815d21", "lat": 38.892478, "name": "c1aec6b41f5ebbe2f6cfb3a063815d21", "lon": -77.04661883333333, "fusion_lon": 0.0}, {"is_reserved": 0, "type": "electric_bike", "fusion_lat": 0.0, "is_disabled": 0, "rental_uris": {"ios": "https://dc.lft.to/lastmile_qr_scan", "android": "https://dc.lft.to/lastmile_qr_scan"}, "bike_id": "05b80a6f80ae5d6c3e817cde1958b4b5", "lat": 38.875662, "name": "05b80a6f80ae5d6c3e817cde1958b4b5", "lon": -77.04706916666666, "fusion_lon": 0.0}, {"is_reserved": 0, "type": "electric_scooter", "fusion_lat": 0.0, "is_disabled": 0, "rental_uris": {"ios": "https://dc.lft.to/lastmile_qr_scan", "android": "https://dc.lft.to/lastmile_qr_scan"}, "bike_id": "66ed3c88ca471af966b96855f0f98208", "lat": 38.892096, "name": "66ed3c88ca471af966b96855f0f98208", "lon": -76.96118183333333, "fusion_lon": 0.0}, {"is_reserved": 0, "type": "electric_bike", "fusion_lat": 0.0, "is_disabled": 0, "rental_uris": {"ios": "https://dc.lft.to/lastmile_qr_scan", "android": "https://dc.lft.to/lastmile_qr_scan"}, "bike_id": "d7b41a253440413f9cc9b85884e83f6c", "lat": 38.9982545, "name": "d7b41a253440413f9cc9b85884e83f6c", "lon": -76.99728483333334, "fusion_lon": 0.0}, {"is_reserved": 0, "type": "electric_scooter", "fusion_lat": 0.0, "is_disabled": 0, "rental_uris": {"ios": "https://dc.lft.to/lastmile_qr_scan", "android": "https://dc.lft.to/lastmile_qr_scan"}, "bike_id": "9435dbd301d087b4b4c8b80c5d668602", "lat": 38.959508, "name": "9435dbd301d087b4b4c8b80c5d668602", "lon": -77.03320383333333, "fusion_lon": 0.0}, {"is_reserved": 0, "type": "electric_scooter", "fusion_lat": 0.0, "is_disabled": 0, "rental_uris": {"ios": "https://dc.lft.to/lastmile_qr_scan", "android": "https://dc.lft.to/lastmile_qr_scan"}, "bike_id": "b5159f8590148ddf21bbfc3ece6a2e32", "lat": 38.912717, "name": "b5159f8590148ddf21bbfc3ece6a2e32", "lon": -77.04662983333333, "fusion_lon": 0.0}, {"is_reserved": 0, "type": "electric_scooter", "fusion_lat": 0.0, "is_disabled": 0, "rental_uris": {"ios": "https://dc.lft.to/lastmile_qr_scan", "android": "https://dc.lft.to/lastmile_qr_scan"}, "bike_id": "ce801a5cf00e542db9474b172ea5cb6c", "lat": 38.916262833333334, "name": "ce801a5cf00e542db9474b172ea5cb6c", "lon": -77.039337, "fusion_lon": 0.0}, {"is_reserved": 0, "type": "electric_scooter", "fusion_lat": 0.0, "is_disabled": 0, "rental_uris": {"ios": "https://dc.lft.to/lastmile_qr_scan", "android": "https://dc.lft.to/lastmile_qr_scan"}, "bike_id": "000f0eaa5e8c11626971036d05a6c983", "lat": 38.92894533333333, "name": "000f0eaa5e8c11626971036d05a6c983", "lon": -77.03871066666666, "fusion_lon": 0.0}, {"is_reserved": 0, "type": "electric_scooter", "fusion_lat": 0.0, "is_disabled": 0, "rental_uris": {"ios": "https://dc.lft.to/lastmile_qr_scan", "android": "https://dc.lft.to/lastmile_qr_scan"}, "bike_id": "c8d2c9774b221469b4cdbbb76fbcc87a", "lat": 38.92063916666667, "name": "c8d2c9774b221469b4cdbbb76fbcc87a", "lon": -77.0422725, "fusion_lon": 0.0}, {"is_reserved": 0, "type": "electric_scooter", "fusion_lat": 0.0, "is_disabled": 0, "rental_uris": {"ios": "https://dc.lft.to/lastmile_qr_scan", "android": "https://dc.lft.to/lastmile_qr_scan"}, "bike_id": "0f8e81355739431b9f72c45cabf9f821", "lat": 38.88379333333334, "name": "0f8e81355739431b9f72c45cabf9f821", "lon": -77.0460785, "fusion_lon": 0.0}, {"is_reserved": 0, "type": "electric_scooter", "fusion_lat": 0.0, "is_disabled": 0, "rental_uris": {"ios": "https://dc.lft.to/lastmile_qr_scan", "android": "https://dc.lft.to/lastmile_qr_scan"}, "bike_id": "93dace41cd3c4ebdf57340bb847f7676", "lat": 38.89222516666667, "name": "93dace41cd3c4ebdf57340bb847f7676", "lon": -77.043299, "fusion_lon": 0.0}, {"is_reserved": 0, "type": "electric_scooter", "fusion_lat": 0.0, "is_disabled": 0, "rental_uris": {"ios": "https://dc.lft.to/lastmile_qr_scan", "android": "https://dc.lft.to/lastmile_qr_scan"}, "bike_id": "e446eaadba249bfb9d9fd8b330950018", "lat": 38.924641, "name": "e446eaadba249bfb9d9fd8b330950018", "lon": -77.0271205, "fusion_lon": 0.0}, {"is_reserved": 0, "type": "electric_scooter", "fusion_lat": 0.0, "is_disabled": 0, "rental_uris": {"ios": "https://dc.lft.to/lastmile_qr_scan", "android": "https://dc.lft.to/lastmile_qr_scan"}, "bike_id": "0c7afe26bbfdf7fa42b21b66e186d211", "lat": 38.900478666666665, "name": "0c7afe26bbfdf7fa42b21b66e186d211", "lon": -76.993389, "fusion_lon": 0.0}, {"is_reserved": 0, "type": "electric_scooter", "fusion_lat": 0.0, "is_disabled": 0, "rental_uris": {"ios": "https://dc.lft.to/lastmile_qr_scan", "android": "https://dc.lft.to/lastmile_qr_scan"}, "bike_id": "320127f15c483ec60b2ffc30077da19e", "lat": 38.956413, "name": "320127f15c483ec60b2ffc30077da19e", "lon": -77.028185, "fusion_lon": 0.0}, {"is_reserved": 0, "type": "electric_scooter", "fusion_lat": 0.0, "is_disabled": 0, "rental_uris": {"ios": "https://dc.lft.to/lastmile_qr_scan", "android": "https://dc.lft.to/lastmile_qr_scan"}, "bike_id": "b1c6f04002dbc940d018f47a8680a4aa", "lat": 38.88742716666667, "name": "b1c6f04002dbc940d018f47a8680a4aa", "lon": -77.0263025, "fusion_lon": 0.0}, {"is_reserved": 0, "type": "electric_scooter", "fusion_lat": 0.0, "is_disabled": 0, "rental_uris": {"ios": "https://dc.lft.to/lastmile_qr_scan", "android": "https://dc.lft.to/lastmile_qr_scan"}, "bike_id": "4a1cc56237e3c5b41a21c9d5efb51e61", "lat": 38.90322116666667, "name": "4a1cc56237e3c5b41a21c9d5efb51e61", "lon": -77.02167833333333, "fusion_lon": 0.0}, {"is_reserved": 0, "type": "electric_scooter", "fusion_lat": 0.0, "is_disabled": 0, "rental_uris": {"ios": "https://dc.lft.to/lastmile_qr_scan", "android": "https://dc.lft.to/lastmile_qr_scan"}, "bike_id": "ac03ed4be0449386dbd98d0aad6aa90b", "lat": 38.8427225, "name": "ac03ed4be0449386dbd98d0aad6aa90b", "lon": -76.988399, "fusion_lon": 0.0}, {"is_reserved": 0, "type": "electric_scooter", "fusion_lat": 0.0, "is_disabled": 0, "rental_uris": {"ios": "https://dc.lft.to/lastmile_qr_scan", "android": "https://dc.lft.to/lastmile_qr_scan"}, "bike_id": "c58f26ede60f951d83b96ba0b918541d", "lat": 38.8758365, "name": "c58f26ede60f951d83b96ba0b918541d", "lon": -77.00564016666667, "fusion_lon": 0.0}, {"is_reserved": 0, "type": "electric_scooter", "fusion_lat": 0.0, "is_disabled": 0, "rental_uris": {"ios": "https://dc.lft.to/lastmile_qr_scan", "android": "https://dc.lft.to/lastmile_qr_scan"}, "bike_id": "41c4a93143243a60ed585358257d6896", "lat": 38.903114333333335, "name": "41c4a93143243a60ed585358257d6896", "lon": -76.97806283333334, "fusion_lon": 0.0}, {"is_reserved": 0, "type": "electric_scooter", "fusion_lat": 0.0, "is_disabled": 0, "rental_uris": {"ios": "https://dc.lft.to/lastmile_qr_scan", "android": "https://dc.lft.to/lastmile_qr_scan"}, "bike_id": "20cb0ea80a8582cf59f380bcbbe750c9", "lat": 38.88739316666667, "name": "20cb0ea80a8582cf59f380bcbbe750c9", "lon": -77.01538, "fusion_lon": 0.0}, {"is_reserved": 0, "type": "electric_scooter", "fusion_lat": 0.0, "is_disabled": 0, "rental_uris": {"ios": "https://dc.lft.to/lastmile_qr_scan", "android": "https://dc.lft.to/lastmile_qr_scan"}, "bike_id": "5e6f081b4de8b7b91afa5e212465f907", "lat": 38.903591666666664, "name": "5e6f081b4de8b7b91afa5e212465f907", "lon": -77.0401105, "fusion_lon": 0.0}, {"is_reserved": 0, "type": "electric_scooter", "fusion_lat": 0.0, "is_disabled": 0, "rental_uris": {"ios": "https://dc.lft.to/lastmile_qr_scan", "android": "https://dc.lft.to/lastmile_qr_scan"}, "bike_id": "0438ab2b07dff07464641e013a27292c", "lat": 38.875650666666665, "name": "0438ab2b07dff07464641e013a27292c", "lon": -77.00593833333333, "fusion_lon": 0.0}, {"is_reserved": 0, "type": "electric_scooter", "fusion_lat": 0.0, "is_disabled": 0, "rental_uris": {"ios": "https://dc.lft.to/lastmile_qr_scan", "android": "https://dc.lft.to/lastmile_qr_scan"}, "bike_id": "be3eca77e8424664f97153944de506db", "lat": 38.929116666666665, "name": "be3eca77e8424664f97153944de506db", "lon": -77.02090166666666, "fusion_lon": 0.0}, {"is_reserved": 0, "type": "electric_scooter", "fusion_lat": 0.0, "is_disabled": 0, "rental_uris": {"ios": "https://dc.lft.to/lastmile_qr_scan", "android": "https://dc.lft.to/lastmile_qr_scan"}, "bike_id": "f62490d38d13c1d44f4f3378874574ec", "lat": 38.93002716666667, "name": "f62490d38d13c1d44f4f3378874574ec", "lon": -77.03240566666666, "fusion_lon": 0.0}, {"is_reserved": 0, "type": "electric_scooter", "fusion_lat": 0.0, "is_disabled": 0, "rental_uris": {"ios": "https://dc.lft.to/lastmile_qr_scan", "android": "https://dc.lft.to/lastmile_qr_scan"}, "bike_id": "91c2ed388def4a60af25f71ea107fe3c", "lat": 38.935972, "name": "91c2ed388def4a60af25f71ea107fe3c", "lon": -77.024315, "fusion_lon": 0.0}, {"is_reserved": 0, "type": "electric_scooter", "fusion_lat": 0.0, "is_disabled": 0, "rental_uris": {"ios": "https://dc.lft.to/lastmile_qr_scan", "android": "https://dc.lft.to/lastmile_qr_scan"}, "bike_id": "8efe92787259e39f9ad0069deb6da84f", "lat": 38.88207416666667, "name": "8efe92787259e39f9ad0069deb6da84f", "lon": -76.93342433333333, "fusion_lon": 0.0}, {"is_reserved": 0, "type": "electric_scooter", "fusion_lat": 0.0, "is_disabled": 0, "rental_uris": {"ios": "https://dc.lft.to/lastmile_qr_scan", "android": "https://dc.lft.to/lastmile_qr_scan"}, "bike_id": "8f4a7eef987282bf1706a853f8f251a3", "lat": 38.89912, "name": "8f4a7eef987282bf1706a853f8f251a3", "lon": -77.03218966666667, "fusion_lon": 0.0}, {"is_reserved": 0, "type": "electric_scooter", "fusion_lat": 0.0, "is_disabled": 0, "rental_uris": {"ios": "https://dc.lft.to/lastmile_qr_scan", "android": "https://dc.lft.to/lastmile_qr_scan"}, "bike_id": "8ea579f8190477ade7e7e607d321ee0d", "lat": 38.90197116666667, "name": "8ea579f8190477ade7e7e607d321ee0d", "lon": -76.994905, "fusion_lon": 0.0}, {"is_reserved": 0, "type": "electric_scooter", "fusion_lat": 0.0, "is_disabled": 0, "rental_uris": {"ios": "https://dc.lft.to/lastmile_qr_scan", "android": "https://dc.lft.to/lastmile_qr_scan"}, "bike_id": "a40f77f2f8b3a7cce4ba727e139e6500", "lat": 38.893656166666666, "name": "a40f77f2f8b3a7cce4ba727e139e6500", "lon": -77.0207115, "fusion_lon": 0.0}, {"is_reserved": 0, "type": "electric_bike", "fusion_lat": 0.0, "is_disabled": 0, "rental_uris": {"ios": "https://dc.lft.to/lastmile_qr_scan", "android": "https://dc.lft.to/lastmile_qr_scan"}, "bike_id": "7a370b623acbfed3ee7e55aaddebfd8d", "lat": 38.96773233333333, "name": "7a370b623acbfed3ee7e55aaddebfd8d", "lon": -76.99654783333334, "fusion_lon": 0.0}, {"is_reserved": 0, "type": "electric_bike", "fusion_lat": 0.0, "is_disabled": 0, "rental_uris": {"ios": "https://dc.lft.to/lastmile_qr_scan", "android": "https://dc.lft.to/lastmile_qr_scan"}, "bike_id": "afdba21067d5b1fefa794126a68a7ff9", "lat": 38.91660683333333, "name": "afdba21067d5b1fefa794126a68a7ff9", "lon": -76.98124166666666, "fusion_lon": 0.0}, {"is_reserved": 0, "type": "electric_scooter", "fusion_lat": 0.0, "is_disabled": 0, "rental_uris": {"ios": "https://dc.lft.to/lastmile_qr_scan", "android": "https://dc.lft.to/lastmile_qr_scan"}, "bike_id": "18971ab1601ac663854d97c192903f82", "lat": 38.9124775, "name": "18971ab1601ac663854d97c192903f82", "lon": -77.00916333333333, "fusion_lon": 0.0}, {"is_reserved": 0, "type": "electric_scooter", "fusion_lat": 0.0, "is_disabled": 0, "rental_uris": {"ios": "https://dc.lft.to/lastmile_qr_scan", "android": "https://dc.lft.to/lastmile_qr_scan"}, "bike_id": "7bf9d17be8370bc01cf7522424241866", "lat": 38.87945, "name": "7bf9d17be8370bc01cf7522424241866", "lon": -77.01272033333333, "fusion_lon": 0.0}, {"is_reserved": 0, "type": "electric_scooter", "fusion_lat": 0.0, "is_disabled": 0, "rental_uris": {"ios": "https://dc.lft.to/lastmile_qr_scan", "android": "https://dc.lft.to/lastmile_qr_scan"}, "bike_id": "b83624d7eaf256f3625941a0ac460ccd", "lat": 38.90022233333333, "name": "b83624d7eaf256f3625941a0ac460ccd", "lon": -77.01188416666666, "fusion_lon": 0.0}, {"is_reserved": 0, "type": "electric_scooter", "fusion_lat": 0.0, "is_disabled": 0, "rental_uris": {"ios": "https://dc.lft.to/lastmile_qr_scan", "android": "https://dc.lft.to/lastmile_qr_scan"}, "bike_id": "eea199671dc18c1577b253b5af2948fb", "lat": 38.89586716666667, "name": "eea199671dc18c1577b253b5af2948fb", "lon": -77.02271066666667, "fusion_lon": 0.0}, {"is_reserved": 0, "type": "electric_scooter", "fusion_lat": 0.0, "is_disabled": 0, "rental_uris": {"ios": "https://dc.lft.to/lastmile_qr_scan", "android": "https://dc.lft.to/lastmile_qr_scan"}, "bike_id": "c088f2c6e99bf41788939cff8d700e9c", "lat": 38.88695033333333, "name": "c088f2c6e99bf41788939cff8d700e9c", "lon": -77.00063333333334, "fusion_lon": 0.0}, {"is_reserved": 0, "type": "electric_scooter", "fusion_lat": 0.0, "is_disabled": 0, "rental_uris": {"ios": "https://dc.lft.to/lastmile_qr_scan", "android": "https://dc.lft.to/lastmile_qr_scan"}, "bike_id": "9285e37289c788308cdae9d2800680a6", "lat": 38.94462, "name": "9285e37289c788308cdae9d2800680a6", "lon": -77.00659916666666, "fusion_lon": 0.0}, {"is_reserved": 0, "type": "electric_bike", "fusion_lat": 0.0, "is_disabled": 0, "rental_uris": {"ios": "https://dc.lft.to/lastmile_qr_scan", "android": "https://dc.lft.to/lastmile_qr_scan"}, "bike_id": "9460ad82bb41114a8dadefc12d3563a3", "lat": 38.81939033333333, "name": "9460ad82bb41114a8dadefc12d3563a3", "lon": -77.00202616666667, "fusion_lon": 0.0}, {"is_reserved": 0, "type": "electric_scooter", "fusion_lat": 0.0, "is_disabled": 0, "rental_uris": {"ios": "https://dc.lft.to/lastmile_qr_scan", "android": "https://dc.lft.to/lastmile_qr_scan"}, "bike_id": "b514e399e3aacadd5a1a6e0d91d1fbcb", "lat": 38.90893833333333, "name": "b514e399e3aacadd5a1a6e0d91d1fbcb", "lon": -77.032017, "fusion_lon": 0.0}, {"is_reserved": 0, "type": "electric_scooter", "fusion_lat": 0.0, "is_disabled": 0, "rental_uris": {"ios": "https://dc.lft.to/lastmile_qr_scan", "android": "https://dc.lft.to/lastmile_qr_scan"}, "bike_id": "2b24c9f0cd7bc00ef4eea9140d42856c", "lat": 38.91340683333333, "name": "2b24c9f0cd7bc00ef4eea9140d42856c", "lon": -77.0456535, "fusion_lon": 0.0}, {"is_reserved": 0, "type": "electric_scooter", "fusion_lat": 0.0, "is_disabled": 0, "rental_uris": {"ios": "https://dc.lft.to/lastmile_qr_scan", "android": "https://dc.lft.to/lastmile_qr_scan"}, "bike_id": "d444a44b5fe13c4cf7b74347d97fe196", "lat": 38.881336166666664, "name": "d444a44b5fe13c4cf7b74347d97fe196", "lon": -76.9962445, "fusion_lon": 0.0}, {"is_reserved": 0, "type": "electric_scooter", "fusion_lat": 0.0, "is_disabled": 0, "rental_uris": {"ios": "https://dc.lft.to/lastmile_qr_scan", "android": "https://dc.lft.to/lastmile_qr_scan"}, "bike_id": "4abab75d982d88fb45a13f465a327240", "lat": 38.878237, "name": "4abab75d982d88fb45a13f465a327240", "lon": -77.008537, "fusion_lon": 0.0}, {"is_reserved": 0, "type": "electric_scooter", "fusion_lat": 0.0, "is_disabled": 0, "rental_uris": {"ios": "https://dc.lft.to/lastmile_qr_scan", "android": "https://dc.lft.to/lastmile_qr_scan"}, "bike_id": "90f25cc9288c047e59b34d0467845a32", "lat": 38.92176116666667, "name": "90f25cc9288c047e59b34d0467845a32", "lon": -76.99854316666666, "fusion_lon": 0.0}, {"is_reserved": 0, "type": "electric_scooter", "fusion_lat": 0.0, "is_disabled": 0, "rental_uris": {"ios": "https://dc.lft.to/lastmile_qr_scan", "android": "https://dc.lft.to/lastmile_qr_scan"}, "bike_id": "6e01f43ab3e61bc1e4a1a9cf6c30b268", "lat": 38.908320333333336, "name": "6e01f43ab3e61bc1e4a1a9cf6c30b268", "lon": -77.0007125, "fusion_lon": 0.0}, {"is_reserved": 0, "type": "electric_scooter", "fusion_lat": 0.0, "is_disabled": 0, "rental_uris": {"ios": "https://dc.lft.to/lastmile_qr_scan", "android": "https://dc.lft.to/lastmile_qr_scan"}, "bike_id": "751da1bd11b5d2b2a4858c1df6d85f89", "lat": 38.9244915, "name": "751da1bd11b5d2b2a4858c1df6d85f89", "lon": -77.02036483333333, "fusion_lon": 0.0}, {"is_reserved": 0, "type": "electric_scooter", "fusion_lat": 0.0, "is_disabled": 0, "rental_uris": {"ios": "https://dc.lft.to/lastmile_qr_scan", "android": "https://dc.lft.to/lastmile_qr_scan"}, "bike_id": "5cd59e651a88ef375f4c5a37d986a176", "lat": 38.89481083333333, "name": "5cd59e651a88ef375f4c5a37d986a176", "lon": -76.99600983333333, "fusion_lon": 0.0}, {"is_reserved": 0, "type": "electric_scooter", "fusion_lat": 0.0, "is_disabled": 0, "rental_uris": {"ios": "https://dc.lft.to/lastmile_qr_scan", "android": "https://dc.lft.to/lastmile_qr_scan"}, "bike_id": "2b1a59d1686093764625d7fce7adc96d", "lat": 38.894967333333334, "name": "2b1a59d1686093764625d7fce7adc96d", "lon": -77.02298516666667, "fusion_lon": 0.0}, {"is_reserved": 0, "type": "electric_scooter", "fusion_lat": 0.0, "is_disabled": 0, "rental_uris": {"ios": "https://dc.lft.to/lastmile_qr_scan", "android": "https://dc.lft.to/lastmile_qr_scan"}, "bike_id": "cf33d69154276d94e7c20f63c6f80fd0", "lat": 38.92953083333333, "name": "cf33d69154276d94e7c20f63c6f80fd0", "lon": -77.04402916666666, "fusion_lon": 0.0}, {"is_reserved": 0, "type": "electric_scooter", "fusion_lat": 0.0, "is_disabled": 0, "rental_uris": {"ios": "https://dc.lft.to/lastmile_qr_scan", "android": "https://dc.lft.to/lastmile_qr_scan"}, "bike_id": "41ea102dc86d3a247fd96f305a04cd7f", "lat": 38.90995383333333, "name": "41ea102dc86d3a247fd96f305a04cd7f", "lon": -77.02703066666666, "fusion_lon": 0.0}, {"is_reserved": 0, "type": "electric_scooter", "fusion_lat": 0.0, "is_disabled": 0, "rental_uris": {"ios": "https://dc.lft.to/lastmile_qr_scan", "android": "https://dc.lft.to/lastmile_qr_scan"}, "bike_id": "d389fb231ca02485e7462af57293a2cf", "lat": 38.888414, "name": "d389fb231ca02485e7462af57293a2cf", "lon": -76.97734716666666, "fusion_lon": 0.0}, {"is_reserved": 0, "type": "electric_scooter", "fusion_lat": 0.0, "is_disabled": 0, "rental_uris": {"ios": "https://dc.lft.to/lastmile_qr_scan", "android": "https://dc.lft.to/lastmile_qr_scan"}, "bike_id": "a6354d3a43c15027b79045c30bd88f2f", "lat": 38.922134166666666, "name": "a6354d3a43c15027b79045c30bd88f2f", "lon": -77.02029533333334, "fusion_lon": 0.0}, {"is_reserved": 0, "type": "electric_bike", "fusion_lat": 0.0, "is_disabled": 0, "rental_uris": {"ios": "https://dc.lft.to/lastmile_qr_scan", "android": "https://dc.lft.to/lastmile_qr_scan"}, "bike_id": "f4b60529f203d2287178fe39eedff1d0", "lat": 38.90534316666667, "name": "f4b60529f203d2287178fe39eedff1d0", "lon": -77.05914416666667, "fusion_lon": 0.0}, {"is_reserved": 0, "type": "electric_bike", "fusion_lat": 0.0, "is_disabled": 0, "rental_uris": {"ios": "https://dc.lft.to/lastmile_qr_scan", "android": "https://dc.lft.to/lastmile_qr_scan"}, "bike_id": "a052dca22701a0c5f2328953c9b16c3f", "lat": 38.83587966666666, "name": "a052dca22701a0c5f2328953c9b16c3f", "lon": -76.990168, "fusion_lon": 0.0}, {"is_reserved": 0, "type": "electric_bike", "fusion_lat": 0.0, "is_disabled": 0, "rental_uris": {"ios": "https://dc.lft.to/lastmile_qr_scan", "android": "https://dc.lft.to/lastmile_qr_scan"}, "bike_id": "b45ab1ab9b4cfece57f9c95d2157ec0b", "lat": 38.850827, "name": "b45ab1ab9b4cfece57f9c95d2157ec0b", "lon": -76.98156516666667, "fusion_lon": 0.0}, {"is_reserved": 0, "type": "electric_scooter", "fusion_lat": 0.0, "is_disabled": 0, "rental_uris": {"ios": "https://dc.lft.to/lastmile_qr_scan", "android": "https://dc.lft.to/lastmile_qr_scan"}, "bike_id": "50ab90b13c62ecdfd934766bf3d02b32", "lat": 38.895754, "name": "50ab90b13c62ecdfd934766bf3d02b32", "lon": -77.02759433333334, "fusion_lon": 0.0}, {"is_reserved": 0, "type": "electric_bike", "fusion_lat": 0.0, "is_disabled": 0, "rental_uris": {"ios": "https://dc.lft.to/lastmile_qr_scan", "android": "https://dc.lft.to/lastmile_qr_scan"}, "bike_id": "4215b3417a24479af1094580c389b53f", "lat": 38.955056, "name": "4215b3417a24479af1094580c389b53f", "lon": -77.02772583333334, "fusion_lon": 0.0}, {"is_reserved": 0, "type": "electric_scooter", "fusion_lat": 0.0, "is_disabled": 0, "rental_uris": {"ios": "https://dc.lft.to/lastmile_qr_scan", "android": "https://dc.lft.to/lastmile_qr_scan"}, "bike_id": "f6f5d730a8cc2818b61e98144239c804", "lat": 38.917439333333334, "name": "f6f5d730a8cc2818b61e98144239c804", "lon": -77.01085816666667, "fusion_lon": 0.0}, {"is_reserved": 0, "type": "electric_bike", "fusion_lat": 0.0, "is_disabled": 0, "rental_uris": {"ios": "https://dc.lft.to/lastmile_qr_scan", "android": "https://dc.lft.to/lastmile_qr_scan"}, "bike_id": "fe03c4621fc9b37f6c03d7e00d19ea9a", "lat": 38.90007283333333, "name": "fe03c4621fc9b37f6c03d7e00d19ea9a", "lon": -76.99047066666667, "fusion_lon": 0.0}, {"is_reserved": 0, "type": "electric_bike", "fusion_lat": 0.0, "is_disabled": 0, "rental_uris": {"ios": "https://dc.lft.to/lastmile_qr_scan", "android": "https://dc.lft.to/lastmile_qr_scan"}, "bike_id": "e3d97985cf361363db3942709be4ef6e", "lat": 38.96726833333334, "name": "e3d97985cf361363db3942709be4ef6e", "lon": -77.08909616666666, "fusion_lon": 0.0}, {"is_reserved": 0, "type": "electric_scooter", "fusion_lat": 0.0, "is_disabled": 0, "rental_uris": {"ios": "https://dc.lft.to/lastmile_qr_scan", "android": "https://dc.lft.to/lastmile_qr_scan"}, "bike_id": "6948ea8509d21aae69b8ae6077b6a156", "lat": 38.9237385, "name": "6948ea8509d21aae69b8ae6077b6a156", "lon": -77.02925583333334, "fusion_lon": 0.0}, {"is_reserved": 0, "type": "electric_scooter", "fusion_lat": 0.0, "is_disabled": 0, "rental_uris": {"ios": "https://dc.lft.to/lastmile_qr_scan", "android": "https://dc.lft.to/lastmile_qr_scan"}, "bike_id": "6cbd6f50180f78840874d8654c3e6bfd", "lat": 38.89670316666667, "name": "6cbd6f50180f78840874d8654c3e6bfd", "lon": -76.949126, "fusion_lon": 0.0}, {"is_reserved": 0, "type": "electric_scooter", "fusion_lat": 0.0, "is_disabled": 0, "rental_uris": {"ios": "https://dc.lft.to/lastmile_qr_scan", "android": "https://dc.lft.to/lastmile_qr_scan"}, "bike_id": "68cc6b4979a05cce4df90e3d02ec8166", "lat": 38.905646833333336, "name": "68cc6b4979a05cce4df90e3d02ec8166", "lon": -77.0276395, "fusion_lon": 0.0}, {"is_reserved": 0, "type": "electric_scooter", "fusion_lat": 0.0, "is_disabled": 0, "rental_uris": {"ios": "https://dc.lft.to/lastmile_qr_scan", "android": "https://dc.lft.to/lastmile_qr_scan"}, "bike_id": "a0542cb9c02af3583a151f81abf0fce3", "lat": 38.91793916666666, "name": "a0542cb9c02af3583a151f81abf0fce3", "lon": -77.0401915, "fusion_lon": 0.0}, {"is_reserved": 0, "type": "electric_scooter", "fusion_lat": 0.0, "is_disabled": 0, "rental_uris": {"ios": "https://dc.lft.to/lastmile_qr_scan", "android": "https://dc.lft.to/lastmile_qr_scan"}, "bike_id": "4a24f62fd616ff7e961e30400624c784", "lat": 38.910851, "name": "4a24f62fd616ff7e961e30400624c784", "lon": -77.021969, "fusion_lon": 0.0}, {"is_reserved": 0, "type": "electric_scooter", "fusion_lat": 0.0, "is_disabled": 0, "rental_uris": {"ios": "https://dc.lft.to/lastmile_qr_scan", "android": "https://dc.lft.to/lastmile_qr_scan"}, "bike_id": "917b94bebdcce30ddcf373662cb9b8dc", "lat": 38.872847, "name": "917b94bebdcce30ddcf373662cb9b8dc", "lon": -77.009842, "fusion_lon": 0.0}, {"is_reserved": 0, "type": "electric_scooter", "fusion_lat": 0.0, "is_disabled": 0, "rental_uris": {"ios": "https://dc.lft.to/lastmile_qr_scan", "android": "https://dc.lft.to/lastmile_qr_scan"}, "bike_id": "26370d8bfa1b83e7ba847b923a0f12fa", "lat": 38.883063166666666, "name": "26370d8bfa1b83e7ba847b923a0f12fa", "lon": -77.01745083333333, "fusion_lon": 0.0}, {"is_reserved": 0, "type": "electric_scooter", "fusion_lat": 0.0, "is_disabled": 0, "rental_uris": {"ios": "https://dc.lft.to/lastmile_qr_scan", "android": "https://dc.lft.to/lastmile_qr_scan"}, "bike_id": "a85972778c2893a6245a0351583647f5", "lat": 38.8985985, "name": "a85972778c2893a6245a0351583647f5", "lon": -76.99614566666666, "fusion_lon": 0.0}, {"is_reserved": 0, "type": "electric_scooter", "fusion_lat": 0.0, "is_disabled": 0, "rental_uris": {"ios": "https://dc.lft.to/lastmile_qr_scan", "android": "https://dc.lft.to/lastmile_qr_scan"}, "bike_id": "4573cd0137d23b104f43fcd09e1ad706", "lat": 38.892252166666665, "name": "4573cd0137d23b104f43fcd09e1ad706", "lon": -77.01540483333333, "fusion_lon": 0.0}, {"is_reserved": 0, "type": "electric_scooter", "fusion_lat": 0.0, "is_disabled": 0, "rental_uris": {"ios": "https://dc.lft.to/lastmile_qr_scan", "android": "https://dc.lft.to/lastmile_qr_scan"}, "bike_id": "de06064cbdc690cfc57b47fcb36746a5", "lat": 38.927772, "name": "de06064cbdc690cfc57b47fcb36746a5", "lon": -77.02716716666667, "fusion_lon": 0.0}, {"is_reserved": 0, "type": "electric_scooter", "fusion_lat": 0.0, "is_disabled": 0, "rental_uris": {"ios": "https://dc.lft.to/lastmile_qr_scan", "android": "https://dc.lft.to/lastmile_qr_scan"}, "bike_id": "962eae4f4d3fa55add48d8a47e9ecdf9", "lat": 38.897424666666666, "name": "962eae4f4d3fa55add48d8a47e9ecdf9", "lon": -77.00860916666667, "fusion_lon": 0.0}, {"is_reserved": 0, "type": "electric_scooter", "fusion_lat": 0.0, "is_disabled": 0, "rental_uris": {"ios": "https://dc.lft.to/lastmile_qr_scan", "android": "https://dc.lft.to/lastmile_qr_scan"}, "bike_id": "a24cf386ee77065d4bede44d389540d7", "lat": 38.8962905, "name": "a24cf386ee77065d4bede44d389540d7", "lon": -77.04012616666667, "fusion_lon": 0.0}, {"is_reserved": 0, "type": "electric_bike", "fusion_lat": 0.0, "is_disabled": 0, "rental_uris": {"ios": "https://dc.lft.to/lastmile_qr_scan", "android": "https://dc.lft.to/lastmile_qr_scan"}, "bike_id": "0e1a040bd291da2192443e877b357d1c", "lat": 38.8306355, "name": "0e1a040bd291da2192443e877b357d1c", "lon": -77.04078116666666, "fusion_lon": 0.0}, {"is_reserved": 0, "type": "electric_scooter", "fusion_lat": 0.0, "is_disabled": 0, "rental_uris": {"ios": "https://dc.lft.to/lastmile_qr_scan", "android": "https://dc.lft.to/lastmile_qr_scan"}, "bike_id": "80bfdad80b06be1fee6e7670012cfcf2", "lat": 38.898601, "name": "80bfdad80b06be1fee6e7670012cfcf2", "lon": -76.946426, "fusion_lon": 0.0}, {"is_reserved": 0, "type": "electric_scooter", "fusion_lat": 0.0, "is_disabled": 0, "rental_uris": {"ios": "https://dc.lft.to/lastmile_qr_scan", "android": "https://dc.lft.to/lastmile_qr_scan"}, "bike_id": "77ad9f879ef90178c9603a0efe45f2a8", "lat": 38.89737983333333, "name": "77ad9f879ef90178c9603a0efe45f2a8", "lon": -77.04815216666667, "fusion_lon": 0.0}, {"is_reserved": 0, "type": "electric_scooter", "fusion_lat": 0.0, "is_disabled": 0, "rental_uris": {"ios": "https://dc.lft.to/lastmile_qr_scan", "android": "https://dc.lft.to/lastmile_qr_scan"}, "bike_id": "184af3bac0a7a2cb04cd8cd5e67f6ac5", "lat": 38.92084233333333, "name": "184af3bac0a7a2cb04cd8cd5e67f6ac5", "lon": -77.02519383333333, "fusion_lon": 0.0}, {"is_reserved": 0, "type": "electric_scooter", "fusion_lat": 0.0, "is_disabled": 0, "rental_uris": {"ios": "https://dc.lft.to/lastmile_qr_scan", "android": "https://dc.lft.to/lastmile_qr_scan"}, "bike_id": "8c3ff260fb61965a5598641d223f64ec", "lat": 38.93560166666666, "name": "8c3ff260fb61965a5598641d223f64ec", "lon": -77.0285245, "fusion_lon": 0.0}, {"is_reserved": 0, "type": "electric_scooter", "fusion_lat": 0.0, "is_disabled": 0, "rental_uris": {"ios": "https://dc.lft.to/lastmile_qr_scan", "android": "https://dc.lft.to/lastmile_qr_scan"}, "bike_id": "bf469e721bf9ae569c9ff296f1dc1b5f", "lat": 38.898137, "name": "bf469e721bf9ae569c9ff296f1dc1b5f", "lon": -77.00212133333333, "fusion_lon": 0.0}, {"is_reserved": 0, "type": "electric_scooter", "fusion_lat": 0.0, "is_disabled": 0, "rental_uris": {"ios": "https://dc.lft.to/lastmile_qr_scan", "android": "https://dc.lft.to/lastmile_qr_scan"}, "bike_id": "1f078123195d8872ab4bffc0affad4aa", "lat": 38.870652166666666, "name": "1f078123195d8872ab4bffc0affad4aa", "lon": -76.979378, "fusion_lon": 0.0}, {"is_reserved": 0, "type": "electric_scooter", "fusion_lat": 0.0, "is_disabled": 0, "rental_uris": {"ios": "https://dc.lft.to/lastmile_qr_scan", "android": "https://dc.lft.to/lastmile_qr_scan"}, "bike_id": "1173386797fb0b2cb5b0657c9d0a0031", "lat": 38.903018333333335, "name": "1173386797fb0b2cb5b0657c9d0a0031", "lon": -77.05044583333333, "fusion_lon": 0.0}, {"is_reserved": 0, "type": "electric_scooter", "fusion_lat": 0.0, "is_disabled": 0, "rental_uris": {"ios": "https://dc.lft.to/lastmile_qr_scan", "android": "https://dc.lft.to/lastmile_qr_scan"}, "bike_id": "c2309384f8143900232847926c381717", "lat": 38.898340166666664, "name": "c2309384f8143900232847926c381717", "lon": -76.94632966666667, "fusion_lon": 0.0}, {"is_reserved": 0, "type": "electric_scooter", "fusion_lat": 0.0, "is_disabled": 0, "rental_uris": {"ios": "https://dc.lft.to/lastmile_qr_scan", "android": "https://dc.lft.to/lastmile_qr_scan"}, "bike_id": "1daf84093398b2b4aed23d77a4b03b13", "lat": 38.920394, "name": "1daf84093398b2b4aed23d77a4b03b13", "lon": -77.0167885, "fusion_lon": 0.0}, {"is_reserved": 0, "type": "electric_scooter", "fusion_lat": 0.0, "is_disabled": 0, "rental_uris": {"ios": "https://dc.lft.to/lastmile_qr_scan", "android": "https://dc.lft.to/lastmile_qr_scan"}, "bike_id": "ddec3e8b845acece0a63f079b584feaf", "lat": 38.9023035, "name": "ddec3e8b845acece0a63f079b584feaf", "lon": -77.00066033333333, "fusion_lon": 0.0}, {"is_reserved": 0, "type": "electric_scooter", "fusion_lat": 0.0, "is_disabled": 0, "rental_uris": {"ios": "https://dc.lft.to/lastmile_qr_scan", "android": "https://dc.lft.to/lastmile_qr_scan"}, "bike_id": "f1a950a43d4a31ea95e642d4676334f0", "lat": 38.88743916666667, "name": "f1a950a43d4a31ea95e642d4676334f0", "lon": -77.014124, "fusion_lon": 0.0}, {"is_reserved": 0, "type": "electric_scooter", "fusion_lat": 0.0, "is_disabled": 0, "rental_uris": {"ios": "https://dc.lft.to/lastmile_qr_scan", "android": "https://dc.lft.to/lastmile_qr_scan"}, "bike_id": "d000cd93e988c85dbf8c0e21c4a00770", "lat": 38.91251, "name": "d000cd93e988c85dbf8c0e21c4a00770", "lon": -77.03864816666666, "fusion_lon": 0.0}, {"is_reserved": 0, "type": "electric_scooter", "fusion_lat": 0.0, "is_disabled": 0, "rental_uris": {"ios": "https://dc.lft.to/lastmile_qr_scan", "android": "https://dc.lft.to/lastmile_qr_scan"}, "bike_id": "61302aa2309adec6a76293fd97abc41b", "lat": 38.92458583333333, "name": "61302aa2309adec6a76293fd97abc41b", "lon": -77.03787833333334, "fusion_lon": 0.0}, {"is_reserved": 0, "type": "electric_scooter", "fusion_lat": 0.0, "is_disabled": 0, "rental_uris": {"ios": "https://dc.lft.to/lastmile_qr_scan", "android": "https://dc.lft.to/lastmile_qr_scan"}, "bike_id": "e125173d28e046d23a08e3c179a9878f", "lat": 38.895269, "name": "e125173d28e046d23a08e3c179a9878f", "lon": -77.021858, "fusion_lon": 0.0}, {"is_reserved": 0, "type": "electric_scooter", "fusion_lat": 0.0, "is_disabled": 0, "rental_uris": {"ios": "https://dc.lft.to/lastmile_qr_scan", "android": "https://dc.lft.to/lastmile_qr_scan"}, "bike_id": "2ca37bacee594b05ee49284a1e356706", "lat": 38.905830333333334, "name": "2ca37bacee594b05ee49284a1e356706", "lon": -77.06278883333333, "fusion_lon": 0.0}, {"is_reserved": 0, "type": "electric_bike", "fusion_lat": 0.0, "is_disabled": 0, "rental_uris": {"ios": "https://dc.lft.to/lastmile_qr_scan", "android": "https://dc.lft.to/lastmile_qr_scan"}, "bike_id": "3aeba50c829988a246e721e2a69217a9", "lat": 38.84858083333334, "name": "3aeba50c829988a246e721e2a69217a9", "lon": -77.06833283333333, "fusion_lon": 0.0}, {"is_reserved": 0, "type": "electric_scooter", "fusion_lat": 0.0, "is_disabled": 0, "rental_uris": {"ios": "https://dc.lft.to/lastmile_qr_scan", "android": "https://dc.lft.to/lastmile_qr_scan"}, "bike_id": "fdedd23959bf93b0d4816bd60e4be584", "lat": 38.87177533333333, "name": "fdedd23959bf93b0d4816bd60e4be584", "lon": -77.00610516666667, "fusion_lon": 0.0}, {"is_reserved": 0, "type": "electric_scooter", "fusion_lat": 0.0, "is_disabled": 0, "rental_uris": {"ios": "https://dc.lft.to/lastmile_qr_scan", "android": "https://dc.lft.to/lastmile_qr_scan"}, "bike_id": "ccd0de4341a4a723de82f5d9a292945e", "lat": 38.905476666666665, "name": "ccd0de4341a4a723de82f5d9a292945e", "lon": -77.0627105, "fusion_lon": 0.0}, {"is_reserved": 0, "type": "electric_scooter", "fusion_lat": 0.0, "is_disabled": 0, "rental_uris": {"ios": "https://dc.lft.to/lastmile_qr_scan", "android": "https://dc.lft.to/lastmile_qr_scan"}, "bike_id": "cad10f62fea00d3c4147fb222fad7800", "lat": 38.897398833333334, "name": "cad10f62fea00d3c4147fb222fad7800", "lon": -77.00869233333333, "fusion_lon": 0.0}, {"is_reserved": 0, "type": "electric_bike", "fusion_lat": 0.0, "is_disabled": 0, "rental_uris": {"ios": "https://dc.lft.to/lastmile_qr_scan", "android": "https://dc.lft.to/lastmile_qr_scan"}, "bike_id": "6913208af94a18f91130a5483f847582", "lat": 38.990953833333336, "name": "6913208af94a18f91130a5483f847582", "lon": -76.99369466666667, "fusion_lon": 0.0}, {"is_reserved": 0, "type": "electric_scooter", "fusion_lat": 0.0, "is_disabled": 0, "rental_uris": {"ios": "https://dc.lft.to/lastmile_qr_scan", "android": "https://dc.lft.to/lastmile_qr_scan"}, "bike_id": "83bd044901a3ed7d2b2ec853bc0bf705", "lat": 38.90193516666667, "name": "83bd044901a3ed7d2b2ec853bc0bf705", "lon": -76.99613533333333, "fusion_lon": 0.0}, {"is_reserved": 0, "type": "electric_scooter", "fusion_lat": 0.0, "is_disabled": 0, "rental_uris": {"ios": "https://dc.lft.to/lastmile_qr_scan", "android": "https://dc.lft.to/lastmile_qr_scan"}, "bike_id": "a881637c96264e8d478e62c69ec364d5", "lat": 38.90957916666667, "name": "a881637c96264e8d478e62c69ec364d5", "lon": -77.02292283333334, "fusion_lon": 0.0}, {"is_reserved": 0, "type": "electric_scooter", "fusion_lat": 0.0, "is_disabled": 0, "rental_uris": {"ios": "https://dc.lft.to/lastmile_qr_scan", "android": "https://dc.lft.to/lastmile_qr_scan"}, "bike_id": "3b98c5da0fc40797a6e7f9c8c1c5bee1", "lat": 38.930705333333336, "name": "3b98c5da0fc40797a6e7f9c8c1c5bee1", "lon": -77.03356516666666, "fusion_lon": 0.0}, {"is_reserved": 0, "type": "electric_scooter", "fusion_lat": 0.0, "is_disabled": 0, "rental_uris": {"ios": "https://dc.lft.to/lastmile_qr_scan", "android": "https://dc.lft.to/lastmile_qr_scan"}, "bike_id": "76fa3ac92385a1f7d1dc2b19baf83f8e", "lat": 38.891994333333336, "name": "76fa3ac92385a1f7d1dc2b19baf83f8e", "lon": -77.01553583333333, "fusion_lon": 0.0}, {"is_reserved": 0, "type": "electric_scooter", "fusion_lat": 0.0, "is_disabled": 0, "rental_uris": {"ios": "https://dc.lft.to/lastmile_qr_scan", "android": "https://dc.lft.to/lastmile_qr_scan"}, "bike_id": "8a0555c6622c6e71e7049e64a972d7e4", "lat": 38.922440333333334, "name": "8a0555c6622c6e71e7049e64a972d7e4", "lon": -77.03662466666667, "fusion_lon": 0.0}, {"is_reserved": 0, "type": "electric_scooter", "fusion_lat": 0.0, "is_disabled": 0, "rental_uris": {"ios": "https://dc.lft.to/lastmile_qr_scan", "android": "https://dc.lft.to/lastmile_qr_scan"}, "bike_id": "bd93abd08e189ae63a0f30f85713e955", "lat": 38.91049183333333, "name": "bd93abd08e189ae63a0f30f85713e955", "lon": -76.99803483333334, "fusion_lon": 0.0}, {"is_reserved": 0, "type": "electric_scooter", "fusion_lat": 0.0, "is_disabled": 0, "rental_uris": {"ios": "https://dc.lft.to/lastmile_qr_scan", "android": "https://dc.lft.to/lastmile_qr_scan"}, "bike_id": "db94e49fde5ffa32153a661cca94c51c", "lat": 38.901283666666664, "name": "db94e49fde5ffa32153a661cca94c51c", "lon": -77.0036615, "fusion_lon": 0.0}, {"is_reserved": 0, "type": "electric_scooter", "fusion_lat": 0.0, "is_disabled": 0, "rental_uris": {"ios": "https://dc.lft.to/lastmile_qr_scan", "android": "https://dc.lft.to/lastmile_qr_scan"}, "bike_id": "d8063b7151deaf5adccab368c0c2138e", "lat": 38.896059666666666, "name": "d8063b7151deaf5adccab368c0c2138e", "lon": -77.02753016666666, "fusion_lon": 0.0}, {"is_reserved": 0, "type": "electric_scooter", "fusion_lat": 0.0, "is_disabled": 0, "rental_uris": {"ios": "https://dc.lft.to/lastmile_qr_scan", "android": "https://dc.lft.to/lastmile_qr_scan"}, "bike_id": "feacf383eccc1259224e52ee5cc96de8", "lat": 38.892808, "name": "feacf383eccc1259224e52ee5cc96de8", "lon": -77.04503333333334, "fusion_lon": 0.0}, {"is_reserved": 0, "type": "electric_scooter", "fusion_lat": 0.0, "is_disabled": 0, "rental_uris": {"ios": "https://dc.lft.to/lastmile_qr_scan", "android": "https://dc.lft.to/lastmile_qr_scan"}, "bike_id": "a264f11f867f11dda5e1fb6b60939bc6", "lat": 38.920401, "name": "a264f11f867f11dda5e1fb6b60939bc6", "lon": -77.025918, "fusion_lon": 0.0}, {"is_reserved": 0, "type": "electric_scooter", "fusion_lat": 0.0, "is_disabled": 0, "rental_uris": {"ios": "https://dc.lft.to/lastmile_qr_scan", "android": "https://dc.lft.to/lastmile_qr_scan"}, "bike_id": "9eb1e20950521c2be2c61a00174fd9e1", "lat": 38.92335116666667, "name": "9eb1e20950521c2be2c61a00174fd9e1", "lon": -77.0350555, "fusion_lon": 0.0}, {"is_reserved": 0, "type": "electric_bike", "fusion_lat": 0.0, "is_disabled": 0, "rental_uris": {"ios": "https://dc.lft.to/lastmile_qr_scan", "android": "https://dc.lft.to/lastmile_qr_scan"}, "bike_id": "fa9f504e3ac8100e42d4d4501778238a", "lat": 38.8358775, "name": "fa9f504e3ac8100e42d4d4501778238a", "lon": -76.9902315, "fusion_lon": 0.0}, {"is_reserved": 0, "type": "electric_scooter", "fusion_lat": 0.0, "is_disabled": 0, "rental_uris": {"ios": "https://dc.lft.to/lastmile_qr_scan", "android": "https://dc.lft.to/lastmile_qr_scan"}, "bike_id": "8ab550f5b9a68c81397e15ee9bf34a0c", "lat": 38.87178516666667, "name": "8ab550f5b9a68c81397e15ee9bf34a0c", "lon": -77.00616483333333, "fusion_lon": 0.0}, {"is_reserved": 0, "type": "electric_scooter", "fusion_lat": 0.0, "is_disabled": 0, "rental_uris": {"ios": "https://dc.lft.to/lastmile_qr_scan", "android": "https://dc.lft.to/lastmile_qr_scan"}, "bike_id": "5605704130ece4a02114e945ce82fe20", "lat": 38.92712183333333, "name": "5605704130ece4a02114e945ce82fe20", "lon": -77.02093, "fusion_lon": 0.0}, {"is_reserved": 0, "type": "electric_bike", "fusion_lat": 0.0, "is_disabled": 0, "rental_uris": {"ios": "https://dc.lft.to/lastmile_qr_scan", "android": "https://dc.lft.to/lastmile_qr_scan"}, "bike_id": "1ea3dc9a08317e9060ddc3125c8b82ea", "lat": 38.82208966666666, "name": "1ea3dc9a08317e9060ddc3125c8b82ea", "lon": -76.97706233333334, "fusion_lon": 0.0}, {"is_reserved": 0, "type": "electric_scooter", "fusion_lat": 0.0, "is_disabled": 0, "rental_uris": {"ios": "https://dc.lft.to/lastmile_qr_scan", "android": "https://dc.lft.to/lastmile_qr_scan"}, "bike_id": "626218767d278b8146a9adc5f22a0ee9", "lat": 38.912479, "name": "626218767d278b8146a9adc5f22a0ee9", "lon": -77.03211366666666, "fusion_lon": 0.0}, {"is_reserved": 0, "type": "electric_scooter", "fusion_lat": 0.0, "is_disabled": 0, "rental_uris": {"ios": "https://dc.lft.to/lastmile_qr_scan", "android": "https://dc.lft.to/lastmile_qr_scan"}, "bike_id": "3e19352b2e5728485556073fd4aea5b5", "lat": 38.914079, "name": "3e19352b2e5728485556073fd4aea5b5", "lon": -77.0321865, "fusion_lon": 0.0}, {"is_reserved": 0, "type": "electric_scooter", "fusion_lat": 0.0, "is_disabled": 0, "rental_uris": {"ios": "https://dc.lft.to/lastmile_qr_scan", "android": "https://dc.lft.to/lastmile_qr_scan"}, "bike_id": "f5174331d6f23e7c3e4e80b2ab74ca84", "lat": 38.902339833333336, "name": "f5174331d6f23e7c3e4e80b2ab74ca84", "lon": -77.01972633333334, "fusion_lon": 0.0}, {"is_reserved": 0, "type": "electric_scooter", "fusion_lat": 0.0, "is_disabled": 0, "rental_uris": {"ios": "https://dc.lft.to/lastmile_qr_scan", "android": "https://dc.lft.to/lastmile_qr_scan"}, "bike_id": "5f42bfb9e74bba20d94ec4309ab6d570", "lat": 38.908655333333336, "name": "5f42bfb9e74bba20d94ec4309ab6d570", "lon": -77.047822, "fusion_lon": 0.0}, {"is_reserved": 0, "type": "electric_scooter", "fusion_lat": 0.0, "is_disabled": 0, "rental_uris": {"ios": "https://dc.lft.to/lastmile_qr_scan", "android": "https://dc.lft.to/lastmile_qr_scan"}, "bike_id": "3034bef682557ce9bb69a01e28d837bc", "lat": 38.9153945, "name": "3034bef682557ce9bb69a01e28d837bc", "lon": -77.01274633333334, "fusion_lon": 0.0}, {"is_reserved": 0, "type": "electric_scooter", "fusion_lat": 0.0, "is_disabled": 0, "rental_uris": {"ios": "https://dc.lft.to/lastmile_qr_scan", "android": "https://dc.lft.to/lastmile_qr_scan"}, "bike_id": "f99eec0e978103c76f3a18eeb5dac60b", "lat": 38.90960066666667, "name": "f99eec0e978103c76f3a18eeb5dac60b", "lon": -77.022866, "fusion_lon": 0.0}, {"is_reserved": 0, "type": "electric_scooter", "fusion_lat": 0.0, "is_disabled": 0, "rental_uris": {"ios": "https://dc.lft.to/lastmile_qr_scan", "android": "https://dc.lft.to/lastmile_qr_scan"}, "bike_id": "bdd342de2faadc5fd81bd7cd8c01f79d", "lat": 38.907770666666664, "name": "bdd342de2faadc5fd81bd7cd8c01f79d", "lon": -77.07168133333333, "fusion_lon": 0.0}, {"is_reserved": 0, "type": "electric_scooter", "fusion_lat": 0.0, "is_disabled": 0, "rental_uris": {"ios": "https://dc.lft.to/lastmile_qr_scan", "android": "https://dc.lft.to/lastmile_qr_scan"}, "bike_id": "bf92d2876414aae4e78c890b9ef5e3b6", "lat": 38.916946833333334, "name": "bf92d2876414aae4e78c890b9ef5e3b6", "lon": -77.05299583333333, "fusion_lon": 0.0}, {"is_reserved": 0, "type": "electric_scooter", "fusion_lat": 0.0, "is_disabled": 0, "rental_uris": {"ios": "https://dc.lft.to/lastmile_qr_scan", "android": "https://dc.lft.to/lastmile_qr_scan"}, "bike_id": "878913ac1c0e3c1d4346e1d3a5d5a896", "lat": 38.892489166666664, "name": "878913ac1c0e3c1d4346e1d3a5d5a896", "lon": -77.04662533333334, "fusion_lon": 0.0}, {"is_reserved": 0, "type": "electric_scooter", "fusion_lat": 0.0, "is_disabled": 0, "rental_uris": {"ios": "https://dc.lft.to/lastmile_qr_scan", "android": "https://dc.lft.to/lastmile_qr_scan"}, "bike_id": "afbd1484df33ecc9af4968ca7e7316db", "lat": 38.899089833333335, "name": "afbd1484df33ecc9af4968ca7e7316db", "lon": -77.02309383333333, "fusion_lon": 0.0}, {"is_reserved": 0, "type": "electric_scooter", "fusion_lat": 0.0, "is_disabled": 0, "rental_uris": {"ios": "https://dc.lft.to/lastmile_qr_scan", "android": "https://dc.lft.to/lastmile_qr_scan"}, "bike_id": "e5b8d8621d9f0685d4ed16ecf8505749", "lat": 38.953563333333335, "name": "e5b8d8621d9f0685d4ed16ecf8505749", "lon": -76.99846466666666, "fusion_lon": 0.0}, {"is_reserved": 0, "type": "electric_scooter", "fusion_lat": 0.0, "is_disabled": 0, "rental_uris": {"ios": "https://dc.lft.to/lastmile_qr_scan", "android": "https://dc.lft.to/lastmile_qr_scan"}, "bike_id": "382384f73e564aca8807239565c0151b", "lat": 38.924663833333334, "name": "382384f73e564aca8807239565c0151b", "lon": -77.037862, "fusion_lon": 0.0}, {"is_reserved": 0, "type": "electric_scooter", "fusion_lat": 0.0, "is_disabled": 0, "rental_uris": {"ios": "https://dc.lft.to/lastmile_qr_scan", "android": "https://dc.lft.to/lastmile_qr_scan"}, "bike_id": "ffa01c0d3d9628611a1344a1f074ff9c", "lat": 38.91708416666667, "name": "ffa01c0d3d9628611a1344a1f074ff9c", "lon": -77.0385365, "fusion_lon": 0.0}, {"is_reserved": 0, "type": "electric_scooter", "fusion_lat": 0.0, "is_disabled": 0, "rental_uris": {"ios": "https://dc.lft.to/lastmile_qr_scan", "android": "https://dc.lft.to/lastmile_qr_scan"}, "bike_id": "dbf020315baff43c887d7b289f0d10bd", "lat": 38.920680833333336, "name": "dbf020315baff43c887d7b289f0d10bd", "lon": -77.02421133333333, "fusion_lon": 0.0}, {"is_reserved": 0, "type": "electric_scooter", "fusion_lat": 0.0, "is_disabled": 0, "rental_uris": {"ios": "https://dc.lft.to/lastmile_qr_scan", "android": "https://dc.lft.to/lastmile_qr_scan"}, "bike_id": "ff0bbec6b82933bd8ace5f02c669a6b6", "lat": 38.9369865, "name": "ff0bbec6b82933bd8ace5f02c669a6b6", "lon": -77.05600533333333, "fusion_lon": 0.0}, {"is_reserved": 0, "type": "electric_scooter", "fusion_lat": 0.0, "is_disabled": 0, "rental_uris": {"ios": "https://dc.lft.to/lastmile_qr_scan", "android": "https://dc.lft.to/lastmile_qr_scan"}, "bike_id": "8a06d1f237e86657140c0673450cf07d", "lat": 38.9125745, "name": "8a06d1f237e86657140c0673450cf07d", "lon": -77.01026333333333, "fusion_lon": 0.0}, {"is_reserved": 0, "type": "electric_scooter", "fusion_lat": 0.0, "is_disabled": 0, "rental_uris": {"ios": "https://dc.lft.to/lastmile_qr_scan", "android": "https://dc.lft.to/lastmile_qr_scan"}, "bike_id": "74575b2480fbc4de552dc03fb6fcc7b7", "lat": 38.885811833333335, "name": "74575b2480fbc4de552dc03fb6fcc7b7", "lon": -77.01225483333333, "fusion_lon": 0.0}, {"is_reserved": 0, "type": "electric_scooter", "fusion_lat": 0.0, "is_disabled": 0, "rental_uris": {"ios": "https://dc.lft.to/lastmile_qr_scan", "android": "https://dc.lft.to/lastmile_qr_scan"}, "bike_id": "9b165e25c81728ea19c97998d74d477a", "lat": 38.95255383333333, "name": "9b165e25c81728ea19c97998d74d477a", "lon": -77.0207485, "fusion_lon": 0.0}, {"is_reserved": 0, "type": "electric_scooter", "fusion_lat": 0.0, "is_disabled": 0, "rental_uris": {"ios": "https://dc.lft.to/lastmile_qr_scan", "android": "https://dc.lft.to/lastmile_qr_scan"}, "bike_id": "3f167b3105fdf04215b647c2e23eb5cc", "lat": 38.893285, "name": "3f167b3105fdf04215b647c2e23eb5cc", "lon": -76.93930216666666, "fusion_lon": 0.0}, {"is_reserved": 0, "type": "electric_bike", "fusion_lat": 0.0, "is_disabled": 0, "rental_uris": {"ios": "https://dc.lft.to/lastmile_qr_scan", "android": "https://dc.lft.to/lastmile_qr_scan"}, "bike_id": "2e4399a3b996f236f9b3df1e57b7b574", "lat": 38.84469716666667, "name": "2e4399a3b996f236f9b3df1e57b7b574", "lon": -76.9959725, "fusion_lon": 0.0}, {"is_reserved": 0, "type": "electric_scooter", "fusion_lat": 0.0, "is_disabled": 0, "rental_uris": {"ios": "https://dc.lft.to/lastmile_qr_scan", "android": "https://dc.lft.to/lastmile_qr_scan"}, "bike_id": "3f458b0b199524e6314fee644a8fb4c9", "lat": 38.90236016666667, "name": "3f458b0b199524e6314fee644a8fb4c9", "lon": -76.99509516666667, "fusion_lon": 0.0}, {"is_reserved": 0, "type": "electric_scooter", "fusion_lat": 0.0, "is_disabled": 0, "rental_uris": {"ios": "https://dc.lft.to/lastmile_qr_scan", "android": "https://dc.lft.to/lastmile_qr_scan"}, "bike_id": "8d36de1fa9d37b8813604985292af9cb", "lat": 38.905442, "name": "8d36de1fa9d37b8813604985292af9cb", "lon": -77.056928, "fusion_lon": 0.0}, {"is_reserved": 0, "type": "electric_scooter", "fusion_lat": 0.0, "is_disabled": 0, "rental_uris": {"ios": "https://dc.lft.to/lastmile_qr_scan", "android": "https://dc.lft.to/lastmile_qr_scan"}, "bike_id": "3610a119341c50b179294dad26b4e526", "lat": 38.91117716666667, "name": "3610a119341c50b179294dad26b4e526", "lon": -77.04351, "fusion_lon": 0.0}, {"is_reserved": 0, "type": "electric_bike", "fusion_lat": 0.0, "is_disabled": 0, "rental_uris": {"ios": "https://dc.lft.to/lastmile_qr_scan", "android": "https://dc.lft.to/lastmile_qr_scan"}, "bike_id": "1919f0f4a0f5c823657521dcd18fc4ac", "lat": 38.89833866666667, "name": "1919f0f4a0f5c823657521dcd18fc4ac", "lon": -76.94276316666667, "fusion_lon": 0.0}, {"is_reserved": 0, "type": "electric_bike", "fusion_lat": 0.0, "is_disabled": 0, "rental_uris": {"ios": "https://dc.lft.to/lastmile_qr_scan", "android": "https://dc.lft.to/lastmile_qr_scan"}, "bike_id": "944561cb289c47774c650f7b41847868", "lat": 38.88122416666667, "name": "944561cb289c47774c650f7b41847868", "lon": -77.01690416666666, "fusion_lon": 0.0}, {"is_reserved": 0, "type": "electric_scooter", "fusion_lat": 0.0, "is_disabled": 0, "rental_uris": {"ios": "https://dc.lft.to/lastmile_qr_scan", "android": "https://dc.lft.to/lastmile_qr_scan"}, "bike_id": "737280d4ebb80a8d6c50b64ae998f004", "lat": 38.93869866666667, "name": "737280d4ebb80a8d6c50b64ae998f004", "lon": -77.02924433333334, "fusion_lon": 0.0}, {"is_reserved": 0, "type": "electric_scooter", "fusion_lat": 0.0, "is_disabled": 0, "rental_uris": {"ios": "https://dc.lft.to/lastmile_qr_scan", "android": "https://dc.lft.to/lastmile_qr_scan"}, "bike_id": "c9c056b922cabcc713dcfc89ede9fc9d", "lat": 38.876925166666666, "name": "c9c056b922cabcc713dcfc89ede9fc9d", "lon": -76.99615683333333, "fusion_lon": 0.0}, {"is_reserved": 0, "type": "electric_scooter", "fusion_lat": 0.0, "is_disabled": 0, "rental_uris": {"ios": "https://dc.lft.to/lastmile_qr_scan", "android": "https://dc.lft.to/lastmile_qr_scan"}, "bike_id": "c8f09441e884977a70fb3b9cb2de223e", "lat": 38.92205083333333, "name": "c8f09441e884977a70fb3b9cb2de223e", "lon": -77.03893983333333, "fusion_lon": 0.0}, {"is_reserved": 0, "type": "electric_scooter", "fusion_lat": 0.0, "is_disabled": 0, "rental_uris": {"ios": "https://dc.lft.to/lastmile_qr_scan", "android": "https://dc.lft.to/lastmile_qr_scan"}, "bike_id": "2c9aeb865f3e37ec37774902eab83a02", "lat": 38.919228, "name": "2c9aeb865f3e37ec37774902eab83a02", "lon": -77.0449925, "fusion_lon": 0.0}, {"is_reserved": 0, "type": "electric_scooter", "fusion_lat": 0.0, "is_disabled": 0, "rental_uris": {"ios": "https://dc.lft.to/lastmile_qr_scan", "android": "https://dc.lft.to/lastmile_qr_scan"}, "bike_id": "8786477651781e8ea5077962f1579b21", "lat": 38.90188166666667, "name": "8786477651781e8ea5077962f1579b21", "lon": -76.99957816666667, "fusion_lon": 0.0}, {"is_reserved": 0, "type": "electric_scooter", "fusion_lat": 0.0, "is_disabled": 0, "rental_uris": {"ios": "https://dc.lft.to/lastmile_qr_scan", "android": "https://dc.lft.to/lastmile_qr_scan"}, "bike_id": "e2e10541eb87ca151280cc3bf3418a20", "lat": 38.893599333333334, "name": "e2e10541eb87ca151280cc3bf3418a20", "lon": -76.94109483333334, "fusion_lon": 0.0}, {"is_reserved": 0, "type": "electric_scooter", "fusion_lat": 0.0, "is_disabled": 0, "rental_uris": {"ios": "https://dc.lft.to/lastmile_qr_scan", "android": "https://dc.lft.to/lastmile_qr_scan"}, "bike_id": "5dcd0170b7463ee1f50252591e46a350", "lat": 38.897322333333335, "name": "5dcd0170b7463ee1f50252591e46a350", "lon": -76.99139883333334, "fusion_lon": 0.0}, {"is_reserved": 0, "type": "electric_bike", "fusion_lat": 0.0, "is_disabled": 0, "rental_uris": {"ios": "https://dc.lft.to/lastmile_qr_scan", "android": "https://dc.lft.to/lastmile_qr_scan"}, "bike_id": "3d06aaf85282bd07c281a2db09140ad6", "lat": 38.91533, "name": "3d06aaf85282bd07c281a2db09140ad6", "lon": -77.0665815, "fusion_lon": 0.0}, {"is_reserved": 0, "type": "electric_bike", "fusion_lat": 0.0, "is_disabled": 0, "rental_uris": {"ios": "https://dc.lft.to/lastmile_qr_scan", "android": "https://dc.lft.to/lastmile_qr_scan"}, "bike_id": "1fe052d483acc47c9a7bafe4f2761894", "lat": 39.000038, "name": "1fe052d483acc47c9a7bafe4f2761894", "lon": -76.91803016666667, "fusion_lon": 0.0}, {"is_reserved": 0, "type": "electric_scooter", "fusion_lat": 0.0, "is_disabled": 0, "rental_uris": {"ios": "https://dc.lft.to/lastmile_qr_scan", "android": "https://dc.lft.to/lastmile_qr_scan"}, "bike_id": "35a8072edbd034c7d99d0640e0a2a50f", "lat": 38.921755833333336, "name": "35a8072edbd034c7d99d0640e0a2a50f", "lon": -77.04357083333333, "fusion_lon": 0.0}, {"is_reserved": 0, "type": "electric_scooter", "fusion_lat": 0.0, "is_disabled": 0, "rental_uris": {"ios": "https://dc.lft.to/lastmile_qr_scan", "android": "https://dc.lft.to/lastmile_qr_scan"}, "bike_id": "5e1e3e3213f27badafe7a5c4d50b7e31", "lat": 38.88715166666667, "name": "5e1e3e3213f27badafe7a5c4d50b7e31", "lon": -77.02199816666666, "fusion_lon": 0.0}, {"is_reserved": 0, "type": "electric_scooter", "fusion_lat": 0.0, "is_disabled": 0, "rental_uris": {"ios": "https://dc.lft.to/lastmile_qr_scan", "android": "https://dc.lft.to/lastmile_qr_scan"}, "bike_id": "d1908686334a2c968bc3d8fbd888ff4c", "lat": 38.92257216666667, "name": "d1908686334a2c968bc3d8fbd888ff4c", "lon": -77.03686, "fusion_lon": 0.0}, {"is_reserved": 0, "type": "electric_scooter", "fusion_lat": 0.0, "is_disabled": 0, "rental_uris": {"ios": "https://dc.lft.to/lastmile_qr_scan", "android": "https://dc.lft.to/lastmile_qr_scan"}, "bike_id": "909fe505ef0715bff6a1325b3f364100", "lat": 38.892307333333335, "name": "909fe505ef0715bff6a1325b3f364100", "lon": -77.049996, "fusion_lon": 0.0}, {"is_reserved": 0, "type": "electric_scooter", "fusion_lat": 0.0, "is_disabled": 0, "rental_uris": {"ios": "https://dc.lft.to/lastmile_qr_scan", "android": "https://dc.lft.to/lastmile_qr_scan"}, "bike_id": "0f6f86f379392c116139e423d946891d", "lat": 38.9060745, "name": "0f6f86f379392c116139e423d946891d", "lon": -77.05838683333333, "fusion_lon": 0.0}, {"is_reserved": 0, "type": "electric_scooter", "fusion_lat": 0.0, "is_disabled": 0, "rental_uris": {"ios": "https://dc.lft.to/lastmile_qr_scan", "android": "https://dc.lft.to/lastmile_qr_scan"}, "bike_id": "7fce9ed57616ce473a3154caa45a6787", "lat": 38.901877666666664, "name": "7fce9ed57616ce473a3154caa45a6787", "lon": -76.98841366666667, "fusion_lon": 0.0}, {"is_reserved": 0, "type": "electric_scooter", "fusion_lat": 0.0, "is_disabled": 0, "rental_uris": {"ios": "https://dc.lft.to/lastmile_qr_scan", "android": "https://dc.lft.to/lastmile_qr_scan"}, "bike_id": "326075033a44d8ad27fdec8a2ded0928", "lat": 38.91693933333333, "name": "326075033a44d8ad27fdec8a2ded0928", "lon": -77.02722316666667, "fusion_lon": 0.0}, {"is_reserved": 0, "type": "electric_scooter", "fusion_lat": 0.0, "is_disabled": 0, "rental_uris": {"ios": "https://dc.lft.to/lastmile_qr_scan", "android": "https://dc.lft.to/lastmile_qr_scan"}, "bike_id": "5ae8846641ad0dddd3ce7f3bca34d5d5", "lat": 38.9273585, "name": "5ae8846641ad0dddd3ce7f3bca34d5d5", "lon": -77.05254683333334, "fusion_lon": 0.0}, {"is_reserved": 0, "type": "electric_bike", "fusion_lat": 0.0, "is_disabled": 0, "rental_uris": {"ios": "https://dc.lft.to/lastmile_qr_scan", "android": "https://dc.lft.to/lastmile_qr_scan"}, "bike_id": "fa387066f609fc4dbb6f56fcefcc78f3", "lat": 38.80737116666667, "name": "fa387066f609fc4dbb6f56fcefcc78f3", "lon": -77.0968765, "fusion_lon": 0.0}, {"is_reserved": 0, "type": "electric_scooter", "fusion_lat": 0.0, "is_disabled": 0, "rental_uris": {"ios": "https://dc.lft.to/lastmile_qr_scan", "android": "https://dc.lft.to/lastmile_qr_scan"}, "bike_id": "0b7b218514cc7fcda5630ff2c11e23ce", "lat": 38.9013945, "name": "0b7b218514cc7fcda5630ff2c11e23ce", "lon": -77.04164766666666, "fusion_lon": 0.0}, {"is_reserved": 0, "type": "electric_bike", "fusion_lat": 0.0, "is_disabled": 0, "rental_uris": {"ios": "https://dc.lft.to/lastmile_qr_scan", "android": "https://dc.lft.to/lastmile_qr_scan"}, "bike_id": "dad90071213eb59b4937825133c750f2", "lat": 38.87173933333333, "name": "dad90071213eb59b4937825133c750f2", "lon": -77.23392183333333, "fusion_lon": 0.0}, {"is_reserved": 0, "type": "electric_scooter", "fusion_lat": 0.0, "is_disabled": 0, "rental_uris": {"ios": "https://dc.lft.to/lastmile_qr_scan", "android": "https://dc.lft.to/lastmile_qr_scan"}, "bike_id": "cef756ba1f06ea1a03ad13ab709f2d28", "lat": 38.9140095, "name": "cef756ba1f06ea1a03ad13ab709f2d28", "lon": -77.02422283333334, "fusion_lon": 0.0}, {"is_reserved": 0, "type": "electric_scooter", "fusion_lat": 0.0, "is_disabled": 0, "rental_uris": {"ios": "https://dc.lft.to/lastmile_qr_scan", "android": "https://dc.lft.to/lastmile_qr_scan"}, "bike_id": "01b78b551b30c424e5bd48462e6a548a", "lat": 38.860812333333335, "name": "01b78b551b30c424e5bd48462e6a548a", "lon": -76.98376916666666, "fusion_lon": 0.0}, {"is_reserved": 0, "type": "electric_scooter", "fusion_lat": 0.0, "is_disabled": 0, "rental_uris": {"ios": "https://dc.lft.to/lastmile_qr_scan", "android": "https://dc.lft.to/lastmile_qr_scan"}, "bike_id": "7b94609f23c5ee6c2d80b9251a13ca86", "lat": 38.9168895, "name": "7b94609f23c5ee6c2d80b9251a13ca86", "lon": -77.041073, "fusion_lon": 0.0}, {"is_reserved": 0, "type": "electric_bike", "fusion_lat": 0.0, "is_disabled": 0, "rental_uris": {"ios": "https://dc.lft.to/lastmile_qr_scan", "android": "https://dc.lft.to/lastmile_qr_scan"}, "bike_id": "96c1b0ece510893f8b8ff40c41525b53", "lat": 38.850556833333336, "name": "96c1b0ece510893f8b8ff40c41525b53", "lon": -76.95825866666667, "fusion_lon": 0.0}, {"is_reserved": 0, "type": "electric_scooter", "fusion_lat": 0.0, "is_disabled": 0, "rental_uris": {"ios": "https://dc.lft.to/lastmile_qr_scan", "android": "https://dc.lft.to/lastmile_qr_scan"}, "bike_id": "42cc2e3c6ece754326066e1eec34efa1", "lat": 38.91922133333333, "name": "42cc2e3c6ece754326066e1eec34efa1", "lon": -77.03111133333333, "fusion_lon": 0.0}, {"is_reserved": 0, "type": "electric_scooter", "fusion_lat": 0.0, "is_disabled": 0, "rental_uris": {"ios": "https://dc.lft.to/lastmile_qr_scan", "android": "https://dc.lft.to/lastmile_qr_scan"}, "bike_id": "270527688fe6330863cb471cb64ca3ee", "lat": 38.902292833333334, "name": "270527688fe6330863cb471cb64ca3ee", "lon": -76.99364166666666, "fusion_lon": 0.0}, {"is_reserved": 0, "type": "electric_scooter", "fusion_lat": 0.0, "is_disabled": 0, "rental_uris": {"ios": "https://dc.lft.to/lastmile_qr_scan", "android": "https://dc.lft.to/lastmile_qr_scan"}, "bike_id": "d6498cd152aec5e071d1a97b1b756ea2", "lat": 38.908219833333334, "name": "d6498cd152aec5e071d1a97b1b756ea2", "lon": -77.0436765, "fusion_lon": 0.0}, {"is_reserved": 0, "type": "electric_scooter", "fusion_lat": 0.0, "is_disabled": 0, "rental_uris": {"ios": "https://dc.lft.to/lastmile_qr_scan", "android": "https://dc.lft.to/lastmile_qr_scan"}, "bike_id": "64c88f2e51c3a111da28e17675087f8a", "lat": 38.93260716666666, "name": "64c88f2e51c3a111da28e17675087f8a", "lon": -77.0328325, "fusion_lon": 0.0}, {"is_reserved": 0, "type": "electric_scooter", "fusion_lat": 0.0, "is_disabled": 0, "rental_uris": {"ios": "https://dc.lft.to/lastmile_qr_scan", "android": "https://dc.lft.to/lastmile_qr_scan"}, "bike_id": "34489c674a3a6e31250d372567b9946d", "lat": 38.88575266666667, "name": "34489c674a3a6e31250d372567b9946d", "lon": -77.01210633333334, "fusion_lon": 0.0}, {"is_reserved": 0, "type": "electric_scooter", "fusion_lat": 0.0, "is_disabled": 0, "rental_uris": {"ios": "https://dc.lft.to/lastmile_qr_scan", "android": "https://dc.lft.to/lastmile_qr_scan"}, "bike_id": "a1b9bc938ada5a7c8176ac09a9c70a69", "lat": 38.908779833333334, "name": "a1b9bc938ada5a7c8176ac09a9c70a69", "lon": -77.000618, "fusion_lon": 0.0}, {"is_reserved": 0, "type": "electric_scooter", "fusion_lat": 0.0, "is_disabled": 0, "rental_uris": {"ios": "https://dc.lft.to/lastmile_qr_scan", "android": "https://dc.lft.to/lastmile_qr_scan"}, "bike_id": "5279dd45bd4e12b2d6c4c009def9fa43", "lat": 38.90946133333333, "name": "5279dd45bd4e12b2d6c4c009def9fa43", "lon": -76.99585033333334, "fusion_lon": 0.0}, {"is_reserved": 0, "type": "electric_scooter", "fusion_lat": 0.0, "is_disabled": 0, "rental_uris": {"ios": "https://dc.lft.to/lastmile_qr_scan", "android": "https://dc.lft.to/lastmile_qr_scan"}, "bike_id": "ec18cdbc7f6afa1bcdea7360dd817df3", "lat": 38.91692416666667, "name": "ec18cdbc7f6afa1bcdea7360dd817df3", "lon": -77.02599533333333, "fusion_lon": 0.0}, {"is_reserved": 0, "type": "electric_scooter", "fusion_lat": 0.0, "is_disabled": 0, "rental_uris": {"ios": "https://dc.lft.to/lastmile_qr_scan", "android": "https://dc.lft.to/lastmile_qr_scan"}, "bike_id": "a5a0ff7472937c550e5ecf0fc390b4ae", "lat": 38.90438666666667, "name": "a5a0ff7472937c550e5ecf0fc390b4ae", "lon": -76.99732383333334, "fusion_lon": 0.0}, {"is_reserved": 0, "type": "electric_scooter", "fusion_lat": 0.0, "is_disabled": 0, "rental_uris": {"ios": "https://dc.lft.to/lastmile_qr_scan", "android": "https://dc.lft.to/lastmile_qr_scan"}, "bike_id": "d67bdf0d6ff10f71e52e88fc7d36cd35", "lat": 38.910142, "name": "d67bdf0d6ff10f71e52e88fc7d36cd35", "lon": -77.03183666666666, "fusion_lon": 0.0}, {"is_reserved": 0, "type": "electric_scooter", "fusion_lat": 0.0, "is_disabled": 0, "rental_uris": {"ios": "https://dc.lft.to/lastmile_qr_scan", "android": "https://dc.lft.to/lastmile_qr_scan"}, "bike_id": "7c98274d0cd9f82dc02d9edeab3989eb", "lat": 38.89668866666667, "name": "7c98274d0cd9f82dc02d9edeab3989eb", "lon": -76.93209633333333, "fusion_lon": 0.0}, {"is_reserved": 0, "type": "electric_scooter", "fusion_lat": 0.0, "is_disabled": 0, "rental_uris": {"ios": "https://dc.lft.to/lastmile_qr_scan", "android": "https://dc.lft.to/lastmile_qr_scan"}, "bike_id": "68d1038bb201f993b059e657279265b4", "lat": 38.92640266666667, "name": "68d1038bb201f993b059e657279265b4", "lon": -77.0383775, "fusion_lon": 0.0}, {"is_reserved": 0, "type": "electric_bike", "fusion_lat": 0.0, "is_disabled": 0, "rental_uris": {"ios": "https://dc.lft.to/lastmile_qr_scan", "android": "https://dc.lft.to/lastmile_qr_scan"}, "bike_id": "f8ad8ba4c8820efab31c3c0ce1adf4ba", "lat": 38.868186, "name": "f8ad8ba4c8820efab31c3c0ce1adf4ba", "lon": -76.98018683333333, "fusion_lon": 0.0}, {"is_reserved": 0, "type": "electric_scooter", "fusion_lat": 0.0, "is_disabled": 0, "rental_uris": {"ios": "https://dc.lft.to/lastmile_qr_scan", "android": "https://dc.lft.to/lastmile_qr_scan"}, "bike_id": "1ba6bcfdf37ee0e7a0f9dd7aac9700b2", "lat": 38.921192833333336, "name": "1ba6bcfdf37ee0e7a0f9dd7aac9700b2", "lon": -77.01212916666667, "fusion_lon": 0.0}, {"is_reserved": 0, "type": "electric_scooter", "fusion_lat": 0.0, "is_disabled": 0, "rental_uris": {"ios": "https://dc.lft.to/lastmile_qr_scan", "android": "https://dc.lft.to/lastmile_qr_scan"}, "bike_id": "339a80cdd6942fbbfc4ffad171bad089", "lat": 38.94301166666666, "name": "339a80cdd6942fbbfc4ffad171bad089", "lon": -77.02532083333334, "fusion_lon": 0.0}, {"is_reserved": 0, "type": "electric_scooter", "fusion_lat": 0.0, "is_disabled": 0, "rental_uris": {"ios": "https://dc.lft.to/lastmile_qr_scan", "android": "https://dc.lft.to/lastmile_qr_scan"}, "bike_id": "deee6f13c594514520ff53c59746df21", "lat": 38.92335466666667, "name": "deee6f13c594514520ff53c59746df21", "lon": -76.98480916666666, "fusion_lon": 0.0}, {"is_reserved": 0, "type": "electric_scooter", "fusion_lat": 0.0, "is_disabled": 0, "rental_uris": {"ios": "https://dc.lft.to/lastmile_qr_scan", "android": "https://dc.lft.to/lastmile_qr_scan"}, "bike_id": "6e5b984328cea3a98fe6ad6b924e1ad3", "lat": 38.88025616666667, "name": "6e5b984328cea3a98fe6ad6b924e1ad3", "lon": -77.02471433333334, "fusion_lon": 0.0}, {"is_reserved": 0, "type": "electric_scooter", "fusion_lat": 0.0, "is_disabled": 0, "rental_uris": {"ios": "https://dc.lft.to/lastmile_qr_scan", "android": "https://dc.lft.to/lastmile_qr_scan"}, "bike_id": "e02f5efd32b8e8b24b991a942199f7c0", "lat": 38.9166685, "name": "e02f5efd32b8e8b24b991a942199f7c0", "lon": -77.02689016666666, "fusion_lon": 0.0}, {"is_reserved": 0, "type": "electric_scooter", "fusion_lat": 0.0, "is_disabled": 0, "rental_uris": {"ios": "https://dc.lft.to/lastmile_qr_scan", "android": "https://dc.lft.to/lastmile_qr_scan"}, "bike_id": "9871f295ce146e93062992960690e075", "lat": 38.93177683333333, "name": "9871f295ce146e93062992960690e075", "lon": -77.02349716666667, "fusion_lon": 0.0}, {"is_reserved": 0, "type": "electric_bike", "fusion_lat": 0.0, "is_disabled": 0, "rental_uris": {"ios": "https://dc.lft.to/lastmile_qr_scan", "android": "https://dc.lft.to/lastmile_qr_scan"}, "bike_id": "18c08ecc20812dcdc555f5216ec6a2db", "lat": 38.94099033333333, "name": "18c08ecc20812dcdc555f5216ec6a2db", "lon": -76.95626583333333, "fusion_lon": 0.0}, {"is_reserved": 0, "type": "electric_scooter", "fusion_lat": 0.0, "is_disabled": 0, "rental_uris": {"ios": "https://dc.lft.to/lastmile_qr_scan", "android": "https://dc.lft.to/lastmile_qr_scan"}, "bike_id": "4688ee57ff51bd4121e527d5a800d599", "lat": 38.90076666666667, "name": "4688ee57ff51bd4121e527d5a800d599", "lon": -77.0502565, "fusion_lon": 0.0}, {"is_reserved": 0, "type": "electric_bike", "fusion_lat": 0.0, "is_disabled": 0, "rental_uris": {"ios": "https://dc.lft.to/lastmile_qr_scan", "android": "https://dc.lft.to/lastmile_qr_scan"}, "bike_id": "ad7ffa02067ee18eb6e9a301e360adaf", "lat": 38.88655033333333, "name": "ad7ffa02067ee18eb6e9a301e360adaf", "lon": -77.1624065, "fusion_lon": 0.0}, {"is_reserved": 0, "type": "electric_scooter", "fusion_lat": 0.0, "is_disabled": 0, "rental_uris": {"ios": "https://dc.lft.to/lastmile_qr_scan", "android": "https://dc.lft.to/lastmile_qr_scan"}, "bike_id": "20e7904ca0cc5392fb7b8cf65251e644", "lat": 38.8848595, "name": "20e7904ca0cc5392fb7b8cf65251e644", "lon": -77.02328016666667, "fusion_lon": 0.0}, {"is_reserved": 0, "type": "electric_scooter", "fusion_lat": 0.0, "is_disabled": 0, "rental_uris": {"ios": "https://dc.lft.to/lastmile_qr_scan", "android": "https://dc.lft.to/lastmile_qr_scan"}, "bike_id": "72981e57cf3f8533d8f24b0df58958cc", "lat": 38.96760483333333, "name": "72981e57cf3f8533d8f24b0df58958cc", "lon": -77.034221, "fusion_lon": 0.0}, {"is_reserved": 0, "type": "electric_scooter", "fusion_lat": 0.0, "is_disabled": 0, "rental_uris": {"ios": "https://dc.lft.to/lastmile_qr_scan", "android": "https://dc.lft.to/lastmile_qr_scan"}, "bike_id": "2f19dd1ba557d366cf8999af69635936", "lat": 38.91690583333333, "name": "2f19dd1ba557d366cf8999af69635936", "lon": -77.0272205, "fusion_lon": 0.0}, {"is_reserved": 0, "type": "electric_scooter", "fusion_lat": 0.0, "is_disabled": 0, "rental_uris": {"ios": "https://dc.lft.to/lastmile_qr_scan", "android": "https://dc.lft.to/lastmile_qr_scan"}, "bike_id": "205f0a8c3eb684690f923f8048fea675", "lat": 38.9274635, "name": "205f0a8c3eb684690f923f8048fea675", "lon": -77.02370266666667, "fusion_lon": 0.0}, {"is_reserved": 0, "type": "electric_scooter", "fusion_lat": 0.0, "is_disabled": 0, "rental_uris": {"ios": "https://dc.lft.to/lastmile_qr_scan", "android": "https://dc.lft.to/lastmile_qr_scan"}, "bike_id": "6b7bc0961f972568304eb79f63c55f91", "lat": 38.892307333333335, "name": "6b7bc0961f972568304eb79f63c55f91", "lon": -77.02831233333333, "fusion_lon": 0.0}, {"is_reserved": 0, "type": "electric_bike", "fusion_lat": 0.0, "is_disabled": 0, "rental_uris": {"ios": "https://dc.lft.to/lastmile_qr_scan", "android": "https://dc.lft.to/lastmile_qr_scan"}, "bike_id": "88836476a36afd6a8d1ce04b6ddd4fb2", "lat": 38.86009416666667, "name": "88836476a36afd6a8d1ce04b6ddd4fb2", "lon": -77.065266, "fusion_lon": 0.0}, {"is_reserved": 0, "type": "electric_scooter", "fusion_lat": 0.0, "is_disabled": 0, "rental_uris": {"ios": "https://dc.lft.to/lastmile_qr_scan", "android": "https://dc.lft.to/lastmile_qr_scan"}, "bike_id": "503ff2539298bdcd46f334b03b331873", "lat": 38.9156395, "name": "503ff2539298bdcd46f334b03b331873", "lon": -77.0218095, "fusion_lon": 0.0}, {"is_reserved": 0, "type": "electric_scooter", "fusion_lat": 0.0, "is_disabled": 0, "rental_uris": {"ios": "https://dc.lft.to/lastmile_qr_scan", "android": "https://dc.lft.to/lastmile_qr_scan"}, "bike_id": "474517e1bfa6e822324bbca5819a0c3f", "lat": 38.883032666666665, "name": "474517e1bfa6e822324bbca5819a0c3f", "lon": -76.99371333333333, "fusion_lon": 0.0}, {"is_reserved": 0, "type": "electric_scooter", "fusion_lat": 0.0, "is_disabled": 0, "rental_uris": {"ios": "https://dc.lft.to/lastmile_qr_scan", "android": "https://dc.lft.to/lastmile_qr_scan"}, "bike_id": "adc9f3ce90cc6d4e761bb7efed0ec982", "lat": 38.93841666666667, "name": "adc9f3ce90cc6d4e761bb7efed0ec982", "lon": -77.01953266666666, "fusion_lon": 0.0}, {"is_reserved": 0, "type": "electric_scooter", "fusion_lat": 0.0, "is_disabled": 0, "rental_uris": {"ios": "https://dc.lft.to/lastmile_qr_scan", "android": "https://dc.lft.to/lastmile_qr_scan"}, "bike_id": "6b5e91061433d94e1850334c29505c53", "lat": 38.92336866666667, "name": "6b5e91061433d94e1850334c29505c53", "lon": -77.04303183333333, "fusion_lon": 0.0}, {"is_reserved": 0, "type": "electric_scooter", "fusion_lat": 0.0, "is_disabled": 0, "rental_uris": {"ios": "https://dc.lft.to/lastmile_qr_scan", "android": "https://dc.lft.to/lastmile_qr_scan"}, "bike_id": "f3ab37e4ee49b9b66a79361357b56b01", "lat": 38.90505133333333, "name": "f3ab37e4ee49b9b66a79361357b56b01", "lon": -76.95195916666667, "fusion_lon": 0.0}, {"is_reserved": 0, "type": "electric_scooter", "fusion_lat": 0.0, "is_disabled": 0, "rental_uris": {"ios": "https://dc.lft.to/lastmile_qr_scan", "android": "https://dc.lft.to/lastmile_qr_scan"}, "bike_id": "f6b3e78e6c6a3ce139c377c7125dbd09", "lat": 38.874718, "name": "f6b3e78e6c6a3ce139c377c7125dbd09", "lon": -77.00946133333333, "fusion_lon": 0.0}, {"is_reserved": 0, "type": "electric_scooter", "fusion_lat": 0.0, "is_disabled": 0, "rental_uris": {"ios": "https://dc.lft.to/lastmile_qr_scan", "android": "https://dc.lft.to/lastmile_qr_scan"}, "bike_id": "b79dfe1bc4d6ae68f5ad4c58f9942d97", "lat": 38.89668616666667, "name": "b79dfe1bc4d6ae68f5ad4c58f9942d97", "lon": -76.932094, "fusion_lon": 0.0}, {"is_reserved": 0, "type": "electric_scooter", "fusion_lat": 0.0, "is_disabled": 0, "rental_uris": {"ios": "https://dc.lft.to/lastmile_qr_scan", "android": "https://dc.lft.to/lastmile_qr_scan"}, "bike_id": "a3eaeadbcb325ee41df5f8ea98b5d242", "lat": 38.92481866666667, "name": "a3eaeadbcb325ee41df5f8ea98b5d242", "lon": -77.0271375, "fusion_lon": 0.0}, {"is_reserved": 0, "type": "electric_scooter", "fusion_lat": 0.0, "is_disabled": 0, "rental_uris": {"ios": "https://dc.lft.to/lastmile_qr_scan", "android": "https://dc.lft.to/lastmile_qr_scan"}, "bike_id": "c3ae0e340fb04e5da450567bc0f0416c", "lat": 38.880779, "name": "c3ae0e340fb04e5da450567bc0f0416c", "lon": -76.98511533333334, "fusion_lon": 0.0}, {"is_reserved": 0, "type": "electric_scooter", "fusion_lat": 0.0, "is_disabled": 0, "rental_uris": {"ios": "https://dc.lft.to/lastmile_qr_scan", "android": "https://dc.lft.to/lastmile_qr_scan"}, "bike_id": "f7c868bebc2723c4dab51de6fa626ee3", "lat": 38.88543133333334, "name": "f7c868bebc2723c4dab51de6fa626ee3", "lon": -76.95978083333333, "fusion_lon": 0.0}, {"is_reserved": 0, "type": "electric_scooter", "fusion_lat": 0.0, "is_disabled": 0, "rental_uris": {"ios": "https://dc.lft.to/lastmile_qr_scan", "android": "https://dc.lft.to/lastmile_qr_scan"}, "bike_id": "87317d91da75023e28549daf1e5dfc3b", "lat": 38.90918083333333, "name": "87317d91da75023e28549daf1e5dfc3b", "lon": -77.0350735, "fusion_lon": 0.0}, {"is_reserved": 0, "type": "electric_scooter", "fusion_lat": 0.0, "is_disabled": 0, "rental_uris": {"ios": "https://dc.lft.to/lastmile_qr_scan", "android": "https://dc.lft.to/lastmile_qr_scan"}, "bike_id": "37eb322bca41f9554a34e972b363a497", "lat": 38.90532916666667, "name": "37eb322bca41f9554a34e972b363a497", "lon": -77.0569435, "fusion_lon": 0.0}, {"is_reserved": 0, "type": "electric_scooter", "fusion_lat": 0.0, "is_disabled": 0, "rental_uris": {"ios": "https://dc.lft.to/lastmile_qr_scan", "android": "https://dc.lft.to/lastmile_qr_scan"}, "bike_id": "8686e881d9ef1d104491be95646ad1a5", "lat": 38.90158, "name": "8686e881d9ef1d104491be95646ad1a5", "lon": -77.03806916666667, "fusion_lon": 0.0}, {"is_reserved": 0, "type": "electric_scooter", "fusion_lat": 0.0, "is_disabled": 0, "rental_uris": {"ios": "https://dc.lft.to/lastmile_qr_scan", "android": "https://dc.lft.to/lastmile_qr_scan"}, "bike_id": "3b3801b717e27c9860499f222e781247", "lat": 38.901924666666666, "name": "3b3801b717e27c9860499f222e781247", "lon": -76.993808, "fusion_lon": 0.0}, {"is_reserved": 0, "type": "electric_scooter", "fusion_lat": 0.0, "is_disabled": 0, "rental_uris": {"ios": "https://dc.lft.to/lastmile_qr_scan", "android": "https://dc.lft.to/lastmile_qr_scan"}, "bike_id": "73e1d78b9d6eab754f1e9e8d58966b41", "lat": 38.923394333333334, "name": "73e1d78b9d6eab754f1e9e8d58966b41", "lon": -77.05792916666667, "fusion_lon": 0.0}, {"is_reserved": 0, "type": "electric_scooter", "fusion_lat": 0.0, "is_disabled": 0, "rental_uris": {"ios": "https://dc.lft.to/lastmile_qr_scan", "android": "https://dc.lft.to/lastmile_qr_scan"}, "bike_id": "ad6c18d981609e2417d07de2eb49f212", "lat": 38.91504, "name": "ad6c18d981609e2417d07de2eb49f212", "lon": -77.03210366666667, "fusion_lon": 0.0}, {"is_reserved": 0, "type": "electric_scooter", "fusion_lat": 0.0, "is_disabled": 0, "rental_uris": {"ios": "https://dc.lft.to/lastmile_qr_scan", "android": "https://dc.lft.to/lastmile_qr_scan"}, "bike_id": "430aed6cb193be549b384086d85dd65d", "lat": 38.8662835, "name": "430aed6cb193be549b384086d85dd65d", "lon": -76.98258716666666, "fusion_lon": 0.0}, {"is_reserved": 0, "type": "electric_scooter", "fusion_lat": 0.0, "is_disabled": 0, "rental_uris": {"ios": "https://dc.lft.to/lastmile_qr_scan", "android": "https://dc.lft.to/lastmile_qr_scan"}, "bike_id": "452376a3bf3ff340cbbbac0673d20034", "lat": 38.915821333333334, "name": "452376a3bf3ff340cbbbac0673d20034", "lon": -76.98304383333334, "fusion_lon": 0.0}, {"is_reserved": 0, "type": "electric_scooter", "fusion_lat": 0.0, "is_disabled": 0, "rental_uris": {"ios": "https://dc.lft.to/lastmile_qr_scan", "android": "https://dc.lft.to/lastmile_qr_scan"}, "bike_id": "510f08db0c3d07c39020cda953793b21", "lat": 38.923489333333336, "name": "510f08db0c3d07c39020cda953793b21", "lon": -77.041483, "fusion_lon": 0.0}, {"is_reserved": 0, "type": "electric_scooter", "fusion_lat": 0.0, "is_disabled": 0, "rental_uris": {"ios": "https://dc.lft.to/lastmile_qr_scan", "android": "https://dc.lft.to/lastmile_qr_scan"}, "bike_id": "9c432ebc61db0308a08698f55ba1b72e", "lat": 38.8763705, "name": "9c432ebc61db0308a08698f55ba1b72e", "lon": -76.99294616666667, "fusion_lon": 0.0}, {"is_reserved": 0, "type": "electric_scooter", "fusion_lat": 0.0, "is_disabled": 0, "rental_uris": {"ios": "https://dc.lft.to/lastmile_qr_scan", "android": "https://dc.lft.to/lastmile_qr_scan"}, "bike_id": "4bba963c83b11aefd9029fc454ba84ac", "lat": 38.934626, "name": "4bba963c83b11aefd9029fc454ba84ac", "lon": -77.02771133333333, "fusion_lon": 0.0}, {"is_reserved": 0, "type": "electric_bike", "fusion_lat": 0.0, "is_disabled": 0, "rental_uris": {"ios": "https://dc.lft.to/lastmile_qr_scan", "android": "https://dc.lft.to/lastmile_qr_scan"}, "bike_id": "f55081d8cd5a5ffe7096e8c73095191b", "lat": 38.831580333333335, "name": "f55081d8cd5a5ffe7096e8c73095191b", "lon": -76.99571866666666, "fusion_lon": 0.0}, {"is_reserved": 0, "type": "electric_bike", "fusion_lat": 0.0, "is_disabled": 0, "rental_uris": {"ios": "https://dc.lft.to/lastmile_qr_scan", "android": "https://dc.lft.to/lastmile_qr_scan"}, "bike_id": "0464675b1975c64e4ee65802485c1bec", "lat": 38.91190316666667, "name": "0464675b1975c64e4ee65802485c1bec", "lon": -77.0112075, "fusion_lon": 0.0}, {"is_reserved": 0, "type": "electric_scooter", "fusion_lat": 0.0, "is_disabled": 0, "rental_uris": {"ios": "https://dc.lft.to/lastmile_qr_scan", "android": "https://dc.lft.to/lastmile_qr_scan"}, "bike_id": "15fce5595b2a6309e7878fb46734966b", "lat": 38.901793, "name": "15fce5595b2a6309e7878fb46734966b", "lon": -76.99844616666667, "fusion_lon": 0.0}, {"is_reserved": 0, "type": "electric_scooter", "fusion_lat": 0.0, "is_disabled": 0, "rental_uris": {"ios": "https://dc.lft.to/lastmile_qr_scan", "android": "https://dc.lft.to/lastmile_qr_scan"}, "bike_id": "8f36253d49ceed201f0375176a926e6b", "lat": 38.9018025, "name": "8f36253d49ceed201f0375176a926e6b", "lon": -77.00219983333334, "fusion_lon": 0.0}, {"is_reserved": 0, "type": "electric_scooter", "fusion_lat": 0.0, "is_disabled": 0, "rental_uris": {"ios": "https://dc.lft.to/lastmile_qr_scan", "android": "https://dc.lft.to/lastmile_qr_scan"}, "bike_id": "fb53755e046ca539a19ba3e0b4ed1c51", "lat": 38.935060166666666, "name": "fb53755e046ca539a19ba3e0b4ed1c51", "lon": -77.05699783333333, "fusion_lon": 0.0}, {"is_reserved": 0, "type": "electric_scooter", "fusion_lat": 0.0, "is_disabled": 0, "rental_uris": {"ios": "https://dc.lft.to/lastmile_qr_scan", "android": "https://dc.lft.to/lastmile_qr_scan"}, "bike_id": "cae628486e9cbad54dd9d11897017ac8", "lat": 38.92072566666667, "name": "cae628486e9cbad54dd9d11897017ac8", "lon": -77.02416616666666, "fusion_lon": 0.0}, {"is_reserved": 0, "type": "electric_scooter", "fusion_lat": 0.0, "is_disabled": 0, "rental_uris": {"ios": "https://dc.lft.to/lastmile_qr_scan", "android": "https://dc.lft.to/lastmile_qr_scan"}, "bike_id": "4f464117c92cf703e9a7647d859304ed", "lat": 38.901407666666664, "name": "4f464117c92cf703e9a7647d859304ed", "lon": -77.01521983333333, "fusion_lon": 0.0}, {"is_reserved": 0, "type": "electric_scooter", "fusion_lat": 0.0, "is_disabled": 0, "rental_uris": {"ios": "https://dc.lft.to/lastmile_qr_scan", "android": "https://dc.lft.to/lastmile_qr_scan"}, "bike_id": "a6b14276acfb380143015ba58dd9305f", "lat": 38.927868, "name": "a6b14276acfb380143015ba58dd9305f", "lon": -77.02131866666667, "fusion_lon": 0.0}, {"is_reserved": 0, "type": "electric_scooter", "fusion_lat": 0.0, "is_disabled": 0, "rental_uris": {"ios": "https://dc.lft.to/lastmile_qr_scan", "android": "https://dc.lft.to/lastmile_qr_scan"}, "bike_id": "3e04c8bce3fce3cca124f2b68d98388c", "lat": 38.902106, "name": "3e04c8bce3fce3cca124f2b68d98388c", "lon": -76.99028233333334, "fusion_lon": 0.0}, {"is_reserved": 0, "type": "electric_scooter", "fusion_lat": 0.0, "is_disabled": 0, "rental_uris": {"ios": "https://dc.lft.to/lastmile_qr_scan", "android": "https://dc.lft.to/lastmile_qr_scan"}, "bike_id": "5c948ad03b64c69d3984154bd6f359d1", "lat": 38.91652366666667, "name": "5c948ad03b64c69d3984154bd6f359d1", "lon": -77.03856533333334, "fusion_lon": 0.0}, {"is_reserved": 0, "type": "electric_scooter", "fusion_lat": 0.0, "is_disabled": 0, "rental_uris": {"ios": "https://dc.lft.to/lastmile_qr_scan", "android": "https://dc.lft.to/lastmile_qr_scan"}, "bike_id": "8d6b076c0790976fe8b48e1fdb9b0e77", "lat": 38.906495, "name": "8d6b076c0790976fe8b48e1fdb9b0e77", "lon": -77.02476166666666, "fusion_lon": 0.0}, {"is_reserved": 0, "type": "electric_scooter", "fusion_lat": 0.0, "is_disabled": 0, "rental_uris": {"ios": "https://dc.lft.to/lastmile_qr_scan", "android": "https://dc.lft.to/lastmile_qr_scan"}, "bike_id": "272fb6a6882245a5cbf614484dceb0cb", "lat": 38.92045483333333, "name": "272fb6a6882245a5cbf614484dceb0cb", "lon": -77.02608116666667, "fusion_lon": 0.0}, {"is_reserved": 0, "type": "electric_scooter", "fusion_lat": 0.0, "is_disabled": 0, "rental_uris": {"ios": "https://dc.lft.to/lastmile_qr_scan", "android": "https://dc.lft.to/lastmile_qr_scan"}, "bike_id": "c878091f1ff0876c4eb2e24d8876dc03", "lat": 38.916222166666664, "name": "c878091f1ff0876c4eb2e24d8876dc03", "lon": -76.98277866666666, "fusion_lon": 0.0}, {"is_reserved": 0, "type": "electric_scooter", "fusion_lat": 0.0, "is_disabled": 0, "rental_uris": {"ios": "https://dc.lft.to/lastmile_qr_scan", "android": "https://dc.lft.to/lastmile_qr_scan"}, "bike_id": "3d461fb176bb76afe07597a96715a235", "lat": 38.90611233333333, "name": "3d461fb176bb76afe07597a96715a235", "lon": -77.06295816666666, "fusion_lon": 0.0}, {"is_reserved": 0, "type": "electric_scooter", "fusion_lat": 0.0, "is_disabled": 0, "rental_uris": {"ios": "https://dc.lft.to/lastmile_qr_scan", "android": "https://dc.lft.to/lastmile_qr_scan"}, "bike_id": "9c24100e788b328dcd76baf4d44c9003", "lat": 38.9213285, "name": "9c24100e788b328dcd76baf4d44c9003", "lon": -77.00402683333333, "fusion_lon": 0.0}, {"is_reserved": 0, "type": "electric_bike", "fusion_lat": 0.0, "is_disabled": 0, "rental_uris": {"ios": "https://dc.lft.to/lastmile_qr_scan", "android": "https://dc.lft.to/lastmile_qr_scan"}, "bike_id": "c4665171e8563da01837cce50e12efd8", "lat": 38.95243133333334, "name": "c4665171e8563da01837cce50e12efd8", "lon": -76.98247333333333, "fusion_lon": 0.0}, {"is_reserved": 0, "type": "electric_bike", "fusion_lat": 0.0, "is_disabled": 0, "rental_uris": {"ios": "https://dc.lft.to/lastmile_qr_scan", "android": "https://dc.lft.to/lastmile_qr_scan"}, "bike_id": "101c11770ba8c68ebaee9f9be56507a0", "lat": 38.804028833333334, "name": "101c11770ba8c68ebaee9f9be56507a0", "lon": -77.11337183333333, "fusion_lon": 0.0}, {"is_reserved": 0, "type": "electric_scooter", "fusion_lat": 0.0, "is_disabled": 0, "rental_uris": {"ios": "https://dc.lft.to/lastmile_qr_scan", "android": "https://dc.lft.to/lastmile_qr_scan"}, "bike_id": "ca0a167041fc8d5a448b03a696f5488c", "lat": 38.93264583333333, "name": "ca0a167041fc8d5a448b03a696f5488c", "lon": -77.02099916666667, "fusion_lon": 0.0}, {"is_reserved": 0, "type": "electric_bike", "fusion_lat": 0.0, "is_disabled": 0, "rental_uris": {"ios": "https://dc.lft.to/lastmile_qr_scan", "android": "https://dc.lft.to/lastmile_qr_scan"}, "bike_id": "3b2791a7e86d29e718ac7b2993420f34", "lat": 38.855894666666664, "name": "3b2791a7e86d29e718ac7b2993420f34", "lon": -76.97281333333333, "fusion_lon": 0.0}, {"is_reserved": 0, "type": "electric_scooter", "fusion_lat": 0.0, "is_disabled": 0, "rental_uris": {"ios": "https://dc.lft.to/lastmile_qr_scan", "android": "https://dc.lft.to/lastmile_qr_scan"}, "bike_id": "05935db4369df3c0d17e05b6bd43fc8e", "lat": 38.909663, "name": "05935db4369df3c0d17e05b6bd43fc8e", "lon": -76.98396466666667, "fusion_lon": 0.0}, {"is_reserved": 0, "type": "electric_scooter", "fusion_lat": 0.0, "is_disabled": 0, "rental_uris": {"ios": "https://dc.lft.to/lastmile_qr_scan", "android": "https://dc.lft.to/lastmile_qr_scan"}, "bike_id": "32b1d86257df2c1c23e609aca97c53bb", "lat": 38.908052166666664, "name": "32b1d86257df2c1c23e609aca97c53bb", "lon": -77.031325, "fusion_lon": 0.0}, {"is_reserved": 0, "type": "electric_bike", "fusion_lat": 0.0, "is_disabled": 0, "rental_uris": {"ios": "https://dc.lft.to/lastmile_qr_scan", "android": "https://dc.lft.to/lastmile_qr_scan"}, "bike_id": "363dbc48e2cb52a9e4dda6901662b178", "lat": 39.07438466666667, "name": "363dbc48e2cb52a9e4dda6901662b178", "lon": -77.1152485, "fusion_lon": 0.0}, {"is_reserved": 0, "type": "electric_scooter", "fusion_lat": 0.0, "is_disabled": 0, "rental_uris": {"ios": "https://dc.lft.to/lastmile_qr_scan", "android": "https://dc.lft.to/lastmile_qr_scan"}, "bike_id": "fba14ee8e37b01fbc624ab78bc86018e", "lat": 38.90275333333334, "name": "fba14ee8e37b01fbc624ab78bc86018e", "lon": -77.02312566666667, "fusion_lon": 0.0}, {"is_reserved": 0, "type": "electric_scooter", "fusion_lat": 0.0, "is_disabled": 0, "rental_uris": {"ios": "https://dc.lft.to/lastmile_qr_scan", "android": "https://dc.lft.to/lastmile_qr_scan"}, "bike_id": "58a4abf5f9e1657575a467546d2c405f", "lat": 38.883111166666666, "name": "58a4abf5f9e1657575a467546d2c405f", "lon": -76.9948935, "fusion_lon": 0.0}, {"is_reserved": 0, "type": "electric_scooter", "fusion_lat": 0.0, "is_disabled": 0, "rental_uris": {"ios": "https://dc.lft.to/lastmile_qr_scan", "android": "https://dc.lft.to/lastmile_qr_scan"}, "bike_id": "22cd496d50812952f116c5ac1f6068c1", "lat": 38.893379833333334, "name": "22cd496d50812952f116c5ac1f6068c1", "lon": -76.98558483333333, "fusion_lon": 0.0}, {"is_reserved": 0, "type": "electric_scooter", "fusion_lat": 0.0, "is_disabled": 0, "rental_uris": {"ios": "https://dc.lft.to/lastmile_qr_scan", "android": "https://dc.lft.to/lastmile_qr_scan"}, "bike_id": "70961c9da16eea2098e49d0cd07595cd", "lat": 38.90783283333333, "name": "70961c9da16eea2098e49d0cd07595cd", "lon": -77.04359166666667, "fusion_lon": 0.0}, {"is_reserved": 0, "type": "electric_scooter", "fusion_lat": 0.0, "is_disabled": 0, "rental_uris": {"ios": "https://dc.lft.to/lastmile_qr_scan", "android": "https://dc.lft.to/lastmile_qr_scan"}, "bike_id": "589cab0b982dfc6ed0128b42565d8d35", "lat": 38.92804316666667, "name": "589cab0b982dfc6ed0128b42565d8d35", "lon": -77.0370405, "fusion_lon": 0.0}, {"is_reserved": 0, "type": "electric_scooter", "fusion_lat": 0.0, "is_disabled": 0, "rental_uris": {"ios": "https://dc.lft.to/lastmile_qr_scan", "android": "https://dc.lft.to/lastmile_qr_scan"}, "bike_id": "f4441c5507ca23c77811795850f9befa", "lat": 38.91873483333333, "name": "f4441c5507ca23c77811795850f9befa", "lon": -77.03546566666667, "fusion_lon": 0.0}, {"is_reserved": 0, "type": "electric_scooter", "fusion_lat": 0.0, "is_disabled": 0, "rental_uris": {"ios": "https://dc.lft.to/lastmile_qr_scan", "android": "https://dc.lft.to/lastmile_qr_scan"}, "bike_id": "dbb7f8757e8ae79eaf359b1b449875b9", "lat": 38.935886333333336, "name": "dbb7f8757e8ae79eaf359b1b449875b9", "lon": -77.074345, "fusion_lon": 0.0}, {"is_reserved": 0, "type": "electric_scooter", "fusion_lat": 0.0, "is_disabled": 0, "rental_uris": {"ios": "https://dc.lft.to/lastmile_qr_scan", "android": "https://dc.lft.to/lastmile_qr_scan"}, "bike_id": "ea1883efb58a4707489477a79d1e760f", "lat": 38.903217166666664, "name": "ea1883efb58a4707489477a79d1e760f", "lon": -77.01762016666666, "fusion_lon": 0.0}, {"is_reserved": 0, "type": "electric_scooter", "fusion_lat": 0.0, "is_disabled": 0, "rental_uris": {"ios": "https://dc.lft.to/lastmile_qr_scan", "android": "https://dc.lft.to/lastmile_qr_scan"}, "bike_id": "331427768bab8300780f29920784fd63", "lat": 38.92345516666666, "name": "331427768bab8300780f29920784fd63", "lon": -77.03395366666666, "fusion_lon": 0.0}, {"is_reserved": 0, "type": "electric_scooter", "fusion_lat": 0.0, "is_disabled": 0, "rental_uris": {"ios": "https://dc.lft.to/lastmile_qr_scan", "android": "https://dc.lft.to/lastmile_qr_scan"}, "bike_id": "a85700978153bb98f086358133d1ca8e", "lat": 38.909680333333334, "name": "a85700978153bb98f086358133d1ca8e", "lon": -77.02188316666667, "fusion_lon": 0.0}, {"is_reserved": 0, "type": "electric_scooter", "fusion_lat": 0.0, "is_disabled": 0, "rental_uris": {"ios": "https://dc.lft.to/lastmile_qr_scan", "android": "https://dc.lft.to/lastmile_qr_scan"}, "bike_id": "f57e4e6cd13de4ddc71ff399d3fa40c7", "lat": 38.92318133333333, "name": "f57e4e6cd13de4ddc71ff399d3fa40c7", "lon": -77.01951683333333, "fusion_lon": 0.0}, {"is_reserved": 0, "type": "electric_scooter", "fusion_lat": 0.0, "is_disabled": 0, "rental_uris": {"ios": "https://dc.lft.to/lastmile_qr_scan", "android": "https://dc.lft.to/lastmile_qr_scan"}, "bike_id": "d12f0e824f40146d4a0ddb89f099b707", "lat": 38.916901333333335, "name": "d12f0e824f40146d4a0ddb89f099b707", "lon": -77.0393245, "fusion_lon": 0.0}, {"is_reserved": 0, "type": "electric_scooter", "fusion_lat": 0.0, "is_disabled": 0, "rental_uris": {"ios": "https://dc.lft.to/lastmile_qr_scan", "android": "https://dc.lft.to/lastmile_qr_scan"}, "bike_id": "46f9c0b0126856ffdfc6f4168f74beb7", "lat": 38.9231625, "name": "46f9c0b0126856ffdfc6f4168f74beb7", "lon": -77.0451085, "fusion_lon": 0.0}, {"is_reserved": 0, "type": "electric_scooter", "fusion_lat": 0.0, "is_disabled": 0, "rental_uris": {"ios": "https://dc.lft.to/lastmile_qr_scan", "android": "https://dc.lft.to/lastmile_qr_scan"}, "bike_id": "96ae700a58fa27ff44314dff25468159", "lat": 38.9078775, "name": "96ae700a58fa27ff44314dff25468159", "lon": -77.06912183333333, "fusion_lon": 0.0}, {"is_reserved": 0, "type": "electric_scooter", "fusion_lat": 0.0, "is_disabled": 0, "rental_uris": {"ios": "https://dc.lft.to/lastmile_qr_scan", "android": "https://dc.lft.to/lastmile_qr_scan"}, "bike_id": "bf672a2ad2646e2e2e0d753710244fe7", "lat": 38.927795333333336, "name": "bf672a2ad2646e2e2e0d753710244fe7", "lon": -77.027333, "fusion_lon": 0.0}, {"is_reserved": 0, "type": "electric_bike", "fusion_lat": 0.0, "is_disabled": 0, "rental_uris": {"ios": "https://dc.lft.to/lastmile_qr_scan", "android": "https://dc.lft.to/lastmile_qr_scan"}, "bike_id": "36ab040f50ef325d8f5632b03fefb247", "lat": 38.907294, "name": "36ab040f50ef325d8f5632b03fefb247", "lon": -77.06289066666666, "fusion_lon": 0.0}, {"is_reserved": 0, "type": "electric_scooter", "fusion_lat": 0.0, "is_disabled": 0, "rental_uris": {"ios": "https://dc.lft.to/lastmile_qr_scan", "android": "https://dc.lft.to/lastmile_qr_scan"}, "bike_id": "a5151093588f8b1e2154104c215752e4", "lat": 38.921096, "name": "a5151093588f8b1e2154104c215752e4", "lon": -77.03046516666667, "fusion_lon": 0.0}, {"is_reserved": 0, "type": "electric_scooter", "fusion_lat": 0.0, "is_disabled": 0, "rental_uris": {"ios": "https://dc.lft.to/lastmile_qr_scan", "android": "https://dc.lft.to/lastmile_qr_scan"}, "bike_id": "ef90bacd8b3e87e87201fcbbd9011326", "lat": 38.95069, "name": "ef90bacd8b3e87e87201fcbbd9011326", "lon": -77.06537766666666, "fusion_lon": 0.0}, {"is_reserved": 0, "type": "electric_bike", "fusion_lat": 0.0, "is_disabled": 0, "rental_uris": {"ios": "https://dc.lft.to/lastmile_qr_scan", "android": "https://dc.lft.to/lastmile_qr_scan"}, "bike_id": "cd9864326cc546f3d8e7d64d262111cb", "lat": 38.846302, "name": "cd9864326cc546f3d8e7d64d262111cb", "lon": -77.0693595, "fusion_lon": 0.0}, {"is_reserved": 0, "type": "electric_scooter", "fusion_lat": 0.0, "is_disabled": 0, "rental_uris": {"ios": "https://dc.lft.to/lastmile_qr_scan", "android": "https://dc.lft.to/lastmile_qr_scan"}, "bike_id": "b639ab0fa5d31915f5a689c21ec37983", "lat": 38.886435, "name": "b639ab0fa5d31915f5a689c21ec37983", "lon": -77.0122465, "fusion_lon": 0.0}, {"is_reserved": 0, "type": "electric_scooter", "fusion_lat": 0.0, "is_disabled": 0, "rental_uris": {"ios": "https://dc.lft.to/lastmile_qr_scan", "android": "https://dc.lft.to/lastmile_qr_scan"}, "bike_id": "d8948bc4c499c0f7a7bef6cebbc267de", "lat": 38.89459933333333, "name": "d8948bc4c499c0f7a7bef6cebbc267de", "lon": -77.02179566666666, "fusion_lon": 0.0}, {"is_reserved": 0, "type": "electric_scooter", "fusion_lat": 0.0, "is_disabled": 0, "rental_uris": {"ios": "https://dc.lft.to/lastmile_qr_scan", "android": "https://dc.lft.to/lastmile_qr_scan"}, "bike_id": "faa0cc27ae737b9fd7b2a18f0fe2ee6f", "lat": 38.90836083333333, "name": "faa0cc27ae737b9fd7b2a18f0fe2ee6f", "lon": -77.03856866666666, "fusion_lon": 0.0}, {"is_reserved": 0, "type": "electric_scooter", "fusion_lat": 0.0, "is_disabled": 0, "rental_uris": {"ios": "https://dc.lft.to/lastmile_qr_scan", "android": "https://dc.lft.to/lastmile_qr_scan"}, "bike_id": "3c30d940f86f88a056201c56a3fb3914", "lat": 38.876705666666666, "name": "3c30d940f86f88a056201c56a3fb3914", "lon": -77.017638, "fusion_lon": 0.0}, {"is_reserved": 0, "type": "electric_scooter", "fusion_lat": 0.0, "is_disabled": 0, "rental_uris": {"ios": "https://dc.lft.to/lastmile_qr_scan", "android": "https://dc.lft.to/lastmile_qr_scan"}, "bike_id": "0ea26db18ccc732b5d2949f7c9bc88d2", "lat": 38.88317583333333, "name": "0ea26db18ccc732b5d2949f7c9bc88d2", "lon": -76.931533, "fusion_lon": 0.0}, {"is_reserved": 0, "type": "electric_scooter", "fusion_lat": 0.0, "is_disabled": 0, "rental_uris": {"ios": "https://dc.lft.to/lastmile_qr_scan", "android": "https://dc.lft.to/lastmile_qr_scan"}, "bike_id": "347934f3f68b232071fdec54fb83d3fe", "lat": 38.89849483333333, "name": "347934f3f68b232071fdec54fb83d3fe", "lon": -77.02841166666667, "fusion_lon": 0.0},