{"data": {"bikes": [{"rental_uris": {"android": "https://dc.lft.to/lastmile_qr_scan", "ios": "https://dc.lft.to/lastmile_qr_scan"}, "is_reserved": 0, "is_disabled": 0, "name": "8ddb9aa9d4dd5bab8a1191c7e8340cec", "bike_id": "8ddb9aa9d4dd5bab8a1191c7e8340cec", "fusion_lat": 0.0, "lon": -77.05485316666666, "type": "electric_scooter", "fusion_lon": 0.0, "lat": 38.908478833333334}, {"rental_uris": {"android": "https://dc.lft.to/lastmile_qr_scan", "ios": "https://dc.lft.to/lastmile_qr_scan"}, "is_reserved": 0, "is_disabled": 0, "name": "76eea5e70d867b4ff9d53778790b0437", "bike_id": "76eea5e70d867b4ff9d53778790b0437", "fusion_lat": 0.0, "lon": -77.03828416666667, "type": "electric_scooter", "fusion_lon": 0.0, "lat": 38.90408633333333}, {"rental_uris": {"android": "https://dc.lft.to/lastmile_qr_scan", "ios": "https://dc.lft.to/lastmile_qr_scan"}, "is_reserved": 0, "is_disabled": 0, "name": "1888cc580cdb84466b720ee0dc7a7fdf", "bike_id": "1888cc580cdb84466b720ee0dc7a7fdf", "fusion_lat": 0.0, "lon": -76.9985415, "type": "electric_scooter", "fusion_lon": 0.0, "lat": 38.90032516666667}, {"rental_uris": {"android": "https://dc.lft.to/lastmile_qr_scan", "ios": "https://dc.lft.to/lastmile_qr_scan"}, "is_reserved": 0, "is_disabled": 0, "name": "73d05433e43099480a0290beb2493b47", "bike_id": "73d05433e43099480a0290beb2493b47", "fusion_lat": 0.0, "lon": -77.032038, "type": "electric_scooter", "fusion_lon": 0.0, "lat": 38.92065183333333}, {"rental_uris": {"android": "https://dc.lft.to/lastmile_qr_scan", "ios": "https://dc.lft.to/lastmile_qr_scan"}, "is_reserved": 0, "is_disabled": 0, "name": "ce5b40bac884325151bacdd6f559e4b3", "bike_id": "ce5b40bac884325151bacdd6f559e4b3", "fusion_lat": 0.0, "lon": -77.04876083333333, "type": "electric_scooter", "fusion_lon": 0.0, "lat": 38.910362}, {"rental_uris": {"android": "https://dc.lft.to/lastmile_qr_scan", "ios": "https://dc.lft.to/lastmile_qr_scan"}, "is_reserved": 0, "is_disabled": 0, "name": "bb9e39b6502bbd984de87179c7decc67", "bike_id": "bb9e39b6502bbd984de87179c7decc67", "fusion_lat": 0.0, "lon": -77.0210325, "type": "electric_scooter", "fusion_lon": 0.0, "lat": 38.9056005}, {"rental_uris": {"android": "https://dc.lft.to/lastmile_qr_scan", "ios": "https://dc.lft.to/lastmile_qr_scan"}, "is_reserved": 0, "is_disabled": 0, "name": "5cab9e6cdb7950215bd27dc2c35120ca", "bike_id": "5cab9e6cdb7950215bd27dc2c35120ca", "fusion_lat": 0.0, "lon": -77.0365175, "type": "electric_scooter", "fusion_lon": 0.0, "lat": 38.923440166666666}, {"rental_uris": {"android": "https://dc.lft.to/lastmile_qr_scan", "ios": "https://dc.lft.to/lastmile_qr_scan"}, "is_reserved": 0, "is_disabled": 0, "name": "c7ba56a96e39c1fb7bb2a7127a578d55", "bike_id": "c7ba56a96e39c1fb7bb2a7127a578d55", "fusion_lat": 0.0, "lon": -77.006087, "type": "electric_scooter", "fusion_lon": 0.0, "lat": 38.875458333333334}, {"rental_uris": {"android": "https://dc.lft.to/lastmile_qr_scan", "ios": "https://dc.lft.to/lastmile_qr_scan"}, "is_reserved": 0, "is_disabled": 0, "name": "062d0b7b95a851b68a541027f7cd39c1", "bike_id": "062d0b7b95a851b68a541027f7cd39c1", "fusion_lat": 0.0, "lon": -77.0201825, "type": "electric_scooter", "fusion_lon": 0.0, "lat": 38.92460366666667}, {"rental_uris": {"android": "https://dc.lft.to/lastmile_qr_scan", "ios": "https://dc.lft.to/lastmile_qr_scan"}, "is_reserved": 0, "is_disabled": 0, "name": "840b5c6c4de1233c5d0c6eff41e4c64f", "bike_id": "840b5c6c4de1233c5d0c6eff41e4c64f", "fusion_lat": 0.0, "lon": -77.08716866666667, "type": "electric_bike", "fusion_lon": 0.0, "lat": 38.862425}, {"rental_uris": {"android": "https://dc.lft.to/lastmile_qr_scan", "ios": "https://dc.lft.to/lastmile_qr_scan"}, "is_reserved": 0, "is_disabled": 0, "name": "d761f3359a409f29470ff3cdc7225e16", "bike_id": "d761f3359a409f29470ff3cdc7225e16", "fusion_lat": 0.0, "lon": -77.02808333333333, "type": "electric_scooter", "fusion_lon": 0.0, "lat": 38.89837033333333}, {"rental_uris": {"android": "https://dc.lft.to/lastmile_qr_scan", "ios": "https://dc.lft.to/lastmile_qr_scan"}, "is_reserved": 0, "is_disabled": 0, "name": "f42a5b1ec104773ed689c27841f3db4e", "bike_id": "f42a5b1ec104773ed689c27841f3db4e", "fusion_lat": 0.0, "lon": -76.98221833333334, "type": "electric_bike", "fusion_lon": 0.0, "lat": 38.9850835}, {"rental_uris": {"android": "https://dc.lft.to/lastmile_qr_scan", "ios": "https://dc.lft.to/lastmile_qr_scan"}, "is_reserved": 0, "is_disabled": 0, "name": "3667ea88c83cd1e1894ab76c9d221ac7", "bike_id": "3667ea88c83cd1e1894ab76c9d221ac7", "fusion_lat": 0.0, "lon": -77.0259875, "type": "electric_scooter", "fusion_lon": 0.0, "lat": 38.8963165}, {"rental_uris": {"android": "https://dc.lft.to/lastmile_qr_scan", "ios": "https://dc.lft.to/lastmile_qr_scan"}, "is_reserved": 0, "is_disabled": 0, "name": "96c8143d44ae7b34676a223503d06e60", "bike_id": "96c8143d44ae7b34676a223503d06e60", "fusion_lat": 0.0, "lon": -76.95157066666667, "type": "electric_bike", "fusion_lon": 0.0, "lat": 39.084460666666665}, {"rental_uris": {"android": "https://dc.lft.to/lastmile_qr_scan", "ios": "https://dc.lft.to/lastmile_qr_scan"}, "is_reserved": 0, "is_disabled": 0, "name": "1a9f332b0edd6c9b561feada3beff940", "bike_id": "1a9f332b0edd6c9b561feada3beff940", "fusion_lat": 0.0, "lon": -77.04997316666666, "type": "electric_scooter", "fusion_lon": 0.0, "lat": 38.8922635}, {"rental_uris": {"android": "https://dc.lft.to/lastmile_qr_scan", "ios": "https://dc.lft.to/lastmile_qr_scan"}, "is_reserved": 0, "is_disabled": 0, "name": "6f52f932156cd42d6e81b8bb2c7205de", "bike_id": "6f52f932156cd42d6e81b8bb2c7205de", "fusion_lat": 0.0, "lon": -77.00329316666667, "type": "electric_scooter", "fusion_lon": 0.0, "lat": 38.893619666666666}, {"rental_uris": {"android": "https://dc.lft.to/lastmile_qr_scan", "ios": "https://dc.lft.to/lastmile_qr_scan"}, "is_reserved": 0, "is_disabled": 0, "name": "4bd4f437f7dd068a4a0c21cdbdc4545a", "bike_id": "4bd4f437f7dd068a4a0c21cdbdc4545a", "fusion_lat": 0.0, "lon": -77.002989, "type": "electric_scooter", "fusion_lon": 0.0, "lat": 38.89202916666667}, {"rental_uris": {"android": "https://dc.lft.to/lastmile_qr_scan", "ios": "https://dc.lft.to/lastmile_qr_scan"}, "is_reserved": 0, "is_disabled": 0, "name": "6f0f75863e4cc8c875283ac8d290769a", "bike_id": "6f0f75863e4cc8c875283ac8d290769a", "fusion_lat": 0.0, "lon": -77.03267833333334, "type": "electric_scooter", "fusion_lon": 0.0, "lat": 38.929710166666666}, {"rental_uris": {"android": "https://dc.lft.to/lastmile_qr_scan", "ios": "https://dc.lft.to/lastmile_qr_scan"}, "is_reserved": 0, "is_disabled": 0, "name": "3fde2ae9ef81a9c770adc43e395982f5", "bike_id": "3fde2ae9ef81a9c770adc43e395982f5", "fusion_lat": 0.0, "lon": -77.0306025, "type": "electric_scooter", "fusion_lon": 0.0, "lat": 38.89843283333333}, {"rental_uris": {"android": "https://dc.lft.to/lastmile_qr_scan", "ios": "https://dc.lft.to/lastmile_qr_scan"}, "is_reserved": 0, "is_disabled": 0, "name": "6f5ad6cc3903ee85f89c8f9522d7ad7e", "bike_id": "6f5ad6cc3903ee85f89c8f9522d7ad7e", "fusion_lat": 0.0, "lon": -77.06430983333334, "type": "electric_scooter", "fusion_lon": 0.0, "lat": 38.935648666666665}, {"rental_uris": {"android": "https://dc.lft.to/lastmile_qr_scan", "ios": "https://dc.lft.to/lastmile_qr_scan"}, "is_reserved": 0, "is_disabled": 0, "name": "54236cfe8dfa57a7f0a69143b144ea05", "bike_id": "54236cfe8dfa57a7f0a69143b144ea05", "fusion_lat": 0.0, "lon": -77.027303, "type": "electric_scooter", "fusion_lon": 0.0, "lat": 38.8966845}, {"rental_uris": {"android": "https://dc.lft.to/lastmile_qr_scan", "ios": "https://dc.lft.to/lastmile_qr_scan"}, "is_reserved": 0, "is_disabled": 0, "name": "876c08af9c9f7925ab7b5e1ba1e73145", "bike_id": "876c08af9c9f7925ab7b5e1ba1e73145", "fusion_lat": 0.0, "lon": -77.00294016666666, "type": "electric_scooter", "fusion_lon": 0.0, "lat": 38.90366133333333}, {"rental_uris": {"android": "https://dc.lft.to/lastmile_qr_scan", "ios": "https://dc.lft.to/lastmile_qr_scan"}, "is_reserved": 0, "is_disabled": 0, "name": "e969d46faf45bf51e2a65d49e3a3a551", "bike_id": "e969d46faf45bf51e2a65d49e3a3a551", "fusion_lat": 0.0, "lon": -77.03666816666667, "type": "electric_scooter", "fusion_lon": 0.0, "lat": 38.90291216666667}, {"rental_uris": {"android": "https://dc.lft.to/lastmile_qr_scan", "ios": "https://dc.lft.to/lastmile_qr_scan"}, "is_reserved": 0, "is_disabled": 0, "name": "d7f4605fcde7eb02171e98de3e5592d2", "bike_id": "d7f4605fcde7eb02171e98de3e5592d2", "fusion_lat": 0.0, "lon": -76.93589433333334, "type": "electric_scooter", "fusion_lon": 0.0, "lat": 38.90950516666667}, {"rental_uris": {"android": "https://dc.lft.to/lastmile_qr_scan", "ios": "https://dc.lft.to/lastmile_qr_scan"}, "is_reserved": 0, "is_disabled": 0, "name": "d4bf94521f42c14ad52274fe47f12252", "bike_id": "d4bf94521f42c14ad52274fe47f12252", "fusion_lat": 0.0, "lon": -77.02509916666666, "type": "electric_scooter", "fusion_lon": 0.0, "lat": 38.91949566666667}, {"rental_uris": {"android": "https://dc.lft.to/lastmile_qr_scan", "ios": "https://dc.lft.to/lastmile_qr_scan"}, "is_reserved": 0, "is_disabled": 0, "name": "f785b8143e057a2f8547741d1875b557", "bike_id": "f785b8143e057a2f8547741d1875b557", "fusion_lat": 0.0, "lon": -77.01210333333333, "type": "electric_scooter", "fusion_lon": 0.0, "lat": 38.918193}, {"rental_uris": {"android": "https://dc.lft.to/lastmile_qr_scan", "ios": "https://dc.lft.to/lastmile_qr_scan"}, "is_reserved": 0, "is_disabled": 0, "name": "3631ddebc8a07098d7356f88befbde46", "bike_id": "3631ddebc8a07098d7356f88befbde46", "fusion_lat": 0.0, "lon": -77.033731, "type": "electric_scooter", "fusion_lon": 0.0, "lat": 38.9003975}, {"rental_uris": {"android": "https://dc.lft.to/lastmile_qr_scan", "ios": "https://dc.lft.to/lastmile_qr_scan"}, "is_reserved": 0, "is_disabled": 0, "name": "39daff3e02c2ca9d544888521c66cb24", "bike_id": "39daff3e02c2ca9d544888521c66cb24", "fusion_lat": 0.0, "lon": -77.02461933333333, "type": "electric_scooter", "fusion_lon": 0.0, "lat": 38.9578135}, {"rental_uris": {"android": "https://dc.lft.to/lastmile_qr_scan", "ios": "https://dc.lft.to/lastmile_qr_scan"}, "is_reserved": 0, "is_disabled": 0, "name": "134ef76b9bb8cc1db14125c9c373b532", "bike_id": "134ef76b9bb8cc1db14125c9c373b532", "fusion_lat": 0.0, "lon": -77.00021083333333, "type": "electric_scooter", "fusion_lon": 0.0, "lat": 38.91981966666667}, {"rental_uris": {"android": "https://dc.lft.to/lastmile_qr_scan", "ios": "https://dc.lft.to/lastmile_qr_scan"}, "is_reserved": 0, "is_disabled": 0, "name": "8c818030cf7667b827a9d0ca9238398f", "bike_id": "8c818030cf7667b827a9d0ca9238398f", "fusion_lat": 0.0, "lon": -77.0272895, "type": "electric_bike", "fusion_lon": 0.0, "lat": 38.896278333333335}, {"rental_uris": {"android": "https://dc.lft.to/lastmile_qr_scan", "ios": "https://dc.lft.to/lastmile_qr_scan"}, "is_reserved": 0, "is_disabled": 0, "name": "ebc0d37a3be8617b584c8464f722dbd9", "bike_id": "ebc0d37a3be8617b584c8464f722dbd9", "fusion_lat": 0.0, "lon": -77.03640416666667, "type": "electric_scooter", "fusion_lon": 0.0, "lat": 38.91736566666667}, {"rental_uris": {"android": "https://dc.lft.to/lastmile_qr_scan", "ios": "https://dc.lft.to/lastmile_qr_scan"}, "is_reserved": 0, "is_disabled": 0, "name": "882104baf067e9668ce3650d870c590e", "bike_id": "882104baf067e9668ce3650d870c590e", "fusion_lat": 0.0, "lon": -77.038188, "type": "electric_scooter", "fusion_lon": 0.0, "lat": 38.906783}, {"rental_uris": {"android": "https://dc.lft.to/lastmile_qr_scan", "ios": "https://dc.lft.to/lastmile_qr_scan"}, "is_reserved": 0, "is_disabled": 0, "name": "7d968169bd087eae3d9b7e538de42617", "bike_id": "7d968169bd087eae3d9b7e538de42617", "fusion_lat": 0.0, "lon": -76.973313, "type": "electric_scooter", "fusion_lon": 0.0, "lat": 38.904104333333336}, {"rental_uris": {"android": "https://dc.lft.to/lastmile_qr_scan", "ios": "https://dc.lft.to/lastmile_qr_scan"}, "is_reserved": 0, "is_disabled": 0, "name": "b16d3aa4cd90077b48b9ae32fa94525c", "bike_id": "b16d3aa4cd90077b48b9ae32fa94525c", "fusion_lat": 0.0, "lon": -77.04893516666667, "type": "electric_scooter", "fusion_lon": 0.0, "lat": 38.898778166666666}, {"rental_uris": {"android": "https://dc.lft.to/lastmile_qr_scan", "ios": "https://dc.lft.to/lastmile_qr_scan"}, "is_reserved": 0, "is_disabled": 0, "name": "8d4856c64cd47149905146d89a7d76ab", "bike_id": "8d4856c64cd47149905146d89a7d76ab", "fusion_lat": 0.0, "lon": -77.0694195, "type": "electric_bike", "fusion_lon": 0.0, "lat": 38.836291833333334}, {"rental_uris": {"android": "https://dc.lft.to/lastmile_qr_scan", "ios": "https://dc.lft.to/lastmile_qr_scan"}, "is_reserved": 0, "is_disabled": 0, "name": "87ba5105fdbc76e623260da102ba1176", "bike_id": "87ba5105fdbc76e623260da102ba1176", "fusion_lat": 0.0, "lon": -77.02399866666667, "type": "electric_scooter", "fusion_lon": 0.0, "lat": 38.937062}, {"rental_uris": {"android": "https://dc.lft.to/lastmile_qr_scan", "ios": "https://dc.lft.to/lastmile_qr_scan"}, "is_reserved": 0, "is_disabled": 0, "name": "d79038ddb6cd1c1f1417a2dc3f53940a", "bike_id": "d79038ddb6cd1c1f1417a2dc3f53940a", "fusion_lat": 0.0, "lon": -77.05805466666666, "type": "electric_scooter", "fusion_lon": 0.0, "lat": 38.935345}, {"rental_uris": {"android": "https://dc.lft.to/lastmile_qr_scan", "ios": "https://dc.lft.to/lastmile_qr_scan"}, "is_reserved": 0, "is_disabled": 0, "name": "795c9439edfb9e55de9f3b9f345c32bb", "bike_id": "795c9439edfb9e55de9f3b9f345c32bb", "fusion_lat": 0.0, "lon": -77.03755216666667, "type": "electric_scooter", "fusion_lon": 0.0, "lat": 38.90231033333333}, {"rental_uris": {"android": "https://dc.lft.to/lastmile_qr_scan", "ios": "https://dc.lft.to/lastmile_qr_scan"}, "is_reserved": 0, "is_disabled": 0, "name": "963a101c2a911878ac19cde7adf99805", "bike_id": "963a101c2a911878ac19cde7adf99805", "fusion_lat": 0.0, "lon": -77.02447033333333, "type": "electric_scooter", "fusion_lon": 0.0, "lat": 38.94981083333333}, {"rental_uris": {"android": "https://dc.lft.to/lastmile_qr_scan", "ios": "https://dc.lft.to/lastmile_qr_scan"}, "is_reserved": 0, "is_disabled": 0, "name": "ad2990d431323ac3cc28e559ac846ed2", "bike_id": "ad2990d431323ac3cc28e559ac846ed2", "fusion_lat": 0.0, "lon": -77.06310133333334, "type": "electric_scooter", "fusion_lon": 0.0, "lat": 38.9437155}, {"rental_uris": {"android": "https://dc.lft.to/lastmile_qr_scan", "ios": "https://dc.lft.to/lastmile_qr_scan"}, "is_reserved": 0, "is_disabled": 0, "name": "0eae5f49e761d4b239631658cdf198d4", "bike_id": "0eae5f49e761d4b239631658cdf198d4", "fusion_lat": 0.0, "lon": -77.02194183333333, "type": "electric_scooter", "fusion_lon": 0.0, "lat": 38.900261666666665}, {"rental_uris": {"android": "https://dc.lft.to/lastmile_qr_scan", "ios": "https://dc.lft.to/lastmile_qr_scan"}, "is_reserved": 0, "is_disabled": 0, "name": "c23fe2bf6a13e58bf832fa281e428a8f", "bike_id": "c23fe2bf6a13e58bf832fa281e428a8f", "fusion_lat": 0.0, "lon": -77.01510916666666, "type": "electric_scooter", "fusion_lon": 0.0, "lat": 38.8955585}, {"rental_uris": {"android": "https://dc.lft.to/lastmile_qr_scan", "ios": "https://dc.lft.to/lastmile_qr_scan"}, "is_reserved": 0, "is_disabled": 0, "name": "62ba4ca6929e0c4d60f8bc9920edbe38", "bike_id": "62ba4ca6929e0c4d60f8bc9920edbe38", "fusion_lat": 0.0, "lon": -77.034577, "type": "electric_scooter", "fusion_lon": 0.0, "lat": 38.90277783333333}, {"rental_uris": {"android": "https://dc.lft.to/lastmile_qr_scan", "ios": "https://dc.lft.to/lastmile_qr_scan"}, "is_reserved": 0, "is_disabled": 0, "name": "4f7dd2aea59e72655642631ccbe5fc0b", "bike_id": "4f7dd2aea59e72655642631ccbe5fc0b", "fusion_lat": 0.0, "lon": -77.04530216666667, "type": "electric_scooter", "fusion_lon": 0.0, "lat": 38.90277183333333}, {"rental_uris": {"android": "https://dc.lft.to/lastmile_qr_scan", "ios": "https://dc.lft.to/lastmile_qr_scan"}, "is_reserved": 0, "is_disabled": 0, "name": "e8c0e8bafb21b2ff950993f16d5393a7", "bike_id": "e8c0e8bafb21b2ff950993f16d5393a7", "fusion_lat": 0.0, "lon": -77.009119, "type": "electric_scooter", "fusion_lon": 0.0, "lat": 38.89886283333333}, {"rental_uris": {"android": "https://dc.lft.to/lastmile_qr_scan", "ios": "https://dc.lft.to/lastmile_qr_scan"}, "is_reserved": 0, "is_disabled": 0, "name": "0eecd200f800d99a17dc7666d757e0be", "bike_id": "0eecd200f800d99a17dc7666d757e0be", "fusion_lat": 0.0, "lon": -77.05324333333333, "type": "electric_scooter", "fusion_lon": 0.0, "lat": 38.905120833333335}, {"rental_uris": {"android": "https://dc.lft.to/lastmile_qr_scan", "ios": "https://dc.lft.to/lastmile_qr_scan"}, "is_reserved": 0, "is_disabled": 0, "name": "98bacf4bb98d814e0afcdbdf1edb33fa", "bike_id": "98bacf4bb98d814e0afcdbdf1edb33fa", "fusion_lat": 0.0, "lon": -77.0269485, "type": "electric_scooter", "fusion_lon": 0.0, "lat": 38.90248716666667}, {"rental_uris": {"android": "https://dc.lft.to/lastmile_qr_scan", "ios": "https://dc.lft.to/lastmile_qr_scan"}, "is_reserved": 0, "is_disabled": 0, "name": "75cf4cd99fe9de362b846d426e38b1f5", "bike_id": "75cf4cd99fe9de362b846d426e38b1f5", "fusion_lat": 0.0, "lon": -77.026161, "type": "electric_scooter", "fusion_lon": 0.0, "lat": 38.900560666666664}, {"rental_uris": {"android": "https://dc.lft.to/lastmile_qr_scan", "ios": "https://dc.lft.to/lastmile_qr_scan"}, "is_reserved": 0, "is_disabled": 0, "name": "c2b9d09e17955b10b580a93f2a88d548", "bike_id": "c2b9d09e17955b10b580a93f2a88d548", "fusion_lat": 0.0, "lon": -76.9408115, "type": "electric_scooter", "fusion_lon": 0.0, "lat": 38.89127116666667}, {"rental_uris": {"android": "https://dc.lft.to/lastmile_qr_scan", "ios": "https://dc.lft.to/lastmile_qr_scan"}, "is_reserved": 0, "is_disabled": 0, "name": "5ab9a509397a6837f80ed7c9b3393264", "bike_id": "5ab9a509397a6837f80ed7c9b3393264", "fusion_lat": 0.0, "lon": -77.04046266666667, "type": "electric_scooter", "fusion_lon": 0.0, "lat": 38.90863366666667}, {"rental_uris": {"android": "https://dc.lft.to/lastmile_qr_scan", "ios": "https://dc.lft.to/lastmile_qr_scan"}, "is_reserved": 0, "is_disabled": 0, "name": "4029adadaf7cc4f0b6fe341269ad463e", "bike_id": "4029adadaf7cc4f0b6fe341269ad463e", "fusion_lat": 0.0, "lon": -77.02379283333333, "type": "electric_scooter", "fusion_lon": 0.0, "lat": 38.952762666666665}, {"rental_uris": {"android": "https://dc.lft.to/lastmile_qr_scan", "ios": "https://dc.lft.to/lastmile_qr_scan"}, "is_reserved": 0, "is_disabled": 0, "name": "f41973416ab93dda8b5a442b0cd50605", "bike_id": "f41973416ab93dda8b5a442b0cd50605", "fusion_lat": 0.0, "lon": -77.0406065, "type": "electric_scooter", "fusion_lon": 0.0, "lat": 38.90387666666667}, {"rental_uris": {"android": "https://dc.lft.to/lastmile_qr_scan", "ios": "https://dc.lft.to/lastmile_qr_scan"}, "is_reserved": 0, "is_disabled": 0, "name": "f5f5c537a87271ed5034d2f2d01931df", "bike_id": "f5f5c537a87271ed5034d2f2d01931df", "fusion_lat": 0.0, "lon": -77.032665, "type": "electric_scooter", "fusion_lon": 0.0, "lat": 38.89842483333334}, {"rental_uris": {"android": "https://dc.lft.to/lastmile_qr_scan", "ios": "https://dc.lft.to/lastmile_qr_scan"}, "is_reserved": 0, "is_disabled": 0, "name": "74996108fc189c0bd624237b99f432d6", "bike_id": "74996108fc189c0bd624237b99f432d6", "fusion_lat": 0.0, "lon": -77.04991166666667, "type": "electric_scooter", "fusion_lon": 0.0, "lat": 38.89735916666667}, {"rental_uris": {"android": "https://dc.lft.to/lastmile_qr_scan", "ios": "https://dc.lft.to/lastmile_qr_scan"}, "is_reserved": 0, "is_disabled": 0, "name": "ddbc6cfed0ebd7f3e225157759b1e2b8", "bike_id": "ddbc6cfed0ebd7f3e225157759b1e2b8", "fusion_lat": 0.0, "lon": -77.00614083333333, "type": "electric_scooter", "fusion_lon": 0.0, "lat": 38.9059495}, {"rental_uris": {"android": "https://dc.lft.to/lastmile_qr_scan", "ios": "https://dc.lft.to/lastmile_qr_scan"}, "is_reserved": 0, "is_disabled": 0, "name": "635c119889fdc23d76a349d8f36f8031", "bike_id": "635c119889fdc23d76a349d8f36f8031", "fusion_lat": 0.0, "lon": -77.0462065, "type": "electric_scooter", "fusion_lon": 0.0, "lat": 38.909684666666664}, {"rental_uris": {"android": "https://dc.lft.to/lastmile_qr_scan", "ios": "https://dc.lft.to/lastmile_qr_scan"}, "is_reserved": 0, "is_disabled": 0, "name": "b8a040176e87b1cbc6a13a2b7ef12f04", "bike_id": "b8a040176e87b1cbc6a13a2b7ef12f04", "fusion_lat": 0.0, "lon": -77.04239716666666, "type": "electric_scooter", "fusion_lon": 0.0, "lat": 38.922104}, {"rental_uris": {"android": "https://dc.lft.to/lastmile_qr_scan", "ios": "https://dc.lft.to/lastmile_qr_scan"}, "is_reserved": 0, "is_disabled": 0, "name": "7ed4c63dd022a67f0c1c28d5b50a294d", "bike_id": "7ed4c63dd022a67f0c1c28d5b50a294d", "fusion_lat": 0.0, "lon": -77.020283, "type": "electric_scooter", "fusion_lon": 0.0, "lat": 38.9221425}, {"rental_uris": {"android": "https://dc.lft.to/lastmile_qr_scan", "ios": "https://dc.lft.to/lastmile_qr_scan"}, "is_reserved": 0, "is_disabled": 0, "name": "5467501e6b262d38badcb94c2c8093df", "bike_id": "5467501e6b262d38badcb94c2c8093df", "fusion_lat": 0.0, "lon": -77.02134733333334, "type": "electric_scooter", "fusion_lon": 0.0, "lat": 38.92417183333333}, {"rental_uris": {"android": "https://dc.lft.to/lastmile_qr_scan", "ios": "https://dc.lft.to/lastmile_qr_scan"}, "is_reserved": 0, "is_disabled": 0, "name": "6e9aa26dfb2dd4a1b8dee524487803da", "bike_id": "6e9aa26dfb2dd4a1b8dee524487803da", "fusion_lat": 0.0, "lon": -77.02774116666667, "type": "electric_scooter", "fusion_lon": 0.0, "lat": 38.95307533333333}, {"rental_uris": {"android": "https://dc.lft.to/lastmile_qr_scan", "ios": "https://dc.lft.to/lastmile_qr_scan"}, "is_reserved": 0, "is_disabled": 0, "name": "35b5683ecb29eed2da5dacc51dbfe636", "bike_id": "35b5683ecb29eed2da5dacc51dbfe636", "fusion_lat": 0.0, "lon": -77.02472033333333, "type": "electric_scooter", "fusion_lon": 0.0, "lat": 38.918175}, {"rental_uris": {"android": "https://dc.lft.to/lastmile_qr_scan", "ios": "https://dc.lft.to/lastmile_qr_scan"}, "is_reserved": 0, "is_disabled": 0, "name": "fb4cd72168b93c2b4008f26d6196f5e3", "bike_id": "fb4cd72168b93c2b4008f26d6196f5e3", "fusion_lat": 0.0, "lon": -77.03979683333333, "type": "electric_scooter", "fusion_lon": 0.0, "lat": 38.901328666666664}, {"rental_uris": {"android": "https://dc.lft.to/lastmile_qr_scan", "ios": "https://dc.lft.to/lastmile_qr_scan"}, "is_reserved": 0, "is_disabled": 0, "name": "05459cb93b9d5fdf942066a39478f72b", "bike_id": "05459cb93b9d5fdf942066a39478f72b", "fusion_lat": 0.0, "lon": -77.01886983333333, "type": "electric_scooter", "fusion_lon": 0.0, "lat": 38.89752516666667}, {"rental_uris": {"android": "https://dc.lft.to/lastmile_qr_scan", "ios": "https://dc.lft.to/lastmile_qr_scan"}, "is_reserved": 0, "is_disabled": 0, "name": "01dc2268889f1a9825ab26af21370b81", "bike_id": "01dc2268889f1a9825ab26af21370b81", "fusion_lat": 0.0, "lon": -77.0435695, "type": "electric_scooter", "fusion_lon": 0.0, "lat": 38.91094416666667}, {"rental_uris": {"android": "https://dc.lft.to/lastmile_qr_scan", "ios": "https://dc.lft.to/lastmile_qr_scan"}, "is_reserved": 0, "is_disabled": 0, "name": "3316339f51cee506171e0d20043c7a9d", "bike_id": "3316339f51cee506171e0d20043c7a9d", "fusion_lat": 0.0, "lon": -77.02373333333334, "type": "electric_scooter", "fusion_lon": 0.0, "lat": 38.89224566666667}, {"rental_uris": {"android": "https://dc.lft.to/lastmile_qr_scan", "ios": "https://dc.lft.to/lastmile_qr_scan"}, "is_reserved": 0, "is_disabled": 0, "name": "e4fa1d02bff12958754acb6d3383a71d", "bike_id": "e4fa1d02bff12958754acb6d3383a71d", "fusion_lat": 0.0, "lon": -77.03785166666667, "type": "electric_scooter", "fusion_lon": 0.0, "lat": 38.90235766666667}, {"rental_uris": {"android": "https://dc.lft.to/lastmile_qr_scan", "ios": "https://dc.lft.to/lastmile_qr_scan"}, "is_reserved": 0, "is_disabled": 0, "name": "20188d22bb9372f571be4a7aaeb36279", "bike_id": "20188d22bb9372f571be4a7aaeb36279", "fusion_lat": 0.0, "lon": -77.027206, "type": "electric_scooter", "fusion_lon": 0.0, "lat": 38.95209533333333}, {"rental_uris": {"android": "https://dc.lft.to/lastmile_qr_scan", "ios": "https://dc.lft.to/lastmile_qr_scan"}, "is_reserved": 0, "is_disabled": 0, "name": "4c1500f3247f8170f5240aeb98420eaf", "bike_id": "4c1500f3247f8170f5240aeb98420eaf", "fusion_lat": 0.0, "lon": -77.00136533333334, "type": "electric_bike", "fusion_lon": 0.0, "lat": 38.995026833333334}, {"rental_uris": {"android": "https://dc.lft.to/lastmile_qr_scan", "ios": "https://dc.lft.to/lastmile_qr_scan"}, "is_reserved": 0, "is_disabled": 0, "name": "7509f8257fc507d060cd580219815e90", "bike_id": "7509f8257fc507d060cd580219815e90", "fusion_lat": 0.0, "lon": -77.00122216666666, "type": "electric_scooter", "fusion_lon": 0.0, "lat": 38.87642}, {"rental_uris": {"android": "https://dc.lft.to/lastmile_qr_scan", "ios": "https://dc.lft.to/lastmile_qr_scan"}, "is_reserved": 0, "is_disabled": 0, "name": "6a2b8bc62c937f1534f4a8732666f9bf", "bike_id": "6a2b8bc62c937f1534f4a8732666f9bf", "fusion_lat": 0.0, "lon": -76.98796333333334, "type": "electric_scooter", "fusion_lon": 0.0, "lat": 38.900339333333335}, {"rental_uris": {"android": "https://dc.lft.to/lastmile_qr_scan", "ios": "https://dc.lft.to/lastmile_qr_scan"}, "is_reserved": 0, "is_disabled": 0, "name": "b9ae65b2a98727b0a9c335c76567d4d7", "bike_id": "b9ae65b2a98727b0a9c335c76567d4d7", "fusion_lat": 0.0, "lon": -77.0223745, "type": "electric_scooter", "fusion_lon": 0.0, "lat": 38.922408}, {"rental_uris": {"android": "https://dc.lft.to/lastmile_qr_scan", "ios": "https://dc.lft.to/lastmile_qr_scan"}, "is_reserved": 0, "is_disabled": 0, "name": "8ae9c9e6d147bdbcd973f730671c212b", "bike_id": "8ae9c9e6d147bdbcd973f730671c212b", "fusion_lat": 0.0, "lon": -76.94927316666667, "type": "electric_scooter", "fusion_lon": 0.0, "lat": 38.89528383333333}, {"rental_uris": {"android": "https://dc.lft.to/lastmile_qr_scan", "ios": "https://dc.lft.to/lastmile_qr_scan"}, "is_reserved": 0, "is_disabled": 0, "name": "f3871cc0a49b34239383acf9fd1b083e", "bike_id": "f3871cc0a49b34239383acf9fd1b083e", "fusion_lat": 0.0, "lon": -77.013417, "type": "electric_scooter", "fusion_lon": 0.0, "lat": 38.89226983333333}, {"rental_uris": {"android": "https://dc.lft.to/lastmile_qr_scan", "ios": "https://dc.lft.to/lastmile_qr_scan"}, "is_reserved": 0, "is_disabled": 0, "name": "14218379ad3b1513ede93a01f85be4b4", "bike_id": "14218379ad3b1513ede93a01f85be4b4", "fusion_lat": 0.0, "lon": -77.06100616666667, "type": "electric_scooter", "fusion_lon": 0.0, "lat": 38.941224}, {"rental_uris": {"android": "https://dc.lft.to/lastmile_qr_scan", "ios": "https://dc.lft.to/lastmile_qr_scan"}, "is_reserved": 0, "is_disabled": 0, "name": "8ba2eb24fb36ee68c88580addd0ea2b0", "bike_id": "8ba2eb24fb36ee68c88580addd0ea2b0", "fusion_lat": 0.0, "lon": -76.95796966666667, "type": "electric_bike", "fusion_lon": 0.0, "lat": 38.98047483333333}, {"rental_uris": {"android": "https://dc.lft.to/lastmile_qr_scan", "ios": "https://dc.lft.to/lastmile_qr_scan"}, "is_reserved": 0, "is_disabled": 0, "name": "43903e50548b75dd704de9ea0a9c9d48", "bike_id": "43903e50548b75dd704de9ea0a9c9d48", "fusion_lat": 0.0, "lon": -77.07334583333333, "type": "electric_scooter", "fusion_lon": 0.0, "lat": 38.9609555}, {"rental_uris": {"android": "https://dc.lft.to/lastmile_qr_scan", "ios": "https://dc.lft.to/lastmile_qr_scan"}, "is_reserved": 0, "is_disabled": 0, "name": "01b830d68d452972d510ae79c92ce65d", "bike_id": "01b830d68d452972d510ae79c92ce65d", "fusion_lat": 0.0, "lon": -77.0766285, "type": "electric_scooter", "fusion_lon": 0.0, "lat": 38.91082266666667}, {"rental_uris": {"android": "https://dc.lft.to/lastmile_qr_scan", "ios": "https://dc.lft.to/lastmile_qr_scan"}, "is_reserved": 0, "is_disabled": 0, "name": "90eb577385c51635b272ebc9b24eb4e3", "bike_id": "90eb577385c51635b272ebc9b24eb4e3", "fusion_lat": 0.0, "lon": -77.05179083333333, "type": "electric_scooter", "fusion_lon": 0.0, "lat": 38.92344933333333}, {"rental_uris": {"android": "https://dc.lft.to/lastmile_qr_scan", "ios": "https://dc.lft.to/lastmile_qr_scan"}, "is_reserved": 0, "is_disabled": 0, "name": "3ec665b5ec0f4fc073cda47941071e8e", "bike_id": "3ec665b5ec0f4fc073cda47941071e8e", "fusion_lat": 0.0, "lon": -77.012208, "type": "electric_scooter", "fusion_lon": 0.0, "lat": 38.914484333333334}, {"rental_uris": {"android": "https://dc.lft.to/lastmile_qr_scan", "ios": "https://dc.lft.to/lastmile_qr_scan"}, "is_reserved": 0, "is_disabled": 0, "name": "851b29fafb640af6fbd047e452df49c0", "bike_id": "851b29fafb640af6fbd047e452df49c0", "fusion_lat": 0.0, "lon": -77.01725433333333, "type": "electric_scooter", "fusion_lon": 0.0, "lat": 38.92052966666667}, {"rental_uris": {"android": "https://dc.lft.to/lastmile_qr_scan", "ios": "https://dc.lft.to/lastmile_qr_scan"}, "is_reserved": 0, "is_disabled": 0, "name": "b26211d93e7e0077a566bad95db3e028", "bike_id": "b26211d93e7e0077a566bad95db3e028", "fusion_lat": 0.0, "lon": -77.03636, "type": "electric_scooter", "fusion_lon": 0.0, "lat": 38.90387333333334}, {"rental_uris": {"android": "https://dc.lft.to/lastmile_qr_scan", "ios": "https://dc.lft.to/lastmile_qr_scan"}, "is_reserved": 0, "is_disabled": 0, "name": "07427caf4de618dc22be6dba87e334b3", "bike_id": "07427caf4de618dc22be6dba87e334b3", "fusion_lat": 0.0, "lon": -77.03304783333333, "type": "electric_scooter", "fusion_lon": 0.0, "lat": 38.92747833333333}, {"rental_uris": {"android": "https://dc.lft.to/lastmile_qr_scan", "ios": "https://dc.lft.to/lastmile_qr_scan"}, "is_reserved": 0, "is_disabled": 0, "name": "40f040a7fe5f693a9274c54e85828ed6", "bike_id": "40f040a7fe5f693a9274c54e85828ed6", "fusion_lat": 0.0, "lon": -77.0171495, "type": "electric_scooter", "fusion_lon": 0.0, "lat": 38.87295683333333}, {"rental_uris": {"android": "https://dc.lft.to/lastmile_qr_scan", "ios": "https://dc.lft.to/lastmile_qr_scan"}, "is_reserved": 0, "is_disabled": 0, "name": "994b4115a8a57011d5bc3435a3043359", "bike_id": "994b4115a8a57011d5bc3435a3043359", "fusion_lat": 0.0, "lon": -77.00301283333333, "type": "electric_scooter", "fusion_lon": 0.0, "lat": 38.8767055}, {"rental_uris": {"android": "https://dc.lft.to/lastmile_qr_scan", "ios": "https://dc.lft.to/lastmile_qr_scan"}, "is_reserved": 0, "is_disabled": 0, "name": "b658adf81db4eb99c4212048168626f2", "bike_id": "b658adf81db4eb99c4212048168626f2", "fusion_lat": 0.0, "lon": -77.04157866666667, "type": "electric_scooter", "fusion_lon": 0.0, "lat": 38.9161825}, {"rental_uris": {"android": "https://dc.lft.to/lastmile_qr_scan", "ios": "https://dc.lft.to/lastmile_qr_scan"}, "is_reserved": 0, "is_disabled": 0, "name": "81bd68ae5db3688de736c287c048a105", "bike_id": "81bd68ae5db3688de736c287c048a105", "fusion_lat": 0.0, "lon": -77.00801033333333, "type": "electric_scooter", "fusion_lon": 0.0, "lat": 38.87927083333334}, {"rental_uris": {"android": "https://dc.lft.to/lastmile_qr_scan", "ios": "https://dc.lft.to/lastmile_qr_scan"}, "is_reserved": 0, "is_disabled": 0, "name": "3a6ebb9f8021da3c3c9d723dc9035f77", "bike_id": "3a6ebb9f8021da3c3c9d723dc9035f77", "fusion_lat": 0.0, "lon": -77.02264466666666, "type": "electric_scooter", "fusion_lon": 0.0, "lat": 38.898477}, {"rental_uris": {"android": "https://dc.lft.to/lastmile_qr_scan", "ios": "https://dc.lft.to/lastmile_qr_scan"}, "is_reserved": 0, "is_disabled": 0, "name": "95cb001e3760071914df90d8e8037874", "bike_id": "95cb001e3760071914df90d8e8037874", "fusion_lat": 0.0, "lon": -77.024931, "type": "electric_scooter", "fusion_lon": 0.0, "lat": 38.941897166666664}, {"rental_uris": {"android": "https://dc.lft.to/lastmile_qr_scan", "ios": "https://dc.lft.to/lastmile_qr_scan"}, "is_reserved": 0, "is_disabled": 0, "name": "c8fecbcf5b7f535c97e7a6b8d5074c4a", "bike_id": "c8fecbcf5b7f535c97e7a6b8d5074c4a", "fusion_lat": 0.0, "lon": -76.92501566666667, "type": "electric_scooter", "fusion_lon": 0.0, "lat": 38.88602133333333}, {"rental_uris": {"android": "https://dc.lft.to/lastmile_qr_scan", "ios": "https://dc.lft.to/lastmile_qr_scan"}, "is_reserved": 0, "is_disabled": 0, "name": "0935c6a16ea807224309e340999bedde", "bike_id": "0935c6a16ea807224309e340999bedde", "fusion_lat": 0.0, "lon": -77.04557966666667, "type": "electric_scooter", "fusion_lon": 0.0, "lat": 38.913569}, {"rental_uris": {"android": "https://dc.lft.to/lastmile_qr_scan", "ios": "https://dc.lft.to/lastmile_qr_scan"}, "is_reserved": 0, "is_disabled": 0, "name": "d8ed062884268b3523011d9a1f1c812e", "bike_id": "d8ed062884268b3523011d9a1f1c812e", "fusion_lat": 0.0, "lon": -77.02192466666666, "type": "electric_scooter", "fusion_lon": 0.0, "lat": 38.945054}, {"rental_uris": {"android": "https://dc.lft.to/lastmile_qr_scan", "ios": "https://dc.lft.to/lastmile_qr_scan"}, "is_reserved": 0, "is_disabled": 0, "name": "72acd8c046f1c0bae6192a493945c5da", "bike_id": "72acd8c046f1c0bae6192a493945c5da", "fusion_lat": 0.0, "lon": -77.04179916666666, "type": "electric_scooter", "fusion_lon": 0.0, "lat": 38.9173415}, {"rental_uris": {"android": "https://dc.lft.to/lastmile_qr_scan", "ios": "https://dc.lft.to/lastmile_qr_scan"}, "is_reserved": 0, "is_disabled": 0, "name": "a79850b72b7a7572e0166af06b7b4b9c", "bike_id": "a79850b72b7a7572e0166af06b7b4b9c", "fusion_lat": 0.0, "lon": -77.04837566666667, "type": "electric_scooter", "fusion_lon": 0.0, "lat": 38.900433166666666}, {"rental_uris": {"android": "https://dc.lft.to/lastmile_qr_scan", "ios": "https://dc.lft.to/lastmile_qr_scan"}, "is_reserved": 0, "is_disabled": 0, "name": "27935eafacc35d3a6a8f2526ca203d4e", "bike_id": "27935eafacc35d3a6a8f2526ca203d4e", "fusion_lat": 0.0, "lon": -77.03994166666666, "type": "electric_scooter", "fusion_lon": 0.0, "lat": 38.934021666666666}, {"rental_uris": {"android": "https://dc.lft.to/lastmile_qr_scan", "ios": "https://dc.lft.to/lastmile_qr_scan"}, "is_reserved": 0, "is_disabled": 0, "name": "c3cdbaeebb99b59e192df15e25489619", "bike_id": "c3cdbaeebb99b59e192df15e25489619", "fusion_lat": 0.0, "lon": -77.02941033333333, "type": "electric_scooter", "fusion_lon": 0.0, "lat": 38.89752333333333}, {"rental_uris": {"android": "https://dc.lft.to/lastmile_qr_scan", "ios": "https://dc.lft.to/lastmile_qr_scan"}, "is_reserved": 0, "is_disabled": 0, "name": "84e726b4c14ddebfa1e9ddc907f33c60", "bike_id": "84e726b4c14ddebfa1e9ddc907f33c60", "fusion_lat": 0.0, "lon": -77.02314783333334, "type": "electric_scooter", "fusion_lon": 0.0, "lat": 38.87886866666667}, {"rental_uris": {"android": "https://dc.lft.to/lastmile_qr_scan", "ios": "https://dc.lft.to/lastmile_qr_scan"}, "is_reserved": 0, "is_disabled": 0, "name": "06e9c041671fc3681224d975d7312242", "bike_id": "06e9c041671fc3681224d975d7312242", "fusion_lat": 0.0, "lon": -77.00331383333334, "type": "electric_scooter", "fusion_lon": 0.0, "lat": 38.89365866666667}, {"rental_uris": {"android": "https://dc.lft.to/lastmile_qr_scan", "ios": "https://dc.lft.to/lastmile_qr_scan"}, "is_reserved": 0, "is_disabled": 0, "name": "e0ea4d0b068ad4b435226dd5f6838e08", "bike_id": "e0ea4d0b068ad4b435226dd5f6838e08", "fusion_lat": 0.0, "lon": -76.98059133333334, "type": "electric_bike", "fusion_lon": 0.0, "lat": 38.972547}, {"rental_uris": {"android": "https://dc.lft.to/lastmile_qr_scan", "ios": "https://dc.lft.to/lastmile_qr_scan"}, "is_reserved": 0, "is_disabled": 0, "name": "c2d3566b81171807637aecff581953e1", "bike_id": "c2d3566b81171807637aecff581953e1", "fusion_lat": 0.0, "lon": -77.063788, "type": "electric_scooter", "fusion_lon": 0.0, "lat": 38.9051405}, {"rental_uris": {"android": "https://dc.lft.to/lastmile_qr_scan", "ios": "https://dc.lft.to/lastmile_qr_scan"}, "is_reserved": 0, "is_disabled": 0, "name": "3f4c7b19ef902e9bb2430cb66dd05ca4", "bike_id": "3f4c7b19ef902e9bb2430cb66dd05ca4", "fusion_lat": 0.0, "lon": -77.0278195, "type": "electric_scooter", "fusion_lon": 0.0, "lat": 38.927757666666665}, {"rental_uris": {"android": "https://dc.lft.to/lastmile_qr_scan", "ios": "https://dc.lft.to/lastmile_qr_scan"}, "is_reserved": 0, "is_disabled": 0, "name": "aded89c8f1064a06db5d2595276e2d43", "bike_id": "aded89c8f1064a06db5d2595276e2d43", "fusion_lat": 0.0, "lon": -77.043041, "type": "electric_scooter", "fusion_lon": 0.0, "lat": 38.9188735}, {"rental_uris": {"android": "https://dc.lft.to/lastmile_qr_scan", "ios": "https://dc.lft.to/lastmile_qr_scan"}, "is_reserved": 0, "is_disabled": 0, "name": "639078537052dad264c730bbbe045e0a", "bike_id": "639078537052dad264c730bbbe045e0a", "fusion_lat": 0.0, "lon": -77.02440483333334, "type": "electric_scooter", "fusion_lon": 0.0, "lat": 38.92055633333333}, {"rental_uris": {"android": "https://dc.lft.to/lastmile_qr_scan", "ios": "https://dc.lft.to/lastmile_qr_scan"}, "is_reserved": 0, "is_disabled": 0, "name": "e4b7ad1466e81d2ba55129a500a0663a", "bike_id": "e4b7ad1466e81d2ba55129a500a0663a", "fusion_lat": 0.0, "lon": -77.03954083333333, "type": "electric_scooter", "fusion_lon": 0.0, "lat": 38.90134833333333}, {"rental_uris": {"android": "https://dc.lft.to/lastmile_qr_scan", "ios": "https://dc.lft.to/lastmile_qr_scan"}, "is_reserved": 0, "is_disabled": 0, "name": "1095b3152e5371d4acfcdce1aad7293c", "bike_id": "1095b3152e5371d4acfcdce1aad7293c", "fusion_lat": 0.0, "lon": -77.02715183333333, "type": "electric_scooter", "fusion_lon": 0.0, "lat": 38.9278915}, {"rental_uris": {"android": "https://dc.lft.to/lastmile_qr_scan", "ios": "https://dc.lft.to/lastmile_qr_scan"}, "is_reserved": 0, "is_disabled": 0, "name": "ea8c4fc535d9f88d0a41473e5e637f42", "bike_id": "ea8c4fc535d9f88d0a41473e5e637f42", "fusion_lat": 0.0, "lon": -76.98370066666666, "type": "electric_scooter", "fusion_lon": 0.0, "lat": 38.92228033333333}, {"rental_uris": {"android": "https://dc.lft.to/lastmile_qr_scan", "ios": "https://dc.lft.to/lastmile_qr_scan"}, "is_reserved": 0, "is_disabled": 0, "name": "1431ef77d699d6368da32c597210159f", "bike_id": "1431ef77d699d6368da32c597210159f", "fusion_lat": 0.0, "lon": -76.91718283333333, "type": "electric_bike", "fusion_lon": 0.0, "lat": 38.88030966666667}, {"rental_uris": {"android": "https://dc.lft.to/lastmile_qr_scan", "ios": "https://dc.lft.to/lastmile_qr_scan"}, "is_reserved": 0, "is_disabled": 0, "name": "faaeb7535084b4851775baf0bcc71fa1", "bike_id": "faaeb7535084b4851775baf0bcc71fa1", "fusion_lat": 0.0, "lon": -77.02335866666667, "type": "electric_scooter", "fusion_lon": 0.0, "lat": 38.9223215}, {"rental_uris": {"android": "https://dc.lft.to/lastmile_qr_scan", "ios": "https://dc.lft.to/lastmile_qr_scan"}, "is_reserved": 0, "is_disabled": 0, "name": "31f76b6e345085935e01e80fee52b5fd", "bike_id": "31f76b6e345085935e01e80fee52b5fd", "fusion_lat": 0.0, "lon": -77.05057133333334, "type": "electric_scooter", "fusion_lon": 0.0, "lat": 38.9009235}, {"rental_uris": {"android": "https://dc.lft.to/lastmile_qr_scan", "ios": "https://dc.lft.to/lastmile_qr_scan"}, "is_reserved": 0, "is_disabled": 0, "name": "baaa547ca7ab5856564f3946d12c2b04", "bike_id": "baaa547ca7ab5856564f3946d12c2b04", "fusion_lat": 0.0, "lon": -77.0421225, "type": "electric_scooter", "fusion_lon": 0.0, "lat": 38.92180916666667}, {"rental_uris": {"android": "https://dc.lft.to/lastmile_qr_scan", "ios": "https://dc.lft.to/lastmile_qr_scan"}, "is_reserved": 0, "is_disabled": 0, "name": "d2cbd54e692de000f3db4c0c99aeed46", "bike_id": "d2cbd54e692de000f3db4c0c99aeed46", "fusion_lat": 0.0, "lon": -77.03338533333333, "type": "electric_bike", "fusion_lon": 0.0, "lat": 38.899064}, {"rental_uris": {"android": "https://dc.lft.to/lastmile_qr_scan", "ios": "https://dc.lft.to/lastmile_qr_scan"}, "is_reserved": 0, "is_disabled": 0, "name": "2fa129644603c84d0e8e35bb5ac4f49d", "bike_id": "2fa129644603c84d0e8e35bb5ac4f49d", "fusion_lat": 0.0, "lon": -77.03296766666666, "type": "electric_scooter", "fusion_lon": 0.0, "lat": 38.956163333333336}, {"rental_uris": {"android": "https://dc.lft.to/lastmile_qr_scan", "ios": "https://dc.lft.to/lastmile_qr_scan"}, "is_reserved": 0, "is_disabled": 0, "name": "2c2a5e0df3429a5f3a5fe38199005134", "bike_id": "2c2a5e0df3429a5f3a5fe38199005134", "fusion_lat": 0.0, "lon": -77.0320615, "type": "electric_scooter", "fusion_lon": 0.0, "lat": 38.892380333333335}, {"rental_uris": {"android": "https://dc.lft.to/lastmile_qr_scan", "ios": "https://dc.lft.to/lastmile_qr_scan"}, "is_reserved": 0, "is_disabled": 0, "name": "bc17f11cefe1cf1f65925c2b5366a2d7", "bike_id": "bc17f11cefe1cf1f65925c2b5366a2d7", "fusion_lat": 0.0, "lon": -77.0498435, "type": "electric_scooter", "fusion_lon": 0.0, "lat": 38.898425}, {"rental_uris": {"android": "https://dc.lft.to/lastmile_qr_scan", "ios": "https://dc.lft.to/lastmile_qr_scan"}, "is_reserved": 0, "is_disabled": 0, "name": "ee7719d4365cd975cdbe185ca66ba033", "bike_id": "ee7719d4365cd975cdbe185ca66ba033", "fusion_lat": 0.0, "lon": -77.020003, "type": "electric_scooter", "fusion_lon": 0.0, "lat": 38.90119416666667}, {"rental_uris": {"android": "https://dc.lft.to/lastmile_qr_scan", "ios": "https://dc.lft.to/lastmile_qr_scan"}, "is_reserved": 0, "is_disabled": 0, "name": "c35b5ae5befbe890f44f47b3a56c663f", "bike_id": "c35b5ae5befbe890f44f47b3a56c663f", "fusion_lat": 0.0, "lon": -77.04490966666667, "type": "electric_scooter", "fusion_lon": 0.0, "lat": 38.915173333333335}, {"rental_uris": {"android": "https://dc.lft.to/lastmile_qr_scan", "ios": "https://dc.lft.to/lastmile_qr_scan"}, "is_reserved": 0, "is_disabled": 0, "name": "c0a4be6a060080117756c8c60b782e30", "bike_id": "c0a4be6a060080117756c8c60b782e30", "fusion_lat": 0.0, "lon": -77.04015616666666, "type": "electric_scooter", "fusion_lon": 0.0, "lat": 38.898466}, {"rental_uris": {"android": "https://dc.lft.to/lastmile_qr_scan", "ios": "https://dc.lft.to/lastmile_qr_scan"}, "is_reserved": 0, "is_disabled": 0, "name": "a21aaeee54e70ffe898955e3475327b9", "bike_id": "a21aaeee54e70ffe898955e3475327b9", "fusion_lat": 0.0, "lon": -77.01033216666667, "type": "electric_scooter", "fusion_lon": 0.0, "lat": 38.9213375}, {"rental_uris": {"android": "https://dc.lft.to/lastmile_qr_scan", "ios": "https://dc.lft.to/lastmile_qr_scan"}, "is_reserved": 0, "is_disabled": 0, "name": "cb10f04c7993ca8a90a33378041839a2", "bike_id": "cb10f04c7993ca8a90a33378041839a2", "fusion_lat": 0.0, "lon": -77.04647766666666, "type": "electric_scooter", "fusion_lon": 0.0, "lat": 38.91458}, {"rental_uris": {"android": "https://dc.lft.to/lastmile_qr_scan", "ios": "https://dc.lft.to/lastmile_qr_scan"}, "is_reserved": 0, "is_disabled": 0, "name": "7b4e60b653a3d5f53186fca3399753d3", "bike_id": "7b4e60b653a3d5f53186fca3399753d3", "fusion_lat": 0.0, "lon": -76.98371866666666, "type": "electric_scooter", "fusion_lon": 0.0, "lat": 38.87947033333333}, {"rental_uris": {"android": "https://dc.lft.to/lastmile_qr_scan", "ios": "https://dc.lft.to/lastmile_qr_scan"}, "is_reserved": 0, "is_disabled": 0, "name": "350e68b151e88225d9bcd6e9909b192b", "bike_id": "350e68b151e88225d9bcd6e9909b192b", "fusion_lat": 0.0, "lon": -77.02417566666666, "type": "electric_scooter", "fusion_lon": 0.0, "lat": 38.90287766666667}, {"rental_uris": {"android": "https://dc.lft.to/lastmile_qr_scan", "ios": "https://dc.lft.to/lastmile_qr_scan"}, "is_reserved": 0, "is_disabled": 0, "name": "ade37c4b38a3d1f80189e5c980f3fc1b", "bike_id": "ade37c4b38a3d1f80189e5c980f3fc1b", "fusion_lat": 0.0, "lon": -77.07846266666667, "type": "electric_scooter", "fusion_lon": 0.0, "lat": 38.946070666666664}, {"rental_uris": {"android": "https://dc.lft.to/lastmile_qr_scan", "ios": "https://dc.lft.to/lastmile_qr_scan"}, "is_reserved": 0, "is_disabled": 0, "name": "53e77c4de42c3fe32d98cca433910244", "bike_id": "53e77c4de42c3fe32d98cca433910244", "fusion_lat": 0.0, "lon": -77.03887366666666, "type": "electric_scooter", "fusion_lon": 0.0, "lat": 38.9204495}, {"rental_uris": {"android": "https://dc.lft.to/lastmile_qr_scan", "ios": "https://dc.lft.to/lastmile_qr_scan"}, "is_reserved": 0, "is_disabled": 0, "name": "47eb8e7e13d8417c9600ed14372b70de", "bike_id": "47eb8e7e13d8417c9600ed14372b70de", "fusion_lat": 0.0, "lon": -76.98114433333333, "type": "electric_bike", "fusion_lon": 0.0, "lat": 38.94575533333333}, {"rental_uris": {"android": "https://dc.lft.to/lastmile_qr_scan", "ios": "https://dc.lft.to/lastmile_qr_scan"}, "is_reserved": 0, "is_disabled": 0, "name": "35a6f524fbe1032eaf888c4307287414", "bike_id": "35a6f524fbe1032eaf888c4307287414", "fusion_lat": 0.0, "lon": -77.05015233333333, "type": "electric_scooter", "fusion_lon": 0.0, "lat": 38.89661183333333}, {"rental_uris": {"android": "https://dc.lft.to/lastmile_qr_scan", "ios": "https://dc.lft.to/lastmile_qr_scan"}, "is_reserved": 0, "is_disabled": 0, "name": "3d21f120f2fcad7d54a9be3c7088c60d", "bike_id": "3d21f120f2fcad7d54a9be3c7088c60d", "fusion_lat": 0.0, "lon": -77.02812083333333, "type": "electric_scooter", "fusion_lon": 0.0, "lat": 38.90467233333333}, {"rental_uris": {"android": "https://dc.lft.to/lastmile_qr_scan", "ios": "https://dc.lft.to/lastmile_qr_scan"}, "is_reserved": 0, "is_disabled": 0, "name": "270f5e47f7afb6961675b901f061a184", "bike_id": "270f5e47f7afb6961675b901f061a184", "fusion_lat": 0.0, "lon": -77.02789183333333, "type": "electric_scooter", "fusion_lon": 0.0, "lat": 38.9613065}, {"rental_uris": {"android": "https://dc.lft.to/lastmile_qr_scan", "ios": "https://dc.lft.to/lastmile_qr_scan"}, "is_reserved": 0, "is_disabled": 0, "name": "952796c775beaa29ec1444fdb216ef3c", "bike_id": "952796c775beaa29ec1444fdb216ef3c", "fusion_lat": 0.0, "lon": -77.01809766666666, "type": "electric_scooter", "fusion_lon": 0.0, "lat": 38.921609333333336}, {"rental_uris": {"android": "https://dc.lft.to/lastmile_qr_scan", "ios": "https://dc.lft.to/lastmile_qr_scan"}, "is_reserved": 0, "is_disabled": 0, "name": "fd386b152415814b67044ad9796acbd5", "bike_id": "fd386b152415814b67044ad9796acbd5", "fusion_lat": 0.0, "lon": -77.06829366666666, "type": "electric_scooter", "fusion_lon": 0.0, "lat": 38.9172435}, {"rental_uris": {"android": "https://dc.lft.to/lastmile_qr_scan", "ios": "https://dc.lft.to/lastmile_qr_scan"}, "is_reserved": 0, "is_disabled": 0, "name": "5dc386547084d9ae217d942ac7b15ee6", "bike_id": "5dc386547084d9ae217d942ac7b15ee6", "fusion_lat": 0.0, "lon": -77.07144333333333, "type": "electric_scooter", "fusion_lon": 0.0, "lat": 38.9126645}, {"rental_uris": {"android": "https://dc.lft.to/lastmile_qr_scan", "ios": "https://dc.lft.to/lastmile_qr_scan"}, "is_reserved": 0, "is_disabled": 0, "name": "e5fb6a7d3bd270e7b95c8a515ea02cf9", "bike_id": "e5fb6a7d3bd270e7b95c8a515ea02cf9", "fusion_lat": 0.0, "lon": -77.034604, "type": "electric_scooter", "fusion_lon": 0.0, "lat": 38.901412}, {"rental_uris": {"android": "https://dc.lft.to/lastmile_qr_scan", "ios": "https://dc.lft.to/lastmile_qr_scan"}, "is_reserved": 0, "is_disabled": 0, "name": "fd8de5e8fce40070c072b127d8bf8292", "bike_id": "fd8de5e8fce40070c072b127d8bf8292", "fusion_lat": 0.0, "lon": -77.020606, "type": "electric_scooter", "fusion_lon": 0.0, "lat": 38.923673}, {"rental_uris": {"android": "https://dc.lft.to/lastmile_qr_scan", "ios": "https://dc.lft.to/lastmile_qr_scan"}, "is_reserved": 0, "is_disabled": 0, "name": "061afb94717dc1e5ec8f9b369702465d", "bike_id": "061afb94717dc1e5ec8f9b369702465d", "fusion_lat": 0.0, "lon": -77.02408733333333, "type": "electric_scooter", "fusion_lon": 0.0, "lat": 38.9109995}, {"rental_uris": {"android": "https://dc.lft.to/lastmile_qr_scan", "ios": "https://dc.lft.to/lastmile_qr_scan"}, "is_reserved": 0, "is_disabled": 0, "name": "624a7a546d2e41cf73191c64e0d1915f", "bike_id": "624a7a546d2e41cf73191c64e0d1915f", "fusion_lat": 0.0, "lon": -77.0625175, "type": "electric_bike", "fusion_lon": 0.0, "lat": 38.80643166666667}, {"rental_uris": {"android": "https://dc.lft.to/lastmile_qr_scan", "ios": "https://dc.lft.to/lastmile_qr_scan"}, "is_reserved": 0, "is_disabled": 0, "name": "36388a325f954f0701e676bd2618b5fc", "bike_id": "36388a325f954f0701e676bd2618b5fc", "fusion_lat": 0.0, "lon": -77.0270375, "type": "electric_scooter", "fusion_lon": 0.0, "lat": 38.9007925}, {"rental_uris": {"android": "https://dc.lft.to/lastmile_qr_scan", "ios": "https://dc.lft.to/lastmile_qr_scan"}, "is_reserved": 0, "is_disabled": 0, "name": "29bc9e9afe6a3580cc733b843f7a5092", "bike_id": "29bc9e9afe6a3580cc733b843f7a5092", "fusion_lat": 0.0, "lon": -77.02176216666666, "type": "electric_scooter", "fusion_lon": 0.0, "lat": 38.9000665}, {"rental_uris": {"android": "https://dc.lft.to/lastmile_qr_scan", "ios": "https://dc.lft.to/lastmile_qr_scan"}, "is_reserved": 0, "is_disabled": 0, "name": "76074536d5f85cbb4d182877d2f31115", "bike_id": "76074536d5f85cbb4d182877d2f31115", "fusion_lat": 0.0, "lon": -76.97750616666667, "type": "electric_bike", "fusion_lon": 0.0, "lat": 38.864880666666664}, {"rental_uris": {"android": "https://dc.lft.to/lastmile_qr_scan", "ios": "https://dc.lft.to/lastmile_qr_scan"}, "is_reserved": 0, "is_disabled": 0, "name": "945b45953855a2b71ead796f569b5b33", "bike_id": "945b45953855a2b71ead796f569b5b33", "fusion_lat": 0.0, "lon": -77.0232335, "type": "electric_scooter", "fusion_lon": 0.0, "lat": 38.90196916666667}, {"rental_uris": {"android": "https://dc.lft.to/lastmile_qr_scan", "ios": "https://dc.lft.to/lastmile_qr_scan"}, "is_reserved": 0, "is_disabled": 0, "name": "229dcd7525b2f24e390a63d8454c71cc", "bike_id": "229dcd7525b2f24e390a63d8454c71cc", "fusion_lat": 0.0, "lon": -77.02818983333333, "type": "electric_scooter", "fusion_lon": 0.0, "lat": 38.90272133333333}, {"rental_uris": {"android": "https://dc.lft.to/lastmile_qr_scan", "ios": "https://dc.lft.to/lastmile_qr_scan"}, "is_reserved": 0, "is_disabled": 0, "name": "94930397176753dd73ffcf1ce974df67", "bike_id": "94930397176753dd73ffcf1ce974df67", "fusion_lat": 0.0, "lon": -77.032268, "type": "electric_scooter", "fusion_lon": 0.0, "lat": 38.89691333333333}, {"rental_uris": {"android": "https://dc.lft.to/lastmile_qr_scan", "ios": "https://dc.lft.to/lastmile_qr_scan"}, "is_reserved": 0, "is_disabled": 0, "name": "8147a0022b2ad7d006db869191639b14", "bike_id": "8147a0022b2ad7d006db869191639b14", "fusion_lat": 0.0, "lon": -77.01943783333333, "type": "electric_scooter", "fusion_lon": 0.0, "lat": 38.92331683333333}, {"rental_uris": {"android": "https://dc.lft.to/lastmile_qr_scan", "ios": "https://dc.lft.to/lastmile_qr_scan"}, "is_reserved": 0, "is_disabled": 0, "name": "1498707b16eb885db3644d66a45f55e9", "bike_id": "1498707b16eb885db3644d66a45f55e9", "fusion_lat": 0.0, "lon": -77.00797733333333, "type": "electric_scooter", "fusion_lon": 0.0, "lat": 38.92671333333333}, {"rental_uris": {"android": "https://dc.lft.to/lastmile_qr_scan", "ios": "https://dc.lft.to/lastmile_qr_scan"}, "is_reserved": 0, "is_disabled": 0, "name": "164764a3684840f4259b5847a0ffe35e", "bike_id": "164764a3684840f4259b5847a0ffe35e", "fusion_lat": 0.0, "lon": -77.07568866666666, "type": "electric_scooter", "fusion_lon": 0.0, "lat": 38.9075245}, {"rental_uris": {"android": "https://dc.lft.to/lastmile_qr_scan", "ios": "https://dc.lft.to/lastmile_qr_scan"}, "is_reserved": 0, "is_disabled": 0, "name": "1662d3165bd431d4ebb66b33248811f4", "bike_id": "1662d3165bd431d4ebb66b33248811f4", "fusion_lat": 0.0, "lon": -77.02153583333333, "type": "electric_scooter", "fusion_lon": 0.0, "lat": 38.924430666666666}, {"rental_uris": {"android": "https://dc.lft.to/lastmile_qr_scan", "ios": "https://dc.lft.to/lastmile_qr_scan"}, "is_reserved": 0, "is_disabled": 0, "name": "734ccc3f3dadc7665b349cad409fe415", "bike_id": "734ccc3f3dadc7665b349cad409fe415", "fusion_lat": 0.0, "lon": -77.04397033333333, "type": "electric_scooter", "fusion_lon": 0.0, "lat": 38.912222166666666}, {"rental_uris": {"android": "https://dc.lft.to/lastmile_qr_scan", "ios": "https://dc.lft.to/lastmile_qr_scan"}, "is_reserved": 0, "is_disabled": 0, "name": "b295d8631a142aa7e80bc60e7a120249", "bike_id": "b295d8631a142aa7e80bc60e7a120249", "fusion_lat": 0.0, "lon": -77.02755116666667, "type": "electric_scooter", "fusion_lon": 0.0, "lat": 38.95423616666667}, {"rental_uris": {"android": "https://dc.lft.to/lastmile_qr_scan", "ios": "https://dc.lft.to/lastmile_qr_scan"}, "is_reserved": 0, "is_disabled": 0, "name": "8e769bf18e40fbbea6348388c39fc4b2", "bike_id": "8e769bf18e40fbbea6348388c39fc4b2", "fusion_lat": 0.0, "lon": -77.0052915, "type": "electric_scooter", "fusion_lon": 0.0, "lat": 38.8747215}, {"rental_uris": {"android": "https://dc.lft.to/lastmile_qr_scan", "ios": "https://dc.lft.to/lastmile_qr_scan"}, "is_reserved": 0, "is_disabled": 0, "name": "bc0bba85971d467e500cdcc58d5d96b5", "bike_id": "bc0bba85971d467e500cdcc58d5d96b5", "fusion_lat": 0.0, "lon": -77.02817116666667, "type": "electric_scooter", "fusion_lon": 0.0, "lat": 38.914323833333334}, {"rental_uris": {"android": "https://dc.lft.to/lastmile_qr_scan", "ios": "https://dc.lft.to/lastmile_qr_scan"}, "is_reserved": 0, "is_disabled": 0, "name": "75289ccad29bf447997a34da1f40a5c0", "bike_id": "75289ccad29bf447997a34da1f40a5c0", "fusion_lat": 0.0, "lon": -77.02701483333334, "type": "electric_scooter", "fusion_lon": 0.0, "lat": 38.8998305}, {"rental_uris": {"android": "https://dc.lft.to/lastmile_qr_scan", "ios": "https://dc.lft.to/lastmile_qr_scan"}, "is_reserved": 0, "is_disabled": 0, "name": "63cf6595d37b9af954a41122da161caf", "bike_id": "63cf6595d37b9af954a41122da161caf", "fusion_lat": 0.0, "lon": -77.03451716666666, "type": "electric_scooter", "fusion_lon": 0.0, "lat": 38.9047065}, {"rental_uris": {"android": "https://dc.lft.to/lastmile_qr_scan", "ios": "https://dc.lft.to/lastmile_qr_scan"}, "is_reserved": 0, "is_disabled": 0, "name": "007f65ffac0277d1a1a7371baaccefd5", "bike_id": "007f65ffac0277d1a1a7371baaccefd5", "fusion_lat": 0.0, "lon": -77.02973183333333, "type": "electric_scooter", "fusion_lon": 0.0, "lat": 38.91685966666667}, {"rental_uris": {"android": "https://dc.lft.to/lastmile_qr_scan", "ios": "https://dc.lft.to/lastmile_qr_scan"}, "is_reserved": 0, "is_disabled": 0, "name": "b9de5a26fd84d96c90c5fdfe19ff8744", "bike_id": "b9de5a26fd84d96c90c5fdfe19ff8744", "fusion_lat": 0.0, "lon": -76.90748783333333, "type": "electric_bike", "fusion_lon": 0.0, "lat": 38.896266}, {"rental_uris": {"android": "https://dc.lft.to/lastmile_qr_scan", "ios": "https://dc.lft.to/lastmile_qr_scan"}, "is_reserved": 0, "is_disabled": 0, "name": "4b390fab8bc2e88d389539cffe396469", "bike_id": "4b390fab8bc2e88d389539cffe396469", "fusion_lat": 0.0, "lon": -77.02127966666667, "type": "electric_scooter", "fusion_lon": 0.0, "lat": 38.9020855}, {"rental_uris": {"android": "https://dc.lft.to/lastmile_qr_scan", "ios": "https://dc.lft.to/lastmile_qr_scan"}, "is_reserved": 0, "is_disabled": 0, "name": "e77eb7ab98a556e92e4e249fc611fcfa", "bike_id": "e77eb7ab98a556e92e4e249fc611fcfa", "fusion_lat": 0.0, "lon": -77.04637533333333, "type": "electric_scooter", "fusion_lon": 0.0, "lat": 38.8922285}, {"rental_uris": {"android": "https://dc.lft.to/lastmile_qr_scan", "ios": "https://dc.lft.to/lastmile_qr_scan"}, "is_reserved": 0, "is_disabled": 0, "name": "42980b985377cf1d47c0828c3166e9df", "bike_id": "42980b985377cf1d47c0828c3166e9df", "fusion_lat": 0.0, "lon": -77.02806183333334, "type": "electric_scooter", "fusion_lon": 0.0, "lat": 38.93079083333333}, {"rental_uris": {"android": "https://dc.lft.to/lastmile_qr_scan", "ios": "https://dc.lft.to/lastmile_qr_scan"}, "is_reserved": 0, "is_disabled": 0, "name": "369ca6ab34a4a30c3cebb9098151d8a5", "bike_id": "369ca6ab34a4a30c3cebb9098151d8a5", "fusion_lat": 0.0, "lon": -77.0092785, "type": "electric_scooter", "fusion_lon": 0.0, "lat": 38.9087095}, {"rental_uris": {"android": "https://dc.lft.to/lastmile_qr_scan", "ios": "https://dc.lft.to/lastmile_qr_scan"}, "is_reserved": 0, "is_disabled": 0, "name": "8488e9f1d8a292c37bfcdffa2e239fb3", "bike_id": "8488e9f1d8a292c37bfcdffa2e239fb3", "fusion_lat": 0.0, "lon": -77.01059333333333, "type": "electric_scooter", "fusion_lon": 0.0, "lat": 38.92136716666667}, {"rental_uris": {"android": "https://dc.lft.to/lastmile_qr_scan", "ios": "https://dc.lft.to/lastmile_qr_scan"}, "is_reserved": 0, "is_disabled": 0, "name": "bd56e8c184f7b591fa305f66768f48c4", "bike_id": "bd56e8c184f7b591fa305f66768f48c4", "fusion_lat": 0.0, "lon": -77.0451285, "type": "electric_scooter", "fusion_lon": 0.0, "lat": 38.912941000000004}, {"rental_uris": {"android": "https://dc.lft.to/lastmile_qr_scan", "ios": "https://dc.lft.to/lastmile_qr_scan"}, "is_reserved": 0, "is_disabled": 0, "name": "d582d8776d8cecf7a327033cb0f98710", "bike_id": "d582d8776d8cecf7a327033cb0f98710", "fusion_lat": 0.0, "lon": -77.0539635, "type": "electric_scooter", "fusion_lon": 0.0, "lat": 38.9015395}, {"rental_uris": {"android": "https://dc.lft.to/lastmile_qr_scan", "ios": "https://dc.lft.to/lastmile_qr_scan"}, "is_reserved": 0, "is_disabled": 0, "name": "0fd1e3990e4c1c3f96b814c369a98f57", "bike_id": "0fd1e3990e4c1c3f96b814c369a98f57", "fusion_lat": 0.0, "lon": -77.00302666666667, "type": "electric_scooter", "fusion_lon": 0.0, "lat": 38.87668683333333}, {"rental_uris": {"android": "https://dc.lft.to/lastmile_qr_scan", "ios": "https://dc.lft.to/lastmile_qr_scan"}, "is_reserved": 0, "is_disabled": 0, "name": "0187014de67cbb4ea9e6e991c6bbbf9c", "bike_id": "0187014de67cbb4ea9e6e991c6bbbf9c", "fusion_lat": 0.0, "lon": -76.96814633333334, "type": "electric_scooter", "fusion_lon": 0.0, "lat": 38.8471495}, {"rental_uris": {"android": "https://dc.lft.to/lastmile_qr_scan", "ios": "https://dc.lft.to/lastmile_qr_scan"}, "is_reserved": 0, "is_disabled": 0, "name": "0681845cafb22a3596ddaaf7b68e89a5", "bike_id": "0681845cafb22a3596ddaaf7b68e89a5", "fusion_lat": 0.0, "lon": -77.04972933333333, "type": "electric_scooter", "fusion_lon": 0.0, "lat": 38.90002783333333}, {"rental_uris": {"android": "https://dc.lft.to/lastmile_qr_scan", "ios": "https://dc.lft.to/lastmile_qr_scan"}, "is_reserved": 0, "is_disabled": 0, "name": "29b7de0d9dbdca3ddfaa39be73500c54", "bike_id": "29b7de0d9dbdca3ddfaa39be73500c54", "fusion_lat": 0.0, "lon": -77.234075, "type": "electric_bike", "fusion_lon": 0.0, "lat": 38.87578883333333}, {"rental_uris": {"android": "https://dc.lft.to/lastmile_qr_scan", "ios": "https://dc.lft.to/lastmile_qr_scan"}, "is_reserved": 0, "is_disabled": 0, "name": "293e739530400fa7eefaea964af5ba31", "bike_id": "293e739530400fa7eefaea964af5ba31", "fusion_lat": 0.0, "lon": -77.03037433333333, "type": "electric_scooter", "fusion_lon": 0.0, "lat": 38.90398883333334}, {"rental_uris": {"android": "https://dc.lft.to/lastmile_qr_scan", "ios": "https://dc.lft.to/lastmile_qr_scan"}, "is_reserved": 0, "is_disabled": 0, "name": "a93a16fbeb12a26b93fd169fb213c6de", "bike_id": "a93a16fbeb12a26b93fd169fb213c6de", "fusion_lat": 0.0, "lon": -77.06119433333333, "type": "electric_scooter", "fusion_lon": 0.0, "lat": 38.902275}, {"rental_uris": {"android": "https://dc.lft.to/lastmile_qr_scan", "ios": "https://dc.lft.to/lastmile_qr_scan"}, "is_reserved": 0, "is_disabled": 0, "name": "0bfb97f9b9586316924c73311d735c46", "bike_id": "0bfb97f9b9586316924c73311d735c46", "fusion_lat": 0.0, "lon": -76.97905616666667, "type": "electric_scooter", "fusion_lon": 0.0, "lat": 38.888628}, {"rental_uris": {"android": "https://dc.lft.to/lastmile_qr_scan", "ios": "https://dc.lft.to/lastmile_qr_scan"}, "is_reserved": 0, "is_disabled": 0, "name": "e15a03e6a7aa28ec5492f4c8bd0175f3", "bike_id": "e15a03e6a7aa28ec5492f4c8bd0175f3", "fusion_lat": 0.0, "lon": -77.0228755, "type": "electric_scooter", "fusion_lon": 0.0, "lat": 38.91693583333333}, {"rental_uris": {"android": "https://dc.lft.to/lastmile_qr_scan", "ios": "https://dc.lft.to/lastmile_qr_scan"}, "is_reserved": 0, "is_disabled": 0, "name": "0ead65995a25df7e21c048973b0b907b", "bike_id": "0ead65995a25df7e21c048973b0b907b", "fusion_lat": 0.0, "lon": -76.98843783333334, "type": "electric_scooter", "fusion_lon": 0.0, "lat": 38.90026833333334}, {"rental_uris": {"android": "https://dc.lft.to/lastmile_qr_scan", "ios": "https://dc.lft.to/lastmile_qr_scan"}, "is_reserved": 0, "is_disabled": 0, "name": "e7d87793364d3338ca8d1ed4c9f7d8e7", "bike_id": "e7d87793364d3338ca8d1ed4c9f7d8e7", "fusion_lat": 0.0, "lon": -77.041122, "type": "electric_scooter", "fusion_lon": 0.0, "lat": 38.90134916666667}, {"rental_uris": {"android": "https://dc.lft.to/lastmile_qr_scan", "ios": "https://dc.lft.to/lastmile_qr_scan"}, "is_reserved": 0, "is_disabled": 0, "name": "59b04d19ddff3518c795f22629e4af4d", "bike_id": "59b04d19ddff3518c795f22629e4af4d", "fusion_lat": 0.0, "lon": -77.0122765, "type": "electric_scooter", "fusion_lon": 0.0, "lat": 38.9140825}, {"rental_uris": {"android": "https://dc.lft.to/lastmile_qr_scan", "ios": "https://dc.lft.to/lastmile_qr_scan"}, "is_reserved": 0, "is_disabled": 0, "name": "ab23358b24468cd15b265e9caa1fefcf", "bike_id": "ab23358b24468cd15b265e9caa1fefcf", "fusion_lat": 0.0, "lon": -77.00824083333333, "type": "electric_scooter", "fusion_lon": 0.0, "lat": 38.876583833333335}, {"rental_uris": {"android": "https://dc.lft.to/lastmile_qr_scan", "ios": "https://dc.lft.to/lastmile_qr_scan"}, "is_reserved": 0, "is_disabled": 0, "name": "349e0507f7d6d6f9043bda35ac7fd516", "bike_id": "349e0507f7d6d6f9043bda35ac7fd516", "fusion_lat": 0.0, "lon": -77.046496, "type": "electric_scooter", "fusion_lon": 0.0, "lat": 38.9095405}, {"rental_uris": {"android": "https://dc.lft.to/lastmile_qr_scan", "ios": "https://dc.lft.to/lastmile_qr_scan"}, "is_reserved": 0, "is_disabled": 0, "name": "f890a894685ed7865e2e3c73afdfe636", "bike_id": "f890a894685ed7865e2e3c73afdfe636", "fusion_lat": 0.0, "lon": -77.0272075, "type": "electric_scooter", "fusion_lon": 0.0, "lat": 38.898633333333336}, {"rental_uris": {"android": "https://dc.lft.to/lastmile_qr_scan", "ios": "https://dc.lft.to/lastmile_qr_scan"}, "is_reserved": 0, "is_disabled": 0, "name": "a7638a55a4f2cdcce474b3b3d7ffc5cf", "bike_id": "a7638a55a4f2cdcce474b3b3d7ffc5cf", "fusion_lat": 0.0, "lon": -77.02404666666666, "type": "electric_scooter", "fusion_lon": 0.0, "lat": 38.901895833333334}, {"rental_uris": {"android": "https://dc.lft.to/lastmile_qr_scan", "ios": "https://dc.lft.to/lastmile_qr_scan"}, "is_reserved": 0, "is_disabled": 0, "name": "4811b822b1dad7375c73661478d43ecd", "bike_id": "4811b822b1dad7375c73661478d43ecd", "fusion_lat": 0.0, "lon": -76.988357, "type": "electric_scooter", "fusion_lon": 0.0, "lat": 38.90043}, {"rental_uris": {"android": "https://dc.lft.to/lastmile_qr_scan", "ios": "https://dc.lft.to/lastmile_qr_scan"}, "is_reserved": 0, "is_disabled": 0, "name": "3680476ee041324b335cf76901f9d9b9", "bike_id": "3680476ee041324b335cf76901f9d9b9", "fusion_lat": 0.0, "lon": -77.024948, "type": "electric_scooter", "fusion_lon": 0.0, "lat": 38.92603366666667}, {"rental_uris": {"android": "https://dc.lft.to/lastmile_qr_scan", "ios": "https://dc.lft.to/lastmile_qr_scan"}, "is_reserved": 0, "is_disabled": 0, "name": "f941d7953874f96c3816e6ca9f72d936", "bike_id": "f941d7953874f96c3816e6ca9f72d936", "fusion_lat": 0.0, "lon": -77.03203216666667, "type": "electric_scooter", "fusion_lon": 0.0, "lat": 38.892384666666665}, {"rental_uris": {"android": "https://dc.lft.to/lastmile_qr_scan", "ios": "https://dc.lft.to/lastmile_qr_scan"}, "is_reserved": 0, "is_disabled": 0, "name": "9ce0d036514719c19a70db8ad279a816", "bike_id": "9ce0d036514719c19a70db8ad279a816", "fusion_lat": 0.0, "lon": -77.06530916666667, "type": "electric_bike", "fusion_lon": 0.0, "lat": 38.992331166666666}, {"rental_uris": {"android": "https://dc.lft.to/lastmile_qr_scan", "ios": "https://dc.lft.to/lastmile_qr_scan"}, "is_reserved": 0, "is_disabled": 0, "name": "bcd31a8fd9d7cc246a9e7d3ad2b4a7f6", "bike_id": "bcd31a8fd9d7cc246a9e7d3ad2b4a7f6", "fusion_lat": 0.0, "lon": -77.0343545, "type": "electric_scooter", "fusion_lon": 0.0, "lat": 38.905453}, {"rental_uris": {"android": "https://dc.lft.to/lastmile_qr_scan", "ios": "https://dc.lft.to/lastmile_qr_scan"}, "is_reserved": 0, "is_disabled": 0, "name": "d11bf154b1d756dd89e6b69572e29f99", "bike_id": "d11bf154b1d756dd89e6b69572e29f99", "fusion_lat": 0.0, "lon": -77.02120133333334, "type": "electric_scooter", "fusion_lon": 0.0, "lat": 38.923655333333336}, {"rental_uris": {"android": "https://dc.lft.to/lastmile_qr_scan", "ios": "https://dc.lft.to/lastmile_qr_scan"}, "is_reserved": 0, "is_disabled": 0, "name": "b9b5a205d3b6a68591bb9cfbb9ab2c27", "bike_id": "b9b5a205d3b6a68591bb9cfbb9ab2c27", "fusion_lat": 0.0, "lon": -77.03321516666666, "type": "electric_scooter", "fusion_lon": 0.0, "lat": 38.90019566666667}, {"rental_uris": {"android": "https://dc.lft.to/lastmile_qr_scan", "ios": "https://dc.lft.to/lastmile_qr_scan"}, "is_reserved": 0, "is_disabled": 0, "name": "fbd81b1e2c449952f755fa2b9edbca4f", "bike_id": "fbd81b1e2c449952f755fa2b9edbca4f", "fusion_lat": 0.0, "lon": -77.0337115, "type": "electric_scooter", "fusion_lon": 0.0, "lat": 38.90275533333333}, {"rental_uris": {"android": "https://dc.lft.to/lastmile_qr_scan", "ios": "https://dc.lft.to/lastmile_qr_scan"}, "is_reserved": 0, "is_disabled": 0, "name": "88e5bd458a39a746484c2f804dd0ed47", "bike_id": "88e5bd458a39a746484c2f804dd0ed47", "fusion_lat": 0.0, "lon": -77.02693966666666, "type": "electric_scooter", "fusion_lon": 0.0, "lat": 38.949813}, {"rental_uris": {"android": "https://dc.lft.to/lastmile_qr_scan", "ios": "https://dc.lft.to/lastmile_qr_scan"}, "is_reserved": 0, "is_disabled": 0, "name": "acaf6402121714ee0f55874a7fcd1a95", "bike_id": "acaf6402121714ee0f55874a7fcd1a95", "fusion_lat": 0.0, "lon": -77.02063833333334, "type": "electric_scooter", "fusion_lon": 0.0, "lat": 38.927232833333335}, {"rental_uris": {"android": "https://dc.lft.to/lastmile_qr_scan", "ios": "https://dc.lft.to/lastmile_qr_scan"}, "is_reserved": 0, "is_disabled": 0, "name": "18e7f19039785bbde2653317736cdd40", "bike_id": "18e7f19039785bbde2653317736cdd40", "fusion_lat": 0.0, "lon": -77.03831716666667, "type": "electric_scooter", "fusion_lon": 0.0, "lat": 38.903353}, {"rental_uris": {"android": "https://dc.lft.to/lastmile_qr_scan", "ios": "https://dc.lft.to/lastmile_qr_scan"}, "is_reserved": 0, "is_disabled": 0, "name": "c78a917312dd53e6445642be4c7e4a82", "bike_id": "c78a917312dd53e6445642be4c7e4a82", "fusion_lat": 0.0, "lon": -77.02021616666667, "type": "electric_scooter", "fusion_lon": 0.0, "lat": 38.92416}, {"rental_uris": {"android": "https://dc.lft.to/lastmile_qr_scan", "ios": "https://dc.lft.to/lastmile_qr_scan"}, "is_reserved": 0, "is_disabled": 0, "name": "f80deea5a7eec0a1063eec44a8ecf599", "bike_id": "f80deea5a7eec0a1063eec44a8ecf599", "fusion_lat": 0.0, "lon": -77.03213166666667, "type": "electric_scooter", "fusion_lon": 0.0, "lat": 38.9161605}, {"rental_uris": {"android": "https://dc.lft.to/lastmile_qr_scan", "ios": "https://dc.lft.to/lastmile_qr_scan"}, "is_reserved": 0, "is_disabled": 0, "name": "80f3af9129182a9b75d01bf2b7f70ec5", "bike_id": "80f3af9129182a9b75d01bf2b7f70ec5", "fusion_lat": 0.0, "lon": -77.041733, "type": "electric_scooter", "fusion_lon": 0.0, "lat": 38.916038}, {"rental_uris": {"android": "https://dc.lft.to/lastmile_qr_scan", "ios": "https://dc.lft.to/lastmile_qr_scan"}, "is_reserved": 0, "is_disabled": 0, "name": "b5783b7e1222a9c62d8fb339a8566693", "bike_id": "b5783b7e1222a9c62d8fb339a8566693", "fusion_lat": 0.0, "lon": -77.02168083333333, "type": "electric_scooter", "fusion_lon": 0.0, "lat": 38.89645083333333}, {"rental_uris": {"android": "https://dc.lft.to/lastmile_qr_scan", "ios": "https://dc.lft.to/lastmile_qr_scan"}, "is_reserved": 0, "is_disabled": 0, "name": "996862c67fe140ea8554db401e5f80f4", "bike_id": "996862c67fe140ea8554db401e5f80f4", "fusion_lat": 0.0, "lon": -76.99505166666667, "type": "electric_scooter", "fusion_lon": 0.0, "lat": 38.8625245}, {"rental_uris": {"android": "https://dc.lft.to/lastmile_qr_scan", "ios": "https://dc.lft.to/lastmile_qr_scan"}, "is_reserved": 0, "is_disabled": 0, "name": "232847138673e7cb995350e0902265ea", "bike_id": "232847138673e7cb995350e0902265ea", "fusion_lat": 0.0, "lon": -77.051205, "type": "electric_scooter", "fusion_lon": 0.0, "lat": 38.9064205}, {"rental_uris": {"android": "https://dc.lft.to/lastmile_qr_scan", "ios": "https://dc.lft.to/lastmile_qr_scan"}, "is_reserved": 0, "is_disabled": 0, "name": "715fcfc33b2662d53561623923102954", "bike_id": "715fcfc33b2662d53561623923102954", "fusion_lat": 0.0, "lon": -77.03394416666667, "type": "electric_scooter", "fusion_lon": 0.0, "lat": 38.9418285}, {"rental_uris": {"android": "https://dc.lft.to/lastmile_qr_scan", "ios": "https://dc.lft.to/lastmile_qr_scan"}, "is_reserved": 0, "is_disabled": 0, "name": "726df0127d7d406bf07681533670cc96", "bike_id": "726df0127d7d406bf07681533670cc96", "fusion_lat": 0.0, "lon": -77.005716, "type": "electric_scooter", "fusion_lon": 0.0, "lat": 38.88506016666667}, {"rental_uris": {"android": "https://dc.lft.to/lastmile_qr_scan", "ios": "https://dc.lft.to/lastmile_qr_scan"}, "is_reserved": 0, "is_disabled": 0, "name": "c1898f2cfbd2c28554efdcb2618d9325", "bike_id": "c1898f2cfbd2c28554efdcb2618d9325", "fusion_lat": 0.0, "lon": -77.03153633333334, "type": "electric_scooter", "fusion_lon": 0.0, "lat": 38.927192833333336}, {"rental_uris": {"android": "https://dc.lft.to/lastmile_qr_scan", "ios": "https://dc.lft.to/lastmile_qr_scan"}, "is_reserved": 0, "is_disabled": 0, "name": "25f8122e6fab7a726e713e32eedfe970", "bike_id": "25f8122e6fab7a726e713e32eedfe970", "fusion_lat": 0.0, "lon": -77.04646283333334, "type": "electric_scooter", "fusion_lon": 0.0, "lat": 38.9004845}, {"rental_uris": {"android": "https://dc.lft.to/lastmile_qr_scan", "ios": "https://dc.lft.to/lastmile_qr_scan"}, "is_reserved": 0, "is_disabled": 0, "name": "377a1b59dd495eec072812ddb606f326", "bike_id": "377a1b59dd495eec072812ddb606f326", "fusion_lat": 0.0, "lon": -77.02143583333333, "type": "electric_scooter", "fusion_lon": 0.0, "lat": 38.90484883333333}, {"rental_uris": {"android": "https://dc.lft.to/lastmile_qr_scan", "ios": "https://dc.lft.to/lastmile_qr_scan"}, "is_reserved": 0, "is_disabled": 0, "name": "303eed4c087dff47b3dc0c74abf2939f", "bike_id": "303eed4c087dff47b3dc0c74abf2939f", "fusion_lat": 0.0, "lon": -77.04373533333333, "type": "electric_scooter", "fusion_lon": 0.0, "lat": 38.900311}, {"rental_uris": {"android": "https://dc.lft.to/lastmile_qr_scan", "ios": "https://dc.lft.to/lastmile_qr_scan"}, "is_reserved": 0, "is_disabled": 0, "name": "bddab4ad4ca9265ed1ce9189bd6479df", "bike_id": "bddab4ad4ca9265ed1ce9189bd6479df", "fusion_lat": 0.0, "lon": -77.03844716666667, "type": "electric_scooter", "fusion_lon": 0.0, "lat": 38.90282033333333}, {"rental_uris": {"android": "https://dc.lft.to/lastmile_qr_scan", "ios": "https://dc.lft.to/lastmile_qr_scan"}, "is_reserved": 0, "is_disabled": 0, "name": "eda7ade1c25581a2811b8c59fdb07b3f", "bike_id": "eda7ade1c25581a2811b8c59fdb07b3f", "fusion_lat": 0.0, "lon": -76.9905945, "type": "electric_bike", "fusion_lon": 0.0, "lat": 38.937633}, {"rental_uris": {"android": "https://dc.lft.to/lastmile_qr_scan", "ios": "https://dc.lft.to/lastmile_qr_scan"}, "is_reserved": 0, "is_disabled": 0, "name": "99f6593c2278f56fe435852f0be3e6c5", "bike_id": "99f6593c2278f56fe435852f0be3e6c5", "fusion_lat": 0.0, "lon": -76.94665116666667, "type": "electric_scooter", "fusion_lon": 0.0, "lat": 38.89871433333333}, {"rental_uris": {"android": "https://dc.lft.to/lastmile_qr_scan", "ios": "https://dc.lft.to/lastmile_qr_scan"}, "is_reserved": 0, "is_disabled": 0, "name": "28ceb076bc048fcdd2d390393078bcf4", "bike_id": "28ceb076bc048fcdd2d390393078bcf4", "fusion_lat": 0.0, "lon": -77.04861383333333, "type": "electric_scooter", "fusion_lon": 0.0, "lat": 38.89966666666667}, {"rental_uris": {"android": "https://dc.lft.to/lastmile_qr_scan", "ios": "https://dc.lft.to/lastmile_qr_scan"}, "is_reserved": 0, "is_disabled": 0, "name": "44a0f886f7857875096bb086dedc7c7c", "bike_id": "44a0f886f7857875096bb086dedc7c7c", "fusion_lat": 0.0, "lon": -77.03408483333334, "type": "electric_scooter", "fusion_lon": 0.0, "lat": 38.93087516666667}, {"rental_uris": {"android": "https://dc.lft.to/lastmile_qr_scan", "ios": "https://dc.lft.to/lastmile_qr_scan"}, "is_reserved": 0, "is_disabled": 0, "name": "8b08604307f109d449b96cfd30e420b2", "bike_id": "8b08604307f109d449b96cfd30e420b2", "fusion_lat": 0.0, "lon": -77.02472183333333, "type": "electric_scooter", "fusion_lon": 0.0, "lat": 38.91815583333333}, {"rental_uris": {"android": "https://dc.lft.to/lastmile_qr_scan", "ios": "https://dc.lft.to/lastmile_qr_scan"}, "is_reserved": 0, "is_disabled": 0, "name": "5b7db4d287e688860e64dd752fbd0848", "bike_id": "5b7db4d287e688860e64dd752fbd0848", "fusion_lat": 0.0, "lon": -76.98226183333334, "type": "electric_scooter", "fusion_lon": 0.0, "lat": 38.86890833333333}, {"rental_uris": {"android": "https://dc.lft.to/lastmile_qr_scan", "ios": "https://dc.lft.to/lastmile_qr_scan"}, "is_reserved": 0, "is_disabled": 0, "name": "5a9904853d05576ddcdb940afbf0960e", "bike_id": "5a9904853d05576ddcdb940afbf0960e", "fusion_lat": 0.0, "lon": -77.04099116666667, "type": "electric_scooter", "fusion_lon": 0.0, "lat": 38.9013325}, {"rental_uris": {"android": "https://dc.lft.to/lastmile_qr_scan", "ios": "https://dc.lft.to/lastmile_qr_scan"}, "is_reserved": 0, "is_disabled": 0, "name": "ca381de51e04ef184191f8f73a0f9eae", "bike_id": "ca381de51e04ef184191f8f73a0f9eae", "fusion_lat": 0.0, "lon": -76.974344, "type": "electric_bike", "fusion_lon": 0.0, "lat": 38.85589366666667}, {"rental_uris": {"android": "https://dc.lft.to/lastmile_qr_scan", "ios": "https://dc.lft.to/lastmile_qr_scan"}, "is_reserved": 0, "is_disabled": 0, "name": "0c0efd40337fecbb174d0711b1eaca8e", "bike_id": "0c0efd40337fecbb174d0711b1eaca8e", "fusion_lat": 0.0, "lon": -77.0212205, "type": "electric_scooter", "fusion_lon": 0.0, "lat": 38.923777666666666}, {"rental_uris": {"android": "https://dc.lft.to/lastmile_qr_scan", "ios": "https://dc.lft.to/lastmile_qr_scan"}, "is_reserved": 0, "is_disabled": 0, "name": "b5b00673a7c0df3be4bbc233ab4af09d", "bike_id": "b5b00673a7c0df3be4bbc233ab4af09d", "fusion_lat": 0.0, "lon": -77.046805, "type": "electric_scooter", "fusion_lon": 0.0, "lat": 38.899612166666664}, {"rental_uris": {"android": "https://dc.lft.to/lastmile_qr_scan", "ios": "https://dc.lft.to/lastmile_qr_scan"}, "is_reserved": 0, "is_disabled": 0, "name": "77c161489ba019e56db60d94ec6c3f5b", "bike_id": "77c161489ba019e56db60d94ec6c3f5b", "fusion_lat": 0.0, "lon": -77.0412595, "type": "electric_scooter", "fusion_lon": 0.0, "lat": 38.906194166666666}, {"rental_uris": {"android": "https://dc.lft.to/lastmile_qr_scan", "ios": "https://dc.lft.to/lastmile_qr_scan"}, "is_reserved": 0, "is_disabled": 0, "name": "f002da808cc3b996714029f665b803b6", "bike_id": "f002da808cc3b996714029f665b803b6", "fusion_lat": 0.0, "lon": -77.03425666666666, "type": "electric_scooter", "fusion_lon": 0.0, "lat": 38.90475633333333}, {"rental_uris": {"android": "https://dc.lft.to/lastmile_qr_scan", "ios": "https://dc.lft.to/lastmile_qr_scan"}, "is_reserved": 0, "is_disabled": 0, "name": "6b8a5cb723e4a66a35667dbf67225994", "bike_id": "6b8a5cb723e4a66a35667dbf67225994", "fusion_lat": 0.0, "lon": -77.07060066666666, "type": "electric_scooter", "fusion_lon": 0.0, "lat": 38.91940233333333}, {"rental_uris": {"android": "https://dc.lft.to/lastmile_qr_scan", "ios": "https://dc.lft.to/lastmile_qr_scan"}, "is_reserved": 0, "is_disabled": 0, "name": "dd5ff106d1039e4ab5ee8b38771db6a2", "bike_id": "dd5ff106d1039e4ab5ee8b38771db6a2", "fusion_lat": 0.0, "lon": -77.03172166666667, "type": "electric_scooter", "fusion_lon": 0.0, "lat": 38.91436783333333}, {"rental_uris": {"android": "https://dc.lft.to/lastmile_qr_scan", "ios": "https://dc.lft.to/lastmile_qr_scan"}, "is_reserved": 0, "is_disabled": 0, "name": "d902dadddde9c964613e86f8752f501b", "bike_id": "d902dadddde9c964613e86f8752f501b", "fusion_lat": 0.0, "lon": -77.02529283333334, "type": "electric_scooter", "fusion_lon": 0.0, "lat": 38.906560166666665}, {"rental_uris": {"android": "https://dc.lft.to/lastmile_qr_scan", "ios": "https://dc.lft.to/lastmile_qr_scan"}, "is_reserved": 0, "is_disabled": 0, "name": "09863bb46a8492ae9bd6addda19643b8", "bike_id": "09863bb46a8492ae9bd6addda19643b8", "fusion_lat": 0.0, "lon": -77.04015033333333, "type": "electric_scooter", "fusion_lon": 0.0, "lat": 38.915949499999996}, {"rental_uris": {"android": "https://dc.lft.to/lastmile_qr_scan", "ios": "https://dc.lft.to/lastmile_qr_scan"}, "is_reserved": 0, "is_disabled": 0, "name": "7859dac6d0bddff16aed7550c1a0b281", "bike_id": "7859dac6d0bddff16aed7550c1a0b281", "fusion_lat": 0.0, "lon": -77.040318, "type": "electric_scooter", "fusion_lon": 0.0, "lat": 38.918110166666665}, {"rental_uris": {"android": "https://dc.lft.to/lastmile_qr_scan", "ios": "https://dc.lft.to/lastmile_qr_scan"}, "is_reserved": 0, "is_disabled": 0, "name": "827332d65841ada1206e60319455e80b", "bike_id": "827332d65841ada1206e60319455e80b", "fusion_lat": 0.0, "lon": -77.01786783333333, "type": "electric_bike", "fusion_lon": 0.0, "lat": 38.901376666666664}, {"rental_uris": {"android": "https://dc.lft.to/lastmile_qr_scan", "ios": "https://dc.lft.to/lastmile_qr_scan"}, "is_reserved": 0, "is_disabled": 0, "name": "b1ec1f684a5e107cd32ab651f734fb4e", "bike_id": "b1ec1f684a5e107cd32ab651f734fb4e", "fusion_lat": 0.0, "lon": -77.02709566666667, "type": "electric_scooter", "fusion_lon": 0.0, "lat": 38.90669033333333}, {"rental_uris": {"android": "https://dc.lft.to/lastmile_qr_scan", "ios": "https://dc.lft.to/lastmile_qr_scan"}, "is_reserved": 0, "is_disabled": 0, "name": "5bf16c0465d2f4d6ccc542f55b109ed8", "bike_id": "5bf16c0465d2f4d6ccc542f55b109ed8", "fusion_lat": 0.0, "lon": -77.0212545, "type": "electric_scooter", "fusion_lon": 0.0, "lat": 38.9237975}, {"rental_uris": {"android": "https://dc.lft.to/lastmile_qr_scan", "ios": "https://dc.lft.to/lastmile_qr_scan"}, "is_reserved": 0, "is_disabled": 0, "name": "908ab69b94504e67560069a84f664f4e", "bike_id": "908ab69b94504e67560069a84f664f4e", "fusion_lat": 0.0, "lon": -77.02213433333333, "type": "electric_bike", "fusion_lon": 0.0, "lat": 38.96495016666667}, {"rental_uris": {"android": "https://dc.lft.to/lastmile_qr_scan", "ios": "https://dc.lft.to/lastmile_qr_scan"}, "is_reserved": 0, "is_disabled": 0, "name": "c74a327cc482190368f23eee26e4b392", "bike_id": "c74a327cc482190368f23eee26e4b392", "fusion_lat": 0.0, "lon": -77.02489266666667, "type": "electric_scooter", "fusion_lon": 0.0, "lat": 38.9175135}, {"rental_uris": {"android": "https://dc.lft.to/lastmile_qr_scan", "ios": "https://dc.lft.to/lastmile_qr_scan"}, "is_reserved": 0, "is_disabled": 0, "name": "e1ab5d1c911194fe407317a7686f69b1", "bike_id": "e1ab5d1c911194fe407317a7686f69b1", "fusion_lat": 0.0, "lon": -77.0167745, "type": "electric_scooter", "fusion_lon": 0.0, "lat": 38.92047083333333}, {"rental_uris": {"android": "https://dc.lft.to/lastmile_qr_scan", "ios": "https://dc.lft.to/lastmile_qr_scan"}, "is_reserved": 0, "is_disabled": 0, "name": "752e2a2cc154c1d8ba2519757fcbca23", "bike_id": "752e2a2cc154c1d8ba2519757fcbca23", "fusion_lat": 0.0, "lon": -76.98632316666666, "type": "electric_scooter", "fusion_lon": 0.0, "lat": 38.906708333333334}, {"rental_uris": {"android": "https://dc.lft.to/lastmile_qr_scan", "ios": "https://dc.lft.to/lastmile_qr_scan"}, "is_reserved": 0, "is_disabled": 0, "name": "7458a9f08a7d634083d4afe22a5e6c47", "bike_id": "7458a9f08a7d634083d4afe22a5e6c47", "fusion_lat": 0.0, "lon": -77.041182, "type": "electric_scooter", "fusion_lon": 0.0, "lat": 38.9061425}, {"rental_uris": {"android": "https://dc.lft.to/lastmile_qr_scan", "ios": "https://dc.lft.to/lastmile_qr_scan"}, "is_reserved": 0, "is_disabled": 0, "name": "3e917b7da33c6acdaf8a270b2c981021", "bike_id": "3e917b7da33c6acdaf8a270b2c981021", "fusion_lat": 0.0, "lon": -77.03628716666667, "type": "electric_scooter", "fusion_lon": 0.0, "lat": 38.90245866666667}, {"rental_uris": {"android": "https://dc.lft.to/lastmile_qr_scan", "ios": "https://dc.lft.to/lastmile_qr_scan"}, "is_reserved": 0, "is_disabled": 0, "name": "54dbcab58d3f8e1461f4590302fdabb6", "bike_id": "54dbcab58d3f8e1461f4590302fdabb6", "fusion_lat": 0.0, "lon": -76.983341, "type": "electric_scooter", "fusion_lon": 0.0, "lat": 38.89550533333333}, {"rental_uris": {"android": "https://dc.lft.to/lastmile_qr_scan", "ios": "https://dc.lft.to/lastmile_qr_scan"}, "is_reserved": 0, "is_disabled": 0, "name": "206df80785080bb4ca0cb2a7859638b1", "bike_id": "206df80785080bb4ca0cb2a7859638b1", "fusion_lat": 0.0, "lon": -77.03641266666666, "type": "electric_scooter", "fusion_lon": 0.0, "lat": 38.918000666666664}, {"rental_uris": {"android": "https://dc.lft.to/lastmile_qr_scan", "ios": "https://dc.lft.to/lastmile_qr_scan"}, "is_reserved": 0, "is_disabled": 0, "name": "0624977dbb1be07fc6e5ce7f69949b25", "bike_id": "0624977dbb1be07fc6e5ce7f69949b25", "fusion_lat": 0.0, "lon": -77.02279616666667, "type": "electric_scooter", "fusion_lon": 0.0, "lat": 38.899881666666666}, {"rental_uris": {"android": "https://dc.lft.to/lastmile_qr_scan", "ios": "https://dc.lft.to/lastmile_qr_scan"}, "is_reserved": 0, "is_disabled": 0, "name": "34096646b4af86e6d674709202fb6d22", "bike_id": "34096646b4af86e6d674709202fb6d22", "fusion_lat": 0.0, "lon": -77.025006, "type": "electric_scooter", "fusion_lon": 0.0, "lat": 38.88032533333333}, {"rental_uris": {"android": "https://dc.lft.to/lastmile_qr_scan", "ios": "https://dc.lft.to/lastmile_qr_scan"}, "is_reserved": 0, "is_disabled": 0, "name": "2f0e2cc5af08815bf60ff4b912a145f0", "bike_id": "2f0e2cc5af08815bf60ff4b912a145f0", "fusion_lat": 0.0, "lon": -77.0055775, "type": "electric_scooter", "fusion_lon": 0.0, "lat": 38.906507500000004}, {"rental_uris": {"android": "https://dc.lft.to/lastmile_qr_scan", "ios": "https://dc.lft.to/lastmile_qr_scan"}, "is_reserved": 0, "is_disabled": 0, "name": "a78b0ef99b7bc184c10fc6c7ec7efb67", "bike_id": "a78b0ef99b7bc184c10fc6c7ec7efb67", "fusion_lat": 0.0, "lon": -76.97958066666666, "type": "electric_scooter", "fusion_lon": 0.0, "lat": 38.89795516666667}, {"rental_uris": {"android": "https://dc.lft.to/lastmile_qr_scan", "ios": "https://dc.lft.to/lastmile_qr_scan"}, "is_reserved": 0, "is_disabled": 0, "name": "ff9e666ec1d534a30ccf0353cc29ae7c", "bike_id": "ff9e666ec1d534a30ccf0353cc29ae7c", "fusion_lat": 0.0, "lon": -77.00761866666667, "type": "electric_scooter", "fusion_lon": 0.0, "lat": 38.909565}, {"rental_uris": {"android": "https://dc.lft.to/lastmile_qr_scan", "ios": "https://dc.lft.to/lastmile_qr_scan"}, "is_reserved": 0, "is_disabled": 0, "name": "f95036a94ee7acbe3363d2d684aedd79", "bike_id": "f95036a94ee7acbe3363d2d684aedd79", "fusion_lat": 0.0, "lon": -77.04047233333333, "type": "electric_scooter", "fusion_lon": 0.0, "lat": 38.9060025}, {"rental_uris": {"android": "https://dc.lft.to/lastmile_qr_scan", "ios": "https://dc.lft.to/lastmile_qr_scan"}, "is_reserved": 0, "is_disabled": 0, "name": "1f28ee645b0ff770f640aee6413b6549", "bike_id": "1f28ee645b0ff770f640aee6413b6549", "fusion_lat": 0.0, "lon": -76.98798933333333, "type": "electric_scooter", "fusion_lon": 0.0, "lat": 38.893621333333336}, {"rental_uris": {"android": "https://dc.lft.to/lastmile_qr_scan", "ios": "https://dc.lft.to/lastmile_qr_scan"}, "is_reserved": 0, "is_disabled": 0, "name": "369546f6159342b0fb94c2bbdbcdefae", "bike_id": "369546f6159342b0fb94c2bbdbcdefae", "fusion_lat": 0.0, "lon": -77.02721233333334, "type": "electric_scooter", "fusion_lon": 0.0, "lat": 38.952141166666664}, {"rental_uris": {"android": "https://dc.lft.to/lastmile_qr_scan", "ios": "https://dc.lft.to/lastmile_qr_scan"}, "is_reserved": 0, "is_disabled": 0, "name": "976e8507e84b760efd425a88769f5221", "bike_id": "976e8507e84b760efd425a88769f5221", "fusion_lat": 0.0, "lon": -77.022294, "type": "electric_scooter", "fusion_lon": 0.0, "lat": 38.91263083333333}, {"rental_uris": {"android": "https://dc.lft.to/lastmile_qr_scan", "ios": "https://dc.lft.to/lastmile_qr_scan"}, "is_reserved": 0, "is_disabled": 0, "name": "dc9342a596697d59a445431f82ebdaab", "bike_id": "dc9342a596697d59a445431f82ebdaab", "fusion_lat": 0.0, "lon": -77.0463875, "type": "electric_bike", "fusion_lon": 0.0, "lat": 38.8154515}, {"rental_uris": {"android": "https://dc.lft.to/lastmile_qr_scan", "ios": "https://dc.lft.to/lastmile_qr_scan"}, "is_reserved": 0, "is_disabled": 0, "name": "9143a81db0185e9460c0e781e8bb17af", "bike_id": "9143a81db0185e9460c0e781e8bb17af", "fusion_lat": 0.0, "lon": -76.98542233333333, "type": "electric_scooter", "fusion_lon": 0.0, "lat": 38.880003333333335}, {"rental_uris": {"android": "https://dc.lft.to/lastmile_qr_scan", "ios": "https://dc.lft.to/lastmile_qr_scan"}, "is_reserved": 0, "is_disabled": 0, "name": "6e2885b8a74c4025ca441839a0e9aa19", "bike_id": "6e2885b8a74c4025ca441839a0e9aa19", "fusion_lat": 0.0, "lon": -77.04449416666667, "type": "electric_scooter", "fusion_lon": 0.0, "lat": 38.90283}, {"rental_uris": {"android": "https://dc.lft.to/lastmile_qr_scan", "ios": "https://dc.lft.to/lastmile_qr_scan"}, "is_reserved": 0, "is_disabled": 0, "name": "f002bd0cac06cefd539ddce81b541221", "bike_id": "f002bd0cac06cefd539ddce81b541221", "fusion_lat": 0.0, "lon": -76.99517616666667, "type": "electric_scooter", "fusion_lon": 0.0, "lat": 38.88379183333333}, {"rental_uris": {"android": "https://dc.lft.to/lastmile_qr_scan", "ios": "https://dc.lft.to/lastmile_qr_scan"}, "is_reserved": 0, "is_disabled": 0, "name": "427d506ce85ad27be5d4161175f169ba", "bike_id": "427d506ce85ad27be5d4161175f169ba", "fusion_lat": 0.0, "lon": -77.02692, "type": "electric_scooter", "fusion_lon": 0.0, "lat": 38.902505}, {"rental_uris": {"android": "https://dc.lft.to/lastmile_qr_scan", "ios": "https://dc.lft.to/lastmile_qr_scan"}, "is_reserved": 0, "is_disabled": 0, "name": "d95328117629daf02e8826795f4ee392", "bike_id": "d95328117629daf02e8826795f4ee392", "fusion_lat": 0.0, "lon": -77.01411816666666, "type": "electric_scooter", "fusion_lon": 0.0, "lat": 38.928171166666665}, {"rental_uris": {"android": "https://dc.lft.to/lastmile_qr_scan", "ios": "https://dc.lft.to/lastmile_qr_scan"}, "is_reserved": 0, "is_disabled": 0, "name": "257c99086903fadc479e1b26cc56e3bb", "bike_id": "257c99086903fadc479e1b26cc56e3bb", "fusion_lat": 0.0, "lon": -77.0190545, "type": "electric_scooter", "fusion_lon": 0.0, "lat": 38.921837333333336}, {"rental_uris": {"android": "https://dc.lft.to/lastmile_qr_scan", "ios": "https://dc.lft.to/lastmile_qr_scan"}, "is_reserved": 0, "is_disabled": 0, "name": "b209f7a5cd8e5a1a76e0b41ce9b35dc6", "bike_id": "b209f7a5cd8e5a1a76e0b41ce9b35dc6", "fusion_lat": 0.0, "lon": -77.03949466666667, "type": "electric_scooter", "fusion_lon": 0.0, "lat": 38.908403166666666}, {"rental_uris": {"android": "https://dc.lft.to/lastmile_qr_scan", "ios": "https://dc.lft.to/lastmile_qr_scan"}, "is_reserved": 0, "is_disabled": 0, "name": "e1ff489db703eba553129e17b83c2aed", "bike_id": "e1ff489db703eba553129e17b83c2aed", "fusion_lat": 0.0, "lon": -77.00481983333333, "type": "electric_scooter", "fusion_lon": 0.0, "lat": 38.874592}, {"rental_uris": {"android": "https://dc.lft.to/lastmile_qr_scan", "ios": "https://dc.lft.to/lastmile_qr_scan"}, "is_reserved": 0, "is_disabled": 0, "name": "fecd86d38a01e21632f2f392c5c4aa9d", "bike_id": "fecd86d38a01e21632f2f392c5c4aa9d", "fusion_lat": 0.0, "lon": -77.02719583333334, "type": "electric_scooter", "fusion_lon": 0.0, "lat": 38.9068625}, {"rental_uris": {"android": "https://dc.lft.to/lastmile_qr_scan", "ios": "https://dc.lft.to/lastmile_qr_scan"}, "is_reserved": 0, "is_disabled": 0, "name": "73002b51231a056bbeb171ce3ba619b8", "bike_id": "73002b51231a056bbeb171ce3ba619b8", "fusion_lat": 0.0, "lon": -77.04351716666666, "type": "electric_bike", "fusion_lon": 0.0, "lat": 38.895154166666664}, {"rental_uris": {"android": "https://dc.lft.to/lastmile_qr_scan", "ios": "https://dc.lft.to/lastmile_qr_scan"}, "is_reserved": 0, "is_disabled": 0, "name": "2cd1e9e7071f9737745e8cb00eeecb5e", "bike_id": "2cd1e9e7071f9737745e8cb00eeecb5e", "fusion_lat": 0.0, "lon": -77.02652033333334, "type": "electric_scooter", "fusion_lon": 0.0, "lat": 38.93874566666667}, {"rental_uris": {"android": "https://dc.lft.to/lastmile_qr_scan", "ios": "https://dc.lft.to/lastmile_qr_scan"}, "is_reserved": 0, "is_disabled": 0, "name": "198ae347c2996eccd6f7dd1a2c149c6b", "bike_id": "198ae347c2996eccd6f7dd1a2c149c6b", "fusion_lat": 0.0, "lon": -76.97720316666667, "type": "electric_scooter", "fusion_lon": 0.0, "lat": 38.888210666666666}, {"rental_uris": {"android": "https://dc.lft.to/lastmile_qr_scan", "ios": "https://dc.lft.to/lastmile_qr_scan"}, "is_reserved": 0, "is_disabled": 0, "name": "2dffca86e0888ee7b1d5a74cb1093834", "bike_id": "2dffca86e0888ee7b1d5a74cb1093834", "fusion_lat": 0.0, "lon": -77.04994916666666, "type": "electric_scooter", "fusion_lon": 0.0, "lat": 38.89847233333333}, {"rental_uris": {"android": "https://dc.lft.to/lastmile_qr_scan", "ios": "https://dc.lft.to/lastmile_qr_scan"}, "is_reserved": 0, "is_disabled": 0, "name": "15429924088f37a28f30a37204afba92", "bike_id": "15429924088f37a28f30a37204afba92", "fusion_lat": 0.0, "lon": -77.02720066666667, "type": "electric_scooter", "fusion_lon": 0.0, "lat": 38.94089916666667}, {"rental_uris": {"android": "https://dc.lft.to/lastmile_qr_scan", "ios": "https://dc.lft.to/lastmile_qr_scan"}, "is_reserved": 0, "is_disabled": 0, "name": "37854c5505186a702268f92e853bd241", "bike_id": "37854c5505186a702268f92e853bd241", "fusion_lat": 0.0, "lon": -77.04226916666667, "type": "electric_scooter", "fusion_lon": 0.0, "lat": 38.899946166666666}, {"rental_uris": {"android": "https://dc.lft.to/lastmile_qr_scan", "ios": "https://dc.lft.to/lastmile_qr_scan"}, "is_reserved": 0, "is_disabled": 0, "name": "9d7727e3521458ec5fc004162eb5b05a", "bike_id": "9d7727e3521458ec5fc004162eb5b05a", "fusion_lat": 0.0, "lon": -77.03046533333334, "type": "electric_scooter", "fusion_lon": 0.0, "lat": 38.912597}, {"rental_uris": {"android": "https://dc.lft.to/lastmile_qr_scan", "ios": "https://dc.lft.to/lastmile_qr_scan"}, "is_reserved": 0, "is_disabled": 0, "name": "f0aaa8273c6414acd1c635818adb73d2", "bike_id": "f0aaa8273c6414acd1c635818adb73d2", "fusion_lat": 0.0, "lon": -77.043481, "type": "electric_scooter", "fusion_lon": 0.0, "lat": 38.89890316666666}, {"rental_uris": {"android": "https://dc.lft.to/lastmile_qr_scan", "ios": "https://dc.lft.to/lastmile_qr_scan"}, "is_reserved": 0, "is_disabled": 0, "name": "d27f831eb542df2fce1eb1124c5da7a2", "bike_id": "d27f831eb542df2fce1eb1124c5da7a2", "fusion_lat": 0.0, "lon": -77.0233475, "type": "electric_scooter", "fusion_lon": 0.0, "lat": 38.88141783333333}, {"rental_uris": {"android": "https://dc.lft.to/lastmile_qr_scan", "ios": "https://dc.lft.to/lastmile_qr_scan"}, "is_reserved": 0, "is_disabled": 0, "name": "d0013132c1e33ac9ac622e1a9f908bb4", "bike_id": "d0013132c1e33ac9ac622e1a9f908bb4", "fusion_lat": 0.0, "lon": -77.05888333333333, "type": "electric_scooter", "fusion_lon": 0.0, "lat": 38.936087}, {"rental_uris": {"android": "https://dc.lft.to/lastmile_qr_scan", "ios": "https://dc.lft.to/lastmile_qr_scan"}, "is_reserved": 0, "is_disabled": 0, "name": "8350f0b6a7620a5df11d163eff84aad1", "bike_id": "8350f0b6a7620a5df11d163eff84aad1", "fusion_lat": 0.0, "lon": -76.98356483333333, "type": "electric_scooter", "fusion_lon": 0.0, "lat": 38.887350166666664}, {"rental_uris": {"android": "https://dc.lft.to/lastmile_qr_scan", "ios": "https://dc.lft.to/lastmile_qr_scan"}, "is_reserved": 0, "is_disabled": 0, "name": "8b94f513828a205b8ee488334fe68995", "bike_id": "8b94f513828a205b8ee488334fe68995", "fusion_lat": 0.0, "lon": -77.045665, "type": "electric_scooter", "fusion_lon": 0.0, "lat": 38.9006985}, {"rental_uris": {"android": "https://dc.lft.to/lastmile_qr_scan", "ios": "https://dc.lft.to/lastmile_qr_scan"}, "is_reserved": 0, "is_disabled": 0, "name": "c61ae20ae701d67621cb1f5cc323fd59", "bike_id": "c61ae20ae701d67621cb1f5cc323fd59", "fusion_lat": 0.0, "lon": -77.04405766666666, "type": "electric_scooter", "fusion_lon": 0.0, "lat": 38.929519}, {"rental_uris": {"android": "https://dc.lft.to/lastmile_qr_scan", "ios": "https://dc.lft.to/lastmile_qr_scan"}, "is_reserved": 0, "is_disabled": 0, "name": "10e0421a21c2fd22cb0304ae1743bf15", "bike_id": "10e0421a21c2fd22cb0304ae1743bf15", "fusion_lat": 0.0, "lon": -77.03011233333334, "type": "electric_bike", "fusion_lon": 0.0, "lat": 38.90023566666667}, {"rental_uris": {"android": "https://dc.lft.to/lastmile_qr_scan", "ios": "https://dc.lft.to/lastmile_qr_scan"}, "is_reserved": 0, "is_disabled": 0, "name": "18f0ea2b5324c45f66c0b03a490e64c4", "bike_id": "18f0ea2b5324c45f66c0b03a490e64c4", "fusion_lat": 0.0, "lon": -77.03660266666667, "type": "electric_scooter", "fusion_lon": 0.0, "lat": 38.90332183333334}, {"rental_uris": {"android": "https://dc.lft.to/lastmile_qr_scan", "ios": "https://dc.lft.to/lastmile_qr_scan"}, "is_reserved": 0, "is_disabled": 0, "name": "fc9e237e2f5336acf7397f8255e029e0", "bike_id": "fc9e237e2f5336acf7397f8255e029e0", "fusion_lat": 0.0, "lon": -77.03338333333333, "type": "electric_scooter", "fusion_lon": 0.0, "lat": 38.89897366666667}, {"rental_uris": {"android": "https://dc.lft.to/lastmile_qr_scan", "ios": "https://dc.lft.to/lastmile_qr_scan"}, "is_reserved": 0, "is_disabled": 0, "name": "96ddc8f2dedac30bd2490c5c223db4a1", "bike_id": "96ddc8f2dedac30bd2490c5c223db4a1", "fusion_lat": 0.0, "lon": -77.05927166666666, "type": "electric_scooter", "fusion_lon": 0.0, "lat": 38.90163483333333}, {"rental_uris": {"android": "https://dc.lft.to/lastmile_qr_scan", "ios": "https://dc.lft.to/lastmile_qr_scan"}, "is_reserved": 0, "is_disabled": 0, "name": "64256a868c3dbdfcdcfcbe51eccf8c43", "bike_id": "64256a868c3dbdfcdcfcbe51eccf8c43", "fusion_lat": 0.0, "lon": -77.06294516666667, "type": "electric_scooter", "fusion_lon": 0.0, "lat": 38.90397016666667}, {"rental_uris": {"android": "https://dc.lft.to/lastmile_qr_scan", "ios": "https://dc.lft.to/lastmile_qr_scan"}, "is_reserved": 0, "is_disabled": 0, "name": "d74c8403fbf4a7442a96fb7ab47b962f", "bike_id": "d74c8403fbf4a7442a96fb7ab47b962f", "fusion_lat": 0.0, "lon": -77.00913966666667, "type": "electric_scooter", "fusion_lon": 0.0, "lat": 38.89549266666667}, {"rental_uris": {"android": "https://dc.lft.to/lastmile_qr_scan", "ios": "https://dc.lft.to/lastmile_qr_scan"}, "is_reserved": 0, "is_disabled": 0, "name": "4e9445a4f37805438e7f68d662359e86", "bike_id": "4e9445a4f37805438e7f68d662359e86", "fusion_lat": 0.0, "lon": -76.983587, "type": "electric_scooter", "fusion_lon": 0.0, "lat": 38.89722233333333}, {"rental_uris": {"android": "https://dc.lft.to/lastmile_qr_scan", "ios": "https://dc.lft.to/lastmile_qr_scan"}, "is_reserved": 0, "is_disabled": 0, "name": "8a14f73c89bf92721f828e52b8f7a081", "bike_id": "8a14f73c89bf92721f828e52b8f7a081", "fusion_lat": 0.0, "lon": -77.0445435, "type": "electric_scooter", "fusion_lon": 0.0, "lat": 38.911193833333336}, {"rental_uris": {"android": "https://dc.lft.to/lastmile_qr_scan", "ios": "https://dc.lft.to/lastmile_qr_scan"}, "is_reserved": 0, "is_disabled": 0, "name": "e5b8f77f132c02d281f0ecead372375b", "bike_id": "e5b8f77f132c02d281f0ecead372375b", "fusion_lat": 0.0, "lon": -77.00715466666666, "type": "electric_scooter", "fusion_lon": 0.0, "lat": 38.91188016666667}, {"rental_uris": {"android": "https://dc.lft.to/lastmile_qr_scan", "ios": "https://dc.lft.to/lastmile_qr_scan"}, "is_reserved": 0, "is_disabled": 0, "name": "316ffd119cb62f2003c3db0566b7742d", "bike_id": "316ffd119cb62f2003c3db0566b7742d", "fusion_lat": 0.0, "lon": -77.01677983333333, "type": "electric_scooter", "fusion_lon": 0.0, "lat": 38.920456333333334}, {"rental_uris": {"android": "https://dc.lft.to/lastmile_qr_scan", "ios": "https://dc.lft.to/lastmile_qr_scan"}, "is_reserved": 0, "is_disabled": 0, "name": "5abf625ef4a7e5058018901ef7fb3c17", "bike_id": "5abf625ef4a7e5058018901ef7fb3c17", "fusion_lat": 0.0, "lon": -77.003402, "type": "electric_scooter", "fusion_lon": 0.0, "lat": 38.8935765}, {"rental_uris": {"android": "https://dc.lft.to/lastmile_qr_scan", "ios": "https://dc.lft.to/lastmile_qr_scan"}, "is_reserved": 0, "is_disabled": 0, "name": "d73a0ce95349bf7d97751a0c9cb6835f", "bike_id": "d73a0ce95349bf7d97751a0c9cb6835f", "fusion_lat": 0.0, "lon": -77.03130466666667, "type": "electric_scooter", "fusion_lon": 0.0, "lat": 38.92252666666667}, {"rental_uris": {"android": "https://dc.lft.to/lastmile_qr_scan", "ios": "https://dc.lft.to/lastmile_qr_scan"}, "is_reserved": 0, "is_disabled": 0, "name": "6181791d09afbad0e7deb33e49be6f72", "bike_id": "6181791d09afbad0e7deb33e49be6f72", "fusion_lat": 0.0, "lon": -77.0176735, "type": "electric_scooter", "fusion_lon": 0.0, "lat": 38.87702016666667}, {"rental_uris": {"android": "https://dc.lft.to/lastmile_qr_scan", "ios": "https://dc.lft.to/lastmile_qr_scan"}, "is_reserved": 0, "is_disabled": 0, "name": "8611d004c50b94940d44c34644c776fb", "bike_id": "8611d004c50b94940d44c34644c776fb", "fusion_lat": 0.0, "lon": -77.01628433333333, "type": "electric_scooter", "fusion_lon": 0.0, "lat": 38.8875765}, {"rental_uris": {"android": "https://dc.lft.to/lastmile_qr_scan", "ios": "https://dc.lft.to/lastmile_qr_scan"}, "is_reserved": 0, "is_disabled": 0, "name": "4bf7d82a88b0ea651f220a8928131869", "bike_id": "4bf7d82a88b0ea651f220a8928131869", "fusion_lat": 0.0, "lon": -76.95367933333333, "type": "electric_scooter", "fusion_lon": 0.0, "lat": 38.88955283333333}, {"rental_uris": {"android": "https://dc.lft.to/lastmile_qr_scan", "ios": "https://dc.lft.to/lastmile_qr_scan"}, "is_reserved": 0, "is_disabled": 0, "name": "650fe3825cb1bf0f44248361c95d5be4", "bike_id": "650fe3825cb1bf0f44248361c95d5be4", "fusion_lat": 0.0, "lon": -76.99563333333333, "type": "electric_scooter", "fusion_lon": 0.0, "lat": 38.9200985}, {"rental_uris": {"android": "https://dc.lft.to/lastmile_qr_scan", "ios": "https://dc.lft.to/lastmile_qr_scan"}, "is_reserved": 0, "is_disabled": 0, "name": "9e1c62b77894044be7fe4274a83f65a3", "bike_id": "9e1c62b77894044be7fe4274a83f65a3", "fusion_lat": 0.0, "lon": -77.03941733333333, "type": "electric_scooter", "fusion_lon": 0.0, "lat": 38.9081955}, {"rental_uris": {"android": "https://dc.lft.to/lastmile_qr_scan", "ios": "https://dc.lft.to/lastmile_qr_scan"}, "is_reserved": 0, "is_disabled": 0, "name": "3a1123c1570fd86e6fe48cd12eac636c", "bike_id": "3a1123c1570fd86e6fe48cd12eac636c", "fusion_lat": 0.0, "lon": -77.02785216666666, "type": "electric_scooter", "fusion_lon": 0.0, "lat": 38.961678166666665}, {"rental_uris": {"android": "https://dc.lft.to/lastmile_qr_scan", "ios": "https://dc.lft.to/lastmile_qr_scan"}, "is_reserved": 0, "is_disabled": 0, "name": "738128e7b9f689eed31f0cd6d61f952f", "bike_id": "738128e7b9f689eed31f0cd6d61f952f", "fusion_lat": 0.0, "lon": -77.01815483333333, "type": "electric_scooter", "fusion_lon": 0.0, "lat": 38.91406}, {"rental_uris": {"android": "https://dc.lft.to/lastmile_qr_scan", "ios": "https://dc.lft.to/lastmile_qr_scan"}, "is_reserved": 0, "is_disabled": 0, "name": "f2028b3fdaa441baf27837b857b09e1e", "bike_id": "f2028b3fdaa441baf27837b857b09e1e", "fusion_lat": 0.0, "lon": -77.043278, "type": "electric_scooter", "fusion_lon": 0.0, "lat": 38.90436666666667}, {"rental_uris": {"android": "https://dc.lft.to/lastmile_qr_scan", "ios": "https://dc.lft.to/lastmile_qr_scan"}, "is_reserved": 0, "is_disabled": 0, "name": "710c00db3c14afd0bb0e69f3d37bb05a", "bike_id": "710c00db3c14afd0bb0e69f3d37bb05a", "fusion_lat": 0.0, "lon": -77.04676583333334, "type": "electric_scooter", "fusion_lon": 0.0, "lat": 38.895636333333336}, {"rental_uris": {"android": "https://dc.lft.to/lastmile_qr_scan", "ios": "https://dc.lft.to/lastmile_qr_scan"}, "is_reserved": 0, "is_disabled": 0, "name": "4a4d764b01fe79ae58e92b517e77c0ac", "bike_id": "4a4d764b01fe79ae58e92b517e77c0ac", "fusion_lat": 0.0, "lon": -76.97341983333334, "type": "electric_bike", "fusion_lon": 0.0, "lat": 38.86570716666667}, {"rental_uris": {"android": "https://dc.lft.to/lastmile_qr_scan", "ios": "https://dc.lft.to/lastmile_qr_scan"}, "is_reserved": 0, "is_disabled": 0, "name": "990d5afb3c20cfbce576863a7ad77200", "bike_id": "990d5afb3c20cfbce576863a7ad77200", "fusion_lat": 0.0, "lon": -77.02795966666666, "type": "electric_scooter", "fusion_lon": 0.0, "lat": 38.892333666666666}, {"rental_uris": {"android": "https://dc.lft.to/lastmile_qr_scan", "ios": "https://dc.lft.to/lastmile_qr_scan"}, "is_reserved": 0, "is_disabled": 0, "name": "03abfccd9e32bb3c0d745bbeba661501", "bike_id": "03abfccd9e32bb3c0d745bbeba661501", "fusion_lat": 0.0, "lon": -77.02728766666667, "type": "electric_scooter", "fusion_lon": 0.0, "lat": 38.93465066666667}, {"rental_uris": {"android": "https://dc.lft.to/lastmile_qr_scan", "ios": "https://dc.lft.to/lastmile_qr_scan"}, "is_reserved": 0, "is_disabled": 0, "name": "eefe452846c59b5c5a69954550d17f7a", "bike_id": "eefe452846c59b5c5a69954550d17f7a", "fusion_lat": 0.0, "lon": -77.183432, "type": "electric_bike", "fusion_lon": 0.0, "lat": 38.8908935}, {"rental_uris": {"android": "https://dc.lft.to/lastmile_qr_scan", "ios": "https://dc.lft.to/lastmile_qr_scan"},