{"data": {"bikes": [{"is_disabled": 0, "fusion_lon": 0.0, "fusion_lat": 0.0, "lat": 38.905924, "type": "electric_scooter", "lon": -77.07315233333334, "bike_id": "d213dfa8e2ce31e74bd90e5e7cad478a", "rental_uris": {"android": "https://dc.lft.to/lastmile_qr_scan", "ios": "https://dc.lft.to/lastmile_qr_scan"}, "name": "d213dfa8e2ce31e74bd90e5e7cad478a", "is_reserved": 0}, {"is_disabled": 0, "fusion_lon": 0.0, "fusion_lat": 0.0, "lat": 38.8287475, "type": "electric_bike", "lon": -77.112224, "bike_id": "f6026c1401ddc5d66ce0bba2f2ff0375", "rental_uris": {"android": "https://dc.lft.to/lastmile_qr_scan", "ios": "https://dc.lft.to/lastmile_qr_scan"}, "name": "f6026c1401ddc5d66ce0bba2f2ff0375", "is_reserved": 0}, {"is_disabled": 0, "fusion_lon": 0.0, "fusion_lat": 0.0, "lat": 38.908669, "type": "electric_scooter", "lon": -77.00369483333333, "bike_id": "c734f5fd7290b31e1b1dff9e7b2877c0", "rental_uris": {"android": "https://dc.lft.to/lastmile_qr_scan", "ios": "https://dc.lft.to/lastmile_qr_scan"}, "name": "c734f5fd7290b31e1b1dff9e7b2877c0", "is_reserved": 0}, {"is_disabled": 0, "fusion_lon": 0.0, "fusion_lat": 0.0, "lat": 38.92484316666667, "type": "electric_scooter", "lon": -77.02721466666667, "bike_id": "2466cd66016dea8a89c8ab82a9fafb23", "rental_uris": {"android": "https://dc.lft.to/lastmile_qr_scan", "ios": "https://dc.lft.to/lastmile_qr_scan"}, "name": "2466cd66016dea8a89c8ab82a9fafb23", "is_reserved": 0}, {"is_disabled": 0, "fusion_lon": 0.0, "fusion_lat": 0.0, "lat": 38.91994483333333, "type": "electric_scooter", "lon": -77.03293166666667, "bike_id": "5da794b0356388abbbd6ccffd60b170a", "rental_uris": {"android": "https://dc.lft.to/lastmile_qr_scan", "ios": "https://dc.lft.to/lastmile_qr_scan"}, "name": "5da794b0356388abbbd6ccffd60b170a", "is_reserved": 0}, {"is_disabled": 0, "fusion_lon": 0.0, "fusion_lat": 0.0, "lat": 38.90578716666667, "type": "electric_scooter", "lon": -77.02203066666667, "bike_id": "45d037ca1d1d5ee04bda8fa913dbca2b", "rental_uris": {"android": "https://dc.lft.to/lastmile_qr_scan", "ios": "https://dc.lft.to/lastmile_qr_scan"}, "name": "45d037ca1d1d5ee04bda8fa913dbca2b", "is_reserved": 0}, {"is_disabled": 0, "fusion_lon": 0.0, "fusion_lat": 0.0, "lat": 38.918226, "type": "electric_scooter", "lon": -77.04179283333333, "bike_id": "6824d55c6b3fa99e5ad003755d2a4bbc", "rental_uris": {"android": "https://dc.lft.to/lastmile_qr_scan", "ios": "https://dc.lft.to/lastmile_qr_scan"}, "name": "6824d55c6b3fa99e5ad003755d2a4bbc", "is_reserved": 0}, {"is_disabled": 0, "fusion_lon": 0.0, "fusion_lat": 0.0, "lat": 39.000173, "type": "electric_bike", "lon": -76.87289016666666, "bike_id": "c319c71a14e3b2b77f64181ccd1735f1", "rental_uris": {"android": "https://dc.lft.to/lastmile_qr_scan", "ios": "https://dc.lft.to/lastmile_qr_scan"}, "name": "c319c71a14e3b2b77f64181ccd1735f1", "is_reserved": 0}, {"is_disabled": 0, "fusion_lon": 0.0, "fusion_lat": 0.0, "lat": 38.931080333333334, "type": "electric_scooter", "lon": -77.0348615, "bike_id": "ab081b0ce6fabd3634c403b59392d195", "rental_uris": {"android": "https://dc.lft.to/lastmile_qr_scan", "ios": "https://dc.lft.to/lastmile_qr_scan"}, "name": "ab081b0ce6fabd3634c403b59392d195", "is_reserved": 0}, {"is_disabled": 0, "fusion_lon": 0.0, "fusion_lat": 0.0, "lat": 38.89617783333333, "type": "electric_scooter", "lon": -76.99640366666667, "bike_id": "689df0067a74b5755b4fce02dfda49e2", "rental_uris": {"android": "https://dc.lft.to/lastmile_qr_scan", "ios": "https://dc.lft.to/lastmile_qr_scan"}, "name": "689df0067a74b5755b4fce02dfda49e2", "is_reserved": 0}, {"is_disabled": 0, "fusion_lon": 0.0, "fusion_lat": 0.0, "lat": 38.91283633333333, "type": "electric_scooter", "lon": -77.01402566666667, "bike_id": "adff53cd4ceeb6179a06ec1293e4329e", "rental_uris": {"android": "https://dc.lft.to/lastmile_qr_scan", "ios": "https://dc.lft.to/lastmile_qr_scan"}, "name": "adff53cd4ceeb6179a06ec1293e4329e", "is_reserved": 0}, {"is_disabled": 0, "fusion_lon": 0.0, "fusion_lat": 0.0, "lat": 38.91867516666667, "type": "electric_scooter", "lon": -77.04414266666667, "bike_id": "11bcab805f2c0d8429a8d55bb0fc35eb", "rental_uris": {"android": "https://dc.lft.to/lastmile_qr_scan", "ios": "https://dc.lft.to/lastmile_qr_scan"}, "name": "11bcab805f2c0d8429a8d55bb0fc35eb", "is_reserved": 0}, {"is_disabled": 0, "fusion_lon": 0.0, "fusion_lat": 0.0, "lat": 38.914781166666664, "type": "electric_scooter", "lon": -77.03220783333333, "bike_id": "ef68db9146197845add0295566a8b38e", "rental_uris": {"android": "https://dc.lft.to/lastmile_qr_scan", "ios": "https://dc.lft.to/lastmile_qr_scan"}, "name": "ef68db9146197845add0295566a8b38e", "is_reserved": 0}, {"is_disabled": 0, "fusion_lon": 0.0, "fusion_lat": 0.0, "lat": 38.90821566666666, "type": "electric_scooter", "lon": -77.033957, "bike_id": "5dc153b11326122a7b2836a4460a0d39", "rental_uris": {"android": "https://dc.lft.to/lastmile_qr_scan", "ios": "https://dc.lft.to/lastmile_qr_scan"}, "name": "5dc153b11326122a7b2836a4460a0d39", "is_reserved": 0}, {"is_disabled": 0, "fusion_lon": 0.0, "fusion_lat": 0.0, "lat": 38.9478765, "type": "electric_scooter", "lon": -77.092744, "bike_id": "5920ee2d1b3c511d6c3577cfe94bf538", "rental_uris": {"android": "https://dc.lft.to/lastmile_qr_scan", "ios": "https://dc.lft.to/lastmile_qr_scan"}, "name": "5920ee2d1b3c511d6c3577cfe94bf538", "is_reserved": 0}, {"is_disabled": 0, "fusion_lon": 0.0, "fusion_lat": 0.0, "lat": 38.91870016666667, "type": "electric_bike", "lon": -76.96125933333333, "bike_id": "4b8580d61f90a3edafab91a9fd2d2c1f", "rental_uris": {"android": "https://dc.lft.to/lastmile_qr_scan", "ios": "https://dc.lft.to/lastmile_qr_scan"}, "name": "4b8580d61f90a3edafab91a9fd2d2c1f", "is_reserved": 0}, {"is_disabled": 0, "fusion_lon": 0.0, "fusion_lat": 0.0, "lat": 38.9192365, "type": "electric_scooter", "lon": -77.03421783333333, "bike_id": "ad4b80ccb1c666177a914e693144ab3f", "rental_uris": {"android": "https://dc.lft.to/lastmile_qr_scan", "ios": "https://dc.lft.to/lastmile_qr_scan"}, "name": "ad4b80ccb1c666177a914e693144ab3f", "is_reserved": 0}, {"is_disabled": 0, "fusion_lon": 0.0, "fusion_lat": 0.0, "lat": 38.86588033333334, "type": "electric_scooter", "lon": -76.9904435, "bike_id": "bec5befdeb0d1447366397b7b8b2a427", "rental_uris": {"android": "https://dc.lft.to/lastmile_qr_scan", "ios": "https://dc.lft.to/lastmile_qr_scan"}, "name": "bec5befdeb0d1447366397b7b8b2a427", "is_reserved": 0}, {"is_disabled": 0, "fusion_lon": 0.0, "fusion_lat": 0.0, "lat": 38.91919133333333, "type": "electric_scooter", "lon": -77.03421483333334, "bike_id": "dcf64388004dac6d249ea7c2fe9e801e", "rental_uris": {"android": "https://dc.lft.to/lastmile_qr_scan", "ios": "https://dc.lft.to/lastmile_qr_scan"}, "name": "dcf64388004dac6d249ea7c2fe9e801e", "is_reserved": 0}, {"is_disabled": 0, "fusion_lon": 0.0, "fusion_lat": 0.0, "lat": 38.920698, "type": "electric_scooter", "lon": -77.01827, "bike_id": "8b5900127bd20e52f21cf363c866fc21", "rental_uris": {"android": "https://dc.lft.to/lastmile_qr_scan", "ios": "https://dc.lft.to/lastmile_qr_scan"}, "name": "8b5900127bd20e52f21cf363c866fc21", "is_reserved": 0}, {"is_disabled": 0, "fusion_lon": 0.0, "fusion_lat": 0.0, "lat": 38.901813833333335, "type": "electric_scooter", "lon": -76.92828883333334, "bike_id": "a43b2a8ad0aa23380ea189e97d206b02", "rental_uris": {"android": "https://dc.lft.to/lastmile_qr_scan", "ios": "https://dc.lft.to/lastmile_qr_scan"}, "name": "a43b2a8ad0aa23380ea189e97d206b02", "is_reserved": 0}, {"is_disabled": 0, "fusion_lon": 0.0, "fusion_lat": 0.0, "lat": 38.9052945, "type": "electric_scooter", "lon": -77.04670566666667, "bike_id": "959b5233a4738c47aafa50126903f5f5", "rental_uris": {"android": "https://dc.lft.to/lastmile_qr_scan", "ios": "https://dc.lft.to/lastmile_qr_scan"}, "name": "959b5233a4738c47aafa50126903f5f5", "is_reserved": 0}, {"is_disabled": 0, "fusion_lon": 0.0, "fusion_lat": 0.0, "lat": 38.88717916666667, "type": "electric_scooter", "lon": -77.02845033333334, "bike_id": "83ab5eb252792cddbad28f762f767666", "rental_uris": {"android": "https://dc.lft.to/lastmile_qr_scan", "ios": "https://dc.lft.to/lastmile_qr_scan"}, "name": "83ab5eb252792cddbad28f762f767666", "is_reserved": 0}, {"is_disabled": 0, "fusion_lon": 0.0, "fusion_lat": 0.0, "lat": 38.918124666666664, "type": "electric_scooter", "lon": -77.03810766666666, "bike_id": "6d558eed3bb2e0df4bf27cc32e5f2d2d", "rental_uris": {"android": "https://dc.lft.to/lastmile_qr_scan", "ios": "https://dc.lft.to/lastmile_qr_scan"}, "name": "6d558eed3bb2e0df4bf27cc32e5f2d2d", "is_reserved": 0}, {"is_disabled": 0, "fusion_lon": 0.0, "fusion_lat": 0.0, "lat": 38.907201, "type": "electric_scooter", "lon": -77.00759766666667, "bike_id": "07fe74559a8b1d4ce24ac1feae879e97", "rental_uris": {"android": "https://dc.lft.to/lastmile_qr_scan", "ios": "https://dc.lft.to/lastmile_qr_scan"}, "name": "07fe74559a8b1d4ce24ac1feae879e97", "is_reserved": 0}, {"is_disabled": 0, "fusion_lon": 0.0, "fusion_lat": 0.0, "lat": 38.94179116666667, "type": "electric_scooter", "lon": -77.036545, "bike_id": "5268f117aa5f141cdbbe6b813e2d2169", "rental_uris": {"android": "https://dc.lft.to/lastmile_qr_scan", "ios": "https://dc.lft.to/lastmile_qr_scan"}, "name": "5268f117aa5f141cdbbe6b813e2d2169", "is_reserved": 0}, {"is_disabled": 0, "fusion_lon": 0.0, "fusion_lat": 0.0, "lat": 38.956489833333336, "type": "electric_scooter", "lon": -77.0150095, "bike_id": "483dc4da53004e10eb81a9d4c456979f", "rental_uris": {"android": "https://dc.lft.to/lastmile_qr_scan", "ios": "https://dc.lft.to/lastmile_qr_scan"}, "name": "483dc4da53004e10eb81a9d4c456979f", "is_reserved": 0}, {"is_disabled": 0, "fusion_lon": 0.0, "fusion_lat": 0.0, "lat": 38.9290305, "type": "electric_scooter", "lon": -77.03185283333333, "bike_id": "d726eb9ba7e23f7fbae77e314883474f", "rental_uris": {"android": "https://dc.lft.to/lastmile_qr_scan", "ios": "https://dc.lft.to/lastmile_qr_scan"}, "name": "d726eb9ba7e23f7fbae77e314883474f", "is_reserved": 0}, {"is_disabled": 0, "fusion_lon": 0.0, "fusion_lat": 0.0, "lat": 38.907359, "type": "electric_scooter", "lon": -77.0295815, "bike_id": "a1b9ceeddc4c4b7cb3bb403ad40ca3bc", "rental_uris": {"android": "https://dc.lft.to/lastmile_qr_scan", "ios": "https://dc.lft.to/lastmile_qr_scan"}, "name": "a1b9ceeddc4c4b7cb3bb403ad40ca3bc", "is_reserved": 0}, {"is_disabled": 0, "fusion_lon": 0.0, "fusion_lat": 0.0, "lat": 38.92896366666667, "type": "electric_scooter", "lon": -77.02402983333333, "bike_id": "6bffc8ce6bf7d5dea0dab8f8cb5a388c", "rental_uris": {"android": "https://dc.lft.to/lastmile_qr_scan", "ios": "https://dc.lft.to/lastmile_qr_scan"}, "name": "6bffc8ce6bf7d5dea0dab8f8cb5a388c", "is_reserved": 0}, {"is_disabled": 0, "fusion_lon": 0.0, "fusion_lat": 0.0, "lat": 38.92533, "type": "electric_scooter", "lon": -77.0734575, "bike_id": "de0c6b0671774faeb33829ada8b74bba", "rental_uris": {"android": "https://dc.lft.to/lastmile_qr_scan", "ios": "https://dc.lft.to/lastmile_qr_scan"}, "name": "de0c6b0671774faeb33829ada8b74bba", "is_reserved": 0}, {"is_disabled": 0, "fusion_lon": 0.0, "fusion_lat": 0.0, "lat": 38.956880166666664, "type": "electric_scooter", "lon": -77.02410183333333, "bike_id": "93141c0f6a8cf76337f3059a32af6c2e", "rental_uris": {"android": "https://dc.lft.to/lastmile_qr_scan", "ios": "https://dc.lft.to/lastmile_qr_scan"}, "name": "93141c0f6a8cf76337f3059a32af6c2e", "is_reserved": 0}, {"is_disabled": 0, "fusion_lon": 0.0, "fusion_lat": 0.0, "lat": 38.896611, "type": "electric_scooter", "lon": -77.043335, "bike_id": "edb80449c09bf14beb06fe240b0044e7", "rental_uris": {"android": "https://dc.lft.to/lastmile_qr_scan", "ios": "https://dc.lft.to/lastmile_qr_scan"}, "name": "edb80449c09bf14beb06fe240b0044e7", "is_reserved": 0}, {"is_disabled": 0, "fusion_lon": 0.0, "fusion_lat": 0.0, "lat": 38.90851966666666, "type": "electric_bike", "lon": -77.04033233333334, "bike_id": "d665701ce516742d6ed8ca183b32b0d9", "rental_uris": {"android": "https://dc.lft.to/lastmile_qr_scan", "ios": "https://dc.lft.to/lastmile_qr_scan"}, "name": "d665701ce516742d6ed8ca183b32b0d9", "is_reserved": 0}, {"is_disabled": 0, "fusion_lon": 0.0, "fusion_lat": 0.0, "lat": 38.89793266666667, "type": "electric_scooter", "lon": -77.02486283333333, "bike_id": "57dd89ee9d6ee3e6d3e31c46b541b396", "rental_uris": {"android": "https://dc.lft.to/lastmile_qr_scan", "ios": "https://dc.lft.to/lastmile_qr_scan"}, "name": "57dd89ee9d6ee3e6d3e31c46b541b396", "is_reserved": 0}, {"is_disabled": 0, "fusion_lon": 0.0, "fusion_lat": 0.0, "lat": 38.905682, "type": "electric_scooter", "lon": -77.023972, "bike_id": "7735cb21fa642d6931ee7234b7a71477", "rental_uris": {"android": "https://dc.lft.to/lastmile_qr_scan", "ios": "https://dc.lft.to/lastmile_qr_scan"}, "name": "7735cb21fa642d6931ee7234b7a71477", "is_reserved": 0}, {"is_disabled": 0, "fusion_lon": 0.0, "fusion_lat": 0.0, "lat": 38.93538016666667, "type": "electric_scooter", "lon": -77.0206845, "bike_id": "e6c70ce7c3ee2c1b3d4668480ae5f73d", "rental_uris": {"android": "https://dc.lft.to/lastmile_qr_scan", "ios": "https://dc.lft.to/lastmile_qr_scan"}, "name": "e6c70ce7c3ee2c1b3d4668480ae5f73d", "is_reserved": 0}, {"is_disabled": 0, "fusion_lon": 0.0, "fusion_lat": 0.0, "lat": 38.973713833333335, "type": "electric_scooter", "lon": -77.01856716666667, "bike_id": "0df84924ae44cb35978ec00b8c7ea656", "rental_uris": {"android": "https://dc.lft.to/lastmile_qr_scan", "ios": "https://dc.lft.to/lastmile_qr_scan"}, "name": "0df84924ae44cb35978ec00b8c7ea656", "is_reserved": 0}, {"is_disabled": 0, "fusion_lon": 0.0, "fusion_lat": 0.0, "lat": 38.92455983333333, "type": "electric_scooter", "lon": -76.99907066666667, "bike_id": "a358d67878a2fb2d68a723b4d2d76e2c", "rental_uris": {"android": "https://dc.lft.to/lastmile_qr_scan", "ios": "https://dc.lft.to/lastmile_qr_scan"}, "name": "a358d67878a2fb2d68a723b4d2d76e2c", "is_reserved": 0}, {"is_disabled": 0, "fusion_lon": 0.0, "fusion_lat": 0.0, "lat": 38.93321983333333, "type": "electric_scooter", "lon": -77.02931966666667, "bike_id": "a6b08492c3512739832fc9ae32dc9dde", "rental_uris": {"android": "https://dc.lft.to/lastmile_qr_scan", "ios": "https://dc.lft.to/lastmile_qr_scan"}, "name": "a6b08492c3512739832fc9ae32dc9dde", "is_reserved": 0}, {"is_disabled": 0, "fusion_lon": 0.0, "fusion_lat": 0.0, "lat": 38.914153166666665, "type": "electric_scooter", "lon": -77.04335533333334, "bike_id": "503b9d85607adcb03ad1fcdf57e7a0c5", "rental_uris": {"android": "https://dc.lft.to/lastmile_qr_scan", "ios": "https://dc.lft.to/lastmile_qr_scan"}, "name": "503b9d85607adcb03ad1fcdf57e7a0c5", "is_reserved": 0}, {"is_disabled": 0, "fusion_lon": 0.0, "fusion_lat": 0.0, "lat": 38.9420055, "type": "electric_scooter", "lon": -77.02580816666666, "bike_id": "dce3607f7b61a92e904f2fa50d3562f6", "rental_uris": {"android": "https://dc.lft.to/lastmile_qr_scan", "ios": "https://dc.lft.to/lastmile_qr_scan"}, "name": "dce3607f7b61a92e904f2fa50d3562f6", "is_reserved": 0}, {"is_disabled": 0, "fusion_lon": 0.0, "fusion_lat": 0.0, "lat": 38.904058166666665, "type": "electric_scooter", "lon": -77.048627, "bike_id": "e784e96c2409cb295b088f95fbe5ed33", "rental_uris": {"android": "https://dc.lft.to/lastmile_qr_scan", "ios": "https://dc.lft.to/lastmile_qr_scan"}, "name": "e784e96c2409cb295b088f95fbe5ed33", "is_reserved": 0}, {"is_disabled": 0, "fusion_lon": 0.0, "fusion_lat": 0.0, "lat": 39.00000683333333, "type": "electric_bike", "lon": -76.91808066666667, "bike_id": "1a7a592c80221e0bbf8cf0d66745e0b5", "rental_uris": {"android": "https://dc.lft.to/lastmile_qr_scan", "ios": "https://dc.lft.to/lastmile_qr_scan"}, "name": "1a7a592c80221e0bbf8cf0d66745e0b5", "is_reserved": 0}, {"is_disabled": 0, "fusion_lon": 0.0, "fusion_lat": 0.0, "lat": 38.917261833333335, "type": "electric_scooter", "lon": -77.03614016666667, "bike_id": "928b5ccf002d2396d78a6ebdc462c27a", "rental_uris": {"android": "https://dc.lft.to/lastmile_qr_scan", "ios": "https://dc.lft.to/lastmile_qr_scan"}, "name": "928b5ccf002d2396d78a6ebdc462c27a", "is_reserved": 0}, {"is_disabled": 0, "fusion_lon": 0.0, "fusion_lat": 0.0, "lat": 38.949777166666664, "type": "electric_scooter", "lon": -77.06760966666667, "bike_id": "f309c1d530dbb33eb477dee9f35cd04e", "rental_uris": {"android": "https://dc.lft.to/lastmile_qr_scan", "ios": "https://dc.lft.to/lastmile_qr_scan"}, "name": "f309c1d530dbb33eb477dee9f35cd04e", "is_reserved": 0}, {"is_disabled": 0, "fusion_lon": 0.0, "fusion_lat": 0.0, "lat": 38.92268833333333, "type": "electric_bike", "lon": -76.99422833333334, "bike_id": "064fe65ffb6465c684c8d34d3cfc1f70", "rental_uris": {"android": "https://dc.lft.to/lastmile_qr_scan", "ios": "https://dc.lft.to/lastmile_qr_scan"}, "name": "064fe65ffb6465c684c8d34d3cfc1f70", "is_reserved": 0}, {"is_disabled": 0, "fusion_lon": 0.0, "fusion_lat": 0.0, "lat": 38.9210505, "type": "electric_scooter", "lon": -76.99422633333333, "bike_id": "a71be14d397176cf6f39b4b28487d753", "rental_uris": {"android": "https://dc.lft.to/lastmile_qr_scan", "ios": "https://dc.lft.to/lastmile_qr_scan"}, "name": "a71be14d397176cf6f39b4b28487d753", "is_reserved": 0}, {"is_disabled": 0, "fusion_lon": 0.0, "fusion_lat": 0.0, "lat": 38.90272433333333, "type": "electric_scooter", "lon": -77.0426535, "bike_id": "09d600538c54a7feb4bb16c27f215961", "rental_uris": {"android": "https://dc.lft.to/lastmile_qr_scan", "ios": "https://dc.lft.to/lastmile_qr_scan"}, "name": "09d600538c54a7feb4bb16c27f215961", "is_reserved": 0}, {"is_disabled": 0, "fusion_lon": 0.0, "fusion_lat": 0.0, "lat": 38.93635116666667, "type": "electric_scooter", "lon": -77.036643, "bike_id": "8a632d76267d8d00a593ecba1c05ffe0", "rental_uris": {"android": "https://dc.lft.to/lastmile_qr_scan", "ios": "https://dc.lft.to/lastmile_qr_scan"}, "name": "8a632d76267d8d00a593ecba1c05ffe0", "is_reserved": 0}, {"is_disabled": 0, "fusion_lon": 0.0, "fusion_lat": 0.0, "lat": 38.893742833333334, "type": "electric_scooter", "lon": -76.9499855, "bike_id": "c69be6972664694bf035ca75066ed7f7", "rental_uris": {"android": "https://dc.lft.to/lastmile_qr_scan", "ios": "https://dc.lft.to/lastmile_qr_scan"}, "name": "c69be6972664694bf035ca75066ed7f7", "is_reserved": 0}, {"is_disabled": 0, "fusion_lon": 0.0, "fusion_lat": 0.0, "lat": 38.91976533333333, "type": "electric_scooter", "lon": -77.0002115, "bike_id": "adee2c3d89496bef676a941f3f9f0a81", "rental_uris": {"android": "https://dc.lft.to/lastmile_qr_scan", "ios": "https://dc.lft.to/lastmile_qr_scan"}, "name": "adee2c3d89496bef676a941f3f9f0a81", "is_reserved": 0}, {"is_disabled": 0, "fusion_lon": 0.0, "fusion_lat": 0.0, "lat": 38.92448566666667, "type": "electric_bike", "lon": -76.96836466666667, "bike_id": "d3d10b831781f684e7ac8e0f542dab75", "rental_uris": {"android": "https://dc.lft.to/lastmile_qr_scan", "ios": "https://dc.lft.to/lastmile_qr_scan"}, "name": "d3d10b831781f684e7ac8e0f542dab75", "is_reserved": 0}, {"is_disabled": 0, "fusion_lon": 0.0, "fusion_lat": 0.0, "lat": 39.105652166666665, "type": "electric_bike", "lon": -77.15268766666667, "bike_id": "a813c9ab4e9cdec3486265cfc3838218", "rental_uris": {"android": "https://dc.lft.to/lastmile_qr_scan", "ios": "https://dc.lft.to/lastmile_qr_scan"}, "name": "a813c9ab4e9cdec3486265cfc3838218", "is_reserved": 0}, {"is_disabled": 0, "fusion_lon": 0.0, "fusion_lat": 0.0, "lat": 38.94998733333333, "type": "electric_bike", "lon": -77.35316866666666, "bike_id": "e35f35eb84947bcf593f3de359d0a0cf", "rental_uris": {"android": "https://dc.lft.to/lastmile_qr_scan", "ios": "https://dc.lft.to/lastmile_qr_scan"}, "name": "e35f35eb84947bcf593f3de359d0a0cf", "is_reserved": 0}, {"is_disabled": 0, "fusion_lon": 0.0, "fusion_lat": 0.0, "lat": 38.92052283333334, "type": "electric_scooter", "lon": -77.0419795, "bike_id": "430cea735c3ae4066e24c5010cf37cfb", "rental_uris": {"android": "https://dc.lft.to/lastmile_qr_scan", "ios": "https://dc.lft.to/lastmile_qr_scan"}, "name": "430cea735c3ae4066e24c5010cf37cfb", "is_reserved": 0}, {"is_disabled": 0, "fusion_lon": 0.0, "fusion_lat": 0.0, "lat": 38.9181805, "type": "electric_scooter", "lon": -77.041768, "bike_id": "84f37225923a49d1da24a13ae11560ef", "rental_uris": {"android": "https://dc.lft.to/lastmile_qr_scan", "ios": "https://dc.lft.to/lastmile_qr_scan"}, "name": "84f37225923a49d1da24a13ae11560ef", "is_reserved": 0}, {"is_disabled": 0, "fusion_lon": 0.0, "fusion_lat": 0.0, "lat": 38.87826066666667, "type": "electric_scooter", "lon": -76.96315666666666, "bike_id": "16c1d09365adaf92cf4436c5e008c510", "rental_uris": {"android": "https://dc.lft.to/lastmile_qr_scan", "ios": "https://dc.lft.to/lastmile_qr_scan"}, "name": "16c1d09365adaf92cf4436c5e008c510", "is_reserved": 0}, {"is_disabled": 0, "fusion_lon": 0.0, "fusion_lat": 0.0, "lat": 38.894702833333334, "type": "electric_scooter", "lon": -77.0221535, "bike_id": "7bd490f4a5c56829dadcf097facaf71a", "rental_uris": {"android": "https://dc.lft.to/lastmile_qr_scan", "ios": "https://dc.lft.to/lastmile_qr_scan"}, "name": "7bd490f4a5c56829dadcf097facaf71a", "is_reserved": 0}, {"is_disabled": 0, "fusion_lon": 0.0, "fusion_lat": 0.0, "lat": 38.87667833333333, "type": "electric_scooter", "lon": -76.93195733333333, "bike_id": "dcfd98db2ad2fd9dbadf5ed8b8161e1d", "rental_uris": {"android": "https://dc.lft.to/lastmile_qr_scan", "ios": "https://dc.lft.to/lastmile_qr_scan"}, "name": "dcfd98db2ad2fd9dbadf5ed8b8161e1d", "is_reserved": 0}, {"is_disabled": 0, "fusion_lon": 0.0, "fusion_lat": 0.0, "lat": 38.949774166666664, "type": "electric_scooter", "lon": -77.0944385, "bike_id": "f6a8f363456a3f86fed39d99af740e95", "rental_uris": {"android": "https://dc.lft.to/lastmile_qr_scan", "ios": "https://dc.lft.to/lastmile_qr_scan"}, "name": "f6a8f363456a3f86fed39d99af740e95", "is_reserved": 0}, {"is_disabled": 0, "fusion_lon": 0.0, "fusion_lat": 0.0, "lat": 38.91267833333333, "type": "electric_scooter", "lon": -77.03368983333333, "bike_id": "58a37a09fe66dc42b2c286e81fcbf7fe", "rental_uris": {"android": "https://dc.lft.to/lastmile_qr_scan", "ios": "https://dc.lft.to/lastmile_qr_scan"}, "name": "58a37a09fe66dc42b2c286e81fcbf7fe", "is_reserved": 0}, {"is_disabled": 0, "fusion_lon": 0.0, "fusion_lat": 0.0, "lat": 38.897962, "type": "electric_scooter", "lon": -76.93057383333333, "bike_id": "9f6a087722b14f7fb99f810b37e8fef8", "rental_uris": {"android": "https://dc.lft.to/lastmile_qr_scan", "ios": "https://dc.lft.to/lastmile_qr_scan"}, "name": "9f6a087722b14f7fb99f810b37e8fef8", "is_reserved": 0}, {"is_disabled": 0, "fusion_lon": 0.0, "fusion_lat": 0.0, "lat": 38.915605666666664, "type": "electric_scooter", "lon": -77.011718, "bike_id": "7885b0f7e69b31e07252f041908765c7", "rental_uris": {"android": "https://dc.lft.to/lastmile_qr_scan", "ios": "https://dc.lft.to/lastmile_qr_scan"}, "name": "7885b0f7e69b31e07252f041908765c7", "is_reserved": 0}, {"is_disabled": 0, "fusion_lon": 0.0, "fusion_lat": 0.0, "lat": 38.988161833333336, "type": "electric_bike", "lon": -77.0265875, "bike_id": "106fb405f8168373de049b922828210f", "rental_uris": {"android": "https://dc.lft.to/lastmile_qr_scan", "ios": "https://dc.lft.to/lastmile_qr_scan"}, "name": "106fb405f8168373de049b922828210f", "is_reserved": 0}, {"is_disabled": 0, "fusion_lon": 0.0, "fusion_lat": 0.0, "lat": 38.94981716666667, "type": "electric_scooter", "lon": -77.02702983333333, "bike_id": "601a881777ea09caa46e88d9fcd91e21", "rental_uris": {"android": "https://dc.lft.to/lastmile_qr_scan", "ios": "https://dc.lft.to/lastmile_qr_scan"}, "name": "601a881777ea09caa46e88d9fcd91e21", "is_reserved": 0}, {"is_disabled": 0, "fusion_lon": 0.0, "fusion_lat": 0.0, "lat": 38.92655216666667, "type": "electric_scooter", "lon": -77.0230715, "bike_id": "015472151e769e2305863ce5c539986a", "rental_uris": {"android": "https://dc.lft.to/lastmile_qr_scan", "ios": "https://dc.lft.to/lastmile_qr_scan"}, "name": "015472151e769e2305863ce5c539986a", "is_reserved": 0}, {"is_disabled": 0, "fusion_lon": 0.0, "fusion_lat": 0.0, "lat": 38.942480333333336, "type": "electric_scooter", "lon": -77.02177833333333, "bike_id": "1849bbf07a9830258892b1c5bdf925c0", "rental_uris": {"android": "https://dc.lft.to/lastmile_qr_scan", "ios": "https://dc.lft.to/lastmile_qr_scan"}, "name": "1849bbf07a9830258892b1c5bdf925c0", "is_reserved": 0}, {"is_disabled": 0, "fusion_lon": 0.0, "fusion_lat": 0.0, "lat": 38.8315715, "type": "electric_bike", "lon": -76.99695683333333, "bike_id": "e42b9c4a1629c2c8a2e820666172b0a5", "rental_uris": {"android": "https://dc.lft.to/lastmile_qr_scan", "ios": "https://dc.lft.to/lastmile_qr_scan"}, "name": "e42b9c4a1629c2c8a2e820666172b0a5", "is_reserved": 0}, {"is_disabled": 0, "fusion_lon": 0.0, "fusion_lat": 0.0, "lat": 38.92039366666667, "type": "electric_scooter", "lon": -77.02586666666667, "bike_id": "8e05eba57cf3c4c9d8d5cdaee131e71f", "rental_uris": {"android": "https://dc.lft.to/lastmile_qr_scan", "ios": "https://dc.lft.to/lastmile_qr_scan"}, "name": "8e05eba57cf3c4c9d8d5cdaee131e71f", "is_reserved": 0}, {"is_disabled": 0, "fusion_lon": 0.0, "fusion_lat": 0.0, "lat": 38.95628166666667, "type": "electric_scooter", "lon": -77.02461133333334, "bike_id": "e755b77667bbca80ba5146d707a01d21", "rental_uris": {"android": "https://dc.lft.to/lastmile_qr_scan", "ios": "https://dc.lft.to/lastmile_qr_scan"}, "name": "e755b77667bbca80ba5146d707a01d21", "is_reserved": 0}, {"is_disabled": 0, "fusion_lon": 0.0, "fusion_lat": 0.0, "lat": 38.90358633333334, "type": "electric_scooter", "lon": -77.007305, "bike_id": "1b4d483bb77b89783057ec9ea034f6e8", "rental_uris": {"android": "https://dc.lft.to/lastmile_qr_scan", "ios": "https://dc.lft.to/lastmile_qr_scan"}, "name": "1b4d483bb77b89783057ec9ea034f6e8", "is_reserved": 0}, {"is_disabled": 0, "fusion_lon": 0.0, "fusion_lat": 0.0, "lat": 38.91604066666667, "type": "electric_scooter", "lon": -77.02340783333334, "bike_id": "e2989bf460c24aaf66e4c731019ba90b", "rental_uris": {"android": "https://dc.lft.to/lastmile_qr_scan", "ios": "https://dc.lft.to/lastmile_qr_scan"}, "name": "e2989bf460c24aaf66e4c731019ba90b", "is_reserved": 0}, {"is_disabled": 0, "fusion_lon": 0.0, "fusion_lat": 0.0, "lat": 38.907479333333335, "type": "electric_scooter", "lon": -77.0385985, "bike_id": "ea46e0eb03cfbf5920d9dc9d5951e66b", "rental_uris": {"android": "https://dc.lft.to/lastmile_qr_scan", "ios": "https://dc.lft.to/lastmile_qr_scan"}, "name": "ea46e0eb03cfbf5920d9dc9d5951e66b", "is_reserved": 0}, {"is_disabled": 0, "fusion_lon": 0.0, "fusion_lat": 0.0, "lat": 38.8800385, "type": "electric_scooter", "lon": -77.02424366666666, "bike_id": "4dcf035ead31c5f92d7c9e7d49cfa8e9", "rental_uris": {"android": "https://dc.lft.to/lastmile_qr_scan", "ios": "https://dc.lft.to/lastmile_qr_scan"}, "name": "4dcf035ead31c5f92d7c9e7d49cfa8e9", "is_reserved": 0}, {"is_disabled": 0, "fusion_lon": 0.0, "fusion_lat": 0.0, "lat": 38.91622983333333, "type": "electric_scooter", "lon": -77.04630116666667, "bike_id": "64b5721fdfcd78f2aa9fafa0ec394ef0", "rental_uris": {"android": "https://dc.lft.to/lastmile_qr_scan", "ios": "https://dc.lft.to/lastmile_qr_scan"}, "name": "64b5721fdfcd78f2aa9fafa0ec394ef0", "is_reserved": 0}, {"is_disabled": 0, "fusion_lon": 0.0, "fusion_lat": 0.0, "lat": 38.9180685, "type": "electric_scooter", "lon": -77.024498, "bike_id": "8fb7ba8cf99d7d22383208a6580ecd8b", "rental_uris": {"android": "https://dc.lft.to/lastmile_qr_scan", "ios": "https://dc.lft.to/lastmile_qr_scan"}, "name": "8fb7ba8cf99d7d22383208a6580ecd8b", "is_reserved": 0}, {"is_disabled": 0, "fusion_lon": 0.0, "fusion_lat": 0.0, "lat": 38.916947666666665, "type": "electric_scooter", "lon": -77.03691383333333, "bike_id": "59c1691c8a2fa3c3fe6c4e76a48b756a", "rental_uris": {"android": "https://dc.lft.to/lastmile_qr_scan", "ios": "https://dc.lft.to/lastmile_qr_scan"}, "name": "59c1691c8a2fa3c3fe6c4e76a48b756a", "is_reserved": 0}, {"is_disabled": 0, "fusion_lon": 0.0, "fusion_lat": 0.0, "lat": 38.925846666666665, "type": "electric_scooter", "lon": -77.02866516666667, "bike_id": "3503513a76a61526cc941e1b79151dc6", "rental_uris": {"android": "https://dc.lft.to/lastmile_qr_scan", "ios": "https://dc.lft.to/lastmile_qr_scan"}, "name": "3503513a76a61526cc941e1b79151dc6", "is_reserved": 0}, {"is_disabled": 0, "fusion_lon": 0.0, "fusion_lat": 0.0, "lat": 38.89225416666667, "type": "electric_scooter", "lon": -77.04867, "bike_id": "540d41cfe42b5b1522dd169de53213bf", "rental_uris": {"android": "https://dc.lft.to/lastmile_qr_scan", "ios": "https://dc.lft.to/lastmile_qr_scan"}, "name": "540d41cfe42b5b1522dd169de53213bf", "is_reserved": 0}, {"is_disabled": 0, "fusion_lon": 0.0, "fusion_lat": 0.0, "lat": 38.92824783333333, "type": "electric_scooter", "lon": -77.02257033333333, "bike_id": "3c25c75d0e51e5be519a8604ca6700ea", "rental_uris": {"android": "https://dc.lft.to/lastmile_qr_scan", "ios": "https://dc.lft.to/lastmile_qr_scan"}, "name": "3c25c75d0e51e5be519a8604ca6700ea", "is_reserved": 0}, {"is_disabled": 0, "fusion_lon": 0.0, "fusion_lat": 0.0, "lat": 38.9067325, "type": "electric_scooter", "lon": -77.02722016666667, "bike_id": "8ef2f8554ea4120da7603fdc17a516a5", "rental_uris": {"android": "https://dc.lft.to/lastmile_qr_scan", "ios": "https://dc.lft.to/lastmile_qr_scan"}, "name": "8ef2f8554ea4120da7603fdc17a516a5", "is_reserved": 0}, {"is_disabled": 0, "fusion_lon": 0.0, "fusion_lat": 0.0, "lat": 38.898449, "type": "electric_scooter", "lon": -76.94501083333333, "bike_id": "7bdc8f979c277d3760362a81aeac2f24", "rental_uris": {"android": "https://dc.lft.to/lastmile_qr_scan", "ios": "https://dc.lft.to/lastmile_qr_scan"}, "name": "7bdc8f979c277d3760362a81aeac2f24", "is_reserved": 0}, {"is_disabled": 0, "fusion_lon": 0.0, "fusion_lat": 0.0, "lat": 38.888808, "type": "electric_bike", "lon": -77.02859116666667, "bike_id": "bdd8741d6ba5725ac6ab51212eba20d3", "rental_uris": {"android": "https://dc.lft.to/lastmile_qr_scan", "ios": "https://dc.lft.to/lastmile_qr_scan"}, "name": "bdd8741d6ba5725ac6ab51212eba20d3", "is_reserved": 0}, {"is_disabled": 0, "fusion_lon": 0.0, "fusion_lat": 0.0, "lat": 38.91263083333333, "type": "electric_scooter", "lon": -77.03678733333334, "bike_id": "fd5621b9623877ae702c6a0d8815ef7d", "rental_uris": {"android": "https://dc.lft.to/lastmile_qr_scan", "ios": "https://dc.lft.to/lastmile_qr_scan"}, "name": "fd5621b9623877ae702c6a0d8815ef7d", "is_reserved": 0}, {"is_disabled": 0, "fusion_lon": 0.0, "fusion_lat": 0.0, "lat": 38.899593, "type": "electric_scooter", "lon": -77.0160735, "bike_id": "ce0df8a356f9d7401bde67b8ef359b4d", "rental_uris": {"android": "https://dc.lft.to/lastmile_qr_scan", "ios": "https://dc.lft.to/lastmile_qr_scan"}, "name": "ce0df8a356f9d7401bde67b8ef359b4d", "is_reserved": 0}, {"is_disabled": 0, "fusion_lon": 0.0, "fusion_lat": 0.0, "lat": 38.94192266666667, "type": "electric_scooter", "lon": -77.04260183333334, "bike_id": "7afd2e52c8cc8436c1f81c8da1195263", "rental_uris": {"android": "https://dc.lft.to/lastmile_qr_scan", "ios": "https://dc.lft.to/lastmile_qr_scan"}, "name": "7afd2e52c8cc8436c1f81c8da1195263", "is_reserved": 0}, {"is_disabled": 0, "fusion_lon": 0.0, "fusion_lat": 0.0, "lat": 38.86524416666666, "type": "electric_scooter", "lon": -76.989698, "bike_id": "e37108b0afb0f0ee27cf89884abfa97e", "rental_uris": {"android": "https://dc.lft.to/lastmile_qr_scan", "ios": "https://dc.lft.to/lastmile_qr_scan"}, "name": "e37108b0afb0f0ee27cf89884abfa97e", "is_reserved": 0}, {"is_disabled": 0, "fusion_lon": 0.0, "fusion_lat": 0.0, "lat": 38.895539166666666, "type": "electric_scooter", "lon": -76.94874883333334, "bike_id": "485541ec56dc01fdee3cab2d1e5dc02f", "rental_uris": {"android": "https://dc.lft.to/lastmile_qr_scan", "ios": "https://dc.lft.to/lastmile_qr_scan"}, "name": "485541ec56dc01fdee3cab2d1e5dc02f", "is_reserved": 0}, {"is_disabled": 0, "fusion_lon": 0.0, "fusion_lat": 0.0, "lat": 38.90186716666667, "type": "electric_scooter", "lon": -77.05020583333334, "bike_id": "f44d74ebfff81b0e32f00aba1cc7e0b2", "rental_uris": {"android": "https://dc.lft.to/lastmile_qr_scan", "ios": "https://dc.lft.to/lastmile_qr_scan"}, "name": "f44d74ebfff81b0e32f00aba1cc7e0b2", "is_reserved": 0}, {"is_disabled": 0, "fusion_lon": 0.0, "fusion_lat": 0.0, "lat": 38.89329266666667, "type": "electric_scooter", "lon": -77.0213035, "bike_id": "a0ad0eddcc391d637894279483d85682", "rental_uris": {"android": "https://dc.lft.to/lastmile_qr_scan", "ios": "https://dc.lft.to/lastmile_qr_scan"}, "name": "a0ad0eddcc391d637894279483d85682", "is_reserved": 0}, {"is_disabled": 0, "fusion_lon": 0.0, "fusion_lat": 0.0, "lat": 38.93146633333333, "type": "electric_scooter", "lon": -77.04142183333333, "bike_id": "e075c74dd4b8c93184d7477ef5ca4a9e", "rental_uris": {"android": "https://dc.lft.to/lastmile_qr_scan", "ios": "https://dc.lft.to/lastmile_qr_scan"}, "name": "e075c74dd4b8c93184d7477ef5ca4a9e", "is_reserved": 0}, {"is_disabled": 0, "fusion_lon": 0.0, "fusion_lat": 0.0, "lat": 39.02303666666667, "type": "electric_bike", "lon": -77.021094, "bike_id": "7fb178241773526d8c33740e84deb508", "rental_uris": {"android": "https://dc.lft.to/lastmile_qr_scan", "ios": "https://dc.lft.to/lastmile_qr_scan"}, "name": "7fb178241773526d8c33740e84deb508", "is_reserved": 0}, {"is_disabled": 0, "fusion_lon": 0.0, "fusion_lat": 0.0, "lat": 38.903825166666664, "type": "electric_scooter", "lon": -77.03973233333333, "bike_id": "775bfdb8edf1bd46a437b45cbe3c0092", "rental_uris": {"android": "https://dc.lft.to/lastmile_qr_scan", "ios": "https://dc.lft.to/lastmile_qr_scan"}, "name": "775bfdb8edf1bd46a437b45cbe3c0092", "is_reserved": 0}, {"is_disabled": 0, "fusion_lon": 0.0, "fusion_lat": 0.0, "lat": 38.908688, "type": "electric_scooter", "lon": -77.03018033333333, "bike_id": "8a4f2acefaa68f89210ccc1396932a01", "rental_uris": {"android": "https://dc.lft.to/lastmile_qr_scan", "ios": "https://dc.lft.to/lastmile_qr_scan"}, "name": "8a4f2acefaa68f89210ccc1396932a01", "is_reserved": 0}, {"is_disabled": 0, "fusion_lon": 0.0, "fusion_lat": 0.0, "lat": 38.828757833333334, "type": "electric_bike", "lon": -77.11225133333333, "bike_id": "0194b89b7c11454c1cc67e28a4fbab4e", "rental_uris": {"android": "https://dc.lft.to/lastmile_qr_scan", "ios": "https://dc.lft.to/lastmile_qr_scan"}, "name": "0194b89b7c11454c1cc67e28a4fbab4e", "is_reserved": 0}, {"is_disabled": 0, "fusion_lon": 0.0, "fusion_lat": 0.0, "lat": 38.8331985, "type": "electric_scooter", "lon": -77.000066, "bike_id": "572dda94f0fc6a0baf5d267e942fd373", "rental_uris": {"android": "https://dc.lft.to/lastmile_qr_scan", "ios": "https://dc.lft.to/lastmile_qr_scan"}, "name": "572dda94f0fc6a0baf5d267e942fd373", "is_reserved": 0}, {"is_disabled": 0, "fusion_lon": 0.0, "fusion_lat": 0.0, "lat": 38.87480433333333, "type": "electric_scooter", "lon": -77.01073133333334, "bike_id": "b368e4e6d8221fd291c7539b3c925a6c", "rental_uris": {"android": "https://dc.lft.to/lastmile_qr_scan", "ios": "https://dc.lft.to/lastmile_qr_scan"}, "name": "b368e4e6d8221fd291c7539b3c925a6c", "is_reserved": 0}, {"is_disabled": 0, "fusion_lon": 0.0, "fusion_lat": 0.0, "lat": 38.886807166666664, "type": "electric_scooter", "lon": -77.001999, "bike_id": "7f4db55eb9f1226de298247e1b6f9c68", "rental_uris": {"android": "https://dc.lft.to/lastmile_qr_scan", "ios": "https://dc.lft.to/lastmile_qr_scan"}, "name": "7f4db55eb9f1226de298247e1b6f9c68", "is_reserved": 0}, {"is_disabled": 0, "fusion_lon": 0.0, "fusion_lat": 0.0, "lat": 38.913384, "type": "electric_scooter", "lon": -77.04868316666666, "bike_id": "325a7357e3a628cd98469bd442cc457a", "rental_uris": {"android": "https://dc.lft.to/lastmile_qr_scan", "ios": "https://dc.lft.to/lastmile_qr_scan"}, "name": "325a7357e3a628cd98469bd442cc457a", "is_reserved": 0}, {"is_disabled": 0, "fusion_lon": 0.0, "fusion_lat": 0.0, "lat": 38.9517805, "type": "electric_scooter", "lon": -77.0566195, "bike_id": "295061d04b4a48eeb84485153d4d0350", "rental_uris": {"android": "https://dc.lft.to/lastmile_qr_scan", "ios": "https://dc.lft.to/lastmile_qr_scan"}, "name": "295061d04b4a48eeb84485153d4d0350", "is_reserved": 0}, {"is_disabled": 0, "fusion_lon": 0.0, "fusion_lat": 0.0, "lat": 38.95545766666667, "type": "electric_bike", "lon": -76.9354625, "bike_id": "4253e0d2415ae4d0c6dc05e49dd11aa8", "rental_uris": {"android": "https://dc.lft.to/lastmile_qr_scan", "ios": "https://dc.lft.to/lastmile_qr_scan"}, "name": "4253e0d2415ae4d0c6dc05e49dd11aa8", "is_reserved": 0}, {"is_disabled": 0, "fusion_lon": 0.0, "fusion_lat": 0.0, "lat": 38.83196266666667, "type": "electric_bike", "lon": -77.076874, "bike_id": "e5005ea55e62d79470de5dddb89b4928", "rental_uris": {"android": "https://dc.lft.to/lastmile_qr_scan", "ios": "https://dc.lft.to/lastmile_qr_scan"}, "name": "e5005ea55e62d79470de5dddb89b4928", "is_reserved": 0}, {"is_disabled": 0, "fusion_lon": 0.0, "fusion_lat": 0.0, "lat": 38.90957816666667, "type": "electric_scooter", "lon": -77.02285433333333, "bike_id": "795a4b62d4c1884c74422e7f1f63ef9b", "rental_uris": {"android": "https://dc.lft.to/lastmile_qr_scan", "ios": "https://dc.lft.to/lastmile_qr_scan"}, "name": "795a4b62d4c1884c74422e7f1f63ef9b", "is_reserved": 0}, {"is_disabled": 0, "fusion_lon": 0.0, "fusion_lat": 0.0, "lat": 38.92585733333333, "type": "electric_scooter", "lon": -77.0553865, "bike_id": "66c399474d1d75ccfcddf3863753b249", "rental_uris": {"android": "https://dc.lft.to/lastmile_qr_scan", "ios": "https://dc.lft.to/lastmile_qr_scan"}, "name": "66c399474d1d75ccfcddf3863753b249", "is_reserved": 0}, {"is_disabled": 0, "fusion_lon": 0.0, "fusion_lat": 0.0, "lat": 38.91565516666667, "type": "electric_scooter", "lon": -77.038106, "bike_id": "2f982b7f3376060e18245d5b42cc983d", "rental_uris": {"android": "https://dc.lft.to/lastmile_qr_scan", "ios": "https://dc.lft.to/lastmile_qr_scan"}, "name": "2f982b7f3376060e18245d5b42cc983d", "is_reserved": 0}, {"is_disabled": 0, "fusion_lon": 0.0, "fusion_lat": 0.0, "lat": 38.895006333333335, "type": "electric_scooter", "lon": -76.948842, "bike_id": "275e0eb30d493c2ca0912cb4251ee1e8", "rental_uris": {"android": "https://dc.lft.to/lastmile_qr_scan", "ios": "https://dc.lft.to/lastmile_qr_scan"}, "name": "275e0eb30d493c2ca0912cb4251ee1e8", "is_reserved": 0}, {"is_disabled": 0, "fusion_lon": 0.0, "fusion_lat": 0.0, "lat": 38.913022833333336, "type": "electric_scooter", "lon": -77.04671833333333, "bike_id": "6835eafa61bbf522602a5f4bc345e8db", "rental_uris": {"android": "https://dc.lft.to/lastmile_qr_scan", "ios": "https://dc.lft.to/lastmile_qr_scan"}, "name": "6835eafa61bbf522602a5f4bc345e8db", "is_reserved": 0}, {"is_disabled": 0, "fusion_lon": 0.0, "fusion_lat": 0.0, "lat": 38.9051475, "type": "electric_scooter", "lon": -77.04779933333333, "bike_id": "e3fa1dca874351e662349dfa81748520", "rental_uris": {"android": "https://dc.lft.to/lastmile_qr_scan", "ios": "https://dc.lft.to/lastmile_qr_scan"}, "name": "e3fa1dca874351e662349dfa81748520", "is_reserved": 0}, {"is_disabled": 0, "fusion_lon": 0.0, "fusion_lat": 0.0, "lat": 38.92056266666667, "type": "electric_scooter", "lon": -77.04192666666667, "bike_id": "8616d4aa2c2053dc12d6d2e9369d0002", "rental_uris": {"android": "https://dc.lft.to/lastmile_qr_scan", "ios": "https://dc.lft.to/lastmile_qr_scan"}, "name": "8616d4aa2c2053dc12d6d2e9369d0002", "is_reserved": 0}, {"is_disabled": 0, "fusion_lon": 0.0, "fusion_lat": 0.0, "lat": 38.946071, "type": "electric_scooter", "lon": -77.03466133333333, "bike_id": "3fd1a6213f65f1b69fe13d0621d36f0c", "rental_uris": {"android": "https://dc.lft.to/lastmile_qr_scan", "ios": "https://dc.lft.to/lastmile_qr_scan"}, "name": "3fd1a6213f65f1b69fe13d0621d36f0c", "is_reserved": 0}, {"is_disabled": 0, "fusion_lon": 0.0, "fusion_lat": 0.0, "lat": 38.91992233333333, "type": "electric_scooter", "lon": -77.0329315, "bike_id": "06ba6c956f17e21240d7cf3ceeae3417", "rental_uris": {"android": "https://dc.lft.to/lastmile_qr_scan", "ios": "https://dc.lft.to/lastmile_qr_scan"}, "name": "06ba6c956f17e21240d7cf3ceeae3417", "is_reserved": 0}, {"is_disabled": 0, "fusion_lon": 0.0, "fusion_lat": 0.0, "lat": 38.893566666666665, "type": "electric_scooter", "lon": -77.0218595, "bike_id": "c49fe92a288a789e5f538e951d1a2913", "rental_uris": {"android": "https://dc.lft.to/lastmile_qr_scan", "ios": "https://dc.lft.to/lastmile_qr_scan"}, "name": "c49fe92a288a789e5f538e951d1a2913", "is_reserved": 0}, {"is_disabled": 0, "fusion_lon": 0.0, "fusion_lat": 0.0, "lat": 38.9214945, "type": "electric_scooter", "lon": -77.03510616666667, "bike_id": "e256bec117b6d655395d2475732fa68d", "rental_uris": {"android": "https://dc.lft.to/lastmile_qr_scan", "ios": "https://dc.lft.to/lastmile_qr_scan"}, "name": "e256bec117b6d655395d2475732fa68d", "is_reserved": 0}, {"is_disabled": 0, "fusion_lon": 0.0, "fusion_lat": 0.0, "lat": 38.90500766666667, "type": "electric_scooter", "lon": -77.02949883333334, "bike_id": "d063126830125edd5d06d4e6e21d4eeb", "rental_uris": {"android": "https://dc.lft.to/lastmile_qr_scan", "ios": "https://dc.lft.to/lastmile_qr_scan"}, "name": "d063126830125edd5d06d4e6e21d4eeb", "is_reserved": 0}, {"is_disabled": 0, "fusion_lon": 0.0, "fusion_lat": 0.0, "lat": 38.906719333333335, "type": "electric_scooter", "lon": -77.02718, "bike_id": "2555eab9a21506307b54905358f8c148", "rental_uris": {"android": "https://dc.lft.to/lastmile_qr_scan", "ios": "https://dc.lft.to/lastmile_qr_scan"}, "name": "2555eab9a21506307b54905358f8c148", "is_reserved": 0}, {"is_disabled": 0, "fusion_lon": 0.0, "fusion_lat": 0.0, "lat": 38.844313666666665, "type": "electric_scooter", "lon": -76.9978765, "bike_id": "41e1a70484444cd26158ceeaad2e8170", "rental_uris": {"android": "https://dc.lft.to/lastmile_qr_scan", "ios": "https://dc.lft.to/lastmile_qr_scan"}, "name": "41e1a70484444cd26158ceeaad2e8170", "is_reserved": 0}, {"is_disabled": 0, "fusion_lon": 0.0, "fusion_lat": 0.0, "lat": 38.912779666666665, "type": "electric_scooter", "lon": -77.022481, "bike_id": "f279a164b9c6750023f10cf131a22fd5", "rental_uris": {"android": "https://dc.lft.to/lastmile_qr_scan", "ios": "https://dc.lft.to/lastmile_qr_scan"}, "name": "f279a164b9c6750023f10cf131a22fd5", "is_reserved": 0}, {"is_disabled": 0, "fusion_lon": 0.0, "fusion_lat": 0.0, "lat": 38.93078333333333, "type": "electric_scooter", "lon": -77.03809916666667, "bike_id": "8d3d69d4663bec7c95942c32aa177e7a", "rental_uris": {"android": "https://dc.lft.to/lastmile_qr_scan", "ios": "https://dc.lft.to/lastmile_qr_scan"}, "name": "8d3d69d4663bec7c95942c32aa177e7a", "is_reserved": 0}, {"is_disabled": 0, "fusion_lon": 0.0, "fusion_lat": 0.0, "lat": 38.89479866666667, "type": "electric_scooter", "lon": -76.99417816666667, "bike_id": "3a258be754278d36ddbe7aec9721a693", "rental_uris": {"android": "https://dc.lft.to/lastmile_qr_scan", "ios": "https://dc.lft.to/lastmile_qr_scan"}, "name": "3a258be754278d36ddbe7aec9721a693", "is_reserved": 0}, {"is_disabled": 0, "fusion_lon": 0.0, "fusion_lat": 0.0, "lat": 38.90856633333333, "type": "electric_scooter", "lon": -77.03189766666667, "bike_id": "3717bb531b1a1d8b645f6e203e96847d", "rental_uris": {"android": "https://dc.lft.to/lastmile_qr_scan", "ios": "https://dc.lft.to/lastmile_qr_scan"}, "name": "3717bb531b1a1d8b645f6e203e96847d", "is_reserved": 0}, {"is_disabled": 0, "fusion_lon": 0.0, "fusion_lat": 0.0, "lat": 38.92870383333333, "type": "electric_scooter", "lon": -77.014338, "bike_id": "8fed58ce1bdbac70310461b0eb2766c3", "rental_uris": {"android": "https://dc.lft.to/lastmile_qr_scan", "ios": "https://dc.lft.to/lastmile_qr_scan"}, "name": "8fed58ce1bdbac70310461b0eb2766c3", "is_reserved": 0}, {"is_disabled": 0, "fusion_lon": 0.0, "fusion_lat": 0.0, "lat": 38.90115766666667, "type": "electric_scooter", "lon": -77.04986, "bike_id": "52731817379359214959f6629869e645", "rental_uris": {"android": "https://dc.lft.to/lastmile_qr_scan", "ios": "https://dc.lft.to/lastmile_qr_scan"}, "name": "52731817379359214959f6629869e645", "is_reserved": 0}, {"is_disabled": 0, "fusion_lon": 0.0, "fusion_lat": 0.0, "lat": 38.918403, "type": "electric_scooter", "lon": -77.07212466666667, "bike_id": "0af87585fe856830a23c1821654805bb", "rental_uris": {"android": "https://dc.lft.to/lastmile_qr_scan", "ios": "https://dc.lft.to/lastmile_qr_scan"}, "name": "0af87585fe856830a23c1821654805bb", "is_reserved": 0}, {"is_disabled": 0, "fusion_lon": 0.0, "fusion_lat": 0.0, "lat": 38.9127135, "type": "electric_scooter", "lon": -77.02224433333333, "bike_id": "8ebd4a66848931c33f328975ad4daf92", "rental_uris": {"android": "https://dc.lft.to/lastmile_qr_scan", "ios": "https://dc.lft.to/lastmile_qr_scan"}, "name": "8ebd4a66848931c33f328975ad4daf92", "is_reserved": 0}, {"is_disabled": 0, "fusion_lon": 0.0, "fusion_lat": 0.0, "lat": 38.906067666666665, "type": "electric_scooter", "lon": -77.05712316666667, "bike_id": "512e02a763dd042b59e2f117a3f61a06", "rental_uris": {"android": "https://dc.lft.to/lastmile_qr_scan", "ios": "https://dc.lft.to/lastmile_qr_scan"}, "name": "512e02a763dd042b59e2f117a3f61a06", "is_reserved": 0}, {"is_disabled": 0, "fusion_lon": 0.0, "fusion_lat": 0.0, "lat": 38.92519933333333, "type": "electric_scooter", "lon": -77.07661966666667, "bike_id": "6ed69673e67c52d9e715991b533cb167", "rental_uris": {"android": "https://dc.lft.to/lastmile_qr_scan", "ios": "https://dc.lft.to/lastmile_qr_scan"}, "name": "6ed69673e67c52d9e715991b533cb167", "is_reserved": 0}, {"is_disabled": 0, "fusion_lon": 0.0, "fusion_lat": 0.0, "lat": 38.88867033333333, "type": "electric_scooter", "lon": -77.040011, "bike_id": "38431aa9a1c3954f41b9d41de0f36054", "rental_uris": {"android": "https://dc.lft.to/lastmile_qr_scan", "ios": "https://dc.lft.to/lastmile_qr_scan"}, "name": "38431aa9a1c3954f41b9d41de0f36054", "is_reserved": 0}, {"is_disabled": 0, "fusion_lon": 0.0, "fusion_lat": 0.0, "lat": 38.90638633333333, "type": "electric_bike", "lon": -77.06417166666667, "bike_id": "adaa270cc1f3ae729f5300a989237255", "rental_uris": {"android": "https://dc.lft.to/lastmile_qr_scan", "ios": "https://dc.lft.to/lastmile_qr_scan"}, "name": "adaa270cc1f3ae729f5300a989237255", "is_reserved": 0}, {"is_disabled": 0, "fusion_lon": 0.0, "fusion_lat": 0.0, "lat": 38.9117365, "type": "electric_scooter", "lon": -77.03182466666667, "bike_id": "698ab34dfb3f6509300a6c42c592c136", "rental_uris": {"android": "https://dc.lft.to/lastmile_qr_scan", "ios": "https://dc.lft.to/lastmile_qr_scan"}, "name": "698ab34dfb3f6509300a6c42c592c136", "is_reserved": 0}, {"is_disabled": 0, "fusion_lon": 0.0, "fusion_lat": 0.0, "lat": 38.908674833333336, "type": "electric_scooter", "lon": -77.03559966666667, "bike_id": "931b01f7c9ccf924f043ac651309054f", "rental_uris": {"android": "https://dc.lft.to/lastmile_qr_scan", "ios": "https://dc.lft.to/lastmile_qr_scan"}, "name": "931b01f7c9ccf924f043ac651309054f", "is_reserved": 0}, {"is_disabled": 0, "fusion_lon": 0.0, "fusion_lat": 0.0, "lat": 38.92500916666667, "type": "electric_scooter", "lon": -76.995892, "bike_id": "2163811db57645b55026f0ff9ab435b4", "rental_uris": {"android": "https://dc.lft.to/lastmile_qr_scan", "ios": "https://dc.lft.to/lastmile_qr_scan"}, "name": "2163811db57645b55026f0ff9ab435b4", "is_reserved": 0}, {"is_disabled": 0, "fusion_lon": 0.0, "fusion_lat": 0.0, "lat": 38.841043166666665, "type": "electric_bike", "lon": -77.08944833333334, "bike_id": "b9c5e8242f50321485ff9bb011f52c8c", "rental_uris": {"android": "https://dc.lft.to/lastmile_qr_scan", "ios": "https://dc.lft.to/lastmile_qr_scan"}, "name": "b9c5e8242f50321485ff9bb011f52c8c", "is_reserved": 0}, {"is_disabled": 0, "fusion_lon": 0.0, "fusion_lat": 0.0, "lat": 38.87622733333333, "type": "electric_scooter", "lon": -76.96542716666667, "bike_id": "69504eb235e1d983085a545d0a89490f", "rental_uris": {"android": "https://dc.lft.to/lastmile_qr_scan", "ios": "https://dc.lft.to/lastmile_qr_scan"}, "name": "69504eb235e1d983085a545d0a89490f", "is_reserved": 0}, {"is_disabled": 0, "fusion_lon": 0.0, "fusion_lat": 0.0, "lat": 38.883497, "type": "electric_scooter", "lon": -76.927864, "bike_id": "f2c589a5547bbdec25edfe1e000cedb1", "rental_uris": {"android": "https://dc.lft.to/lastmile_qr_scan", "ios": "https://dc.lft.to/lastmile_qr_scan"}, "name": "f2c589a5547bbdec25edfe1e000cedb1", "is_reserved": 0}, {"is_disabled": 0, "fusion_lon": 0.0, "fusion_lat": 0.0, "lat": 38.879335166666664, "type": "electric_scooter", "lon": -77.00555016666667, "bike_id": "1903015096ac7b1e4a412fc1e0bd84fd", "rental_uris": {"android": "https://dc.lft.to/lastmile_qr_scan", "ios": "https://dc.lft.to/lastmile_qr_scan"}, "name": "1903015096ac7b1e4a412fc1e0bd84fd", "is_reserved": 0}, {"is_disabled": 0, "fusion_lon": 0.0, "fusion_lat": 0.0, "lat": 38.89259, "type": "electric_scooter", "lon": -76.941584, "bike_id": "a852bfb48816d4e5e4137b0a5d854d74", "rental_uris": {"android": "https://dc.lft.to/lastmile_qr_scan", "ios": "https://dc.lft.to/lastmile_qr_scan"}, "name": "a852bfb48816d4e5e4137b0a5d854d74", "is_reserved": 0}, {"is_disabled": 0, "fusion_lon": 0.0, "fusion_lat": 0.0, "lat": 38.90844833333333, "type": "electric_scooter", "lon": -77.0335655, "bike_id": "dea1a849df041985594240697b157b20", "rental_uris": {"android": "https://dc.lft.to/lastmile_qr_scan", "ios": "https://dc.lft.to/lastmile_qr_scan"}, "name": "dea1a849df041985594240697b157b20", "is_reserved": 0}, {"is_disabled": 0, "fusion_lon": 0.0, "fusion_lat": 0.0, "lat": 38.90948916666667, "type": "electric_scooter", "lon": -77.01527833333333, "bike_id": "d6450c727c54b53a3393b6a27a936b99", "rental_uris": {"android": "https://dc.lft.to/lastmile_qr_scan", "ios": "https://dc.lft.to/lastmile_qr_scan"}, "name": "d6450c727c54b53a3393b6a27a936b99", "is_reserved": 0}, {"is_disabled": 0, "fusion_lon": 0.0, "fusion_lat": 0.0, "lat": 38.898523, "type": "electric_bike", "lon": -76.93191716666666, "bike_id": "871cb49685a7dc2da746bcf3dc9eda5e", "rental_uris": {"android": "https://dc.lft.to/lastmile_qr_scan", "ios": "https://dc.lft.to/lastmile_qr_scan"}, "name": "871cb49685a7dc2da746bcf3dc9eda5e", "is_reserved": 0}, {"is_disabled": 0, "fusion_lon": 0.0, "fusion_lat": 0.0, "lat": 38.892242333333336, "type": "electric_scooter", "lon": -77.02262566666667, "bike_id": "d7ce3f488e75bf232fad623c4cffcb9b", "rental_uris": {"android": "https://dc.lft.to/lastmile_qr_scan", "ios": "https://dc.lft.to/lastmile_qr_scan"}, "name": "d7ce3f488e75bf232fad623c4cffcb9b", "is_reserved": 0}, {"is_disabled": 0, "fusion_lon": 0.0, "fusion_lat": 0.0, "lat": 38.9064885, "type": "electric_scooter", "lon": -77.02530916666667, "bike_id": "0207ea4e3847ea190d8c8967f0d40e8f", "rental_uris": {"android": "https://dc.lft.to/lastmile_qr_scan", "ios": "https://dc.lft.to/lastmile_qr_scan"}, "name": "0207ea4e3847ea190d8c8967f0d40e8f", "is_reserved": 0}, {"is_disabled": 0, "fusion_lon": 0.0, "fusion_lat": 0.0, "lat": 38.893549166666666, "type": "electric_scooter", "lon": -77.02225266666666, "bike_id": "635018c00eb243a80d3c347a2ebd8124", "rental_uris": {"android": "https://dc.lft.to/lastmile_qr_scan", "ios": "https://dc.lft.to/lastmile_qr_scan"}, "name": "635018c00eb243a80d3c347a2ebd8124", "is_reserved": 0}, {"is_disabled": 0, "fusion_lon": 0.0, "fusion_lat": 0.0, "lat": 38.923915, "type": "electric_scooter", "lon": -77.0276425, "bike_id": "3e34ddd18ec2b8620fff3f2a60e7b8d6", "rental_uris": {"android": "https://dc.lft.to/lastmile_qr_scan", "ios": "https://dc.lft.to/lastmile_qr_scan"}, "name": "3e34ddd18ec2b8620fff3f2a60e7b8d6", "is_reserved": 0}, {"is_disabled": 0, "fusion_lon": 0.0, "fusion_lat": 0.0, "lat": 38.9165785, "type": "electric_scooter", "lon": -77.04658833333333, "bike_id": "4ab42bc69a4cb0397f4ebc39eed1f262", "rental_uris": {"android": "https://dc.lft.to/lastmile_qr_scan", "ios": "https://dc.lft.to/lastmile_qr_scan"}, "name": "4ab42bc69a4cb0397f4ebc39eed1f262", "is_reserved": 0}, {"is_disabled": 0, "fusion_lon": 0.0, "fusion_lat": 0.0, "lat": 38.858725666666665, "type": "electric_scooter", "lon": -76.99025866666666, "bike_id": "484c25f34509b1345a95ca4bc0d5cd2e", "rental_uris": {"android": "https://dc.lft.to/lastmile_qr_scan", "ios": "https://dc.lft.to/lastmile_qr_scan"}, "name": "484c25f34509b1345a95ca4bc0d5cd2e", "is_reserved": 0}, {"is_disabled": 0, "fusion_lon": 0.0, "fusion_lat": 0.0, "lat": 38.909621666666666, "type": "electric_scooter", "lon": -77.03426866666666, "bike_id": "9dab85fee74c73d22bd2e9972841e179", "rental_uris": {"android": "https://dc.lft.to/lastmile_qr_scan", "ios": "https://dc.lft.to/lastmile_qr_scan"}, "name": "9dab85fee74c73d22bd2e9972841e179", "is_reserved": 0}, {"is_disabled": 0, "fusion_lon": 0.0, "fusion_lat": 0.0, "lat": 38.960398, "type": "electric_bike", "lon": -76.9273155, "bike_id": "3d41e2f31e98fa9c42979d67abd6de35", "rental_uris": {"android": "https://dc.lft.to/lastmile_qr_scan", "ios": "https://dc.lft.to/lastmile_qr_scan"}, "name": "3d41e2f31e98fa9c42979d67abd6de35", "is_reserved": 0}, {"is_disabled": 0, "fusion_lon": 0.0, "fusion_lat": 0.0, "lat": 38.90713483333333, "type": "electric_scooter", "lon": -77.03442683333333, "bike_id": "0f4cb7ee591a0a6ea6744cb6a2beeeeb", "rental_uris": {"android": "https://dc.lft.to/lastmile_qr_scan", "ios": "https://dc.lft.to/lastmile_qr_scan"}, "name": "0f4cb7ee591a0a6ea6744cb6a2beeeeb", "is_reserved": 0}, {"is_disabled": 0, "fusion_lon": 0.0, "fusion_lat": 0.0, "lat": 38.9077185, "type": "electric_scooter", "lon": -77.03197833333333, "bike_id": "da4044d858d4ae664d1e2d9e059c0a9a", "rental_uris": {"android": "https://dc.lft.to/lastmile_qr_scan", "ios": "https://dc.lft.to/lastmile_qr_scan"}, "name": "da4044d858d4ae664d1e2d9e059c0a9a", "is_reserved": 0}, {"is_disabled": 0, "fusion_lon": 0.0, "fusion_lat": 0.0, "lat": 38.90701383333333, "type": "electric_scooter", "lon": -77.06303983333333, "bike_id": "e3eb12f1ebef1f69a8a46eb43678f7d9", "rental_uris": {"android": "https://dc.lft.to/lastmile_qr_scan", "ios": "https://dc.lft.to/lastmile_qr_scan"}, "name": "e3eb12f1ebef1f69a8a46eb43678f7d9", "is_reserved": 0}, {"is_disabled": 0, "fusion_lon": 0.0, "fusion_lat": 0.0, "lat": 38.89728783333333, "type": "electric_scooter", "lon": -77.02509733333333, "bike_id": "d763d666be94585aa9811ca44707d085", "rental_uris": {"android": "https://dc.lft.to/lastmile_qr_scan", "ios": "https://dc.lft.to/lastmile_qr_scan"}, "name": "d763d666be94585aa9811ca44707d085", "is_reserved": 0}, {"is_disabled": 0, "fusion_lon": 0.0, "fusion_lat": 0.0, "lat": 38.8936985, "type": "electric_scooter", "lon": -76.97819666666666, "bike_id": "8a243680e0bd0a379f1c9e3aa5dc7eee", "rental_uris": {"android": "https://dc.lft.to/lastmile_qr_scan", "ios": "https://dc.lft.to/lastmile_qr_scan"}, "name": "8a243680e0bd0a379f1c9e3aa5dc7eee", "is_reserved": 0}, {"is_disabled": 0, "fusion_lon": 0.0, "fusion_lat": 0.0, "lat": 38.89314066666667, "type": "electric_scooter", "lon": -77.02209966666666, "bike_id": "6400f4f8e23ffd2c62fe91895a7355f9", "rental_uris": {"android": "https://dc.lft.to/lastmile_qr_scan", "ios": "https://dc.lft.to/lastmile_qr_scan"}, "name": "6400f4f8e23ffd2c62fe91895a7355f9", "is_reserved": 0}, {"is_disabled": 0, "fusion_lon": 0.0, "fusion_lat": 0.0, "lat": 38.90003983333333, "type": "electric_scooter", "lon": -77.03219166666666, "bike_id": "228cf03c580d3f670c84b41785550804", "rental_uris": {"android": "https://dc.lft.to/lastmile_qr_scan", "ios": "https://dc.lft.to/lastmile_qr_scan"}, "name": "228cf03c580d3f670c84b41785550804", "is_reserved": 0}, {"is_disabled": 0, "fusion_lon": 0.0, "fusion_lat": 0.0, "lat": 38.958939, "type": "electric_bike", "lon": -76.92490316666667, "bike_id": "95cc3a049507fbde64d6a4009928a5cc", "rental_uris": {"android": "https://dc.lft.to/lastmile_qr_scan", "ios": "https://dc.lft.to/lastmile_qr_scan"}, "name": "95cc3a049507fbde64d6a4009928a5cc", "is_reserved": 0}, {"is_disabled": 0, "fusion_lon": 0.0, "fusion_lat": 0.0, "lat": 38.90530283333333, "type": "electric_scooter", "lon": -77.051486, "bike_id": "eb65bae8e2ad8df0996736444ff72f8b", "rental_uris": {"android": "https://dc.lft.to/lastmile_qr_scan", "ios": "https://dc.lft.to/lastmile_qr_scan"}, "name": "eb65bae8e2ad8df0996736444ff72f8b", "is_reserved": 0}, {"is_disabled": 0, "fusion_lon": 0.0, "fusion_lat": 0.0, "lat": 38.8853185, "type": "electric_scooter", "lon": -76.99804116666667, "bike_id": "43f2f4896ec1b9f1163e59a3c7b80ac2", "rental_uris": {"android": "https://dc.lft.to/lastmile_qr_scan", "ios": "https://dc.lft.to/lastmile_qr_scan"}, "name": "43f2f4896ec1b9f1163e59a3c7b80ac2", "is_reserved": 0}, {"is_disabled": 0, "fusion_lon": 0.0, "fusion_lat": 0.0, "lat": 38.91691733333333, "type": "electric_scooter", "lon": -77.026047, "bike_id": "bcb50b2df8dc05d050edc8b7c2c0c31f", "rental_uris": {"android": "https://dc.lft.to/lastmile_qr_scan", "ios": "https://dc.lft.to/lastmile_qr_scan"}, "name": "bcb50b2df8dc05d050edc8b7c2c0c31f", "is_reserved": 0}, {"is_disabled": 0, "fusion_lon": 0.0, "fusion_lat": 0.0, "lat": 38.875469, "type": "electric_scooter", "lon": -77.00539966666666, "bike_id": "b2e68603c82e53d6a3edbbc5c5bb2e12", "rental_uris": {"android": "https://dc.lft.to/lastmile_qr_scan", "ios": "https://dc.lft.to/lastmile_qr_scan"}, "name": "b2e68603c82e53d6a3edbbc5c5bb2e12", "is_reserved": 0}, {"is_disabled": 0, "fusion_lon": 0.0, "fusion_lat": 0.0, "lat": 38.98824533333333, "type": "electric_bike", "lon": -76.98751783333333, "bike_id": "6b9fb4601feca426fca13028bbbe5b2f", "rental_uris": {"android": "https://dc.lft.to/lastmile_qr_scan", "ios": "https://dc.lft.to/lastmile_qr_scan"}, "name": "6b9fb4601feca426fca13028bbbe5b2f", "is_reserved": 0}, {"is_disabled": 0, "fusion_lon": 0.0, "fusion_lat": 0.0, "lat": 38.909606, "type": "electric_scooter", "lon": -77.022855, "bike_id": "bfcc61cb788da244949b982ab54b2f32", "rental_uris": {"android": "https://dc.lft.to/lastmile_qr_scan", "ios": "https://dc.lft.to/lastmile_qr_scan"}, "name": "bfcc61cb788da244949b982ab54b2f32", "is_reserved": 0}, {"is_disabled": 0, "fusion_lon": 0.0, "fusion_lat": 0.0, "lat": 38.895176666666664, "type": "electric_scooter", "lon": -77.02841716666667, "bike_id": "e22bd3e7a9ff7fec9ebf8c7893f188a6", "rental_uris": {"android": "https://dc.lft.to/lastmile_qr_scan", "ios": "https://dc.lft.to/lastmile_qr_scan"}, "name": "e22bd3e7a9ff7fec9ebf8c7893f188a6", "is_reserved": 0}, {"is_disabled": 0, "fusion_lon": 0.0, "fusion_lat": 0.0, "lat": 38.92038616666667, "type": "electric_scooter", "lon": -77.025895, "bike_id": "d281ae13d0a59315810e518ad4986c6a", "rental_uris": {"android": "https://dc.lft.to/lastmile_qr_scan", "ios": "https://dc.lft.to/lastmile_qr_scan"}, "name": "d281ae13d0a59315810e518ad4986c6a", "is_reserved": 0}, {"is_disabled": 0, "fusion_lon": 0.0, "fusion_lat": 0.0, "lat": 38.907014833333335, "type": "electric_scooter", "lon": -77.02693516666666, "bike_id": "a55c56622b58c4bb14127d5aed6b513e", "rental_uris": {"android": "https://dc.lft.to/lastmile_qr_scan", "ios": "https://dc.lft.to/lastmile_qr_scan"}, "name": "a55c56622b58c4bb14127d5aed6b513e", "is_reserved": 0}, {"is_disabled": 0, "fusion_lon": 0.0, "fusion_lat": 0.0, "lat": 38.931064666666664, "type": "electric_scooter", "lon": -77.02461783333334, "bike_id": "b2375b457d1f444fcae6a12b386f5b1c", "rental_uris": {"android": "https://dc.lft.to/lastmile_qr_scan", "ios": "https://dc.lft.to/lastmile_qr_scan"}, "name": "b2375b457d1f444fcae6a12b386f5b1c", "is_reserved": 0}, {"is_disabled": 0, "fusion_lon": 0.0, "fusion_lat": 0.0, "lat": 38.88512816666667, "type": "electric_scooter", "lon": -76.99849433333333, "bike_id": "c0214365683e2a6158dbb0013e3d5e60", "rental_uris": {"android": "https://dc.lft.to/lastmile_qr_scan", "ios": "https://dc.lft.to/lastmile_qr_scan"}, "name": "c0214365683e2a6158dbb0013e3d5e60", "is_reserved": 0}, {"is_disabled": 0, "fusion_lon": 0.0, "fusion_lat": 0.0, "lat": 38.905526333333334, "type": "electric_scooter", "lon": -77.027013, "bike_id": "11e7a25500edc74207849df816c03ba6", "rental_uris": {"android": "https://dc.lft.to/lastmile_qr_scan", "ios": "https://dc.lft.to/lastmile_qr_scan"}, "name": "11e7a25500edc74207849df816c03ba6", "is_reserved": 0}, {"is_disabled": 0, "fusion_lon": 0.0, "fusion_lat": 0.0, "lat": 38.9335075, "type": "electric_scooter", "lon": -77.073828, "bike_id": "e615c8d7b333308efa77f00137e72a4b", "rental_uris": {"android": "https://dc.lft.to/lastmile_qr_scan", "ios": "https://dc.lft.to/lastmile_qr_scan"}, "name": "e615c8d7b333308efa77f00137e72a4b", "is_reserved": 0}, {"is_disabled": 0, "fusion_lon": 0.0, "fusion_lat": 0.0, "lat": 38.9097175, "type": "electric_scooter", "lon": -77.038712, "bike_id": "cd2ff99c45fa4933d24a6f83c55e8c1c", "rental_uris": {"android": "https://dc.lft.to/lastmile_qr_scan", "ios": "https://dc.lft.to/lastmile_qr_scan"}, "name": "cd2ff99c45fa4933d24a6f83c55e8c1c", "is_reserved": 0}, {"is_disabled": 0, "fusion_lon": 0.0, "fusion_lat": 0.0, "lat": 38.875164, "type": "electric_scooter", "lon": -77.013819, "bike_id": "a0bacbd48bc733721e255f9942469135", "rental_uris": {"android": "https://dc.lft.to/lastmile_qr_scan", "ios": "https://dc.lft.to/lastmile_qr_scan"}, "name": "a0bacbd48bc733721e255f9942469135", "is_reserved": 0}, {"is_disabled": 0, "fusion_lon": 0.0, "fusion_lat": 0.0, "lat": 38.896619, "type": "electric_scooter", "lon": -77.04340916666666, "bike_id": "b4281d11700cd9ec98f577409b891675", "rental_uris": {"android": "https://dc.lft.to/lastmile_qr_scan", "ios": "https://dc.lft.to/lastmile_qr_scan"}, "name": "b4281d11700cd9ec98f577409b891675", "is_reserved": 0}, {"is_disabled": 0, "fusion_lon": 0.0, "fusion_lat": 0.0, "lat": 38.92619783333333, "type": "electric_scooter", "lon": -77.04191366666667, "bike_id": "cb48bc862392297acef78c691621e2bd", "rental_uris": {"android": "https://dc.lft.to/lastmile_qr_scan", "ios": "https://dc.lft.to/lastmile_qr_scan"}, "name": "cb48bc862392297acef78c691621e2bd", "is_reserved": 0}, {"is_disabled": 0, "fusion_lon": 0.0, "fusion_lat": 0.0, "lat": 38.944444833333336, "type": "electric_scooter", "lon": -77.06042716666667, "bike_id": "d8888c730c95a73ed084cfae2ac44806", "rental_uris": {"android": "https://dc.lft.to/lastmile_qr_scan", "ios": "https://dc.lft.to/lastmile_qr_scan"}, "name": "d8888c730c95a73ed084cfae2ac44806", "is_reserved": 0}, {"is_disabled": 0, "fusion_lon": 0.0, "fusion_lat": 0.0, "lat": 38.9966785, "type": "electric_bike", "lon": -76.99146166666667, "bike_id": "d82a37aa996f05e25b815dd60f16f916", "rental_uris": {"android": "https://dc.lft.to/lastmile_qr_scan", "ios": "https://dc.lft.to/lastmile_qr_scan"}, "name": "d82a37aa996f05e25b815dd60f16f916", "is_reserved": 0}, {"is_disabled": 0, "fusion_lon": 0.0, "fusion_lat": 0.0, "lat": 38.90577433333333, "type": "electric_scooter", "lon": -77.04686533333333, "bike_id": "9efa5ea0f10dc10f28573727f4a21e4e", "rental_uris": {"android": "https://dc.lft.to/lastmile_qr_scan", "ios": "https://dc.lft.to/lastmile_qr_scan"}, "name": "9efa5ea0f10dc10f28573727f4a21e4e", "is_reserved": 0}, {"is_disabled": 0, "fusion_lon": 0.0, "fusion_lat": 0.0, "lat": 38.875736833333335, "type": "electric_scooter", "lon": -77.02076533333333, "bike_id": "0aaf771e534f33550e3936df4d93576a", "rental_uris": {"android": "https://dc.lft.to/lastmile_qr_scan", "ios": "https://dc.lft.to/lastmile_qr_scan"}, "name": "0aaf771e534f33550e3936df4d93576a", "is_reserved": 0}, {"is_disabled": 0, "fusion_lon": 0.0, "fusion_lat": 0.0, "lat": 38.9233575, "type": "electric_scooter", "lon": -77.04183716666667, "bike_id": "d8c86c991193a46b30f768ab5861f45e", "rental_uris": {"android": "https://dc.lft.to/lastmile_qr_scan", "ios": "https://dc.lft.to/lastmile_qr_scan"}, "name": "d8c86c991193a46b30f768ab5861f45e", "is_reserved": 0}, {"is_disabled": 0, "fusion_lon": 0.0, "fusion_lat": 0.0, "lat": 38.9006095, "type": "electric_scooter", "lon": -76.93387833333334, "bike_id": "a3e96449fbe68fb4152bebc2d4084748", "rental_uris": {"android": "https://dc.lft.to/lastmile_qr_scan", "ios": "https://dc.lft.to/lastmile_qr_scan"}, "name": "a3e96449fbe68fb4152bebc2d4084748", "is_reserved": 0}, {"is_disabled": 0, "fusion_lon": 0.0, "fusion_lat": 0.0, "lat": 38.931353, "type": "electric_scooter", "lon": -77.0573225, "bike_id": "4c3322634c60cac8ba4ff029087681f4", "rental_uris": {"android": "https://dc.lft.to/lastmile_qr_scan", "ios": "https://dc.lft.to/lastmile_qr_scan"}, "name": "4c3322634c60cac8ba4ff029087681f4", "is_reserved": 0}, {"is_disabled": 0, "fusion_lon": 0.0, "fusion_lat": 0.0, "lat": 38.87723966666667, "type": "electric_scooter", "lon": -77.00526566666667, "bike_id": "9705e80f7424dd0254cc3c126d0f02d3", "rental_uris": {"android": "https://dc.lft.to/lastmile_qr_scan", "ios": "https://dc.lft.to/lastmile_qr_scan"}, "name": "9705e80f7424dd0254cc3c126d0f02d3", "is_reserved": 0}, {"is_disabled": 0, "fusion_lon": 0.0, "fusion_lat": 0.0, "lat": 38.887284666666666, "type": "electric_scooter", "lon": -77.01743833333333, "bike_id": "e65bfc5523cbf815d9aadcda3b5963df", "rental_uris": {"android": "https://dc.lft.to/lastmile_qr_scan", "ios": "https://dc.lft.to/lastmile_qr_scan"}, "name": "e65bfc5523cbf815d9aadcda3b5963df", "is_reserved": 0}, {"is_disabled": 0, "fusion_lon": 0.0, "fusion_lat": 0.0, "lat": 38.87901133333333, "type": "electric_scooter", "lon": -76.9352445, "bike_id": "3285369c2e58b5e7ef10f6b226e0958c", "rental_uris": {"android": "https://dc.lft.to/lastmile_qr_scan", "ios": "https://dc.lft.to/lastmile_qr_scan"}, "name": "3285369c2e58b5e7ef10f6b226e0958c", "is_reserved": 0}, {"is_disabled": 0, "fusion_lon": 0.0, "fusion_lat": 0.0, "lat": 38.899674833333336, "type": "electric_scooter", "lon": -77.05148716666666, "bike_id": "d1b678428733becbcddc15508922a780", "rental_uris": {"android": "https://dc.lft.to/lastmile_qr_scan", "ios": "https://dc.lft.to/lastmile_qr_scan"}, "name": "d1b678428733becbcddc15508922a780", "is_reserved": 0}, {"is_disabled": 0, "fusion_lon": 0.0, "fusion_lat": 0.0, "lat": 38.913045, "type": "electric_scooter", "lon": -77.03840966666667, "bike_id": "75d9db76ca32b9d2eca63add95fdcc41", "rental_uris": {"android": "https://dc.lft.to/lastmile_qr_scan", "ios": "https://dc.lft.to/lastmile_qr_scan"}, "name": "75d9db76ca32b9d2eca63add95fdcc41", "is_reserved": 0}, {"is_disabled": 0, "fusion_lon": 0.0, "fusion_lat": 0.0, "lat": 38.892216833333336, "type": "electric_scooter", "lon": -77.04695866666667, "bike_id": "4f387ff8bc18d2d285c961c153b75d51", "rental_uris": {"android": "https://dc.lft.to/lastmile_qr_scan", "ios": "https://dc.lft.to/lastmile_qr_scan"}, "name": "4f387ff8bc18d2d285c961c153b75d51", "is_reserved": 0}, {"is_disabled": 0, "fusion_lon": 0.0, "fusion_lat": 0.0, "lat": 38.936062666666665, "type": "electric_scooter", "lon": -77.058678, "bike_id": "e2ef96d6964c776eadb4751c6e81fcb4", "rental_uris": {"android": "https://dc.lft.to/lastmile_qr_scan", "ios": "https://dc.lft.to/lastmile_qr_scan"}, "name": "e2ef96d6964c776eadb4751c6e81fcb4", "is_reserved": 0}, {"is_disabled": 0, "fusion_lon": 0.0, "fusion_lat": 0.0, "lat": 38.906428166666664, "type": "electric_scooter", "lon": -77.00580916666667, "bike_id": "b7320708022135ca79a8667b90ce4207", "rental_uris": {"android": "https://dc.lft.to/lastmile_qr_scan", "ios": "https://dc.lft.to/lastmile_qr_scan"}, "name": "b7320708022135ca79a8667b90ce4207", "is_reserved": 0}, {"is_disabled": 0, "fusion_lon": 0.0, "fusion_lat": 0.0, "lat": 38.918080333333336, "type": "electric_scooter", "lon": -77.03178666666666, "bike_id": "557c262f78ece056a7f5bb3cfbc65d3d", "rental_uris": {"android": "https://dc.lft.to/lastmile_qr_scan", "ios": "https://dc.lft.to/lastmile_qr_scan"}, "name": "557c262f78ece056a7f5bb3cfbc65d3d", "is_reserved": 0}, {"is_disabled": 0, "fusion_lon": 0.0, "fusion_lat": 0.0, "lat": 38.92226383333333, "type": "electric_scooter", "lon": -77.03321016666666, "bike_id": "3ad72e60d7e845d95f6f669d90796949", "rental_uris": {"android": "https://dc.lft.to/lastmile_qr_scan", "ios": "https://dc.lft.to/lastmile_qr_scan"}, "name": "3ad72e60d7e845d95f6f669d90796949", "is_reserved": 0}, {"is_disabled": 0, "fusion_lon": 0.0, "fusion_lat": 0.0, "lat": 38.936625166666666, "type": "electric_scooter", "lon": -77.0594095, "bike_id": "998d3b21a77306da89ba40ce72b028c2", "rental_uris": {"android": "https://dc.lft.to/lastmile_qr_scan", "ios": "https://dc.lft.to/lastmile_qr_scan"}, "name": "998d3b21a77306da89ba40ce72b028c2", "is_reserved": 0}, {"is_disabled": 0, "fusion_lon": 0.0, "fusion_lat": 0.0, "lat": 38.88744666666667, "type": "electric_scooter", "lon": -77.0153825, "bike_id": "557f2ba20d57d695e08d46f8ddb41168", "rental_uris": {"android": "https://dc.lft.to/lastmile_qr_scan", "ios": "https://dc.lft.to/lastmile_qr_scan"}, "name": "557f2ba20d57d695e08d46f8ddb41168", "is_reserved": 0}, {"is_disabled": 0, "fusion_lon": 0.0, "fusion_lat": 0.0, "lat": 38.92216066666667, "type": "electric_scooter", "lon": -77.042453, "bike_id": "af816623a6b4f01b693b5bab13556150", "rental_uris": {"android": "https://dc.lft.to/lastmile_qr_scan", "ios": "https://dc.lft.to/lastmile_qr_scan"}, "name": "af816623a6b4f01b693b5bab13556150", "is_reserved": 0}, {"is_disabled": 0, "fusion_lon": 0.0, "fusion_lat": 0.0, "lat": 38.93599866666667, "type": "electric_scooter", "lon": -77.05601883333334, "bike_id": "b453f2ac643dc8c1086b249b09e49fd2", "rental_uris": {"android": "https://dc.lft.to/lastmile_qr_scan", "ios": "https://dc.lft.to/lastmile_qr_scan"}, "name": "b453f2ac643dc8c1086b249b09e49fd2", "is_reserved": 0}, {"is_disabled": 0, "fusion_lon": 0.0, "fusion_lat": 0.0, "lat": 38.892234333333334, "type": "electric_scooter", "lon": -77.04694233333333, "bike_id": "16182e7fb436dea1e7f1eb9dc83c2412", "rental_uris": {"android": "https://dc.lft.to/lastmile_qr_scan", "ios": "https://dc.lft.to/lastmile_qr_scan"}, "name": "16182e7fb436dea1e7f1eb9dc83c2412", "is_reserved": 0}, {"is_disabled": 0, "fusion_lon": 0.0, "fusion_lat": 0.0, "lat": 38.917091166666665, "type": "electric_scooter", "lon": -77.02881666666667, "bike_id": "dcb82f6ede33c11e683c189a3b1665e1", "rental_uris": {"android": "https://dc.lft.to/lastmile_qr_scan", "ios": "https://dc.lft.to/lastmile_qr_scan"}, "name": "dcb82f6ede33c11e683c189a3b1665e1", "is_reserved": 0}, {"is_disabled": 0, "fusion_lon": 0.0, "fusion_lat": 0.0, "lat": 38.8548375, "type": "electric_bike", "lon": -77.12046433333333, "bike_id": "b573a98f62685d58288ad444817c92c6", "rental_uris": {"android": "https://dc.lft.to/lastmile_qr_scan", "ios": "https://dc.lft.to/lastmile_qr_scan"}, "name": "b573a98f62685d58288ad444817c92c6", "is_reserved": 0}, {"is_disabled": 0, "fusion_lon": 0.0, "fusion_lat": 0.0, "lat": 38.93035016666666, "type": "electric_bike", "lon": -77.08276033333334, "bike_id": "a28f8f42437f96c21b3776d3139efe4d", "rental_uris": {"android": "https://dc.lft.to/lastmile_qr_scan", "ios": "https://dc.lft.to/lastmile_qr_scan"}, "name": "a28f8f42437f96c21b3776d3139efe4d", "is_reserved": 0}, {"is_disabled": 0, "fusion_lon": 0.0, "fusion_lat": 0.0, "lat": 38.89748316666667, "type": "electric_scooter", "lon": -77.02185516666667, "bike_id": "b4c57f9a7268b5c7a0cf5f99d46961c7", "rental_uris": {"android": "https://dc.lft.to/lastmile_qr_scan", "ios": "https://dc.lft.to/lastmile_qr_scan"}, "name": "b4c57f9a7268b5c7a0cf5f99d46961c7", "is_reserved": 0}, {"is_disabled": 0, "fusion_lon": 0.0, "fusion_lat": 0.0, "lat": 38.907357833333336, "type": "electric_scooter", "lon": -77.00753233333333, "bike_id": "0b9fcaab4d0639c137a3b40269eb3b10", "rental_uris": {"android": "https://dc.lft.to/lastmile_qr_scan", "ios": "https://dc.lft.to/lastmile_qr_scan"}, "name": "0b9fcaab4d0639c137a3b40269eb3b10", "is_reserved": 0}, {"is_disabled": 0, "fusion_lon": 0.0, "fusion_lat": 0.0, "lat": 38.91951783333333, "type": "electric_scooter", "lon": -77.01407383333333, "bike_id": "78bf503adfb52dc7508591d618bd0f6c", "rental_uris": {"android": "https://dc.lft.to/lastmile_qr_scan", "ios": "https://dc.lft.to/lastmile_qr_scan"}, "name": "78bf503adfb52dc7508591d618bd0f6c", "is_reserved": 0}, {"is_disabled": 0, "fusion_lon": 0.0, "fusion_lat": 0.0, "lat": 38.912651333333336, "type": "electric_scooter", "lon": -77.01067616666667, "bike_id": "69891bb031b4ed84cf6dead9199bf35a", "rental_uris": {"android": "https://dc.lft.to/lastmile_qr_scan", "ios": "https://dc.lft.to/lastmile_qr_scan"}, "name": "69891bb031b4ed84cf6dead9199bf35a", "is_reserved": 0}, {"is_disabled": 0, "fusion_lon": 0.0, "fusion_lat": 0.0, "lat": 38.910601166666666, "type": "electric_scooter", "lon": -77.06196333333334, "bike_id": "86592890cf2e3c7adbb74807749e2f5d", "rental_uris": {"android": "https://dc.lft.to/lastmile_qr_scan", "ios": "https://dc.lft.to/lastmile_qr_scan"}, "name": "86592890cf2e3c7adbb74807749e2f5d", "is_reserved": 0}, {"is_disabled": 0, "fusion_lon": 0.0, "fusion_lat": 0.0, "lat": 38.93477816666667, "type": "electric_scooter", "lon": -77.02403633333333, "bike_id": "e8e6a63e88e238b614c112e45b1d1ad4", "rental_uris": {"android": "https://dc.lft.to/lastmile_qr_scan", "ios": "https://dc.lft.to/lastmile_qr_scan"}, "name": "e8e6a63e88e238b614c112e45b1d1ad4", "is_reserved": 0}, {"is_disabled": 0, "fusion_lon": 0.0, "fusion_lat": 0.0, "lat": 38.930970333333335, "type": "electric_scooter", "lon": -77.02454916666667, "bike_id": "761ce152593510b5e5122364bb789a2c", "rental_uris": {"android": "https://dc.lft.to/lastmile_qr_scan", "ios": "https://dc.lft.to/lastmile_qr_scan"}, "name": "761ce152593510b5e5122364bb789a2c", "is_reserved": 0}, {"is_disabled": 0, "fusion_lon": 0.0, "fusion_lat": 0.0, "lat": 38.930675666666666, "type": "electric_scooter", "lon": -77.0380625, "bike_id": "ad8bd1b35d4a06e1751b4d6dd70a6086", "rental_uris": {"android": "https://dc.lft.to/lastmile_qr_scan", "ios": "https://dc.lft.to/lastmile_qr_scan"}, "name": "ad8bd1b35d4a06e1751b4d6dd70a6086", "is_reserved": 0}, {"is_disabled": 0, "fusion_lon": 0.0, "fusion_lat": 0.0, "lat": 38.902606166666665, "type": "electric_scooter", "lon": -77.0001945, "bike_id": "b7d4e66a85b839e820c5b2ec9b4a1f09", "rental_uris": {"android": "https://dc.lft.to/lastmile_qr_scan", "ios": "https://dc.lft.to/lastmile_qr_scan"}, "name": "b7d4e66a85b839e820c5b2ec9b4a1f09", "is_reserved": 0}, {"is_disabled": 0, "fusion_lon": 0.0, "fusion_lat": 0.0, "lat": 38.921401333333336, "type": "electric_scooter", "lon": -77.00920333333333, "bike_id": "4af7c81971317e9534767b0a27fed129", "rental_uris": {"android": "https://dc.lft.to/lastmile_qr_scan", "ios": "https://dc.lft.to/lastmile_qr_scan"}, "name": "4af7c81971317e9534767b0a27fed129", "is_reserved": 0}, {"is_disabled": 0, "fusion_lon": 0.0, "fusion_lat": 0.0, "lat": 38.864631333333335, "type": "electric_scooter", "lon": -76.99613866666667, "bike_id": "c303f6613c67fab7e9a0fd478d4666c1", "rental_uris": {"android": "https://dc.lft.to/lastmile_qr_scan", "ios": "https://dc.lft.to/lastmile_qr_scan"}, "name": "c303f6613c67fab7e9a0fd478d4666c1", "is_reserved": 0}, {"is_disabled": 0, "fusion_lon": 0.0, "fusion_lat": 0.0, "lat": 38.92918866666667, "type": "electric_scooter", "lon": -77.02152266666667, "bike_id": "ab3866b13df12b502cd66425cefc104e", "rental_uris": {"android": "https://dc.lft.to/lastmile_qr_scan", "ios": "https://dc.lft.to/lastmile_qr_scan"}, "name": "ab3866b13df12b502cd66425cefc104e", "is_reserved": 0}, {"is_disabled": 0, "fusion_lon": 0.0, "fusion_lat": 0.0, "lat": 38.879993166666665, "type": "electric_scooter", "lon": -77.02429416666666, "bike_id": "56de069f6653019df34ea1a3ef8f9e6d", "rental_uris": {"android": "https://dc.lft.to/lastmile_qr_scan", "ios": "https://dc.lft.to/lastmile_qr_scan"}, "name": "56de069f6653019df34ea1a3ef8f9e6d", "is_reserved": 0}, {"is_disabled": 0, "fusion_lon": 0.0, "fusion_lat": 0.0, "lat": 38.87489733333334, "type": "electric_scooter", "lon": -76.99799166666666, "bike_id": "ad4974f39246ff3bc203297c0a0d4fb1", "rental_uris": {"android": "https://dc.lft.to/lastmile_qr_scan", "ios": "https://dc.lft.to/lastmile_qr_scan"}, "name": "ad4974f39246ff3bc203297c0a0d4fb1", "is_reserved": 0}, {"is_disabled": 0, "fusion_lon": 0.0, "fusion_lat": 0.0, "lat": 38.90730666666666, "type": "electric_scooter", "lon": -77.02418883333333, "bike_id": "acfc9dab70f15371f6d903949854b960", "rental_uris": {"android": "https://dc.lft.to/lastmile_qr_scan", "ios": "https://dc.lft.to/lastmile_qr_scan"}, "name": "acfc9dab70f15371f6d903949854b960", "is_reserved": 0}, {"is_disabled": 0, "fusion_lon": 0.0, "fusion_lat": 0.0, "lat": 38.9192085, "type": "electric_scooter", "lon": -77.0447245, "bike_id": "854f76de266d0c92c860860353e90ea0", "rental_uris": {"android": "https://dc.lft.to/lastmile_qr_scan", "ios": "https://dc.lft.to/lastmile_qr_scan"}, "name": "854f76de266d0c92c860860353e90ea0", "is_reserved": 0}, {"is_disabled": 0, "fusion_lon": 0.0, "fusion_lat": 0.0, "lat": 38.9190405, "type": "electric_scooter", "lon": -77.02757983333333, "bike_id": "156a62b049969cf4546982624507dfc7", "rental_uris": {"android": "https://dc.lft.to/lastmile_qr_scan", "ios": "https://dc.lft.to/lastmile_qr_scan"}, "name": "156a62b049969cf4546982624507dfc7", "is_reserved": 0}, {"is_disabled": 0, "fusion_lon": 0.0, "fusion_lat": 0.0, "lat": 38.90522433333334, "type": "electric_scooter", "lon": -77.0624525, "bike_id": "c01791f8052348a2e28cf2fb40bcee8a", "rental_uris": {"android": "https://dc.lft.to/lastmile_qr_scan", "ios": "https://dc.lft.to/lastmile_qr_scan"}, "name": "c01791f8052348a2e28cf2fb40bcee8a", "is_reserved": 0}, {"is_disabled": 0, "fusion_lon": 0.0, "fusion_lat": 0.0, "lat": 38.9248415, "type": "electric_scooter", "lon": -77.02715083333334, "bike_id": "7f1c7b5db0dcc8766152d80f6c093084", "rental_uris": {"android": "https://dc.lft.to/lastmile_qr_scan", "ios": "https://dc.lft.to/lastmile_qr_scan"}, "name": "7f1c7b5db0dcc8766152d80f6c093084", "is_reserved": 0}, {"is_disabled": 0, "fusion_lon": 0.0, "fusion_lat": 0.0, "lat": 38.919967666666665, "type": "electric_scooter", "lon": -77.03222216666667, "bike_id": "86cda8080ff4fe47b9fb57fa3d74e3bb", "rental_uris": {"android": "https://dc.lft.to/lastmile_qr_scan", "ios": "https://dc.lft.to/lastmile_qr_scan"}, "name": "86cda8080ff4fe47b9fb57fa3d74e3bb", "is_reserved": 0}, {"is_disabled": 0, "fusion_lon": 0.0, "fusion_lat": 0.0, "lat": 38.9273835, "type": "electric_bike", "lon": -76.99368883333334, "bike_id": "438fbff6789c768f76857d862da6f249", "rental_uris": {"android": "https://dc.lft.to/lastmile_qr_scan", "ios": "https://dc.lft.to/lastmile_qr_scan"}, "name": "438fbff6789c768f76857d862da6f249", "is_reserved": 0}, {"is_disabled": 0, "fusion_lon": 0.0, "fusion_lat": 0.0, "lat": 38.905089333333336, "type": "electric_scooter", "lon": -77.02942116666667, "bike_id": "430e5f756197299e8efe4cbf3e98a56a", "rental_uris": {"android": "https://dc.lft.to/lastmile_qr_scan", "ios": "https://dc.lft.to/lastmile_qr_scan"}, "name": "430e5f756197299e8efe4cbf3e98a56a", "is_reserved": 0}, {"is_disabled": 0, "fusion_lon": 0.0, "fusion_lat": 0.0, "lat": 38.927950333333335, "type": "electric_scooter", "lon": -77.02297983333334, "bike_id": "d847026376b403cc7213e1aebfd1d41b", "rental_uris": {"android": "https://dc.lft.to/lastmile_qr_scan", "ios": "https://dc.lft.to/lastmile_qr_scan"}, "name": "d847026376b403cc7213e1aebfd1d41b", "is_reserved": 0}, {"is_disabled": 0, "fusion_lon": 0.0, "fusion_lat": 0.0, "lat": 38.8506395, "type": "electric_bike", "lon": -76.97335016666666, "bike_id": "90ccbbcf25da430d5f2edf767593d977", "rental_uris": {"android": "https://dc.lft.to/lastmile_qr_scan", "ios": "https://dc.lft.to/lastmile_qr_scan"}, "name": "90ccbbcf25da430d5f2edf767593d977", "is_reserved": 0}, {"is_disabled": 0, "fusion_lon": 0.0, "fusion_lat": 0.0, "lat": 38.95635883333333, "type": "electric_scooter", "lon": -77.029803, "bike_id": "d79971eee7dcf03f7b6b0c5632bdffa8", "rental_uris": {"android": "https://dc.lft.to/lastmile_qr_scan", "ios": "https://dc.lft.to/lastmile_qr_scan"}, "name": "d79971eee7dcf03f7b6b0c5632bdffa8", "is_reserved": 0}, {"is_disabled": 0, "fusion_lon": 0.0, "fusion_lat": 0.0, "lat": 38.859729, "type": "electric_scooter", "lon": -76.98409733333334, "bike_id": "bda5554e4805eb4f925d1758d594ced8", "rental_uris": {"android": "https://dc.lft.to/lastmile_qr_scan", "ios": "https://dc.lft.to/lastmile_qr_scan"}, "name": "bda5554e4805eb4f925d1758d594ced8", "is_reserved": 0}, {"is_disabled": 0, "fusion_lon": 0.0, "fusion_lat": 0.0, "lat": 38.92969883333333, "type": "electric_scooter", "lon": -77.04205766666666, "bike_id": "8b4f46b083d0d3ead8c52f78cf0459a3", "rental_uris": {"android": "https://dc.lft.to/lastmile_qr_scan", "ios": "https://dc.lft.to/lastmile_qr_scan"}, "name": "8b4f46b083d0d3ead8c52f78cf0459a3", "is_reserved": 0}, {"is_disabled": 0, "fusion_lon": 0.0, "fusion_lat": 0.0, "lat": 38.94616, "type": "electric_scooter", "lon": -77.03626016666666, "bike_id": "352690d94533ce7ff0f115e2438bb342", "rental_uris": {"android": "https://dc.lft.to/lastmile_qr_scan", "ios": "https://dc.lft.to/lastmile_qr_scan"}, "name": "352690d94533ce7ff0f115e2438bb342", "is_reserved": 0}, {"is_disabled": 0, "fusion_lon": 0.0, "fusion_lat": 0.0, "lat": 38.951739333333336, "type": "electric_scooter", "lon": -77.03335083333333, "bike_id": "e165949439bc273d06b445c9875cf22c", "rental_uris": {"android": "https://dc.lft.to/lastmile_qr_scan", "ios": "https://dc.lft.to/lastmile_qr_scan"}, "name": "e165949439bc273d06b445c9875cf22c", "is_reserved": 0}, {"is_disabled": 0, "fusion_lon": 0.0, "fusion_lat": 0.0, "lat": 38.913141833333334, "type": "electric_scooter", "lon": -77.00846683333333, "bike_id": "f6471df53f5572d012696b04f51c76d3", "rental_uris": {"android": "https://dc.lft.to/lastmile_qr_scan", "ios": "https://dc.lft.to/lastmile_qr_scan"}, "name": "f6471df53f5572d012696b04f51c76d3", "is_reserved": 0}, {"is_disabled": 0, "fusion_lon": 0.0, "fusion_lat": 0.0, "lat": 38.91279466666667, "type": "electric_scooter", "lon": -77.03365766666667, "bike_id": "fb5954b5275db98ca9059c7787948845", "rental_uris": {"android": "https://dc.lft.to/lastmile_qr_scan", "ios": "https://dc.lft.to/lastmile_qr_scan"}, "name": "fb5954b5275db98ca9059c7787948845", "is_reserved": 0}, {"is_disabled": 0, "fusion_lon": 0.0, "fusion_lat": 0.0, "lat": 38.91481516666666, "type": "electric_scooter", "lon": -77.038588, "bike_id": "3cdf8502b8f4806568fc69729a25ad38", "rental_uris": {"android": "https://dc.lft.to/lastmile_qr_scan", "ios": "https://dc.lft.to/lastmile_qr_scan"}, "name": "3cdf8502b8f4806568fc69729a25ad38", "is_reserved": 0}, {"is_disabled": 0, "fusion_lon": 0.0, "fusion_lat": 0.0, "lat": 38.96619183333333, "type": "electric_scooter", "lon": -77.0353225, "bike_id": "1c9a0e29d3505bdda6d1070c191fae34", "rental_uris": {"android": "https://dc.lft.to/lastmile_qr_scan", "ios": "https://dc.lft.to/lastmile_qr_scan"}, "name": "1c9a0e29d3505bdda6d1070c191fae34", "is_reserved": 0}, {"is_disabled": 0, "fusion_lon": 0.0, "fusion_lat": 0.0, "lat": 38.9343225, "type": "electric_scooter", "lon": -77.02590566666667, "bike_id": "5fea2abdd1f566a9fc1ceef5849d3d4d", "rental_uris": {"android": "https://dc.lft.to/lastmile_qr_scan", "ios": "https://dc.lft.to/lastmile_qr_scan"}, "name": "5fea2abdd1f566a9fc1ceef5849d3d4d", "is_reserved": 0}, {"is_disabled": 0, "fusion_lon": 0.0, "fusion_lat": 0.0, "lat": 38.917095333333336, "type": "electric_scooter", "lon": -77.03674633333334, "bike_id": "c4e2517d8d435eb7736f67ee9d6be749", "rental_uris": {"android": "https://dc.lft.to/lastmile_qr_scan", "ios": "https://dc.lft.to/lastmile_qr_scan"}, "name": "c4e2517d8d435eb7736f67ee9d6be749", "is_reserved": 0}, {"is_disabled": 0, "fusion_lon": 0.0, "fusion_lat": 0.0, "lat": 38.918513833333336, "type": "electric_scooter", "lon": -77.02960633333333, "bike_id": "6096d141adae40e435fb87df71421a41", "rental_uris": {"android": "https://dc.lft.to/lastmile_qr_scan", "ios": "https://dc.lft.to/lastmile_qr_scan"}, "name": "6096d141adae40e435fb87df71421a41", "is_reserved": 0}, {"is_disabled": 0, "fusion_lon": 0.0, "fusion_lat": 0.0, "lat": 38.914670666666666, "type": "electric_scooter", "lon": -77.04417666666667, "bike_id": "045aebaac7400e037c30a05e6376c03e", "rental_uris": {"android": "https://dc.lft.to/lastmile_qr_scan", "ios": "https://dc.lft.to/lastmile_qr_scan"}, "name": "045aebaac7400e037c30a05e6376c03e", "is_reserved": 0}, {"is_disabled": 0, "fusion_lon": 0.0, "fusion_lat": 0.0, "lat": 38.98666, "type": "electric_scooter", "lon": -77.02646883333334, "bike_id": "c50cec4f225c57ddc5f06563e92fa854", "rental_uris": {"android": "https://dc.lft.to/lastmile_qr_scan", "ios": "https://dc.lft.to/lastmile_qr_scan"}, "name": "c50cec4f225c57ddc5f06563e92fa854", "is_reserved": 0}, {"is_disabled": 0, "fusion_lon": 0.0, "fusion_lat": 0.0, "lat": 38.88877433333333, "type": "electric_scooter", "lon": -77.02859366666667, "bike_id": "caa37ce44e574ca7d826ee97edbf858d", "rental_uris": {"android": "https://dc.lft.to/lastmile_qr_scan", "ios": "https://dc.lft.to/lastmile_qr_scan"}, "name": "caa37ce44e574ca7d826ee97edbf858d", "is_reserved": 0}, {"is_disabled": 0, "fusion_lon": 0.0, "fusion_lat": 0.0, "lat": 38.96911516666667, "type": "electric_bike", "lon": -77.02621666666667, "bike_id": "5195a147b58e21f614ad3bd73437efda", "rental_uris": {"android": "https://dc.lft.to/lastmile_qr_scan", "ios": "https://dc.lft.to/lastmile_qr_scan"}, "name": "5195a147b58e21f614ad3bd73437efda", "is_reserved": 0}, {"is_disabled": 0, "fusion_lon": 0.0, "fusion_lat": 0.0, "lat": 38.916525166666666, "type": "electric_scooter", "lon": -77.0344655, "bike_id": "6f5955bcc53a1d51785e7fc5bed37200", "rental_uris": {"android": "https://dc.lft.to/lastmile_qr_scan", "ios": "https://dc.lft.to/lastmile_qr_scan"}, "name": "6f5955bcc53a1d51785e7fc5bed37200", "is_reserved": 0}, {"is_disabled": 0, "fusion_lon": 0.0, "fusion_lat": 0.0, "lat": 38.90556433333333, "type": "electric_scooter", "lon": -77.02003666666667, "bike_id": "67ddeaa2e53b222e808649815ae229ab", "rental_uris": {"android": "https://dc.lft.to/lastmile_qr_scan", "ios": "https://dc.lft.to/lastmile_qr_scan"}, "name": "67ddeaa2e53b222e808649815ae229ab", "is_reserved": 0}, {"is_disabled": 0, "fusion_lon": 0.0, "fusion_lat": 0.0, "lat": 38.8875345, "type": "electric_scooter", "lon": -76.99619633333333, "bike_id": "6af4a68bac4dc648ab6d77ceb6ecbe50", "rental_uris": {"android": "https://dc.lft.to/lastmile_qr_scan", "ios": "https://dc.lft.to/lastmile_qr_scan"}, "name": "6af4a68bac4dc648ab6d77ceb6ecbe50", "is_reserved": 0}, {"is_disabled": 0, "fusion_lon": 0.0, "fusion_lat": 0.0, "lat": 38.912868333333336, "type": "electric_scooter", "lon": -76.9870135, "bike_id": "d7714fde4af3c37e0a5dcb59120b911e", "rental_uris": {"android": "https://dc.lft.to/lastmile_qr_scan", "ios": "https://dc.lft.to/lastmile_qr_scan"}, "name": "d7714fde4af3c37e0a5dcb59120b911e", "is_reserved": 0}, {"is_disabled": 0, "fusion_lon": 0.0, "fusion_lat": 0.0, "lat": 38.899080166666664, "type": "electric_scooter", "lon": -76.933953, "bike_id": "d805125fe1a13bda15f4f9784de676d1", "rental_uris": {"android": "https://dc.lft.to/lastmile_qr_scan", "ios": "https://dc.lft.to/lastmile_qr_scan"}, "name": "d805125fe1a13bda15f4f9784de676d1", "is_reserved": 0}, {"is_disabled": 0, "fusion_lon": 0.0, "fusion_lat": 0.0, "lat": 38.9053935, "type": "electric_scooter", "lon": -77.05698083333333, "bike_id": "58b17bdce95b8cac2e9c0f7fe40fa23b", "rental_uris": {"android": "https://dc.lft.to/lastmile_qr_scan", "ios": "https://dc.lft.to/lastmile_qr_scan"}, "name": "58b17bdce95b8cac2e9c0f7fe40fa23b", "is_reserved": 0}, {"is_disabled": 0, "fusion_lon": 0.0, "fusion_lat": 0.0, "lat": 38.91679116666667, "type": "electric_scooter", "lon": -77.02979933333333, "bike_id": "0f83e82c0115c3d3310065220a008775", "rental_uris": {"android": "https://dc.lft.to/lastmile_qr_scan", "ios": "https://dc.lft.to/lastmile_qr_scan"}, "name": "0f83e82c0115c3d3310065220a008775", "is_reserved": 0}, {"is_disabled": 0, "fusion_lon": 0.0, "fusion_lat": 0.0, "lat": 38.911869, "type": "electric_scooter", "lon": -77.03926016666666, "bike_id": "4f246b21028faea09ec9bb893aa9411e", "rental_uris": {"android": "https://dc.lft.to/lastmile_qr_scan", "ios": "https://dc.lft.to/lastmile_qr_scan"}, "name": "4f246b21028faea09ec9bb893aa9411e", "is_reserved": 0}, {"is_disabled": 0, "fusion_lon": 0.0, "fusion_lat": 0.0, "lat": 38.876779166666665, "type": "electric_scooter", "lon": -77.01787233333333, "bike_id": "be2b5ec8e169a53f243545bb1fc85c3c", "rental_uris": {"android": "https://dc.lft.to/lastmile_qr_scan", "ios": "https://dc.lft.to/lastmile_qr_scan"}, "name": "be2b5ec8e169a53f243545bb1fc85c3c", "is_reserved": 0}, {"is_disabled": 0, "fusion_lon": 0.0, "fusion_lat": 0.0, "lat": 38.89202066666667, "type": "electric_scooter", "lon": -76.98808783333334, "bike_id": "dab176b122e14d8ecff6ab1f69bc3678", "rental_uris": {"android": "https://dc.lft.to/lastmile_qr_scan", "ios": "https://dc.lft.to/lastmile_qr_scan"}, "name": "dab176b122e14d8ecff6ab1f69bc3678", "is_reserved": 0}, {"is_disabled": 0, "fusion_lon": 0.0, "fusion_lat": 0.0, "lat": 38.924186, "type": "electric_scooter", "lon": -77.056298, "bike_id": "b4b9317a31ca1ac21ef7cc20d9b1b3ef", "rental_uris": {"android": "https://dc.lft.to/lastmile_qr_scan", "ios": "https://dc.lft.to/lastmile_qr_scan"}, "name": "b4b9317a31ca1ac21ef7cc20d9b1b3ef", "is_reserved": 0}, {"is_disabled": 0, "fusion_lon": 0.0, "fusion_lat": 0.0, "lat": 38.91962633333333, "type": "electric_scooter", "lon": -77.02400766666666, "bike_id": "5dc374038513037b6ad1109af144d3be", "rental_uris": {"android": "https://dc.lft.to/lastmile_qr_scan", "ios": "https://dc.lft.to/lastmile_qr_scan"}, "name": "5dc374038513037b6ad1109af144d3be", "is_reserved": 0}, {"is_disabled": 0, "fusion_lon": 0.0, "fusion_lat": 0.0, "lat": 38.84601883333333, "type": "electric_bike", "lon": -76.96887433333333, "bike_id": "bc5f9e97912b622014437a730da254f3", "rental_uris": {"android": "https://dc.lft.to/lastmile_qr_scan", "ios": "https://dc.lft.to/lastmile_qr_scan"}, "name": "bc5f9e97912b622014437a730da254f3", "is_reserved": 0}, {"is_disabled": 0, "fusion_lon": 0.0, "fusion_lat": 0.0, "lat": 38.92485633333333, "type": "electric_scooter", "lon": -77.0271825, "bike_id": "51fb7c922c722e213e126be29c77dab3", "rental_uris": {"android": "https://dc.lft.to/lastmile_qr_scan", "ios": "https://dc.lft.to/lastmile_qr_scan"}, "name": "51fb7c922c722e213e126be29c77dab3", "is_reserved": 0}, {"is_disabled": 0, "fusion_lon": 0.0, "fusion_lat": 0.0, "lat": 38.91701716666667, "type": "electric_scooter", "lon": -77.03468866666667, "bike_id": "bc8409d75cdf5fcce425a43da05fb70b", "rental_uris": {"android": "https://dc.lft.to/lastmile_qr_scan", "ios": "https://dc.lft.to/lastmile_qr_scan"}, "name": "bc8409d75cdf5fcce425a43da05fb70b", "is_reserved": 0}, {"is_disabled": 0, "fusion_lon": 0.0, "fusion_lat": 0.0, "lat": 38.89247433333333, "type": "electric_scooter", "lon": -77.02801133333334, "bike_id": "3a4cd1965f6f12adeb57242243491426", "rental_uris": {"android": "https://dc.lft.to/lastmile_qr_scan", "ios": "https://dc.lft.to/lastmile_qr_scan"}, "name": "3a4cd1965f6f12adeb57242243491426", "is_reserved": 0}, {"is_disabled": 0, "fusion_lon": 0.0, "fusion_lat": 0.0, "lat": 38.8952685, "type": "electric_scooter", "lon": -77.02841016666666, "bike_id": "1b676e12e70168b33fe5de5f27bf343a", "rental_uris": {"android": "https://dc.lft.to/lastmile_qr_scan", "ios": "https://dc.lft.to/lastmile_qr_scan"}, "name": "1b676e12e70168b33fe5de5f27bf343a", "is_reserved": 0}, {"is_disabled": 0, "fusion_lon": 0.0, "fusion_lat": 0.0, "lat": 38.85805283333333, "type": "electric_scooter", "lon": -76.9865575, "bike_id": "babf690713d1be395ba8edc6c972857a", "rental_uris": {"android": "https://dc.lft.to/lastmile_qr_scan", "ios": "https://dc.lft.to/lastmile_qr_scan"}, "name": "babf690713d1be395ba8edc6c972857a", "is_reserved": 0}, {"is_disabled": 0, "fusion_lon": 0.0, "fusion_lat": 0.0, "lat": 38.96761933333333, "type": "electric_bike", "lon": -77.0916215, "bike_id": "2c39f408d4e12d1460710026e194b951", "rental_uris": {"android": "https://dc.lft.to/lastmile_qr_scan", "ios": "https://dc.lft.to/lastmile_qr_scan"}, "name": "2c39f408d4e12d1460710026e194b951", "is_reserved": 0}, {"is_disabled": 0, "fusion_lon": 0.0, "fusion_lat": 0.0, "lat": 38.84201433333333, "type": "electric_bike", "lon": -77.10687866666666, "bike_id": "93689b65b80e7811b349c0fd0b14b82e", "rental_uris": {"android": "https://dc.lft.to/lastmile_qr_scan", "ios": "https://dc.lft.to/lastmile_qr_scan"}, "name": "93689b65b80e7811b349c0fd0b14b82e", "is_reserved": 0}, {"is_disabled": 0, "fusion_lon": 0.0, "fusion_lat": 0.0, "lat": 38.928521, "type": "electric_scooter", "lon": -77.01409833333334, "bike_id": "ca2bbf3f0882626947f766f5734510c6", "rental_uris": {"android": "https://dc.lft.to/lastmile_qr_scan", "ios": "https://dc.lft.to/lastmile_qr_scan"}, "name": "ca2bbf3f0882626947f766f5734510c6", "is_reserved": 0}, {"is_disabled": 0, "fusion_lon": 0.0, "fusion_lat": 0.0, "lat": 38.86326066666667, "type": "electric_scooter", "lon": -76.99051233333333, "bike_id": "eddb8084ada2dc2c947ad8e5be2d2c20", "rental_uris": {"android": "https://dc.lft.to/lastmile_qr_scan", "ios": "https://dc.lft.to/lastmile_qr_scan"}, "name": "eddb8084ada2dc2c947ad8e5be2d2c20", "is_reserved": 0}, {"is_disabled": 0, "fusion_lon": 0.0, "fusion_lat": 0.0, "lat": 38.903543, "type": "electric_bike", "lon": -77.0397815, "bike_id": "e6324b0fbe2a42c5e949126d304619b2", "rental_uris": {"android": "https://dc.lft.to/lastmile_qr_scan", "ios": "https://dc.lft.to/lastmile_qr_scan"}, "name": "e6324b0fbe2a42c5e949126d304619b2", "is_reserved": 0}, {"is_disabled": 0, "fusion_lon": 0.0, "fusion_lat": 0.0, "lat": 38.89742116666667, "type": "electric_scooter", "lon": -77.0465095, "bike_id": "88ca95f9d913ae667c3b175d0283785e", "rental_uris": {"android": "https://dc.lft.to/lastmile_qr_scan", "ios": "https://dc.lft.to/lastmile_qr_scan"}, "name": "88ca95f9d913ae667c3b175d0283785e", "is_reserved": 0}, {"is_disabled": 0, "fusion_lon": 0.0, "fusion_lat": 0.0, "lat": 38.998378333333335, "type": "electric_bike", "lon": -77.0289855, "bike_id": "29e9cc48b39f38d6832f46ed7fd6968f", "rental_uris": {"android": "https://dc.lft.to/lastmile_qr_scan", "ios": "https://dc.lft.to/lastmile_qr_scan"}, "name": "29e9cc48b39f38d6832f46ed7fd6968f", "is_reserved": 0}, {"is_disabled": 0, "fusion_lon": 0.0, "fusion_lat": 0.0, "lat": 38.924813, "type": "electric_scooter", "lon": -77.0349235, "bike_id": "ffb6a1c5daeaa088b3f3f266d7428e80", "rental_uris": {"android": "https://dc.lft.to/lastmile_qr_scan", "ios": "https://dc.lft.to/lastmile_qr_scan"}, "name": "ffb6a1c5daeaa088b3f3f266d7428e80", "is_reserved": 0}, {"is_disabled": 0, "fusion_lon": 0.0, "fusion_lat": 0.0, "lat": 38.934939166666666, "type": "electric_scooter", "lon": -77.0261215, "bike_id": "aac9c537f498053b7730ffcac7496c7c", "rental_uris": {"android": "https://dc.lft.to/lastmile_qr_scan", "ios": "https://dc.lft.to/lastmile_qr_scan"}, "name": "aac9c537f498053b7730ffcac7496c7c", "is_reserved": 0}, {"is_disabled": 0, "fusion_lon": 0.0, "fusion_lat": 0.0, "lat": 38.884103333333336, "type": "electric_scooter", "lon": -77.01740616666666, "bike_id": "dba96be130ec5d1c606bf92e103ea31c", "rental_uris": {"android": "https://dc.lft.to/lastmile_qr_scan", "ios": "https://dc.lft.to/lastmile_qr_scan"}, "name": "dba96be130ec5d1c606bf92e103ea31c", "is_reserved": 0}, {"is_disabled": 0, "fusion_lon": 0.0, "fusion_lat": 0.0, "lat": 38.859167166666666, "type": "electric_scooter", "lon": -76.98783466666667, "bike_id": "764d9432e8c31e6191fcbc4e4278d2a0", "rental_uris": {"android": "https://dc.lft.to/lastmile_qr_scan", "ios": "https://dc.lft.to/lastmile_qr_scan"}, "name": "764d9432e8c31e6191fcbc4e4278d2a0", "is_reserved": 0}, {"is_disabled": 0, "fusion_lon": 0.0, "fusion_lat": 0.0, "lat": 38.9118275, "type": "electric_scooter", "lon": -77.04164716666666, "bike_id": "a5370f4932c925f38963083b28654f1a", "rental_uris": {"android": "https://dc.lft.to/lastmile_qr_scan", "ios": "https://dc.lft.to/lastmile_qr_scan"}, "name": "a5370f4932c925f38963083b28654f1a", "is_reserved": 0}, {"is_disabled": 0, "fusion_lon": 0.0, "fusion_lat": 0.0, "lat": 38.92049083333333, "type": "electric_scooter", "lon": -77.02615466666667, "bike_id": "59a3547f6b9828741097bb9ef37010a6", "rental_uris": {"android": "https://dc.lft.to/lastmile_qr_scan", "ios": "https://dc.lft.to/lastmile_qr_scan"}, "name": "59a3547f6b9828741097bb9ef37010a6", "is_reserved": 0}, {"is_disabled": 0, "fusion_lon": 0.0, "fusion_lat": 0.0, "lat": 38.923181666666665, "type": "electric_scooter", "lon": -77.04524666666667, "bike_id": "ad8882fbb01f1778135e84b153ad51d3", "rental_uris": {"android": "https://dc.lft.to/lastmile_qr_scan", "ios": "https://dc.lft.to/lastmile_qr_scan"}, "name": "ad8882fbb01f1778135e84b153ad51d3", "is_reserved": 0}, {"is_disabled": 0, "fusion_lon": 0.0, "fusion_lat": 0.0, "lat": 38.92605533333333, "type": "electric_scooter", "lon": -77.02162716666666, "bike_id": "552c13d6a94d85399c42227df7f97377", "rental_uris": {"android": "https://dc.lft.to/lastmile_qr_scan", "ios": "https://dc.lft.to/lastmile_qr_scan"}, "name": "552c13d6a94d85399c42227df7f97377", "is_reserved": 0}, {"is_disabled": 0, "fusion_lon": 0.0, "fusion_lat": 0.0, "lat": 38.92374516666667, "type": "electric_scooter", "lon": -77.02815466666667, "bike_id": "d66f7e98a636ad0f18494c02a3773a78", "rental_uris": {"android": "https://dc.lft.to/lastmile_qr_scan", "ios": "https://dc.lft.to/lastmile_qr_scan"}, "name": "d66f7e98a636ad0f18494c02a3773a78", "is_reserved": 0}, {"is_disabled": 0, "fusion_lon": 0.0, "fusion_lat": 0.0, "lat": 38.9285005, "type": "electric_scooter", "lon": -77.01427983333333, "bike_id": "f8a87796bb1bd71060efcaab754d4d83", "rental_uris": {"android": "https://dc.lft.to/lastmile_qr_scan", "ios": "https://dc.lft.to/lastmile_qr_scan"}, "name": "f8a87796bb1bd71060efcaab754d4d83", "is_reserved": 0}, {"is_disabled": 0, "fusion_lon": 0.0, "fusion_lat": 0.0, "lat": 38.8736115, "type": "electric_scooter", "lon": -77.01743766666667, "bike_id": "2333d5897900a5347b60f61843846400", "rental_uris": {"android": "https://dc.lft.to/lastmile_qr_scan", "ios": "https://dc.lft.to/lastmile_qr_scan"}, "name": "2333d5897900a5347b60f61843846400", "is_reserved": 0}, {"is_disabled": 0, "fusion_lon": 0.0, "fusion_lat": 0.0, "lat": 38.8965975, "type": "electric_scooter", "lon": -77.026184, "bike_id": "414f3e6defa624f60052610e798a9857", "rental_uris": {"android": "https://dc.lft.to/lastmile_qr_scan", "ios": "https://dc.lft.to/lastmile_qr_scan"}, "name": "414f3e6defa624f60052610e798a9857", "is_reserved": 0}, {"is_disabled": 0, "fusion_lon": 0.0, "fusion_lat": 0.0, "lat": 38.9363745, "type": "electric_scooter", "lon": -77.0269985, "bike_id": "2e9fc319391222bca61119a7de5102dd", "rental_uris": {"android": "https://dc.lft.to/lastmile_qr_scan", "ios": "https://dc.lft.to/lastmile_qr_scan"}, "name": "2e9fc319391222bca61119a7de5102dd", "is_reserved": 0}, {"is_disabled": 0, "fusion_lon": 0.0, "fusion_lat": 0.0, "lat": 38.90918933333333, "type": "electric_scooter", "lon": -77.03461416666667, "bike_id": "36ab4ea66b44c6821c485bb380e298f0", "rental_uris": {"android": "https://dc.lft.to/lastmile_qr_scan", "ios": "https://dc.lft.to/lastmile_qr_scan"}, "name": "36ab4ea66b44c6821c485bb380e298f0", "is_reserved": 0}, {"is_disabled": 0, "fusion_lon": 0.0, "fusion_lat": 0.0, "lat": 38.897505833333334, "type": "electric_scooter", "lon": -77.05156533333333, "bike_id": "c66394fb73390460e81da4e09d180120", "rental_uris": {"android": "https://dc.lft.to/lastmile_qr_scan", "ios": "https://dc.lft.to/lastmile_qr_scan"}, "name": "c66394fb73390460e81da4e09d180120", "is_reserved": 0}, {"is_disabled": 0, "fusion_lon": 0.0, "fusion_lat": 0.0, "lat": 38.92148983333333, "type": "electric_scooter", "lon": -77.03510816666666, "bike_id": "8e15d84bce08b72d1f20bca15f388b6b", "rental_uris": {"android": "https://dc.lft.to/lastmile_qr_scan", "ios": "https://dc.lft.to/lastmile_qr_scan"}, "name": "8e15d84bce08b72d1f20bca15f388b6b", "is_reserved": 0}, {"is_disabled": 0, "fusion_lon": 0.0, "fusion_lat": 0.0, "lat": 38.91594216666667, "type": "electric_scooter", "lon": -77.046057, "bike_id": "2d973d91a5e7e86ab79c306fb4fd579f", "rental_uris": {"android": "https://dc.lft.to/lastmile_qr_scan", "ios": "https://dc.lft.to/lastmile_qr_scan"}, "name": "2d973d91a5e7e86ab79c306fb4fd579f", "is_reserved": 0}, {"is_disabled": 0, "fusion_lon": 0.0, "fusion_lat": 0.0, "lat": 38.9072865, "type": "electric_scooter", "lon": -77.0318755, "bike_id": "a617c2b8766423c6b9782092238bee28", "rental_uris": {"android": "https://dc.lft.to/lastmile_qr_scan", "ios": "https://dc.lft.to/lastmile_qr_scan"}, "name": "a617c2b8766423c6b9782092238bee28", "is_reserved": 0}, {"is_disabled": 0, "fusion_lon": 0.0, "fusion_lat": 0.0, "lat": 38.935291166666666, "type": "electric_scooter", "lon": -77.0663415, "bike_id": "9b14061cee81cdf28e1387b460574ac4", "rental_uris": {"android": "https://dc.lft.to/lastmile_qr_scan", "ios": "https://dc.lft.to/lastmile_qr_scan"}, "name": "9b14061cee81cdf28e1387b460574ac4", "is_reserved": 0},