{"data": {"bikes": [{"is_disabled": 0, "rental_uris": {"android": "https://dc.lft.to/lastmile_qr_scan", "ios": "https://dc.lft.to/lastmile_qr_scan"}, "is_reserved": 0, "name": "00f9ff745a0886abea71282e334bcaae", "lon": -77.026896, "type": "electric_scooter", "bike_id": "00f9ff745a0886abea71282e334bcaae", "fusion_lon": 0.0, "lat": 38.908735666666665, "fusion_lat": 0.0}, {"is_disabled": 0, "rental_uris": {"android": "https://dc.lft.to/lastmile_qr_scan", "ios": "https://dc.lft.to/lastmile_qr_scan"}, "is_reserved": 0, "name": "14ed198332f82440b971c496087b688f", "lon": -77.04163716666666, "type": "electric_scooter", "bike_id": "14ed198332f82440b971c496087b688f", "fusion_lon": 0.0, "lat": 38.91312516666667, "fusion_lat": 0.0}, {"is_disabled": 0, "rental_uris": {"android": "https://dc.lft.to/lastmile_qr_scan", "ios": "https://dc.lft.to/lastmile_qr_scan"}, "is_reserved": 0, "name": "ca2c3192e0da9311b7fa13f88a1770c8", "lon": -77.02876266666667, "type": "electric_bike", "bike_id": "ca2c3192e0da9311b7fa13f88a1770c8", "fusion_lon": 0.0, "lat": 38.998807166666666, "fusion_lat": 0.0}, {"is_disabled": 0, "rental_uris": {"android": "https://dc.lft.to/lastmile_qr_scan", "ios": "https://dc.lft.to/lastmile_qr_scan"}, "is_reserved": 0, "name": "fb7385a2c8cdeca4725a776fee6c98d2", "lon": -76.9742005, "type": "electric_scooter", "bike_id": "fb7385a2c8cdeca4725a776fee6c98d2", "fusion_lon": 0.0, "lat": 38.86518066666667, "fusion_lat": 0.0}, {"is_disabled": 0, "rental_uris": {"android": "https://dc.lft.to/lastmile_qr_scan", "ios": "https://dc.lft.to/lastmile_qr_scan"}, "is_reserved": 0, "name": "0db6be6016c24366101ea3c0ca16b00e", "lon": -77.0675665, "type": "electric_scooter", "bike_id": "0db6be6016c24366101ea3c0ca16b00e", "fusion_lon": 0.0, "lat": 38.949810166666666, "fusion_lat": 0.0}, {"is_disabled": 0, "rental_uris": {"android": "https://dc.lft.to/lastmile_qr_scan", "ios": "https://dc.lft.to/lastmile_qr_scan"}, "is_reserved": 0, "name": "cd0f5e90bc8249be2e157daab90e02e6", "lon": -77.081911, "type": "electric_bike", "bike_id": "cd0f5e90bc8249be2e157daab90e02e6", "fusion_lon": 0.0, "lat": 38.922047, "fusion_lat": 0.0}, {"is_disabled": 0, "rental_uris": {"android": "https://dc.lft.to/lastmile_qr_scan", "ios": "https://dc.lft.to/lastmile_qr_scan"}, "is_reserved": 0, "name": "c84fcb7e53baf93f361c2ccc4f5dd771", "lon": -76.97220383333334, "type": "electric_bike", "bike_id": "c84fcb7e53baf93f361c2ccc4f5dd771", "fusion_lon": 0.0, "lat": 38.84478633333333, "fusion_lat": 0.0}, {"is_disabled": 0, "rental_uris": {"android": "https://dc.lft.to/lastmile_qr_scan", "ios": "https://dc.lft.to/lastmile_qr_scan"}, "is_reserved": 0, "name": "5aa9d6fdd61be424fcb50d86b79b657d", "lon": -77.04727433333333, "type": "electric_scooter", "bike_id": "5aa9d6fdd61be424fcb50d86b79b657d", "fusion_lon": 0.0, "lat": 38.898303166666665, "fusion_lat": 0.0}, {"is_disabled": 0, "rental_uris": {"android": "https://dc.lft.to/lastmile_qr_scan", "ios": "https://dc.lft.to/lastmile_qr_scan"}, "is_reserved": 0, "name": "d65bd7c531354d92e4b55c452960b5df", "lon": -77.02227266666667, "type": "electric_scooter", "bike_id": "d65bd7c531354d92e4b55c452960b5df", "fusion_lon": 0.0, "lat": 38.91568633333333, "fusion_lat": 0.0}, {"is_disabled": 0, "rental_uris": {"android": "https://dc.lft.to/lastmile_qr_scan", "ios": "https://dc.lft.to/lastmile_qr_scan"}, "is_reserved": 0, "name": "fb2378d1bf05ac20759b9ac6230075e7", "lon": -77.017778, "type": "electric_scooter", "bike_id": "fb2378d1bf05ac20759b9ac6230075e7", "fusion_lon": 0.0, "lat": 38.9210765, "fusion_lat": 0.0}, {"is_disabled": 0, "rental_uris": {"android": "https://dc.lft.to/lastmile_qr_scan", "ios": "https://dc.lft.to/lastmile_qr_scan"}, "is_reserved": 0, "name": "b66f39b1e741b7a44e8ad13de0514378", "lon": -77.012205, "type": "electric_scooter", "bike_id": "b66f39b1e741b7a44e8ad13de0514378", "fusion_lon": 0.0, "lat": 38.91497183333333, "fusion_lat": 0.0}, {"is_disabled": 0, "rental_uris": {"android": "https://dc.lft.to/lastmile_qr_scan", "ios": "https://dc.lft.to/lastmile_qr_scan"}, "is_reserved": 0, "name": "6f540c8119a9078393ced1f3da84d0c3", "lon": -76.99008483333333, "type": "electric_scooter", "bike_id": "6f540c8119a9078393ced1f3da84d0c3", "fusion_lon": 0.0, "lat": 38.865070333333335, "fusion_lat": 0.0}, {"is_disabled": 0, "rental_uris": {"android": "https://dc.lft.to/lastmile_qr_scan", "ios": "https://dc.lft.to/lastmile_qr_scan"}, "is_reserved": 0, "name": "8a7a418222d0cb6f7a3fb5754fed0895", "lon": -77.03630383333333, "type": "electric_scooter", "bike_id": "8a7a418222d0cb6f7a3fb5754fed0895", "fusion_lon": 0.0, "lat": 38.91627733333333, "fusion_lat": 0.0}, {"is_disabled": 0, "rental_uris": {"android": "https://dc.lft.to/lastmile_qr_scan", "ios": "https://dc.lft.to/lastmile_qr_scan"}, "is_reserved": 0, "name": "a72295fd94c100368fcca27fb3d7e2f9", "lon": -77.03724083333333, "type": "electric_scooter", "bike_id": "a72295fd94c100368fcca27fb3d7e2f9", "fusion_lon": 0.0, "lat": 38.926563, "fusion_lat": 0.0}, {"is_disabled": 0, "rental_uris": {"android": "https://dc.lft.to/lastmile_qr_scan", "ios": "https://dc.lft.to/lastmile_qr_scan"}, "is_reserved": 0, "name": "9f476f454ee3dfbc08a4f660957aa532", "lon": -76.949916, "type": "electric_scooter", "bike_id": "9f476f454ee3dfbc08a4f660957aa532", "fusion_lon": 0.0, "lat": 38.893983, "fusion_lat": 0.0}, {"is_disabled": 0, "rental_uris": {"android": "https://dc.lft.to/lastmile_qr_scan", "ios": "https://dc.lft.to/lastmile_qr_scan"}, "is_reserved": 0, "name": "e5c56a0b94a5698fc299e180fb820b1b", "lon": -76.990843, "type": "electric_scooter", "bike_id": "e5c56a0b94a5698fc299e180fb820b1b", "fusion_lon": 0.0, "lat": 38.86050916666667, "fusion_lat": 0.0}, {"is_disabled": 0, "rental_uris": {"android": "https://dc.lft.to/lastmile_qr_scan", "ios": "https://dc.lft.to/lastmile_qr_scan"}, "is_reserved": 0, "name": "93596d910f073ae9b8444d2324ce58d4", "lon": -77.04165983333333, "type": "electric_scooter", "bike_id": "93596d910f073ae9b8444d2324ce58d4", "fusion_lon": 0.0, "lat": 38.908120833333335, "fusion_lat": 0.0}, {"is_disabled": 0, "rental_uris": {"android": "https://dc.lft.to/lastmile_qr_scan", "ios": "https://dc.lft.to/lastmile_qr_scan"}, "is_reserved": 0, "name": "e5fb0e82975cf5687100d568e8190e50", "lon": -76.995605, "type": "electric_scooter", "bike_id": "e5fb0e82975cf5687100d568e8190e50", "fusion_lon": 0.0, "lat": 38.92048333333334, "fusion_lat": 0.0}, {"is_disabled": 0, "rental_uris": {"android": "https://dc.lft.to/lastmile_qr_scan", "ios": "https://dc.lft.to/lastmile_qr_scan"}, "is_reserved": 0, "name": "eb3f5704705713268c44adb53e3d66d1", "lon": -77.03512466666666, "type": "electric_scooter", "bike_id": "eb3f5704705713268c44adb53e3d66d1", "fusion_lon": 0.0, "lat": 38.922382, "fusion_lat": 0.0}, {"is_disabled": 0, "rental_uris": {"android": "https://dc.lft.to/lastmile_qr_scan", "ios": "https://dc.lft.to/lastmile_qr_scan"}, "is_reserved": 0, "name": "597befa57d0cf7aa908aaa396f8deffc", "lon": -77.03658883333334, "type": "electric_scooter", "bike_id": "597befa57d0cf7aa908aaa396f8deffc", "fusion_lon": 0.0, "lat": 38.917166, "fusion_lat": 0.0}, {"is_disabled": 0, "rental_uris": {"android": "https://dc.lft.to/lastmile_qr_scan", "ios": "https://dc.lft.to/lastmile_qr_scan"}, "is_reserved": 0, "name": "1d481b6805806a01e7f2d67caf1edcfc", "lon": -77.0539875, "type": "electric_scooter", "bike_id": "1d481b6805806a01e7f2d67caf1edcfc", "fusion_lon": 0.0, "lat": 38.905243666666664, "fusion_lat": 0.0}, {"is_disabled": 0, "rental_uris": {"android": "https://dc.lft.to/lastmile_qr_scan", "ios": "https://dc.lft.to/lastmile_qr_scan"}, "is_reserved": 0, "name": "a43e270e4bf7cb6b31480097fe5682a3", "lon": -77.0347375, "type": "electric_scooter", "bike_id": "a43e270e4bf7cb6b31480097fe5682a3", "fusion_lon": 0.0, "lat": 38.90728416666666, "fusion_lat": 0.0}, {"is_disabled": 0, "rental_uris": {"android": "https://dc.lft.to/lastmile_qr_scan", "ios": "https://dc.lft.to/lastmile_qr_scan"}, "is_reserved": 0, "name": "c7bab30dd6b74b7e73194fe4d7ade8db", "lon": -77.01222933333334, "type": "electric_scooter", "bike_id": "c7bab30dd6b74b7e73194fe4d7ade8db", "fusion_lon": 0.0, "lat": 38.914981833333336, "fusion_lat": 0.0}, {"is_disabled": 0, "rental_uris": {"android": "https://dc.lft.to/lastmile_qr_scan", "ios": "https://dc.lft.to/lastmile_qr_scan"}, "is_reserved": 0, "name": "52d12616fd6297e17ab0b7ad134f446b", "lon": -77.0418405, "type": "electric_scooter", "bike_id": "52d12616fd6297e17ab0b7ad134f446b", "fusion_lon": 0.0, "lat": 38.91555, "fusion_lat": 0.0}, {"is_disabled": 0, "rental_uris": {"android": "https://dc.lft.to/lastmile_qr_scan", "ios": "https://dc.lft.to/lastmile_qr_scan"}, "is_reserved": 0, "name": "8df0f83a1c831370c4a052ecc2a38f1f", "lon": -77.06766183333333, "type": "electric_scooter", "bike_id": "8df0f83a1c831370c4a052ecc2a38f1f", "fusion_lon": 0.0, "lat": 38.904995, "fusion_lat": 0.0}, {"is_disabled": 0, "rental_uris": {"android": "https://dc.lft.to/lastmile_qr_scan", "ios": "https://dc.lft.to/lastmile_qr_scan"}, "is_reserved": 0, "name": "beaec5534fff5dd788413d30d968457d", "lon": -77.03264083333333, "type": "electric_scooter", "bike_id": "beaec5534fff5dd788413d30d968457d", "fusion_lon": 0.0, "lat": 38.93265683333333, "fusion_lat": 0.0}, {"is_disabled": 0, "rental_uris": {"android": "https://dc.lft.to/lastmile_qr_scan", "ios": "https://dc.lft.to/lastmile_qr_scan"}, "is_reserved": 0, "name": "c1160461af8637a98d4f164c7711ef05", "lon": -77.032891, "type": "electric_scooter", "bike_id": "c1160461af8637a98d4f164c7711ef05", "fusion_lon": 0.0, "lat": 38.908458, "fusion_lat": 0.0}, {"is_disabled": 0, "rental_uris": {"android": "https://dc.lft.to/lastmile_qr_scan", "ios": "https://dc.lft.to/lastmile_qr_scan"}, "is_reserved": 0, "name": "84032736ce21fe1845efdca1b5319226", "lon": -77.02790633333333, "type": "electric_scooter", "bike_id": "84032736ce21fe1845efdca1b5319226", "fusion_lon": 0.0, "lat": 38.961321, "fusion_lat": 0.0}, {"is_disabled": 0, "rental_uris": {"android": "https://dc.lft.to/lastmile_qr_scan", "ios": "https://dc.lft.to/lastmile_qr_scan"}, "is_reserved": 0, "name": "50ecde7fe28ff31f0ca68ff5a7308592", "lon": -77.02860316666667, "type": "electric_scooter", "bike_id": "50ecde7fe28ff31f0ca68ff5a7308592", "fusion_lon": 0.0, "lat": 38.90260933333333, "fusion_lat": 0.0}, {"is_disabled": 0, "rental_uris": {"android": "https://dc.lft.to/lastmile_qr_scan", "ios": "https://dc.lft.to/lastmile_qr_scan"}, "is_reserved": 0, "name": "cdde3d568d0d9611a02b3e4f6e88880e", "lon": -77.0319705, "type": "electric_scooter", "bike_id": "cdde3d568d0d9611a02b3e4f6e88880e", "fusion_lon": 0.0, "lat": 38.93071466666667, "fusion_lat": 0.0}, {"is_disabled": 0, "rental_uris": {"android": "https://dc.lft.to/lastmile_qr_scan", "ios": "https://dc.lft.to/lastmile_qr_scan"}, "is_reserved": 0, "name": "5c5e175c2b0bbff2968a5c4b51deec44", "lon": -77.02223266666667, "type": "electric_scooter", "bike_id": "5c5e175c2b0bbff2968a5c4b51deec44", "fusion_lon": 0.0, "lat": 38.914159166666664, "fusion_lat": 0.0}, {"is_disabled": 0, "rental_uris": {"android": "https://dc.lft.to/lastmile_qr_scan", "ios": "https://dc.lft.to/lastmile_qr_scan"}, "is_reserved": 0, "name": "dbe763eff0c36c235c1227fe33e91063", "lon": -77.00709966666666, "type": "electric_scooter", "bike_id": "dbe763eff0c36c235c1227fe33e91063", "fusion_lon": 0.0, "lat": 38.90579016666667, "fusion_lat": 0.0}, {"is_disabled": 0, "rental_uris": {"android": "https://dc.lft.to/lastmile_qr_scan", "ios": "https://dc.lft.to/lastmile_qr_scan"}, "is_reserved": 0, "name": "197c1fc33f809b5cbeeae54da358b8aa", "lon": -77.04461733333333, "type": "electric_scooter", "bike_id": "197c1fc33f809b5cbeeae54da358b8aa", "fusion_lon": 0.0, "lat": 38.914019833333334, "fusion_lat": 0.0}, {"is_disabled": 0, "rental_uris": {"android": "https://dc.lft.to/lastmile_qr_scan", "ios": "https://dc.lft.to/lastmile_qr_scan"}, "is_reserved": 0, "name": "6394d2be177b66fd09c9a7306aec7722", "lon": -76.9990615, "type": "electric_scooter", "bike_id": "6394d2be177b66fd09c9a7306aec7722", "fusion_lon": 0.0, "lat": 38.92454333333333, "fusion_lat": 0.0}, {"is_disabled": 0, "rental_uris": {"android": "https://dc.lft.to/lastmile_qr_scan", "ios": "https://dc.lft.to/lastmile_qr_scan"}, "is_reserved": 0, "name": "0a5cae6674f3f7bceb74070ab1b7ca58", "lon": -77.019733, "type": "electric_scooter", "bike_id": "0a5cae6674f3f7bceb74070ab1b7ca58", "fusion_lon": 0.0, "lat": 38.89505416666667, "fusion_lat": 0.0}, {"is_disabled": 0, "rental_uris": {"android": "https://dc.lft.to/lastmile_qr_scan", "ios": "https://dc.lft.to/lastmile_qr_scan"}, "is_reserved": 0, "name": "4ece8952fd25e1334443d24e84e713de", "lon": -77.03819366666667, "type": "electric_scooter", "bike_id": "4ece8952fd25e1334443d24e84e713de", "fusion_lon": 0.0, "lat": 38.90973366666667, "fusion_lat": 0.0}, {"is_disabled": 0, "rental_uris": {"android": "https://dc.lft.to/lastmile_qr_scan", "ios": "https://dc.lft.to/lastmile_qr_scan"}, "is_reserved": 0, "name": "5d7528663c33a3390e4cb89069973f90", "lon": -76.9488725, "type": "electric_scooter", "bike_id": "5d7528663c33a3390e4cb89069973f90", "fusion_lon": 0.0, "lat": 38.89511366666667, "fusion_lat": 0.0}, {"is_disabled": 0, "rental_uris": {"android": "https://dc.lft.to/lastmile_qr_scan", "ios": "https://dc.lft.to/lastmile_qr_scan"}, "is_reserved": 0, "name": "3ac595d36057a18dcb53139a1e68151f", "lon": -77.03625183333334, "type": "electric_scooter", "bike_id": "3ac595d36057a18dcb53139a1e68151f", "fusion_lon": 0.0, "lat": 38.916941, "fusion_lat": 0.0}, {"is_disabled": 0, "rental_uris": {"android": "https://dc.lft.to/lastmile_qr_scan", "ios": "https://dc.lft.to/lastmile_qr_scan"}, "is_reserved": 0, "name": "07a7dcd0ee967e1ba111c860d4b64f0f", "lon": -77.00205466666667, "type": "electric_scooter", "bike_id": "07a7dcd0ee967e1ba111c860d4b64f0f", "fusion_lon": 0.0, "lat": 38.902389666666664, "fusion_lat": 0.0}, {"is_disabled": 0, "rental_uris": {"android": "https://dc.lft.to/lastmile_qr_scan", "ios": "https://dc.lft.to/lastmile_qr_scan"}, "is_reserved": 0, "name": "a1c363516184c5bbd2689688f4a6dd25", "lon": -77.03376966666667, "type": "electric_scooter", "bike_id": "a1c363516184c5bbd2689688f4a6dd25", "fusion_lon": 0.0, "lat": 38.921524, "fusion_lat": 0.0}, {"is_disabled": 0, "rental_uris": {"android": "https://dc.lft.to/lastmile_qr_scan", "ios": "https://dc.lft.to/lastmile_qr_scan"}, "is_reserved": 0, "name": "3b689ba16d851f19c475e41639b524b0", "lon": -77.02804316666666, "type": "electric_scooter", "bike_id": "3b689ba16d851f19c475e41639b524b0", "fusion_lon": 0.0, "lat": 38.962134166666665, "fusion_lat": 0.0}, {"is_disabled": 0, "rental_uris": {"android": "https://dc.lft.to/lastmile_qr_scan", "ios": "https://dc.lft.to/lastmile_qr_scan"}, "is_reserved": 0, "name": "cfc0190d6fad0cfcd11aa5254a39dff6", "lon": -77.036336, "type": "electric_scooter", "bike_id": "cfc0190d6fad0cfcd11aa5254a39dff6", "fusion_lon": 0.0, "lat": 38.942828, "fusion_lat": 0.0}, {"is_disabled": 0, "rental_uris": {"android": "https://dc.lft.to/lastmile_qr_scan", "ios": "https://dc.lft.to/lastmile_qr_scan"}, "is_reserved": 0, "name": "1fc97d35ea1dcdc9886ca464b0234ac4", "lon": -77.02178633333334, "type": "electric_scooter", "bike_id": "1fc97d35ea1dcdc9886ca464b0234ac4", "fusion_lon": 0.0, "lat": 38.8974725, "fusion_lat": 0.0}, {"is_disabled": 0, "rental_uris": {"android": "https://dc.lft.to/lastmile_qr_scan", "ios": "https://dc.lft.to/lastmile_qr_scan"}, "is_reserved": 0, "name": "e3faaf51e9069585f615ecea9da13b08", "lon": -77.031755, "type": "electric_scooter", "bike_id": "e3faaf51e9069585f615ecea9da13b08", "fusion_lon": 0.0, "lat": 38.914162833333336, "fusion_lat": 0.0}, {"is_disabled": 0, "rental_uris": {"android": "https://dc.lft.to/lastmile_qr_scan", "ios": "https://dc.lft.to/lastmile_qr_scan"}, "is_reserved": 0, "name": "5163baca6879051260e93cba96686741", "lon": -77.02704816666666, "type": "electric_scooter", "bike_id": "5163baca6879051260e93cba96686741", "fusion_lon": 0.0, "lat": 38.94985116666667, "fusion_lat": 0.0}, {"is_disabled": 0, "rental_uris": {"android": "https://dc.lft.to/lastmile_qr_scan", "ios": "https://dc.lft.to/lastmile_qr_scan"}, "is_reserved": 0, "name": "001b764ca2e6b5cda1fff23fe8c086e2", "lon": -77.0469115, "type": "electric_scooter", "bike_id": "001b764ca2e6b5cda1fff23fe8c086e2", "fusion_lon": 0.0, "lat": 38.897415333333335, "fusion_lat": 0.0}, {"is_disabled": 0, "rental_uris": {"android": "https://dc.lft.to/lastmile_qr_scan", "ios": "https://dc.lft.to/lastmile_qr_scan"}, "is_reserved": 0, "name": "b6e8adf86dd27ea29c8126106eef9c23", "lon": -77.03158666666667, "type": "electric_scooter", "bike_id": "b6e8adf86dd27ea29c8126106eef9c23", "fusion_lon": 0.0, "lat": 38.92857683333333, "fusion_lat": 0.0}, {"is_disabled": 0, "rental_uris": {"android": "https://dc.lft.to/lastmile_qr_scan", "ios": "https://dc.lft.to/lastmile_qr_scan"}, "is_reserved": 0, "name": "dbf6e9af6deec77227a3d17fa9cf5a72", "lon": -76.96530466666667, "type": "electric_scooter", "bike_id": "dbf6e9af6deec77227a3d17fa9cf5a72", "fusion_lon": 0.0, "lat": 38.87628183333333, "fusion_lat": 0.0}, {"is_disabled": 0, "rental_uris": {"android": "https://dc.lft.to/lastmile_qr_scan", "ios": "https://dc.lft.to/lastmile_qr_scan"}, "is_reserved": 0, "name": "7870956da98a6871c85127969eff0aa7", "lon": -77.03634866666667, "type": "electric_scooter", "bike_id": "7870956da98a6871c85127969eff0aa7", "fusion_lon": 0.0, "lat": 38.9304345, "fusion_lat": 0.0}, {"is_disabled": 0, "rental_uris": {"android": "https://dc.lft.to/lastmile_qr_scan", "ios": "https://dc.lft.to/lastmile_qr_scan"}, "is_reserved": 0, "name": "e52c58b483c54daf4662a7735211dccb", "lon": -77.02689616666666, "type": "electric_scooter", "bike_id": "e52c58b483c54daf4662a7735211dccb", "fusion_lon": 0.0, "lat": 38.906264166666666, "fusion_lat": 0.0}, {"is_disabled": 0, "rental_uris": {"android": "https://dc.lft.to/lastmile_qr_scan", "ios": "https://dc.lft.to/lastmile_qr_scan"}, "is_reserved": 0, "name": "9afda6da3286a68a534678a180317180", "lon": -77.0067435, "type": "electric_bike", "bike_id": "9afda6da3286a68a534678a180317180", "fusion_lon": 0.0, "lat": 38.9450915, "fusion_lat": 0.0}, {"is_disabled": 0, "rental_uris": {"android": "https://dc.lft.to/lastmile_qr_scan", "ios": "https://dc.lft.to/lastmile_qr_scan"}, "is_reserved": 0, "name": "4405e7ebeeded46abb530bf7ea623906", "lon": -77.049415, "type": "electric_scooter", "bike_id": "4405e7ebeeded46abb530bf7ea623906", "fusion_lon": 0.0, "lat": 38.90719633333333, "fusion_lat": 0.0}, {"is_disabled": 0, "rental_uris": {"android": "https://dc.lft.to/lastmile_qr_scan", "ios": "https://dc.lft.to/lastmile_qr_scan"}, "is_reserved": 0, "name": "c4c4264b54af977fc8891b6aeab71e0d", "lon": -77.0118855, "type": "electric_scooter", "bike_id": "c4c4264b54af977fc8891b6aeab71e0d", "fusion_lon": 0.0, "lat": 38.903671, "fusion_lat": 0.0}, {"is_disabled": 0, "rental_uris": {"android": "https://dc.lft.to/lastmile_qr_scan", "ios": "https://dc.lft.to/lastmile_qr_scan"}, "is_reserved": 0, "name": "5acdd7af77844b4e61ebb4e69bf29170", "lon": -77.02893633333333, "type": "electric_scooter", "bike_id": "5acdd7af77844b4e61ebb4e69bf29170", "fusion_lon": 0.0, "lat": 38.901336666666666, "fusion_lat": 0.0}, {"is_disabled": 0, "rental_uris": {"android": "https://dc.lft.to/lastmile_qr_scan", "ios": "https://dc.lft.to/lastmile_qr_scan"}, "is_reserved": 0, "name": "70a269e75625cd64e7928daa77ea41be", "lon": -77.00150166666667, "type": "electric_scooter", "bike_id": "70a269e75625cd64e7928daa77ea41be", "fusion_lon": 0.0, "lat": 38.87376916666667, "fusion_lat": 0.0}, {"is_disabled": 0, "rental_uris": {"android": "https://dc.lft.to/lastmile_qr_scan", "ios": "https://dc.lft.to/lastmile_qr_scan"}, "is_reserved": 0, "name": "5d876b91dc2fc6c830cc40fcc5c1c422", "lon": -77.02477516666667, "type": "electric_scooter", "bike_id": "5d876b91dc2fc6c830cc40fcc5c1c422", "fusion_lon": 0.0, "lat": 38.93853716666667, "fusion_lat": 0.0}, {"is_disabled": 0, "rental_uris": {"android": "https://dc.lft.to/lastmile_qr_scan", "ios": "https://dc.lft.to/lastmile_qr_scan"}, "is_reserved": 0, "name": "c0a8c943c958ed9fff1314be754c4d01", "lon": -77.07088966666667, "type": "electric_scooter", "bike_id": "c0a8c943c958ed9fff1314be754c4d01", "fusion_lon": 0.0, "lat": 38.919383833333335, "fusion_lat": 0.0}, {"is_disabled": 0, "rental_uris": {"android": "https://dc.lft.to/lastmile_qr_scan", "ios": "https://dc.lft.to/lastmile_qr_scan"}, "is_reserved": 0, "name": "b1f6c96efde8ceaf499059c06231fdfb", "lon": -77.03466416666667, "type": "electric_scooter", "bike_id": "b1f6c96efde8ceaf499059c06231fdfb", "fusion_lon": 0.0, "lat": 38.92152183333334, "fusion_lat": 0.0}, {"is_disabled": 0, "rental_uris": {"android": "https://dc.lft.to/lastmile_qr_scan", "ios": "https://dc.lft.to/lastmile_qr_scan"}, "is_reserved": 0, "name": "d5a68960f69330baac6ab572804effd7", "lon": -77.04344216666667, "type": "electric_scooter", "bike_id": "d5a68960f69330baac6ab572804effd7", "fusion_lon": 0.0, "lat": 38.89845716666667, "fusion_lat": 0.0}, {"is_disabled": 0, "rental_uris": {"android": "https://dc.lft.to/lastmile_qr_scan", "ios": "https://dc.lft.to/lastmile_qr_scan"}, "is_reserved": 0, "name": "1b9fc4321144a9256e176b848acfc761", "lon": -77.05141566666667, "type": "electric_scooter", "bike_id": "1b9fc4321144a9256e176b848acfc761", "fusion_lon": 0.0, "lat": 38.9058725, "fusion_lat": 0.0}, {"is_disabled": 0, "rental_uris": {"android": "https://dc.lft.to/lastmile_qr_scan", "ios": "https://dc.lft.to/lastmile_qr_scan"}, "is_reserved": 0, "name": "2d94716febf92d0d505c6ec67f1a0560", "lon": -76.95210433333334, "type": "electric_scooter", "bike_id": "2d94716febf92d0d505c6ec67f1a0560", "fusion_lon": 0.0, "lat": 38.89252333333334, "fusion_lat": 0.0}, {"is_disabled": 0, "rental_uris": {"android": "https://dc.lft.to/lastmile_qr_scan", "ios": "https://dc.lft.to/lastmile_qr_scan"}, "is_reserved": 0, "name": "a8928f6da28fce67358fad0376d97928", "lon": -77.04656983333334, "type": "electric_scooter", "bike_id": "a8928f6da28fce67358fad0376d97928", "fusion_lon": 0.0, "lat": 38.9049295, "fusion_lat": 0.0}, {"is_disabled": 0, "rental_uris": {"android": "https://dc.lft.to/lastmile_qr_scan", "ios": "https://dc.lft.to/lastmile_qr_scan"}, "is_reserved": 0, "name": "4a495d9b6a8c5503f601d82c1dfee4bf", "lon": -76.983769, "type": "electric_scooter", "bike_id": "4a495d9b6a8c5503f601d82c1dfee4bf", "fusion_lon": 0.0, "lat": 38.91496566666667, "fusion_lat": 0.0}, {"is_disabled": 0, "rental_uris": {"android": "https://dc.lft.to/lastmile_qr_scan", "ios": "https://dc.lft.to/lastmile_qr_scan"}, "is_reserved": 0, "name": "e6043c5bd1d228dad3b486f0dc48237e", "lon": -77.0445315, "type": "electric_scooter", "bike_id": "e6043c5bd1d228dad3b486f0dc48237e", "fusion_lon": 0.0, "lat": 38.9186265, "fusion_lat": 0.0}, {"is_disabled": 0, "rental_uris": {"android": "https://dc.lft.to/lastmile_qr_scan", "ios": "https://dc.lft.to/lastmile_qr_scan"}, "is_reserved": 0, "name": "55c77ca92eebbbe5870cbca81caf0041", "lon": -76.99901316666667, "type": "electric_scooter", "bike_id": "55c77ca92eebbbe5870cbca81caf0041", "fusion_lon": 0.0, "lat": 38.90032016666667, "fusion_lat": 0.0}, {"is_disabled": 0, "rental_uris": {"android": "https://dc.lft.to/lastmile_qr_scan", "ios": "https://dc.lft.to/lastmile_qr_scan"}, "is_reserved": 0, "name": "8907f9adad0f472b5c520c5e016174a3", "lon": -77.04023483333333, "type": "electric_scooter", "bike_id": "8907f9adad0f472b5c520c5e016174a3", "fusion_lon": 0.0, "lat": 38.92082, "fusion_lat": 0.0}, {"is_disabled": 0, "rental_uris": {"android": "https://dc.lft.to/lastmile_qr_scan", "ios": "https://dc.lft.to/lastmile_qr_scan"}, "is_reserved": 0, "name": "7c0d7b77cbce4935ae918d54491a0218", "lon": -77.0033085, "type": "electric_scooter", "bike_id": "7c0d7b77cbce4935ae918d54491a0218", "fusion_lon": 0.0, "lat": 38.90463366666667, "fusion_lat": 0.0}, {"is_disabled": 0, "rental_uris": {"android": "https://dc.lft.to/lastmile_qr_scan", "ios": "https://dc.lft.to/lastmile_qr_scan"}, "is_reserved": 0, "name": "436b5e9edced0958b7ed1c5dbe5be796", "lon": -77.03665483333333, "type": "electric_scooter", "bike_id": "436b5e9edced0958b7ed1c5dbe5be796", "fusion_lon": 0.0, "lat": 38.922573, "fusion_lat": 0.0}, {"is_disabled": 0, "rental_uris": {"android": "https://dc.lft.to/lastmile_qr_scan", "ios": "https://dc.lft.to/lastmile_qr_scan"}, "is_reserved": 0, "name": "7e1dc6df53a75a7300a3333d181ccdda", "lon": -77.07907616666667, "type": "electric_bike", "bike_id": "7e1dc6df53a75a7300a3333d181ccdda", "fusion_lon": 0.0, "lat": 38.839345333333334, "fusion_lat": 0.0}, {"is_disabled": 0, "rental_uris": {"android": "https://dc.lft.to/lastmile_qr_scan", "ios": "https://dc.lft.to/lastmile_qr_scan"}, "is_reserved": 0, "name": "9f866a3fdc22f71b589c714234b02afc", "lon": -77.03409816666667, "type": "electric_scooter", "bike_id": "9f866a3fdc22f71b589c714234b02afc", "fusion_lon": 0.0, "lat": 38.91924066666667, "fusion_lat": 0.0}, {"is_disabled": 0, "rental_uris": {"android": "https://dc.lft.to/lastmile_qr_scan", "ios": "https://dc.lft.to/lastmile_qr_scan"}, "is_reserved": 0, "name": "69b88e3e41f3fca4e3c00d1d52bed036", "lon": -77.03951316666667, "type": "electric_scooter", "bike_id": "69b88e3e41f3fca4e3c00d1d52bed036", "fusion_lon": 0.0, "lat": 38.89896933333333, "fusion_lat": 0.0}, {"is_disabled": 0, "rental_uris": {"android": "https://dc.lft.to/lastmile_qr_scan", "ios": "https://dc.lft.to/lastmile_qr_scan"}, "is_reserved": 0, "name": "4ea883a8dc7807622e95051eb0edb5f5", "lon": -77.0436685, "type": "electric_scooter", "bike_id": "4ea883a8dc7807622e95051eb0edb5f5", "fusion_lon": 0.0, "lat": 38.9026465, "fusion_lat": 0.0}, {"is_disabled": 0, "rental_uris": {"android": "https://dc.lft.to/lastmile_qr_scan", "ios": "https://dc.lft.to/lastmile_qr_scan"}, "is_reserved": 0, "name": "0bb5bd0c6d50e8cc51812e0f97134f51", "lon": -77.037515, "type": "electric_scooter", "bike_id": "0bb5bd0c6d50e8cc51812e0f97134f51", "fusion_lon": 0.0, "lat": 38.92901466666667, "fusion_lat": 0.0}, {"is_disabled": 0, "rental_uris": {"android": "https://dc.lft.to/lastmile_qr_scan", "ios": "https://dc.lft.to/lastmile_qr_scan"}, "is_reserved": 0, "name": "736eec9d918194b19a4dd66b27b1fd2b", "lon": -77.02379566666667, "type": "electric_scooter", "bike_id": "736eec9d918194b19a4dd66b27b1fd2b", "fusion_lon": 0.0, "lat": 38.907134166666665, "fusion_lat": 0.0}, {"is_disabled": 0, "rental_uris": {"android": "https://dc.lft.to/lastmile_qr_scan", "ios": "https://dc.lft.to/lastmile_qr_scan"}, "is_reserved": 0, "name": "042583074fba80ee02b4385bf49a1f98", "lon": -77.03147116666666, "type": "electric_scooter", "bike_id": "042583074fba80ee02b4385bf49a1f98", "fusion_lon": 0.0, "lat": 38.927203, "fusion_lat": 0.0}, {"is_disabled": 0, "rental_uris": {"android": "https://dc.lft.to/lastmile_qr_scan", "ios": "https://dc.lft.to/lastmile_qr_scan"}, "is_reserved": 0, "name": "cf7ed20c2b3a12a63c41943870d9f099", "lon": -76.9877955, "type": "electric_scooter", "bike_id": "cf7ed20c2b3a12a63c41943870d9f099", "fusion_lon": 0.0, "lat": 38.898258166666665, "fusion_lat": 0.0}, {"is_disabled": 0, "rental_uris": {"android": "https://dc.lft.to/lastmile_qr_scan", "ios": "https://dc.lft.to/lastmile_qr_scan"}, "is_reserved": 0, "name": "83201cbb39440a26b692b33b36f82f3c", "lon": -77.0418065, "type": "electric_scooter", "bike_id": "83201cbb39440a26b692b33b36f82f3c", "fusion_lon": 0.0, "lat": 38.89231433333333, "fusion_lat": 0.0}, {"is_disabled": 0, "rental_uris": {"android": "https://dc.lft.to/lastmile_qr_scan", "ios": "https://dc.lft.to/lastmile_qr_scan"}, "is_reserved": 0, "name": "cba72759842ca14db11bc55de3be2158", "lon": -76.9820135, "type": "electric_bike", "bike_id": "cba72759842ca14db11bc55de3be2158", "fusion_lon": 0.0, "lat": 38.985003666666664, "fusion_lat": 0.0}, {"is_disabled": 0, "rental_uris": {"android": "https://dc.lft.to/lastmile_qr_scan", "ios": "https://dc.lft.to/lastmile_qr_scan"}, "is_reserved": 0, "name": "f4a00c20996d5ebad0ea39a4e03b31c4", "lon": -77.02025116666667, "type": "electric_scooter", "bike_id": "f4a00c20996d5ebad0ea39a4e03b31c4", "fusion_lon": 0.0, "lat": 38.883176, "fusion_lat": 0.0}, {"is_disabled": 0, "rental_uris": {"android": "https://dc.lft.to/lastmile_qr_scan", "ios": "https://dc.lft.to/lastmile_qr_scan"}, "is_reserved": 0, "name": "1c491ef6205910b79529199f385f5b65", "lon": -76.996536, "type": "electric_scooter", "bike_id": "1c491ef6205910b79529199f385f5b65", "fusion_lon": 0.0, "lat": 38.886115833333335, "fusion_lat": 0.0}, {"is_disabled": 0, "rental_uris": {"android": "https://dc.lft.to/lastmile_qr_scan", "ios": "https://dc.lft.to/lastmile_qr_scan"}, "is_reserved": 0, "name": "1753ac7bbc1a105aac320ce2119994fc", "lon": -76.968789, "type": "electric_bike", "bike_id": "1753ac7bbc1a105aac320ce2119994fc", "fusion_lon": 0.0, "lat": 38.846115166666664, "fusion_lat": 0.0}, {"is_disabled": 0, "rental_uris": {"android": "https://dc.lft.to/lastmile_qr_scan", "ios": "https://dc.lft.to/lastmile_qr_scan"}, "is_reserved": 0, "name": "674adaf0380239ab1d61959fc7361b60", "lon": -77.03441666666667, "type": "electric_scooter", "bike_id": "674adaf0380239ab1d61959fc7361b60", "fusion_lon": 0.0, "lat": 38.91802466666667, "fusion_lat": 0.0}, {"is_disabled": 0, "rental_uris": {"android": "https://dc.lft.to/lastmile_qr_scan", "ios": "https://dc.lft.to/lastmile_qr_scan"}, "is_reserved": 0, "name": "22d2c67bbc8596f55f0ea3c327caa1e9", "lon": -77.030824, "type": "electric_bike", "bike_id": "22d2c67bbc8596f55f0ea3c327caa1e9", "fusion_lon": 0.0, "lat": 38.88400033333333, "fusion_lat": 0.0}, {"is_disabled": 0, "rental_uris": {"android": "https://dc.lft.to/lastmile_qr_scan", "ios": "https://dc.lft.to/lastmile_qr_scan"}, "is_reserved": 0, "name": "811f4edfae49e9e3cc3d9728dec69a3f", "lon": -76.99900316666667, "type": "electric_scooter", "bike_id": "811f4edfae49e9e3cc3d9728dec69a3f", "fusion_lon": 0.0, "lat": 38.892148666666664, "fusion_lat": 0.0}, {"is_disabled": 0, "rental_uris": {"android": "https://dc.lft.to/lastmile_qr_scan", "ios": "https://dc.lft.to/lastmile_qr_scan"}, "is_reserved": 0, "name": "19251a8ec401f344ff451b3bd14b4ec0", "lon": -76.97997533333333, "type": "electric_scooter", "bike_id": "19251a8ec401f344ff451b3bd14b4ec0", "fusion_lon": 0.0, "lat": 38.90682016666667, "fusion_lat": 0.0}, {"is_disabled": 0, "rental_uris": {"android": "https://dc.lft.to/lastmile_qr_scan", "ios": "https://dc.lft.to/lastmile_qr_scan"}, "is_reserved": 0, "name": "335e6d3171c706824dc91198399c8ed1", "lon": -77.01740383333333, "type": "electric_scooter", "bike_id": "335e6d3171c706824dc91198399c8ed1", "fusion_lon": 0.0, "lat": 38.88346516666667, "fusion_lat": 0.0}, {"is_disabled": 0, "rental_uris": {"android": "https://dc.lft.to/lastmile_qr_scan", "ios": "https://dc.lft.to/lastmile_qr_scan"}, "is_reserved": 0, "name": "25409bc657e241737aa1ec097f3967a1", "lon": -77.02415383333333, "type": "electric_scooter", "bike_id": "25409bc657e241737aa1ec097f3967a1", "fusion_lon": 0.0, "lat": 38.909597166666664, "fusion_lat": 0.0}, {"is_disabled": 0, "rental_uris": {"android": "https://dc.lft.to/lastmile_qr_scan", "ios": "https://dc.lft.to/lastmile_qr_scan"}, "is_reserved": 0, "name": "55682ec608d0af4047ee3035866b42ba", "lon": -77.01881283333333, "type": "electric_scooter", "bike_id": "55682ec608d0af4047ee3035866b42ba", "fusion_lon": 0.0, "lat": 38.9133065, "fusion_lat": 0.0}, {"is_disabled": 0, "rental_uris": {"android": "https://dc.lft.to/lastmile_qr_scan", "ios": "https://dc.lft.to/lastmile_qr_scan"}, "is_reserved": 0, "name": "83c0d2d2e8e190e697b3c2ba836744b9", "lon": -77.01606316666667, "type": "electric_scooter", "bike_id": "83c0d2d2e8e190e697b3c2ba836744b9", "fusion_lon": 0.0, "lat": 38.885073, "fusion_lat": 0.0}, {"is_disabled": 0, "rental_uris": {"android": "https://dc.lft.to/lastmile_qr_scan", "ios": "https://dc.lft.to/lastmile_qr_scan"}, "is_reserved": 0, "name": "66b305d076d663b7652e8f7a8defd3ca", "lon": -77.00327316666667, "type": "electric_scooter", "bike_id": "66b305d076d663b7652e8f7a8defd3ca", "fusion_lon": 0.0, "lat": 38.902625, "fusion_lat": 0.0}, {"is_disabled": 0, "rental_uris": {"android": "https://dc.lft.to/lastmile_qr_scan", "ios": "https://dc.lft.to/lastmile_qr_scan"}, "is_reserved": 0, "name": "bf21e9e206c4415fdca3246484d70686", "lon": -76.9780135, "type": "electric_scooter", "bike_id": "bf21e9e206c4415fdca3246484d70686", "fusion_lon": 0.0, "lat": 38.92060583333333, "fusion_lat": 0.0}, {"is_disabled": 0, "rental_uris": {"android": "https://dc.lft.to/lastmile_qr_scan", "ios": "https://dc.lft.to/lastmile_qr_scan"}, "is_reserved": 0, "name": "754ebe60cdb2d4c2783159ef2cab0d94", "lon": -77.02160416666666, "type": "electric_scooter", "bike_id": "754ebe60cdb2d4c2783159ef2cab0d94", "fusion_lon": 0.0, "lat": 38.926136, "fusion_lat": 0.0}, {"is_disabled": 0, "rental_uris": {"android": "https://dc.lft.to/lastmile_qr_scan", "ios": "https://dc.lft.to/lastmile_qr_scan"}, "is_reserved": 0, "name": "f5507d5891dfdbfdfba9755d57f76a78", "lon": -77.127379, "type": "electric_bike", "bike_id": "f5507d5891dfdbfdfba9755d57f76a78", "fusion_lon": 0.0, "lat": 38.88821216666667, "fusion_lat": 0.0}, {"is_disabled": 0, "rental_uris": {"android": "https://dc.lft.to/lastmile_qr_scan", "ios": "https://dc.lft.to/lastmile_qr_scan"}, "is_reserved": 0, "name": "f852fe402b14d0182a285d4d603e56c6", "lon": -77.068954, "type": "electric_scooter", "bike_id": "f852fe402b14d0182a285d4d603e56c6", "fusion_lon": 0.0, "lat": 38.90787133333333, "fusion_lat": 0.0}, {"is_disabled": 0, "rental_uris": {"android": "https://dc.lft.to/lastmile_qr_scan", "ios": "https://dc.lft.to/lastmile_qr_scan"}, "is_reserved": 0, "name": "3064e7c44b18ce370d512a7ecc71f8da", "lon": -76.98614266666667, "type": "electric_scooter", "bike_id": "3064e7c44b18ce370d512a7ecc71f8da", "fusion_lon": 0.0, "lat": 38.90345166666667, "fusion_lat": 0.0}, {"is_disabled": 0, "rental_uris": {"android": "https://dc.lft.to/lastmile_qr_scan", "ios": "https://dc.lft.to/lastmile_qr_scan"}, "is_reserved": 0, "name": "c192009d09e184de21536e34ac17b847", "lon": -77.04999883333333, "type": "electric_scooter", "bike_id": "c192009d09e184de21536e34ac17b847", "fusion_lon": 0.0, "lat": 38.89234366666667, "fusion_lat": 0.0}, {"is_disabled": 0, "rental_uris": {"android": "https://dc.lft.to/lastmile_qr_scan", "ios": "https://dc.lft.to/lastmile_qr_scan"}, "is_reserved": 0, "name": "a5cd5bcd5d0c61ca6e812455160fb717", "lon": -77.037189, "type": "electric_scooter", "bike_id": "a5cd5bcd5d0c61ca6e812455160fb717", "fusion_lon": 0.0, "lat": 38.91114533333333, "fusion_lat": 0.0}, {"is_disabled": 0, "rental_uris": {"android": "https://dc.lft.to/lastmile_qr_scan", "ios": "https://dc.lft.to/lastmile_qr_scan"}, "is_reserved": 0, "name": "d086e2cc159cbe9096c2236dbad781de", "lon": -77.02158966666667, "type": "electric_scooter", "bike_id": "d086e2cc159cbe9096c2236dbad781de", "fusion_lon": 0.0, "lat": 38.895205, "fusion_lat": 0.0}, {"is_disabled": 0, "rental_uris": {"android": "https://dc.lft.to/lastmile_qr_scan", "ios": "https://dc.lft.to/lastmile_qr_scan"}, "is_reserved": 0, "name": "8886d35ad75d215f9e19f34918a8b0df", "lon": -76.994881, "type": "electric_scooter", "bike_id": "8886d35ad75d215f9e19f34918a8b0df", "fusion_lon": 0.0, "lat": 38.862364666666664, "fusion_lat": 0.0}, {"is_disabled": 0, "rental_uris": {"android": "https://dc.lft.to/lastmile_qr_scan", "ios": "https://dc.lft.to/lastmile_qr_scan"}, "is_reserved": 0, "name": "5f9ae6a9f47913dbe0f17d5245b1c398", "lon": -77.04356, "type": "electric_scooter", "bike_id": "5f9ae6a9f47913dbe0f17d5245b1c398", "fusion_lon": 0.0, "lat": 38.921694333333335, "fusion_lat": 0.0}, {"is_disabled": 0, "rental_uris": {"android": "https://dc.lft.to/lastmile_qr_scan", "ios": "https://dc.lft.to/lastmile_qr_scan"}, "is_reserved": 0, "name": "f615e9c5baa05ea3e3b5dc5d9f4949b7", "lon": -77.03169616666666, "type": "electric_scooter", "bike_id": "f615e9c5baa05ea3e3b5dc5d9f4949b7", "fusion_lon": 0.0, "lat": 38.89181, "fusion_lat": 0.0}, {"is_disabled": 0, "rental_uris": {"android": "https://dc.lft.to/lastmile_qr_scan", "ios": "https://dc.lft.to/lastmile_qr_scan"}, "is_reserved": 0, "name": "3ad02b96dcfb14677d6bc8f2babdcfaf", "lon": -77.027831, "type": "electric_scooter", "bike_id": "3ad02b96dcfb14677d6bc8f2babdcfaf", "fusion_lon": 0.0, "lat": 38.91019816666667, "fusion_lat": 0.0}, {"is_disabled": 0, "rental_uris": {"android": "https://dc.lft.to/lastmile_qr_scan", "ios": "https://dc.lft.to/lastmile_qr_scan"}, "is_reserved": 0, "name": "73a077825d0ec390bb49ef7ff13803b2", "lon": -76.986194, "type": "electric_scooter", "bike_id": "73a077825d0ec390bb49ef7ff13803b2", "fusion_lon": 0.0, "lat": 38.882910833333334, "fusion_lat": 0.0}, {"is_disabled": 0, "rental_uris": {"android": "https://dc.lft.to/lastmile_qr_scan", "ios": "https://dc.lft.to/lastmile_qr_scan"}, "is_reserved": 0, "name": "b23d8e140585d6727c6b8d1a633adb05", "lon": -77.034652, "type": "electric_scooter", "bike_id": "b23d8e140585d6727c6b8d1a633adb05", "fusion_lon": 0.0, "lat": 38.9215335, "fusion_lat": 0.0}, {"is_disabled": 0, "rental_uris": {"android": "https://dc.lft.to/lastmile_qr_scan", "ios": "https://dc.lft.to/lastmile_qr_scan"}, "is_reserved": 0, "name": "310113fcb3ee296ba0f873f8eeb0d184", "lon": -77.03271766666667, "type": "electric_scooter", "bike_id": "310113fcb3ee296ba0f873f8eeb0d184", "fusion_lon": 0.0, "lat": 38.9071955, "fusion_lat": 0.0}, {"is_disabled": 0, "rental_uris": {"android": "https://dc.lft.to/lastmile_qr_scan", "ios": "https://dc.lft.to/lastmile_qr_scan"}, "is_reserved": 0, "name": "3ddcf370eb77ebdecfeb9c9469f593a1", "lon": -77.04206083333334, "type": "electric_scooter", "bike_id": "3ddcf370eb77ebdecfeb9c9469f593a1", "fusion_lon": 0.0, "lat": 38.91127066666667, "fusion_lat": 0.0}, {"is_disabled": 0, "rental_uris": {"android": "https://dc.lft.to/lastmile_qr_scan", "ios": "https://dc.lft.to/lastmile_qr_scan"}, "is_reserved": 0, "name": "353cc14a3914c4cb8b69cf9919d2445e", "lon": -77.0320905, "type": "electric_scooter", "bike_id": "353cc14a3914c4cb8b69cf9919d2445e", "fusion_lon": 0.0, "lat": 38.907356666666665, "fusion_lat": 0.0}, {"is_disabled": 0, "rental_uris": {"android": "https://dc.lft.to/lastmile_qr_scan", "ios": "https://dc.lft.to/lastmile_qr_scan"}, "is_reserved": 0, "name": "c429f4b22c2d2894d21b73f7d0f81d51", "lon": -77.05416866666667, "type": "electric_scooter", "bike_id": "c429f4b22c2d2894d21b73f7d0f81d51", "fusion_lon": 0.0, "lat": 38.92831416666667, "fusion_lat": 0.0}, {"is_disabled": 0, "rental_uris": {"android": "https://dc.lft.to/lastmile_qr_scan", "ios": "https://dc.lft.to/lastmile_qr_scan"}, "is_reserved": 0, "name": "273295b625ac1840c1d855a9fdd1ca97", "lon": -77.04200083333333, "type": "electric_scooter", "bike_id": "273295b625ac1840c1d855a9fdd1ca97", "fusion_lon": 0.0, "lat": 38.90381716666667, "fusion_lat": 0.0}, {"is_disabled": 0, "rental_uris": {"android": "https://dc.lft.to/lastmile_qr_scan", "ios": "https://dc.lft.to/lastmile_qr_scan"}, "is_reserved": 0, "name": "b87cc94ca14fd868e6047e3807965746", "lon": -76.99401166666667, "type": "electric_scooter", "bike_id": "b87cc94ca14fd868e6047e3807965746", "fusion_lon": 0.0, "lat": 38.92166516666666, "fusion_lat": 0.0}, {"is_disabled": 0, "rental_uris": {"android": "https://dc.lft.to/lastmile_qr_scan", "ios": "https://dc.lft.to/lastmile_qr_scan"}, "is_reserved": 0, "name": "41e06f6d7040dd7473ebb162028fe0bf", "lon": -77.02739616666666, "type": "electric_scooter", "bike_id": "41e06f6d7040dd7473ebb162028fe0bf", "fusion_lon": 0.0, "lat": 38.9358445, "fusion_lat": 0.0}, {"is_disabled": 0, "rental_uris": {"android": "https://dc.lft.to/lastmile_qr_scan", "ios": "https://dc.lft.to/lastmile_qr_scan"}, "is_reserved": 0, "name": "75f443d1b9dc3f4e6e9dac515b8cb062", "lon": -77.03446183333334, "type": "electric_scooter", "bike_id": "75f443d1b9dc3f4e6e9dac515b8cb062", "fusion_lon": 0.0, "lat": 38.93362183333333, "fusion_lat": 0.0}, {"is_disabled": 0, "rental_uris": {"android": "https://dc.lft.to/lastmile_qr_scan", "ios": "https://dc.lft.to/lastmile_qr_scan"}, "is_reserved": 0, "name": "e957f1d27f1ff085b910a6be0cfa1f36", "lon": -77.03659616666667, "type": "electric_scooter", "bike_id": "e957f1d27f1ff085b910a6be0cfa1f36", "fusion_lon": 0.0, "lat": 38.92283916666667, "fusion_lat": 0.0}, {"is_disabled": 0, "rental_uris": {"android": "https://dc.lft.to/lastmile_qr_scan", "ios": "https://dc.lft.to/lastmile_qr_scan"}, "is_reserved": 0, "name": "3d19f6c63057815f0df3f2af9f27ab92", "lon": -77.04172533333333, "type": "electric_scooter", "bike_id": "3d19f6c63057815f0df3f2af9f27ab92", "fusion_lon": 0.0, "lat": 38.89893083333333, "fusion_lat": 0.0}, {"is_disabled": 0, "rental_uris": {"android": "https://dc.lft.to/lastmile_qr_scan", "ios": "https://dc.lft.to/lastmile_qr_scan"}, "is_reserved": 0, "name": "ed16299795d1d2a46b9c832902022b51", "lon": -77.03868116666666, "type": "electric_scooter", "bike_id": "ed16299795d1d2a46b9c832902022b51", "fusion_lon": 0.0, "lat": 38.915573, "fusion_lat": 0.0}, {"is_disabled": 0, "rental_uris": {"android": "https://dc.lft.to/lastmile_qr_scan", "ios": "https://dc.lft.to/lastmile_qr_scan"}, "is_reserved": 0, "name": "6f51c70baa099b6d3d536233b413414d", "lon": -76.9873415, "type": "electric_scooter", "bike_id": "6f51c70baa099b6d3d536233b413414d", "fusion_lon": 0.0, "lat": 38.86709366666667, "fusion_lat": 0.0}, {"is_disabled": 0, "rental_uris": {"android": "https://dc.lft.to/lastmile_qr_scan", "ios": "https://dc.lft.to/lastmile_qr_scan"}, "is_reserved": 0, "name": "5e76bf7e27cbadcd27f59e57a89c53c9", "lon": -77.055188, "type": "electric_bike", "bike_id": "5e76bf7e27cbadcd27f59e57a89c53c9", "fusion_lon": 0.0, "lat": 38.910607166666665, "fusion_lat": 0.0}, {"is_disabled": 0, "rental_uris": {"android": "https://dc.lft.to/lastmile_qr_scan", "ios": "https://dc.lft.to/lastmile_qr_scan"}, "is_reserved": 0, "name": "92430ff2d63463c7b0239ebc42c3bbbc", "lon": -77.00210533333333, "type": "electric_scooter", "bike_id": "92430ff2d63463c7b0239ebc42c3bbbc", "fusion_lon": 0.0, "lat": 38.91170366666667, "fusion_lat": 0.0}, {"is_disabled": 0, "rental_uris": {"android": "https://dc.lft.to/lastmile_qr_scan", "ios": "https://dc.lft.to/lastmile_qr_scan"}, "is_reserved": 0, "name": "877d0d3bd17d8070ff4f5e8a9328113e", "lon": -77.040702, "type": "electric_scooter", "bike_id": "877d0d3bd17d8070ff4f5e8a9328113e", "fusion_lon": 0.0, "lat": 38.92419616666667, "fusion_lat": 0.0}, {"is_disabled": 0, "rental_uris": {"android": "https://dc.lft.to/lastmile_qr_scan", "ios": "https://dc.lft.to/lastmile_qr_scan"}, "is_reserved": 0, "name": "43a9a1de988a3b9e1dcf7f426a012636", "lon": -77.0059765, "type": "electric_bike", "bike_id": "43a9a1de988a3b9e1dcf7f426a012636", "fusion_lon": 0.0, "lat": 38.89807116666667, "fusion_lat": 0.0}, {"is_disabled": 0, "rental_uris": {"android": "https://dc.lft.to/lastmile_qr_scan", "ios": "https://dc.lft.to/lastmile_qr_scan"}, "is_reserved": 0, "name": "819fd218ab9c00b7ab6b4fe006f5eb4a", "lon": -76.9374445, "type": "electric_scooter", "bike_id": "819fd218ab9c00b7ab6b4fe006f5eb4a", "fusion_lon": 0.0, "lat": 38.8901435, "fusion_lat": 0.0}, {"is_disabled": 0, "rental_uris": {"android": "https://dc.lft.to/lastmile_qr_scan", "ios": "https://dc.lft.to/lastmile_qr_scan"}, "is_reserved": 0, "name": "5901fb68c86542411e871023572b66ed", "lon": -76.97338, "type": "electric_bike", "bike_id": "5901fb68c86542411e871023572b66ed", "fusion_lon": 0.0, "lat": 38.86553583333333, "fusion_lat": 0.0}, {"is_disabled": 0, "rental_uris": {"android": "https://dc.lft.to/lastmile_qr_scan", "ios": "https://dc.lft.to/lastmile_qr_scan"}, "is_reserved": 0, "name": "15575e20694a4dff58aac4fa314ceb11", "lon": -77.04622333333333, "type": "electric_scooter", "bike_id": "15575e20694a4dff58aac4fa314ceb11", "fusion_lon": 0.0, "lat": 38.9231625, "fusion_lat": 0.0}, {"is_disabled": 0, "rental_uris": {"android": "https://dc.lft.to/lastmile_qr_scan", "ios": "https://dc.lft.to/lastmile_qr_scan"}, "is_reserved": 0, "name": "9dd20805f2648164e8aac2fc1933b10b", "lon": -77.03937433333333, "type": "electric_scooter", "bike_id": "9dd20805f2648164e8aac2fc1933b10b", "fusion_lon": 0.0, "lat": 38.915644, "fusion_lat": 0.0}, {"is_disabled": 0, "rental_uris": {"android": "https://dc.lft.to/lastmile_qr_scan", "ios": "https://dc.lft.to/lastmile_qr_scan"}, "is_reserved": 0, "name": "5bbdb0a14a006a29d2c57162cf6de691", "lon": -77.0420265, "type": "electric_scooter", "bike_id": "5bbdb0a14a006a29d2c57162cf6de691", "fusion_lon": 0.0, "lat": 38.91710633333334, "fusion_lat": 0.0}, {"is_disabled": 0, "rental_uris": {"android": "https://dc.lft.to/lastmile_qr_scan", "ios": "https://dc.lft.to/lastmile_qr_scan"}, "is_reserved": 0, "name": "08e2bf572b575ea9f6ef7b9fd1dd08d1", "lon": -77.03197416666667, "type": "electric_scooter", "bike_id": "08e2bf572b575ea9f6ef7b9fd1dd08d1", "fusion_lon": 0.0, "lat": 38.9228905, "fusion_lat": 0.0}, {"is_disabled": 0, "rental_uris": {"android": "https://dc.lft.to/lastmile_qr_scan", "ios": "https://dc.lft.to/lastmile_qr_scan"}, "is_reserved": 0, "name": "e42edf9126d90db73da7dcb10972cc76", "lon": -77.03857083333334, "type": "electric_scooter", "bike_id": "e42edf9126d90db73da7dcb10972cc76", "fusion_lon": 0.0, "lat": 38.90382316666667, "fusion_lat": 0.0}, {"is_disabled": 0, "rental_uris": {"android": "https://dc.lft.to/lastmile_qr_scan", "ios": "https://dc.lft.to/lastmile_qr_scan"}, "is_reserved": 0, "name": "67e9f18db5389b7b509b432ed1f0a540", "lon": -77.029614, "type": "electric_scooter", "bike_id": "67e9f18db5389b7b509b432ed1f0a540", "fusion_lon": 0.0, "lat": 38.9215025, "fusion_lat": 0.0}, {"is_disabled": 0, "rental_uris": {"android": "https://dc.lft.to/lastmile_qr_scan", "ios": "https://dc.lft.to/lastmile_qr_scan"}, "is_reserved": 0, "name": "667a270b8070573896db9cdce7064b7d", "lon": -76.926902, "type": "electric_scooter", "bike_id": "667a270b8070573896db9cdce7064b7d", "fusion_lon": 0.0, "lat": 38.88520483333333, "fusion_lat": 0.0}, {"is_disabled": 0, "rental_uris": {"android": "https://dc.lft.to/lastmile_qr_scan", "ios": "https://dc.lft.to/lastmile_qr_scan"}, "is_reserved": 0, "name": "3f447eef4f517ae2f57aba455164d030", "lon": -77.02498116666666, "type": "electric_scooter", "bike_id": "3f447eef4f517ae2f57aba455164d030", "fusion_lon": 0.0, "lat": 38.9180815, "fusion_lat": 0.0}, {"is_disabled": 0, "rental_uris": {"android": "https://dc.lft.to/lastmile_qr_scan", "ios": "https://dc.lft.to/lastmile_qr_scan"}, "is_reserved": 0, "name": "6ba18efc3f1b0b7207e2fa8090a78a1d", "lon": -76.985994, "type": "electric_scooter", "bike_id": "6ba18efc3f1b0b7207e2fa8090a78a1d", "fusion_lon": 0.0, "lat": 38.86076216666667, "fusion_lat": 0.0}, {"is_disabled": 0, "rental_uris": {"android": "https://dc.lft.to/lastmile_qr_scan", "ios": "https://dc.lft.to/lastmile_qr_scan"}, "is_reserved": 0, "name": "9300f68710d52d047c38489fd41931ee", "lon": -77.0266835, "type": "electric_scooter", "bike_id": "9300f68710d52d047c38489fd41931ee", "fusion_lon": 0.0, "lat": 38.921798, "fusion_lat": 0.0}, {"is_disabled": 0, "rental_uris": {"android": "https://dc.lft.to/lastmile_qr_scan", "ios": "https://dc.lft.to/lastmile_qr_scan"}, "is_reserved": 0, "name": "7b465b2b3238e2cb89de5151617e8406", "lon": -77.03797216666666, "type": "electric_scooter", "bike_id": "7b465b2b3238e2cb89de5151617e8406", "fusion_lon": 0.0, "lat": 38.93226133333334, "fusion_lat": 0.0}, {"is_disabled": 0, "rental_uris": {"android": "https://dc.lft.to/lastmile_qr_scan", "ios": "https://dc.lft.to/lastmile_qr_scan"}, "is_reserved": 0, "name": "efe0f6548974a7c74966b2b24b20cb45", "lon": -77.01821416666667, "type": "electric_scooter", "bike_id": "efe0f6548974a7c74966b2b24b20cb45", "fusion_lon": 0.0, "lat": 38.92218866666666, "fusion_lat": 0.0}, {"is_disabled": 0, "rental_uris": {"android": "https://dc.lft.to/lastmile_qr_scan", "ios": "https://dc.lft.to/lastmile_qr_scan"}, "is_reserved": 0, "name": "a911a4578abae9bd121d4e9608636b73", "lon": -76.9323055, "type": "electric_bike", "bike_id": "a911a4578abae9bd121d4e9608636b73", "fusion_lon": 0.0, "lat": 38.8659525, "fusion_lat": 0.0}, {"is_disabled": 0, "rental_uris": {"android": "https://dc.lft.to/lastmile_qr_scan", "ios": "https://dc.lft.to/lastmile_qr_scan"}, "is_reserved": 0, "name": "17b91476cac599e70fd7c926e1d40873", "lon": -77.0372105, "type": "electric_scooter", "bike_id": "17b91476cac599e70fd7c926e1d40873", "fusion_lon": 0.0, "lat": 38.91116516666666, "fusion_lat": 0.0}, {"is_disabled": 0, "rental_uris": {"android": "https://dc.lft.to/lastmile_qr_scan", "ios": "https://dc.lft.to/lastmile_qr_scan"}, "is_reserved": 0, "name": "2b4b14ee59657da07c728837a771f1c5", "lon": -77.04717016666666, "type": "electric_scooter", "bike_id": "2b4b14ee59657da07c728837a771f1c5", "fusion_lon": 0.0, "lat": 38.906152, "fusion_lat": 0.0}, {"is_disabled": 0, "rental_uris": {"android": "https://dc.lft.to/lastmile_qr_scan", "ios": "https://dc.lft.to/lastmile_qr_scan"}, "is_reserved": 0, "name": "f0a1b68253fd92accad3067d7c50046f", "lon": -77.04024583333333, "type": "electric_scooter", "bike_id": "f0a1b68253fd92accad3067d7c50046f", "fusion_lon": 0.0, "lat": 38.91797916666667, "fusion_lat": 0.0}, {"is_disabled": 0, "rental_uris": {"android": "https://dc.lft.to/lastmile_qr_scan", "ios": "https://dc.lft.to/lastmile_qr_scan"}, "is_reserved": 0, "name": "9b6bcb0e58f732fdc00388077ecc1509", "lon": -77.02018016666666, "type": "electric_scooter", "bike_id": "9b6bcb0e58f732fdc00388077ecc1509", "fusion_lon": 0.0, "lat": 38.89743133333333, "fusion_lat": 0.0}, {"is_disabled": 0, "rental_uris": {"android": "https://dc.lft.to/lastmile_qr_scan", "ios": "https://dc.lft.to/lastmile_qr_scan"}, "is_reserved": 0, "name": "4ba97b19b6b6eed1f1fbaf40222a67dc", "lon": -77.03412383333334, "type": "electric_scooter", "bike_id": "4ba97b19b6b6eed1f1fbaf40222a67dc", "fusion_lon": 0.0, "lat": 38.93542683333333, "fusion_lat": 0.0}, {"is_disabled": 0, "rental_uris": {"android": "https://dc.lft.to/lastmile_qr_scan", "ios": "https://dc.lft.to/lastmile_qr_scan"}, "is_reserved": 0, "name": "ba5f22236c1e704f1853cdc2839b1b51", "lon": -77.0378765, "type": "electric_scooter", "bike_id": "ba5f22236c1e704f1853cdc2839b1b51", "fusion_lon": 0.0, "lat": 38.9302795, "fusion_lat": 0.0}, {"is_disabled": 0, "rental_uris": {"android": "https://dc.lft.to/lastmile_qr_scan", "ios": "https://dc.lft.to/lastmile_qr_scan"}, "is_reserved": 0, "name": "03eb607143d58b1d0f58c10224a10ac5", "lon": -76.97617966666667, "type": "electric_scooter", "bike_id": "03eb607143d58b1d0f58c10224a10ac5", "fusion_lon": 0.0, "lat": 38.931475, "fusion_lat": 0.0}, {"is_disabled": 0, "rental_uris": {"android": "https://dc.lft.to/lastmile_qr_scan", "ios": "https://dc.lft.to/lastmile_qr_scan"}, "is_reserved": 0, "name": "c80cd82433327f241e913d2b761ca6cd", "lon": -76.94059016666667, "type": "electric_scooter", "bike_id": "c80cd82433327f241e913d2b761ca6cd", "fusion_lon": 0.0, "lat": 38.890346, "fusion_lat": 0.0}, {"is_disabled": 0, "rental_uris": {"android": "https://dc.lft.to/lastmile_qr_scan", "ios": "https://dc.lft.to/lastmile_qr_scan"}, "is_reserved": 0, "name": "5ed148ca9d43652b7cbf79005e839563", "lon": -77.03191166666667, "type": "electric_scooter", "bike_id": "5ed148ca9d43652b7cbf79005e839563", "fusion_lon": 0.0, "lat": 38.917786, "fusion_lat": 0.0}, {"is_disabled": 0, "rental_uris": {"android": "https://dc.lft.to/lastmile_qr_scan", "ios": "https://dc.lft.to/lastmile_qr_scan"}, "is_reserved": 0, "name": "bb6cac0a8630ee032810e3af1e88b1b0", "lon": -76.98777866666667, "type": "electric_scooter", "bike_id": "bb6cac0a8630ee032810e3af1e88b1b0", "fusion_lon": 0.0, "lat": 38.911764166666664, "fusion_lat": 0.0}, {"is_disabled": 0, "rental_uris": {"android": "https://dc.lft.to/lastmile_qr_scan", "ios": "https://dc.lft.to/lastmile_qr_scan"}, "is_reserved": 0, "name": "9ca2e490c2238a0c40faec24c91457dc", "lon": -77.030508, "type": "electric_scooter", "bike_id": "9ca2e490c2238a0c40faec24c91457dc", "fusion_lon": 0.0, "lat": 38.934570666666666, "fusion_lat": 0.0}, {"is_disabled": 0, "rental_uris": {"android": "https://dc.lft.to/lastmile_qr_scan", "ios": "https://dc.lft.to/lastmile_qr_scan"}, "is_reserved": 0, "name": "be6bfc309424fa0b8373fb074e820c61", "lon": -76.93742433333334, "type": "electric_scooter", "bike_id": "be6bfc309424fa0b8373fb074e820c61", "fusion_lon": 0.0, "lat": 38.8902235, "fusion_lat": 0.0}, {"is_disabled": 0, "rental_uris": {"android": "https://dc.lft.to/lastmile_qr_scan", "ios": "https://dc.lft.to/lastmile_qr_scan"}, "is_reserved": 0, "name": "a1e78727297b25a01280cef9b6efd491", "lon": -77.03857333333333, "type": "electric_scooter", "bike_id": "a1e78727297b25a01280cef9b6efd491", "fusion_lon": 0.0, "lat": 38.907835, "fusion_lat": 0.0}, {"is_disabled": 0, "rental_uris": {"android": "https://dc.lft.to/lastmile_qr_scan", "ios": "https://dc.lft.to/lastmile_qr_scan"}, "is_reserved": 0, "name": "24c46e399a5c581cd3db4a7a2b0dcc27", "lon": -77.04724033333333, "type": "electric_scooter", "bike_id": "24c46e399a5c581cd3db4a7a2b0dcc27", "fusion_lon": 0.0, "lat": 38.897412, "fusion_lat": 0.0}, {"is_disabled": 0, "rental_uris": {"android": "https://dc.lft.to/lastmile_qr_scan", "ios": "https://dc.lft.to/lastmile_qr_scan"}, "is_reserved": 0, "name": "65609dda45cf0569a596b69711b0cda6", "lon": -77.037428, "type": "electric_scooter", "bike_id": "65609dda45cf0569a596b69711b0cda6", "fusion_lon": 0.0, "lat": 38.911961, "fusion_lat": 0.0}, {"is_disabled": 0, "rental_uris": {"android": "https://dc.lft.to/lastmile_qr_scan", "ios": "https://dc.lft.to/lastmile_qr_scan"}, "is_reserved": 0, "name": "ce771096fa4479c0a86df9154e2d76b6", "lon": -76.982691, "type": "electric_scooter", "bike_id": "ce771096fa4479c0a86df9154e2d76b6", "fusion_lon": 0.0, "lat": 38.8852845, "fusion_lat": 0.0}, {"is_disabled": 0, "rental_uris": {"android": "https://dc.lft.to/lastmile_qr_scan", "ios": "https://dc.lft.to/lastmile_qr_scan"}, "is_reserved": 0, "name": "750e1b4c84c471caef6dea076c5a629a", "lon": -77.12583616666667, "type": "electric_bike", "bike_id": "750e1b4c84c471caef6dea076c5a629a", "fusion_lon": 0.0, "lat": 38.85146666666667, "fusion_lat": 0.0}, {"is_disabled": 0, "rental_uris": {"android": "https://dc.lft.to/lastmile_qr_scan", "ios": "https://dc.lft.to/lastmile_qr_scan"}, "is_reserved": 0, "name": "3540e14c107a5ff6608c8bae806e9ff8", "lon": -77.00917266666667, "type": "electric_scooter", "bike_id": "3540e14c107a5ff6608c8bae806e9ff8", "fusion_lon": 0.0, "lat": 38.895581166666666, "fusion_lat": 0.0}, {"is_disabled": 0, "rental_uris": {"android": "https://dc.lft.to/lastmile_qr_scan", "ios": "https://dc.lft.to/lastmile_qr_scan"}, "is_reserved": 0, "name": "f4ec6670bfc078157b5b35b61f75c074", "lon": -76.93381183333334, "type": "electric_scooter", "bike_id": "f4ec6670bfc078157b5b35b61f75c074", "fusion_lon": 0.0, "lat": 38.89923816666666, "fusion_lat": 0.0}, {"is_disabled": 0, "rental_uris": {"android": "https://dc.lft.to/lastmile_qr_scan", "ios": "https://dc.lft.to/lastmile_qr_scan"}, "is_reserved": 0, "name": "20d2747e0cda71cd7ddcdd504a1e8216", "lon": -76.9652865, "type": "electric_scooter", "bike_id": "20d2747e0cda71cd7ddcdd504a1e8216", "fusion_lon": 0.0, "lat": 38.87626016666667, "fusion_lat": 0.0}, {"is_disabled": 0, "rental_uris": {"android": "https://dc.lft.to/lastmile_qr_scan", "ios": "https://dc.lft.to/lastmile_qr_scan"}, "is_reserved": 0, "name": "8af515cfc265424bed430911fbf35818", "lon": -77.02506433333333, "type": "electric_scooter", "bike_id": "8af515cfc265424bed430911fbf35818", "fusion_lon": 0.0, "lat": 38.919413666666664, "fusion_lat": 0.0}, {"is_disabled": 0, "rental_uris": {"android": "https://dc.lft.to/lastmile_qr_scan", "ios": "https://dc.lft.to/lastmile_qr_scan"}, "is_reserved": 0, "name": "65318f446e9a07399b13aefbc42c18c4", "lon": -76.99002333333334, "type": "electric_scooter", "bike_id": "65318f446e9a07399b13aefbc42c18c4", "fusion_lon": 0.0, "lat": 38.86508166666667, "fusion_lat": 0.0}, {"is_disabled": 0, "rental_uris": {"android": "https://dc.lft.to/lastmile_qr_scan", "ios": "https://dc.lft.to/lastmile_qr_scan"}, "is_reserved": 0, "name": "c2c94c2431ce1cae675f10cdbd034263", "lon": -77.02848066666667, "type": "electric_scooter", "bike_id": "c2c94c2431ce1cae675f10cdbd034263", "fusion_lon": 0.0, "lat": 38.922416166666665, "fusion_lat": 0.0}, {"is_disabled": 0, "rental_uris": {"android": "https://dc.lft.to/lastmile_qr_scan", "ios": "https://dc.lft.to/lastmile_qr_scan"}, "is_reserved": 0, "name": "7799b333285ba44de8d467030cbbbc59", "lon": -77.03206583333333, "type": "electric_bike", "bike_id": "7799b333285ba44de8d467030cbbbc59", "fusion_lon": 0.0, "lat": 38.9201385, "fusion_lat": 0.0}, {"is_disabled": 0, "rental_uris": {"android": "https://dc.lft.to/lastmile_qr_scan", "ios": "https://dc.lft.to/lastmile_qr_scan"}, "is_reserved": 0, "name": "4ad4e26b81b7161871a3ccd502e6305f", "lon": -77.0125455, "type": "electric_scooter", "bike_id": "4ad4e26b81b7161871a3ccd502e6305f", "fusion_lon": 0.0, "lat": 38.90842583333333, "fusion_lat": 0.0}, {"is_disabled": 0, "rental_uris": {"android": "https://dc.lft.to/lastmile_qr_scan", "ios": "https://dc.lft.to/lastmile_qr_scan"}, "is_reserved": 0, "name": "154cfa2c245de6d910037bbae1a5f666", "lon": -77.02496166666667, "type": "electric_scooter", "bike_id": "154cfa2c245de6d910037bbae1a5f666", "fusion_lon": 0.0, "lat": 38.9180815, "fusion_lat": 0.0}, {"is_disabled": 0, "rental_uris": {"android": "https://dc.lft.to/lastmile_qr_scan", "ios": "https://dc.lft.to/lastmile_qr_scan"}, "is_reserved": 0, "name": "7ec995a88c6feffe1dfb38a46be9ad75", "lon": -77.02374033333334, "type": "electric_scooter", "bike_id": "7ec995a88c6feffe1dfb38a46be9ad75", "fusion_lon": 0.0, "lat": 38.9325225, "fusion_lat": 0.0}, {"is_disabled": 0, "rental_uris": {"android": "https://dc.lft.to/lastmile_qr_scan", "ios": "https://dc.lft.to/lastmile_qr_scan"}, "is_reserved": 0, "name": "e057b59e98bb8766769cea7dccd42481", "lon": -77.0298295, "type": "electric_scooter", "bike_id": "e057b59e98bb8766769cea7dccd42481", "fusion_lon": 0.0, "lat": 38.90727166666667, "fusion_lat": 0.0}, {"is_disabled": 0, "rental_uris": {"android": "https://dc.lft.to/lastmile_qr_scan", "ios": "https://dc.lft.to/lastmile_qr_scan"}, "is_reserved": 0, "name": "12dbc55e7e0598d4884a387f52ec527e", "lon": -77.03053816666667, "type": "electric_scooter", "bike_id": "12dbc55e7e0598d4884a387f52ec527e", "fusion_lon": 0.0, "lat": 38.89977316666667, "fusion_lat": 0.0}, {"is_disabled": 0, "rental_uris": {"android": "https://dc.lft.to/lastmile_qr_scan", "ios": "https://dc.lft.to/lastmile_qr_scan"}, "is_reserved": 0, "name": "c9e936b20452b3027c15e5e45109a0b7", "lon": -76.98329533333333, "type": "electric_bike", "bike_id": "c9e936b20452b3027c15e5e45109a0b7", "fusion_lon": 0.0, "lat": 38.96608283333333, "fusion_lat": 0.0}, {"is_disabled": 0, "rental_uris": {"android": "https://dc.lft.to/lastmile_qr_scan", "ios": "https://dc.lft.to/lastmile_qr_scan"}, "is_reserved": 0, "name": "c9731a139c694ca5fa5ef01e494739f5", "lon": -77.02363533333333, "type": "electric_scooter", "bike_id": "c9731a139c694ca5fa5ef01e494739f5", "fusion_lon": 0.0, "lat": 38.93138, "fusion_lat": 0.0}, {"is_disabled": 0, "rental_uris": {"android": "https://dc.lft.to/lastmile_qr_scan", "ios": "https://dc.lft.to/lastmile_qr_scan"}, "is_reserved": 0, "name": "158451c3d1404888592b010990313f7e", "lon": -77.0248385, "type": "electric_scooter", "bike_id": "158451c3d1404888592b010990313f7e", "fusion_lon": 0.0, "lat": 38.916198666666666, "fusion_lat": 0.0}, {"is_disabled": 0, "rental_uris": {"android": "https://dc.lft.to/lastmile_qr_scan", "ios": "https://dc.lft.to/lastmile_qr_scan"}, "is_reserved": 0, "name": "b579b9abed023f2cfc7b04a9c0ad25c2", "lon": -77.03614466666667, "type": "electric_scooter", "bike_id": "b579b9abed023f2cfc7b04a9c0ad25c2", "fusion_lon": 0.0, "lat": 38.9315015, "fusion_lat": 0.0}, {"is_disabled": 0, "rental_uris": {"android": "https://dc.lft.to/lastmile_qr_scan", "ios": "https://dc.lft.to/lastmile_qr_scan"}, "is_reserved": 0, "name": "f386bcb5b1abe139e09f590ef6dba1b5", "lon": -77.0435325, "type": "electric_scooter", "bike_id": "f386bcb5b1abe139e09f590ef6dba1b5", "fusion_lon": 0.0, "lat": 38.90531933333333, "fusion_lat": 0.0}, {"is_disabled": 0, "rental_uris": {"android": "https://dc.lft.to/lastmile_qr_scan", "ios": "https://dc.lft.to/lastmile_qr_scan"}, "is_reserved": 0, "name": "dd1952bb982719c84b48fb973cf411c9", "lon": -77.03521316666667, "type": "electric_scooter", "bike_id": "dd1952bb982719c84b48fb973cf411c9", "fusion_lon": 0.0, "lat": 38.922599166666664, "fusion_lat": 0.0}, {"is_disabled": 0, "rental_uris": {"android": "https://dc.lft.to/lastmile_qr_scan", "ios": "https://dc.lft.to/lastmile_qr_scan"}, "is_reserved": 0, "name": "b699f0b4ce8525950eab7be1c03bdabe", "lon": -77.04026533333334, "type": "electric_scooter", "bike_id": "b699f0b4ce8525950eab7be1c03bdabe", "fusion_lon": 0.0, "lat": 38.92204666666667, "fusion_lat": 0.0}, {"is_disabled": 0, "rental_uris": {"android": "https://dc.lft.to/lastmile_qr_scan", "ios": "https://dc.lft.to/lastmile_qr_scan"}, "is_reserved": 0, "name": "925beaafb70460b8eb3dd507488f5876", "lon": -77.0392725, "type": "electric_scooter", "bike_id": "925beaafb70460b8eb3dd507488f5876", "fusion_lon": 0.0, "lat": 38.89955666666667, "fusion_lat": 0.0}, {"is_disabled": 0, "rental_uris": {"android": "https://dc.lft.to/lastmile_qr_scan", "ios": "https://dc.lft.to/lastmile_qr_scan"}, "is_reserved": 0, "name": "55760a698aa26ee8fe00a780a616803b", "lon": -77.02916116666667, "type": "electric_scooter", "bike_id": "55760a698aa26ee8fe00a780a616803b", "fusion_lon": 0.0, "lat": 38.91032916666666, "fusion_lat": 0.0}, {"is_disabled": 0, "rental_uris": {"android": "https://dc.lft.to/lastmile_qr_scan", "ios": "https://dc.lft.to/lastmile_qr_scan"}, "is_reserved": 0, "name": "f19b4f1fda2a7bb2a20fe6fceee77ef8", "lon": -77.04455233333333, "type": "electric_scooter", "bike_id": "f19b4f1fda2a7bb2a20fe6fceee77ef8", "fusion_lon": 0.0, "lat": 38.9186405, "fusion_lat": 0.0}, {"is_disabled": 0, "rental_uris": {"android": "https://dc.lft.to/lastmile_qr_scan", "ios": "https://dc.lft.to/lastmile_qr_scan"}, "is_reserved": 0, "name": "60d6196316715e69f4859ba65ff7644d", "lon": -77.00087366666666, "type": "electric_scooter", "bike_id": "60d6196316715e69f4859ba65ff7644d", "fusion_lon": 0.0, "lat": 38.9255175, "fusion_lat": 0.0}, {"is_disabled": 0, "rental_uris": {"android": "https://dc.lft.to/lastmile_qr_scan", "ios": "https://dc.lft.to/lastmile_qr_scan"}, "is_reserved": 0, "name": "835442cc1cfa93a93c406e7c5deee03a", "lon": -77.0129065, "type": "electric_scooter", "bike_id": "835442cc1cfa93a93c406e7c5deee03a", "fusion_lon": 0.0, "lat": 38.9201895, "fusion_lat": 0.0}, {"is_disabled": 0, "rental_uris": {"android": "https://dc.lft.to/lastmile_qr_scan", "ios": "https://dc.lft.to/lastmile_qr_scan"}, "is_reserved": 0, "name": "8a97e8a42a8a398a992767ba4ea32042", "lon": -77.02393916666666, "type": "electric_scooter", "bike_id": "8a97e8a42a8a398a992767ba4ea32042", "fusion_lon": 0.0, "lat": 38.907090333333336, "fusion_lat": 0.0}, {"is_disabled": 0, "rental_uris": {"android": "https://dc.lft.to/lastmile_qr_scan", "ios": "https://dc.lft.to/lastmile_qr_scan"}, "is_reserved": 0, "name": "f49442427ab00ad5b1451f01ca23e053", "lon": -77.03838833333333, "type": "electric_scooter", "bike_id": "f49442427ab00ad5b1451f01ca23e053", "fusion_lon": 0.0, "lat": 38.9093205, "fusion_lat": 0.0}, {"is_disabled": 0, "rental_uris": {"android": "https://dc.lft.to/lastmile_qr_scan", "ios": "https://dc.lft.to/lastmile_qr_scan"}, "is_reserved": 0, "name": "17436341a3fea438e5ec391493faae12", "lon": -77.05095716666666, "type": "electric_scooter", "bike_id": "17436341a3fea438e5ec391493faae12", "fusion_lon": 0.0, "lat": 38.92342, "fusion_lat": 0.0}, {"is_disabled": 0, "rental_uris": {"android": "https://dc.lft.to/lastmile_qr_scan", "ios": "https://dc.lft.to/lastmile_qr_scan"}, "is_reserved": 0, "name": "397691c749c0960cc1416063eab71d48", "lon": -76.97332916666667, "type": "electric_bike", "bike_id": "397691c749c0960cc1416063eab71d48", "fusion_lon": 0.0, "lat": 38.850658833333334, "fusion_lat": 0.0}, {"is_disabled": 0, "rental_uris": {"android": "https://dc.lft.to/lastmile_qr_scan", "ios": "https://dc.lft.to/lastmile_qr_scan"}, "is_reserved": 0, "name": "15060f91b2f32d54bdcfdea795d9588f", "lon": -77.03266516666666, "type": "electric_scooter", "bike_id": "15060f91b2f32d54bdcfdea795d9588f", "fusion_lon": 0.0, "lat": 38.9332865, "fusion_lat": 0.0}, {"is_disabled": 0, "rental_uris": {"android": "https://dc.lft.to/lastmile_qr_scan", "ios": "https://dc.lft.to/lastmile_qr_scan"}, "is_reserved": 0, "name": "a4a111569c660e1753d08afdbb7e1506", "lon": -77.01660516666666, "type": "electric_bike", "bike_id": "a4a111569c660e1753d08afdbb7e1506", "fusion_lon": 0.0, "lat": 38.95435583333333, "fusion_lat": 0.0}, {"is_disabled": 0, "rental_uris": {"android": "https://dc.lft.to/lastmile_qr_scan", "ios": "https://dc.lft.to/lastmile_qr_scan"}, "is_reserved": 0, "name": "5ca2ad1ac87d4a2dc780e528f9927ace", "lon": -76.9870915, "type": "electric_scooter", "bike_id": "5ca2ad1ac87d4a2dc780e528f9927ace", "fusion_lon": 0.0, "lat": 38.866974666666664, "fusion_lat": 0.0}, {"is_disabled": 0, "rental_uris": {"android": "https://dc.lft.to/lastmile_qr_scan", "ios": "https://dc.lft.to/lastmile_qr_scan"}, "is_reserved": 0, "name": "677b9f8240cd4a8ba13941c5c67ff284", "lon": -77.00605133333333, "type": "electric_scooter", "bike_id": "677b9f8240cd4a8ba13941c5c67ff284", "fusion_lon": 0.0, "lat": 38.905705166666664, "fusion_lat": 0.0}, {"is_disabled": 0, "rental_uris": {"android": "https://dc.lft.to/lastmile_qr_scan", "ios": "https://dc.lft.to/lastmile_qr_scan"}, "is_reserved": 0, "name": "0ee0a60c7f95df494a0eb6237e9d0592", "lon": -77.026931, "type": "electric_scooter", "bike_id": "0ee0a60c7f95df494a0eb6237e9d0592", "fusion_lon": 0.0, "lat": 38.907357, "fusion_lat": 0.0}, {"is_disabled": 0, "rental_uris": {"android": "https://dc.lft.to/lastmile_qr_scan", "ios": "https://dc.lft.to/lastmile_qr_scan"}, "is_reserved": 0, "name": "935b40b6659a5efeac405fcb36099f12", "lon": -77.009214, "type": "electric_scooter", "bike_id": "935b40b6659a5efeac405fcb36099f12", "fusion_lon": 0.0, "lat": 38.89784733333333, "fusion_lat": 0.0}, {"is_disabled": 0, "rental_uris": {"android": "https://dc.lft.to/lastmile_qr_scan", "ios": "https://dc.lft.to/lastmile_qr_scan"}, "is_reserved": 0, "name": "2d1c83008468cd376bc1a75a66a5bbcc", "lon": -77.04203283333334, "type": "electric_scooter", "bike_id": "2d1c83008468cd376bc1a75a66a5bbcc", "fusion_lon": 0.0, "lat": 38.9296775, "fusion_lat": 0.0}, {"is_disabled": 0, "rental_uris": {"android": "https://dc.lft.to/lastmile_qr_scan", "ios": "https://dc.lft.to/lastmile_qr_scan"}, "is_reserved": 0, "name": "25ae554959cef3a5b4492f28eccaa032", "lon": -77.02263366666666, "type": "electric_scooter", "bike_id": "25ae554959cef3a5b4492f28eccaa032", "fusion_lon": 0.0, "lat": 38.92735016666666, "fusion_lat": 0.0}, {"is_disabled": 0, "rental_uris": {"android": "https://dc.lft.to/lastmile_qr_scan", "ios": "https://dc.lft.to/lastmile_qr_scan"}, "is_reserved": 0, "name": "5ab58a1005fe5df49d028458545905b0", "lon": -77.041578, "type": "electric_scooter", "bike_id": "5ab58a1005fe5df49d028458545905b0", "fusion_lon": 0.0, "lat": 38.910283166666666, "fusion_lat": 0.0}, {"is_disabled": 0, "rental_uris": {"android": "https://dc.lft.to/lastmile_qr_scan", "ios": "https://dc.lft.to/lastmile_qr_scan"}, "is_reserved": 0, "name": "cec273fafcb0d30b837cba780628b1a3", "lon": -77.05254866666667, "type": "electric_scooter", "bike_id": "cec273fafcb0d30b837cba780628b1a3", "fusion_lon": 0.0, "lat": 38.92735166666667, "fusion_lat": 0.0}, {"is_disabled": 0, "rental_uris": {"android": "https://dc.lft.to/lastmile_qr_scan", "ios": "https://dc.lft.to/lastmile_qr_scan"}, "is_reserved": 0, "name": "bd187665ec8e31f49d25e148d8c8c95b", "lon": -77.05287866666667, "type": "electric_scooter", "bike_id": "bd187665ec8e31f49d25e148d8c8c95b", "fusion_lon": 0.0, "lat": 38.9033855, "fusion_lat": 0.0}, {"is_disabled": 0, "rental_uris": {"android": "https://dc.lft.to/lastmile_qr_scan", "ios": "https://dc.lft.to/lastmile_qr_scan"}, "is_reserved": 0, "name": "51cf040b2ebfdb738be8e1c5eb0e3788", "lon": -76.94999666666666, "type": "electric_scooter", "bike_id": "51cf040b2ebfdb738be8e1c5eb0e3788", "fusion_lon": 0.0, "lat": 38.89393483333333, "fusion_lat": 0.0}, {"is_disabled": 0, "rental_uris": {"android": "https://dc.lft.to/lastmile_qr_scan", "ios": "https://dc.lft.to/lastmile_qr_scan"}, "is_reserved": 0, "name": "7fedb69af1104942eb0ce7d5666b0cd5", "lon": -76.93409966666667, "type": "electric_bike", "bike_id": "7fedb69af1104942eb0ce7d5666b0cd5", "fusion_lon": 0.0, "lat": 38.9462455, "fusion_lat": 0.0}, {"is_disabled": 0, "rental_uris": {"android": "https://dc.lft.to/lastmile_qr_scan", "ios": "https://dc.lft.to/lastmile_qr_scan"}, "is_reserved": 0, "name": "ec2ac5cf2731d8171160c505bc761e23", "lon": -77.0373465, "type": "electric_scooter", "bike_id": "ec2ac5cf2731d8171160c505bc761e23", "fusion_lon": 0.0, "lat": 38.909765, "fusion_lat": 0.0}, {"is_disabled": 0, "rental_uris": {"android": "https://dc.lft.to/lastmile_qr_scan", "ios": "https://dc.lft.to/lastmile_qr_scan"}, "is_reserved": 0, "name": "7d85ddb1fc94c8185d92e9666dc3a6a7", "lon": -77.02843616666667, "type": "electric_scooter", "bike_id": "7d85ddb1fc94c8185d92e9666dc3a6a7", "fusion_lon": 0.0, "lat": 38.93419983333333, "fusion_lat": 0.0}, {"is_disabled": 0, "rental_uris": {"android": "https://dc.lft.to/lastmile_qr_scan", "ios": "https://dc.lft.to/lastmile_qr_scan"}, "is_reserved": 0, "name": "c66985b6fe3a5cc34ab7b23181d127b0", "lon": -77.01254516666667, "type": "electric_scooter", "bike_id": "c66985b6fe3a5cc34ab7b23181d127b0", "fusion_lon": 0.0, "lat": 38.8763125, "fusion_lat": 0.0}, {"is_disabled": 0, "rental_uris": {"android": "https://dc.lft.to/lastmile_qr_scan", "ios": "https://dc.lft.to/lastmile_qr_scan"}, "is_reserved": 0, "name": "cc0682598b5109bdb30daefea59b367e", "lon": -77.0351965, "type": "electric_scooter", "bike_id": "cc0682598b5109bdb30daefea59b367e", "fusion_lon": 0.0, "lat": 38.935899, "fusion_lat": 0.0}, {"is_disabled": 0, "rental_uris": {"android": "https://dc.lft.to/lastmile_qr_scan", "ios": "https://dc.lft.to/lastmile_qr_scan"}, "is_reserved": 0, "name": "617042734355c6239b4cdb9b7bc9c998", "lon": -77.02125583333333, "type": "electric_scooter", "bike_id": "617042734355c6239b4cdb9b7bc9c998", "fusion_lon": 0.0, "lat": 38.88747433333333, "fusion_lat": 0.0}, {"is_disabled": 0, "rental_uris": {"android": "https://dc.lft.to/lastmile_qr_scan", "ios": "https://dc.lft.to/lastmile_qr_scan"}, "is_reserved": 0, "name": "f6392c8a15f3e01e1ac5019154ab33a5", "lon": -77.02974616666667, "type": "electric_scooter", "bike_id": "f6392c8a15f3e01e1ac5019154ab33a5", "fusion_lon": 0.0, "lat": 38.907872833333336, "fusion_lat": 0.0}, {"is_disabled": 0, "rental_uris": {"android": "https://dc.lft.to/lastmile_qr_scan", "ios": "https://dc.lft.to/lastmile_qr_scan"}, "is_reserved": 0, "name": "014004252d98af803196255f36c28e7f", "lon": -76.96547483333333, "type": "electric_scooter", "bike_id": "014004252d98af803196255f36c28e7f", "fusion_lon": 0.0, "lat": 38.918957666666664, "fusion_lat": 0.0}, {"is_disabled": 0, "rental_uris": {"android": "https://dc.lft.to/lastmile_qr_scan", "ios": "https://dc.lft.to/lastmile_qr_scan"}, "is_reserved": 0, "name": "69970ab8f95ef100e00b890418c04833", "lon": -77.02918516666666, "type": "electric_scooter", "bike_id": "69970ab8f95ef100e00b890418c04833", "fusion_lon": 0.0, "lat": 38.938753166666665, "fusion_lat": 0.0}, {"is_disabled": 0, "rental_uris": {"android": "https://dc.lft.to/lastmile_qr_scan", "ios": "https://dc.lft.to/lastmile_qr_scan"}, "is_reserved": 0, "name": "b456fe86e297e069b69c13eeb17da794", "lon": -77.04552966666667, "type": "electric_scooter", "bike_id": "b456fe86e297e069b69c13eeb17da794", "fusion_lon": 0.0, "lat": 38.9193795, "fusion_lat": 0.0}, {"is_disabled": 0, "rental_uris": {"android": "https://dc.lft.to/lastmile_qr_scan", "ios": "https://dc.lft.to/lastmile_qr_scan"}, "is_reserved": 0, "name": "6a217c1ce14758061f6571b43d039553", "lon": -77.04359933333333, "type": "electric_scooter", "bike_id": "6a217c1ce14758061f6571b43d039553", "fusion_lon": 0.0, "lat": 38.908651, "fusion_lat": 0.0}, {"is_disabled": 0, "rental_uris": {"android": "https://dc.lft.to/lastmile_qr_scan", "ios": "https://dc.lft.to/lastmile_qr_scan"}, "is_reserved": 0, "name": "e7da7d95f6dff625e43d71bdeb5d4069", "lon": -77.03964933333333, "type": "electric_scooter", "bike_id": "e7da7d95f6dff625e43d71bdeb5d4069", "fusion_lon": 0.0, "lat": 38.93148333333333, "fusion_lat": 0.0}, {"is_disabled": 0, "rental_uris": {"android": "https://dc.lft.to/lastmile_qr_scan", "ios": "https://dc.lft.to/lastmile_qr_scan"}, "is_reserved": 0, "name": "7a19b99f0853fd117239913640628063", "lon": -77.015841, "type": "electric_scooter", "bike_id": "7a19b99f0853fd117239913640628063", "fusion_lon": 0.0, "lat": 38.87648216666667, "fusion_lat": 0.0}, {"is_disabled": 0, "rental_uris": {"android": "https://dc.lft.to/lastmile_qr_scan", "ios": "https://dc.lft.to/lastmile_qr_scan"}, "is_reserved": 0, "name": "c860515537c9673534fa26fb6bb73ec8", "lon": -77.05977033333333, "type": "electric_scooter", "bike_id": "c860515537c9673534fa26fb6bb73ec8", "fusion_lon": 0.0, "lat": 38.90527516666667, "fusion_lat": 0.0}, {"is_disabled": 0, "rental_uris": {"android": "https://dc.lft.to/lastmile_qr_scan", "ios": "https://dc.lft.to/lastmile_qr_scan"}, "is_reserved": 0, "name": "c00d3eb29cac55003ce006a7ac141c01", "lon": -77.10686383333334, "type": "electric_bike", "bike_id": "c00d3eb29cac55003ce006a7ac141c01", "fusion_lon": 0.0, "lat": 38.93581483333333, "fusion_lat": 0.0}, {"is_disabled": 0, "rental_uris": {"android": "https://dc.lft.to/lastmile_qr_scan", "ios": "https://dc.lft.to/lastmile_qr_scan"}, "is_reserved": 0, "name": "b02eb887f5874815377a91691ad4e68f", "lon": -77.01752966666666, "type": "electric_scooter", "bike_id": "b02eb887f5874815377a91691ad4e68f", "fusion_lon": 0.0, "lat": 38.90268183333333, "fusion_lat": 0.0}, {"is_disabled": 0, "rental_uris": {"android": "https://dc.lft.to/lastmile_qr_scan", "ios": "https://dc.lft.to/lastmile_qr_scan"}, "is_reserved": 0, "name": "04f6fd31a546373d01339c2fb7be2df7", "lon": -77.01400233333334, "type": "electric_scooter", "bike_id": "04f6fd31a546373d01339c2fb7be2df7", "fusion_lon": 0.0, "lat": 38.880326333333336, "fusion_lat": 0.0}, {"is_disabled": 0, "rental_uris": {"android": "https://dc.lft.to/lastmile_qr_scan", "ios": "https://dc.lft.to/lastmile_qr_scan"}, "is_reserved": 0, "name": "b4c11e74db3332e63a33834ceade8ce8", "lon": -76.98665266666667, "type": "electric_scooter", "bike_id": "b4c11e74db3332e63a33834ceade8ce8", "fusion_lon": 0.0, "lat": 38.90151733333333, "fusion_lat": 0.0}, {"is_disabled": 0, "rental_uris": {"android": "https://dc.lft.to/lastmile_qr_scan", "ios": "https://dc.lft.to/lastmile_qr_scan"}, "is_reserved": 0, "name": "8329ac7d29ff726bad8bf8dfedab1930", "lon": -77.02715833333333, "type": "electric_scooter", "bike_id": "8329ac7d29ff726bad8bf8dfedab1930", "fusion_lon": 0.0, "lat": 38.9059055, "fusion_lat": 0.0}, {"is_disabled": 0, "rental_uris": {"android": "https://dc.lft.to/lastmile_qr_scan", "ios": "https://dc.lft.to/lastmile_qr_scan"}, "is_reserved": 0, "name": "1fc4ffd9b2397851b4712101cd93dbf3", "lon": -77.0201185, "type": "electric_scooter", "bike_id": "1fc4ffd9b2397851b4712101cd93dbf3", "fusion_lon": 0.0, "lat": 38.892677666666664, "fusion_lat": 0.0}, {"is_disabled": 0, "rental_uris": {"android": "https://dc.lft.to/lastmile_qr_scan", "ios": "https://dc.lft.to/lastmile_qr_scan"}, "is_reserved": 0, "name": "994ff02d1d9214868e557e64f2ffc6d9", "lon": -77.00603616666666, "type": "electric_scooter", "bike_id": "994ff02d1d9214868e557e64f2ffc6d9", "fusion_lon": 0.0, "lat": 38.9058295, "fusion_lat": 0.0}, {"is_disabled": 0, "rental_uris": {"android": "https://dc.lft.to/lastmile_qr_scan", "ios": "https://dc.lft.to/lastmile_qr_scan"}, "is_reserved": 0, "name": "5ad7c302d46fc21b4c65cac20c8c57af", "lon": -77.00590266666667, "type": "electric_scooter", "bike_id": "5ad7c302d46fc21b4c65cac20c8c57af", "fusion_lon": 0.0, "lat": 38.91179283333334, "fusion_lat": 0.0}, {"is_disabled": 0, "rental_uris": {"android": "https://dc.lft.to/lastmile_qr_scan", "ios": "https://dc.lft.to/lastmile_qr_scan"}, "is_reserved": 0, "name": "cbfaec3daf1d873109e47455b6ef6c71", "lon": -76.987545, "type": "electric_bike", "bike_id": "cbfaec3daf1d873109e47455b6ef6c71", "fusion_lon": 0.0, "lat": 38.85783966666666, "fusion_lat": 0.0}, {"is_disabled": 0, "rental_uris": {"android": "https://dc.lft.to/lastmile_qr_scan", "ios": "https://dc.lft.to/lastmile_qr_scan"}, "is_reserved": 0, "name": "da53ff65511fd0eb228e119f6c55fc28", "lon": -77.019511, "type": "electric_scooter", "bike_id": "da53ff65511fd0eb228e119f6c55fc28", "fusion_lon": 0.0, "lat": 38.922490833333335, "fusion_lat": 0.0}, {"is_disabled": 0, "rental_uris": {"android": "https://dc.lft.to/lastmile_qr_scan", "ios": "https://dc.lft.to/lastmile_qr_scan"}, "is_reserved": 0, "name": "b5aa6642749920a647a8f6d49bee80fb", "lon": -76.98369833333334, "type": "electric_scooter", "bike_id": "b5aa6642749920a647a8f6d49bee80fb", "fusion_lon": 0.0, "lat": 38.89531266666667, "fusion_lat": 0.0}, {"is_disabled": 0, "rental_uris": {"android": "https://dc.lft.to/lastmile_qr_scan", "ios": "https://dc.lft.to/lastmile_qr_scan"}, "is_reserved": 0, "name": "ecc92685caaf7bcb192d4fc687b8a8fd", "lon": -77.03495483333333, "type": "electric_scooter", "bike_id": "ecc92685caaf7bcb192d4fc687b8a8fd", "fusion_lon": 0.0, "lat": 38.916986666666666, "fusion_lat": 0.0}, {"is_disabled": 0, "rental_uris": {"android": "https://dc.lft.to/lastmile_qr_scan", "ios": "https://dc.lft.to/lastmile_qr_scan"}, "is_reserved": 0, "name": "3f38711393421bfde24831c189d8d3aa", "lon": -77.03204433333333, "type": "electric_scooter", "bike_id": "3f38711393421bfde24831c189d8d3aa", "fusion_lon": 0.0, "lat": 38.93965133333333, "fusion_lat": 0.0}, {"is_disabled": 0, "rental_uris": {"android": "https://dc.lft.to/lastmile_qr_scan", "ios": "https://dc.lft.to/lastmile_qr_scan"}, "is_reserved": 0, "name": "ae5a81f20f833056d82b7d18b88d2e81", "lon": -77.03104716666667, "type": "electric_scooter", "bike_id": "ae5a81f20f833056d82b7d18b88d2e81", "fusion_lon": 0.0, "lat": 38.925764, "fusion_lat": 0.0}, {"is_disabled": 0, "rental_uris": {"android": "https://dc.lft.to/lastmile_qr_scan", "ios": "https://dc.lft.to/lastmile_qr_scan"}, "is_reserved": 0, "name": "8f7ef08d6dd4ff6a913fe28093dbd469", "lon": -77.04436883333334, "type": "electric_scooter", "bike_id": "8f7ef08d6dd4ff6a913fe28093dbd469", "fusion_lon": 0.0, "lat": 38.91255433333333, "fusion_lat": 0.0}, {"is_disabled": 0, "rental_uris": {"android": "https://dc.lft.to/lastmile_qr_scan", "ios": "https://dc.lft.to/lastmile_qr_scan"}, "is_reserved": 0, "name": "3fb3eb5380da16e84eb131e69d8720c9", "lon": -77.0071245, "type": "electric_scooter", "bike_id": "3fb3eb5380da16e84eb131e69d8720c9", "fusion_lon": 0.0, "lat": 38.884968666666666, "fusion_lat": 0.0}, {"is_disabled": 0, "rental_uris": {"android": "https://dc.lft.to/lastmile_qr_scan", "ios": "https://dc.lft.to/lastmile_qr_scan"}, "is_reserved": 0, "name": "e0cab2c2c5f8c77dff654896b046fc16", "lon": -77.0330945, "type": "electric_scooter", "bike_id": "e0cab2c2c5f8c77dff654896b046fc16", "fusion_lon": 0.0, "lat": 38.91415033333333, "fusion_lat": 0.0}, {"is_disabled": 0, "rental_uris": {"android": "https://dc.lft.to/lastmile_qr_scan", "ios": "https://dc.lft.to/lastmile_qr_scan"}, "is_reserved": 0, "name": "f212e75b982ee04fafe1ba3ffda48cee", "lon": -77.01494283333334, "type": "electric_scooter", "bike_id": "f212e75b982ee04fafe1ba3ffda48cee", "fusion_lon": 0.0, "lat": 38.95647733333333, "fusion_lat": 0.0}, {"is_disabled": 0, "rental_uris": {"android": "https://dc.lft.to/lastmile_qr_scan", "ios": "https://dc.lft.to/lastmile_qr_scan"}, "is_reserved": 0, "name": "2783cfdf6adb3ccc93c98ab43de6561e", "lon": -77.022276, "type": "electric_scooter", "bike_id": "2783cfdf6adb3ccc93c98ab43de6561e", "fusion_lon": 0.0, "lat": 38.88747716666666, "fusion_lat": 0.0}, {"is_disabled": 0, "rental_uris": {"android": "https://dc.lft.to/lastmile_qr_scan", "ios": "https://dc.lft.to/lastmile_qr_scan"}, "is_reserved": 0, "name": "305f3e47ddea6597c1e092f6a137138a", "lon": -77.05026016666666, "type": "electric_scooter", "bike_id": "305f3e47ddea6597c1e092f6a137138a", "fusion_lon": 0.0, "lat": 38.89573816666667, "fusion_lat": 0.0}, {"is_disabled": 0, "rental_uris": {"android": "https://dc.lft.to/lastmile_qr_scan", "ios": "https://dc.lft.to/lastmile_qr_scan"}, "is_reserved": 0, "name": "9f6e83e7637602783a04ab5c3ea7f7c7", "lon": -77.0486385, "type": "electric_scooter", "bike_id": "9f6e83e7637602783a04ab5c3ea7f7c7", "fusion_lon": 0.0, "lat": 38.903963833333336, "fusion_lat": 0.0}, {"is_disabled": 0, "rental_uris": {"android": "https://dc.lft.to/lastmile_qr_scan", "ios": "https://dc.lft.to/lastmile_qr_scan"}, "is_reserved": 0, "name": "2e0fb87c6bed82374188e4757b47bdca", "lon": -76.94996666666667, "type": "electric_scooter", "bike_id": "2e0fb87c6bed82374188e4757b47bdca", "fusion_lon": 0.0, "lat": 38.893899, "fusion_lat": 0.0}, {"is_disabled": 0, "rental_uris": {"android": "https://dc.lft.to/lastmile_qr_scan", "ios": "https://dc.lft.to/lastmile_qr_scan"}, "is_reserved": 0, "name": "5076d0995acba3de89a460e15ba4b6dc", "lon": -77.04655633333333, "type": "electric_scooter", "bike_id": "5076d0995acba3de89a460e15ba4b6dc", "fusion_lon": 0.0, "lat": 38.89340766666667, "fusion_lat": 0.0}, {"is_disabled": 0, "rental_uris": {"android": "https://dc.lft.to/lastmile_qr_scan", "ios": "https://dc.lft.to/lastmile_qr_scan"}, "is_reserved": 0, "name": "f36319080c97c0d57511b0cad7aad0a8", "lon": -77.019934, "type": "electric_scooter", "bike_id": "f36319080c97c0d57511b0cad7aad0a8", "fusion_lon": 0.0, "lat": 38.875735666666664, "fusion_lat": 0.0}, {"is_disabled": 0, "rental_uris": {"android": "https://dc.lft.to/lastmile_qr_scan", "ios": "https://dc.lft.to/lastmile_qr_scan"}, "is_reserved": 0, "name": "36d2ee22ab82db4510c1eff04ddbc07f", "lon": -76.966836, "type": "electric_bike", "bike_id": "36d2ee22ab82db4510c1eff04ddbc07f", "fusion_lon": 0.0, "lat": 38.95891233333333, "fusion_lat": 0.0}, {"is_disabled": 0, "rental_uris": {"android": "https://dc.lft.to/lastmile_qr_scan", "ios": "https://dc.lft.to/lastmile_qr_scan"}, "is_reserved": 0, "name": "2a56bda8c527da079cb459356730aa4c", "lon": -77.0653635, "type": "electric_scooter", "bike_id": "2a56bda8c527da079cb459356730aa4c", "fusion_lon": 0.0, "lat": 38.90527566666667, "fusion_lat": 0.0}, {"is_disabled": 0, "rental_uris": {"android": "https://dc.lft.to/lastmile_qr_scan", "ios": "https://dc.lft.to/lastmile_qr_scan"}, "is_reserved": 0, "name": "179ced52cd76949fbc52edf8cdca2506", "lon": -76.98838933333333, "type": "electric_scooter", "bike_id": "179ced52cd76949fbc52edf8cdca2506", "fusion_lon": 0.0, "lat": 38.89990866666667, "fusion_lat": 0.0}, {"is_disabled": 0, "rental_uris": {"android": "https://dc.lft.to/lastmile_qr_scan", "ios": "https://dc.lft.to/lastmile_qr_scan"}, "is_reserved": 0, "name": "614af6183e10d60509dc209ecb6d5ab3", "lon": -77.05196533333333, "type": "electric_scooter", "bike_id": "614af6183e10d60509dc209ecb6d5ab3", "fusion_lon": 0.0, "lat": 38.925448, "fusion_lat": 0.0}, {"is_disabled": 0, "rental_uris": {"android": "https://dc.lft.to/lastmile_qr_scan", "ios": "https://dc.lft.to/lastmile_qr_scan"}, "is_reserved": 0, "name": "e5f50f5ee7fd2ba3af1592d54816a194", "lon": -77.02692383333333, "type": "electric_scooter", "bike_id": "e5f50f5ee7fd2ba3af1592d54816a194", "fusion_lon": 0.0, "lat": 38.907342666666665, "fusion_lat": 0.0}, {"is_disabled": 0, "rental_uris": {"android": "https://dc.lft.to/lastmile_qr_scan", "ios": "https://dc.lft.to/lastmile_qr_scan"}, "is_reserved": 0, "name": "d6f99c7d17e2b5c4f27f4426a5846933", "lon": -77.08052483333333, "type": "electric_bike", "bike_id": "d6f99c7d17e2b5c4f27f4426a5846933", "fusion_lon": 0.0, "lat": 38.848421333333334, "fusion_lat": 0.0}, {"is_disabled": 0, "rental_uris": {"android": "https://dc.lft.to/lastmile_qr_scan", "ios": "https://dc.lft.to/lastmile_qr_scan"}, "is_reserved": 0, "name": "c88dba39447be5eed44d896201de3211", "lon": -77.04155566666667, "type": "electric_scooter", "bike_id": "c88dba39447be5eed44d896201de3211", "fusion_lon": 0.0, "lat": 38.91419366666667, "fusion_lat": 0.0}, {"is_disabled": 0, "rental_uris": {"android": "https://dc.lft.to/lastmile_qr_scan", "ios": "https://dc.lft.to/lastmile_qr_scan"}, "is_reserved": 0, "name": "6b9b60b61f9c0620281727e6198491a3", "lon": -77.02048016666667, "type": "electric_scooter", "bike_id": "6b9b60b61f9c0620281727e6198491a3", "fusion_lon": 0.0, "lat": 38.915561, "fusion_lat": 0.0}, {"is_disabled": 0, "rental_uris": {"android": "https://dc.lft.to/lastmile_qr_scan", "ios": "https://dc.lft.to/lastmile_qr_scan"}, "is_reserved": 0, "name": "186e518a63291deb997d9877e7c4e29a", "lon": -77.0241855, "type": "electric_scooter", "bike_id": "186e518a63291deb997d9877e7c4e29a", "fusion_lon": 0.0, "lat": 38.909620833333335, "fusion_lat": 0.0}, {"is_disabled": 0, "rental_uris": {"android": "https://dc.lft.to/lastmile_qr_scan", "ios": "https://dc.lft.to/lastmile_qr_scan"}, "is_reserved": 0, "name": "02d3b6f8863daa241261f32c00731385", "lon": -77.05415983333333, "type": "electric_scooter", "bike_id": "02d3b6f8863daa241261f32c00731385", "fusion_lon": 0.0, "lat": 38.92831233333333, "fusion_lat": 0.0}, {"is_disabled": 0, "rental_uris": {"android": "https://dc.lft.to/lastmile_qr_scan", "ios": "https://dc.lft.to/lastmile_qr_scan"}, "is_reserved": 0, "name": "7939054310429aa759d40da7ab8d0166", "lon": -77.01222816666667, "type": "electric_scooter", "bike_id": "7939054310429aa759d40da7ab8d0166", "fusion_lon": 0.0, "lat": 38.91692233333333, "fusion_lat": 0.0}, {"is_disabled": 0, "rental_uris": {"android": "https://dc.lft.to/lastmile_qr_scan", "ios": "https://dc.lft.to/lastmile_qr_scan"}, "is_reserved": 0, "name": "9630e771d85201e58c33915416486e8c", "lon": -76.94721183333333, "type": "electric_scooter", "bike_id": "9630e771d85201e58c33915416486e8c", "fusion_lon": 0.0, "lat": 38.89666483333333, "fusion_lat": 0.0}, {"is_disabled": 0, "rental_uris": {"android": "https://dc.lft.to/lastmile_qr_scan", "ios": "https://dc.lft.to/lastmile_qr_scan"}, "is_reserved": 0, "name": "1d2c3d6d48fa8c8832c356087385caa9", "lon": -76.95756566666667, "type": "electric_scooter", "bike_id": "1d2c3d6d48fa8c8832c356087385caa9", "fusion_lon": 0.0, "lat": 38.884273, "fusion_lat": 0.0}, {"is_disabled": 0, "rental_uris": {"android": "https://dc.lft.to/lastmile_qr_scan", "ios": "https://dc.lft.to/lastmile_qr_scan"}, "is_reserved": 0, "name": "72538fd4382d23a19ad4cd28ff64d7e8", "lon": -77.01137616666666, "type": "electric_scooter", "bike_id": "72538fd4382d23a19ad4cd28ff64d7e8", "fusion_lon": 0.0, "lat": 38.90954966666666, "fusion_lat": 0.0}, {"is_disabled": 0, "rental_uris": {"android": "https://dc.lft.to/lastmile_qr_scan", "ios": "https://dc.lft.to/lastmile_qr_scan"}, "is_reserved": 0, "name": "a2e7c181156b96410dd84ffbea01455a", "lon": -77.0238145, "type": "electric_scooter", "bike_id": "a2e7c181156b96410dd84ffbea01455a", "fusion_lon": 0.0, "lat": 38.902080166666664, "fusion_lat": 0.0}, {"is_disabled": 0, "rental_uris": {"android": "https://dc.lft.to/lastmile_qr_scan", "ios": "https://dc.lft.to/lastmile_qr_scan"}, "is_reserved": 0, "name": "e3dea9f30676ae9d27a54fd7927cb859", "lon": -77.04368216666667, "type": "electric_scooter", "bike_id": "e3dea9f30676ae9d27a54fd7927cb859", "fusion_lon": 0.0, "lat": 38.9257535, "fusion_lat": 0.0}, {"is_disabled": 0, "rental_uris": {"android": "https://dc.lft.to/lastmile_qr_scan", "ios": "https://dc.lft.to/lastmile_qr_scan"}, "is_reserved": 0, "name": "8357387521f447066e5f2a90872f689d", "lon": -77.01762466666666, "type": "electric_scooter", "bike_id": "8357387521f447066e5f2a90872f689d", "fusion_lon": 0.0, "lat": 38.877208, "fusion_lat": 0.0}, {"is_disabled": 0, "rental_uris": {"android": "https://dc.lft.to/lastmile_qr_scan", "ios": "https://dc.lft.to/lastmile_qr_scan"}, "is_reserved": 0, "name": "36490032555a5d18cab11a7dbd9461f7", "lon": -77.03263583333333, "type": "electric_scooter", "bike_id": "36490032555a5d18cab11a7dbd9461f7", "fusion_lon": 0.0, "lat": 38.93524383333333, "fusion_lat": 0.0}, {"is_disabled": 0, "rental_uris": {"android": "https://dc.lft.to/lastmile_qr_scan", "ios": "https://dc.lft.to/lastmile_qr_scan"}, "is_reserved": 0, "name": "b914686d3e9091e3f26f5de6d37e6f4d", "lon": -76.9895565, "type": "electric_scooter", "bike_id": "b914686d3e9091e3f26f5de6d37e6f4d", "fusion_lon": 0.0, "lat": 38.843993166666664, "fusion_lat": 0.0}, {"is_disabled": 0, "rental_uris": {"android": "https://dc.lft.to/lastmile_qr_scan", "ios": "https://dc.lft.to/lastmile_qr_scan"}, "is_reserved": 0, "name": "902fc0f10e65c2dab3a02b432a9bf1b8", "lon": -77.021885, "type": "electric_scooter", "bike_id": "902fc0f10e65c2dab3a02b432a9bf1b8", "fusion_lon": 0.0, "lat": 38.921031, "fusion_lat": 0.0}, {"is_disabled": 0, "rental_uris": {"android": "https://dc.lft.to/lastmile_qr_scan", "ios": "https://dc.lft.to/lastmile_qr_scan"}, "is_reserved": 0, "name": "2e64847084356eb8eab4cb85b9ad6f9c", "lon": -77.04170716666667, "type": "electric_scooter", "bike_id": "2e64847084356eb8eab4cb85b9ad6f9c", "fusion_lon": 0.0, "lat": 38.91549333333333, "fusion_lat": 0.0}, {"is_disabled": 0, "rental_uris": {"android": "https://dc.lft.to/lastmile_qr_scan", "ios": "https://dc.lft.to/lastmile_qr_scan"}, "is_reserved": 0, "name": "2a3618ff68875db7d7c3d8b32f33e9b1", "lon": -77.0909835, "type": "electric_scooter", "bike_id": "2a3618ff68875db7d7c3d8b32f33e9b1", "fusion_lon": 0.0, "lat": 38.956382833333336, "fusion_lat": 0.0}, {"is_disabled": 0, "rental_uris": {"android": "https://dc.lft.to/lastmile_qr_scan", "ios": "https://dc.lft.to/lastmile_qr_scan"}, "is_reserved": 0, "name": "bbb550378cefc8dcbe7197d5b93a9ef6", "lon": -77.04173633333333, "type": "electric_scooter", "bike_id": "bbb550378cefc8dcbe7197d5b93a9ef6", "fusion_lon": 0.0, "lat": 38.9119515, "fusion_lat": 0.0}, {"is_disabled": 0, "rental_uris": {"android": "https://dc.lft.to/lastmile_qr_scan", "ios": "https://dc.lft.to/lastmile_qr_scan"}, "is_reserved": 0, "name": "14f571ee5eccf42d6d019eb4d1d02f51", "lon": -77.03213566666666, "type": "electric_scooter", "bike_id": "14f571ee5eccf42d6d019eb4d1d02f51", "fusion_lon": 0.0, "lat": 38.9258145, "fusion_lat": 0.0}, {"is_disabled": 0, "rental_uris": {"android": "https://dc.lft.to/lastmile_qr_scan", "ios": "https://dc.lft.to/lastmile_qr_scan"}, "is_reserved": 0, "name": "1ee718662427e0c21d5ca7242f3fc79f", "lon": -76.9723505, "type": "electric_scooter", "bike_id": "1ee718662427e0c21d5ca7242f3fc79f", "fusion_lon": 0.0, "lat": 38.85457483333333, "fusion_lat": 0.0}, {"is_disabled": 0, "rental_uris": {"android": "https://dc.lft.to/lastmile_qr_scan", "ios": "https://dc.lft.to/lastmile_qr_scan"}, "is_reserved": 0, "name": "e849024fdf5e5ca0000b734a2363ba42", "lon": -77.0092955, "type": "electric_scooter", "bike_id": "e849024fdf5e5ca0000b734a2363ba42", "fusion_lon": 0.0, "lat": 38.871159, "fusion_lat": 0.0}, {"is_disabled": 0, "rental_uris": {"android": "https://dc.lft.to/lastmile_qr_scan", "ios": "https://dc.lft.to/lastmile_qr_scan"}, "is_reserved": 0, "name": "15d8c3b8ae4670ab991e25b29f70161c", "lon": -76.98064983333333, "type": "electric_scooter", "bike_id": "15d8c3b8ae4670ab991e25b29f70161c", "fusion_lon": 0.0, "lat": 38.9017475, "fusion_lat": 0.0}, {"is_disabled": 0, "rental_uris": {"android": "https://dc.lft.to/lastmile_qr_scan", "ios": "https://dc.lft.to/lastmile_qr_scan"}, "is_reserved": 0, "name": "25c372a4116deb9e09e4165b62f9ce86", "lon": -77.00926516666667, "type": "electric_scooter", "bike_id": "25c372a4116deb9e09e4165b62f9ce86", "fusion_lon": 0.0, "lat": 38.8984045, "fusion_lat": 0.0}, {"is_disabled": 0, "rental_uris": {"android": "https://dc.lft.to/lastmile_qr_scan", "ios": "https://dc.lft.to/lastmile_qr_scan"}, "is_reserved": 0, "name": "c1a86cbbba35c4d76b01f6439a3458e1", "lon": -77.01863566666667, "type": "electric_scooter", "bike_id": "c1a86cbbba35c4d76b01f6439a3458e1", "fusion_lon": 0.0, "lat": 38.91568983333333, "fusion_lat": 0.0}, {"is_disabled": 0, "rental_uris": {"android": "https://dc.lft.to/lastmile_qr_scan", "ios": "https://dc.lft.to/lastmile_qr_scan"}, "is_reserved": 0, "name": "8c6d109940d97d3a5a1f40a3a3dea500", "lon": -77.0404895, "type": "electric_scooter", "bike_id": "8c6d109940d97d3a5a1f40a3a3dea500", "fusion_lon": 0.0, "lat": 38.90140433333333, "fusion_lat": 0.0}, {"is_disabled": 0, "rental_uris": {"android": "https://dc.lft.to/lastmile_qr_scan", "ios": "https://dc.lft.to/lastmile_qr_scan"}, "is_reserved": 0, "name": "578ed4871c59686a1938489db2cb8a72", "lon": -76.91885283333333, "type": "electric_scooter", "bike_id": "578ed4871c59686a1938489db2cb8a72", "fusion_lon": 0.0, "lat": 38.8907995, "fusion_lat": 0.0}, {"is_disabled": 0, "rental_uris": {"android": "https://dc.lft.to/lastmile_qr_scan", "ios": "https://dc.lft.to/lastmile_qr_scan"}, "is_reserved": 0, "name": "d6a1afe779559a053490482bbd02bce7", "lon": -76.93027333333333, "type": "electric_bike", "bike_id": "d6a1afe779559a053490482bbd02bce7", "fusion_lon": 0.0, "lat": 38.966489, "fusion_lat": 0.0}, {"is_disabled": 0, "rental_uris": {"android": "https://dc.lft.to/lastmile_qr_scan", "ios": "https://dc.lft.to/lastmile_qr_scan"}, "is_reserved": 0, "name": "5dc81adbfc5fc76d27f693b4a66c08ca", "lon": -77.02805, "type": "electric_scooter", "bike_id": "5dc81adbfc5fc76d27f693b4a66c08ca", "fusion_lon": 0.0, "lat": 38.93298216666667, "fusion_lat": 0.0}, {"is_disabled": 0, "rental_uris": {"android": "https://dc.lft.to/lastmile_qr_scan", "ios": "https://dc.lft.to/lastmile_qr_scan"}, "is_reserved": 0, "name": "dab97ede9512d29d349bd4a6d84d05a1", "lon": -77.03959933333333, "type": "electric_scooter", "bike_id": "dab97ede9512d29d349bd4a6d84d05a1", "fusion_lon": 0.0, "lat": 38.899019833333334, "fusion_lat": 0.0}, {"is_disabled": 0, "rental_uris": {"android": "https://dc.lft.to/lastmile_qr_scan", "ios": "https://dc.lft.to/lastmile_qr_scan"}, "is_reserved": 0, "name": "c642a0139ced5027bae713d7d8af812d", "lon": -77.02155866666666, "type": "electric_scooter", "bike_id": "c642a0139ced5027bae713d7d8af812d", "fusion_lon": 0.0, "lat": 38.88629383333333, "fusion_lat": 0.0}, {"is_disabled": 0, "rental_uris": {"android": "https://dc.lft.to/lastmile_qr_scan", "ios": "https://dc.lft.to/lastmile_qr_scan"}, "is_reserved": 0, "name": "c3ecd634f620c01343358e7a71f5b7e9", "lon": -76.99035633333334, "type": "electric_scooter", "bike_id": "c3ecd634f620c01343358e7a71f5b7e9", "fusion_lon": 0.0, "lat": 38.902753833333335, "fusion_lat": 0.0}, {"is_disabled": 0, "rental_uris": {"android": "https://dc.lft.to/lastmile_qr_scan", "ios": "https://dc.lft.to/lastmile_qr_scan"}, "is_reserved": 0, "name": "d46e7024e34ee05bc73a9e126a1b6a79", "lon": -77.00601766666666, "type": "electric_scooter", "bike_id": "d46e7024e34ee05bc73a9e126a1b6a79", "fusion_lon": 0.0, "lat": 38.905633, "fusion_lat": 0.0}, {"is_disabled": 0, "rental_uris": {"android": "https://dc.lft.to/lastmile_qr_scan", "ios": "https://dc.lft.to/lastmile_qr_scan"}, "is_reserved": 0, "name": "02d4b57751a7d5569a60e93dd8f357f8", "lon": -77.04892416666667, "type": "electric_scooter", "bike_id": "02d4b57751a7d5569a60e93dd8f357f8", "fusion_lon": 0.0, "lat": 38.89813616666667, "fusion_lat": 0.0}, {"is_disabled": 0, "rental_uris": {"android": "https://dc.lft.to/lastmile_qr_scan", "ios": "https://dc.lft.to/lastmile_qr_scan"}, "is_reserved": 0, "name": "8310736b01b1c41bb1429145e97e4f68", "lon": -76.99286383333333, "type": "electric_bike", "bike_id": "8310736b01b1c41bb1429145e97e4f68", "fusion_lon": 0.0, "lat": 38.85834766666667, "fusion_lat": 0.0}, {"is_disabled": 0, "rental_uris": {"android": "https://dc.lft.to/lastmile_qr_scan", "ios": "https://dc.lft.to/lastmile_qr_scan"}, "is_reserved": 0, "name": "361deab16008c16be76640f891146325", "lon": -77.059953, "type": "electric_scooter", "bike_id": "361deab16008c16be76640f891146325", "fusion_lon": 0.0, "lat": 38.911964166666664, "fusion_lat": 0.0}, {"is_disabled": 0, "rental_uris": {"android": "https://dc.lft.to/lastmile_qr_scan", "ios": "https://dc.lft.to/lastmile_qr_scan"}, "is_reserved": 0, "name": "402d5f1bb063a238f271f04df66857c7", "lon": -77.04201016666667, "type": "electric_scooter", "bike_id": "402d5f1bb063a238f271f04df66857c7", "fusion_lon": 0.0, "lat": 38.918734666666666, "fusion_lat": 0.0}, {"is_disabled": 0, "rental_uris": {"android": "https://dc.lft.to/lastmile_qr_scan", "ios": "https://dc.lft.to/lastmile_qr_scan"}, "is_reserved": 0, "name": "fe81bbc1db5bd87491187b691cc1a152", "lon": -77.03257366666666, "type": "electric_scooter", "bike_id": "fe81bbc1db5bd87491187b691cc1a152", "fusion_lon": 0.0, "lat": 38.909633666666664, "fusion_lat": 0.0}, {"is_disabled": 0, "rental_uris": {"android": "https://dc.lft.to/lastmile_qr_scan", "ios": "https://dc.lft.to/lastmile_qr_scan"}, "is_reserved": 0, "name": "05d1439c7cc734146abc245c3b5d7685", "lon": -77.07275316666667, "type": "electric_scooter", "bike_id": "05d1439c7cc734146abc245c3b5d7685", "fusion_lon": 0.0, "lat": 38.93474333333333, "fusion_lat": 0.0}, {"is_disabled": 0, "rental_uris": {"android": "https://dc.lft.to/lastmile_qr_scan", "ios": "https://dc.lft.to/lastmile_qr_scan"}, "is_reserved": 0, "name": "1081e915165cee2a7bba193c17d6e08b", "lon": -77.02548016666667, "type": "electric_scooter", "bike_id": "1081e915165cee2a7bba193c17d6e08b", "fusion_lon": 0.0, "lat": 38.94836816666667, "fusion_lat": 0.0}, {"is_disabled": 0, "rental_uris": {"android": "https://dc.lft.to/lastmile_qr_scan", "ios": "https://dc.lft.to/lastmile_qr_scan"}, "is_reserved": 0, "name": "f546f7b7c393d49ca03364e3059d9201", "lon": -77.04880466666667, "type": "electric_scooter", "bike_id": "f546f7b7c393d49ca03364e3059d9201", "fusion_lon": 0.0, "lat": 38.9083115, "fusion_lat": 0.0}, {"is_disabled": 0, "rental_uris": {"android": "https://dc.lft.to/lastmile_qr_scan", "ios": "https://dc.lft.to/lastmile_qr_scan"}, "is_reserved": 0, "name": "8579159f18aad9b6b4398c29afeabfcf", "lon": -77.03407633333333, "type": "electric_scooter", "bike_id": "8579159f18aad9b6b4398c29afeabfcf", "fusion_lon": 0.0, "lat": 38.921579333333334, "fusion_lat": 0.0}, {"is_disabled": 0, "rental_uris": {"android": "https://dc.lft.to/lastmile_qr_scan", "ios": "https://dc.lft.to/lastmile_qr_scan"}, "is_reserved": 0, "name": "fafcb9603d33460ef10f33bf260c4c33", "lon": -76.91423066666667, "type": "electric_bike", "bike_id": "fafcb9603d33460ef10f33bf260c4c33", "fusion_lon": 0.0, "lat": 38.89830766666667, "fusion_lat": 0.0}, {"is_disabled": 0, "rental_uris": {"android": "https://dc.lft.to/lastmile_qr_scan", "ios": "https://dc.lft.to/lastmile_qr_scan"}, "is_reserved": 0, "name": "5f13d20342087da9af480530b88ae249", "lon": -76.99394466666666, "type": "electric_scooter", "bike_id": "5f13d20342087da9af480530b88ae249", "fusion_lon": 0.0, "lat": 38.921238333333335, "fusion_lat": 0.0}, {"is_disabled": 0, "rental_uris": {"android": "https://dc.lft.to/lastmile_qr_scan", "ios": "https://dc.lft.to/lastmile_qr_scan"}, "is_reserved": 0, "name": "949163faf56fcdc17b24310eef3b1265", "lon": -77.02650083333333, "type": "electric_scooter", "bike_id": "949163faf56fcdc17b24310eef3b1265", "fusion_lon": 0.0, "lat": 38.93868883333333, "fusion_lat": 0.0}, {"is_disabled": 0, "rental_uris": {"android": "https://dc.lft.to/lastmile_qr_scan", "ios": "https://dc.lft.to/lastmile_qr_scan"}, "is_reserved": 0, "name": "e9c43405e89323bf18bc11305d318c72", "lon": -77.03221166666667, "type": "electric_scooter", "bike_id": "e9c43405e89323bf18bc11305d318c72", "fusion_lon": 0.0, "lat": 38.918435833333334, "fusion_lat": 0.0}, {"is_disabled": 0, "rental_uris": {"android": "https://dc.lft.to/lastmile_qr_scan", "ios": "https://dc.lft.to/lastmile_qr_scan"}, "is_reserved": 0, "name": "23fb69eaf3632242ac348a199ff4014e", "lon": -77.025867, "type": "electric_scooter", "bike_id": "23fb69eaf3632242ac348a199ff4014e", "fusion_lon": 0.0, "lat": 38.920356, "fusion_lat": 0.0}, {"is_disabled": 0, "rental_uris": {"android": "https://dc.lft.to/lastmile_qr_scan", "ios": "https://dc.lft.to/lastmile_qr_scan"}, "is_reserved": 0, "name": "f205f1290f668e5748578e601ad0f0b2", "lon": -77.01778016666667, "type": "electric_scooter", "bike_id": "f205f1290f668e5748578e601ad0f0b2", "fusion_lon": 0.0, "lat": 38.885861, "fusion_lat": 0.0}, {"is_disabled": 0, "rental_uris": {"android": "https://dc.lft.to/lastmile_qr_scan", "ios": "https://dc.lft.to/lastmile_qr_scan"},