{"data": {"bikes": [{"is_disabled": 0, "fusion_lon": 0.0, "fusion_lat": 0.0, "lat": 38.85837933333333, "type": "electric_bike", "lon": -76.99283133333333, "bike_id": "3c9a7568b313d65a1128935f016ec442", "rental_uris": {"android": "https://dc.lft.to/lastmile_qr_scan", "ios": "https://dc.lft.to/lastmile_qr_scan"}, "name": "3c9a7568b313d65a1128935f016ec442", "is_reserved": 0}, {"is_disabled": 0, "fusion_lon": 0.0, "fusion_lat": 0.0, "lat": 38.91815833333333, "type": "electric_scooter", "lon": -77.02694333333334, "bike_id": "879e918cc85c1dd419dcb4ac93917cd8", "rental_uris": {"android": "https://dc.lft.to/lastmile_qr_scan", "ios": "https://dc.lft.to/lastmile_qr_scan"}, "name": "879e918cc85c1dd419dcb4ac93917cd8", "is_reserved": 0}, {"is_disabled": 0, "fusion_lon": 0.0, "fusion_lat": 0.0, "lat": 38.895356666666665, "type": "electric_scooter", "lon": -77.01527, "bike_id": "47b164281e26d2c73a7c84cd1a895bc0", "rental_uris": {"android": "https://dc.lft.to/lastmile_qr_scan", "ios": "https://dc.lft.to/lastmile_qr_scan"}, "name": "47b164281e26d2c73a7c84cd1a895bc0", "is_reserved": 0}, {"is_disabled": 0, "fusion_lon": 0.0, "fusion_lat": 0.0, "lat": 38.9211, "type": "electric_scooter", "lon": -77.042245, "bike_id": "f63802ce97439f037d0b55fc1e44c179", "rental_uris": {"android": "https://dc.lft.to/lastmile_qr_scan", "ios": "https://dc.lft.to/lastmile_qr_scan"}, "name": "f63802ce97439f037d0b55fc1e44c179", "is_reserved": 0}, {"is_disabled": 0, "fusion_lon": 0.0, "fusion_lat": 0.0, "lat": 38.883180833333334, "type": "electric_scooter", "lon": -76.949437, "bike_id": "e294fbb3da4ab69309facced4c719e48", "rental_uris": {"android": "https://dc.lft.to/lastmile_qr_scan", "ios": "https://dc.lft.to/lastmile_qr_scan"}, "name": "e294fbb3da4ab69309facced4c719e48", "is_reserved": 0}, {"is_disabled": 0, "fusion_lon": 0.0, "fusion_lat": 0.0, "lat": 38.852821166666665, "type": "electric_bike", "lon": -76.98155183333333, "bike_id": "1e0aaf5675c38e1261cfdcd2a6066c74", "rental_uris": {"android": "https://dc.lft.to/lastmile_qr_scan", "ios": "https://dc.lft.to/lastmile_qr_scan"}, "name": "1e0aaf5675c38e1261cfdcd2a6066c74", "is_reserved": 0}, {"is_disabled": 0, "fusion_lon": 0.0, "fusion_lat": 0.0, "lat": 38.90846583333333, "type": "electric_scooter", "lon": -77.0098165, "bike_id": "5969b774b4ef9ecd891bb11b4179ea8f", "rental_uris": {"android": "https://dc.lft.to/lastmile_qr_scan", "ios": "https://dc.lft.to/lastmile_qr_scan"}, "name": "5969b774b4ef9ecd891bb11b4179ea8f", "is_reserved": 0}, {"is_disabled": 0, "fusion_lon": 0.0, "fusion_lat": 0.0, "lat": 38.923326833333334, "type": "electric_scooter", "lon": -77.04302733333333, "bike_id": "17881f84b3f00f9edc279acc844caaae", "rental_uris": {"android": "https://dc.lft.to/lastmile_qr_scan", "ios": "https://dc.lft.to/lastmile_qr_scan"}, "name": "17881f84b3f00f9edc279acc844caaae", "is_reserved": 0}, {"is_disabled": 0, "fusion_lon": 0.0, "fusion_lat": 0.0, "lat": 38.8707955, "type": "electric_bike", "lon": -77.01215466666666, "bike_id": "37d185a9de91410146dbd4646d88a67f", "rental_uris": {"android": "https://dc.lft.to/lastmile_qr_scan", "ios": "https://dc.lft.to/lastmile_qr_scan"}, "name": "37d185a9de91410146dbd4646d88a67f", "is_reserved": 0}, {"is_disabled": 0, "fusion_lon": 0.0, "fusion_lat": 0.0, "lat": 38.9169815, "type": "electric_scooter", "lon": -77.02978966666667, "bike_id": "277d98ce8a71867f8ba38046d2779568", "rental_uris": {"android": "https://dc.lft.to/lastmile_qr_scan", "ios": "https://dc.lft.to/lastmile_qr_scan"}, "name": "277d98ce8a71867f8ba38046d2779568", "is_reserved": 0}, {"is_disabled": 0, "fusion_lon": 0.0, "fusion_lat": 0.0, "lat": 38.915899, "type": "electric_bike", "lon": -76.97150066666667, "bike_id": "a022940dfcc19a71ba187995d0bab9c4", "rental_uris": {"android": "https://dc.lft.to/lastmile_qr_scan", "ios": "https://dc.lft.to/lastmile_qr_scan"}, "name": "a022940dfcc19a71ba187995d0bab9c4", "is_reserved": 0}, {"is_disabled": 0, "fusion_lon": 0.0, "fusion_lat": 0.0, "lat": 38.911538, "type": "electric_scooter", "lon": -77.02377383333334, "bike_id": "c205c522b7af2ce4ea20e2c6a765597a", "rental_uris": {"android": "https://dc.lft.to/lastmile_qr_scan", "ios": "https://dc.lft.to/lastmile_qr_scan"}, "name": "c205c522b7af2ce4ea20e2c6a765597a", "is_reserved": 0}, {"is_disabled": 0, "fusion_lon": 0.0, "fusion_lat": 0.0, "lat": 38.93548033333333, "type": "electric_bike", "lon": -77.081871, "bike_id": "dd233d62236d7b33bd3614f03010df3e", "rental_uris": {"android": "https://dc.lft.to/lastmile_qr_scan", "ios": "https://dc.lft.to/lastmile_qr_scan"}, "name": "dd233d62236d7b33bd3614f03010df3e", "is_reserved": 0}, {"is_disabled": 0, "fusion_lon": 0.0, "fusion_lat": 0.0, "lat": 38.86904916666667, "type": "electric_bike", "lon": -77.13180116666666, "bike_id": "caa5fe48937dd6162b69f73f3082c0e4", "rental_uris": {"android": "https://dc.lft.to/lastmile_qr_scan", "ios": "https://dc.lft.to/lastmile_qr_scan"}, "name": "caa5fe48937dd6162b69f73f3082c0e4", "is_reserved": 0}, {"is_disabled": 0, "fusion_lon": 0.0, "fusion_lat": 0.0, "lat": 38.9050285, "type": "electric_scooter", "lon": -77.02949416666667, "bike_id": "ed133a8d7fef9ee3ac0e012e040d5bbb", "rental_uris": {"android": "https://dc.lft.to/lastmile_qr_scan", "ios": "https://dc.lft.to/lastmile_qr_scan"}, "name": "ed133a8d7fef9ee3ac0e012e040d5bbb", "is_reserved": 0}, {"is_disabled": 0, "fusion_lon": 0.0, "fusion_lat": 0.0, "lat": 38.919804666666664, "type": "electric_bike", "lon": -76.9730825, "bike_id": "8844fee845eb0f2e25b471552a7f2a77", "rental_uris": {"android": "https://dc.lft.to/lastmile_qr_scan", "ios": "https://dc.lft.to/lastmile_qr_scan"}, "name": "8844fee845eb0f2e25b471552a7f2a77", "is_reserved": 0}, {"is_disabled": 0, "fusion_lon": 0.0, "fusion_lat": 0.0, "lat": 38.88493866666666, "type": "electric_scooter", "lon": -77.0208015, "bike_id": "532a678ab0500e2b9daa047b80bfccc6", "rental_uris": {"android": "https://dc.lft.to/lastmile_qr_scan", "ios": "https://dc.lft.to/lastmile_qr_scan"}, "name": "532a678ab0500e2b9daa047b80bfccc6", "is_reserved": 0}, {"is_disabled": 0, "fusion_lon": 0.0, "fusion_lat": 0.0, "lat": 38.899446, "type": "electric_scooter", "lon": -77.02952766666667, "bike_id": "3e72a6da04fb3f1c748420e302bbba1c", "rental_uris": {"android": "https://dc.lft.to/lastmile_qr_scan", "ios": "https://dc.lft.to/lastmile_qr_scan"}, "name": "3e72a6da04fb3f1c748420e302bbba1c", "is_reserved": 0}, {"is_disabled": 0, "fusion_lon": 0.0, "fusion_lat": 0.0, "lat": 38.949175, "type": "electric_bike", "lon": -77.00799716666667, "bike_id": "bad392b9296fd1f9d7c27135ff9d48e5", "rental_uris": {"android": "https://dc.lft.to/lastmile_qr_scan", "ios": "https://dc.lft.to/lastmile_qr_scan"}, "name": "bad392b9296fd1f9d7c27135ff9d48e5", "is_reserved": 0}, {"is_disabled": 0, "fusion_lon": 0.0, "fusion_lat": 0.0, "lat": 38.90831033333333, "type": "electric_scooter", "lon": -76.99702583333334, "bike_id": "aa4c998e9e0c5d49aae7a60aac8380e0", "rental_uris": {"android": "https://dc.lft.to/lastmile_qr_scan", "ios": "https://dc.lft.to/lastmile_qr_scan"}, "name": "aa4c998e9e0c5d49aae7a60aac8380e0", "is_reserved": 0}, {"is_disabled": 0, "fusion_lon": 0.0, "fusion_lat": 0.0, "lat": 38.889944, "type": "electric_scooter", "lon": -77.04892483333333, "bike_id": "4ccbb63e6035e7c83237e17129ad1990", "rental_uris": {"android": "https://dc.lft.to/lastmile_qr_scan", "ios": "https://dc.lft.to/lastmile_qr_scan"}, "name": "4ccbb63e6035e7c83237e17129ad1990", "is_reserved": 0}, {"is_disabled": 0, "fusion_lon": 0.0, "fusion_lat": 0.0, "lat": 38.909538833333336, "type": "electric_scooter", "lon": -77.02712983333333, "bike_id": "94fd911abedbe758199d0ab61375d387", "rental_uris": {"android": "https://dc.lft.to/lastmile_qr_scan", "ios": "https://dc.lft.to/lastmile_qr_scan"}, "name": "94fd911abedbe758199d0ab61375d387", "is_reserved": 0}, {"is_disabled": 0, "fusion_lon": 0.0, "fusion_lat": 0.0, "lat": 38.90886283333333, "type": "electric_scooter", "lon": -77.03404116666667, "bike_id": "ca6f0f113ba39a2463d765eaad290986", "rental_uris": {"android": "https://dc.lft.to/lastmile_qr_scan", "ios": "https://dc.lft.to/lastmile_qr_scan"}, "name": "ca6f0f113ba39a2463d765eaad290986", "is_reserved": 0}, {"is_disabled": 0, "fusion_lon": 0.0, "fusion_lat": 0.0, "lat": 38.9039555, "type": "electric_scooter", "lon": -77.02803916666667, "bike_id": "ea9c493cfebaaf4a243aa88787205a52", "rental_uris": {"android": "https://dc.lft.to/lastmile_qr_scan", "ios": "https://dc.lft.to/lastmile_qr_scan"}, "name": "ea9c493cfebaaf4a243aa88787205a52", "is_reserved": 0}, {"is_disabled": 0, "fusion_lon": 0.0, "fusion_lat": 0.0, "lat": 38.895799333333336, "type": "electric_scooter", "lon": -77.0227495, "bike_id": "fc46738c2b8ce8c1e7f988b9c86e4c19", "rental_uris": {"android": "https://dc.lft.to/lastmile_qr_scan", "ios": "https://dc.lft.to/lastmile_qr_scan"}, "name": "fc46738c2b8ce8c1e7f988b9c86e4c19", "is_reserved": 0}, {"is_disabled": 0, "fusion_lon": 0.0, "fusion_lat": 0.0, "lat": 38.91606383333333, "type": "electric_scooter", "lon": -77.04010866666667, "bike_id": "dad89c0b804ac4de0a66c8079c503abb", "rental_uris": {"android": "https://dc.lft.to/lastmile_qr_scan", "ios": "https://dc.lft.to/lastmile_qr_scan"}, "name": "dad89c0b804ac4de0a66c8079c503abb", "is_reserved": 0}, {"is_disabled": 0, "fusion_lon": 0.0, "fusion_lat": 0.0, "lat": 38.97539033333334, "type": "electric_bike", "lon": -76.99533283333334, "bike_id": "53657498de6879fefbcbc8ac49bbda86", "rental_uris": {"android": "https://dc.lft.to/lastmile_qr_scan", "ios": "https://dc.lft.to/lastmile_qr_scan"}, "name": "53657498de6879fefbcbc8ac49bbda86", "is_reserved": 0}, {"is_disabled": 0, "fusion_lon": 0.0, "fusion_lat": 0.0, "lat": 38.93306233333333, "type": "electric_scooter", "lon": -77.0326235, "bike_id": "f844a2624584a4232211b6847e31c7cd", "rental_uris": {"android": "https://dc.lft.to/lastmile_qr_scan", "ios": "https://dc.lft.to/lastmile_qr_scan"}, "name": "f844a2624584a4232211b6847e31c7cd", "is_reserved": 0}, {"is_disabled": 0, "fusion_lon": 0.0, "fusion_lat": 0.0, "lat": 38.89834533333333, "type": "electric_scooter", "lon": -76.94633716666667, "bike_id": "06c046737c84945562ad28dd400c39ba", "rental_uris": {"android": "https://dc.lft.to/lastmile_qr_scan", "ios": "https://dc.lft.to/lastmile_qr_scan"}, "name": "06c046737c84945562ad28dd400c39ba", "is_reserved": 0}, {"is_disabled": 0, "fusion_lon": 0.0, "fusion_lat": 0.0, "lat": 38.930058, "type": "electric_scooter", "lon": -77.02201866666667, "bike_id": "69e0f9eee79285975df127a3f33eec11", "rental_uris": {"android": "https://dc.lft.to/lastmile_qr_scan", "ios": "https://dc.lft.to/lastmile_qr_scan"}, "name": "69e0f9eee79285975df127a3f33eec11", "is_reserved": 0}, {"is_disabled": 0, "fusion_lon": 0.0, "fusion_lat": 0.0, "lat": 38.894788, "type": "electric_scooter", "lon": -76.9952615, "bike_id": "2c0ae5d11271b8ac058a59fb3942b5ac", "rental_uris": {"android": "https://dc.lft.to/lastmile_qr_scan", "ios": "https://dc.lft.to/lastmile_qr_scan"}, "name": "2c0ae5d11271b8ac058a59fb3942b5ac", "is_reserved": 0}, {"is_disabled": 0, "fusion_lon": 0.0, "fusion_lat": 0.0, "lat": 38.87939983333333, "type": "electric_scooter", "lon": -77.00999383333334, "bike_id": "0f4157ee4bcf76278c0cac4fa639bf70", "rental_uris": {"android": "https://dc.lft.to/lastmile_qr_scan", "ios": "https://dc.lft.to/lastmile_qr_scan"}, "name": "0f4157ee4bcf76278c0cac4fa639bf70", "is_reserved": 0}, {"is_disabled": 0, "fusion_lon": 0.0, "fusion_lat": 0.0, "lat": 38.92132266666667, "type": "electric_scooter", "lon": -77.02538566666666, "bike_id": "109c14f3ecce27fc03253136c5c27cb8", "rental_uris": {"android": "https://dc.lft.to/lastmile_qr_scan", "ios": "https://dc.lft.to/lastmile_qr_scan"}, "name": "109c14f3ecce27fc03253136c5c27cb8", "is_reserved": 0}, {"is_disabled": 0, "fusion_lon": 0.0, "fusion_lat": 0.0, "lat": 38.956124, "type": "electric_scooter", "lon": -77.02761266666667, "bike_id": "13f5821754d1b54964cf9d39dc08ee98", "rental_uris": {"android": "https://dc.lft.to/lastmile_qr_scan", "ios": "https://dc.lft.to/lastmile_qr_scan"}, "name": "13f5821754d1b54964cf9d39dc08ee98", "is_reserved": 0}, {"is_disabled": 0, "fusion_lon": 0.0, "fusion_lat": 0.0, "lat": 38.866589, "type": "electric_scooter", "lon": -76.988825, "bike_id": "e9969c1677faed96d8e1d57972a8191e", "rental_uris": {"android": "https://dc.lft.to/lastmile_qr_scan", "ios": "https://dc.lft.to/lastmile_qr_scan"}, "name": "e9969c1677faed96d8e1d57972a8191e", "is_reserved": 0}, {"is_disabled": 0, "fusion_lon": 0.0, "fusion_lat": 0.0, "lat": 38.962134166666665, "type": "electric_scooter", "lon": -77.028082, "bike_id": "23b447637f6e805e0c6fb5940a90fe10", "rental_uris": {"android": "https://dc.lft.to/lastmile_qr_scan", "ios": "https://dc.lft.to/lastmile_qr_scan"}, "name": "23b447637f6e805e0c6fb5940a90fe10", "is_reserved": 0}, {"is_disabled": 0, "fusion_lon": 0.0, "fusion_lat": 0.0, "lat": 38.893119166666665, "type": "electric_scooter", "lon": -77.02123833333333, "bike_id": "c066e8ed1dff83c35489c529f20eefd7", "rental_uris": {"android": "https://dc.lft.to/lastmile_qr_scan", "ios": "https://dc.lft.to/lastmile_qr_scan"}, "name": "c066e8ed1dff83c35489c529f20eefd7", "is_reserved": 0}, {"is_disabled": 0, "fusion_lon": 0.0, "fusion_lat": 0.0, "lat": 38.94226833333333, "type": "electric_scooter", "lon": -77.02159016666667, "bike_id": "5ad7529e4b025a72b591cd363faa0766", "rental_uris": {"android": "https://dc.lft.to/lastmile_qr_scan", "ios": "https://dc.lft.to/lastmile_qr_scan"}, "name": "5ad7529e4b025a72b591cd363faa0766", "is_reserved": 0}, {"is_disabled": 0, "fusion_lon": 0.0, "fusion_lat": 0.0, "lat": 38.937522333333334, "type": "electric_scooter", "lon": -77.024796, "bike_id": "4a4e93d8369de3e3110d13cfe717720a", "rental_uris": {"android": "https://dc.lft.to/lastmile_qr_scan", "ios": "https://dc.lft.to/lastmile_qr_scan"}, "name": "4a4e93d8369de3e3110d13cfe717720a", "is_reserved": 0}, {"is_disabled": 0, "fusion_lon": 0.0, "fusion_lat": 0.0, "lat": 38.905728833333335, "type": "electric_scooter", "lon": -77.02201883333333, "bike_id": "10ef54a1cc0d9d69adff79fe21ad18fd", "rental_uris": {"android": "https://dc.lft.to/lastmile_qr_scan", "ios": "https://dc.lft.to/lastmile_qr_scan"}, "name": "10ef54a1cc0d9d69adff79fe21ad18fd", "is_reserved": 0}, {"is_disabled": 0, "fusion_lon": 0.0, "fusion_lat": 0.0, "lat": 38.904993833333336, "type": "electric_scooter", "lon": -77.02951816666666, "bike_id": "b4d0821f2f95fc972d975d6b5eea5b29", "rental_uris": {"android": "https://dc.lft.to/lastmile_qr_scan", "ios": "https://dc.lft.to/lastmile_qr_scan"}, "name": "b4d0821f2f95fc972d975d6b5eea5b29", "is_reserved": 0}, {"is_disabled": 0, "fusion_lon": 0.0, "fusion_lat": 0.0, "lat": 38.942784, "type": "electric_scooter", "lon": -77.036355, "bike_id": "b9e4e360f62467bdca6294ff378b07f0", "rental_uris": {"android": "https://dc.lft.to/lastmile_qr_scan", "ios": "https://dc.lft.to/lastmile_qr_scan"}, "name": "b9e4e360f62467bdca6294ff378b07f0", "is_reserved": 0}, {"is_disabled": 0, "fusion_lon": 0.0, "fusion_lat": 0.0, "lat": 38.949838, "type": "electric_scooter", "lon": -77.02702266666667, "bike_id": "e98fa3b3d1dfd23d170b5dccbe640bc1", "rental_uris": {"android": "https://dc.lft.to/lastmile_qr_scan", "ios": "https://dc.lft.to/lastmile_qr_scan"}, "name": "e98fa3b3d1dfd23d170b5dccbe640bc1", "is_reserved": 0}, {"is_disabled": 0, "fusion_lon": 0.0, "fusion_lat": 0.0, "lat": 38.909520666666666, "type": "electric_scooter", "lon": -77.023824, "bike_id": "6329ac81eca4944d8af3dfebd502265d", "rental_uris": {"android": "https://dc.lft.to/lastmile_qr_scan", "ios": "https://dc.lft.to/lastmile_qr_scan"}, "name": "6329ac81eca4944d8af3dfebd502265d", "is_reserved": 0}, {"is_disabled": 0, "fusion_lon": 0.0, "fusion_lat": 0.0, "lat": 38.858118166666664, "type": "electric_scooter", "lon": -76.989648, "bike_id": "9448352fb888411e33f6673ae2fd8a2c", "rental_uris": {"android": "https://dc.lft.to/lastmile_qr_scan", "ios": "https://dc.lft.to/lastmile_qr_scan"}, "name": "9448352fb888411e33f6673ae2fd8a2c", "is_reserved": 0}, {"is_disabled": 0, "fusion_lon": 0.0, "fusion_lat": 0.0, "lat": 38.9002825, "type": "electric_scooter", "lon": -76.99632466666667, "bike_id": "0777a98ff0d9aa1d032c5977ef9f06c9", "rental_uris": {"android": "https://dc.lft.to/lastmile_qr_scan", "ios": "https://dc.lft.to/lastmile_qr_scan"}, "name": "0777a98ff0d9aa1d032c5977ef9f06c9", "is_reserved": 0}, {"is_disabled": 0, "fusion_lon": 0.0, "fusion_lat": 0.0, "lat": 38.90238816666667, "type": "electric_scooter", "lon": -77.00209316666667, "bike_id": "2fa28ce11ef4385373affdb71e7ee9b3", "rental_uris": {"android": "https://dc.lft.to/lastmile_qr_scan", "ios": "https://dc.lft.to/lastmile_qr_scan"}, "name": "2fa28ce11ef4385373affdb71e7ee9b3", "is_reserved": 0}, {"is_disabled": 0, "fusion_lon": 0.0, "fusion_lat": 0.0, "lat": 38.893203666666665, "type": "electric_scooter", "lon": -77.019792, "bike_id": "e58521db7bdccee39ec08eae551265a2", "rental_uris": {"android": "https://dc.lft.to/lastmile_qr_scan", "ios": "https://dc.lft.to/lastmile_qr_scan"}, "name": "e58521db7bdccee39ec08eae551265a2", "is_reserved": 0}, {"is_disabled": 0, "fusion_lon": 0.0, "fusion_lat": 0.0, "lat": 38.9153895, "type": "electric_scooter", "lon": -77.03207833333333, "bike_id": "a1b8d14c18d19e9148e801787fcd53c9", "rental_uris": {"android": "https://dc.lft.to/lastmile_qr_scan", "ios": "https://dc.lft.to/lastmile_qr_scan"}, "name": "a1b8d14c18d19e9148e801787fcd53c9", "is_reserved": 0}, {"is_disabled": 0, "fusion_lon": 0.0, "fusion_lat": 0.0, "lat": 38.85066416666667, "type": "electric_scooter", "lon": -76.96526866666666, "bike_id": "030461a46d37f200bbe9efc3cc6d4fa5", "rental_uris": {"android": "https://dc.lft.to/lastmile_qr_scan", "ios": "https://dc.lft.to/lastmile_qr_scan"}, "name": "030461a46d37f200bbe9efc3cc6d4fa5", "is_reserved": 0}, {"is_disabled": 0, "fusion_lon": 0.0, "fusion_lat": 0.0, "lat": 38.915487666666664, "type": "electric_scooter", "lon": -77.03855283333333, "bike_id": "2775f9127c75b35776e81c6c9ed839b2", "rental_uris": {"android": "https://dc.lft.to/lastmile_qr_scan", "ios": "https://dc.lft.to/lastmile_qr_scan"}, "name": "2775f9127c75b35776e81c6c9ed839b2", "is_reserved": 0}, {"is_disabled": 0, "fusion_lon": 0.0, "fusion_lat": 0.0, "lat": 38.897118, "type": "electric_scooter", "lon": -77.02046216666666, "bike_id": "d84560342790a4347125d1dfa3815d12", "rental_uris": {"android": "https://dc.lft.to/lastmile_qr_scan", "ios": "https://dc.lft.to/lastmile_qr_scan"}, "name": "d84560342790a4347125d1dfa3815d12", "is_reserved": 0}, {"is_disabled": 0, "fusion_lon": 0.0, "fusion_lat": 0.0, "lat": 38.90145966666667, "type": "electric_scooter", "lon": -77.041796, "bike_id": "5fcea10f7ee078aa1e613417b2642845", "rental_uris": {"android": "https://dc.lft.to/lastmile_qr_scan", "ios": "https://dc.lft.to/lastmile_qr_scan"}, "name": "5fcea10f7ee078aa1e613417b2642845", "is_reserved": 0}, {"is_disabled": 0, "fusion_lon": 0.0, "fusion_lat": 0.0, "lat": 38.83120666666667, "type": "electric_bike", "lon": -77.043242, "bike_id": "ef5a5d5ca4590f97c20e9012fb61ce44", "rental_uris": {"android": "https://dc.lft.to/lastmile_qr_scan", "ios": "https://dc.lft.to/lastmile_qr_scan"}, "name": "ef5a5d5ca4590f97c20e9012fb61ce44", "is_reserved": 0}, {"is_disabled": 0, "fusion_lon": 0.0, "fusion_lat": 0.0, "lat": 38.90572516666667, "type": "electric_scooter", "lon": -77.02175333333334, "bike_id": "78a1ebd9a785b326ec6f2da51d59fca2", "rental_uris": {"android": "https://dc.lft.to/lastmile_qr_scan", "ios": "https://dc.lft.to/lastmile_qr_scan"}, "name": "78a1ebd9a785b326ec6f2da51d59fca2", "is_reserved": 0}, {"is_disabled": 0, "fusion_lon": 0.0, "fusion_lat": 0.0, "lat": 38.907335833333335, "type": "electric_scooter", "lon": -77.04015283333334, "bike_id": "617e520926b9457651cd797f431b4a01", "rental_uris": {"android": "https://dc.lft.to/lastmile_qr_scan", "ios": "https://dc.lft.to/lastmile_qr_scan"}, "name": "617e520926b9457651cd797f431b4a01", "is_reserved": 0}, {"is_disabled": 0, "fusion_lon": 0.0, "fusion_lat": 0.0, "lat": 38.90568233333333, "type": "electric_scooter", "lon": -77.03362516666667, "bike_id": "49f6bb373d2ba96df800aeaa5a176efd", "rental_uris": {"android": "https://dc.lft.to/lastmile_qr_scan", "ios": "https://dc.lft.to/lastmile_qr_scan"}, "name": "49f6bb373d2ba96df800aeaa5a176efd", "is_reserved": 0}, {"is_disabled": 0, "fusion_lon": 0.0, "fusion_lat": 0.0, "lat": 38.827305, "type": "electric_bike", "lon": -77.00863133333333, "bike_id": "a7d4ab894a81a123e82cda135ee85509", "rental_uris": {"android": "https://dc.lft.to/lastmile_qr_scan", "ios": "https://dc.lft.to/lastmile_qr_scan"}, "name": "a7d4ab894a81a123e82cda135ee85509", "is_reserved": 0}, {"is_disabled": 0, "fusion_lon": 0.0, "fusion_lat": 0.0, "lat": 38.9004305, "type": "electric_scooter", "lon": -76.98834116666667, "bike_id": "77d98fbe168bae352c0f3c78f32e51aa", "rental_uris": {"android": "https://dc.lft.to/lastmile_qr_scan", "ios": "https://dc.lft.to/lastmile_qr_scan"}, "name": "77d98fbe168bae352c0f3c78f32e51aa", "is_reserved": 0}, {"is_disabled": 0, "fusion_lon": 0.0, "fusion_lat": 0.0, "lat": 38.90738783333333, "type": "electric_scooter", "lon": -77.03446833333334, "bike_id": "943e3fdb99a87660857cc302e89226e9", "rental_uris": {"android": "https://dc.lft.to/lastmile_qr_scan", "ios": "https://dc.lft.to/lastmile_qr_scan"}, "name": "943e3fdb99a87660857cc302e89226e9", "is_reserved": 0}, {"is_disabled": 0, "fusion_lon": 0.0, "fusion_lat": 0.0, "lat": 38.888644, "type": "electric_scooter", "lon": -76.97738666666666, "bike_id": "dc65cd59acaa9988c3e40eade51f3297", "rental_uris": {"android": "https://dc.lft.to/lastmile_qr_scan", "ios": "https://dc.lft.to/lastmile_qr_scan"}, "name": "dc65cd59acaa9988c3e40eade51f3297", "is_reserved": 0}, {"is_disabled": 0, "fusion_lon": 0.0, "fusion_lat": 0.0, "lat": 38.90140933333333, "type": "electric_scooter", "lon": -77.0415325, "bike_id": "c0767229c0bca436b89fc6ffb57c5c88", "rental_uris": {"android": "https://dc.lft.to/lastmile_qr_scan", "ios": "https://dc.lft.to/lastmile_qr_scan"}, "name": "c0767229c0bca436b89fc6ffb57c5c88", "is_reserved": 0}, {"is_disabled": 0, "fusion_lon": 0.0, "fusion_lat": 0.0, "lat": 38.875727499999996, "type": "electric_scooter", "lon": -77.0062535, "bike_id": "ccdb3e441c3ea3952810368a83001c41", "rental_uris": {"android": "https://dc.lft.to/lastmile_qr_scan", "ios": "https://dc.lft.to/lastmile_qr_scan"}, "name": "ccdb3e441c3ea3952810368a83001c41", "is_reserved": 0}, {"is_disabled": 0, "fusion_lon": 0.0, "fusion_lat": 0.0, "lat": 38.89514533333333, "type": "electric_scooter", "lon": -77.02203366666667, "bike_id": "39ca58608e6e62afca254b946cfad9b0", "rental_uris": {"android": "https://dc.lft.to/lastmile_qr_scan", "ios": "https://dc.lft.to/lastmile_qr_scan"}, "name": "39ca58608e6e62afca254b946cfad9b0", "is_reserved": 0}, {"is_disabled": 0, "fusion_lon": 0.0, "fusion_lat": 0.0, "lat": 38.866107166666666, "type": "electric_scooter", "lon": -77.01074633333333, "bike_id": "18d35e22aa7827805a490e87de47086c", "rental_uris": {"android": "https://dc.lft.to/lastmile_qr_scan", "ios": "https://dc.lft.to/lastmile_qr_scan"}, "name": "18d35e22aa7827805a490e87de47086c", "is_reserved": 0}, {"is_disabled": 0, "fusion_lon": 0.0, "fusion_lat": 0.0, "lat": 38.936997833333336, "type": "electric_scooter", "lon": -77.05598283333333, "bike_id": "121b824d085e31a53fa8513bcd5ce4da", "rental_uris": {"android": "https://dc.lft.to/lastmile_qr_scan", "ios": "https://dc.lft.to/lastmile_qr_scan"}, "name": "121b824d085e31a53fa8513bcd5ce4da", "is_reserved": 0}, {"is_disabled": 0, "fusion_lon": 0.0, "fusion_lat": 0.0, "lat": 38.9258285, "type": "electric_scooter", "lon": -77.03213383333333, "bike_id": "94a6158f23580cf3cec8dd941e388571", "rental_uris": {"android": "https://dc.lft.to/lastmile_qr_scan", "ios": "https://dc.lft.to/lastmile_qr_scan"}, "name": "94a6158f23580cf3cec8dd941e388571", "is_reserved": 0}, {"is_disabled": 0, "fusion_lon": 0.0, "fusion_lat": 0.0, "lat": 38.9119495, "type": "electric_scooter", "lon": -77.04168633333333, "bike_id": "dfb2d968f0f1a9858922cb6d0295ff3d", "rental_uris": {"android": "https://dc.lft.to/lastmile_qr_scan", "ios": "https://dc.lft.to/lastmile_qr_scan"}, "name": "dfb2d968f0f1a9858922cb6d0295ff3d", "is_reserved": 0}, {"is_disabled": 0, "fusion_lon": 0.0, "fusion_lat": 0.0, "lat": 38.91238033333333, "type": "electric_scooter", "lon": -77.04485116666666, "bike_id": "56d68006ec981fc502cfd0293d458345", "rental_uris": {"android": "https://dc.lft.to/lastmile_qr_scan", "ios": "https://dc.lft.to/lastmile_qr_scan"}, "name": "56d68006ec981fc502cfd0293d458345", "is_reserved": 0}, {"is_disabled": 0, "fusion_lon": 0.0, "fusion_lat": 0.0, "lat": 38.88615466666667, "type": "electric_scooter", "lon": -77.00574066666667, "bike_id": "d75b8602c8e6d6ad402f8c335ad9704b", "rental_uris": {"android": "https://dc.lft.to/lastmile_qr_scan", "ios": "https://dc.lft.to/lastmile_qr_scan"}, "name": "d75b8602c8e6d6ad402f8c335ad9704b", "is_reserved": 0}, {"is_disabled": 0, "fusion_lon": 0.0, "fusion_lat": 0.0, "lat": 38.920549666666666, "type": "electric_scooter", "lon": -76.99884133333333, "bike_id": "ad09827cf1bd52083855a3193d98b887", "rental_uris": {"android": "https://dc.lft.to/lastmile_qr_scan", "ios": "https://dc.lft.to/lastmile_qr_scan"}, "name": "ad09827cf1bd52083855a3193d98b887", "is_reserved": 0}, {"is_disabled": 0, "fusion_lon": 0.0, "fusion_lat": 0.0, "lat": 38.914198666666664, "type": "electric_scooter", "lon": -77.04156316666666, "bike_id": "88b9bc59a63c888e60b25648be63fcb4", "rental_uris": {"android": "https://dc.lft.to/lastmile_qr_scan", "ios": "https://dc.lft.to/lastmile_qr_scan"}, "name": "88b9bc59a63c888e60b25648be63fcb4", "is_reserved": 0}, {"is_disabled": 0, "fusion_lon": 0.0, "fusion_lat": 0.0, "lat": 38.8564845, "type": "electric_bike", "lon": -77.08530016666667, "bike_id": "c9575c0b9c93c8a30c6d99954ee7e42a", "rental_uris": {"android": "https://dc.lft.to/lastmile_qr_scan", "ios": "https://dc.lft.to/lastmile_qr_scan"}, "name": "c9575c0b9c93c8a30c6d99954ee7e42a", "is_reserved": 0}, {"is_disabled": 0, "fusion_lon": 0.0, "fusion_lat": 0.0, "lat": 38.84929416666667, "type": "electric_bike", "lon": -77.100148, "bike_id": "495e654709acabb6fc6bc83285bb39eb", "rental_uris": {"android": "https://dc.lft.to/lastmile_qr_scan", "ios": "https://dc.lft.to/lastmile_qr_scan"}, "name": "495e654709acabb6fc6bc83285bb39eb", "is_reserved": 0}, {"is_disabled": 0, "fusion_lon": 0.0, "fusion_lat": 0.0, "lat": 38.956367, "type": "electric_scooter", "lon": -77.09107666666667, "bike_id": "145ec5c6a21c8ca099f073452b6c8fe0", "rental_uris": {"android": "https://dc.lft.to/lastmile_qr_scan", "ios": "https://dc.lft.to/lastmile_qr_scan"}, "name": "145ec5c6a21c8ca099f073452b6c8fe0", "is_reserved": 0}, {"is_disabled": 0, "fusion_lon": 0.0, "fusion_lat": 0.0, "lat": 38.89459683333333, "type": "electric_scooter", "lon": -76.94817966666666, "bike_id": "4d48761a0733c9b0471f815566694912", "rental_uris": {"android": "https://dc.lft.to/lastmile_qr_scan", "ios": "https://dc.lft.to/lastmile_qr_scan"}, "name": "4d48761a0733c9b0471f815566694912", "is_reserved": 0}, {"is_disabled": 0, "fusion_lon": 0.0, "fusion_lat": 0.0, "lat": 38.86246916666666, "type": "electric_scooter", "lon": -76.99529966666667, "bike_id": "87bcf3087205195c240de7f0b62e15d9", "rental_uris": {"android": "https://dc.lft.to/lastmile_qr_scan", "ios": "https://dc.lft.to/lastmile_qr_scan"}, "name": "87bcf3087205195c240de7f0b62e15d9", "is_reserved": 0}, {"is_disabled": 0, "fusion_lon": 0.0, "fusion_lat": 0.0, "lat": 38.901669166666665, "type": "electric_scooter", "lon": -76.993828, "bike_id": "b0aa75b6bec6ffeeead3266fa12288f7", "rental_uris": {"android": "https://dc.lft.to/lastmile_qr_scan", "ios": "https://dc.lft.to/lastmile_qr_scan"}, "name": "b0aa75b6bec6ffeeead3266fa12288f7", "is_reserved": 0}, {"is_disabled": 0, "fusion_lon": 0.0, "fusion_lat": 0.0, "lat": 38.91576666666667, "type": "electric_scooter", "lon": -77.04679916666667, "bike_id": "b2f0adbc7d81a77fc2c53e3893349ff6", "rental_uris": {"android": "https://dc.lft.to/lastmile_qr_scan", "ios": "https://dc.lft.to/lastmile_qr_scan"}, "name": "b2f0adbc7d81a77fc2c53e3893349ff6", "is_reserved": 0}, {"is_disabled": 0, "fusion_lon": 0.0, "fusion_lat": 0.0, "lat": 38.9180085, "type": "electric_scooter", "lon": -77.0345025, "bike_id": "d1f484a5431a976e0c24cec39c13e056", "rental_uris": {"android": "https://dc.lft.to/lastmile_qr_scan", "ios": "https://dc.lft.to/lastmile_qr_scan"}, "name": "d1f484a5431a976e0c24cec39c13e056", "is_reserved": 0}, {"is_disabled": 0, "fusion_lon": 0.0, "fusion_lat": 0.0, "lat": 38.90855366666667, "type": "electric_scooter", "lon": -76.99799, "bike_id": "537afef94bbf826134e0c4e228822bc5", "rental_uris": {"android": "https://dc.lft.to/lastmile_qr_scan", "ios": "https://dc.lft.to/lastmile_qr_scan"}, "name": "537afef94bbf826134e0c4e228822bc5", "is_reserved": 0}, {"is_disabled": 0, "fusion_lon": 0.0, "fusion_lat": 0.0, "lat": 38.94805433333333, "type": "electric_bike", "lon": -76.97214683333333, "bike_id": "734d6e34be43f6661911bb683eb0d316", "rental_uris": {"android": "https://dc.lft.to/lastmile_qr_scan", "ios": "https://dc.lft.to/lastmile_qr_scan"}, "name": "734d6e34be43f6661911bb683eb0d316", "is_reserved": 0}, {"is_disabled": 0, "fusion_lon": 0.0, "fusion_lat": 0.0, "lat": 38.91580416666667, "type": "electric_scooter", "lon": -77.01996683333333, "bike_id": "b11535c84abdf79cfbfebc46d9c398c6", "rental_uris": {"android": "https://dc.lft.to/lastmile_qr_scan", "ios": "https://dc.lft.to/lastmile_qr_scan"}, "name": "b11535c84abdf79cfbfebc46d9c398c6", "is_reserved": 0}, {"is_disabled": 0, "fusion_lon": 0.0, "fusion_lat": 0.0, "lat": 38.912028166666666, "type": "electric_scooter", "lon": -76.9848355, "bike_id": "12712b7c400c560ee8af572dfa398112", "rental_uris": {"android": "https://dc.lft.to/lastmile_qr_scan", "ios": "https://dc.lft.to/lastmile_qr_scan"}, "name": "12712b7c400c560ee8af572dfa398112", "is_reserved": 0}, {"is_disabled": 0, "fusion_lon": 0.0, "fusion_lat": 0.0, "lat": 38.9216495, "type": "electric_scooter", "lon": -77.0433765, "bike_id": "1f9439d14eee51239b3f71634b332c86", "rental_uris": {"android": "https://dc.lft.to/lastmile_qr_scan", "ios": "https://dc.lft.to/lastmile_qr_scan"}, "name": "1f9439d14eee51239b3f71634b332c86", "is_reserved": 0}, {"is_disabled": 0, "fusion_lon": 0.0, "fusion_lat": 0.0, "lat": 38.892224166666665, "type": "electric_scooter", "lon": -77.0221955, "bike_id": "0c3df0b029999d10486b1b90617567a5", "rental_uris": {"android": "https://dc.lft.to/lastmile_qr_scan", "ios": "https://dc.lft.to/lastmile_qr_scan"}, "name": "0c3df0b029999d10486b1b90617567a5", "is_reserved": 0}, {"is_disabled": 0, "fusion_lon": 0.0, "fusion_lat": 0.0, "lat": 38.970616166666666, "type": "electric_bike", "lon": -76.960611, "bike_id": "bb45899565dde91f5f572745139d2f77", "rental_uris": {"android": "https://dc.lft.to/lastmile_qr_scan", "ios": "https://dc.lft.to/lastmile_qr_scan"}, "name": "bb45899565dde91f5f572745139d2f77", "is_reserved": 0}, {"is_disabled": 0, "fusion_lon": 0.0, "fusion_lat": 0.0, "lat": 38.907290333333336, "type": "electric_scooter", "lon": -77.02368116666666, "bike_id": "79cc729e5e3c75023a601212a38296cf", "rental_uris": {"android": "https://dc.lft.to/lastmile_qr_scan", "ios": "https://dc.lft.to/lastmile_qr_scan"}, "name": "79cc729e5e3c75023a601212a38296cf", "is_reserved": 0}, {"is_disabled": 0, "fusion_lon": 0.0, "fusion_lat": 0.0, "lat": 38.88567366666667, "type": "electric_scooter", "lon": -77.00068016666667, "bike_id": "58ee7b15928a503579af7c5c8424748b", "rental_uris": {"android": "https://dc.lft.to/lastmile_qr_scan", "ios": "https://dc.lft.to/lastmile_qr_scan"}, "name": "58ee7b15928a503579af7c5c8424748b", "is_reserved": 0}, {"is_disabled": 0, "fusion_lon": 0.0, "fusion_lat": 0.0, "lat": 38.94827633333333, "type": "electric_scooter", "lon": -77.02829533333333, "bike_id": "42bdf6907af48f27e73ad5936a88f04f", "rental_uris": {"android": "https://dc.lft.to/lastmile_qr_scan", "ios": "https://dc.lft.to/lastmile_qr_scan"}, "name": "42bdf6907af48f27e73ad5936a88f04f", "is_reserved": 0}, {"is_disabled": 0, "fusion_lon": 0.0, "fusion_lat": 0.0, "lat": 38.91734316666667, "type": "electric_scooter", "lon": -76.99181066666667, "bike_id": "d757429b9da135aadcd1d4a6acb92258", "rental_uris": {"android": "https://dc.lft.to/lastmile_qr_scan", "ios": "https://dc.lft.to/lastmile_qr_scan"}, "name": "d757429b9da135aadcd1d4a6acb92258", "is_reserved": 0}, {"is_disabled": 0, "fusion_lon": 0.0, "fusion_lat": 0.0, "lat": 38.8624555, "type": "electric_scooter", "lon": -76.99528216666667, "bike_id": "ed128bf45d78ee873264c7a5de2f4ee2", "rental_uris": {"android": "https://dc.lft.to/lastmile_qr_scan", "ios": "https://dc.lft.to/lastmile_qr_scan"}, "name": "ed128bf45d78ee873264c7a5de2f4ee2", "is_reserved": 0}, {"is_disabled": 0, "fusion_lon": 0.0, "fusion_lat": 0.0, "lat": 38.90657816666667, "type": "electric_scooter", "lon": -77.029745, "bike_id": "4e056a800065c7b7922879484b093b91", "rental_uris": {"android": "https://dc.lft.to/lastmile_qr_scan", "ios": "https://dc.lft.to/lastmile_qr_scan"}, "name": "4e056a800065c7b7922879484b093b91", "is_reserved": 0}, {"is_disabled": 0, "fusion_lon": 0.0, "fusion_lat": 0.0, "lat": 38.885098, "type": "electric_scooter", "lon": -76.99856750000001, "bike_id": "99e6e8fb33db6183ceb320e82b237048", "rental_uris": {"android": "https://dc.lft.to/lastmile_qr_scan", "ios": "https://dc.lft.to/lastmile_qr_scan"}, "name": "99e6e8fb33db6183ceb320e82b237048", "is_reserved": 0}, {"is_disabled": 0, "fusion_lon": 0.0, "fusion_lat": 0.0, "lat": 38.880173, "type": "electric_scooter", "lon": -76.93114766666666, "bike_id": "7ae99fe42986878d78dcc076500a3d7d", "rental_uris": {"android": "https://dc.lft.to/lastmile_qr_scan", "ios": "https://dc.lft.to/lastmile_qr_scan"}, "name": "7ae99fe42986878d78dcc076500a3d7d", "is_reserved": 0}, {"is_disabled": 0, "fusion_lon": 0.0, "fusion_lat": 0.0, "lat": 38.905913166666664, "type": "electric_scooter", "lon": -77.023812, "bike_id": "a7dad5e85e10897e32570e8c114a201c", "rental_uris": {"android": "https://dc.lft.to/lastmile_qr_scan", "ios": "https://dc.lft.to/lastmile_qr_scan"}, "name": "a7dad5e85e10897e32570e8c114a201c", "is_reserved": 0}, {"is_disabled": 0, "fusion_lon": 0.0, "fusion_lat": 0.0, "lat": 38.91539816666667, "type": "electric_scooter", "lon": -77.0320285, "bike_id": "d7ac6345d40abe209800c2a4331960e4", "rental_uris": {"android": "https://dc.lft.to/lastmile_qr_scan", "ios": "https://dc.lft.to/lastmile_qr_scan"}, "name": "d7ac6345d40abe209800c2a4331960e4", "is_reserved": 0}, {"is_disabled": 0, "fusion_lon": 0.0, "fusion_lat": 0.0, "lat": 38.920315333333335, "type": "electric_scooter", "lon": -77.02584066666667, "bike_id": "a4cff294c67bdc1f359d4c5fa4884856", "rental_uris": {"android": "https://dc.lft.to/lastmile_qr_scan", "ios": "https://dc.lft.to/lastmile_qr_scan"}, "name": "a4cff294c67bdc1f359d4c5fa4884856", "is_reserved": 0}, {"is_disabled": 0, "fusion_lon": 0.0, "fusion_lat": 0.0, "lat": 38.89523333333333, "type": "electric_scooter", "lon": -77.02839833333333, "bike_id": "b62593a0d48792f5fcd6567266a9c551", "rental_uris": {"android": "https://dc.lft.to/lastmile_qr_scan", "ios": "https://dc.lft.to/lastmile_qr_scan"}, "name": "b62593a0d48792f5fcd6567266a9c551", "is_reserved": 0}, {"is_disabled": 0, "fusion_lon": 0.0, "fusion_lat": 0.0, "lat": 38.853306333333336, "type": "electric_scooter", "lon": -76.96601283333334, "bike_id": "79a29a7233b7fb883015145bb68d8d63", "rental_uris": {"android": "https://dc.lft.to/lastmile_qr_scan", "ios": "https://dc.lft.to/lastmile_qr_scan"}, "name": "79a29a7233b7fb883015145bb68d8d63", "is_reserved": 0}, {"is_disabled": 0, "fusion_lon": 0.0, "fusion_lat": 0.0, "lat": 38.988255333333335, "type": "electric_bike", "lon": -76.9875655, "bike_id": "76354a7505959db5ea752c438269929f", "rental_uris": {"android": "https://dc.lft.to/lastmile_qr_scan", "ios": "https://dc.lft.to/lastmile_qr_scan"}, "name": "76354a7505959db5ea752c438269929f", "is_reserved": 0}, {"is_disabled": 0, "fusion_lon": 0.0, "fusion_lat": 0.0, "lat": 38.956004666666665, "type": "electric_scooter", "lon": -77.02793216666667, "bike_id": "479da590aa6174e926a2d4ed93e6498a", "rental_uris": {"android": "https://dc.lft.to/lastmile_qr_scan", "ios": "https://dc.lft.to/lastmile_qr_scan"}, "name": "479da590aa6174e926a2d4ed93e6498a", "is_reserved": 0}, {"is_disabled": 0, "fusion_lon": 0.0, "fusion_lat": 0.0, "lat": 38.876428833333335, "type": "electric_scooter", "lon": -77.008133, "bike_id": "e474ae2fe70bd994646f9f86e2aec259", "rental_uris": {"android": "https://dc.lft.to/lastmile_qr_scan", "ios": "https://dc.lft.to/lastmile_qr_scan"}, "name": "e474ae2fe70bd994646f9f86e2aec259", "is_reserved": 0}, {"is_disabled": 0, "fusion_lon": 0.0, "fusion_lat": 0.0, "lat": 38.866586, "type": "electric_scooter", "lon": -76.988821, "bike_id": "14b0570f1889fa001d020abfae9e7db2", "rental_uris": {"android": "https://dc.lft.to/lastmile_qr_scan", "ios": "https://dc.lft.to/lastmile_qr_scan"}, "name": "14b0570f1889fa001d020abfae9e7db2", "is_reserved": 0}, {"is_disabled": 0, "fusion_lon": 0.0, "fusion_lat": 0.0, "lat": 38.8982715, "type": "electric_scooter", "lon": -77.02950066666666, "bike_id": "3a87c08126e29ea17190c9996ca1a837", "rental_uris": {"android": "https://dc.lft.to/lastmile_qr_scan", "ios": "https://dc.lft.to/lastmile_qr_scan"}, "name": "3a87c08126e29ea17190c9996ca1a837", "is_reserved": 0}, {"is_disabled": 0, "fusion_lon": 0.0, "fusion_lat": 0.0, "lat": 38.8920855, "type": "electric_bike", "lon": -76.98559266666666, "bike_id": "ec6b26937040cd102eff424e1b82a584", "rental_uris": {"android": "https://dc.lft.to/lastmile_qr_scan", "ios": "https://dc.lft.to/lastmile_qr_scan"}, "name": "ec6b26937040cd102eff424e1b82a584", "is_reserved": 0}, {"is_disabled": 0, "fusion_lon": 0.0, "fusion_lat": 0.0, "lat": 38.917060166666666, "type": "electric_bike", "lon": -77.2211675, "bike_id": "ac7deaaf5b86cbc2d03bc195c263408d", "rental_uris": {"android": "https://dc.lft.to/lastmile_qr_scan", "ios": "https://dc.lft.to/lastmile_qr_scan"}, "name": "ac7deaaf5b86cbc2d03bc195c263408d", "is_reserved": 0}, {"is_disabled": 0, "fusion_lon": 0.0, "fusion_lat": 0.0, "lat": 39.038814333333335, "type": "electric_bike", "lon": -77.10911516666667, "bike_id": "7d1dfac624831ddf979e3c4504c3e69f", "rental_uris": {"android": "https://dc.lft.to/lastmile_qr_scan", "ios": "https://dc.lft.to/lastmile_qr_scan"}, "name": "7d1dfac624831ddf979e3c4504c3e69f", "is_reserved": 0}, {"is_disabled": 0, "fusion_lon": 0.0, "fusion_lat": 0.0, "lat": 38.93666416666667, "type": "electric_bike", "lon": -76.95206466666667, "bike_id": "fbaf228447cb483caeefdea01715c21f", "rental_uris": {"android": "https://dc.lft.to/lastmile_qr_scan", "ios": "https://dc.lft.to/lastmile_qr_scan"}, "name": "fbaf228447cb483caeefdea01715c21f", "is_reserved": 0}, {"is_disabled": 0, "fusion_lon": 0.0, "fusion_lat": 0.0, "lat": 38.897308833333334, "type": "electric_scooter", "lon": -77.00371583333333, "bike_id": "54f8dd75342cefdbfd8d04942410011d", "rental_uris": {"android": "https://dc.lft.to/lastmile_qr_scan", "ios": "https://dc.lft.to/lastmile_qr_scan"}, "name": "54f8dd75342cefdbfd8d04942410011d", "is_reserved": 0}, {"is_disabled": 0, "fusion_lon": 0.0, "fusion_lat": 0.0, "lat": 38.93860883333333, "type": "electric_scooter", "lon": -77.02650833333334, "bike_id": "4a36a3bcec7a8fd3ac76eb2cc1a14e42", "rental_uris": {"android": "https://dc.lft.to/lastmile_qr_scan", "ios": "https://dc.lft.to/lastmile_qr_scan"}, "name": "4a36a3bcec7a8fd3ac76eb2cc1a14e42", "is_reserved": 0}, {"is_disabled": 0, "fusion_lon": 0.0, "fusion_lat": 0.0, "lat": 38.90523433333333, "type": "electric_scooter", "lon": -77.05395316666667, "bike_id": "bbf55bb275cbec512202947bb1f67451", "rental_uris": {"android": "https://dc.lft.to/lastmile_qr_scan", "ios": "https://dc.lft.to/lastmile_qr_scan"}, "name": "bbf55bb275cbec512202947bb1f67451", "is_reserved": 0}, {"is_disabled": 0, "fusion_lon": 0.0, "fusion_lat": 0.0, "lat": 38.9118675, "type": "electric_scooter", "lon": -77.03917883333334, "bike_id": "561a73d5f6866dca9e3ca42f41224359", "rental_uris": {"android": "https://dc.lft.to/lastmile_qr_scan", "ios": "https://dc.lft.to/lastmile_qr_scan"}, "name": "561a73d5f6866dca9e3ca42f41224359", "is_reserved": 0}, {"is_disabled": 0, "fusion_lon": 0.0, "fusion_lat": 0.0, "lat": 38.910538333333335, "type": "electric_scooter", "lon": -77.04175116666667, "bike_id": "8ab65b72c5f0f266f15422913d0343f1", "rental_uris": {"android": "https://dc.lft.to/lastmile_qr_scan", "ios": "https://dc.lft.to/lastmile_qr_scan"}, "name": "8ab65b72c5f0f266f15422913d0343f1", "is_reserved": 0}, {"is_disabled": 0, "fusion_lon": 0.0, "fusion_lat": 0.0, "lat": 38.881206166666665, "type": "electric_scooter", "lon": -76.99600083333333, "bike_id": "7724fa77e1126b1d2ecb37565996c6b4", "rental_uris": {"android": "https://dc.lft.to/lastmile_qr_scan", "ios": "https://dc.lft.to/lastmile_qr_scan"}, "name": "7724fa77e1126b1d2ecb37565996c6b4", "is_reserved": 0}, {"is_disabled": 0, "fusion_lon": 0.0, "fusion_lat": 0.0, "lat": 38.911968, "type": "electric_scooter", "lon": -77.04170433333333, "bike_id": "04bfc371f68b85969fd63f4afa561cbe", "rental_uris": {"android": "https://dc.lft.to/lastmile_qr_scan", "ios": "https://dc.lft.to/lastmile_qr_scan"}, "name": "04bfc371f68b85969fd63f4afa561cbe", "is_reserved": 0}, {"is_disabled": 0, "fusion_lon": 0.0, "fusion_lat": 0.0, "lat": 38.865053333333336, "type": "electric_scooter", "lon": -76.9900615, "bike_id": "ec0b79a5f7b265a0942e5277140973c8", "rental_uris": {"android": "https://dc.lft.to/lastmile_qr_scan", "ios": "https://dc.lft.to/lastmile_qr_scan"}, "name": "ec0b79a5f7b265a0942e5277140973c8", "is_reserved": 0}, {"is_disabled": 0, "fusion_lon": 0.0, "fusion_lat": 0.0, "lat": 38.9314265, "type": "electric_scooter", "lon": -77.04064533333333, "bike_id": "3b0e84c3d885f84df8ecbf378fe55a4a", "rental_uris": {"android": "https://dc.lft.to/lastmile_qr_scan", "ios": "https://dc.lft.to/lastmile_qr_scan"}, "name": "3b0e84c3d885f84df8ecbf378fe55a4a", "is_reserved": 0}, {"is_disabled": 0, "fusion_lon": 0.0, "fusion_lat": 0.0, "lat": 38.86536233333333, "type": "electric_scooter", "lon": -76.98706366666667, "bike_id": "df13b27f20c334f85e6072e9d87d1a08", "rental_uris": {"android": "https://dc.lft.to/lastmile_qr_scan", "ios": "https://dc.lft.to/lastmile_qr_scan"}, "name": "df13b27f20c334f85e6072e9d87d1a08", "is_reserved": 0}, {"is_disabled": 0, "fusion_lon": 0.0, "fusion_lat": 0.0, "lat": 38.893941166666664, "type": "electric_scooter", "lon": -76.94994483333333, "bike_id": "07f57f6b0483571c0e8e0ab2bc6f4cef", "rental_uris": {"android": "https://dc.lft.to/lastmile_qr_scan", "ios": "https://dc.lft.to/lastmile_qr_scan"}, "name": "07f57f6b0483571c0e8e0ab2bc6f4cef", "is_reserved": 0}, {"is_disabled": 0, "fusion_lon": 0.0, "fusion_lat": 0.0, "lat": 38.920645, "type": "electric_scooter", "lon": -77.0469825, "bike_id": "5cb5677ca281d930976d631697d0af2e", "rental_uris": {"android": "https://dc.lft.to/lastmile_qr_scan", "ios": "https://dc.lft.to/lastmile_qr_scan"}, "name": "5cb5677ca281d930976d631697d0af2e", "is_reserved": 0}, {"is_disabled": 0, "fusion_lon": 0.0, "fusion_lat": 0.0, "lat": 39.088434166666666, "type": "electric_bike", "lon": -77.178023, "bike_id": "815de1796034375f61731a0e8626ee8f", "rental_uris": {"android": "https://dc.lft.to/lastmile_qr_scan", "ios": "https://dc.lft.to/lastmile_qr_scan"}, "name": "815de1796034375f61731a0e8626ee8f", "is_reserved": 0}, {"is_disabled": 0, "fusion_lon": 0.0, "fusion_lat": 0.0, "lat": 38.914193, "type": "electric_scooter", "lon": -77.03907383333333, "bike_id": "f96543be04fbcb76665dc803009134db", "rental_uris": {"android": "https://dc.lft.to/lastmile_qr_scan", "ios": "https://dc.lft.to/lastmile_qr_scan"}, "name": "f96543be04fbcb76665dc803009134db", "is_reserved": 0}, {"is_disabled": 0, "fusion_lon": 0.0, "fusion_lat": 0.0, "lat": 38.90554866666667, "type": "electric_scooter", "lon": -77.04887766666667, "bike_id": "0fdb56647531dce76b976094d7fa8183", "rental_uris": {"android": "https://dc.lft.to/lastmile_qr_scan", "ios": "https://dc.lft.to/lastmile_qr_scan"}, "name": "0fdb56647531dce76b976094d7fa8183", "is_reserved": 0}, {"is_disabled": 0, "fusion_lon": 0.0, "fusion_lat": 0.0, "lat": 38.91479566666667, "type": "electric_scooter", "lon": -77.03471533333334, "bike_id": "4c1c1adce4d637530d9f822ebc3f947f", "rental_uris": {"android": "https://dc.lft.to/lastmile_qr_scan", "ios": "https://dc.lft.to/lastmile_qr_scan"}, "name": "4c1c1adce4d637530d9f822ebc3f947f", "is_reserved": 0}, {"is_disabled": 0, "fusion_lon": 0.0, "fusion_lat": 0.0, "lat": 38.879092, "type": "electric_scooter", "lon": -77.02196166666667, "bike_id": "da3241b99706543a970a72297d457de4", "rental_uris": {"android": "https://dc.lft.to/lastmile_qr_scan", "ios": "https://dc.lft.to/lastmile_qr_scan"}, "name": "da3241b99706543a970a72297d457de4", "is_reserved": 0}, {"is_disabled": 0, "fusion_lon": 0.0, "fusion_lat": 0.0, "lat": 38.884079666666665, "type": "electric_scooter", "lon": -76.954191, "bike_id": "680fcc5fed332bfda72703fc2ee3d699", "rental_uris": {"android": "https://dc.lft.to/lastmile_qr_scan", "ios": "https://dc.lft.to/lastmile_qr_scan"}, "name": "680fcc5fed332bfda72703fc2ee3d699", "is_reserved": 0}, {"is_disabled": 0, "fusion_lon": 0.0, "fusion_lat": 0.0, "lat": 38.866712666666665, "type": "electric_scooter", "lon": -76.98892883333333, "bike_id": "7a364329394cb002505cf61b1fb5fab8", "rental_uris": {"android": "https://dc.lft.to/lastmile_qr_scan", "ios": "https://dc.lft.to/lastmile_qr_scan"}, "name": "7a364329394cb002505cf61b1fb5fab8", "is_reserved": 0}, {"is_disabled": 0, "fusion_lon": 0.0, "fusion_lat": 0.0, "lat": 38.898259833333334, "type": "electric_scooter", "lon": -77.03348333333334, "bike_id": "dd253a1ba61e8cc06399bb3406566176", "rental_uris": {"android": "https://dc.lft.to/lastmile_qr_scan", "ios": "https://dc.lft.to/lastmile_qr_scan"}, "name": "dd253a1ba61e8cc06399bb3406566176", "is_reserved": 0}, {"is_disabled": 0, "fusion_lon": 0.0, "fusion_lat": 0.0, "lat": 38.917967166666664, "type": "electric_scooter", "lon": -77.03461283333333, "bike_id": "acc5c03aa3214cce421e27439ed1f00c", "rental_uris": {"android": "https://dc.lft.to/lastmile_qr_scan", "ios": "https://dc.lft.to/lastmile_qr_scan"}, "name": "acc5c03aa3214cce421e27439ed1f00c", "is_reserved": 0}, {"is_disabled": 0, "fusion_lon": 0.0, "fusion_lat": 0.0, "lat": 38.9133765, "type": "electric_scooter", "lon": -77.03267533333333, "bike_id": "404a2b608635d5ada17488fe78aa0e65", "rental_uris": {"android": "https://dc.lft.to/lastmile_qr_scan", "ios": "https://dc.lft.to/lastmile_qr_scan"}, "name": "404a2b608635d5ada17488fe78aa0e65", "is_reserved": 0}, {"is_disabled": 0, "fusion_lon": 0.0, "fusion_lat": 0.0, "lat": 38.8920535, "type": "electric_scooter", "lon": -76.98806083333334, "bike_id": "b94f98999cfdaa9e778b26ac9782e243", "rental_uris": {"android": "https://dc.lft.to/lastmile_qr_scan", "ios": "https://dc.lft.to/lastmile_qr_scan"}, "name": "b94f98999cfdaa9e778b26ac9782e243", "is_reserved": 0}, {"is_disabled": 0, "fusion_lon": 0.0, "fusion_lat": 0.0, "lat": 38.931901, "type": "electric_scooter", "lon": -77.02838366666667, "bike_id": "9abe418fe21ff32dc15249081937438f", "rental_uris": {"android": "https://dc.lft.to/lastmile_qr_scan", "ios": "https://dc.lft.to/lastmile_qr_scan"}, "name": "9abe418fe21ff32dc15249081937438f", "is_reserved": 0}, {"is_disabled": 0, "fusion_lon": 0.0, "fusion_lat": 0.0, "lat": 38.8650435, "type": "electric_scooter", "lon": -76.99006933333334, "bike_id": "8a5586f9d4fb080cb2f1ed9d7077c4c8", "rental_uris": {"android": "https://dc.lft.to/lastmile_qr_scan", "ios": "https://dc.lft.to/lastmile_qr_scan"}, "name": "8a5586f9d4fb080cb2f1ed9d7077c4c8", "is_reserved": 0}, {"is_disabled": 0, "fusion_lon": 0.0, "fusion_lat": 0.0, "lat": 38.90248733333333, "type": "electric_scooter", "lon": -77.030968, "bike_id": "a364bbf365bb544d341020e8a662b127", "rental_uris": {"android": "https://dc.lft.to/lastmile_qr_scan", "ios": "https://dc.lft.to/lastmile_qr_scan"}, "name": "a364bbf365bb544d341020e8a662b127", "is_reserved": 0}, {"is_disabled": 0, "fusion_lon": 0.0, "fusion_lat": 0.0, "lat": 38.91705116666667, "type": "electric_scooter", "lon": -77.02614233333334, "bike_id": "8633d3cc3abab4deef1e651e002bb984", "rental_uris": {"android": "https://dc.lft.to/lastmile_qr_scan", "ios": "https://dc.lft.to/lastmile_qr_scan"}, "name": "8633d3cc3abab4deef1e651e002bb984", "is_reserved": 0}, {"is_disabled": 0, "fusion_lon": 0.0, "fusion_lat": 0.0, "lat": 38.918026833333336, "type": "electric_scooter", "lon": -77.03181866666667, "bike_id": "177a724bbf51f6270f05e29c20ac4c2c", "rental_uris": {"android": "https://dc.lft.to/lastmile_qr_scan", "ios": "https://dc.lft.to/lastmile_qr_scan"}, "name": "177a724bbf51f6270f05e29c20ac4c2c", "is_reserved": 0}, {"is_disabled": 0, "fusion_lon": 0.0, "fusion_lat": 0.0, "lat": 38.905874, "type": "electric_scooter", "lon": -77.02400633333333, "bike_id": "d69ff3073dba9022199afe52fc2d3fbf", "rental_uris": {"android": "https://dc.lft.to/lastmile_qr_scan", "ios": "https://dc.lft.to/lastmile_qr_scan"}, "name": "d69ff3073dba9022199afe52fc2d3fbf", "is_reserved": 0}, {"is_disabled": 0, "fusion_lon": 0.0, "fusion_lat": 0.0, "lat": 38.937103, "type": "electric_scooter", "lon": -77.03267233333334, "bike_id": "1fd0c1c7861360a5e12abb0351303c3e", "rental_uris": {"android": "https://dc.lft.to/lastmile_qr_scan", "ios": "https://dc.lft.to/lastmile_qr_scan"}, "name": "1fd0c1c7861360a5e12abb0351303c3e", "is_reserved": 0}, {"is_disabled": 0, "fusion_lon": 0.0, "fusion_lat": 0.0, "lat": 38.86709233333333, "type": "electric_scooter", "lon": -76.98731883333333, "bike_id": "dc54d39983c12ea7d1a5088cd7182dfa", "rental_uris": {"android": "https://dc.lft.to/lastmile_qr_scan", "ios": "https://dc.lft.to/lastmile_qr_scan"}, "name": "dc54d39983c12ea7d1a5088cd7182dfa", "is_reserved": 0}, {"is_disabled": 0, "fusion_lon": 0.0, "fusion_lat": 0.0, "lat": 38.91685966666667, "type": "electric_scooter", "lon": -77.04142433333334, "bike_id": "3aef0fe7ddc36717f6f6c30167846ed1", "rental_uris": {"android": "https://dc.lft.to/lastmile_qr_scan", "ios": "https://dc.lft.to/lastmile_qr_scan"}, "name": "3aef0fe7ddc36717f6f6c30167846ed1", "is_reserved": 0}, {"is_disabled": 0, "fusion_lon": 0.0, "fusion_lat": 0.0, "lat": 38.898847833333335, "type": "electric_scooter", "lon": -77.04178466666667, "bike_id": "d2c9870840c3d998885c80257264ea64", "rental_uris": {"android": "https://dc.lft.to/lastmile_qr_scan", "ios": "https://dc.lft.to/lastmile_qr_scan"}, "name": "d2c9870840c3d998885c80257264ea64", "is_reserved": 0}, {"is_disabled": 0, "fusion_lon": 0.0, "fusion_lat": 0.0, "lat": 39.003751666666666, "type": "electric_bike", "lon": -77.0129115, "bike_id": "33ef0f57a05fb766b3e463d1df445a37", "rental_uris": {"android": "https://dc.lft.to/lastmile_qr_scan", "ios": "https://dc.lft.to/lastmile_qr_scan"}, "name": "33ef0f57a05fb766b3e463d1df445a37", "is_reserved": 0}, {"is_disabled": 0, "fusion_lon": 0.0, "fusion_lat": 0.0, "lat": 38.93931533333333, "type": "electric_scooter", "lon": -77.02476366666667, "bike_id": "9fa9a381b3e50b1de7f3ee23efe354b3", "rental_uris": {"android": "https://dc.lft.to/lastmile_qr_scan", "ios": "https://dc.lft.to/lastmile_qr_scan"}, "name": "9fa9a381b3e50b1de7f3ee23efe354b3", "is_reserved": 0}, {"is_disabled": 0, "fusion_lon": 0.0, "fusion_lat": 0.0, "lat": 38.9245495, "type": "electric_scooter", "lon": -76.9990215, "bike_id": "bf481bb6c8c8e31461da9df0f4449af2", "rental_uris": {"android": "https://dc.lft.to/lastmile_qr_scan", "ios": "https://dc.lft.to/lastmile_qr_scan"}, "name": "bf481bb6c8c8e31461da9df0f4449af2", "is_reserved": 0}, {"is_disabled": 0, "fusion_lon": 0.0, "fusion_lat": 0.0, "lat": 38.90148466666667, "type": "electric_scooter", "lon": -77.01505533333334, "bike_id": "083fcf3a3aeb92caff6aee7d9e65068b", "rental_uris": {"android": "https://dc.lft.to/lastmile_qr_scan", "ios": "https://dc.lft.to/lastmile_qr_scan"}, "name": "083fcf3a3aeb92caff6aee7d9e65068b", "is_reserved": 0}, {"is_disabled": 0, "fusion_lon": 0.0, "fusion_lat": 0.0, "lat": 38.96557983333334, "type": "electric_bike", "lon": -77.02304766666667, "bike_id": "4c0d795314675789384fda18e6d2bac5", "rental_uris": {"android": "https://dc.lft.to/lastmile_qr_scan", "ios": "https://dc.lft.to/lastmile_qr_scan"}, "name": "4c0d795314675789384fda18e6d2bac5", "is_reserved": 0}, {"is_disabled": 0, "fusion_lon": 0.0, "fusion_lat": 0.0, "lat": 38.898216, "type": "electric_scooter", "lon": -77.00210916666667, "bike_id": "769a816c8ac05f879abb21a733f34e6a", "rental_uris": {"android": "https://dc.lft.to/lastmile_qr_scan", "ios": "https://dc.lft.to/lastmile_qr_scan"}, "name": "769a816c8ac05f879abb21a733f34e6a", "is_reserved": 0}, {"is_disabled": 0, "fusion_lon": 0.0, "fusion_lat": 0.0, "lat": 38.912672666666666, "type": "electric_scooter", "lon": -77.022204, "bike_id": "eb47b28b591d0af323b15a909449c6b7", "rental_uris": {"android": "https://dc.lft.to/lastmile_qr_scan", "ios": "https://dc.lft.to/lastmile_qr_scan"}, "name": "eb47b28b591d0af323b15a909449c6b7", "is_reserved": 0}, {"is_disabled": 0, "fusion_lon": 0.0, "fusion_lat": 0.0, "lat": 38.83811633333333, "type": "electric_scooter", "lon": -77.00432883333333, "bike_id": "1d87fd0fa99f17e441cd7bd6d2ade29c", "rental_uris": {"android": "https://dc.lft.to/lastmile_qr_scan", "ios": "https://dc.lft.to/lastmile_qr_scan"}, "name": "1d87fd0fa99f17e441cd7bd6d2ade29c", "is_reserved": 0}, {"is_disabled": 0, "fusion_lon": 0.0, "fusion_lat": 0.0, "lat": 38.894239166666665, "type": "electric_scooter", "lon": -76.9121995, "bike_id": "cf7b1ed7e0d8202714f050396dfb1ba0", "rental_uris": {"android": "https://dc.lft.to/lastmile_qr_scan", "ios": "https://dc.lft.to/lastmile_qr_scan"}, "name": "cf7b1ed7e0d8202714f050396dfb1ba0", "is_reserved": 0}, {"is_disabled": 0, "fusion_lon": 0.0, "fusion_lat": 0.0, "lat": 38.9370185, "type": "electric_scooter", "lon": -77.061052, "bike_id": "1b537de562db10f8533eed757d38dfe4", "rental_uris": {"android": "https://dc.lft.to/lastmile_qr_scan", "ios": "https://dc.lft.to/lastmile_qr_scan"}, "name": "1b537de562db10f8533eed757d38dfe4", "is_reserved": 0}, {"is_disabled": 0, "fusion_lon": 0.0, "fusion_lat": 0.0, "lat": 38.92074983333333, "type": "electric_scooter", "lon": -77.023878, "bike_id": "78eae4c8be72969aedbf9374c6325637", "rental_uris": {"android": "https://dc.lft.to/lastmile_qr_scan", "ios": "https://dc.lft.to/lastmile_qr_scan"}, "name": "78eae4c8be72969aedbf9374c6325637", "is_reserved": 0}, {"is_disabled": 0, "fusion_lon": 0.0, "fusion_lat": 0.0, "lat": 38.92070966666667, "type": "electric_scooter", "lon": -77.02409666666667, "bike_id": "b2eb3c82909879e95dd32e086224831a", "rental_uris": {"android": "https://dc.lft.to/lastmile_qr_scan", "ios": "https://dc.lft.to/lastmile_qr_scan"}, "name": "b2eb3c82909879e95dd32e086224831a", "is_reserved": 0}, {"is_disabled": 0, "fusion_lon": 0.0, "fusion_lat": 0.0, "lat": 38.89546416666666, "type": "electric_scooter", "lon": -77.01106533333333, "bike_id": "3004cffb8d2afd3a73f17544c7f41690", "rental_uris": {"android": "https://dc.lft.to/lastmile_qr_scan", "ios": "https://dc.lft.to/lastmile_qr_scan"}, "name": "3004cffb8d2afd3a73f17544c7f41690", "is_reserved": 0}, {"is_disabled": 0, "fusion_lon": 0.0, "fusion_lat": 0.0, "lat": 38.937192333333336, "type": "electric_scooter", "lon": -77.02402766666667, "bike_id": "3955a694b356ddc85bf96aae3df13902", "rental_uris": {"android": "https://dc.lft.to/lastmile_qr_scan", "ios": "https://dc.lft.to/lastmile_qr_scan"}, "name": "3955a694b356ddc85bf96aae3df13902", "is_reserved": 0}, {"is_disabled": 0, "fusion_lon": 0.0, "fusion_lat": 0.0, "lat": 38.89221283333333, "type": "electric_scooter", "lon": -77.0436625, "bike_id": "f2e61f205d908a7624bc1b740ae8d323", "rental_uris": {"android": "https://dc.lft.to/lastmile_qr_scan", "ios": "https://dc.lft.to/lastmile_qr_scan"}, "name": "f2e61f205d908a7624bc1b740ae8d323", "is_reserved": 0}, {"is_disabled": 0, "fusion_lon": 0.0, "fusion_lat": 0.0, "lat": 38.904995, "type": "electric_scooter", "lon": -77.02946783333333, "bike_id": "05443db62bcac3f218334463f744d026", "rental_uris": {"android": "https://dc.lft.to/lastmile_qr_scan", "ios": "https://dc.lft.to/lastmile_qr_scan"}, "name": "05443db62bcac3f218334463f744d026", "is_reserved": 0}, {"is_disabled": 0, "fusion_lon": 0.0, "fusion_lat": 0.0, "lat": 38.911966166666666, "type": "electric_scooter", "lon": -77.04171866666667, "bike_id": "69158aac46477dea0b337edb4334ca54", "rental_uris": {"android": "https://dc.lft.to/lastmile_qr_scan", "ios": "https://dc.lft.to/lastmile_qr_scan"}, "name": "69158aac46477dea0b337edb4334ca54", "is_reserved": 0}, {"is_disabled": 0, "fusion_lon": 0.0, "fusion_lat": 0.0, "lat": 38.917085166666666, "type": "electric_scooter", "lon": -77.01075666666667, "bike_id": "040c4f3583a42b0e4355159da739f202", "rental_uris": {"android": "https://dc.lft.to/lastmile_qr_scan", "ios": "https://dc.lft.to/lastmile_qr_scan"}, "name": "040c4f3583a42b0e4355159da739f202", "is_reserved": 0}, {"is_disabled": 0, "fusion_lon": 0.0, "fusion_lat": 0.0, "lat": 38.914114833333336, "type": "electric_scooter", "lon": -77.03230483333333, "bike_id": "3b6278d3d5cea2c91adc6007cc79beab", "rental_uris": {"android": "https://dc.lft.to/lastmile_qr_scan", "ios": "https://dc.lft.to/lastmile_qr_scan"}, "name": "3b6278d3d5cea2c91adc6007cc79beab", "is_reserved": 0}, {"is_disabled": 0, "fusion_lon": 0.0, "fusion_lat": 0.0, "lat": 38.896042333333334, "type": "electric_scooter", "lon": -77.00921916666667, "bike_id": "d5245c4bf83a22873275ae66efcdedfd", "rental_uris": {"android": "https://dc.lft.to/lastmile_qr_scan", "ios": "https://dc.lft.to/lastmile_qr_scan"}, "name": "d5245c4bf83a22873275ae66efcdedfd", "is_reserved": 0}, {"is_disabled": 0, "fusion_lon": 0.0, "fusion_lat": 0.0, "lat": 38.925922, "type": "electric_bike", "lon": -76.889128, "bike_id": "8f51041887c619b2d6a11bd0a05c00ce", "rental_uris": {"android": "https://dc.lft.to/lastmile_qr_scan", "ios": "https://dc.lft.to/lastmile_qr_scan"}, "name": "8f51041887c619b2d6a11bd0a05c00ce", "is_reserved": 0}, {"is_disabled": 0, "fusion_lon": 0.0, "fusion_lat": 0.0, "lat": 38.90547266666667, "type": "electric_scooter", "lon": -77.04650183333334, "bike_id": "b24222500b738496d3fa65e823e0821c", "rental_uris": {"android": "https://dc.lft.to/lastmile_qr_scan", "ios": "https://dc.lft.to/lastmile_qr_scan"}, "name": "b24222500b738496d3fa65e823e0821c", "is_reserved": 0}, {"is_disabled": 0, "fusion_lon": 0.0, "fusion_lat": 0.0, "lat": 38.954137833333334, "type": "electric_scooter", "lon": -77.02843233333333, "bike_id": "c0e87a4f37afd4001be8d201a8426ecf", "rental_uris": {"android": "https://dc.lft.to/lastmile_qr_scan", "ios": "https://dc.lft.to/lastmile_qr_scan"}, "name": "c0e87a4f37afd4001be8d201a8426ecf", "is_reserved": 0}, {"is_disabled": 0, "fusion_lon": 0.0, "fusion_lat": 0.0, "lat": 38.9767445, "type": "electric_bike", "lon": -76.97169483333333, "bike_id": "8c4463f79fc434aa35a7b3c90bf136cb", "rental_uris": {"android": "https://dc.lft.to/lastmile_qr_scan", "ios": "https://dc.lft.to/lastmile_qr_scan"}, "name": "8c4463f79fc434aa35a7b3c90bf136cb", "is_reserved": 0}, {"is_disabled": 0, "fusion_lon": 0.0, "fusion_lat": 0.0, "lat": 38.91867366666666, "type": "electric_scooter", "lon": -77.04488133333334, "bike_id": "1d14dfa432add2d681f5b8b2b604a4ea", "rental_uris": {"android": "https://dc.lft.to/lastmile_qr_scan", "ios": "https://dc.lft.to/lastmile_qr_scan"}, "name": "1d14dfa432add2d681f5b8b2b604a4ea", "is_reserved": 0}, {"is_disabled": 0, "fusion_lon": 0.0, "fusion_lat": 0.0, "lat": 38.892353, "type": "electric_bike", "lon": -76.95220483333334, "bike_id": "f8f176d10ba146d8f20ffa4181cdeb80", "rental_uris": {"android": "https://dc.lft.to/lastmile_qr_scan", "ios": "https://dc.lft.to/lastmile_qr_scan"}, "name": "f8f176d10ba146d8f20ffa4181cdeb80", "is_reserved": 0}, {"is_disabled": 0, "fusion_lon": 0.0, "fusion_lat": 0.0, "lat": 38.914079666666666, "type": "electric_scooter", "lon": -77.04212266666667, "bike_id": "968a6d2f8519a9b22db57b2f97fbc27c", "rental_uris": {"android": "https://dc.lft.to/lastmile_qr_scan", "ios": "https://dc.lft.to/lastmile_qr_scan"}, "name": "968a6d2f8519a9b22db57b2f97fbc27c", "is_reserved": 0}, {"is_disabled": 0, "fusion_lon": 0.0, "fusion_lat": 0.0, "lat": 38.91401966666667, "type": "electric_scooter", "lon": -77.03760866666667, "bike_id": "cc8cffac495afa06e133b722af787a1f", "rental_uris": {"android": "https://dc.lft.to/lastmile_qr_scan", "ios": "https://dc.lft.to/lastmile_qr_scan"}, "name": "cc8cffac495afa06e133b722af787a1f", "is_reserved": 0}, {"is_disabled": 0, "fusion_lon": 0.0, "fusion_lat": 0.0, "lat": 38.92072233333333, "type": "electric_scooter", "lon": -77.0240975, "bike_id": "0de3d22a7761b7e5ab5680dfa1ab0b37", "rental_uris": {"android": "https://dc.lft.to/lastmile_qr_scan", "ios": "https://dc.lft.to/lastmile_qr_scan"}, "name": "0de3d22a7761b7e5ab5680dfa1ab0b37", "is_reserved": 0}, {"is_disabled": 0, "fusion_lon": 0.0, "fusion_lat": 0.0, "lat": 38.84511033333333, "type": "electric_bike", "lon": -76.97213633333334, "bike_id": "707df52bd1a4c12e832de58b09f21dd2", "rental_uris": {"android": "https://dc.lft.to/lastmile_qr_scan", "ios": "https://dc.lft.to/lastmile_qr_scan"}, "name": "707df52bd1a4c12e832de58b09f21dd2", "is_reserved": 0}, {"is_disabled": 0, "fusion_lon": 0.0, "fusion_lat": 0.0, "lat": 38.90906566666666, "type": "electric_scooter", "lon": -77.02717866666667, "bike_id": "eddb5b999c99c0ef778b166472f899df", "rental_uris": {"android": "https://dc.lft.to/lastmile_qr_scan", "ios": "https://dc.lft.to/lastmile_qr_scan"}, "name": "eddb5b999c99c0ef778b166472f899df", "is_reserved": 0}, {"is_disabled": 0, "fusion_lon": 0.0, "fusion_lat": 0.0, "lat": 38.8973115, "type": "electric_scooter", "lon": -77.04672233333334, "bike_id": "6863e700a1078613961e072a64f2499a", "rental_uris": {"android": "https://dc.lft.to/lastmile_qr_scan", "ios": "https://dc.lft.to/lastmile_qr_scan"}, "name": "6863e700a1078613961e072a64f2499a", "is_reserved": 0}, {"is_disabled": 0, "fusion_lon": 0.0, "fusion_lat": 0.0, "lat": 38.90871333333333, "type": "electric_scooter", "lon": -77.02692516666667, "bike_id": "7173a3d5f06bf85ed685b9ae34c26177", "rental_uris": {"android": "https://dc.lft.to/lastmile_qr_scan", "ios": "https://dc.lft.to/lastmile_qr_scan"}, "name": "7173a3d5f06bf85ed685b9ae34c26177", "is_reserved": 0}, {"is_disabled": 0, "fusion_lon": 0.0, "fusion_lat": 0.0, "lat": 38.8991685, "type": "electric_scooter", "lon": -77.0390935, "bike_id": "e5a65a3e949988fe4071c42b801b55e7", "rental_uris": {"android": "https://dc.lft.to/lastmile_qr_scan", "ios": "https://dc.lft.to/lastmile_qr_scan"}, "name": "e5a65a3e949988fe4071c42b801b55e7", "is_reserved": 0}, {"is_disabled": 0, "fusion_lon": 0.0, "fusion_lat": 0.0, "lat": 38.99882233333334, "type": "electric_bike", "lon": -77.02873216666667, "bike_id": "0c877f3463101f72b73ac3fc5ec1cbca", "rental_uris": {"android": "https://dc.lft.to/lastmile_qr_scan", "ios": "https://dc.lft.to/lastmile_qr_scan"}, "name": "0c877f3463101f72b73ac3fc5ec1cbca", "is_reserved": 0}, {"is_disabled": 0, "fusion_lon": 0.0, "fusion_lat": 0.0, "lat": 38.95124216666667, "type": "electric_scooter", "lon": -77.0139905, "bike_id": "bec51a0c0b14e565ad6d81aad6bc8832", "rental_uris": {"android": "https://dc.lft.to/lastmile_qr_scan", "ios": "https://dc.lft.to/lastmile_qr_scan"}, "name": "bec51a0c0b14e565ad6d81aad6bc8832", "is_reserved": 0}, {"is_disabled": 0, "fusion_lon": 0.0, "fusion_lat": 0.0, "lat": 38.926732333333334, "type": "electric_scooter", "lon": -77.0321715, "bike_id": "5ee27f047e38c77ef22e8d288f4d5699", "rental_uris": {"android": "https://dc.lft.to/lastmile_qr_scan", "ios": "https://dc.lft.to/lastmile_qr_scan"}, "name": "5ee27f047e38c77ef22e8d288f4d5699", "is_reserved": 0}, {"is_disabled": 0, "fusion_lon": 0.0, "fusion_lat": 0.0, "lat": 38.90564783333333, "type": "electric_scooter", "lon": -77.00578783333333, "bike_id": "3ee242de1b6c5c3f0fd8cb5ae8f1b79b", "rental_uris": {"android": "https://dc.lft.to/lastmile_qr_scan", "ios": "https://dc.lft.to/lastmile_qr_scan"}, "name": "3ee242de1b6c5c3f0fd8cb5ae8f1b79b", "is_reserved": 0}, {"is_disabled": 0, "fusion_lon": 0.0, "fusion_lat": 0.0, "lat": 38.920731, "type": "electric_scooter", "lon": -77.02388033333334, "bike_id": "c1b8caff58260d714caa726322d16e88", "rental_uris": {"android": "https://dc.lft.to/lastmile_qr_scan", "ios": "https://dc.lft.to/lastmile_qr_scan"}, "name": "c1b8caff58260d714caa726322d16e88", "is_reserved": 0}, {"is_disabled": 0, "fusion_lon": 0.0, "fusion_lat": 0.0, "lat": 38.863592833333335, "type": "electric_scooter", "lon": -76.99065333333333, "bike_id": "fd97196d5a06ecd7c41b5bf8734f805a", "rental_uris": {"android": "https://dc.lft.to/lastmile_qr_scan", "ios": "https://dc.lft.to/lastmile_qr_scan"}, "name": "fd97196d5a06ecd7c41b5bf8734f805a", "is_reserved": 0}, {"is_disabled": 0, "fusion_lon": 0.0, "fusion_lat": 0.0, "lat": 38.9082945, "type": "electric_scooter", "lon": -77.03375383333334, "bike_id": "fa9869038aeea249d9b6f7cc483f8392", "rental_uris": {"android": "https://dc.lft.to/lastmile_qr_scan", "ios": "https://dc.lft.to/lastmile_qr_scan"}, "name": "fa9869038aeea249d9b6f7cc483f8392", "is_reserved": 0}, {"is_disabled": 0, "fusion_lon": 0.0, "fusion_lat": 0.0, "lat": 38.93001566666667, "type": "electric_scooter", "lon": -77.07840866666666, "bike_id": "c3a7a122e6bb99399ae9e2374edc72bd", "rental_uris": {"android": "https://dc.lft.to/lastmile_qr_scan", "ios": "https://dc.lft.to/lastmile_qr_scan"}, "name": "c3a7a122e6bb99399ae9e2374edc72bd", "is_reserved": 0}, {"is_disabled": 0, "fusion_lon": 0.0, "fusion_lat": 0.0, "lat": 38.937154166666666, "type": "electric_scooter", "lon": -77.032655, "bike_id": "d8043473636801e8c1b2ac5f425c4041", "rental_uris": {"android": "https://dc.lft.to/lastmile_qr_scan", "ios": "https://dc.lft.to/lastmile_qr_scan"}, "name": "d8043473636801e8c1b2ac5f425c4041", "is_reserved": 0}, {"is_disabled": 0, "fusion_lon": 0.0, "fusion_lat": 0.0, "lat": 38.920260166666665, "type": "electric_scooter", "lon": -77.0114505, "bike_id": "a0bd4a17890022a0e44f8f01935140ab", "rental_uris": {"android": "https://dc.lft.to/lastmile_qr_scan", "ios": "https://dc.lft.to/lastmile_qr_scan"}, "name": "a0bd4a17890022a0e44f8f01935140ab", "is_reserved": 0}, {"is_disabled": 0, "fusion_lon": 0.0, "fusion_lat": 0.0, "lat": 38.8654625, "type": "electric_bike", "lon": -76.973375, "bike_id": "67411b59fce73b222fa13480ab574ec1", "rental_uris": {"android": "https://dc.lft.to/lastmile_qr_scan", "ios": "https://dc.lft.to/lastmile_qr_scan"}, "name": "67411b59fce73b222fa13480ab574ec1", "is_reserved": 0}, {"is_disabled": 0, "fusion_lon": 0.0, "fusion_lat": 0.0, "lat": 38.90490633333334, "type": "electric_scooter", "lon": -77.02950383333334, "bike_id": "5ccc0f62ff11aa9674ba4982a30d2b73", "rental_uris": {"android": "https://dc.lft.to/lastmile_qr_scan", "ios": "https://dc.lft.to/lastmile_qr_scan"}, "name": "5ccc0f62ff11aa9674ba4982a30d2b73", "is_reserved": 0}, {"is_disabled": 0, "fusion_lon": 0.0, "fusion_lat": 0.0, "lat": 38.935452166666664, "type": "electric_scooter", "lon": -77.058119, "bike_id": "f878cbb0636d23dd59d14be2ddd8dd0c", "rental_uris": {"android": "https://dc.lft.to/lastmile_qr_scan", "ios": "https://dc.lft.to/lastmile_qr_scan"}, "name": "f878cbb0636d23dd59d14be2ddd8dd0c", "is_reserved": 0}, {"is_disabled": 0, "fusion_lon": 0.0, "fusion_lat": 0.0, "lat": 38.91177783333333, "type": "electric_scooter", "lon": -77.02704266666667, "bike_id": "44c085991e5ef634d02e356f65a7cbc4", "rental_uris": {"android": "https://dc.lft.to/lastmile_qr_scan", "ios": "https://dc.lft.to/lastmile_qr_scan"}, "name": "44c085991e5ef634d02e356f65a7cbc4", "is_reserved": 0}, {"is_disabled": 0, "fusion_lon": 0.0, "fusion_lat": 0.0, "lat": 38.9448695, "type": "electric_bike", "lon": -76.986573, "bike_id": "999eac1455660ecdb92f5f8d5b481701", "rental_uris": {"android": "https://dc.lft.to/lastmile_qr_scan", "ios": "https://dc.lft.to/lastmile_qr_scan"}, "name": "999eac1455660ecdb92f5f8d5b481701", "is_reserved": 0}, {"is_disabled": 0, "fusion_lon": 0.0, "fusion_lat": 0.0, "lat": 38.91263416666666, "type": "electric_scooter", "lon": -77.04157583333334, "bike_id": "ddea1995112554dfb320c32da9b1793f", "rental_uris": {"android": "https://dc.lft.to/lastmile_qr_scan", "ios": "https://dc.lft.to/lastmile_qr_scan"}, "name": "ddea1995112554dfb320c32da9b1793f", "is_reserved": 0}, {"is_disabled": 0, "fusion_lon": 0.0, "fusion_lat": 0.0, "lat": 38.91922533333333, "type": "electric_scooter", "lon": -77.02513816666666, "bike_id": "4d9e64a0e592f4bc455f79e2d0b1012a", "rental_uris": {"android": "https://dc.lft.to/lastmile_qr_scan", "ios": "https://dc.lft.to/lastmile_qr_scan"}, "name": "4d9e64a0e592f4bc455f79e2d0b1012a", "is_reserved": 0}, {"is_disabled": 0, "fusion_lon": 0.0, "fusion_lat": 0.0, "lat": 38.90134333333334, "type": "electric_scooter", "lon": -77.027248, "bike_id": "d877d9eb3616424e7ffcf1e48c809ac9", "rental_uris": {"android": "https://dc.lft.to/lastmile_qr_scan", "ios": "https://dc.lft.to/lastmile_qr_scan"}, "name": "d877d9eb3616424e7ffcf1e48c809ac9", "is_reserved": 0}, {"is_disabled": 0, "fusion_lon": 0.0, "fusion_lat": 0.0, "lat": 38.895683166666664, "type": "electric_scooter", "lon": -77.02298966666666, "bike_id": "cc332e2d1a9c4d10e1a6145b9d262fe0", "rental_uris": {"android": "https://dc.lft.to/lastmile_qr_scan", "ios": "https://dc.lft.to/lastmile_qr_scan"}, "name": "cc332e2d1a9c4d10e1a6145b9d262fe0", "is_reserved": 0}, {"is_disabled": 0, "fusion_lon": 0.0, "fusion_lat": 0.0, "lat": 38.894858166666666, "type": "electric_scooter", "lon": -77.02287583333333, "bike_id": "fa90f58cc7c1f49c42f445e5eb381052", "rental_uris": {"android": "https://dc.lft.to/lastmile_qr_scan", "ios": "https://dc.lft.to/lastmile_qr_scan"}, "name": "fa90f58cc7c1f49c42f445e5eb381052", "is_reserved": 0}, {"is_disabled": 0, "fusion_lon": 0.0, "fusion_lat": 0.0, "lat": 38.8765745, "type": "electric_scooter", "lon": -77.00397766666667, "bike_id": "98edfb82970628995cd873361967090e", "rental_uris": {"android": "https://dc.lft.to/lastmile_qr_scan", "ios": "https://dc.lft.to/lastmile_qr_scan"}, "name": "98edfb82970628995cd873361967090e", "is_reserved": 0}, {"is_disabled": 0, "fusion_lon": 0.0, "fusion_lat": 0.0, "lat": 38.916770166666666, "type": "electric_scooter", "lon": -77.02980216666667, "bike_id": "6ba24b7af8dbd7ca31b16185225e0fb1", "rental_uris": {"android": "https://dc.lft.to/lastmile_qr_scan", "ios": "https://dc.lft.to/lastmile_qr_scan"}, "name": "6ba24b7af8dbd7ca31b16185225e0fb1", "is_reserved": 0}, {"is_disabled": 0, "fusion_lon": 0.0, "fusion_lat": 0.0, "lat": 38.9242425, "type": "electric_scooter", "lon": -77.04485833333334, "bike_id": "c1f69cefdcd838d484095cbdbd31a493", "rental_uris": {"android": "https://dc.lft.to/lastmile_qr_scan", "ios": "https://dc.lft.to/lastmile_qr_scan"}, "name": "c1f69cefdcd838d484095cbdbd31a493", "is_reserved": 0}, {"is_disabled": 0, "fusion_lon": 0.0, "fusion_lat": 0.0, "lat": 38.96757983333333, "type": "electric_bike", "lon": -77.09166166666667, "bike_id": "ebe9c68d140719d3a41c01fd338673b8", "rental_uris": {"android": "https://dc.lft.to/lastmile_qr_scan", "ios": "https://dc.lft.to/lastmile_qr_scan"}, "name": "ebe9c68d140719d3a41c01fd338673b8", "is_reserved": 0}, {"is_disabled": 0, "fusion_lon": 0.0, "fusion_lat": 0.0, "lat": 38.912657333333335, "type": "electric_scooter", "lon": -77.04774216666667, "bike_id": "1844b1d069dc2d2994af20c0e855024e", "rental_uris": {"android": "https://dc.lft.to/lastmile_qr_scan", "ios": "https://dc.lft.to/lastmile_qr_scan"}, "name": "1844b1d069dc2d2994af20c0e855024e", "is_reserved": 0}, {"is_disabled": 0, "fusion_lon": 0.0, "fusion_lat": 0.0, "lat": 38.91264733333333, "type": "electric_scooter", "lon": -77.016931, "bike_id": "fe6c24e5a80406d414a6e7a487812bdf", "rental_uris": {"android": "https://dc.lft.to/lastmile_qr_scan", "ios": "https://dc.lft.to/lastmile_qr_scan"}, "name": "fe6c24e5a80406d414a6e7a487812bdf", "is_reserved": 0}, {"is_disabled": 0, "fusion_lon": 0.0, "fusion_lat": 0.0, "lat": 38.92823766666667, "type": "electric_scooter", "lon": -77.02257766666666, "bike_id": "125d8671967d8dc45d30907059ab37cf", "rental_uris": {"android": "https://dc.lft.to/lastmile_qr_scan", "ios": "https://dc.lft.to/lastmile_qr_scan"}, "name": "125d8671967d8dc45d30907059ab37cf", "is_reserved": 0}, {"is_disabled": 0, "fusion_lon": 0.0, "fusion_lat": 0.0, "lat": 38.90137266666667, "type": "electric_scooter", "lon": -77.01197766666667, "bike_id": "1c89ec17fe96f535ad68993248a0153f", "rental_uris": {"android": "https://dc.lft.to/lastmile_qr_scan", "ios": "https://dc.lft.to/lastmile_qr_scan"}, "name": "1c89ec17fe96f535ad68993248a0153f", "is_reserved": 0}, {"is_disabled": 0, "fusion_lon": 0.0, "fusion_lat": 0.0, "lat": 38.895199166666664, "type": "electric_scooter", "lon": -77.02938316666666, "bike_id": "2107674a458dbb920d59a3fcfa8b2ccd", "rental_uris": {"android": "https://dc.lft.to/lastmile_qr_scan", "ios": "https://dc.lft.to/lastmile_qr_scan"}, "name": "2107674a458dbb920d59a3fcfa8b2ccd", "is_reserved": 0}, {"is_disabled": 0, "fusion_lon": 0.0, "fusion_lat": 0.0, "lat": 38.90719883333333, "type": "electric_scooter", "lon": -77.04680883333333, "bike_id": "b3b76d000b39739b5bad8fa7a20fb6b5", "rental_uris": {"android": "https://dc.lft.to/lastmile_qr_scan", "ios": "https://dc.lft.to/lastmile_qr_scan"}, "name": "b3b76d000b39739b5bad8fa7a20fb6b5", "is_reserved": 0}, {"is_disabled": 0, "fusion_lon": 0.0, "fusion_lat": 0.0, "lat": 38.88893816666667, "type": "electric_scooter", "lon": -77.0155255, "bike_id": "cd0e7f9013cc711b8afea59f0deb3897", "rental_uris": {"android": "https://dc.lft.to/lastmile_qr_scan", "ios": "https://dc.lft.to/lastmile_qr_scan"}, "name": "cd0e7f9013cc711b8afea59f0deb3897", "is_reserved": 0}, {"is_disabled": 0, "fusion_lon": 0.0, "fusion_lat": 0.0, "lat": 38.89227283333334, "type": "electric_scooter", "lon": -77.0466165, "bike_id": "5a5a6211102755766b45313f6ca091b6", "rental_uris": {"android": "https://dc.lft.to/lastmile_qr_scan", "ios": "https://dc.lft.to/lastmile_qr_scan"}, "name": "5a5a6211102755766b45313f6ca091b6", "is_reserved": 0}, {"is_disabled": 0, "fusion_lon": 0.0, "fusion_lat": 0.0, "lat": 38.93129883333334, "type": "electric_scooter", "lon": -77.02804466666667, "bike_id": "91815ba8297e94f466e1e0425019f9de", "rental_uris": {"android": "https://dc.lft.to/lastmile_qr_scan", "ios": "https://dc.lft.to/lastmile_qr_scan"}, "name": "91815ba8297e94f466e1e0425019f9de", "is_reserved": 0}, {"is_disabled": 0, "fusion_lon": 0.0, "fusion_lat": 0.0, "lat": 38.998861, "type": "electric_bike", "lon": -77.028659, "bike_id": "c74fb9c1e7d65135b3dcd68f550480b0", "rental_uris": {"android": "https://dc.lft.to/lastmile_qr_scan", "ios": "https://dc.lft.to/lastmile_qr_scan"}, "name": "c74fb9c1e7d65135b3dcd68f550480b0", "is_reserved": 0}, {"is_disabled": 0, "fusion_lon": 0.0, "fusion_lat": 0.0, "lat": 38.858091333333334, "type": "electric_scooter", "lon": -76.986536, "bike_id": "301265a15c489d45cd97d7ae8bb44fa8", "rental_uris": {"android": "https://dc.lft.to/lastmile_qr_scan", "ios": "https://dc.lft.to/lastmile_qr_scan"}, "name": "301265a15c489d45cd97d7ae8bb44fa8", "is_reserved": 0}, {"is_disabled": 0, "fusion_lon": 0.0, "fusion_lat": 0.0, "lat": 38.91474216666667, "type": "electric_scooter", "lon": -77.00347583333334, "bike_id": "d754e118535ac7e1e22eb673fa054e35", "rental_uris": {"android": "https://dc.lft.to/lastmile_qr_scan", "ios": "https://dc.lft.to/lastmile_qr_scan"}, "name": "d754e118535ac7e1e22eb673fa054e35", "is_reserved": 0}, {"is_disabled": 0, "fusion_lon": 0.0, "fusion_lat": 0.0, "lat": 38.921936, "type": "electric_scooter", "lon": -76.9969495, "bike_id": "090d0db08dd83303cd06e9381bac48be", "rental_uris": {"android": "https://dc.lft.to/lastmile_qr_scan", "ios": "https://dc.lft.to/lastmile_qr_scan"}, "name": "090d0db08dd83303cd06e9381bac48be", "is_reserved": 0}, {"is_disabled": 0, "fusion_lon": 0.0, "fusion_lat": 0.0, "lat": 38.9041575, "type": "electric_scooter", "lon": -76.99065983333334, "bike_id": "c707438dad3f3b5736ea8047df3c51e5", "rental_uris": {"android": "https://dc.lft.to/lastmile_qr_scan", "ios": "https://dc.lft.to/lastmile_qr_scan"}, "name": "c707438dad3f3b5736ea8047df3c51e5", "is_reserved": 0}, {"is_disabled": 0, "fusion_lon": 0.0, "fusion_lat": 0.0, "lat": 38.87574166666667, "type": "electric_scooter", "lon": -77.0061035, "bike_id": "694ef976a6af40bcff4caa3602b0bb77", "rental_uris": {"android": "https://dc.lft.to/lastmile_qr_scan", "ios": "https://dc.lft.to/lastmile_qr_scan"}, "name": "694ef976a6af40bcff4caa3602b0bb77", "is_reserved": 0}, {"is_disabled": 0, "fusion_lon": 0.0, "fusion_lat": 0.0, "lat": 38.9205455, "type": "electric_scooter", "lon": -77.0237355, "bike_id": "8d295905ed33dba8a5ff314239e93fa8", "rental_uris": {"android": "https://dc.lft.to/lastmile_qr_scan", "ios": "https://dc.lft.to/lastmile_qr_scan"}, "name": "8d295905ed33dba8a5ff314239e93fa8", "is_reserved": 0}, {"is_disabled": 0, "fusion_lon": 0.0, "fusion_lat": 0.0, "lat": 38.9111555, "type": "electric_scooter", "lon": -77.0223955, "bike_id": "4c0aa3ba3de4af45ad617250e5112b4f", "rental_uris": {"android": "https://dc.lft.to/lastmile_qr_scan", "ios": "https://dc.lft.to/lastmile_qr_scan"}, "name": "4c0aa3ba3de4af45ad617250e5112b4f", "is_reserved": 0}, {"is_disabled": 0, "fusion_lon": 0.0, "fusion_lat": 0.0, "lat": 38.905482166666665, "type": "electric_scooter", "lon": -77.04909, "bike_id": "882e2e5c83a4e179f8d0a697b922eb0b", "rental_uris": {"android": "https://dc.lft.to/lastmile_qr_scan", "ios": "https://dc.lft.to/lastmile_qr_scan"}, "name": "882e2e5c83a4e179f8d0a697b922eb0b", "is_reserved": 0}, {"is_disabled": 0, "fusion_lon": 0.0, "fusion_lat": 0.0, "lat": 38.94199016666666, "type": "electric_scooter", "lon": -77.02578766666667, "bike_id": "cd7d77d47e6d1f16182af6afd424092e", "rental_uris": {"android": "https://dc.lft.to/lastmile_qr_scan", "ios": "https://dc.lft.to/lastmile_qr_scan"}, "name": "cd7d77d47e6d1f16182af6afd424092e", "is_reserved": 0}, {"is_disabled": 0, "fusion_lon": 0.0, "fusion_lat": 0.0, "lat": 38.999998166666664, "type": "electric_bike", "lon": -76.91804683333334, "bike_id": "572e417ed750eafc0767a5cb813018eb", "rental_uris": {"android": "https://dc.lft.to/lastmile_qr_scan", "ios": "https://dc.lft.to/lastmile_qr_scan"}, "name": "572e417ed750eafc0767a5cb813018eb", "is_reserved": 0}, {"is_disabled": 0, "fusion_lon": 0.0, "fusion_lat": 0.0, "lat": 38.92444316666667, "type": "electric_bike", "lon": -76.96836633333334, "bike_id": "b5a756febfc2ae91f88c1bc21cd9869c", "rental_uris": {"android": "https://dc.lft.to/lastmile_qr_scan", "ios": "https://dc.lft.to/lastmile_qr_scan"}, "name": "b5a756febfc2ae91f88c1bc21cd9869c", "is_reserved": 0}, {"is_disabled": 0, "fusion_lon": 0.0, "fusion_lat": 0.0, "lat": 38.9003015, "type": "electric_scooter", "lon": -77.00199, "bike_id": "f64587f4368065c74e1868fa325a9985", "rental_uris": {"android": "https://dc.lft.to/lastmile_qr_scan", "ios": "https://dc.lft.to/lastmile_qr_scan"}, "name": "f64587f4368065c74e1868fa325a9985", "is_reserved": 0}, {"is_disabled": 0, "fusion_lon": 0.0, "fusion_lat": 0.0, "lat": 38.92380716666667, "type": "electric_scooter", "lon": -77.0312995, "bike_id": "6a69ae775fd007a87c0d161727732aca", "rental_uris": {"android": "https://dc.lft.to/lastmile_qr_scan", "ios": "https://dc.lft.to/lastmile_qr_scan"}, "name": "6a69ae775fd007a87c0d161727732aca", "is_reserved": 0}, {"is_disabled": 0, "fusion_lon": 0.0, "fusion_lat": 0.0, "lat": 38.909401, "type": "electric_scooter", "lon": -77.0320295, "bike_id": "b9f665fffa05f34537b4b063311e226f", "rental_uris": {"android": "https://dc.lft.to/lastmile_qr_scan", "ios": "https://dc.lft.to/lastmile_qr_scan"}, "name": "b9f665fffa05f34537b4b063311e226f", "is_reserved": 0}, {"is_disabled": 0, "fusion_lon": 0.0, "fusion_lat": 0.0, "lat": 38.92555183333333, "type": "electric_scooter", "lon": -77.03293216666667, "bike_id": "d88c41358352875258ee158ee7f55e5a", "rental_uris": {"android": "https://dc.lft.to/lastmile_qr_scan", "ios": "https://dc.lft.to/lastmile_qr_scan"}, "name": "d88c41358352875258ee158ee7f55e5a", "is_reserved": 0}, {"is_disabled": 0, "fusion_lon": 0.0, "fusion_lat": 0.0, "lat": 38.88738566666667, "type": "electric_bike", "lon": -76.90083933333334, "bike_id": "a4dbc6fcd618c5b57b6b487d1ea252f0", "rental_uris": {"android": "https://dc.lft.to/lastmile_qr_scan", "ios": "https://dc.lft.to/lastmile_qr_scan"}, "name": "a4dbc6fcd618c5b57b6b487d1ea252f0", "is_reserved": 0}, {"is_disabled": 0, "fusion_lon": 0.0, "fusion_lat": 0.0, "lat": 38.89371283333333, "type": "electric_scooter", "lon": -76.94998533333333, "bike_id": "72a29fde026b50ab7e3e8dfdf5e07a41", "rental_uris": {"android": "https://dc.lft.to/lastmile_qr_scan", "ios": "https://dc.lft.to/lastmile_qr_scan"}, "name": "72a29fde026b50ab7e3e8dfdf5e07a41", "is_reserved": 0}, {"is_disabled": 0, "fusion_lon": 0.0, "fusion_lat": 0.0, "lat": 38.936358, "type": "electric_scooter", "lon": -77.03262333333333, "bike_id": "01077fec314ef186e221fd661f9c5990", "rental_uris": {"android": "https://dc.lft.to/lastmile_qr_scan", "ios": "https://dc.lft.to/lastmile_qr_scan"}, "name": "01077fec314ef186e221fd661f9c5990", "is_reserved": 0}, {"is_disabled": 0, "fusion_lon": 0.0, "fusion_lat": 0.0, "lat": 38.924428666666664, "type": "electric_scooter", "lon": -77.04030133333333, "bike_id": "852b70ca3eadd34a8b2fb869644fab26", "rental_uris": {"android": "https://dc.lft.to/lastmile_qr_scan", "ios": "https://dc.lft.to/lastmile_qr_scan"}, "name": "852b70ca3eadd34a8b2fb869644fab26", "is_reserved": 0}, {"is_disabled": 0, "fusion_lon": 0.0, "fusion_lat": 0.0, "lat": 39.105642333333336, "type": "electric_bike", "lon": -77.15272033333333, "bike_id": "9a35b6936e1478f01d9ef60a1017d129", "rental_uris": {"android": "https://dc.lft.to/lastmile_qr_scan", "ios": "https://dc.lft.to/lastmile_qr_scan"}, "name": "9a35b6936e1478f01d9ef60a1017d129", "is_reserved": 0}, {"is_disabled": 0, "fusion_lon": 0.0, "fusion_lat": 0.0, "lat": 38.904294666666665, "type": "electric_scooter", "lon": -77.02569783333334, "bike_id": "f88328e11db4e21d66d320490b4b4385", "rental_uris": {"android": "https://dc.lft.to/lastmile_qr_scan", "ios": "https://dc.lft.to/lastmile_qr_scan"}, "name": "f88328e11db4e21d66d320490b4b4385", "is_reserved": 0}, {"is_disabled": 0, "fusion_lon": 0.0, "fusion_lat": 0.0, "lat": 38.90198066666667, "type": "electric_scooter", "lon": -77.04794483333333, "bike_id": "eddce7b87d45908eab9c485ca3432109", "rental_uris": {"android": "https://dc.lft.to/lastmile_qr_scan", "ios": "https://dc.lft.to/lastmile_qr_scan"}, "name": "eddce7b87d45908eab9c485ca3432109", "is_reserved": 0}, {"is_disabled": 0, "fusion_lon": 0.0, "fusion_lat": 0.0, "lat": 38.900328333333334, "type": "electric_scooter", "lon": -77.00202083333333, "bike_id": "a7459c36422067db5d1a223cdd3ab66d", "rental_uris": {"android": "https://dc.lft.to/lastmile_qr_scan", "ios": "https://dc.lft.to/lastmile_qr_scan"}, "name": "a7459c36422067db5d1a223cdd3ab66d", "is_reserved": 0}, {"is_disabled": 0, "fusion_lon": 0.0, "fusion_lat": 0.0, "lat": 38.956448333333334, "type": "electric_scooter", "lon": -77.01499283333334, "bike_id": "4df66910c0a04241aafe1070547d9c4d", "rental_uris": {"android": "https://dc.lft.to/lastmile_qr_scan", "ios": "https://dc.lft.to/lastmile_qr_scan"}, "name": "4df66910c0a04241aafe1070547d9c4d", "is_reserved": 0}, {"is_disabled": 0, "fusion_lon": 0.0, "fusion_lat": 0.0, "lat": 38.89485216666667, "type": "electric_scooter", "lon": -77.002103, "bike_id": "a8fbed436f1bb7517f7efe49843f5086", "rental_uris": {"android": "https://dc.lft.to/lastmile_qr_scan", "ios": "https://dc.lft.to/lastmile_qr_scan"}, "name": "a8fbed436f1bb7517f7efe49843f5086", "is_reserved": 0}, {"is_disabled": 0, "fusion_lon": 0.0, "fusion_lat": 0.0, "lat": 38.91805183333334, "type": "electric_scooter", "lon": -77.02687766666666, "bike_id": "01f390ede4da6b9aa1ac78989a477dd1", "rental_uris": {"android": "https://dc.lft.to/lastmile_qr_scan", "ios": "https://dc.lft.to/lastmile_qr_scan"}, "name": "01f390ede4da6b9aa1ac78989a477dd1", "is_reserved": 0}, {"is_disabled": 0, "fusion_lon": 0.0, "fusion_lat": 0.0, "lat": 38.91349966666667, "type": "electric_scooter", "lon": -77.032061, "bike_id": "a94eb0ee6b1fcb2cc9ff24959e14b52b", "rental_uris": {"android": "https://dc.lft.to/lastmile_qr_scan", "ios": "https://dc.lft.to/lastmile_qr_scan"}, "name": "a94eb0ee6b1fcb2cc9ff24959e14b52b", "is_reserved": 0}, {"is_disabled": 0, "fusion_lon": 0.0, "fusion_lat": 0.0, "lat": 38.9215755, "type": "electric_scooter", "lon": -77.03385166666666, "bike_id": "52de536e7e2cdc123d557193a8754e09", "rental_uris": {"android": "https://dc.lft.to/lastmile_qr_scan", "ios": "https://dc.lft.to/lastmile_qr_scan"}, "name": "52de536e7e2cdc123d557193a8754e09", "is_reserved": 0}, {"is_disabled": 0, "fusion_lon": 0.0, "fusion_lat": 0.0, "lat": 38.9181525, "type": "electric_scooter", "lon": -77.03996916666667, "bike_id": "0be26238dc5cf5e71a0acb23dbe4e943", "rental_uris": {"android": "https://dc.lft.to/lastmile_qr_scan", "ios": "https://dc.lft.to/lastmile_qr_scan"}, "name": "0be26238dc5cf5e71a0acb23dbe4e943", "is_reserved": 0}, {"is_disabled": 0, "fusion_lon": 0.0, "fusion_lat": 0.0, "lat": 38.897814, "type": "electric_scooter", "lon": -77.02488816666667, "bike_id": "fe7d8fd86dbc748f8629b5b70357aeb8", "rental_uris": {"android": "https://dc.lft.to/lastmile_qr_scan", "ios": "https://dc.lft.to/lastmile_qr_scan"}, "name": "fe7d8fd86dbc748f8629b5b70357aeb8", "is_reserved": 0}, {"is_disabled": 0, "fusion_lon": 0.0, "fusion_lat": 0.0, "lat": 38.94181616666667, "type": "electric_scooter", "lon": -77.03651483333333, "bike_id": "7932e8491dff54da56d00a5bef389b8a", "rental_uris": {"android": "https://dc.lft.to/lastmile_qr_scan", "ios": "https://dc.lft.to/lastmile_qr_scan"}, "name": "7932e8491dff54da56d00a5bef389b8a", "is_reserved": 0}, {"is_disabled": 0, "fusion_lon": 0.0, "fusion_lat": 0.0, "lat": 38.91816083333333, "type": "electric_scooter", "lon": -77.02716733333334, "bike_id": "a331843c2ff0d27bf2d1b66c6d728660", "rental_uris": {"android": "https://dc.lft.to/lastmile_qr_scan", "ios": "https://dc.lft.to/lastmile_qr_scan"}, "name": "a331843c2ff0d27bf2d1b66c6d728660", "is_reserved": 0}, {"is_disabled": 0, "fusion_lon": 0.0, "fusion_lat": 0.0, "lat": 38.93279883333334, "type": "electric_scooter", "lon": -77.03632533333334, "bike_id": "08c6ebe0519fbc33a1bc3f8384541931", "rental_uris": {"android": "https://dc.lft.to/lastmile_qr_scan", "ios": "https://dc.lft.to/lastmile_qr_scan"}, "name": "08c6ebe0519fbc33a1bc3f8384541931", "is_reserved": 0}, {"is_disabled": 0, "fusion_lon": 0.0, "fusion_lat": 0.0, "lat": 38.901733166666666, "type": "electric_scooter", "lon": -77.01929983333333, "bike_id": "a1cbe874a62c2d6fddecd0a5fe0a10d8", "rental_uris": {"android": "https://dc.lft.to/lastmile_qr_scan", "ios": "https://dc.lft.to/lastmile_qr_scan"}, "name": "a1cbe874a62c2d6fddecd0a5fe0a10d8", "is_reserved": 0}, {"is_disabled": 0, "fusion_lon": 0.0, "fusion_lat": 0.0, "lat": 38.898449, "type": "electric_scooter", "lon": -77.03177816666667, "bike_id": "058de8aac6f1949553268be9cc0317da", "rental_uris": {"android": "https://dc.lft.to/lastmile_qr_scan", "ios": "https://dc.lft.to/lastmile_qr_scan"}, "name": "058de8aac6f1949553268be9cc0317da", "is_reserved": 0}, {"is_disabled": 0, "fusion_lon": 0.0, "fusion_lat": 0.0, "lat": 38.92155, "type": "electric_scooter", "lon": -77.0386855, "bike_id": "fe91e631bb08fdde5eea320a91e0dd87", "rental_uris": {"android": "https://dc.lft.to/lastmile_qr_scan", "ios": "https://dc.lft.to/lastmile_qr_scan"}, "name": "fe91e631bb08fdde5eea320a91e0dd87", "is_reserved": 0}, {"is_disabled": 0, "fusion_lon": 0.0, "fusion_lat": 0.0, "lat": 38.947556166666665, "type": "electric_scooter", "lon": -77.02982483333334, "bike_id": "00feb2c841d892774021124bcb0dafba", "rental_uris": {"android": "https://dc.lft.to/lastmile_qr_scan", "ios": "https://dc.lft.to/lastmile_qr_scan"}, "name": "00feb2c841d892774021124bcb0dafba", "is_reserved": 0}, {"is_disabled": 0, "fusion_lon": 0.0, "fusion_lat": 0.0, "lat": 38.9310765, "type": "electric_scooter", "lon": -77.01244816666667, "bike_id": "81f6b58b4edc60924e4ab659afad3dad", "rental_uris": {"android": "https://dc.lft.to/lastmile_qr_scan", "ios": "https://dc.lft.to/lastmile_qr_scan"}, "name": "81f6b58b4edc60924e4ab659afad3dad", "is_reserved": 0}, {"is_disabled": 0, "fusion_lon": 0.0, "fusion_lat": 0.0, "lat": 38.909737, "type": "electric_scooter", "lon": -77.0406635, "bike_id": "2fe2ddc680a7c820f82e0bf24214c869", "rental_uris": {"android": "https://dc.lft.to/lastmile_qr_scan", "ios": "https://dc.lft.to/lastmile_qr_scan"}, "name": "2fe2ddc680a7c820f82e0bf24214c869", "is_reserved": 0}, {"is_disabled": 0, "fusion_lon": 0.0, "fusion_lat": 0.0, "lat": 38.86359483333333, "type": "electric_scooter", "lon": -76.990639, "bike_id": "8337436f434a94575c9bddb46fea3f3a", "rental_uris": {"android": "https://dc.lft.to/lastmile_qr_scan", "ios": "https://dc.lft.to/lastmile_qr_scan"}, "name": "8337436f434a94575c9bddb46fea3f3a", "is_reserved": 0}, {"is_disabled": 0, "fusion_lon": 0.0, "fusion_lat": 0.0, "lat": 38.9265115, "type": "electric_scooter", "lon": -77.03715483333333, "bike_id": "86e5c089e0264224d55c7baa3245c6c9", "rental_uris": {"android": "https://dc.lft.to/lastmile_qr_scan", "ios": "https://dc.lft.to/lastmile_qr_scan"}, "name": "86e5c089e0264224d55c7baa3245c6c9", "is_reserved": 0}, {"is_disabled": 0, "fusion_lon": 0.0, "fusion_lat": 0.0, "lat": 38.90651116666667, "type": "electric_scooter", "lon": -77.02706533333334, "bike_id": "a0dedd5bc6f4c09b27ed9a753aa1c6d2", "rental_uris": {"android": "https://dc.lft.to/lastmile_qr_scan", "ios": "https://dc.lft.to/lastmile_qr_scan"}, "name": "a0dedd5bc6f4c09b27ed9a753aa1c6d2", "is_reserved": 0}, {"is_disabled": 0, "fusion_lon": 0.0, "fusion_lat": 0.0, "lat": 38.907632666666665, "type": "electric_scooter", "lon": -77.0385185, "bike_id": "df5e88b27bbb7643da160236c791c9ca", "rental_uris": {"android": "https://dc.lft.to/lastmile_qr_scan", "ios": "https://dc.lft.to/lastmile_qr_scan"}, "name": "df5e88b27bbb7643da160236c791c9ca", "is_reserved": 0}, {"is_disabled": 0, "fusion_lon": 0.0, "fusion_lat": 0.0, "lat": 38.918441333333334, "type": "electric_scooter", "lon": -77.02529933333334, "bike_id": "49a982384cd1faa8514c944a8df79cb0", "rental_uris": {"android": "https://dc.lft.to/lastmile_qr_scan", "ios": "https://dc.lft.to/lastmile_qr_scan"}, "name": "49a982384cd1faa8514c944a8df79cb0", "is_reserved": 0}, {"is_disabled": 0, "fusion_lon": 0.0, "fusion_lat": 0.0, "lat": 38.854288, "type": "electric_bike", "lon": -76.90950783333334, "bike_id": "f146424d4c419aa1f2077b4f6be88f1d", "rental_uris": {"android": "https://dc.lft.to/lastmile_qr_scan", "ios": "https://dc.lft.to/lastmile_qr_scan"}, "name": "f146424d4c419aa1f2077b4f6be88f1d", "is_reserved": 0}, {"is_disabled": 0, "fusion_lon": 0.0, "fusion_lat": 0.0, "lat": 38.928495, "type": "electric_scooter", "lon": -77.014155, "bike_id": "ed1384cc9fff92467b063299c1f73f28", "rental_uris": {"android": "https://dc.lft.to/lastmile_qr_scan", "ios": "https://dc.lft.to/lastmile_qr_scan"}, "name": "ed1384cc9fff92467b063299c1f73f28", "is_reserved": 0}, {"is_disabled": 0, "fusion_lon": 0.0, "fusion_lat": 0.0, "lat": 38.893852833333334, "type": "electric_scooter", "lon": -76.94999516666667, "bike_id": "38b128999241a89cd491a1ab3c165f4a", "rental_uris": {"android": "https://dc.lft.to/lastmile_qr_scan", "ios": "https://dc.lft.to/lastmile_qr_scan"}, "name": "38b128999241a89cd491a1ab3c165f4a", "is_reserved": 0}, {"is_disabled": 0, "fusion_lon": 0.0, "fusion_lat": 0.0, "lat": 38.930232, "type": "electric_scooter", "lon": -77.0379785, "bike_id": "80c030ed65ff6d4b229c2a25f3d64975", "rental_uris": {"android": "https://dc.lft.to/lastmile_qr_scan", "ios": "https://dc.lft.to/lastmile_qr_scan"}, "name": "80c030ed65ff6d4b229c2a25f3d64975", "is_reserved": 0}, {"is_disabled": 0, "fusion_lon": 0.0, "fusion_lat": 0.0, "lat": 38.8901205, "type": "electric_scooter", "lon": -76.93740033333333, "bike_id": "f3225015ae9173dac8943d74ad947472", "rental_uris": {"android": "https://dc.lft.to/lastmile_qr_scan", "ios": "https://dc.lft.to/lastmile_qr_scan"}, "name": "f3225015ae9173dac8943d74ad947472", "is_reserved": 0}, {"is_disabled": 0, "fusion_lon": 0.0, "fusion_lat": 0.0, "lat": 38.86130633333333, "type": "electric_scooter", "lon": -76.98567883333334, "bike_id": "110d311afcefa102c673188d1574a914", "rental_uris": {"android": "https://dc.lft.to/lastmile_qr_scan", "ios": "https://dc.lft.to/lastmile_qr_scan"}, "name": "110d311afcefa102c673188d1574a914", "is_reserved": 0}, {"is_disabled": 0, "fusion_lon": 0.0, "fusion_lat": 0.0, "lat": 38.927305833333335, "type": "electric_scooter", "lon": -77.022432, "bike_id": "d2ae10172e0692acddea20a3886c7fa4", "rental_uris": {"android": "https://dc.lft.to/lastmile_qr_scan", "ios": "https://dc.lft.to/lastmile_qr_scan"}, "name": "d2ae10172e0692acddea20a3886c7fa4", "is_reserved": 0}, {"is_disabled": 0, "fusion_lon": 0.0, "fusion_lat": 0.0, "lat": 38.933057, "type": "electric_scooter", "lon": -77.03262566666666, "bike_id": "12b36f562359d47e652ffc7f4e00ffb1", "rental_uris": {"android": "https://dc.lft.to/lastmile_qr_scan", "ios": "https://dc.lft.to/lastmile_qr_scan"}, "name": "12b36f562359d47e652ffc7f4e00ffb1", "is_reserved": 0}, {"is_disabled": 0, "fusion_lon": 0.0, "fusion_lat": 0.0, "lat": 38.9056895, "type": "electric_scooter", "lon": -77.0249385, "bike_id": "15f8c2b74b1e2941d1dd8387f8b3081d", "rental_uris": {"android": "https://dc.lft.to/lastmile_qr_scan", "ios": "https://dc.lft.to/lastmile_qr_scan"}, "name": "15f8c2b74b1e2941d1dd8387f8b3081d", "is_reserved": 0}, {"is_disabled": 0, "fusion_lon": 0.0, "fusion_lat": 0.0, "lat": 38.879080333333334, "type": "electric_scooter", "lon": -77.02197116666666, "bike_id": "849a18ba8202f472d3eff5cc9c793572", "rental_uris": {"android": "https://dc.lft.to/lastmile_qr_scan", "ios": "https://dc.lft.to/lastmile_qr_scan"}, "name": "849a18ba8202f472d3eff5cc9c793572", "is_reserved": 0}, {"is_disabled": 0, "fusion_lon": 0.0, "fusion_lat": 0.0, "lat": 38.919335, "type": "electric_bike", "lon": -76.97501966666667, "bike_id": "f9343ac9747bbf86f774e87b99df1df8", "rental_uris": {"android": "https://dc.lft.to/lastmile_qr_scan", "ios": "https://dc.lft.to/lastmile_qr_scan"}, "name": "f9343ac9747bbf86f774e87b99df1df8", "is_reserved": 0}, {"is_disabled": 0, "fusion_lon": 0.0, "fusion_lat": 0.0, "lat": 38.88304383333333, "type": "electric_scooter", "lon": -77.01638566666666, "bike_id": "30ab424aa2de0433aa7d9e45f828fa28", "rental_uris": {"android": "https://dc.lft.to/lastmile_qr_scan", "ios": "https://dc.lft.to/lastmile_qr_scan"}, "name": "30ab424aa2de0433aa7d9e45f828fa28", "is_reserved": 0}, {"is_disabled": 0, "fusion_lon": 0.0, "fusion_lat": 0.0, "lat": 38.91739616666667, "type": "electric_scooter", "lon": -77.04172416666667, "bike_id": "cd9422b45ca5040db95e593a52dbd06b", "rental_uris": {"android": "https://dc.lft.to/lastmile_qr_scan", "ios": "https://dc.lft.to/lastmile_qr_scan"}, "name": "cd9422b45ca5040db95e593a52dbd06b", "is_reserved": 0}, {"is_disabled": 0, "fusion_lon": 0.0, "fusion_lat": 0.0, "lat": 38.90492283333333, "type": "electric_scooter", "lon": -77.051369, "bike_id": "297bab247c252b00c5e5299acffb948b", "rental_uris": {"android": "https://dc.lft.to/lastmile_qr_scan", "ios": "https://dc.lft.to/lastmile_qr_scan"}, "name": "297bab247c252b00c5e5299acffb948b", "is_reserved": 0}, {"is_disabled": 0, "fusion_lon": 0.0, "fusion_lat": 0.0, "lat": 38.94303216666667, "type": "electric_scooter", "lon": -77.02758166666666, "bike_id": "9b74eedaf3e581d98402292361793a1e", "rental_uris": {"android": "https://dc.lft.to/lastmile_qr_scan", "ios": "https://dc.lft.to/lastmile_qr_scan"}, "name": "9b74eedaf3e581d98402292361793a1e", "is_reserved": 0}, {"is_disabled": 0, "fusion_lon": 0.0, "fusion_lat": 0.0, "lat": 38.91561733333333, "type": "electric_scooter", "lon": -77.031453, "bike_id": "a4d9a20f428092b548324ff2b89cc35b", "rental_uris": {"android": "https://dc.lft.to/lastmile_qr_scan", "ios": "https://dc.lft.to/lastmile_qr_scan"}, "name": "a4d9a20f428092b548324ff2b89cc35b", "is_reserved": 0}, {"is_disabled": 0, "fusion_lon": 0.0, "fusion_lat": 0.0, "lat": 38.90108433333333, "type": "electric_scooter", "lon": -77.0598215, "bike_id": "4b549a77930718a03bb9dcdb77f1d714", "rental_uris": {"android": "https://dc.lft.to/lastmile_qr_scan", "ios": "https://dc.lft.to/lastmile_qr_scan"}, "name": "4b549a77930718a03bb9dcdb77f1d714", "is_reserved": 0}, {"is_disabled": 0, "fusion_lon": 0.0, "fusion_lat": 0.0, "lat": 38.904304333333336, "type": "electric_scooter", "lon": -77.0260725, "bike_id": "0137d95d881389bfceb3f6af11ae2af0", "rental_uris": {"android": "https://dc.lft.to/lastmile_qr_scan", "ios": "https://dc.lft.to/lastmile_qr_scan"}, "name": "0137d95d881389bfceb3f6af11ae2af0", "is_reserved": 0}, {"is_disabled": 0, "fusion_lon": 0.0, "fusion_lat": 0.0, "lat": 38.8580595, "type": "electric_scooter", "lon": -76.98655733333334, "bike_id": "8182fd1090db4ab43f26d2b2e8992a50", "rental_uris": {"android": "https://dc.lft.to/lastmile_qr_scan", "ios": "https://dc.lft.to/lastmile_qr_scan"}, "name": "8182fd1090db4ab43f26d2b2e8992a50", "is_reserved": 0}, {"is_disabled": 0, "fusion_lon": 0.0, "fusion_lat": 0.0, "lat": 38.90076233333333, "type": "electric_scooter", "lon": -77.01818933333334, "bike_id": "5f21fc7e865aa11e4aebb7cce33fcaf6", "rental_uris": {"android": "https://dc.lft.to/lastmile_qr_scan", "ios": "https://dc.lft.to/lastmile_qr_scan"}, "name": "5f21fc7e865aa11e4aebb7cce33fcaf6", "is_reserved": 0}, {"is_disabled": 0, "fusion_lon": 0.0, "fusion_lat": 0.0, "lat": 38.917730166666665, "type": "electric_scooter", "lon": -77.034547, "bike_id": "c384765638b6674d13aeee89930b4172", "rental_uris": {"android": "https://dc.lft.to/lastmile_qr_scan", "ios": "https://dc.lft.to/lastmile_qr_scan"}, "name": "c384765638b6674d13aeee89930b4172", "is_reserved": 0}, {"is_disabled": 0, "fusion_lon": 0.0, "fusion_lat": 0.0, "lat": 38.9067835, "type": "electric_scooter", "lon": -76.97995533333334, "bike_id": "e8951ec172f0eacb000e0d36c7bd856b", "rental_uris": {"android": "https://dc.lft.to/lastmile_qr_scan", "ios": "https://dc.lft.to/lastmile_qr_scan"}, "name": "e8951ec172f0eacb000e0d36c7bd856b", "is_reserved": 0}, {"is_disabled": 0, "fusion_lon": 0.0, "fusion_lat": 0.0, "lat": 38.904855833333336, "type": "electric_scooter", "lon": -77.02998766666667, "bike_id": "00d6919d051899e46cfa2672cee25c5c", "rental_uris": {"android": "https://dc.lft.to/lastmile_qr_scan", "ios": "https://dc.lft.to/lastmile_qr_scan"}, "name": "00d6919d051899e46cfa2672cee25c5c", "is_reserved": 0}, {"is_disabled": 0, "fusion_lon": 0.0, "fusion_lat": 0.0, "lat": 38.92492166666667, "type": "electric_scooter", "lon": -77.0393185, "bike_id": "8bf476457fc9aa63344f117480785384", "rental_uris": {"android": "https://dc.lft.to/lastmile_qr_scan", "ios": "https://dc.lft.to/lastmile_qr_scan"}, "name": "8bf476457fc9aa63344f117480785384", "is_reserved": 0}, {"is_disabled": 0, "fusion_lon": 0.0, "fusion_lat": 0.0, "lat": 38.910399166666664, "type": "electric_scooter", "lon": -77.04011833333334, "bike_id": "8aa944f8378361f6318ab7a19e4b356b", "rental_uris": {"android": "https://dc.lft.to/lastmile_qr_scan", "ios": "https://dc.lft.to/lastmile_qr_scan"}, "name": "8aa944f8378361f6318ab7a19e4b356b", "is_reserved": 0}, {"is_disabled": 0, "fusion_lon": 0.0, "fusion_lat": 0.0, "lat": 38.9130965, "type": "electric_scooter", "lon": -76.98656333333334, "bike_id": "68a6e6aa556fcef99b2429817b9a8d89", "rental_uris": {"android": "https://dc.lft.to/lastmile_qr_scan", "ios": "https://dc.lft.to/lastmile_qr_scan"}, "name": "68a6e6aa556fcef99b2429817b9a8d89", "is_reserved": 0}, {"is_disabled": 0, "fusion_lon": 0.0, "fusion_lat": 0.0, "lat": 38.91119233333333, "type": "electric_scooter", "lon": -77.03828966666667, "bike_id": "c27e584bd7af45e7ac1fdb6893e6e1dd", "rental_uris": {"android": "https://dc.lft.to/lastmile_qr_scan", "ios": "https://dc.lft.to/lastmile_qr_scan"}, "name": "c27e584bd7af45e7ac1fdb6893e6e1dd", "is_reserved": 0}, {"is_disabled": 0, "fusion_lon": 0.0, "fusion_lat": 0.0, "lat": 38.942014, "type": "electric_scooter", "lon": -77.02593816666666, "bike_id": "63453e0423b41ed21c0441f01aaaa3fd", "rental_uris": {"android": "https://dc.lft.to/lastmile_qr_scan", "ios": "https://dc.lft.to/lastmile_qr_scan"}, "name": "63453e0423b41ed21c0441f01aaaa3fd", "is_reserved": 0},