{"data": {"bikes": [{"bike_id": "83664d1c654ebb62361ef0bce6825062", "is_reserved": 0, "fusion_lon": 0.0, "lat": 38.915616166666666, "is_disabled": 0, "name": "83664d1c654ebb62361ef0bce6825062", "fusion_lat": 0.0, "rental_uris": {"ios": "https://dc.lft.to/lastmile_qr_scan", "android": "https://dc.lft.to/lastmile_qr_scan"}, "lon": -77.038659, "type": "electric_scooter"}, {"bike_id": "602be1e8d78ac13d940102881ec833b4", "is_reserved": 0, "fusion_lon": 0.0, "lat": 38.894794, "is_disabled": 0, "name": "602be1e8d78ac13d940102881ec833b4", "fusion_lat": 0.0, "rental_uris": {"ios": "https://dc.lft.to/lastmile_qr_scan", "android": "https://dc.lft.to/lastmile_qr_scan"}, "lon": -77.04992516666667, "type": "electric_scooter"}, {"bike_id": "4526d4be30cddfe4459ece2732bcd124", "is_reserved": 0, "fusion_lon": 0.0, "lat": 38.9002305, "is_disabled": 0, "name": "4526d4be30cddfe4459ece2732bcd124", "fusion_lat": 0.0, "rental_uris": {"ios": "https://dc.lft.to/lastmile_qr_scan", "android": "https://dc.lft.to/lastmile_qr_scan"}, "lon": -77.01153066666667, "type": "electric_scooter"}, {"bike_id": "df3e6670db5b5767901fd71fb561ccfb", "is_reserved": 0, "fusion_lon": 0.0, "lat": 38.908048, "is_disabled": 0, "name": "df3e6670db5b5767901fd71fb561ccfb", "fusion_lat": 0.0, "rental_uris": {"ios": "https://dc.lft.to/lastmile_qr_scan", "android": "https://dc.lft.to/lastmile_qr_scan"}, "lon": -77.03463483333333, "type": "electric_scooter"}, {"bike_id": "a3b590f492487b233d79523a06a639b7", "is_reserved": 0, "fusion_lon": 0.0, "lat": 38.89728383333333, "is_disabled": 0, "name": "a3b590f492487b233d79523a06a639b7", "fusion_lat": 0.0, "rental_uris": {"ios": "https://dc.lft.to/lastmile_qr_scan", "android": "https://dc.lft.to/lastmile_qr_scan"}, "lon": -77.04635116666667, "type": "electric_scooter"}, {"bike_id": "554d1b51c173f61fc3744502e7ac3c7b", "is_reserved": 0, "fusion_lon": 0.0, "lat": 38.902875, "is_disabled": 0, "name": "554d1b51c173f61fc3744502e7ac3c7b", "fusion_lat": 0.0, "rental_uris": {"ios": "https://dc.lft.to/lastmile_qr_scan", "android": "https://dc.lft.to/lastmile_qr_scan"}, "lon": -77.0163855, "type": "electric_bike"}, {"bike_id": "f9a7740243fab3a5f319270b5b8716e8", "is_reserved": 0, "fusion_lon": 0.0, "lat": 38.904503166666665, "is_disabled": 0, "name": "f9a7740243fab3a5f319270b5b8716e8", "fusion_lat": 0.0, "rental_uris": {"ios": "https://dc.lft.to/lastmile_qr_scan", "android": "https://dc.lft.to/lastmile_qr_scan"}, "lon": -77.0289705, "type": "electric_scooter"}, {"bike_id": "8d04ae867bc58433e4787cf132aa08f4", "is_reserved": 0, "fusion_lon": 0.0, "lat": 38.877363333333335, "is_disabled": 0, "name": "8d04ae867bc58433e4787cf132aa08f4", "fusion_lat": 0.0, "rental_uris": {"ios": "https://dc.lft.to/lastmile_qr_scan", "android": "https://dc.lft.to/lastmile_qr_scan"}, "lon": -76.9728605, "type": "electric_scooter"}, {"bike_id": "dd97721a48407d35ab4877bd8623c103", "is_reserved": 0, "fusion_lon": 0.0, "lat": 38.90359266666667, "is_disabled": 0, "name": "dd97721a48407d35ab4877bd8623c103", "fusion_lat": 0.0, "rental_uris": {"ios": "https://dc.lft.to/lastmile_qr_scan", "android": "https://dc.lft.to/lastmile_qr_scan"}, "lon": -77.01725083333334, "type": "electric_scooter"}, {"bike_id": "1ff818cb4bc7317a31fd9703ce91261a", "is_reserved": 0, "fusion_lon": 0.0, "lat": 38.93498616666667, "is_disabled": 0, "name": "1ff818cb4bc7317a31fd9703ce91261a", "fusion_lat": 0.0, "rental_uris": {"ios": "https://dc.lft.to/lastmile_qr_scan", "android": "https://dc.lft.to/lastmile_qr_scan"}, "lon": -77.02722883333334, "type": "electric_scooter"}, {"bike_id": "9ffd0e2b9339871f11bb4d7eb59e20f6", "is_reserved": 0, "fusion_lon": 0.0, "lat": 38.862024166666664, "is_disabled": 0, "name": "9ffd0e2b9339871f11bb4d7eb59e20f6", "fusion_lat": 0.0, "rental_uris": {"ios": "https://dc.lft.to/lastmile_qr_scan", "android": "https://dc.lft.to/lastmile_qr_scan"}, "lon": -76.99461533333333, "type": "electric_scooter"}, {"bike_id": "9479ba8a97764637fae4c7d432d74e57", "is_reserved": 0, "fusion_lon": 0.0, "lat": 38.939753833333334, "is_disabled": 0, "name": "9479ba8a97764637fae4c7d432d74e57", "fusion_lat": 0.0, "rental_uris": {"ios": "https://dc.lft.to/lastmile_qr_scan", "android": "https://dc.lft.to/lastmile_qr_scan"}, "lon": -77.03587133333333, "type": "electric_scooter"}, {"bike_id": "aeddbc4de9d7a71d539f07c8ced0bf5d", "is_reserved": 0, "fusion_lon": 0.0, "lat": 38.896200666666665, "is_disabled": 0, "name": "aeddbc4de9d7a71d539f07c8ced0bf5d", "fusion_lat": 0.0, "rental_uris": {"ios": "https://dc.lft.to/lastmile_qr_scan", "android": "https://dc.lft.to/lastmile_qr_scan"}, "lon": -77.00046966666666, "type": "electric_bike"}, {"bike_id": "f0bcf4ab743e7020c944c595671cfc0e", "is_reserved": 0, "fusion_lon": 0.0, "lat": 38.92374916666667, "is_disabled": 0, "name": "f0bcf4ab743e7020c944c595671cfc0e", "fusion_lat": 0.0, "rental_uris": {"ios": "https://dc.lft.to/lastmile_qr_scan", "android": "https://dc.lft.to/lastmile_qr_scan"}, "lon": -77.02068833333334, "type": "electric_scooter"}, {"bike_id": "2b9489ed0baef7f884757d54f09bb368", "is_reserved": 0, "fusion_lon": 0.0, "lat": 38.902361166666665, "is_disabled": 0, "name": "2b9489ed0baef7f884757d54f09bb368", "fusion_lat": 0.0, "rental_uris": {"ios": "https://dc.lft.to/lastmile_qr_scan", "android": "https://dc.lft.to/lastmile_qr_scan"}, "lon": -77.01758866666667, "type": "electric_scooter"}, {"bike_id": "31e0dd3ded7a643a20c8b3d786c41c88", "is_reserved": 0, "fusion_lon": 0.0, "lat": 38.9223195, "is_disabled": 0, "name": "31e0dd3ded7a643a20c8b3d786c41c88", "fusion_lat": 0.0, "rental_uris": {"ios": "https://dc.lft.to/lastmile_qr_scan", "android": "https://dc.lft.to/lastmile_qr_scan"}, "lon": -77.04124216666666, "type": "electric_scooter"}, {"bike_id": "820745ecb1f5053303fc2e50ed8c4fbf", "is_reserved": 0, "fusion_lon": 0.0, "lat": 38.880046166666666, "is_disabled": 0, "name": "820745ecb1f5053303fc2e50ed8c4fbf", "fusion_lat": 0.0, "rental_uris": {"ios": "https://dc.lft.to/lastmile_qr_scan", "android": "https://dc.lft.to/lastmile_qr_scan"}, "lon": -76.915939, "type": "electric_bike"}, {"bike_id": "8036fc6cbb6c80c302cc393a888eb8a0", "is_reserved": 0, "fusion_lon": 0.0, "lat": 38.82445233333333, "is_disabled": 0, "name": "8036fc6cbb6c80c302cc393a888eb8a0", "fusion_lat": 0.0, "rental_uris": {"ios": "https://dc.lft.to/lastmile_qr_scan", "android": "https://dc.lft.to/lastmile_qr_scan"}, "lon": -77.07045083333334, "type": "electric_bike"}, {"bike_id": "97632307d0ef2464d867d0d71b41fe79", "is_reserved": 0, "fusion_lon": 0.0, "lat": 38.9351445, "is_disabled": 0, "name": "97632307d0ef2464d867d0d71b41fe79", "fusion_lat": 0.0, "rental_uris": {"ios": "https://dc.lft.to/lastmile_qr_scan", "android": "https://dc.lft.to/lastmile_qr_scan"}, "lon": -77.033368, "type": "electric_scooter"}, {"bike_id": "7c8f638f85da63bdb86c92e8d3b38023", "is_reserved": 0, "fusion_lon": 0.0, "lat": 38.8838645, "is_disabled": 0, "name": "7c8f638f85da63bdb86c92e8d3b38023", "fusion_lat": 0.0, "rental_uris": {"ios": "https://dc.lft.to/lastmile_qr_scan", "android": "https://dc.lft.to/lastmile_qr_scan"}, "lon": -76.949286, "type": "electric_scooter"}, {"bike_id": "ef739287a1bb32898f34d1e18e797f09", "is_reserved": 0, "fusion_lon": 0.0, "lat": 38.92321466666667, "is_disabled": 0, "name": "ef739287a1bb32898f34d1e18e797f09", "fusion_lat": 0.0, "rental_uris": {"ios": "https://dc.lft.to/lastmile_qr_scan", "android": "https://dc.lft.to/lastmile_qr_scan"}, "lon": -77.035178, "type": "electric_scooter"}, {"bike_id": "b05af21f2cc12bf2d23260a8c79687c1", "is_reserved": 0, "fusion_lon": 0.0, "lat": 38.90359016666667, "is_disabled": 0, "name": "b05af21f2cc12bf2d23260a8c79687c1", "fusion_lat": 0.0, "rental_uris": {"ios": "https://dc.lft.to/lastmile_qr_scan", "android": "https://dc.lft.to/lastmile_qr_scan"}, "lon": -77.03905716666667, "type": "electric_scooter"}, {"bike_id": "0d0d1a2dff20b3fa42addde1d3903694", "is_reserved": 0, "fusion_lon": 0.0, "lat": 38.9333865, "is_disabled": 0, "name": "0d0d1a2dff20b3fa42addde1d3903694", "fusion_lat": 0.0, "rental_uris": {"ios": "https://dc.lft.to/lastmile_qr_scan", "android": "https://dc.lft.to/lastmile_qr_scan"}, "lon": -77.04196983333334, "type": "electric_bike"}, {"bike_id": "d4fa22f091e289ddcf655fefa9fea149", "is_reserved": 0, "fusion_lon": 0.0, "lat": 38.9090205, "is_disabled": 0, "name": "d4fa22f091e289ddcf655fefa9fea149", "fusion_lat": 0.0, "rental_uris": {"ios": "https://dc.lft.to/lastmile_qr_scan", "android": "https://dc.lft.to/lastmile_qr_scan"}, "lon": -77.08617333333333, "type": "electric_scooter"}, {"bike_id": "1063141443e14dd8f249f129efc2800b", "is_reserved": 0, "fusion_lon": 0.0, "lat": 38.92090133333333, "is_disabled": 0, "name": "1063141443e14dd8f249f129efc2800b", "fusion_lat": 0.0, "rental_uris": {"ios": "https://dc.lft.to/lastmile_qr_scan", "android": "https://dc.lft.to/lastmile_qr_scan"}, "lon": -77.0242455, "type": "electric_scooter"}, {"bike_id": "1491eddc63dc670cacac8c130f2a2cc5", "is_reserved": 0, "fusion_lon": 0.0, "lat": 38.91723483333333, "is_disabled": 0, "name": "1491eddc63dc670cacac8c130f2a2cc5", "fusion_lat": 0.0, "rental_uris": {"ios": "https://dc.lft.to/lastmile_qr_scan", "android": "https://dc.lft.to/lastmile_qr_scan"}, "lon": -77.038378, "type": "electric_scooter"}, {"bike_id": "b045507818e6b26c200dd540d9253d75", "is_reserved": 0, "fusion_lon": 0.0, "lat": 38.8924765, "is_disabled": 0, "name": "b045507818e6b26c200dd540d9253d75", "fusion_lat": 0.0, "rental_uris": {"ios": "https://dc.lft.to/lastmile_qr_scan", "android": "https://dc.lft.to/lastmile_qr_scan"}, "lon": -77.03185133333334, "type": "electric_scooter"}, {"bike_id": "3f3291ac5ff37cd05f5d684f8b1d09ac", "is_reserved": 0, "fusion_lon": 0.0, "lat": 38.918602666666665, "is_disabled": 0, "name": "3f3291ac5ff37cd05f5d684f8b1d09ac", "fusion_lat": 0.0, "rental_uris": {"ios": "https://dc.lft.to/lastmile_qr_scan", "android": "https://dc.lft.to/lastmile_qr_scan"}, "lon": -76.9609245, "type": "electric_bike"}, {"bike_id": "713aeec5ea56669d7acadab3f3ea75fb", "is_reserved": 0, "fusion_lon": 0.0, "lat": 38.9028755, "is_disabled": 0, "name": "713aeec5ea56669d7acadab3f3ea75fb", "fusion_lat": 0.0, "rental_uris": {"ios": "https://dc.lft.to/lastmile_qr_scan", "android": "https://dc.lft.to/lastmile_qr_scan"}, "lon": -77.0364555, "type": "electric_scooter"}, {"bike_id": "66033efb31874ffa3e93242aa7ea1c45", "is_reserved": 0, "fusion_lon": 0.0, "lat": 38.95553266666667, "is_disabled": 0, "name": "66033efb31874ffa3e93242aa7ea1c45", "fusion_lat": 0.0, "rental_uris": {"ios": "https://dc.lft.to/lastmile_qr_scan", "android": "https://dc.lft.to/lastmile_qr_scan"}, "lon": -76.940102, "type": "electric_bike"}, {"bike_id": "8b6059f1b853abbcf8aaa1a5f5dd98f2", "is_reserved": 0, "fusion_lon": 0.0, "lat": 38.92552583333333, "is_disabled": 0, "name": "8b6059f1b853abbcf8aaa1a5f5dd98f2", "fusion_lat": 0.0, "rental_uris": {"ios": "https://dc.lft.to/lastmile_qr_scan", "android": "https://dc.lft.to/lastmile_qr_scan"}, "lon": -77.0376235, "type": "electric_scooter"}, {"bike_id": "e24760f7556ea72f937e3dbef5dc0517", "is_reserved": 0, "fusion_lon": 0.0, "lat": 38.88533283333334, "is_disabled": 0, "name": "e24760f7556ea72f937e3dbef5dc0517", "fusion_lat": 0.0, "rental_uris": {"ios": "https://dc.lft.to/lastmile_qr_scan", "android": "https://dc.lft.to/lastmile_qr_scan"}, "lon": -77.00574016666667, "type": "electric_scooter"}, {"bike_id": "eaf3c0dea24212e7e2270f3568785487", "is_reserved": 0, "fusion_lon": 0.0, "lat": 38.902691833333336, "is_disabled": 0, "name": "eaf3c0dea24212e7e2270f3568785487", "fusion_lat": 0.0, "rental_uris": {"ios": "https://dc.lft.to/lastmile_qr_scan", "android": "https://dc.lft.to/lastmile_qr_scan"}, "lon": -77.0384955, "type": "electric_scooter"}, {"bike_id": "c0d4a5120e674d97d29d3c889f256063", "is_reserved": 0, "fusion_lon": 0.0, "lat": 38.866635, "is_disabled": 0, "name": "c0d4a5120e674d97d29d3c889f256063", "fusion_lat": 0.0, "rental_uris": {"ios": "https://dc.lft.to/lastmile_qr_scan", "android": "https://dc.lft.to/lastmile_qr_scan"}, "lon": -76.98906066666666, "type": "electric_scooter"}, {"bike_id": "a5ac76b6bb39e0d34a6b1808e8f4b74c", "is_reserved": 0, "fusion_lon": 0.0, "lat": 38.898991333333335, "is_disabled": 0, "name": "a5ac76b6bb39e0d34a6b1808e8f4b74c", "fusion_lat": 0.0, "rental_uris": {"ios": "https://dc.lft.to/lastmile_qr_scan", "android": "https://dc.lft.to/lastmile_qr_scan"}, "lon": -77.03947116666667, "type": "electric_scooter"}, {"bike_id": "b2b1f3f76aae961f05310f3bb8714e09", "is_reserved": 0, "fusion_lon": 0.0, "lat": 38.897709, "is_disabled": 0, "name": "b2b1f3f76aae961f05310f3bb8714e09", "fusion_lat": 0.0, "rental_uris": {"ios": "https://dc.lft.to/lastmile_qr_scan", "android": "https://dc.lft.to/lastmile_qr_scan"}, "lon": -77.04343683333333, "type": "electric_scooter"}, {"bike_id": "e5999a1ba2f6aaded8f463276b5efc47", "is_reserved": 0, "fusion_lon": 0.0, "lat": 38.93357266666667, "is_disabled": 0, "name": "e5999a1ba2f6aaded8f463276b5efc47", "fusion_lat": 0.0, "rental_uris": {"ios": "https://dc.lft.to/lastmile_qr_scan", "android": "https://dc.lft.to/lastmile_qr_scan"}, "lon": -77.0693975, "type": "electric_scooter"}, {"bike_id": "1e93acb09038ac90135de7a9bd5d70d7", "is_reserved": 0, "fusion_lon": 0.0, "lat": 38.91122033333333, "is_disabled": 0, "name": "1e93acb09038ac90135de7a9bd5d70d7", "fusion_lat": 0.0, "rental_uris": {"ios": "https://dc.lft.to/lastmile_qr_scan", "android": "https://dc.lft.to/lastmile_qr_scan"}, "lon": -77.021835, "type": "electric_scooter"}, {"bike_id": "f69e52815bfdf9592697e3a5302d0218", "is_reserved": 0, "fusion_lon": 0.0, "lat": 38.9097845, "is_disabled": 0, "name": "f69e52815bfdf9592697e3a5302d0218", "fusion_lat": 0.0, "rental_uris": {"ios": "https://dc.lft.to/lastmile_qr_scan", "android": "https://dc.lft.to/lastmile_qr_scan"}, "lon": -77.04868566666667, "type": "electric_scooter"}, {"bike_id": "dbe7ac72464e9cd52ef980bf0f7cfa2e", "is_reserved": 0, "fusion_lon": 0.0, "lat": 38.89877083333333, "is_disabled": 0, "name": "dbe7ac72464e9cd52ef980bf0f7cfa2e", "fusion_lat": 0.0, "rental_uris": {"ios": "https://dc.lft.to/lastmile_qr_scan", "android": "https://dc.lft.to/lastmile_qr_scan"}, "lon": -76.93158816666667, "type": "electric_scooter"}, {"bike_id": "96d9e02fb2287b8f3edba821af7a2f84", "is_reserved": 0, "fusion_lon": 0.0, "lat": 38.8637695, "is_disabled": 0, "name": "96d9e02fb2287b8f3edba821af7a2f84", "fusion_lat": 0.0, "rental_uris": {"ios": "https://dc.lft.to/lastmile_qr_scan", "android": "https://dc.lft.to/lastmile_qr_scan"}, "lon": -76.9905995, "type": "electric_scooter"}, {"bike_id": "6603b4de86dbcac1a3147404daeb6409", "is_reserved": 0, "fusion_lon": 0.0, "lat": 38.899548833333334, "is_disabled": 0, "name": "6603b4de86dbcac1a3147404daeb6409", "fusion_lat": 0.0, "rental_uris": {"ios": "https://dc.lft.to/lastmile_qr_scan", "android": "https://dc.lft.to/lastmile_qr_scan"}, "lon": -77.0337445, "type": "electric_scooter"}, {"bike_id": "9e5dbe4ebdbd2a66c05e91cdb263c73e", "is_reserved": 0, "fusion_lon": 0.0, "lat": 38.934365166666666, "is_disabled": 0, "name": "9e5dbe4ebdbd2a66c05e91cdb263c73e", "fusion_lat": 0.0, "rental_uris": {"ios": "https://dc.lft.to/lastmile_qr_scan", "android": "https://dc.lft.to/lastmile_qr_scan"}, "lon": -77.0343475, "type": "electric_scooter"}, {"bike_id": "d909cc8f41ada83d47467e7c2f0e53e1", "is_reserved": 0, "fusion_lon": 0.0, "lat": 38.89363216666667, "is_disabled": 0, "name": "d909cc8f41ada83d47467e7c2f0e53e1", "fusion_lat": 0.0, "rental_uris": {"ios": "https://dc.lft.to/lastmile_qr_scan", "android": "https://dc.lft.to/lastmile_qr_scan"}, "lon": -76.98516216666667, "type": "electric_bike"}, {"bike_id": "3e9aea14d755d65cdb5e9c5f1c097bc0", "is_reserved": 0, "fusion_lon": 0.0, "lat": 38.95078066666667, "is_disabled": 0, "name": "3e9aea14d755d65cdb5e9c5f1c097bc0", "fusion_lat": 0.0, "rental_uris": {"ios": "https://dc.lft.to/lastmile_qr_scan", "android": "https://dc.lft.to/lastmile_qr_scan"}, "lon": -77.01199383333334, "type": "electric_bike"}, {"bike_id": "d87eb340c477e46df242d40df606c671", "is_reserved": 0, "fusion_lon": 0.0, "lat": 38.9249945, "is_disabled": 0, "name": "d87eb340c477e46df242d40df606c671", "fusion_lat": 0.0, "rental_uris": {"ios": "https://dc.lft.to/lastmile_qr_scan", "android": "https://dc.lft.to/lastmile_qr_scan"}, "lon": -77.0088665, "type": "electric_scooter"}, {"bike_id": "d2e87071af14caa25d1ca15c1b6167a6", "is_reserved": 0, "fusion_lon": 0.0, "lat": 38.96511133333333, "is_disabled": 0, "name": "d2e87071af14caa25d1ca15c1b6167a6", "fusion_lat": 0.0, "rental_uris": {"ios": "https://dc.lft.to/lastmile_qr_scan", "android": "https://dc.lft.to/lastmile_qr_scan"}, "lon": -77.02816916666667, "type": "electric_bike"}, {"bike_id": "c234a6e78a6d8eeb81c560119370a365", "is_reserved": 0, "fusion_lon": 0.0, "lat": 38.917774666666666, "is_disabled": 0, "name": "c234a6e78a6d8eeb81c560119370a365", "fusion_lat": 0.0, "rental_uris": {"ios": "https://dc.lft.to/lastmile_qr_scan", "android": "https://dc.lft.to/lastmile_qr_scan"}, "lon": -77.047452, "type": "electric_scooter"}, {"bike_id": "e0ac1498d5b6797ff442160af1f46428", "is_reserved": 0, "fusion_lon": 0.0, "lat": 38.907201, "is_disabled": 0, "name": "e0ac1498d5b6797ff442160af1f46428", "fusion_lat": 0.0, "rental_uris": {"ios": "https://dc.lft.to/lastmile_qr_scan", "android": "https://dc.lft.to/lastmile_qr_scan"}, "lon": -77.02934116666667, "type": "electric_scooter"}, {"bike_id": "9233e6901762e33e8ddf2668a653cb26", "is_reserved": 0, "fusion_lon": 0.0, "lat": 38.876303666666665, "is_disabled": 0, "name": "9233e6901762e33e8ddf2668a653cb26", "fusion_lat": 0.0, "rental_uris": {"ios": "https://dc.lft.to/lastmile_qr_scan", "android": "https://dc.lft.to/lastmile_qr_scan"}, "lon": -76.965289, "type": "electric_scooter"}, {"bike_id": "fbeaf11c2f49f81846e4044070355e8e", "is_reserved": 0, "fusion_lon": 0.0, "lat": 38.90174016666667, "is_disabled": 0, "name": "fbeaf11c2f49f81846e4044070355e8e", "fusion_lat": 0.0, "rental_uris": {"ios": "https://dc.lft.to/lastmile_qr_scan", "android": "https://dc.lft.to/lastmile_qr_scan"}, "lon": -76.98075, "type": "electric_scooter"}, {"bike_id": "030e07f77a7208f4d331d567305fcd5a", "is_reserved": 0, "fusion_lon": 0.0, "lat": 38.926725, "is_disabled": 0, "name": "030e07f77a7208f4d331d567305fcd5a", "fusion_lat": 0.0, "rental_uris": {"ios": "https://dc.lft.to/lastmile_qr_scan", "android": "https://dc.lft.to/lastmile_qr_scan"}, "lon": -76.99518683333334, "type": "electric_scooter"}, {"bike_id": "6f4f292e3f1a20bd9615bdfcd69f297f", "is_reserved": 0, "fusion_lon": 0.0, "lat": 38.89336016666667, "is_disabled": 0, "name": "6f4f292e3f1a20bd9615bdfcd69f297f", "fusion_lat": 0.0, "rental_uris": {"ios": "https://dc.lft.to/lastmile_qr_scan", "android": "https://dc.lft.to/lastmile_qr_scan"}, "lon": -76.929976, "type": "electric_scooter"}, {"bike_id": "8fda24759d981ff77b9b0d0a3f469dec", "is_reserved": 0, "fusion_lon": 0.0, "lat": 38.89981366666667, "is_disabled": 0, "name": "8fda24759d981ff77b9b0d0a3f469dec", "fusion_lat": 0.0, "rental_uris": {"ios": "https://dc.lft.to/lastmile_qr_scan", "android": "https://dc.lft.to/lastmile_qr_scan"}, "lon": -76.99143233333334, "type": "electric_scooter"}, {"bike_id": "797b25f5dd69f02d4fb7abe6ea7968d9", "is_reserved": 0, "fusion_lon": 0.0, "lat": 38.906776, "is_disabled": 0, "name": "797b25f5dd69f02d4fb7abe6ea7968d9", "fusion_lat": 0.0, "rental_uris": {"ios": "https://dc.lft.to/lastmile_qr_scan", "android": "https://dc.lft.to/lastmile_qr_scan"}, "lon": -77.03756916666667, "type": "electric_scooter"}, {"bike_id": "4ead55c55fd1bab85c2cecda2e195a81", "is_reserved": 0, "fusion_lon": 0.0, "lat": 38.922917166666664, "is_disabled": 0, "name": "4ead55c55fd1bab85c2cecda2e195a81", "fusion_lat": 0.0, "rental_uris": {"ios": "https://dc.lft.to/lastmile_qr_scan", "android": "https://dc.lft.to/lastmile_qr_scan"}, "lon": -77.0295875, "type": "electric_scooter"}, {"bike_id": "99d5f7651764ce86eb0e57b7b4b2fa79", "is_reserved": 0, "fusion_lon": 0.0, "lat": 38.90359316666667, "is_disabled": 0, "name": "99d5f7651764ce86eb0e57b7b4b2fa79", "fusion_lat": 0.0, "rental_uris": {"ios": "https://dc.lft.to/lastmile_qr_scan", "android": "https://dc.lft.to/lastmile_qr_scan"}, "lon": -77.04331066666667, "type": "electric_scooter"}, {"bike_id": "aa7fa4b5f2c41db5b8e5961836b34de1", "is_reserved": 0, "fusion_lon": 0.0, "lat": 38.905779833333334, "is_disabled": 0, "name": "aa7fa4b5f2c41db5b8e5961836b34de1", "fusion_lat": 0.0, "rental_uris": {"ios": "https://dc.lft.to/lastmile_qr_scan", "android": "https://dc.lft.to/lastmile_qr_scan"}, "lon": -77.00571766666667, "type": "electric_scooter"}, {"bike_id": "961686334cb9473581114a1ff1c84c6a", "is_reserved": 0, "fusion_lon": 0.0, "lat": 38.90730283333333, "is_disabled": 0, "name": "961686334cb9473581114a1ff1c84c6a", "fusion_lat": 0.0, "rental_uris": {"ios": "https://dc.lft.to/lastmile_qr_scan", "android": "https://dc.lft.to/lastmile_qr_scan"}, "lon": -77.03209066666666, "type": "electric_scooter"}, {"bike_id": "ffcc9b6c9aefec733ffd6365e00fca0e", "is_reserved": 0, "fusion_lon": 0.0, "lat": 38.911101333333335, "is_disabled": 0, "name": "ffcc9b6c9aefec733ffd6365e00fca0e", "fusion_lat": 0.0, "rental_uris": {"ios": "https://dc.lft.to/lastmile_qr_scan", "android": "https://dc.lft.to/lastmile_qr_scan"}, "lon": -77.002659, "type": "electric_scooter"}, {"bike_id": "de158fd071dbe14c83dca980f5742396", "is_reserved": 0, "fusion_lon": 0.0, "lat": 38.9071385, "is_disabled": 0, "name": "de158fd071dbe14c83dca980f5742396", "fusion_lat": 0.0, "rental_uris": {"ios": "https://dc.lft.to/lastmile_qr_scan", "android": "https://dc.lft.to/lastmile_qr_scan"}, "lon": -77.03209366666667, "type": "electric_scooter"}, {"bike_id": "f002e2afada09c53febd2bbaa20502c2", "is_reserved": 0, "fusion_lon": 0.0, "lat": 38.922836, "is_disabled": 0, "name": "f002e2afada09c53febd2bbaa20502c2", "fusion_lat": 0.0, "rental_uris": {"ios": "https://dc.lft.to/lastmile_qr_scan", "android": "https://dc.lft.to/lastmile_qr_scan"}, "lon": -77.036548, "type": "electric_scooter"}, {"bike_id": "95a0a3f33923ad2ab4be30895e4db6ba", "is_reserved": 0, "fusion_lon": 0.0, "lat": 38.93414716666667, "is_disabled": 0, "name": "95a0a3f33923ad2ab4be30895e4db6ba", "fusion_lat": 0.0, "rental_uris": {"ios": "https://dc.lft.to/lastmile_qr_scan", "android": "https://dc.lft.to/lastmile_qr_scan"}, "lon": -77.03263016666666, "type": "electric_scooter"}, {"bike_id": "ce9d14fc6a8a20d7d6e98095b0f89985", "is_reserved": 0, "fusion_lon": 0.0, "lat": 38.90453483333334, "is_disabled": 0, "name": "ce9d14fc6a8a20d7d6e98095b0f89985", "fusion_lat": 0.0, "rental_uris": {"ios": "https://dc.lft.to/lastmile_qr_scan", "android": "https://dc.lft.to/lastmile_qr_scan"}, "lon": -77.05922016666666, "type": "electric_scooter"}, {"bike_id": "bb3c11c374e2a955791648562685c6a3", "is_reserved": 0, "fusion_lon": 0.0, "lat": 38.86412383333333, "is_disabled": 0, "name": "bb3c11c374e2a955791648562685c6a3", "fusion_lat": 0.0, "rental_uris": {"ios": "https://dc.lft.to/lastmile_qr_scan", "android": "https://dc.lft.to/lastmile_qr_scan"}, "lon": -77.0135345, "type": "electric_scooter"}, {"bike_id": "e2a47a9c2b3e7554bba8ca284b83b05b", "is_reserved": 0, "fusion_lon": 0.0, "lat": 38.95738083333333, "is_disabled": 0, "name": "e2a47a9c2b3e7554bba8ca284b83b05b", "fusion_lat": 0.0, "rental_uris": {"ios": "https://dc.lft.to/lastmile_qr_scan", "android": "https://dc.lft.to/lastmile_qr_scan"}, "lon": -77.02415366666666, "type": "electric_scooter"}, {"bike_id": "da6ade6a94d0c69379431c6a1bd171b2", "is_reserved": 0, "fusion_lon": 0.0, "lat": 38.90963033333333, "is_disabled": 0, "name": "da6ade6a94d0c69379431c6a1bd171b2", "fusion_lat": 0.0, "rental_uris": {"ios": "https://dc.lft.to/lastmile_qr_scan", "android": "https://dc.lft.to/lastmile_qr_scan"}, "lon": -77.03414, "type": "electric_scooter"}, {"bike_id": "030c349ef7de8440572a62018cfd2318", "is_reserved": 0, "fusion_lon": 0.0, "lat": 38.901766, "is_disabled": 0, "name": "030c349ef7de8440572a62018cfd2318", "fusion_lat": 0.0, "rental_uris": {"ios": "https://dc.lft.to/lastmile_qr_scan", "android": "https://dc.lft.to/lastmile_qr_scan"}, "lon": -76.9998145, "type": "electric_scooter"}, {"bike_id": "9aa9b8f944d1bdaa04237d3b745cfdbc", "is_reserved": 0, "fusion_lon": 0.0, "lat": 38.91406216666667, "is_disabled": 0, "name": "9aa9b8f944d1bdaa04237d3b745cfdbc", "fusion_lat": 0.0, "rental_uris": {"ios": "https://dc.lft.to/lastmile_qr_scan", "android": "https://dc.lft.to/lastmile_qr_scan"}, "lon": -77.03807283333333, "type": "electric_scooter"}, {"bike_id": "f02369bceaf8b995f6643a511c8b8c61", "is_reserved": 0, "fusion_lon": 0.0, "lat": 38.88439433333333, "is_disabled": 0, "name": "f02369bceaf8b995f6643a511c8b8c61", "fusion_lat": 0.0, "rental_uris": {"ios": "https://dc.lft.to/lastmile_qr_scan", "android": "https://dc.lft.to/lastmile_qr_scan"}, "lon": -77.03036983333334, "type": "electric_scooter"}, {"bike_id": "4fda3c407f7a3aebd5ba60ba465aef8d", "is_reserved": 0, "fusion_lon": 0.0, "lat": 38.86358083333333, "is_disabled": 0, "name": "4fda3c407f7a3aebd5ba60ba465aef8d", "fusion_lat": 0.0, "rental_uris": {"ios": "https://dc.lft.to/lastmile_qr_scan", "android": "https://dc.lft.to/lastmile_qr_scan"}, "lon": -76.990657, "type": "electric_scooter"}, {"bike_id": "371ffbf18ae3b2162982bf5586b283a8", "is_reserved": 0, "fusion_lon": 0.0, "lat": 38.95810733333333, "is_disabled": 0, "name": "371ffbf18ae3b2162982bf5586b283a8", "fusion_lat": 0.0, "rental_uris": {"ios": "https://dc.lft.to/lastmile_qr_scan", "android": "https://dc.lft.to/lastmile_qr_scan"}, "lon": -77.01378683333333, "type": "electric_bike"}, {"bike_id": "80f052731d2b64229a23d5cd4ec767f7", "is_reserved": 0, "fusion_lon": 0.0, "lat": 38.91906633333333, "is_disabled": 0, "name": "80f052731d2b64229a23d5cd4ec767f7", "fusion_lat": 0.0, "rental_uris": {"ios": "https://dc.lft.to/lastmile_qr_scan", "android": "https://dc.lft.to/lastmile_qr_scan"}, "lon": -77.01978883333334, "type": "electric_scooter"}, {"bike_id": "b40373f6cd259656bd258baccd60758c", "is_reserved": 0, "fusion_lon": 0.0, "lat": 38.90261316666667, "is_disabled": 0, "name": "b40373f6cd259656bd258baccd60758c", "fusion_lat": 0.0, "rental_uris": {"ios": "https://dc.lft.to/lastmile_qr_scan", "android": "https://dc.lft.to/lastmile_qr_scan"}, "lon": -77.038648, "type": "electric_scooter"}, {"bike_id": "fa19d4ee0860e00a6c125561969f1307", "is_reserved": 0, "fusion_lon": 0.0, "lat": 38.876448, "is_disabled": 0, "name": "fa19d4ee0860e00a6c125561969f1307", "fusion_lat": 0.0, "rental_uris": {"ios": "https://dc.lft.to/lastmile_qr_scan", "android": "https://dc.lft.to/lastmile_qr_scan"}, "lon": -76.99586283333333, "type": "electric_scooter"}, {"bike_id": "98f138bbaf1faad30017d52b4b4e46b9", "is_reserved": 0, "fusion_lon": 0.0, "lat": 38.934633833333336, "is_disabled": 0, "name": "98f138bbaf1faad30017d52b4b4e46b9", "fusion_lat": 0.0, "rental_uris": {"ios": "https://dc.lft.to/lastmile_qr_scan", "android": "https://dc.lft.to/lastmile_qr_scan"}, "lon": -77.03122066666667, "type": "electric_scooter"}, {"bike_id": "a7f5262af6f3f01f2f15415cbc6dcfd0", "is_reserved": 0, "fusion_lon": 0.0, "lat": 38.9183645, "is_disabled": 0, "name": "a7f5262af6f3f01f2f15415cbc6dcfd0", "fusion_lat": 0.0, "rental_uris": {"ios": "https://dc.lft.to/lastmile_qr_scan", "android": "https://dc.lft.to/lastmile_qr_scan"}, "lon": -77.03891083333333, "type": "electric_scooter"}, {"bike_id": "2a51ad66801a250b3b48398bb0b4511c", "is_reserved": 0, "fusion_lon": 0.0, "lat": 38.914838, "is_disabled": 0, "name": "2a51ad66801a250b3b48398bb0b4511c", "fusion_lat": 0.0, "rental_uris": {"ios": "https://dc.lft.to/lastmile_qr_scan", "android": "https://dc.lft.to/lastmile_qr_scan"}, "lon": -77.02176283333333, "type": "electric_scooter"}, {"bike_id": "63ddefbd07c73d42e02747e0f0490516", "is_reserved": 0, "fusion_lon": 0.0, "lat": 38.900198, "is_disabled": 0, "name": "63ddefbd07c73d42e02747e0f0490516", "fusion_lat": 0.0, "rental_uris": {"ios": "https://dc.lft.to/lastmile_qr_scan", "android": "https://dc.lft.to/lastmile_qr_scan"}, "lon": -77.01106083333333, "type": "electric_scooter"}, {"bike_id": "0317c8125f7478dd6868983e7bcac75b", "is_reserved": 0, "fusion_lon": 0.0, "lat": 38.915667666666664, "is_disabled": 0, "name": "0317c8125f7478dd6868983e7bcac75b", "fusion_lat": 0.0, "rental_uris": {"ios": "https://dc.lft.to/lastmile_qr_scan", "android": "https://dc.lft.to/lastmile_qr_scan"}, "lon": -77.010623, "type": "electric_scooter"}, {"bike_id": "e7f63ab0a267ba0ef0c6918ff3a2e452", "is_reserved": 0, "fusion_lon": 0.0, "lat": 38.898119666666666, "is_disabled": 0, "name": "e7f63ab0a267ba0ef0c6918ff3a2e452", "fusion_lat": 0.0, "rental_uris": {"ios": "https://dc.lft.to/lastmile_qr_scan", "android": "https://dc.lft.to/lastmile_qr_scan"}, "lon": -77.03310766666667, "type": "electric_scooter"}, {"bike_id": "18ef8857c2a073dc29408ecfdbf3bea3", "is_reserved": 0, "fusion_lon": 0.0, "lat": 38.884912, "is_disabled": 0, "name": "18ef8857c2a073dc29408ecfdbf3bea3", "fusion_lat": 0.0, "rental_uris": {"ios": "https://dc.lft.to/lastmile_qr_scan", "android": "https://dc.lft.to/lastmile_qr_scan"}, "lon": -77.00708266666666, "type": "electric_scooter"}, {"bike_id": "a0ca6faccb63b3811cfa298016d1986f", "is_reserved": 0, "fusion_lon": 0.0, "lat": 38.8917085, "is_disabled": 0, "name": "a0ca6faccb63b3811cfa298016d1986f", "fusion_lat": 0.0, "rental_uris": {"ios": "https://dc.lft.to/lastmile_qr_scan", "android": "https://dc.lft.to/lastmile_qr_scan"}, "lon": -77.01546533333334, "type": "electric_scooter"}, {"bike_id": "7e8f007cd0f76fc7e3e0838cbec3e9b6", "is_reserved": 0, "fusion_lon": 0.0, "lat": 38.842934166666666, "is_disabled": 0, "name": "7e8f007cd0f76fc7e3e0838cbec3e9b6", "fusion_lat": 0.0, "rental_uris": {"ios": "https://dc.lft.to/lastmile_qr_scan", "android": "https://dc.lft.to/lastmile_qr_scan"}, "lon": -76.9994565, "type": "electric_scooter"}, {"bike_id": "e9ca9c8c1d5f6368d81d04fa55a51047", "is_reserved": 0, "fusion_lon": 0.0, "lat": 38.9367495, "is_disabled": 0, "name": "e9ca9c8c1d5f6368d81d04fa55a51047", "fusion_lat": 0.0, "rental_uris": {"ios": "https://dc.lft.to/lastmile_qr_scan", "android": "https://dc.lft.to/lastmile_qr_scan"}, "lon": -77.03589783333334, "type": "electric_scooter"}, {"bike_id": "1c7e06c2664f3f824107eb794dcd099c", "is_reserved": 0, "fusion_lon": 0.0, "lat": 38.898438, "is_disabled": 0, "name": "1c7e06c2664f3f824107eb794dcd099c", "fusion_lat": 0.0, "rental_uris": {"ios": "https://dc.lft.to/lastmile_qr_scan", "android": "https://dc.lft.to/lastmile_qr_scan"}, "lon": -77.00740833333333, "type": "electric_scooter"}, {"bike_id": "976ad56360d7a1218ca0dc0a7d481fdb", "is_reserved": 0, "fusion_lon": 0.0, "lat": 38.913863, "is_disabled": 0, "name": "976ad56360d7a1218ca0dc0a7d481fdb", "fusion_lat": 0.0, "rental_uris": {"ios": "https://dc.lft.to/lastmile_qr_scan", "android": "https://dc.lft.to/lastmile_qr_scan"}, "lon": -77.01796283333333, "type": "electric_scooter"}, {"bike_id": "1e2888123dac876dbe18f23704561809", "is_reserved": 0, "fusion_lon": 0.0, "lat": 38.918087666666665, "is_disabled": 0, "name": "1e2888123dac876dbe18f23704561809", "fusion_lat": 0.0, "rental_uris": {"ios": "https://dc.lft.to/lastmile_qr_scan", "android": "https://dc.lft.to/lastmile_qr_scan"}, "lon": -77.0343975, "type": "electric_scooter"}, {"bike_id": "cc66c2d4aaa9831a90eb91b12768475a", "is_reserved": 0, "fusion_lon": 0.0, "lat": 38.9141165, "is_disabled": 0, "name": "cc66c2d4aaa9831a90eb91b12768475a", "fusion_lat": 0.0, "rental_uris": {"ios": "https://dc.lft.to/lastmile_qr_scan", "android": "https://dc.lft.to/lastmile_qr_scan"}, "lon": -77.04138816666666, "type": "electric_scooter"}, {"bike_id": "17097f5d0f6044ab105f02491a23af26", "is_reserved": 0, "fusion_lon": 0.0, "lat": 38.92436633333333, "is_disabled": 0, "name": "17097f5d0f6044ab105f02491a23af26", "fusion_lat": 0.0, "rental_uris": {"ios": "https://dc.lft.to/lastmile_qr_scan", "android": "https://dc.lft.to/lastmile_qr_scan"}, "lon": -76.99731766666666, "type": "electric_bike"}, {"bike_id": "eec8938304dbec7cd9ce90752f8bcd45", "is_reserved": 0, "fusion_lon": 0.0, "lat": 38.908687666666665, "is_disabled": 0, "name": "eec8938304dbec7cd9ce90752f8bcd45", "fusion_lat": 0.0, "rental_uris": {"ios": "https://dc.lft.to/lastmile_qr_scan", "android": "https://dc.lft.to/lastmile_qr_scan"}, "lon": -77.00628883333333, "type": "electric_scooter"}, {"bike_id": "6897f295ffb25f07727b25bc516fc457", "is_reserved": 0, "fusion_lon": 0.0, "lat": 38.902733166666664, "is_disabled": 0, "name": "6897f295ffb25f07727b25bc516fc457", "fusion_lat": 0.0, "rental_uris": {"ios": "https://dc.lft.to/lastmile_qr_scan", "android": "https://dc.lft.to/lastmile_qr_scan"}, "lon": -77.06117583333334, "type": "electric_scooter"}, {"bike_id": "7d668d2f67d5bea4335e3ff43e7057b1", "is_reserved": 0, "fusion_lon": 0.0, "lat": 38.91774566666667, "is_disabled": 0, "name": "7d668d2f67d5bea4335e3ff43e7057b1", "fusion_lat": 0.0, "rental_uris": {"ios": "https://dc.lft.to/lastmile_qr_scan", "android": "https://dc.lft.to/lastmile_qr_scan"}, "lon": -77.04054833333333, "type": "electric_scooter"}, {"bike_id": "125e6797dcdb751527fab524017427fc", "is_reserved": 0, "fusion_lon": 0.0, "lat": 38.91726416666667, "is_disabled": 0, "name": "125e6797dcdb751527fab524017427fc", "fusion_lat": 0.0, "rental_uris": {"ios": "https://dc.lft.to/lastmile_qr_scan", "android": "https://dc.lft.to/lastmile_qr_scan"}, "lon": -77.06835866666667, "type": "electric_scooter"}, {"bike_id": "c8e93a6f117224f11d80e87726cd0df7", "is_reserved": 0, "fusion_lon": 0.0, "lat": 38.93911816666667, "is_disabled": 0, "name": "c8e93a6f117224f11d80e87726cd0df7", "fusion_lat": 0.0, "rental_uris": {"ios": "https://dc.lft.to/lastmile_qr_scan", "android": "https://dc.lft.to/lastmile_qr_scan"}, "lon": -77.0772525, "type": "electric_scooter"}, {"bike_id": "a4c34ea3a15b9bce3597f97537e17d00", "is_reserved": 0, "fusion_lon": 0.0, "lat": 38.8946965, "is_disabled": 0, "name": "a4c34ea3a15b9bce3597f97537e17d00", "fusion_lat": 0.0, "rental_uris": {"ios": "https://dc.lft.to/lastmile_qr_scan", "android": "https://dc.lft.to/lastmile_qr_scan"}, "lon": -77.03071283333334, "type": "electric_scooter"}, {"bike_id": "c9a3b6aa0a75940a890f86d7fbfbb003", "is_reserved": 0, "fusion_lon": 0.0, "lat": 38.922160166666664, "is_disabled": 0, "name": "c9a3b6aa0a75940a890f86d7fbfbb003", "fusion_lat": 0.0, "rental_uris": {"ios": "https://dc.lft.to/lastmile_qr_scan", "android": "https://dc.lft.to/lastmile_qr_scan"}, "lon": -77.04256533333333, "type": "electric_scooter"}, {"bike_id": "f362077b134190860b4844b56ac6bb4a", "is_reserved": 0, "fusion_lon": 0.0, "lat": 38.905981833333335, "is_disabled": 0, "name": "f362077b134190860b4844b56ac6bb4a", "fusion_lat": 0.0, "rental_uris": {"ios": "https://dc.lft.to/lastmile_qr_scan", "android": "https://dc.lft.to/lastmile_qr_scan"}, "lon": -77.04028016666666, "type": "electric_scooter"}, {"bike_id": "9480dcc74a0a937c57dfdae93a109427", "is_reserved": 0, "fusion_lon": 0.0, "lat": 38.93379516666667, "is_disabled": 0, "name": "9480dcc74a0a937c57dfdae93a109427", "fusion_lat": 0.0, "rental_uris": {"ios": "https://dc.lft.to/lastmile_qr_scan", "android": "https://dc.lft.to/lastmile_qr_scan"}, "lon": -77.0346265, "type": "electric_scooter"}, {"bike_id": "471b73ed4098f7a5b2d86db3a3b6ec3f", "is_reserved": 0, "fusion_lon": 0.0, "lat": 38.948327666666664, "is_disabled": 0, "name": "471b73ed4098f7a5b2d86db3a3b6ec3f", "fusion_lat": 0.0, "rental_uris": {"ios": "https://dc.lft.to/lastmile_qr_scan", "android": "https://dc.lft.to/lastmile_qr_scan"}, "lon": -77.03898416666667, "type": "electric_bike"}, {"bike_id": "e74fe4369517f038f31ca0f6c3ee0f58", "is_reserved": 0, "fusion_lon": 0.0, "lat": 38.90032883333333, "is_disabled": 0, "name": "e74fe4369517f038f31ca0f6c3ee0f58", "fusion_lat": 0.0, "rental_uris": {"ios": "https://dc.lft.to/lastmile_qr_scan", "android": "https://dc.lft.to/lastmile_qr_scan"}, "lon": -76.9953155, "type": "electric_scooter"}, {"bike_id": "c37af3ba3c6ae07c01cc21860fbdf813", "is_reserved": 0, "fusion_lon": 0.0, "lat": 38.9066925, "is_disabled": 0, "name": "c37af3ba3c6ae07c01cc21860fbdf813", "fusion_lat": 0.0, "rental_uris": {"ios": "https://dc.lft.to/lastmile_qr_scan", "android": "https://dc.lft.to/lastmile_qr_scan"}, "lon": -77.02703983333333, "type": "electric_scooter"}, {"bike_id": "29b43eb0708e540576ce50bfe425b670", "is_reserved": 0, "fusion_lon": 0.0, "lat": 38.86726916666667, "is_disabled": 0, "name": "29b43eb0708e540576ce50bfe425b670", "fusion_lat": 0.0, "rental_uris": {"ios": "https://dc.lft.to/lastmile_qr_scan", "android": "https://dc.lft.to/lastmile_qr_scan"}, "lon": -76.98771566666667, "type": "electric_scooter"}, {"bike_id": "1e250ef3c8a9906de19a525de3a12573", "is_reserved": 0, "fusion_lon": 0.0, "lat": 38.92869433333333, "is_disabled": 0, "name": "1e250ef3c8a9906de19a525de3a12573", "fusion_lat": 0.0, "rental_uris": {"ios": "https://dc.lft.to/lastmile_qr_scan", "android": "https://dc.lft.to/lastmile_qr_scan"}, "lon": -77.03634116666667, "type": "electric_scooter"}, {"bike_id": "e2060c4d34aac33dae3f7536fa929459", "is_reserved": 0, "fusion_lon": 0.0, "lat": 38.8994025, "is_disabled": 0, "name": "e2060c4d34aac33dae3f7536fa929459", "fusion_lat": 0.0, "rental_uris": {"ios": "https://dc.lft.to/lastmile_qr_scan", "android": "https://dc.lft.to/lastmile_qr_scan"}, "lon": -77.03182616666666, "type": "electric_scooter"}, {"bike_id": "e873d72948e8fdc7912eb7ca5a0d0798", "is_reserved": 0, "fusion_lon": 0.0, "lat": 38.916115833333336, "is_disabled": 0, "name": "e873d72948e8fdc7912eb7ca5a0d0798", "fusion_lat": 0.0, "rental_uris": {"ios": "https://dc.lft.to/lastmile_qr_scan", "android": "https://dc.lft.to/lastmile_qr_scan"}, "lon": -77.04341566666666, "type": "electric_scooter"}, {"bike_id": "89cb10dbf640fff9c0e9f98296aec8cf", "is_reserved": 0, "fusion_lon": 0.0, "lat": 38.89799083333333, "is_disabled": 0, "name": "89cb10dbf640fff9c0e9f98296aec8cf", "fusion_lat": 0.0, "rental_uris": {"ios": "https://dc.lft.to/lastmile_qr_scan", "android": "https://dc.lft.to/lastmile_qr_scan"}, "lon": -76.99163766666666, "type": "electric_scooter"}, {"bike_id": "99db2be74beaa83cc0aabc0a217edd08", "is_reserved": 0, "fusion_lon": 0.0, "lat": 38.91837966666667, "is_disabled": 0, "name": "99db2be74beaa83cc0aabc0a217edd08", "fusion_lat": 0.0, "rental_uris": {"ios": "https://dc.lft.to/lastmile_qr_scan", "android": "https://dc.lft.to/lastmile_qr_scan"}, "lon": -77.0389645, "type": "electric_scooter"}, {"bike_id": "803fd9cb40cd788b7bdfb64dc5f35707", "is_reserved": 0, "fusion_lon": 0.0, "lat": 38.905493666666665, "is_disabled": 0, "name": "803fd9cb40cd788b7bdfb64dc5f35707", "fusion_lat": 0.0, "rental_uris": {"ios": "https://dc.lft.to/lastmile_qr_scan", "android": "https://dc.lft.to/lastmile_qr_scan"}, "lon": -77.005601, "type": "electric_scooter"}, {"bike_id": "78e309aed451d9509d1bd88a9730e15f", "is_reserved": 0, "fusion_lon": 0.0, "lat": 38.95620383333333, "is_disabled": 0, "name": "78e309aed451d9509d1bd88a9730e15f", "fusion_lat": 0.0, "rental_uris": {"ios": "https://dc.lft.to/lastmile_qr_scan", "android": "https://dc.lft.to/lastmile_qr_scan"}, "lon": -76.93883583333333, "type": "electric_bike"}, {"bike_id": "5ad3fad6fc7a98e2da7acb2980105780", "is_reserved": 0, "fusion_lon": 0.0, "lat": 38.88329816666667, "is_disabled": 0, "name": "5ad3fad6fc7a98e2da7acb2980105780", "fusion_lat": 0.0, "rental_uris": {"ios": "https://dc.lft.to/lastmile_qr_scan", "android": "https://dc.lft.to/lastmile_qr_scan"}, "lon": -77.01757516666666, "type": "electric_scooter"}, {"bike_id": "b30e4be611f61ad3b17d503c058c3803", "is_reserved": 0, "fusion_lon": 0.0, "lat": 38.897585, "is_disabled": 0, "name": "b30e4be611f61ad3b17d503c058c3803", "fusion_lat": 0.0, "rental_uris": {"ios": "https://dc.lft.to/lastmile_qr_scan", "android": "https://dc.lft.to/lastmile_qr_scan"}, "lon": -77.0270025, "type": "electric_scooter"}, {"bike_id": "2b77a12320e1295529e2606d122f9b19", "is_reserved": 0, "fusion_lon": 0.0, "lat": 38.934488333333334, "is_disabled": 0, "name": "2b77a12320e1295529e2606d122f9b19", "fusion_lat": 0.0, "rental_uris": {"ios": "https://dc.lft.to/lastmile_qr_scan", "android": "https://dc.lft.to/lastmile_qr_scan"}, "lon": -77.0284415, "type": "electric_scooter"}, {"bike_id": "7a20b00d607322a5a56d40362bb9448f", "is_reserved": 0, "fusion_lon": 0.0, "lat": 38.92484483333333, "is_disabled": 0, "name": "7a20b00d607322a5a56d40362bb9448f", "fusion_lat": 0.0, "rental_uris": {"ios": "https://dc.lft.to/lastmile_qr_scan", "android": "https://dc.lft.to/lastmile_qr_scan"}, "lon": -77.03770133333333, "type": "electric_scooter"}, {"bike_id": "3508237e3ec496170eb185fef3103c5d", "is_reserved": 0, "fusion_lon": 0.0, "lat": 38.885056, "is_disabled": 0, "name": "3508237e3ec496170eb185fef3103c5d", "fusion_lat": 0.0, "rental_uris": {"ios": "https://dc.lft.to/lastmile_qr_scan", "android": "https://dc.lft.to/lastmile_qr_scan"}, "lon": -77.00567533333333, "type": "electric_scooter"}, {"bike_id": "7e912d5c2934fbecaeb4bab9e8adf0d3", "is_reserved": 0, "fusion_lon": 0.0, "lat": 38.917041166666664, "is_disabled": 0, "name": "7e912d5c2934fbecaeb4bab9e8adf0d3", "fusion_lat": 0.0, "rental_uris": {"ios": "https://dc.lft.to/lastmile_qr_scan", "android": "https://dc.lft.to/lastmile_qr_scan"}, "lon": -77.0228815, "type": "electric_scooter"}, {"bike_id": "1093e1014997e0b86132a606bebd9fc7", "is_reserved": 0, "fusion_lon": 0.0, "lat": 38.928392, "is_disabled": 0, "name": "1093e1014997e0b86132a606bebd9fc7", "fusion_lat": 0.0, "rental_uris": {"ios": "https://dc.lft.to/lastmile_qr_scan", "android": "https://dc.lft.to/lastmile_qr_scan"}, "lon": -77.055201, "type": "electric_scooter"}, {"bike_id": "bfa61cce90c6b092d51c576cc56faa1d", "is_reserved": 0, "fusion_lon": 0.0, "lat": 38.897706666666664, "is_disabled": 0, "name": "bfa61cce90c6b092d51c576cc56faa1d", "fusion_lat": 0.0, "rental_uris": {"ios": "https://dc.lft.to/lastmile_qr_scan", "android": "https://dc.lft.to/lastmile_qr_scan"}, "lon": -76.90443466666666, "type": "electric_bike"}, {"bike_id": "7d6c7e47b3d4922d3af27b1641fd051b", "is_reserved": 0, "fusion_lon": 0.0, "lat": 38.86629583333333, "is_disabled": 0, "name": "7d6c7e47b3d4922d3af27b1641fd051b", "fusion_lat": 0.0, "rental_uris": {"ios": "https://dc.lft.to/lastmile_qr_scan", "android": "https://dc.lft.to/lastmile_qr_scan"}, "lon": -76.98708666666667, "type": "electric_scooter"}, {"bike_id": "df93d4f9560be56cb76fab6bd7317087", "is_reserved": 0, "fusion_lon": 0.0, "lat": 38.88038016666667, "is_disabled": 0, "name": "df93d4f9560be56cb76fab6bd7317087", "fusion_lat": 0.0, "rental_uris": {"ios": "https://dc.lft.to/lastmile_qr_scan", "android": "https://dc.lft.to/lastmile_qr_scan"}, "lon": -77.025134, "type": "electric_scooter"}, {"bike_id": "2638bce6a57bfb4b8b11286561f32e52", "is_reserved": 0, "fusion_lon": 0.0, "lat": 38.909108, "is_disabled": 0, "name": "2638bce6a57bfb4b8b11286561f32e52", "fusion_lat": 0.0, "rental_uris": {"ios": "https://dc.lft.to/lastmile_qr_scan", "android": "https://dc.lft.to/lastmile_qr_scan"}, "lon": -77.03128616666666, "type": "electric_scooter"}, {"bike_id": "854c627f15bc4b061843a2158f539a22", "is_reserved": 0, "fusion_lon": 0.0, "lat": 38.921815, "is_disabled": 0, "name": "854c627f15bc4b061843a2158f539a22", "fusion_lat": 0.0, "rental_uris": {"ios": "https://dc.lft.to/lastmile_qr_scan", "android": "https://dc.lft.to/lastmile_qr_scan"}, "lon": -77.042773, "type": "electric_scooter"}, {"bike_id": "800efa4a84a1d99cbd805481befc4a8d", "is_reserved": 0, "fusion_lon": 0.0, "lat": 38.89888216666667, "is_disabled": 0, "name": "800efa4a84a1d99cbd805481befc4a8d", "fusion_lat": 0.0, "rental_uris": {"ios": "https://dc.lft.to/lastmile_qr_scan", "android": "https://dc.lft.to/lastmile_qr_scan"}, "lon": -77.04482216666666, "type": "electric_scooter"}, {"bike_id": "bec34d557df3d6c304a622736d00d249", "is_reserved": 0, "fusion_lon": 0.0, "lat": 38.91040433333333, "is_disabled": 0, "name": "bec34d557df3d6c304a622736d00d249", "fusion_lat": 0.0, "rental_uris": {"ios": "https://dc.lft.to/lastmile_qr_scan", "android": "https://dc.lft.to/lastmile_qr_scan"}, "lon": -77.028077, "type": "electric_scooter"}, {"bike_id": "d5332da6c8ffa99e7582ba39f2d0c63f", "is_reserved": 0, "fusion_lon": 0.0, "lat": 38.92576583333334, "is_disabled": 0, "name": "d5332da6c8ffa99e7582ba39f2d0c63f", "fusion_lat": 0.0, "rental_uris": {"ios": "https://dc.lft.to/lastmile_qr_scan", "android": "https://dc.lft.to/lastmile_qr_scan"}, "lon": -77.07305316666667, "type": "electric_scooter"}, {"bike_id": "02a392f631a0b241f36d5e87db6980c9", "is_reserved": 0, "fusion_lon": 0.0, "lat": 38.93494066666667, "is_disabled": 0, "name": "02a392f631a0b241f36d5e87db6980c9", "fusion_lat": 0.0, "rental_uris": {"ios": "https://dc.lft.to/lastmile_qr_scan", "android": "https://dc.lft.to/lastmile_qr_scan"}, "lon": -77.03521783333333, "type": "electric_scooter"}, {"bike_id": "8f0b45b380f45a6f529ba6f84f3a1226", "is_reserved": 0, "fusion_lon": 0.0, "lat": 38.91706683333334, "is_disabled": 0, "name": "8f0b45b380f45a6f529ba6f84f3a1226", "fusion_lat": 0.0, "rental_uris": {"ios": "https://dc.lft.to/lastmile_qr_scan", "android": "https://dc.lft.to/lastmile_qr_scan"}, "lon": -77.0245025, "type": "electric_scooter"}, {"bike_id": "05e00927dc49140d54a9815ddd16a6e9", "is_reserved": 0, "fusion_lon": 0.0, "lat": 38.950901, "is_disabled": 0, "name": "05e00927dc49140d54a9815ddd16a6e9", "fusion_lat": 0.0, "rental_uris": {"ios": "https://dc.lft.to/lastmile_qr_scan", "android": "https://dc.lft.to/lastmile_qr_scan"}, "lon": -77.02828383333333, "type": "electric_scooter"}, {"bike_id": "ed3225207f1e48222e0b1a8af03ab293", "is_reserved": 0, "fusion_lon": 0.0, "lat": 38.91569233333333, "is_disabled": 0, "name": "ed3225207f1e48222e0b1a8af03ab293", "fusion_lat": 0.0, "rental_uris": {"ios": "https://dc.lft.to/lastmile_qr_scan", "android": "https://dc.lft.to/lastmile_qr_scan"}, "lon": -77.03910416666666, "type": "electric_scooter"}, {"bike_id": "12e3233ac3e8ef44dcd4d1ac87e0cf2a", "is_reserved": 0, "fusion_lon": 0.0, "lat": 38.93064066666667, "is_disabled": 0, "name": "12e3233ac3e8ef44dcd4d1ac87e0cf2a", "fusion_lat": 0.0, "rental_uris": {"ios": "https://dc.lft.to/lastmile_qr_scan", "android": "https://dc.lft.to/lastmile_qr_scan"}, "lon": -77.02975916666666, "type": "electric_scooter"}, {"bike_id": "37f0044460a7c591852973a7ad9030aa", "is_reserved": 0, "fusion_lon": 0.0, "lat": 38.92193483333333, "is_disabled": 0, "name": "37f0044460a7c591852973a7ad9030aa", "fusion_lat": 0.0, "rental_uris": {"ios": "https://dc.lft.to/lastmile_qr_scan", "android": "https://dc.lft.to/lastmile_qr_scan"}, "lon": -77.04246833333333, "type": "electric_scooter"}, {"bike_id": "4c81b48843d46288757e9ed8e2989e6a", "is_reserved": 0, "fusion_lon": 0.0, "lat": 38.909567333333335, "is_disabled": 0, "name": "4c81b48843d46288757e9ed8e2989e6a", "fusion_lat": 0.0, "rental_uris": {"ios": "https://dc.lft.to/lastmile_qr_scan", "android": "https://dc.lft.to/lastmile_qr_scan"}, "lon": -77.020013, "type": "electric_scooter"}, {"bike_id": "b6ae51d6bb09916133b287927bb7ecdb", "is_reserved": 0, "fusion_lon": 0.0, "lat": 38.92260516666666, "is_disabled": 0, "name": "b6ae51d6bb09916133b287927bb7ecdb", "fusion_lat": 0.0, "rental_uris": {"ios": "https://dc.lft.to/lastmile_qr_scan", "android": "https://dc.lft.to/lastmile_qr_scan"}, "lon": -77.04213716666666, "type": "electric_scooter"}, {"bike_id": "a99411497b47d5dcd08196cdf03ebe3d", "is_reserved": 0, "fusion_lon": 0.0, "lat": 38.901604666666664, "is_disabled": 0, "name": "a99411497b47d5dcd08196cdf03ebe3d", "fusion_lat": 0.0, "rental_uris": {"ios": "https://dc.lft.to/lastmile_qr_scan", "android": "https://dc.lft.to/lastmile_qr_scan"}, "lon": -76.975002, "type": "electric_scooter"}, {"bike_id": "7a5eee2c94e0d45575a589dae121c1f1", "is_reserved": 0, "fusion_lon": 0.0, "lat": 38.900828, "is_disabled": 0, "name": "7a5eee2c94e0d45575a589dae121c1f1", "fusion_lat": 0.0, "rental_uris": {"ios": "https://dc.lft.to/lastmile_qr_scan", "android": "https://dc.lft.to/lastmile_qr_scan"}, "lon": -77.047788, "type": "electric_scooter"}, {"bike_id": "0844ce5dc970ce07ff64d658da15d44e", "is_reserved": 0, "fusion_lon": 0.0, "lat": 38.917186, "is_disabled": 0, "name": "0844ce5dc970ce07ff64d658da15d44e", "fusion_lat": 0.0, "rental_uris": {"ios": "https://dc.lft.to/lastmile_qr_scan", "android": "https://dc.lft.to/lastmile_qr_scan"}, "lon": -77.03043533333333, "type": "electric_scooter"}, {"bike_id": "d4b7215eb0f0c5451597000d6b10fc00", "is_reserved": 0, "fusion_lon": 0.0, "lat": 38.9029475, "is_disabled": 0, "name": "d4b7215eb0f0c5451597000d6b10fc00", "fusion_lat": 0.0, "rental_uris": {"ios": "https://dc.lft.to/lastmile_qr_scan", "android": "https://dc.lft.to/lastmile_qr_scan"}, "lon": -76.94438733333334, "type": "electric_bike"}, {"bike_id": "bedcb0df08d798b298f5331f1dd14f25", "is_reserved": 0, "fusion_lon": 0.0, "lat": 38.933449833333334, "is_disabled": 0, "name": "bedcb0df08d798b298f5331f1dd14f25", "fusion_lat": 0.0, "rental_uris": {"ios": "https://dc.lft.to/lastmile_qr_scan", "android": "https://dc.lft.to/lastmile_qr_scan"}, "lon": -77.032907, "type": "electric_scooter"}, {"bike_id": "f8c485423c71c70150afee6dd483e0de", "is_reserved": 0, "fusion_lon": 0.0, "lat": 38.83803966666667, "is_disabled": 0, "name": "f8c485423c71c70150afee6dd483e0de", "fusion_lat": 0.0, "rental_uris": {"ios": "https://dc.lft.to/lastmile_qr_scan", "android": "https://dc.lft.to/lastmile_qr_scan"}, "lon": -76.99833716666667, "type": "electric_bike"}, {"bike_id": "ea6743b4568518d66052cb3c735e8488", "is_reserved": 0, "fusion_lon": 0.0, "lat": 39.015970333333335, "is_disabled": 0, "name": "ea6743b4568518d66052cb3c735e8488", "fusion_lat": 0.0, "rental_uris": {"ios": "https://dc.lft.to/lastmile_qr_scan", "android": "https://dc.lft.to/lastmile_qr_scan"}, "lon": -77.0442885, "type": "electric_bike"}, {"bike_id": "357daad6be8fe2bdf8f2b9e7906bb0fc", "is_reserved": 0, "fusion_lon": 0.0, "lat": 38.9132235, "is_disabled": 0, "name": "357daad6be8fe2bdf8f2b9e7906bb0fc", "fusion_lat": 0.0, "rental_uris": {"ios": "https://dc.lft.to/lastmile_qr_scan", "android": "https://dc.lft.to/lastmile_qr_scan"}, "lon": -77.01507783333334, "type": "electric_scooter"}, {"bike_id": "0583b23b864b6e7e420f3811c6f9e779", "is_reserved": 0, "fusion_lon": 0.0, "lat": 38.905384833333336, "is_disabled": 0, "name": "0583b23b864b6e7e420f3811c6f9e779", "fusion_lat": 0.0, "rental_uris": {"ios": "https://dc.lft.to/lastmile_qr_scan", "android": "https://dc.lft.to/lastmile_qr_scan"}, "lon": -77.00207933333333, "type": "electric_bike"}, {"bike_id": "995df10a88b22befcab405fd50e76b61", "is_reserved": 0, "fusion_lon": 0.0, "lat": 38.93890716666667, "is_disabled": 0, "name": "995df10a88b22befcab405fd50e76b61", "fusion_lat": 0.0, "rental_uris": {"ios": "https://dc.lft.to/lastmile_qr_scan", "android": "https://dc.lft.to/lastmile_qr_scan"}, "lon": -77.02979316666666, "type": "electric_scooter"}, {"bike_id": "d78703f6cacdba320de5160d3cc6532f", "is_reserved": 0, "fusion_lon": 0.0, "lat": 38.957310666666665, "is_disabled": 0, "name": "d78703f6cacdba320de5160d3cc6532f", "fusion_lat": 0.0, "rental_uris": {"ios": "https://dc.lft.to/lastmile_qr_scan", "android": "https://dc.lft.to/lastmile_qr_scan"}, "lon": -76.98012966666667, "type": "electric_bike"}, {"bike_id": "5c7f4f0b8d7739b83b245eb700a6394c", "is_reserved": 0, "fusion_lon": 0.0, "lat": 38.9417325, "is_disabled": 0, "name": "5c7f4f0b8d7739b83b245eb700a6394c", "fusion_lat": 0.0, "rental_uris": {"ios": "https://dc.lft.to/lastmile_qr_scan", "android": "https://dc.lft.to/lastmile_qr_scan"}, "lon": -77.0412935, "type": "electric_scooter"}, {"bike_id": "35447dec625149e951ea3c3310263e2d", "is_reserved": 0, "fusion_lon": 0.0, "lat": 38.916894666666664, "is_disabled": 0, "name": "35447dec625149e951ea3c3310263e2d", "fusion_lat": 0.0, "rental_uris": {"ios": "https://dc.lft.to/lastmile_qr_scan", "android": "https://dc.lft.to/lastmile_qr_scan"}, "lon": -77.01219233333333, "type": "electric_scooter"}, {"bike_id": "b906973872a722268aed42eb0e029ca2", "is_reserved": 0, "fusion_lon": 0.0, "lat": 38.99820716666667, "is_disabled": 0, "name": "b906973872a722268aed42eb0e029ca2", "fusion_lat": 0.0, "rental_uris": {"ios": "https://dc.lft.to/lastmile_qr_scan", "android": "https://dc.lft.to/lastmile_qr_scan"}, "lon": -76.88373033333333, "type": "electric_bike"}, {"bike_id": "bae989094f4e0cf82f24232454bdc75e", "is_reserved": 0, "fusion_lon": 0.0, "lat": 38.898765833333336, "is_disabled": 0, "name": "bae989094f4e0cf82f24232454bdc75e", "fusion_lat": 0.0, "rental_uris": {"ios": "https://dc.lft.to/lastmile_qr_scan", "android": "https://dc.lft.to/lastmile_qr_scan"}, "lon": -76.931591, "type": "electric_scooter"}, {"bike_id": "afe12a53dac0181b30583bd492ac16d8", "is_reserved": 0, "fusion_lon": 0.0, "lat": 38.90390283333333, "is_disabled": 0, "name": "afe12a53dac0181b30583bd492ac16d8", "fusion_lat": 0.0, "rental_uris": {"ios": "https://dc.lft.to/lastmile_qr_scan", "android": "https://dc.lft.to/lastmile_qr_scan"}, "lon": -77.01095366666667, "type": "electric_scooter"}, {"bike_id": "db5fc84eae1c3e00b2b5b7be71e9ebe6", "is_reserved": 0, "fusion_lon": 0.0, "lat": 38.929008333333336, "is_disabled": 0, "name": "db5fc84eae1c3e00b2b5b7be71e9ebe6", "fusion_lat": 0.0, "rental_uris": {"ios": "https://dc.lft.to/lastmile_qr_scan", "android": "https://dc.lft.to/lastmile_qr_scan"}, "lon": -77.05447183333334, "type": "electric_scooter"}, {"bike_id": "0384694c8ecf307c678a3a10b66b77e9", "is_reserved": 0, "fusion_lon": 0.0, "lat": 38.92148783333333, "is_disabled": 0, "name": "0384694c8ecf307c678a3a10b66b77e9", "fusion_lat": 0.0, "rental_uris": {"ios": "https://dc.lft.to/lastmile_qr_scan", "android": "https://dc.lft.to/lastmile_qr_scan"}, "lon": -77.03482416666667, "type": "electric_scooter"}, {"bike_id": "fa22a0a7116c9ecdbc40cf47fd8abe75", "is_reserved": 0, "fusion_lon": 0.0, "lat": 38.90338933333334, "is_disabled": 0, "name": "fa22a0a7116c9ecdbc40cf47fd8abe75", "fusion_lat": 0.0, "rental_uris": {"ios": "https://dc.lft.to/lastmile_qr_scan", "android": "https://dc.lft.to/lastmile_qr_scan"}, "lon": -77.06659983333333, "type": "electric_scooter"}, {"bike_id": "27f7992500b9dd676e1d759affd7da0c", "is_reserved": 0, "fusion_lon": 0.0, "lat": 38.90562633333333, "is_disabled": 0, "name": "27f7992500b9dd676e1d759affd7da0c", "fusion_lat": 0.0, "rental_uris": {"ios": "https://dc.lft.to/lastmile_qr_scan", "android": "https://dc.lft.to/lastmile_qr_scan"}, "lon": -77.0060195, "type": "electric_scooter"}, {"bike_id": "d8a5712caffafb38d8e795d03bab8ee7", "is_reserved": 0, "fusion_lon": 0.0, "lat": 38.80746766666667, "is_disabled": 0, "name": "d8a5712caffafb38d8e795d03bab8ee7", "fusion_lat": 0.0, "rental_uris": {"ios": "https://dc.lft.to/lastmile_qr_scan", "android": "https://dc.lft.to/lastmile_qr_scan"}, "lon": -77.09424166666666, "type": "electric_bike"}, {"bike_id": "aa549cf37250138f55cf9e12a45659bc", "is_reserved": 0, "fusion_lon": 0.0, "lat": 38.863892166666666, "is_disabled": 0, "name": "aa549cf37250138f55cf9e12a45659bc", "fusion_lat": 0.0, "rental_uris": {"ios": "https://dc.lft.to/lastmile_qr_scan", "android": "https://dc.lft.to/lastmile_qr_scan"}, "lon": -76.9898765, "type": "electric_bike"}, {"bike_id": "fcf16f9a3e0f35ea2d79a3434d0f990a", "is_reserved": 0, "fusion_lon": 0.0, "lat": 38.90038083333334, "is_disabled": 0, "name": "fcf16f9a3e0f35ea2d79a3434d0f990a", "fusion_lat": 0.0, "rental_uris": {"ios": "https://dc.lft.to/lastmile_qr_scan", "android": "https://dc.lft.to/lastmile_qr_scan"}, "lon": -77.005339, "type": "electric_scooter"}, {"bike_id": "e74737e7889817804a71cbb8997063b4", "is_reserved": 0, "fusion_lon": 0.0, "lat": 38.90973416666667, "is_disabled": 0, "name": "e74737e7889817804a71cbb8997063b4", "fusion_lat": 0.0, "rental_uris": {"ios": "https://dc.lft.to/lastmile_qr_scan", "android": "https://dc.lft.to/lastmile_qr_scan"}, "lon": -77.0487385, "type": "electric_scooter"}, {"bike_id": "e1c40e176efffd49bcd487fb15b179ed", "is_reserved": 0, "fusion_lon": 0.0, "lat": 38.8843255, "is_disabled": 0, "name": "e1c40e176efffd49bcd487fb15b179ed", "fusion_lat": 0.0, "rental_uris": {"ios": "https://dc.lft.to/lastmile_qr_scan", "android": "https://dc.lft.to/lastmile_qr_scan"}, "lon": -76.95754466666666, "type": "electric_scooter"}, {"bike_id": "9ae26f212142810e3734d4f92c9c46dc", "is_reserved": 0, "fusion_lon": 0.0, "lat": 38.902233833333334, "is_disabled": 0, "name": "9ae26f212142810e3734d4f92c9c46dc", "fusion_lat": 0.0, "rental_uris": {"ios": "https://dc.lft.to/lastmile_qr_scan", "android": "https://dc.lft.to/lastmile_qr_scan"}, "lon": -77.017574, "type": "electric_scooter"}, {"bike_id": "646badc56dfd2f3f5b945efd93cd8359", "is_reserved": 0, "fusion_lon": 0.0, "lat": 38.912168666666666, "is_disabled": 0, "name": "646badc56dfd2f3f5b945efd93cd8359", "fusion_lat": 0.0, "rental_uris": {"ios": "https://dc.lft.to/lastmile_qr_scan", "android": "https://dc.lft.to/lastmile_qr_scan"}, "lon": -77.02802416666667, "type": "electric_scooter"}, {"bike_id": "7fb08b688d64d1a59337e3ff02c58752", "is_reserved": 0, "fusion_lon": 0.0, "lat": 38.91776133333333, "is_disabled": 0, "name": "7fb08b688d64d1a59337e3ff02c58752", "fusion_lat": 0.0, "rental_uris": {"ios": "https://dc.lft.to/lastmile_qr_scan", "android": "https://dc.lft.to/lastmile_qr_scan"}, "lon": -77.01493033333334, "type": "electric_scooter"}, {"bike_id": "72056273044d09aac68adc6e8387162e", "is_reserved": 0, "fusion_lon": 0.0, "lat": 38.866617166666664, "is_disabled": 0, "name": "72056273044d09aac68adc6e8387162e", "fusion_lat": 0.0, "rental_uris": {"ios": "https://dc.lft.to/lastmile_qr_scan", "android": "https://dc.lft.to/lastmile_qr_scan"}, "lon": -76.98902233333334, "type": "electric_scooter"}, {"bike_id": "97cc51c5013b4476e033a85bb3318eb6", "is_reserved": 0, "fusion_lon": 0.0, "lat": 38.93114466666667, "is_disabled": 0, "name": "97cc51c5013b4476e033a85bb3318eb6", "fusion_lat": 0.0, "rental_uris": {"ios": "https://dc.lft.to/lastmile_qr_scan", "android": "https://dc.lft.to/lastmile_qr_scan"}, "lon": -77.02137166666667, "type": "electric_scooter"}, {"bike_id": "87d78a1dc27ed7d9ca3ce2d82b4b41fb", "is_reserved": 0, "fusion_lon": 0.0, "lat": 38.964951666666664, "is_disabled": 0, "name": "87d78a1dc27ed7d9ca3ce2d82b4b41fb", "fusion_lat": 0.0, "rental_uris": {"ios": "https://dc.lft.to/lastmile_qr_scan", "android": "https://dc.lft.to/lastmile_qr_scan"}, "lon": -77.06481833333333, "type": "electric_bike"}, {"bike_id": "1392ea0b7689e69fa93bdbcb01bfdaf2", "is_reserved": 0, "fusion_lon": 0.0, "lat": 38.918753333333335, "is_disabled": 0, "name": "1392ea0b7689e69fa93bdbcb01bfdaf2", "fusion_lat": 0.0, "rental_uris": {"ios": "https://dc.lft.to/lastmile_qr_scan", "android": "https://dc.lft.to/lastmile_qr_scan"}, "lon": -77.04464383333334, "type": "electric_scooter"}, {"bike_id": "7e4a1e4aeb7946fe74934f02da651b6a", "is_reserved": 0, "fusion_lon": 0.0, "lat": 38.93145416666667, "is_disabled": 0, "name": "7e4a1e4aeb7946fe74934f02da651b6a", "fusion_lat": 0.0, "rental_uris": {"ios": "https://dc.lft.to/lastmile_qr_scan", "android": "https://dc.lft.to/lastmile_qr_scan"}, "lon": -77.05709166666666, "type": "electric_scooter"}, {"bike_id": "8380598a0950ee32551cdeca5e5b9de5", "is_reserved": 0, "fusion_lon": 0.0, "lat": 38.899097, "is_disabled": 0, "name": "8380598a0950ee32551cdeca5e5b9de5", "fusion_lat": 0.0, "rental_uris": {"ios": "https://dc.lft.to/lastmile_qr_scan", "android": "https://dc.lft.to/lastmile_qr_scan"}, "lon": -77.0394395, "type": "electric_scooter"}, {"bike_id": "61a9456141f8c0f8331078832881d75c", "is_reserved": 0, "fusion_lon": 0.0, "lat": 38.9231645, "is_disabled": 0, "name": "61a9456141f8c0f8331078832881d75c", "fusion_lat": 0.0, "rental_uris": {"ios": "https://dc.lft.to/lastmile_qr_scan", "android": "https://dc.lft.to/lastmile_qr_scan"}, "lon": -77.03656533333333, "type": "electric_scooter"}, {"bike_id": "4de7df903ba07c8a9e4dbc36af76e820", "is_reserved": 0, "fusion_lon": 0.0, "lat": 38.901860666666664, "is_disabled": 0, "name": "4de7df903ba07c8a9e4dbc36af76e820", "fusion_lat": 0.0, "rental_uris": {"ios": "https://dc.lft.to/lastmile_qr_scan", "android": "https://dc.lft.to/lastmile_qr_scan"}, "lon": -77.02500666666667, "type": "electric_scooter"}, {"bike_id": "d1086e6524214e25660c85514b6b75be", "is_reserved": 0, "fusion_lon": 0.0, "lat": 38.890615, "is_disabled": 0, "name": "d1086e6524214e25660c85514b6b75be", "fusion_lat": 0.0, "rental_uris": {"ios": "https://dc.lft.to/lastmile_qr_scan", "android": "https://dc.lft.to/lastmile_qr_scan"}, "lon": -77.0229985, "type": "electric_scooter"}, {"bike_id": "4965ab6eba69407b4f66576e7e1e00e2", "is_reserved": 0, "fusion_lon": 0.0, "lat": 38.91032383333334, "is_disabled": 0, "name": "4965ab6eba69407b4f66576e7e1e00e2", "fusion_lat": 0.0, "rental_uris": {"ios": "https://dc.lft.to/lastmile_qr_scan", "android": "https://dc.lft.to/lastmile_qr_scan"}, "lon": -77.04390583333333, "type": "electric_scooter"}, {"bike_id": "610566e6fae86bed1a2fa56e13209306", "is_reserved": 0, "fusion_lon": 0.0, "lat": 38.89683983333333, "is_disabled": 0, "name": "610566e6fae86bed1a2fa56e13209306", "fusion_lat": 0.0, "rental_uris": {"ios": "https://dc.lft.to/lastmile_qr_scan", "android": "https://dc.lft.to/lastmile_qr_scan"}, "lon": -76.99619983333334, "type": "electric_scooter"}, {"bike_id": "61e88ec2a257dc63e589ce182980fbcb", "is_reserved": 0, "fusion_lon": 0.0, "lat": 38.9134635, "is_disabled": 0, "name": "61e88ec2a257dc63e589ce182980fbcb", "fusion_lat": 0.0, "rental_uris": {"ios": "https://dc.lft.to/lastmile_qr_scan", "android": "https://dc.lft.to/lastmile_qr_scan"}, "lon": -77.03124233333334, "type": "electric_scooter"}, {"bike_id": "f403ef2aa34f91a370898106b40a0524", "is_reserved": 0, "fusion_lon": 0.0, "lat": 38.90035, "is_disabled": 0, "name": "f403ef2aa34f91a370898106b40a0524", "fusion_lat": 0.0, "rental_uris": {"ios": "https://dc.lft.to/lastmile_qr_scan", "android": "https://dc.lft.to/lastmile_qr_scan"}, "lon": -77.00195033333334, "type": "electric_scooter"}, {"bike_id": "c2b85ce8f355ada257914be4ad2831f1", "is_reserved": 0, "fusion_lon": 0.0, "lat": 38.90464883333333, "is_disabled": 0, "name": "c2b85ce8f355ada257914be4ad2831f1", "fusion_lat": 0.0, "rental_uris": {"ios": "https://dc.lft.to/lastmile_qr_scan", "android": "https://dc.lft.to/lastmile_qr_scan"}, "lon": -77.01710933333334, "type": "electric_scooter"}, {"bike_id": "fdef53039d9a1f46317d9300d2ecb155", "is_reserved": 0, "fusion_lon": 0.0, "lat": 38.8429275, "is_disabled": 0, "name": "fdef53039d9a1f46317d9300d2ecb155", "fusion_lat": 0.0, "rental_uris": {"ios": "https://dc.lft.to/lastmile_qr_scan", "android": "https://dc.lft.to/lastmile_qr_scan"}, "lon": -76.99942516666667, "type": "electric_scooter"}, {"bike_id": "4b19bcec8b5b8197af91cc21e3cdb067", "is_reserved": 0, "fusion_lon": 0.0, "lat": 38.917419333333335, "is_disabled": 0, "name": "4b19bcec8b5b8197af91cc21e3cdb067", "fusion_lat": 0.0, "rental_uris": {"ios": "https://dc.lft.to/lastmile_qr_scan", "android": "https://dc.lft.to/lastmile_qr_scan"}, "lon": -77.00744633333333, "type": "electric_scooter"}, {"bike_id": "b94155d9bcd4ce70c80f31dd604b0dcc", "is_reserved": 0, "fusion_lon": 0.0, "lat": 38.899893166666665, "is_disabled": 0, "name": "b94155d9bcd4ce70c80f31dd604b0dcc", "fusion_lat": 0.0, "rental_uris": {"ios": "https://dc.lft.to/lastmile_qr_scan", "android": "https://dc.lft.to/lastmile_qr_scan"}, "lon": -77.021427, "type": "electric_scooter"}, {"bike_id": "d14d7a1368d8fb5315c4356332a3f145", "is_reserved": 0, "fusion_lon": 0.0, "lat": 38.90621083333333, "is_disabled": 0, "name": "d14d7a1368d8fb5315c4356332a3f145", "fusion_lat": 0.0, "rental_uris": {"ios": "https://dc.lft.to/lastmile_qr_scan", "android": "https://dc.lft.to/lastmile_qr_scan"}, "lon": -77.05138666666667, "type": "electric_scooter"}, {"bike_id": "2e4bb663b9de3c02a4bae478fcfb9d61", "is_reserved": 0, "fusion_lon": 0.0, "lat": 38.903685833333334, "is_disabled": 0, "name": "2e4bb663b9de3c02a4bae478fcfb9d61", "fusion_lat": 0.0, "rental_uris": {"ios": "https://dc.lft.to/lastmile_qr_scan", "android": "https://dc.lft.to/lastmile_qr_scan"}, "lon": -77.01902683333333, "type": "electric_scooter"}, {"bike_id": "d43c5243d7869eb02c515bf2304d888e", "is_reserved": 0, "fusion_lon": 0.0, "lat": 38.907333, "is_disabled": 0, "name": "d43c5243d7869eb02c515bf2304d888e", "fusion_lat": 0.0, "rental_uris": {"ios": "https://dc.lft.to/lastmile_qr_scan", "android": "https://dc.lft.to/lastmile_qr_scan"}, "lon": -77.00097416666667, "type": "electric_scooter"}, {"bike_id": "ee3cb5565be9c442bc7f3c2a172a35b1", "is_reserved": 0, "fusion_lon": 0.0, "lat": 38.86700666666667, "is_disabled": 0, "name": "ee3cb5565be9c442bc7f3c2a172a35b1", "fusion_lat": 0.0, "rental_uris": {"ios": "https://dc.lft.to/lastmile_qr_scan", "android": "https://dc.lft.to/lastmile_qr_scan"}, "lon": -76.98716033333334, "type": "electric_scooter"}, {"bike_id": "1401863d877696c8df91fd0b8ad5ba78", "is_reserved": 0, "fusion_lon": 0.0, "lat": 38.940533, "is_disabled": 0, "name": "1401863d877696c8df91fd0b8ad5ba78", "fusion_lat": 0.0, "rental_uris": {"ios": "https://dc.lft.to/lastmile_qr_scan", "android": "https://dc.lft.to/lastmile_qr_scan"}, "lon": -77.09268083333333, "type": "electric_scooter"}, {"bike_id": "43762bbd2844be379134b7b39559ba5b", "is_reserved": 0, "fusion_lon": 0.0, "lat": 38.927418333333335, "is_disabled": 0, "name": "43762bbd2844be379134b7b39559ba5b", "fusion_lat": 0.0, "rental_uris": {"ios": "https://dc.lft.to/lastmile_qr_scan", "android": "https://dc.lft.to/lastmile_qr_scan"}, "lon": -77.01202333333333, "type": "electric_scooter"}, {"bike_id": "9b30eaa7ba2d3247a7dccb8407124ae2", "is_reserved": 0, "fusion_lon": 0.0, "lat": 38.90317183333333, "is_disabled": 0, "name": "9b30eaa7ba2d3247a7dccb8407124ae2", "fusion_lat": 0.0, "rental_uris": {"ios": "https://dc.lft.to/lastmile_qr_scan", "android": "https://dc.lft.to/lastmile_qr_scan"}, "lon": -77.0384115, "type": "electric_scooter"}, {"bike_id": "8893fa7939bc18aa22e27b7435375fad", "is_reserved": 0, "fusion_lon": 0.0, "lat": 38.974268333333335, "is_disabled": 0, "name": "8893fa7939bc18aa22e27b7435375fad", "fusion_lat": 0.0, "rental_uris": {"ios": "https://dc.lft.to/lastmile_qr_scan", "android": "https://dc.lft.to/lastmile_qr_scan"}, "lon": -77.01518816666666, "type": "electric_scooter"}, {"bike_id": "632f11ffbc63177c7854f9d333556f2c", "is_reserved": 0, "fusion_lon": 0.0, "lat": 38.91411766666667, "is_disabled": 0, "name": "632f11ffbc63177c7854f9d333556f2c", "fusion_lat": 0.0, "rental_uris": {"ios": "https://dc.lft.to/lastmile_qr_scan", "android": "https://dc.lft.to/lastmile_qr_scan"}, "lon": -77.0414035, "type": "electric_scooter"}, {"bike_id": "32c280f149a601532570d4af2f781d33", "is_reserved": 0, "fusion_lon": 0.0, "lat": 38.9201155, "is_disabled": 0, "name": "32c280f149a601532570d4af2f781d33", "fusion_lat": 0.0, "rental_uris": {"ios": "https://dc.lft.to/lastmile_qr_scan", "android": "https://dc.lft.to/lastmile_qr_scan"}, "lon": -77.03878683333333, "type": "electric_scooter"}, {"bike_id": "01e696464dba33460d1f50e5e2c2b70b", "is_reserved": 0, "fusion_lon": 0.0, "lat": 38.90867383333333, "is_disabled": 0, "name": "01e696464dba33460d1f50e5e2c2b70b", "fusion_lat": 0.0, "rental_uris": {"ios": "https://dc.lft.to/lastmile_qr_scan", "android": "https://dc.lft.to/lastmile_qr_scan"}, "lon": -76.999591, "type": "electric_scooter"}, {"bike_id": "f2e10d3a3ca9fccc025f31dddbf8a80d", "is_reserved": 0, "fusion_lon": 0.0, "lat": 38.8859445, "is_disabled": 0, "name": "f2e10d3a3ca9fccc025f31dddbf8a80d", "fusion_lat": 0.0, "rental_uris": {"ios": "https://dc.lft.to/lastmile_qr_scan", "android": "https://dc.lft.to/lastmile_qr_scan"}, "lon": -77.017647, "type": "electric_scooter"}, {"bike_id": "1ce5cac1810ea7fb9a91a2674ca560d2", "is_reserved": 0, "fusion_lon": 0.0, "lat": 38.89455866666667, "is_disabled": 0, "name": "1ce5cac1810ea7fb9a91a2674ca560d2", "fusion_lat": 0.0, "rental_uris": {"ios": "https://dc.lft.to/lastmile_qr_scan", "android": "https://dc.lft.to/lastmile_qr_scan"}, "lon": -76.97035666666666, "type": "electric_bike"}, {"bike_id": "c8d370c7b3f8a185c767c75f2ccd5efa", "is_reserved": 0, "fusion_lon": 0.0, "lat": 38.91046766666667, "is_disabled": 0, "name": "c8d370c7b3f8a185c767c75f2ccd5efa", "fusion_lat": 0.0, "rental_uris": {"ios": "https://dc.lft.to/lastmile_qr_scan", "android": "https://dc.lft.to/lastmile_qr_scan"}, "lon": -77.03569416666667, "type": "electric_scooter"}, {"bike_id": "b90b5537eea836d9647681a3283f9d00", "is_reserved": 0, "fusion_lon": 0.0, "lat": 38.907857166666666, "is_disabled": 0, "name": "b90b5537eea836d9647681a3283f9d00", "fusion_lat": 0.0, "rental_uris": {"ios": "https://dc.lft.to/lastmile_qr_scan", "android": "https://dc.lft.to/lastmile_qr_scan"}, "lon": -77.03824783333333, "type": "electric_scooter"}, {"bike_id": "f50b1659803c2230b647a93f227f93d5", "is_reserved": 0, "fusion_lon": 0.0, "lat": 38.930840833333335, "is_disabled": 0, "name": "f50b1659803c2230b647a93f227f93d5", "fusion_lat": 0.0, "rental_uris": {"ios": "https://dc.lft.to/lastmile_qr_scan", "android": "https://dc.lft.to/lastmile_qr_scan"}, "lon": -77.034137, "type": "electric_scooter"}, {"bike_id": "8f5d9cc4f2f58787fea992e64b8d55cd", "is_reserved": 0, "fusion_lon": 0.0, "lat": 38.8936465, "is_disabled": 0, "name": "8f5d9cc4f2f58787fea992e64b8d55cd", "fusion_lat": 0.0, "rental_uris": {"ios": "https://dc.lft.to/lastmile_qr_scan", "android": "https://dc.lft.to/lastmile_qr_scan"}, "lon": -77.028257, "type": "electric_scooter"}, {"bike_id": "00daa27c48603a12c634f2c7f9d27e4b", "is_reserved": 0, "fusion_lon": 0.0, "lat": 38.907145666666665, "is_disabled": 0, "name": "00daa27c48603a12c634f2c7f9d27e4b", "fusion_lat": 0.0, "rental_uris": {"ios": "https://dc.lft.to/lastmile_qr_scan", "android": "https://dc.lft.to/lastmile_qr_scan"}, "lon": -77.03237016666667, "type": "electric_scooter"}, {"bike_id": "4bc3544ac7f48c889b2ef90fe98edc51", "is_reserved": 0, "fusion_lon": 0.0, "lat": 38.90061083333333, "is_disabled": 0, "name": "4bc3544ac7f48c889b2ef90fe98edc51", "fusion_lat": 0.0, "rental_uris": {"ios": "https://dc.lft.to/lastmile_qr_scan", "android": "https://dc.lft.to/lastmile_qr_scan"}, "lon": -77.03186866666667, "type": "electric_scooter"}, {"bike_id": "dd6537a49fff42450652fe43466233a3", "is_reserved": 0, "fusion_lon": 0.0, "lat": 38.82265566666667, "is_disabled": 0, "name": "dd6537a49fff42450652fe43466233a3", "fusion_lat": 0.0, "rental_uris": {"ios": "https://dc.lft.to/lastmile_qr_scan", "android": "https://dc.lft.to/lastmile_qr_scan"}, "lon": -77.00550983333333, "type": "electric_bike"}, {"bike_id": "5d3ce00b41b28e961524916558581552", "is_reserved": 0, "fusion_lon": 0.0, "lat": 38.91842116666667, "is_disabled": 0, "name": "5d3ce00b41b28e961524916558581552", "fusion_lat": 0.0, "rental_uris": {"ios": "https://dc.lft.to/lastmile_qr_scan", "android": "https://dc.lft.to/lastmile_qr_scan"}, "lon": -77.02600583333333, "type": "electric_scooter"}, {"bike_id": "4824e407097d059067a580baa28bbcff", "is_reserved": 0, "fusion_lon": 0.0, "lat": 38.913887, "is_disabled": 0, "name": "4824e407097d059067a580baa28bbcff", "fusion_lat": 0.0, "rental_uris": {"ios": "https://dc.lft.to/lastmile_qr_scan", "android": "https://dc.lft.to/lastmile_qr_scan"}, "lon": -77.04617683333333, "type": "electric_scooter"}, {"bike_id": "44e71f2cdf32f10b67c388bb900dd493", "is_reserved": 0, "fusion_lon": 0.0, "lat": 38.86423533333333, "is_disabled": 0, "name": "44e71f2cdf32f10b67c388bb900dd493", "fusion_lat": 0.0, "rental_uris": {"ios": "https://dc.lft.to/lastmile_qr_scan", "android": "https://dc.lft.to/lastmile_qr_scan"}, "lon": -76.985753, "type": "electric_scooter"}, {"bike_id": "1997709103abc8252a64ed552b7e8ce3", "is_reserved": 0, "fusion_lon": 0.0, "lat": 38.933638, "is_disabled": 0, "name": "1997709103abc8252a64ed552b7e8ce3", "fusion_lat": 0.0, "rental_uris": {"ios": "https://dc.lft.to/lastmile_qr_scan", "android": "https://dc.lft.to/lastmile_qr_scan"}, "lon": -77.05723, "type": "electric_scooter"}, {"bike_id": "882be37e46e0ffe4cbefe90d525b9251", "is_reserved": 0, "fusion_lon": 0.0, "lat": 38.91495783333333, "is_disabled": 0, "name": "882be37e46e0ffe4cbefe90d525b9251", "fusion_lat": 0.0, "rental_uris": {"ios": "https://dc.lft.to/lastmile_qr_scan", "android": "https://dc.lft.to/lastmile_qr_scan"}, "lon": -76.983628, "type": "electric_scooter"}, {"bike_id": "9ca413019ac86ea827ec9ea5146326c2", "is_reserved": 0, "fusion_lon": 0.0, "lat": 38.925858833333336, "is_disabled": 0, "name": "9ca413019ac86ea827ec9ea5146326c2", "fusion_lat": 0.0, "rental_uris": {"ios": "https://dc.lft.to/lastmile_qr_scan", "android": "https://dc.lft.to/lastmile_qr_scan"}, "lon": -77.00462033333334, "type": "electric_scooter"}, {"bike_id": "1dfe7f455b7b0b915e8eed8e31b8f7a5", "is_reserved": 0, "fusion_lon": 0.0, "lat": 38.90332133333333, "is_disabled": 0, "name": "1dfe7f455b7b0b915e8eed8e31b8f7a5", "fusion_lat": 0.0, "rental_uris": {"ios": "https://dc.lft.to/lastmile_qr_scan", "android": "https://dc.lft.to/lastmile_qr_scan"}, "lon": -76.97535983333333, "type": "electric_bike"}, {"bike_id": "45d84981220afb7c443813403de9c445", "is_reserved": 0, "fusion_lon": 0.0, "lat": 38.90812283333333, "is_disabled": 0, "name": "45d84981220afb7c443813403de9c445", "fusion_lat": 0.0, "rental_uris": {"ios": "https://dc.lft.to/lastmile_qr_scan", "android": "https://dc.lft.to/lastmile_qr_scan"}, "lon": -77.0343485, "type": "electric_scooter"}, {"bike_id": "ff22a520511ae6e3a88de64c09a24a8d", "is_reserved": 0, "fusion_lon": 0.0, "lat": 38.917224166666664, "is_disabled": 0, "name": "ff22a520511ae6e3a88de64c09a24a8d", "fusion_lat": 0.0, "rental_uris": {"ios": "https://dc.lft.to/lastmile_qr_scan", "android": "https://dc.lft.to/lastmile_qr_scan"}, "lon": -77.03660616666667, "type": "electric_scooter"}, {"bike_id": "fd77780f0a2f780f0366237927195521", "is_reserved": 0, "fusion_lon": 0.0, "lat": 38.96766066666667, "is_disabled": 0, "name": "fd77780f0a2f780f0366237927195521", "fusion_lat": 0.0, "rental_uris": {"ios": "https://dc.lft.to/lastmile_qr_scan", "android": "https://dc.lft.to/lastmile_qr_scan"}, "lon": -77.0915935, "type": "electric_bike"}, {"bike_id": "fca1334bdc6eb6fc27f451b8ae0f16dd", "is_reserved": 0, "fusion_lon": 0.0, "lat": 38.90957433333333, "is_disabled": 0, "name": "fca1334bdc6eb6fc27f451b8ae0f16dd", "fusion_lat": 0.0, "rental_uris": {"ios": "https://dc.lft.to/lastmile_qr_scan", "android": "https://dc.lft.to/lastmile_qr_scan"}, "lon": -76.98465366666667, "type": "electric_scooter"}, {"bike_id": "c8a189a74680d3010bd2c9ecf5e6f171", "is_reserved": 0, "fusion_lon": 0.0, "lat": 38.90033733333333, "is_disabled": 0, "name": "c8a189a74680d3010bd2c9ecf5e6f171", "fusion_lat": 0.0, "rental_uris": {"ios": "https://dc.lft.to/lastmile_qr_scan", "android": "https://dc.lft.to/lastmile_qr_scan"}, "lon": -76.9879585, "type": "electric_scooter"}, {"bike_id": "a5b892422b304b75b019b020c875c3a1", "is_reserved": 0, "fusion_lon": 0.0, "lat": 38.9097215, "is_disabled": 0, "name": "a5b892422b304b75b019b020c875c3a1", "fusion_lat": 0.0, "rental_uris": {"ios": "https://dc.lft.to/lastmile_qr_scan", "android": "https://dc.lft.to/lastmile_qr_scan"}, "lon": -77.027245, "type": "electric_scooter"}, {"bike_id": "b832f68d8591696d157b7895bd8c48af", "is_reserved": 0, "fusion_lon": 0.0, "lat": 38.941824, "is_disabled": 0, "name": "b832f68d8591696d157b7895bd8c48af", "fusion_lat": 0.0, "rental_uris": {"ios": "https://dc.lft.to/lastmile_qr_scan", "android": "https://dc.lft.to/lastmile_qr_scan"}, "lon": -77.01702533333334, "type": "electric_scooter"}, {"bike_id": "3e0bb47e5316207b5d7b03c4cb81dc4c", "is_reserved": 0, "fusion_lon": 0.0, "lat": 38.90243566666667, "is_disabled": 0, "name": "3e0bb47e5316207b5d7b03c4cb81dc4c", "fusion_lat": 0.0, "rental_uris": {"ios": "https://dc.lft.to/lastmile_qr_scan", "android": "https://dc.lft.to/lastmile_qr_scan"}, "lon": -76.974117, "type": "electric_scooter"}, {"bike_id": "42c3f3cb8b5887367718487a15ad3b61", "is_reserved": 0, "fusion_lon": 0.0, "lat": 38.900155833333336, "is_disabled": 0, "name": "42c3f3cb8b5887367718487a15ad3b61", "fusion_lat": 0.0, "rental_uris": {"ios": "https://dc.lft.to/lastmile_qr_scan", "android": "https://dc.lft.to/lastmile_qr_scan"}, "lon": -77.0440415, "type": "electric_scooter"}, {"bike_id": "8e8359960053a6b017de15e5b39e92d0", "is_reserved": 0, "fusion_lon": 0.0, "lat": 38.861632166666666, "is_disabled": 0, "name": "8e8359960053a6b017de15e5b39e92d0", "fusion_lat": 0.0, "rental_uris": {"ios": "https://dc.lft.to/lastmile_qr_scan", "android": "https://dc.lft.to/lastmile_qr_scan"}, "lon": -77.13089, "type": "electric_bike"}, {"bike_id": "712c5752f2ad3913275965159e6ba368", "is_reserved": 0, "fusion_lon": 0.0, "lat": 38.9159015, "is_disabled": 0, "name": "712c5752f2ad3913275965159e6ba368", "fusion_lat": 0.0, "rental_uris": {"ios": "https://dc.lft.to/lastmile_qr_scan", "android": "https://dc.lft.to/lastmile_qr_scan"}, "lon": -77.04173316666666, "type": "electric_scooter"}, {"bike_id": "ba60a689a824c18a12ec70d8780cbb70", "is_reserved": 0, "fusion_lon": 0.0, "lat": 38.937517666666665, "is_disabled": 0, "name": "ba60a689a824c18a12ec70d8780cbb70", "fusion_lat": 0.0, "rental_uris": {"ios": "https://dc.lft.to/lastmile_qr_scan", "android": "https://dc.lft.to/lastmile_qr_scan"}, "lon": -77.0357285, "type": "electric_scooter"}, {"bike_id": "5e54706a7f4a515105ce08cb06e048f9", "is_reserved": 0, "fusion_lon": 0.0, "lat": 38.905718, "is_disabled": 0, "name": "5e54706a7f4a515105ce08cb06e048f9", "fusion_lat": 0.0, "rental_uris": {"ios": "https://dc.lft.to/lastmile_qr_scan", "android": "https://dc.lft.to/lastmile_qr_scan"}, "lon": -77.01508183333333, "type": "electric_scooter"}, {"bike_id": "5d0e096b68436be91b698ac3a9b8e747", "is_reserved": 0, "fusion_lon": 0.0, "lat": 38.92407083333333, "is_disabled": 0, "name": "5d0e096b68436be91b698ac3a9b8e747", "fusion_lat": 0.0, "rental_uris": {"ios": "https://dc.lft.to/lastmile_qr_scan", "android": "https://dc.lft.to/lastmile_qr_scan"}, "lon": -77.04065316666667, "type": "electric_bike"}, {"bike_id": "48c67dd5486c2f0f63bed33f3bec0602", "is_reserved": 0, "fusion_lon": 0.0, "lat": 38.91976833333333, "is_disabled": 0, "name": "48c67dd5486c2f0f63bed33f3bec0602", "fusion_lat": 0.0, "rental_uris": {"ios": "https://dc.lft.to/lastmile_qr_scan", "android": "https://dc.lft.to/lastmile_qr_scan"}, "lon": -77.02396516666667, "type": "electric_scooter"}, {"bike_id": "86aef01dd3113134bb19aa1d0f412b81", "is_reserved": 0, "fusion_lon": 0.0, "lat": 38.929906, "is_disabled": 0, "name": "86aef01dd3113134bb19aa1d0f412b81", "fusion_lat": 0.0, "rental_uris": {"ios": "https://dc.lft.to/lastmile_qr_scan", "android": "https://dc.lft.to/lastmile_qr_scan"}, "lon": -77.07939366666666, "type": "electric_scooter"}, {"bike_id": "c67a70b699cf2c1e0658e5251a12e758", "is_reserved": 0, "fusion_lon": 0.0, "lat": 38.921687666666664, "is_disabled": 0, "name": "c67a70b699cf2c1e0658e5251a12e758", "fusion_lat": 0.0, "rental_uris": {"ios": "https://dc.lft.to/lastmile_qr_scan", "android": "https://dc.lft.to/lastmile_qr_scan"}, "lon": -76.99396933333334, "type": "electric_scooter"}, {"bike_id": "c2cb012042ce3fd941757deb32095265", "is_reserved": 0, "fusion_lon": 0.0, "lat": 38.871367166666666, "is_disabled": 0, "name": "c2cb012042ce3fd941757deb32095265", "fusion_lat": 0.0, "rental_uris": {"ios": "https://dc.lft.to/lastmile_qr_scan", "android": "https://dc.lft.to/lastmile_qr_scan"}, "lon": -76.93729883333333, "type": "electric_bike"}, {"bike_id": "d535c348985090b541041a2202a76e8b", "is_reserved": 0, "fusion_lon": 0.0, "lat": 38.93675233333333, "is_disabled": 0, "name": "d535c348985090b541041a2202a76e8b", "fusion_lat": 0.0, "rental_uris": {"ios": "https://dc.lft.to/lastmile_qr_scan", "android": "https://dc.lft.to/lastmile_qr_scan"}, "lon": -77.03590983333333, "type": "electric_scooter"}, {"bike_id": "532a7b7f9662fb6d25e36b3248cd6ae3", "is_reserved": 0, "fusion_lon": 0.0, "lat": 38.92489316666666, "is_disabled": 0, "name": "532a7b7f9662fb6d25e36b3248cd6ae3", "fusion_lat": 0.0, "rental_uris": {"ios": "https://dc.lft.to/lastmile_qr_scan", "android": "https://dc.lft.to/lastmile_qr_scan"}, "lon": -77.02711016666667, "type": "electric_scooter"}, {"bike_id": "14fa759c86071e50a9f387c0f4dd3476", "is_reserved": 0, "fusion_lon": 0.0, "lat": 38.9210895, "is_disabled": 0, "name": "14fa759c86071e50a9f387c0f4dd3476", "fusion_lat": 0.0, "rental_uris": {"ios": "https://dc.lft.to/lastmile_qr_scan", "android": "https://dc.lft.to/lastmile_qr_scan"}, "lon": -77.0436005, "type": "electric_scooter"}, {"bike_id": "a614d5130f5b5258e9a4ffa6d1041315", "is_reserved": 0, "fusion_lon": 0.0, "lat": 38.92162733333333, "is_disabled": 0, "name": "a614d5130f5b5258e9a4ffa6d1041315", "fusion_lat": 0.0, "rental_uris": {"ios": "https://dc.lft.to/lastmile_qr_scan", "android": "https://dc.lft.to/lastmile_qr_scan"}, "lon": -77.018122, "type": "electric_scooter"}, {"bike_id": "d8f0085db008c7b05be4618c8ed8de75", "is_reserved": 0, "fusion_lon": 0.0, "lat": 38.86454966666667, "is_disabled": 0, "name": "d8f0085db008c7b05be4618c8ed8de75", "fusion_lat": 0.0, "rental_uris": {"ios": "https://dc.lft.to/lastmile_qr_scan", "android": "https://dc.lft.to/lastmile_qr_scan"}, "lon": -76.94552333333333, "type": "electric_bike"}, {"bike_id": "527cf92380e0ef994cfe6ca95cf97bf7", "is_reserved": 0, "fusion_lon": 0.0, "lat": 38.89814666666667, "is_disabled": 0, "name": "527cf92380e0ef994cfe6ca95cf97bf7", "fusion_lat": 0.0, "rental_uris": {"ios": "https://dc.lft.to/lastmile_qr_scan", "android": "https://dc.lft.to/lastmile_qr_scan"}, "lon": -77.03278266666666, "type": "electric_scooter"}, {"bike_id": "e7850a7d12f50fb2faf462b6a7b46f96", "is_reserved": 0, "fusion_lon": 0.0, "lat": 38.901181666666666, "is_disabled": 0, "name": "e7850a7d12f50fb2faf462b6a7b46f96", "fusion_lat": 0.0, "rental_uris": {"ios": "https://dc.lft.to/lastmile_qr_scan", "android": "https://dc.lft.to/lastmile_qr_scan"}, "lon": -77.04351183333333, "type": "electric_scooter"}, {"bike_id": "313bd3147e22c2432f6cd7baa634f0fe", "is_reserved": 0, "fusion_lon": 0.0, "lat": 38.922106, "is_disabled": 0, "name": "313bd3147e22c2432f6cd7baa634f0fe", "fusion_lat": 0.0, "rental_uris": {"ios": "https://dc.lft.to/lastmile_qr_scan", "android": "https://dc.lft.to/lastmile_qr_scan"}, "lon": -77.03654966666667, "type": "electric_scooter"}, {"bike_id": "8d52bdc0c7755121a8e50de9706aaa3a", "is_reserved": 0, "fusion_lon": 0.0, "lat": 38.898805833333334, "is_disabled": 0, "name": "8d52bdc0c7755121a8e50de9706aaa3a", "fusion_lat": 0.0, "rental_uris": {"ios": "https://dc.lft.to/lastmile_qr_scan", "android": "https://dc.lft.to/lastmile_qr_scan"}, "lon": -76.9315935, "type": "electric_scooter"}, {"bike_id": "3219d77d5745aeb7c6caa0613f5af627", "is_reserved": 0, "fusion_lon": 0.0, "lat": 38.9216545, "is_disabled": 0, "name": "3219d77d5745aeb7c6caa0613f5af627", "fusion_lat": 0.0, "rental_uris": {"ios": "https://dc.lft.to/lastmile_qr_scan", "android": "https://dc.lft.to/lastmile_qr_scan"}, "lon": -77.0328485, "type": "electric_scooter"}, {"bike_id": "4a5777843be871f223790e1bac4c7b34", "is_reserved": 0, "fusion_lon": 0.0, "lat": 38.901112, "is_disabled": 0, "name": "4a5777843be871f223790e1bac4c7b34", "fusion_lat": 0.0, "rental_uris": {"ios": "https://dc.lft.to/lastmile_qr_scan", "android": "https://dc.lft.to/lastmile_qr_scan"}, "lon": -77.043868, "type": "electric_scooter"}, {"bike_id": "8b7339f0d02f3765ff93fbf157e0933f", "is_reserved": 0, "fusion_lon": 0.0, "lat": 38.917778166666665, "is_disabled": 0, "name": "8b7339f0d02f3765ff93fbf157e0933f", "fusion_lat": 0.0, "rental_uris": {"ios": "https://dc.lft.to/lastmile_qr_scan", "android": "https://dc.lft.to/lastmile_qr_scan"}, "lon": -77.02310616666666, "type": "electric_scooter"}, {"bike_id": "21c625ac5f34202855d448d4fd2a1bd1", "is_reserved": 0, "fusion_lon": 0.0, "lat": 38.924519, "is_disabled": 0, "name": "21c625ac5f34202855d448d4fd2a1bd1", "fusion_lat": 0.0, "rental_uris": {"ios": "https://dc.lft.to/lastmile_qr_scan", "android": "https://dc.lft.to/lastmile_qr_scan"}, "lon": -76.99328983333334, "type": "electric_scooter"}, {"bike_id": "c116bcc778af4f9dd61172fbc380a1d9", "is_reserved": 0, "fusion_lon": 0.0, "lat": 38.9171995, "is_disabled": 0, "name": "c116bcc778af4f9dd61172fbc380a1d9", "fusion_lat": 0.0, "rental_uris": {"ios": "https://dc.lft.to/lastmile_qr_scan", "android": "https://dc.lft.to/lastmile_qr_scan"}, "lon": -77.03836883333334, "type": "electric_scooter"}, {"bike_id": "39b4b6c6942f988d1b053f5447f683f9", "is_reserved": 0, "fusion_lon": 0.0, "lat": 38.914035166666665, "is_disabled": 0, "name": "39b4b6c6942f988d1b053f5447f683f9", "fusion_lat": 0.0, "rental_uris": {"ios": "https://dc.lft.to/lastmile_qr_scan", "android": "https://dc.lft.to/lastmile_qr_scan"}, "lon": -77.0015445, "type": "electric_scooter"}, {"bike_id": "8b2e8df4102d071b0af09beb1f891659", "is_reserved": 0, "fusion_lon": 0.0, "lat": 38.912734, "is_disabled": 0, "name": "8b2e8df4102d071b0af09beb1f891659", "fusion_lat": 0.0, "rental_uris": {"ios": "https://dc.lft.to/lastmile_qr_scan", "android": "https://dc.lft.to/lastmile_qr_scan"}, "lon": -77.02213783333333, "type": "electric_scooter"}, {"bike_id": "98e401677ec044e63e726b344103c3c4", "is_reserved": 0, "fusion_lon": 0.0, "lat": 38.92629633333333, "is_disabled": 0, "name": "98e401677ec044e63e726b344103c3c4", "fusion_lat": 0.0, "rental_uris": {"ios": "https://dc.lft.to/lastmile_qr_scan", "android": "https://dc.lft.to/lastmile_qr_scan"}, "lon": -77.03298333333333, "type": "electric_bike"}, {"bike_id": "b8c09b7e581cb40fc76573bab5cdf904", "is_reserved": 0, "fusion_lon": 0.0, "lat": 38.9207555, "is_disabled": 0, "name": "b8c09b7e581cb40fc76573bab5cdf904", "fusion_lat": 0.0, "rental_uris": {"ios": "https://dc.lft.to/lastmile_qr_scan", "android": "https://dc.lft.to/lastmile_qr_scan"}, "lon": -77.02428, "type": "electric_scooter"}, {"bike_id": "09db94c96f960b52e744c3ae8a30663f", "is_reserved": 0, "fusion_lon": 0.0, "lat": 38.90978883333333, "is_disabled": 0, "name": "09db94c96f960b52e744c3ae8a30663f", "fusion_lat": 0.0, "rental_uris": {"ios": "https://dc.lft.to/lastmile_qr_scan", "android": "https://dc.lft.to/lastmile_qr_scan"}, "lon": -77.02719883333333, "type": "electric_scooter"}, {"bike_id": "64148d329537435b1737c6e028ac5ac6", "is_reserved": 0, "fusion_lon": 0.0, "lat": 38.9439725, "is_disabled": 0, "name": "64148d329537435b1737c6e028ac5ac6", "fusion_lat": 0.0, "rental_uris": {"ios": "https://dc.lft.to/lastmile_qr_scan", "android": "https://dc.lft.to/lastmile_qr_scan"}, "lon": -77.03890333333334, "type": "electric_scooter"}, {"bike_id": "acbb86f7fc1546c0642f881d5f109758", "is_reserved": 0, "fusion_lon": 0.0, "lat": 38.905590333333336, "is_disabled": 0, "name": "acbb86f7fc1546c0642f881d5f109758", "fusion_lat": 0.0, "rental_uris": {"ios": "https://dc.lft.to/lastmile_qr_scan", "android": "https://dc.lft.to/lastmile_qr_scan"}, "lon": -77.03823033333333, "type": "electric_scooter"}, {"bike_id": "e14db86fd1c4fc6cb6061669dc9e370f", "is_reserved": 0, "fusion_lon": 0.0, "lat": 38.89610483333333, "is_disabled": 0, "name": "e14db86fd1c4fc6cb6061669dc9e370f", "fusion_lat": 0.0, "rental_uris": {"ios": "https://dc.lft.to/lastmile_qr_scan", "android": "https://dc.lft.to/lastmile_qr_scan"}, "lon": -77.03242066666667, "type": "electric_scooter"}, {"bike_id": "1b8547cb78b09d007f908423bc7bf252", "is_reserved": 0, "fusion_lon": 0.0, "lat": 38.920966166666666, "is_disabled": 0, "name": "1b8547cb78b09d007f908423bc7bf252", "fusion_lat": 0.0, "rental_uris": {"ios": "https://dc.lft.to/lastmile_qr_scan", "android": "https://dc.lft.to/lastmile_qr_scan"}, "lon": -77.031839, "type": "electric_scooter"}, {"bike_id": "7aec2f766a48f622765a0369096210c9", "is_reserved": 0, "fusion_lon": 0.0, "lat": 38.90388166666666, "is_disabled": 0, "name": "7aec2f766a48f622765a0369096210c9", "fusion_lat": 0.0, "rental_uris": {"ios": "https://dc.lft.to/lastmile_qr_scan", "android": "https://dc.lft.to/lastmile_qr_scan"}, "lon": -77.04339933333333, "type": "electric_scooter"}, {"bike_id": "b156f318a292c71330b8bf94c99516fd", "is_reserved": 0, "fusion_lon": 0.0, "lat": 38.90025716666667, "is_disabled": 0, "name": "b156f318a292c71330b8bf94c99516fd", "fusion_lat": 0.0, "rental_uris": {"ios": "https://dc.lft.to/lastmile_qr_scan", "android": "https://dc.lft.to/lastmile_qr_scan"}, "lon": -77.04684833333333, "type": "electric_scooter"}, {"bike_id": "2f39548e75ae08a2a9669bb01e41926b", "is_reserved": 0, "fusion_lon": 0.0, "lat": 38.9310105, "is_disabled": 0, "name": "2f39548e75ae08a2a9669bb01e41926b", "fusion_lat": 0.0, "rental_uris": {"ios": "https://dc.lft.to/lastmile_qr_scan", "android": "https://dc.lft.to/lastmile_qr_scan"}, "lon": -77.02508133333333, "type": "electric_scooter"}, {"bike_id": "8cb4021e1b561b87a711d0bce902a8e3", "is_reserved": 0, "fusion_lon": 0.0, "lat": 38.905894, "is_disabled": 0, "name": "8cb4021e1b561b87a711d0bce902a8e3", "fusion_lat": 0.0, "rental_uris": {"ios": "https://dc.lft.to/lastmile_qr_scan", "android": "https://dc.lft.to/lastmile_qr_scan"}, "lon": -77.00289333333333, "type": "electric_scooter"}, {"bike_id": "cb63b3bb91e598dc576430588fbf8cf2", "is_reserved": 0, "fusion_lon": 0.0, "lat": 38.95269033333334, "is_disabled": 0, "name": "cb63b3bb91e598dc576430588fbf8cf2", "fusion_lat": 0.0, "rental_uris": {"ios": "https://dc.lft.to/lastmile_qr_scan", "android": "https://dc.lft.to/lastmile_qr_scan"}, "lon": -77.069777, "type": "electric_bike"}, {"bike_id": "7159ad463c9c86940e7967142af5b295", "is_reserved": 0, "fusion_lon": 0.0, "lat": 38.922563, "is_disabled": 0, "name": "7159ad463c9c86940e7967142af5b295", "fusion_lat": 0.0, "rental_uris": {"ios": "https://dc.lft.to/lastmile_qr_scan", "android": "https://dc.lft.to/lastmile_qr_scan"}, "lon": -77.01823616666667, "type": "electric_scooter"}, {"bike_id": "86cbadfa6728b8764fce168cfd44c964", "is_reserved": 0, "fusion_lon": 0.0, "lat": 38.866066833333335, "is_disabled": 0, "name": "86cbadfa6728b8764fce168cfd44c964", "fusion_lat": 0.0, "rental_uris": {"ios": "https://dc.lft.to/lastmile_qr_scan", "android": "https://dc.lft.to/lastmile_qr_scan"}, "lon": -76.989151, "type": "electric_scooter"}, {"bike_id": "930f11566a9d91fa258a985445015b29", "is_reserved": 0, "fusion_lon": 0.0, "lat": 38.905752166666666, "is_disabled": 0, "name": "930f11566a9d91fa258a985445015b29", "fusion_lat": 0.0, "rental_uris": {"ios": "https://dc.lft.to/lastmile_qr_scan", "android": "https://dc.lft.to/lastmile_qr_scan"}, "lon": -77.021747, "type": "electric_scooter"}, {"bike_id": "5c711ae86b5026a90519a8da6f8d6515", "is_reserved": 0, "fusion_lon": 0.0, "lat": 38.92365516666667, "is_disabled": 0, "name": "5c711ae86b5026a90519a8da6f8d6515", "fusion_lat": 0.0, "rental_uris": {"ios": "https://dc.lft.to/lastmile_qr_scan", "android": "https://dc.lft.to/lastmile_qr_scan"}, "lon": -77.05030266666667, "type": "electric_scooter"}, {"bike_id": "5d49708e69151759c37b5ec069e778fe", "is_reserved": 0, "fusion_lon": 0.0, "lat": 38.91809416666667, "is_disabled": 0, "name": "5d49708e69151759c37b5ec069e778fe", "fusion_lat": 0.0, "rental_uris": {"ios": "https://dc.lft.to/lastmile_qr_scan", "android": "https://dc.lft.to/lastmile_qr_scan"}, "lon": -77.0330015, "type": "electric_scooter"}, {"bike_id": "092f78aec84f9090b0d8c06fc9bf7903", "is_reserved": 0, "fusion_lon": 0.0, "lat": 38.913281833333336, "is_disabled": 0, "name": "092f78aec84f9090b0d8c06fc9bf7903", "fusion_lat": 0.0, "rental_uris": {"ios": "https://dc.lft.to/lastmile_qr_scan", "android": "https://dc.lft.to/lastmile_qr_scan"}, "lon": -77.032705, "type": "electric_scooter"}, {"bike_id": "01801c786790a62b59554644487d909b", "is_reserved": 0, "fusion_lon": 0.0, "lat": 38.93664166666667, "is_disabled": 0, "name": "01801c786790a62b59554644487d909b", "fusion_lat": 0.0, "rental_uris": {"ios": "https://dc.lft.to/lastmile_qr_scan", "android": "https://dc.lft.to/lastmile_qr_scan"}, "lon": -77.05933716666667, "type": "electric_scooter"}, {"bike_id": "f93aaba887f0a22fd5f495fba53d74df", "is_reserved": 0, "fusion_lon": 0.0, "lat": 38.894291833333334, "is_disabled": 0, "name": "f93aaba887f0a22fd5f495fba53d74df", "fusion_lat": 0.0, "rental_uris": {"ios": "https://dc.lft.to/lastmile_qr_scan", "android": "https://dc.lft.to/lastmile_qr_scan"}, "lon": -77.02624166666666, "type": "electric_scooter"}, {"bike_id": "37773afe776193c14a88112c8a7fac70", "is_reserved": 0, "fusion_lon": 0.0, "lat": 38.939898, "is_disabled": 0, "name": "37773afe776193c14a88112c8a7fac70", "fusion_lat": 0.0, "rental_uris": {"ios": "https://dc.lft.to/lastmile_qr_scan", "android": "https://dc.lft.to/lastmile_qr_scan"}, "lon": -77.02885616666667, "type": "electric_scooter"}, {"bike_id": "81605ae5c0aa89ea5ce489795400d85c", "is_reserved": 0, "fusion_lon": 0.0, "lat": 38.90814983333333, "is_disabled": 0, "name": "81605ae5c0aa89ea5ce489795400d85c", "fusion_lat": 0.0, "rental_uris": {"ios": "https://dc.lft.to/lastmile_qr_scan", "android": "https://dc.lft.to/lastmile_qr_scan"}, "lon": -77.03419483333333, "type": "electric_scooter"}, {"bike_id": "615995ac590b439e2fbe63ff57c9f75f", "is_reserved": 0, "fusion_lon": 0.0, "lat": 38.8596385, "is_disabled": 0, "name": "615995ac590b439e2fbe63ff57c9f75f", "fusion_lat": 0.0, "rental_uris": {"ios": "https://dc.lft.to/lastmile_qr_scan", "android": "https://dc.lft.to/lastmile_qr_scan"}, "lon": -76.991134, "type": "electric_scooter"}, {"bike_id": "3c006d1e1355536143f8a9ac278eb6a1", "is_reserved": 0, "fusion_lon": 0.0, "lat": 38.895550666666665, "is_disabled": 0, "name": "3c006d1e1355536143f8a9ac278eb6a1", "fusion_lat": 0.0, "rental_uris": {"ios": "https://dc.lft.to/lastmile_qr_scan", "android": "https://dc.lft.to/lastmile_qr_scan"}, "lon": -76.95027916666666, "type": "electric_scooter"}, {"bike_id": "91e1f3bb875ac557d84d01e3b3a84c41", "is_reserved": 0, "fusion_lon": 0.0, "lat": 38.81304516666667, "is_disabled": 0, "name": "91e1f3bb875ac557d84d01e3b3a84c41", "fusion_lat": 0.0, "rental_uris": {"ios": "https://dc.lft.to/lastmile_qr_scan", "android": "https://dc.lft.to/lastmile_qr_scan"}, "lon": -77.050872, "type": "electric_bike"}, {"bike_id": "8bce182cdc5b818f060b9474abe797b5", "is_reserved": 0, "fusion_lon": 0.0, "lat": 38.907985333333336, "is_disabled": 0, "name": "8bce182cdc5b818f060b9474abe797b5", "fusion_lat": 0.0, "rental_uris": {"ios": "https://dc.lft.to/lastmile_qr_scan", "android": "https://dc.lft.to/lastmile_qr_scan"}, "lon": -77.04227166666666, "type": "electric_scooter"}, {"bike_id": "787c7a6aabd8b3e578ec0c3a7342ca28", "is_reserved": 0, "fusion_lon": 0.0, "lat": 38.92176516666667, "is_disabled": 0, "name": "787c7a6aabd8b3e578ec0c3a7342ca28", "fusion_lat": 0.0, "rental_uris": {"ios": "https://dc.lft.to/lastmile_qr_scan", "android": "https://dc.lft.to/lastmile_qr_scan"}, "lon": -77.0253815, "type": "electric_scooter"}, {"bike_id": "48ca8688b798bffd6cfb8da010a77294", "is_reserved": 0, "fusion_lon": 0.0, "lat": 38.920558666666665, "is_disabled": 0, "name": "48ca8688b798bffd6cfb8da010a77294", "fusion_lat": 0.0, "rental_uris": {"ios": "https://dc.lft.to/lastmile_qr_scan", "android": "https://dc.lft.to/lastmile_qr_scan"}, "lon": -77.02444916666667, "type": "electric_scooter"}, {"bike_id": "ed187a9e0f09ab8a9418eb2452ce8070", "is_reserved": 0, "fusion_lon": 0.0, "lat": 38.90269583333333, "is_disabled": 0, "name": "ed187a9e0f09ab8a9418eb2452ce8070", "fusion_lat": 0.0, "rental_uris": {"ios": "https://dc.lft.to/lastmile_qr_scan", "android": "https://dc.lft.to/lastmile_qr_scan"}, "lon": -77.038442, "type": "electric_scooter"}, {"bike_id": "cb9168a8d4bb566ba814fa0ce2981032", "is_reserved": 0, "fusion_lon": 0.0, "lat": 38.92434866666667, "is_disabled": 0, "name": "cb9168a8d4bb566ba814fa0ce2981032", "fusion_lat": 0.0, "rental_uris": {"ios": "https://dc.lft.to/lastmile_qr_scan", "android": "https://dc.lft.to/lastmile_qr_scan"}, "lon": -77.04240716666666, "type": "electric_scooter"}, {"bike_id": "f45d6f2808d9f68dfa7dfd0fe55d47b1", "is_reserved": 0, "fusion_lon": 0.0, "lat": 38.910514666666664, "is_disabled": 0, "name": "f45d6f2808d9f68dfa7dfd0fe55d47b1", "fusion_lat": 0.0, "rental_uris": {"ios": "https://dc.lft.to/lastmile_qr_scan", "android": "https://dc.lft.to/lastmile_qr_scan"}, "lon": -77.03634233333334, "type": "electric_scooter"}, {"bike_id": "f6e27d8712d9e65957e3c6ba8bf88f1e", "is_reserved": 0, "fusion_lon": 0.0, "lat": 38.9592635, "is_disabled": 0, "name": "f6e27d8712d9e65957e3c6ba8bf88f1e", "fusion_lat": 0.0, "rental_uris": {"ios": "https://dc.lft.to/lastmile_qr_scan", "android": "https://dc.lft.to/lastmile_qr_scan"}, "lon": -76.92539783333334, "type": "electric_bike"}, {"bike_id": "e13d72bd89876cbba09b96f3a6b5edcc", "is_reserved": 0, "fusion_lon": 0.0, "lat": 38.86963633333333, "is_disabled": 0, "name": "e13d72bd89876cbba09b96f3a6b5edcc", "fusion_lat": 0.0, "rental_uris": {"ios": "https://dc.lft.to/lastmile_qr_scan", "android": "https://dc.lft.to/lastmile_qr_scan"}, "lon": -77.013739, "type": "electric_scooter"}, {"bike_id": "b50fc6f013facc18758d2b4b2fad86c9", "is_reserved": 0, "fusion_lon": 0.0, "lat": 38.95878316666666, "is_disabled": 0, "name": "b50fc6f013facc18758d2b4b2fad86c9", "fusion_lat": 0.0, "rental_uris": {"ios": "https://dc.lft.to/lastmile_qr_scan", "android": "https://dc.lft.to/lastmile_qr_scan"}, "lon": -76.970495, "type": "electric_bike"}, {"bike_id": "565dbdb0858be3eb5492a65a464fa776", "is_reserved": 0, "fusion_lon": 0.0, "lat": 38.9201145, "is_disabled": 0, "name": "565dbdb0858be3eb5492a65a464fa776", "fusion_lat": 0.0, "rental_uris": {"ios": "https://dc.lft.to/lastmile_qr_scan", "android": "https://dc.lft.to/lastmile_qr_scan"}, "lon": -77.0377305, "type": "electric_scooter"}, {"bike_id": "1b531d54f646977f86bb005ede7e1fe3", "is_reserved": 0, "fusion_lon": 0.0, "lat": 38.907362666666664, "is_disabled": 0, "name": "1b531d54f646977f86bb005ede7e1fe3", "fusion_lat": 0.0, "rental_uris": {"ios": "https://dc.lft.to/lastmile_qr_scan", "android": "https://dc.lft.to/lastmile_qr_scan"}, "lon": -77.01131166666667, "type": "electric_scooter"}, {"bike_id": "3fdcfa7aab3b3b13ff62dd9af7796a8c", "is_reserved": 0, "fusion_lon": 0.0, "lat": 38.897053, "is_disabled": 0, "name": "3fdcfa7aab3b3b13ff62dd9af7796a8c", "fusion_lat": 0.0, "rental_uris": {"ios": "https://dc.lft.to/lastmile_qr_scan", "android": "https://dc.lft.to/lastmile_qr_scan"}, "lon": -77.02731133333333, "type": "electric_scooter"}, {"bike_id": "c7f87e5030a9b0b0b74c42c44163633d", "is_reserved": 0, "fusion_lon": 0.0, "lat": 38.91734916666667, "is_disabled": 0, "name": "c7f87e5030a9b0b0b74c42c44163633d", "fusion_lat": 0.0, "rental_uris": {"ios": "https://dc.lft.to/lastmile_qr_scan", "android": "https://dc.lft.to/lastmile_qr_scan"}, "lon": -77.02297833333333, "type": "electric_scooter"}, {"bike_id": "505c4a1f9792e1579e266684efb8cfc9", "is_reserved": 0, "fusion_lon": 0.0, "lat": 38.93961483333333, "is_disabled": 0, "name": "505c4a1f9792e1579e266684efb8cfc9", "fusion_lat": 0.0, "rental_uris": {"ios": "https://dc.lft.to/lastmile_qr_scan", "android": "https://dc.lft.to/lastmile_qr_scan"}, "lon": -77.36091066666667, "type": "electric_bike"}, {"bike_id": "95d58132d26bdc8e0aa1a33b1a995065", "is_reserved": 0, "fusion_lon": 0.0, "lat": 38.90136966666667, "is_disabled": 0, "name": "95d58132d26bdc8e0aa1a33b1a995065", "fusion_lat": 0.0, "rental_uris": {"ios": "https://dc.lft.to/lastmile_qr_scan", "android": "https://dc.lft.to/lastmile_qr_scan"}, "lon": -77.044602, "type": "electric_scooter"}, {"bike_id": "18a96a9235d3d6e0bf149072040c014f", "is_reserved": 0, "fusion_lon": 0.0, "lat": 38.91996433333333, "is_disabled": 0, "name": "18a96a9235d3d6e0bf149072040c014f", "fusion_lat": 0.0, "rental_uris": {"ios": "https://dc.lft.to/lastmile_qr_scan", "android": "https://dc.lft.to/lastmile_qr_scan"}, "lon": -77.032224, "type": "electric_scooter"}, {"bike_id": "0d4911a1a76e99162f153218dddd71c0", "is_reserved": 0, "fusion_lon": 0.0, "lat": 38.928495833333336, "is_disabled": 0, "name": "0d4911a1a76e99162f153218dddd71c0", "fusion_lat": 0.0, "rental_uris": {"ios": "https://dc.lft.to/lastmile_qr_scan", "android": "https://dc.lft.to/lastmile_qr_scan"}, "lon": -77.054298, "type": "electric_scooter"}, {"bike_id": "581027e0d137c2c77f23e6e85694690d", "is_reserved": 0, "fusion_lon": 0.0, "lat": 38.861656333333336, "is_disabled": 0, "name": "581027e0d137c2c77f23e6e85694690d", "fusion_lat": 0.0, "rental_uris": {"ios": "https://dc.lft.to/lastmile_qr_scan", "android": "https://dc.lft.to/lastmile_qr_scan"}, "lon": -76.95064783333333, "type": "electric_bike"},