{"data": {"bikes": [{"is_disabled": 0, "is_reserved": 0, "fusion_lat": 0.0, "lat": 38.878386666666664, "fusion_lon": 0.0, "rental_uris": {"ios": "https://dc.lft.to/lastmile_qr_scan", "android": "https://dc.lft.to/lastmile_qr_scan"}, "lon": -76.9859735, "bike_id": "388f92685b17bc6a128e43054de1ef0e", "type": "electric_scooter", "name": "388f92685b17bc6a128e43054de1ef0e"}, {"is_disabled": 0, "is_reserved": 0, "fusion_lat": 0.0, "lat": 38.91781916666667, "fusion_lon": 0.0, "rental_uris": {"ios": "https://dc.lft.to/lastmile_qr_scan", "android": "https://dc.lft.to/lastmile_qr_scan"}, "lon": -77.02303416666666, "bike_id": "aeb8b6babd5318f8d6096501143e02ab", "type": "electric_scooter", "name": "aeb8b6babd5318f8d6096501143e02ab"}, {"is_disabled": 0, "is_reserved": 0, "fusion_lat": 0.0, "lat": 38.921446333333336, "fusion_lon": 0.0, "rental_uris": {"ios": "https://dc.lft.to/lastmile_qr_scan", "android": "https://dc.lft.to/lastmile_qr_scan"}, "lon": -77.03381533333334, "bike_id": "9ae49972d86aaab88890f93a500ed91a", "type": "electric_scooter", "name": "9ae49972d86aaab88890f93a500ed91a"}, {"is_disabled": 0, "is_reserved": 0, "fusion_lat": 0.0, "lat": 38.892538, "fusion_lon": 0.0, "rental_uris": {"ios": "https://dc.lft.to/lastmile_qr_scan", "android": "https://dc.lft.to/lastmile_qr_scan"}, "lon": -77.04659183333334, "bike_id": "4aef9bafc642a3e3fddc812da20c8476", "type": "electric_scooter", "name": "4aef9bafc642a3e3fddc812da20c8476"}, {"is_disabled": 0, "is_reserved": 0, "fusion_lat": 0.0, "lat": 38.929373, "fusion_lon": 0.0, "rental_uris": {"ios": "https://dc.lft.to/lastmile_qr_scan", "android": "https://dc.lft.to/lastmile_qr_scan"}, "lon": -77.032719, "bike_id": "daeae4c76ab61bc5d3f16b481d208143", "type": "electric_scooter", "name": "daeae4c76ab61bc5d3f16b481d208143"}, {"is_disabled": 0, "is_reserved": 0, "fusion_lat": 0.0, "lat": 38.89505716666667, "fusion_lon": 0.0, "rental_uris": {"ios": "https://dc.lft.to/lastmile_qr_scan", "android": "https://dc.lft.to/lastmile_qr_scan"}, "lon": -77.02283883333334, "bike_id": "48909b44ec84acec720bc51ebc988b8f", "type": "electric_scooter", "name": "48909b44ec84acec720bc51ebc988b8f"}, {"is_disabled": 0, "is_reserved": 0, "fusion_lat": 0.0, "lat": 38.897408666666664, "fusion_lon": 0.0, "rental_uris": {"ios": "https://dc.lft.to/lastmile_qr_scan", "android": "https://dc.lft.to/lastmile_qr_scan"}, "lon": -77.00343733333334, "bike_id": "349cb33326a26b28a303d94b57b0aa58", "type": "electric_scooter", "name": "349cb33326a26b28a303d94b57b0aa58"}, {"is_disabled": 0, "is_reserved": 0, "fusion_lat": 0.0, "lat": 38.93783716666667, "fusion_lon": 0.0, "rental_uris": {"ios": "https://dc.lft.to/lastmile_qr_scan", "android": "https://dc.lft.to/lastmile_qr_scan"}, "lon": -77.02333216666666, "bike_id": "d91c5d6715b4ff3e3ae2cd717ea4c99a", "type": "electric_scooter", "name": "d91c5d6715b4ff3e3ae2cd717ea4c99a"}, {"is_disabled": 0, "is_reserved": 0, "fusion_lat": 0.0, "lat": 38.8459615, "fusion_lon": 0.0, "rental_uris": {"ios": "https://dc.lft.to/lastmile_qr_scan", "android": "https://dc.lft.to/lastmile_qr_scan"}, "lon": -76.9741255, "bike_id": "3d2758a2b8863b2fa9f53c8033f6a907", "type": "electric_scooter", "name": "3d2758a2b8863b2fa9f53c8033f6a907"}, {"is_disabled": 0, "is_reserved": 0, "fusion_lat": 0.0, "lat": 38.92987683333333, "fusion_lon": 0.0, "rental_uris": {"ios": "https://dc.lft.to/lastmile_qr_scan", "android": "https://dc.lft.to/lastmile_qr_scan"}, "lon": -77.034739, "bike_id": "2bde3497be1d156a8e7cd7a470f2c079", "type": "electric_scooter", "name": "2bde3497be1d156a8e7cd7a470f2c079"}, {"is_disabled": 0, "is_reserved": 0, "fusion_lat": 0.0, "lat": 38.941367, "fusion_lon": 0.0, "rental_uris": {"ios": "https://dc.lft.to/lastmile_qr_scan", "android": "https://dc.lft.to/lastmile_qr_scan"}, "lon": -77.02324833333333, "bike_id": "f42f25024ef87251477ab9879bfaa727", "type": "electric_scooter", "name": "f42f25024ef87251477ab9879bfaa727"}, {"is_disabled": 0, "is_reserved": 0, "fusion_lat": 0.0, "lat": 38.920277666666664, "fusion_lon": 0.0, "rental_uris": {"ios": "https://dc.lft.to/lastmile_qr_scan", "android": "https://dc.lft.to/lastmile_qr_scan"}, "lon": -77.01118816666667, "bike_id": "bc53fd2ab8c8596d82220635d4fffddf", "type": "electric_scooter", "name": "bc53fd2ab8c8596d82220635d4fffddf"}, {"is_disabled": 0, "is_reserved": 0, "fusion_lat": 0.0, "lat": 38.804046666666665, "fusion_lon": 0.0, "rental_uris": {"ios": "https://dc.lft.to/lastmile_qr_scan", "android": "https://dc.lft.to/lastmile_qr_scan"}, "lon": -77.11329166666667, "bike_id": "cc6dc7e397c7ea7b751d95dc945756cc", "type": "electric_bike", "name": "cc6dc7e397c7ea7b751d95dc945756cc"}, {"is_disabled": 0, "is_reserved": 0, "fusion_lat": 0.0, "lat": 38.90804216666667, "fusion_lon": 0.0, "rental_uris": {"ios": "https://dc.lft.to/lastmile_qr_scan", "android": "https://dc.lft.to/lastmile_qr_scan"}, "lon": -77.03836533333333, "bike_id": "493ef4695ba4717885040e8fedf79fce", "type": "electric_scooter", "name": "493ef4695ba4717885040e8fedf79fce"}, {"is_disabled": 0, "is_reserved": 0, "fusion_lat": 0.0, "lat": 38.918166166666666, "fusion_lon": 0.0, "rental_uris": {"ios": "https://dc.lft.to/lastmile_qr_scan", "android": "https://dc.lft.to/lastmile_qr_scan"}, "lon": -77.02525983333334, "bike_id": "894794c4406a33115df9c908762f30e0", "type": "electric_scooter", "name": "894794c4406a33115df9c908762f30e0"}, {"is_disabled": 0, "is_reserved": 0, "fusion_lat": 0.0, "lat": 38.93049666666667, "fusion_lon": 0.0, "rental_uris": {"ios": "https://dc.lft.to/lastmile_qr_scan", "android": "https://dc.lft.to/lastmile_qr_scan"}, "lon": -77.02653933333333, "bike_id": "6d6d2e8bab586f55b3a73932ae31b0a9", "type": "electric_scooter", "name": "6d6d2e8bab586f55b3a73932ae31b0a9"}, {"is_disabled": 0, "is_reserved": 0, "fusion_lat": 0.0, "lat": 38.918031166666665, "fusion_lon": 0.0, "rental_uris": {"ios": "https://dc.lft.to/lastmile_qr_scan", "android": "https://dc.lft.to/lastmile_qr_scan"}, "lon": -77.0344365, "bike_id": "2b9b46b0d26302e61c8af661c2f4ec58", "type": "electric_scooter", "name": "2b9b46b0d26302e61c8af661c2f4ec58"}, {"is_disabled": 0, "is_reserved": 0, "fusion_lat": 0.0, "lat": 38.906493166666664, "fusion_lon": 0.0, "rental_uris": {"ios": "https://dc.lft.to/lastmile_qr_scan", "android": "https://dc.lft.to/lastmile_qr_scan"}, "lon": -77.01172533333333, "bike_id": "a87ec80ecdbbb43fdc675c14c71d5ab2", "type": "electric_scooter", "name": "a87ec80ecdbbb43fdc675c14c71d5ab2"}, {"is_disabled": 0, "is_reserved": 0, "fusion_lat": 0.0, "lat": 38.855908, "fusion_lon": 0.0, "rental_uris": {"ios": "https://dc.lft.to/lastmile_qr_scan", "android": "https://dc.lft.to/lastmile_qr_scan"}, "lon": -76.97282783333333, "bike_id": "cf91afde433d264111b582b009f44285", "type": "electric_bike", "name": "cf91afde433d264111b582b009f44285"}, {"is_disabled": 0, "is_reserved": 0, "fusion_lat": 0.0, "lat": 38.9616015, "fusion_lon": 0.0, "rental_uris": {"ios": "https://dc.lft.to/lastmile_qr_scan", "android": "https://dc.lft.to/lastmile_qr_scan"}, "lon": -77.02783583333333, "bike_id": "d297cea12d7d4d076d7da6f391d2c23f", "type": "electric_scooter", "name": "d297cea12d7d4d076d7da6f391d2c23f"}, {"is_disabled": 0, "is_reserved": 0, "fusion_lat": 0.0, "lat": 38.90452666666667, "fusion_lon": 0.0, "rental_uris": {"ios": "https://dc.lft.to/lastmile_qr_scan", "android": "https://dc.lft.to/lastmile_qr_scan"}, "lon": -76.93274216666667, "bike_id": "980e08b4807c0f1b370701543da75a60", "type": "electric_scooter", "name": "980e08b4807c0f1b370701543da75a60"}, {"is_disabled": 0, "is_reserved": 0, "fusion_lat": 0.0, "lat": 38.9219985, "fusion_lon": 0.0, "rental_uris": {"ios": "https://dc.lft.to/lastmile_qr_scan", "android": "https://dc.lft.to/lastmile_qr_scan"}, "lon": -77.01832933333333, "bike_id": "633425e0ecdfa7f3f9265becff9eb8b9", "type": "electric_scooter", "name": "633425e0ecdfa7f3f9265becff9eb8b9"}, {"is_disabled": 0, "is_reserved": 0, "fusion_lat": 0.0, "lat": 38.939805666666665, "fusion_lon": 0.0, "rental_uris": {"ios": "https://dc.lft.to/lastmile_qr_scan", "android": "https://dc.lft.to/lastmile_qr_scan"}, "lon": -77.02899983333333, "bike_id": "d7f9a82241f41e63e8bc21dd50f81814", "type": "electric_scooter", "name": "d7f9a82241f41e63e8bc21dd50f81814"}, {"is_disabled": 0, "is_reserved": 0, "fusion_lat": 0.0, "lat": 38.89229383333333, "fusion_lon": 0.0, "rental_uris": {"ios": "https://dc.lft.to/lastmile_qr_scan", "android": "https://dc.lft.to/lastmile_qr_scan"}, "lon": -77.04648483333334, "bike_id": "10d67836386486c9e88af8070c4c5d4f", "type": "electric_scooter", "name": "10d67836386486c9e88af8070c4c5d4f"}, {"is_disabled": 0, "is_reserved": 0, "fusion_lat": 0.0, "lat": 38.94976716666667, "fusion_lon": 0.0, "rental_uris": {"ios": "https://dc.lft.to/lastmile_qr_scan", "android": "https://dc.lft.to/lastmile_qr_scan"}, "lon": -77.02446916666666, "bike_id": "aa030216e7bc1dc4206603ae393381f6", "type": "electric_scooter", "name": "aa030216e7bc1dc4206603ae393381f6"}, {"is_disabled": 0, "is_reserved": 0, "fusion_lat": 0.0, "lat": 38.92897383333333, "fusion_lon": 0.0, "rental_uris": {"ios": "https://dc.lft.to/lastmile_qr_scan", "android": "https://dc.lft.to/lastmile_qr_scan"}, "lon": -77.037513, "bike_id": "400e60df07c765baffb38d43e684fd9a", "type": "electric_scooter", "name": "400e60df07c765baffb38d43e684fd9a"}, {"is_disabled": 0, "is_reserved": 0, "fusion_lat": 0.0, "lat": 38.911828666666665, "fusion_lon": 0.0, "rental_uris": {"ios": "https://dc.lft.to/lastmile_qr_scan", "android": "https://dc.lft.to/lastmile_qr_scan"}, "lon": -77.00193016666667, "bike_id": "24011368cba058ec499f4bc96d0371a6", "type": "electric_scooter", "name": "24011368cba058ec499f4bc96d0371a6"}, {"is_disabled": 0, "is_reserved": 0, "fusion_lat": 0.0, "lat": 38.88131533333333, "fusion_lon": 0.0, "rental_uris": {"ios": "https://dc.lft.to/lastmile_qr_scan", "android": "https://dc.lft.to/lastmile_qr_scan"}, "lon": -77.0226705, "bike_id": "599ea0e01a1cdd36b40fadcdfd8baafd", "type": "electric_scooter", "name": "599ea0e01a1cdd36b40fadcdfd8baafd"}, {"is_disabled": 0, "is_reserved": 0, "fusion_lat": 0.0, "lat": 38.94919633333333, "fusion_lon": 0.0, "rental_uris": {"ios": "https://dc.lft.to/lastmile_qr_scan", "android": "https://dc.lft.to/lastmile_qr_scan"}, "lon": -77.00799766666667, "bike_id": "45c3a9d6eea9cae45e325925c2a41f85", "type": "electric_bike", "name": "45c3a9d6eea9cae45e325925c2a41f85"}, {"is_disabled": 0, "is_reserved": 0, "fusion_lat": 0.0, "lat": 38.884491, "fusion_lon": 0.0, "rental_uris": {"ios": "https://dc.lft.to/lastmile_qr_scan", "android": "https://dc.lft.to/lastmile_qr_scan"}, "lon": -76.9509435, "bike_id": "e811b008db7dc4f58a31468d5a13ba70", "type": "electric_scooter", "name": "e811b008db7dc4f58a31468d5a13ba70"}, {"is_disabled": 0, "is_reserved": 0, "fusion_lat": 0.0, "lat": 38.8984915, "fusion_lon": 0.0, "rental_uris": {"ios": "https://dc.lft.to/lastmile_qr_scan", "android": "https://dc.lft.to/lastmile_qr_scan"}, "lon": -77.0286385, "bike_id": "df3eb5f4d3c511229309e9b7b45d64d1", "type": "electric_scooter", "name": "df3eb5f4d3c511229309e9b7b45d64d1"}, {"is_disabled": 0, "is_reserved": 0, "fusion_lat": 0.0, "lat": 38.81328966666667, "fusion_lon": 0.0, "rental_uris": {"ios": "https://dc.lft.to/lastmile_qr_scan", "android": "https://dc.lft.to/lastmile_qr_scan"}, "lon": -77.050901, "bike_id": "b19a33d2d2c8c7395c8fcf45e1ce51d0", "type": "electric_bike", "name": "b19a33d2d2c8c7395c8fcf45e1ce51d0"}, {"is_disabled": 0, "is_reserved": 0, "fusion_lat": 0.0, "lat": 38.92853933333333, "fusion_lon": 0.0, "rental_uris": {"ios": "https://dc.lft.to/lastmile_qr_scan", "android": "https://dc.lft.to/lastmile_qr_scan"}, "lon": -77.0141315, "bike_id": "201e5723529beaf390b06465bf25160a", "type": "electric_scooter", "name": "201e5723529beaf390b06465bf25160a"}, {"is_disabled": 0, "is_reserved": 0, "fusion_lat": 0.0, "lat": 38.90441633333333, "fusion_lon": 0.0, "rental_uris": {"ios": "https://dc.lft.to/lastmile_qr_scan", "android": "https://dc.lft.to/lastmile_qr_scan"}, "lon": -77.048465, "bike_id": "5d59e7757495ff9dac4144185aa15244", "type": "electric_scooter", "name": "5d59e7757495ff9dac4144185aa15244"}, {"is_disabled": 0, "is_reserved": 0, "fusion_lat": 0.0, "lat": 38.910443, "fusion_lon": 0.0, "rental_uris": {"ios": "https://dc.lft.to/lastmile_qr_scan", "android": "https://dc.lft.to/lastmile_qr_scan"}, "lon": -76.99800516666667, "bike_id": "6d4763cfefd4e5a8f9f9c408a7a1edeb", "type": "electric_scooter", "name": "6d4763cfefd4e5a8f9f9c408a7a1edeb"}, {"is_disabled": 0, "is_reserved": 0, "fusion_lat": 0.0, "lat": 38.95217933333333, "fusion_lon": 0.0, "rental_uris": {"ios": "https://dc.lft.to/lastmile_qr_scan", "android": "https://dc.lft.to/lastmile_qr_scan"}, "lon": -77.0886785, "bike_id": "223fc48153f3eb4dd234d85ea5bd14c3", "type": "electric_scooter", "name": "223fc48153f3eb4dd234d85ea5bd14c3"}, {"is_disabled": 0, "is_reserved": 0, "fusion_lat": 0.0, "lat": 38.9231755, "fusion_lon": 0.0, "rental_uris": {"ios": "https://dc.lft.to/lastmile_qr_scan", "android": "https://dc.lft.to/lastmile_qr_scan"}, "lon": -77.02899716666667, "bike_id": "98a03b088940638c9cb02abe95aad3b9", "type": "electric_scooter", "name": "98a03b088940638c9cb02abe95aad3b9"}, {"is_disabled": 0, "is_reserved": 0, "fusion_lat": 0.0, "lat": 38.914098833333334, "fusion_lon": 0.0, "rental_uris": {"ios": "https://dc.lft.to/lastmile_qr_scan", "android": "https://dc.lft.to/lastmile_qr_scan"}, "lon": -77.024268, "bike_id": "9a92ea10c610deb056efaa7cfd54916d", "type": "electric_scooter", "name": "9a92ea10c610deb056efaa7cfd54916d"}, {"is_disabled": 0, "is_reserved": 0, "fusion_lat": 0.0, "lat": 38.85244333333333, "fusion_lon": 0.0, "rental_uris": {"ios": "https://dc.lft.to/lastmile_qr_scan", "android": "https://dc.lft.to/lastmile_qr_scan"}, "lon": -77.114113, "bike_id": "bb493b1ed7a80eedcf97b8588cb814a8", "type": "electric_bike", "name": "bb493b1ed7a80eedcf97b8588cb814a8"}, {"is_disabled": 0, "is_reserved": 0, "fusion_lat": 0.0, "lat": 38.925699, "fusion_lon": 0.0, "rental_uris": {"ios": "https://dc.lft.to/lastmile_qr_scan", "android": "https://dc.lft.to/lastmile_qr_scan"}, "lon": -77.03134883333334, "bike_id": "0a86ff7aca20024f909b70851731fe1d", "type": "electric_scooter", "name": "0a86ff7aca20024f909b70851731fe1d"}, {"is_disabled": 0, "is_reserved": 0, "fusion_lat": 0.0, "lat": 38.94334583333333, "fusion_lon": 0.0, "rental_uris": {"ios": "https://dc.lft.to/lastmile_qr_scan", "android": "https://dc.lft.to/lastmile_qr_scan"}, "lon": -77.0155135, "bike_id": "c9795013b6663d5fc1daa2396afb1304", "type": "electric_scooter", "name": "c9795013b6663d5fc1daa2396afb1304"}, {"is_disabled": 0, "is_reserved": 0, "fusion_lat": 0.0, "lat": 38.9072465, "fusion_lon": 0.0, "rental_uris": {"ios": "https://dc.lft.to/lastmile_qr_scan", "android": "https://dc.lft.to/lastmile_qr_scan"}, "lon": -76.98881916666667, "bike_id": "529272c68d12eb2251894de91319bc5c", "type": "electric_bike", "name": "529272c68d12eb2251894de91319bc5c"}, {"is_disabled": 0, "is_reserved": 0, "fusion_lat": 0.0, "lat": 38.882916333333334, "fusion_lon": 0.0, "rental_uris": {"ios": "https://dc.lft.to/lastmile_qr_scan", "android": "https://dc.lft.to/lastmile_qr_scan"}, "lon": -76.93485233333334, "bike_id": "e6009db944d0064012369d6cb798d019", "type": "electric_scooter", "name": "e6009db944d0064012369d6cb798d019"}, {"is_disabled": 0, "is_reserved": 0, "fusion_lat": 0.0, "lat": 38.842738, "fusion_lon": 0.0, "rental_uris": {"ios": "https://dc.lft.to/lastmile_qr_scan", "android": "https://dc.lft.to/lastmile_qr_scan"}, "lon": -76.98837316666666, "bike_id": "10a35d4a10bfbfc8ac87a1861d404646", "type": "electric_scooter", "name": "10a35d4a10bfbfc8ac87a1861d404646"}, {"is_disabled": 0, "is_reserved": 0, "fusion_lat": 0.0, "lat": 38.89226, "fusion_lon": 0.0, "rental_uris": {"ios": "https://dc.lft.to/lastmile_qr_scan", "android": "https://dc.lft.to/lastmile_qr_scan"}, "lon": -77.032378, "bike_id": "8d4a079307b37e6819b28a5c16c83d0b", "type": "electric_scooter", "name": "8d4a079307b37e6819b28a5c16c83d0b"}, {"is_disabled": 0, "is_reserved": 0, "fusion_lat": 0.0, "lat": 38.91999633333333, "fusion_lon": 0.0, "rental_uris": {"ios": "https://dc.lft.to/lastmile_qr_scan", "android": "https://dc.lft.to/lastmile_qr_scan"}, "lon": -77.03217233333334, "bike_id": "95089a2abd7c01e3d9cb4fe5c460481a", "type": "electric_scooter", "name": "95089a2abd7c01e3d9cb4fe5c460481a"}, {"is_disabled": 0, "is_reserved": 0, "fusion_lat": 0.0, "lat": 38.906857333333335, "fusion_lon": 0.0, "rental_uris": {"ios": "https://dc.lft.to/lastmile_qr_scan", "android": "https://dc.lft.to/lastmile_qr_scan"}, "lon": -77.06292433333333, "bike_id": "cd4c03282bd67a135a96e7e637809f0c", "type": "electric_scooter", "name": "cd4c03282bd67a135a96e7e637809f0c"}, {"is_disabled": 0, "is_reserved": 0, "fusion_lat": 0.0, "lat": 38.90628233333333, "fusion_lon": 0.0, "rental_uris": {"ios": "https://dc.lft.to/lastmile_qr_scan", "android": "https://dc.lft.to/lastmile_qr_scan"}, "lon": -77.04567266666666, "bike_id": "aca5f2eb73c88702d07cc1b586af8415", "type": "electric_scooter", "name": "aca5f2eb73c88702d07cc1b586af8415"}, {"is_disabled": 0, "is_reserved": 0, "fusion_lat": 0.0, "lat": 38.901433833333336, "fusion_lon": 0.0, "rental_uris": {"ios": "https://dc.lft.to/lastmile_qr_scan", "android": "https://dc.lft.to/lastmile_qr_scan"}, "lon": -76.92979316666667, "bike_id": "fd118b69fa5670b26c31912dcc5af92c", "type": "electric_scooter", "name": "fd118b69fa5670b26c31912dcc5af92c"}, {"is_disabled": 0, "is_reserved": 0, "fusion_lat": 0.0, "lat": 38.8966325, "fusion_lon": 0.0, "rental_uris": {"ios": "https://dc.lft.to/lastmile_qr_scan", "android": "https://dc.lft.to/lastmile_qr_scan"}, "lon": -77.04890683333333, "bike_id": "203e1eb8820907587a01183c0a5abf5c", "type": "electric_scooter", "name": "203e1eb8820907587a01183c0a5abf5c"}, {"is_disabled": 0, "is_reserved": 0, "fusion_lat": 0.0, "lat": 38.89528466666667, "fusion_lon": 0.0, "rental_uris": {"ios": "https://dc.lft.to/lastmile_qr_scan", "android": "https://dc.lft.to/lastmile_qr_scan"}, "lon": -77.02281, "bike_id": "33634758006356247630e063efc69cca", "type": "electric_scooter", "name": "33634758006356247630e063efc69cca"}, {"is_disabled": 0, "is_reserved": 0, "fusion_lat": 0.0, "lat": 39.00645466666667, "fusion_lon": 0.0, "rental_uris": {"ios": "https://dc.lft.to/lastmile_qr_scan", "android": "https://dc.lft.to/lastmile_qr_scan"}, "lon": -76.90021733333333, "bike_id": "a41a294e6230c7026e32117041729fee", "type": "electric_bike", "name": "a41a294e6230c7026e32117041729fee"}, {"is_disabled": 0, "is_reserved": 0, "fusion_lat": 0.0, "lat": 38.915515666666664, "fusion_lon": 0.0, "rental_uris": {"ios": "https://dc.lft.to/lastmile_qr_scan", "android": "https://dc.lft.to/lastmile_qr_scan"}, "lon": -77.03847716666667, "bike_id": "29ab7d0c0853736263f80bc9470565a4", "type": "electric_scooter", "name": "29ab7d0c0853736263f80bc9470565a4"}, {"is_disabled": 0, "is_reserved": 0, "fusion_lat": 0.0, "lat": 38.924348, "fusion_lon": 0.0, "rental_uris": {"ios": "https://dc.lft.to/lastmile_qr_scan", "android": "https://dc.lft.to/lastmile_qr_scan"}, "lon": -77.02985483333333, "bike_id": "04c14200e3c6590c8a7ce0afc0f75ba6", "type": "electric_scooter", "name": "04c14200e3c6590c8a7ce0afc0f75ba6"}, {"is_disabled": 0, "is_reserved": 0, "fusion_lat": 0.0, "lat": 38.930180166666666, "fusion_lon": 0.0, "rental_uris": {"ios": "https://dc.lft.to/lastmile_qr_scan", "android": "https://dc.lft.to/lastmile_qr_scan"}, "lon": -77.03797183333333, "bike_id": "1746d6d54a3fb9d99e61679eeb6a822a", "type": "electric_scooter", "name": "1746d6d54a3fb9d99e61679eeb6a822a"}, {"is_disabled": 0, "is_reserved": 0, "fusion_lat": 0.0, "lat": 38.922123166666665, "fusion_lon": 0.0, "rental_uris": {"ios": "https://dc.lft.to/lastmile_qr_scan", "android": "https://dc.lft.to/lastmile_qr_scan"}, "lon": -77.03290466666667, "bike_id": "536e67e32995c9edcda453decce810fb", "type": "electric_scooter", "name": "536e67e32995c9edcda453decce810fb"}, {"is_disabled": 0, "is_reserved": 0, "fusion_lat": 0.0, "lat": 38.90473683333333, "fusion_lon": 0.0, "rental_uris": {"ios": "https://dc.lft.to/lastmile_qr_scan", "android": "https://dc.lft.to/lastmile_qr_scan"}, "lon": -76.9505075, "bike_id": "9b621f27ffaf5355870a976969c41b37", "type": "electric_scooter", "name": "9b621f27ffaf5355870a976969c41b37"}, {"is_disabled": 0, "is_reserved": 0, "fusion_lat": 0.0, "lat": 38.897026, "fusion_lon": 0.0, "rental_uris": {"ios": "https://dc.lft.to/lastmile_qr_scan", "android": "https://dc.lft.to/lastmile_qr_scan"}, "lon": -77.04883766666667, "bike_id": "8615d6dc32109261c81fbbf0577d665d", "type": "electric_scooter", "name": "8615d6dc32109261c81fbbf0577d665d"}, {"is_disabled": 0, "is_reserved": 0, "fusion_lat": 0.0, "lat": 38.85517433333333, "fusion_lon": 0.0, "rental_uris": {"ios": "https://dc.lft.to/lastmile_qr_scan", "android": "https://dc.lft.to/lastmile_qr_scan"}, "lon": -76.99151883333333, "bike_id": "7b9c064bf256f894e6a9af80770dedb6", "type": "electric_scooter", "name": "7b9c064bf256f894e6a9af80770dedb6"}, {"is_disabled": 0, "is_reserved": 0, "fusion_lat": 0.0, "lat": 38.898339166666666, "fusion_lon": 0.0, "rental_uris": {"ios": "https://dc.lft.to/lastmile_qr_scan", "android": "https://dc.lft.to/lastmile_qr_scan"}, "lon": -77.033348, "bike_id": "ee540d8d06be0f65698ad9c5367f8900", "type": "electric_scooter", "name": "ee540d8d06be0f65698ad9c5367f8900"}, {"is_disabled": 0, "is_reserved": 0, "fusion_lat": 0.0, "lat": 38.947283166666665, "fusion_lon": 0.0, "rental_uris": {"ios": "https://dc.lft.to/lastmile_qr_scan", "android": "https://dc.lft.to/lastmile_qr_scan"}, "lon": -77.01938666666666, "bike_id": "7e5f8d9ed67376e040d9f020a3b624f6", "type": "electric_scooter", "name": "7e5f8d9ed67376e040d9f020a3b624f6"}, {"is_disabled": 0, "is_reserved": 0, "fusion_lat": 0.0, "lat": 38.896602, "fusion_lon": 0.0, "rental_uris": {"ios": "https://dc.lft.to/lastmile_qr_scan", "android": "https://dc.lft.to/lastmile_qr_scan"}, "lon": -76.93211233333334, "bike_id": "bea17a9ec6bb559789dab2ffead50d9e", "type": "electric_scooter", "name": "bea17a9ec6bb559789dab2ffead50d9e"}, {"is_disabled": 0, "is_reserved": 0, "fusion_lat": 0.0, "lat": 38.93112466666667, "fusion_lon": 0.0, "rental_uris": {"ios": "https://dc.lft.to/lastmile_qr_scan", "android": "https://dc.lft.to/lastmile_qr_scan"}, "lon": -77.038401, "bike_id": "de2846a444e749c7def473244e956246", "type": "electric_scooter", "name": "de2846a444e749c7def473244e956246"}, {"is_disabled": 0, "is_reserved": 0, "fusion_lat": 0.0, "lat": 38.88292583333333, "fusion_lon": 0.0, "rental_uris": {"ios": "https://dc.lft.to/lastmile_qr_scan", "android": "https://dc.lft.to/lastmile_qr_scan"}, "lon": -76.98616733333333, "bike_id": "eb4a04d56b0c7e936a17bebe50afaa28", "type": "electric_scooter", "name": "eb4a04d56b0c7e936a17bebe50afaa28"}, {"is_disabled": 0, "is_reserved": 0, "fusion_lat": 0.0, "lat": 38.919256, "fusion_lon": 0.0, "rental_uris": {"ios": "https://dc.lft.to/lastmile_qr_scan", "android": "https://dc.lft.to/lastmile_qr_scan"}, "lon": -77.02713733333333, "bike_id": "5422dba4218e1755c4f5eccd53208fe1", "type": "electric_scooter", "name": "5422dba4218e1755c4f5eccd53208fe1"}, {"is_disabled": 0, "is_reserved": 0, "fusion_lat": 0.0, "lat": 38.8706555, "fusion_lon": 0.0, "rental_uris": {"ios": "https://dc.lft.to/lastmile_qr_scan", "android": "https://dc.lft.to/lastmile_qr_scan"}, "lon": -77.11029533333334, "bike_id": "07ccab7f1b2d17421eebb94063c37861", "type": "electric_bike", "name": "07ccab7f1b2d17421eebb94063c37861"}, {"is_disabled": 0, "is_reserved": 0, "fusion_lat": 0.0, "lat": 38.88623233333333, "fusion_lon": 0.0, "rental_uris": {"ios": "https://dc.lft.to/lastmile_qr_scan", "android": "https://dc.lft.to/lastmile_qr_scan"}, "lon": -77.02838216666666, "bike_id": "9fb4b344cdf1af2c36b00c96b61e902a", "type": "electric_scooter", "name": "9fb4b344cdf1af2c36b00c96b61e902a"}, {"is_disabled": 0, "is_reserved": 0, "fusion_lat": 0.0, "lat": 38.868145, "fusion_lon": 0.0, "rental_uris": {"ios": "https://dc.lft.to/lastmile_qr_scan", "android": "https://dc.lft.to/lastmile_qr_scan"}, "lon": -76.980153, "bike_id": "630afb7c6c4cbe2aee42683a7b0a049a", "type": "electric_bike", "name": "630afb7c6c4cbe2aee42683a7b0a049a"}, {"is_disabled": 0, "is_reserved": 0, "fusion_lat": 0.0, "lat": 38.8791355, "fusion_lon": 0.0, "rental_uris": {"ios": "https://dc.lft.to/lastmile_qr_scan", "android": "https://dc.lft.to/lastmile_qr_scan"}, "lon": -77.00853283333333, "bike_id": "ddeb81ce3d36de6fcc820971266c5379", "type": "electric_scooter", "name": "ddeb81ce3d36de6fcc820971266c5379"}, {"is_disabled": 0, "is_reserved": 0, "fusion_lat": 0.0, "lat": 38.93861283333333, "fusion_lon": 0.0, "rental_uris": {"ios": "https://dc.lft.to/lastmile_qr_scan", "android": "https://dc.lft.to/lastmile_qr_scan"}, "lon": -77.03163366666666, "bike_id": "9c221d37ad83b99aa83509ceb5a5fbe5", "type": "electric_scooter", "name": "9c221d37ad83b99aa83509ceb5a5fbe5"}, {"is_disabled": 0, "is_reserved": 0, "fusion_lat": 0.0, "lat": 38.956352, "fusion_lon": 0.0, "rental_uris": {"ios": "https://dc.lft.to/lastmile_qr_scan", "android": "https://dc.lft.to/lastmile_qr_scan"}, "lon": -77.0363035, "bike_id": "81252822c4c8cffd7354c1035bf441b0", "type": "electric_scooter", "name": "81252822c4c8cffd7354c1035bf441b0"}, {"is_disabled": 0, "is_reserved": 0, "fusion_lat": 0.0, "lat": 38.8933115, "fusion_lon": 0.0, "rental_uris": {"ios": "https://dc.lft.to/lastmile_qr_scan", "android": "https://dc.lft.to/lastmile_qr_scan"}, "lon": -76.92888333333333, "bike_id": "8fbbd46be3fb135341c3a85e0e1d9d9d", "type": "electric_scooter", "name": "8fbbd46be3fb135341c3a85e0e1d9d9d"}, {"is_disabled": 0, "is_reserved": 0, "fusion_lat": 0.0, "lat": 38.933651, "fusion_lon": 0.0, "rental_uris": {"ios": "https://dc.lft.to/lastmile_qr_scan", "android": "https://dc.lft.to/lastmile_qr_scan"}, "lon": -77.03885766666667, "bike_id": "b27725432954def532bae521aca45da7", "type": "electric_scooter", "name": "b27725432954def532bae521aca45da7"}, {"is_disabled": 0, "is_reserved": 0, "fusion_lat": 0.0, "lat": 38.92998016666667, "fusion_lon": 0.0, "rental_uris": {"ios": "https://dc.lft.to/lastmile_qr_scan", "android": "https://dc.lft.to/lastmile_qr_scan"}, "lon": -77.038029, "bike_id": "70e2b176c0c8690950ee5010b30e7588", "type": "electric_scooter", "name": "70e2b176c0c8690950ee5010b30e7588"}, {"is_disabled": 0, "is_reserved": 0, "fusion_lat": 0.0, "lat": 38.91416016666667, "fusion_lon": 0.0, "rental_uris": {"ios": "https://dc.lft.to/lastmile_qr_scan", "android": "https://dc.lft.to/lastmile_qr_scan"}, "lon": -77.0330205, "bike_id": "176a44780a7b61017cea5dd2c0e0e26e", "type": "electric_scooter", "name": "176a44780a7b61017cea5dd2c0e0e26e"}, {"is_disabled": 0, "is_reserved": 0, "fusion_lat": 0.0, "lat": 38.920529, "fusion_lon": 0.0, "rental_uris": {"ios": "https://dc.lft.to/lastmile_qr_scan", "android": "https://dc.lft.to/lastmile_qr_scan"}, "lon": -76.99883333333334, "bike_id": "7ff6dcc9402c5bf4f093d0194268daac", "type": "electric_scooter", "name": "7ff6dcc9402c5bf4f093d0194268daac"}, {"is_disabled": 0, "is_reserved": 0, "fusion_lat": 0.0, "lat": 38.909999166666665, "fusion_lon": 0.0, "rental_uris": {"ios": "https://dc.lft.to/lastmile_qr_scan", "android": "https://dc.lft.to/lastmile_qr_scan"}, "lon": -76.98613, "bike_id": "2ac911d7a323e5006560b45999f8ac8c", "type": "electric_scooter", "name": "2ac911d7a323e5006560b45999f8ac8c"}, {"is_disabled": 0, "is_reserved": 0, "fusion_lat": 0.0, "lat": 38.848099833333336, "fusion_lon": 0.0, "rental_uris": {"ios": "https://dc.lft.to/lastmile_qr_scan", "android": "https://dc.lft.to/lastmile_qr_scan"}, "lon": -77.0841165, "bike_id": "53924e01df4a0cde259ef2d28309f8a5", "type": "electric_bike", "name": "53924e01df4a0cde259ef2d28309f8a5"}, {"is_disabled": 0, "is_reserved": 0, "fusion_lat": 0.0, "lat": 38.908357, "fusion_lon": 0.0, "rental_uris": {"ios": "https://dc.lft.to/lastmile_qr_scan", "android": "https://dc.lft.to/lastmile_qr_scan"}, "lon": -77.00071716666666, "bike_id": "4f9f14a105febdbf8dd1e740cbaff34c", "type": "electric_scooter", "name": "4f9f14a105febdbf8dd1e740cbaff34c"}, {"is_disabled": 0, "is_reserved": 0, "fusion_lat": 0.0, "lat": 38.91768416666667, "fusion_lon": 0.0, "rental_uris": {"ios": "https://dc.lft.to/lastmile_qr_scan", "android": "https://dc.lft.to/lastmile_qr_scan"}, "lon": -77.02338616666667, "bike_id": "106748cc83a0d619ed660350f74f54ed", "type": "electric_scooter", "name": "106748cc83a0d619ed660350f74f54ed"}, {"is_disabled": 0, "is_reserved": 0, "fusion_lat": 0.0, "lat": 38.92479983333333, "fusion_lon": 0.0, "rental_uris": {"ios": "https://dc.lft.to/lastmile_qr_scan", "android": "https://dc.lft.to/lastmile_qr_scan"}, "lon": -77.03755166666667, "bike_id": "8bc057206e4fde8e41ea395cdbe1013a", "type": "electric_scooter", "name": "8bc057206e4fde8e41ea395cdbe1013a"}, {"is_disabled": 0, "is_reserved": 0, "fusion_lat": 0.0, "lat": 38.91783133333333, "fusion_lon": 0.0, "rental_uris": {"ios": "https://dc.lft.to/lastmile_qr_scan", "android": "https://dc.lft.to/lastmile_qr_scan"}, "lon": -77.03201516666667, "bike_id": "8b2181a0882c8234ddca9bac58d2d3b5", "type": "electric_scooter", "name": "8b2181a0882c8234ddca9bac58d2d3b5"}, {"is_disabled": 0, "is_reserved": 0, "fusion_lat": 0.0, "lat": 38.93450833333333, "fusion_lon": 0.0, "rental_uris": {"ios": "https://dc.lft.to/lastmile_qr_scan", "android": "https://dc.lft.to/lastmile_qr_scan"}, "lon": -77.02410366666666, "bike_id": "f2a3c9eab1b9e2bcdd6cd6ef82442709", "type": "electric_scooter", "name": "f2a3c9eab1b9e2bcdd6cd6ef82442709"}, {"is_disabled": 0, "is_reserved": 0, "fusion_lat": 0.0, "lat": 38.937499333333335, "fusion_lon": 0.0, "rental_uris": {"ios": "https://dc.lft.to/lastmile_qr_scan", "android": "https://dc.lft.to/lastmile_qr_scan"}, "lon": -77.03437616666666, "bike_id": "fe0bed8fab4fc5385c7ec908837d4bdc", "type": "electric_scooter", "name": "fe0bed8fab4fc5385c7ec908837d4bdc"}, {"is_disabled": 0, "is_reserved": 0, "fusion_lat": 0.0, "lat": 38.9284755, "fusion_lon": 0.0, "rental_uris": {"ios": "https://dc.lft.to/lastmile_qr_scan", "android": "https://dc.lft.to/lastmile_qr_scan"}, "lon": -77.03733866666667, "bike_id": "c2aec479f31c20c673eb83156933701b", "type": "electric_scooter", "name": "c2aec479f31c20c673eb83156933701b"}, {"is_disabled": 0, "is_reserved": 0, "fusion_lat": 0.0, "lat": 38.95352616666667, "fusion_lon": 0.0, "rental_uris": {"ios": "https://dc.lft.to/lastmile_qr_scan", "android": "https://dc.lft.to/lastmile_qr_scan"}, "lon": -76.9809495, "bike_id": "d82d077b091c4b47c8951275fe4ec9dd", "type": "electric_bike", "name": "d82d077b091c4b47c8951275fe4ec9dd"}, {"is_disabled": 0, "is_reserved": 0, "fusion_lat": 0.0, "lat": 38.936607333333335, "fusion_lon": 0.0, "rental_uris": {"ios": "https://dc.lft.to/lastmile_qr_scan", "android": "https://dc.lft.to/lastmile_qr_scan"}, "lon": -77.06606266666667, "bike_id": "9338d7fc2fe9e58110fd7c0642d3f55f", "type": "electric_scooter", "name": "9338d7fc2fe9e58110fd7c0642d3f55f"}, {"is_disabled": 0, "is_reserved": 0, "fusion_lat": 0.0, "lat": 38.89516183333333, "fusion_lon": 0.0, "rental_uris": {"ios": "https://dc.lft.to/lastmile_qr_scan", "android": "https://dc.lft.to/lastmile_qr_scan"}, "lon": -77.02275183333333, "bike_id": "239fcbd84a1e5ed51c87a32bb0e0be82", "type": "electric_scooter", "name": "239fcbd84a1e5ed51c87a32bb0e0be82"}, {"is_disabled": 0, "is_reserved": 0, "fusion_lat": 0.0, "lat": 38.92891066666667, "fusion_lon": 0.0, "rental_uris": {"ios": "https://dc.lft.to/lastmile_qr_scan", "android": "https://dc.lft.to/lastmile_qr_scan"}, "lon": -77.019406, "bike_id": "3a9c8a21e80f1aeeeedfb0bbf7a5f9e0", "type": "electric_scooter", "name": "3a9c8a21e80f1aeeeedfb0bbf7a5f9e0"}, {"is_disabled": 0, "is_reserved": 0, "fusion_lat": 0.0, "lat": 38.92079316666667, "fusion_lon": 0.0, "rental_uris": {"ios": "https://dc.lft.to/lastmile_qr_scan", "android": "https://dc.lft.to/lastmile_qr_scan"}, "lon": -77.02429216666667, "bike_id": "8d886d7f9060843e9a13a653097169eb", "type": "electric_scooter", "name": "8d886d7f9060843e9a13a653097169eb"}, {"is_disabled": 0, "is_reserved": 0, "fusion_lat": 0.0, "lat": 38.92073383333334, "fusion_lon": 0.0, "rental_uris": {"ios": "https://dc.lft.to/lastmile_qr_scan", "android": "https://dc.lft.to/lastmile_qr_scan"}, "lon": -77.02356733333333, "bike_id": "43d487d68a5c3dcfec02decb32633c19", "type": "electric_scooter", "name": "43d487d68a5c3dcfec02decb32633c19"}, {"is_disabled": 0, "is_reserved": 0, "fusion_lat": 0.0, "lat": 38.9203595, "fusion_lon": 0.0, "rental_uris": {"ios": "https://dc.lft.to/lastmile_qr_scan", "android": "https://dc.lft.to/lastmile_qr_scan"}, "lon": -76.9795655, "bike_id": "33080f7bb096820803cce83f0f61795d", "type": "electric_bike", "name": "33080f7bb096820803cce83f0f61795d"}, {"is_disabled": 0, "is_reserved": 0, "fusion_lat": 0.0, "lat": 38.9397025, "fusion_lon": 0.0, "rental_uris": {"ios": "https://dc.lft.to/lastmile_qr_scan", "android": "https://dc.lft.to/lastmile_qr_scan"}, "lon": -77.03429683333333, "bike_id": "0b0c5715350ed351309833dc1f434e1e", "type": "electric_scooter", "name": "0b0c5715350ed351309833dc1f434e1e"}, {"is_disabled": 0, "is_reserved": 0, "fusion_lat": 0.0, "lat": 38.92886433333334, "fusion_lon": 0.0, "rental_uris": {"ios": "https://dc.lft.to/lastmile_qr_scan", "android": "https://dc.lft.to/lastmile_qr_scan"}, "lon": -77.032312, "bike_id": "a592c72e59514a8112da2d67928cd832", "type": "electric_scooter", "name": "a592c72e59514a8112da2d67928cd832"}, {"is_disabled": 0, "is_reserved": 0, "fusion_lat": 0.0, "lat": 38.913379, "fusion_lon": 0.0, "rental_uris": {"ios": "https://dc.lft.to/lastmile_qr_scan", "android": "https://dc.lft.to/lastmile_qr_scan"}, "lon": -77.04339466666667, "bike_id": "4b71460c69e224219ce784832ccc88c5", "type": "electric_scooter", "name": "4b71460c69e224219ce784832ccc88c5"}, {"is_disabled": 0, "is_reserved": 0, "fusion_lat": 0.0, "lat": 38.93077133333333, "fusion_lon": 0.0, "rental_uris": {"ios": "https://dc.lft.to/lastmile_qr_scan", "android": "https://dc.lft.to/lastmile_qr_scan"}, "lon": -77.07762116666666, "bike_id": "06ebc581037204c63a39817c16ce3fec", "type": "electric_scooter", "name": "06ebc581037204c63a39817c16ce3fec"}, {"is_disabled": 0, "is_reserved": 0, "fusion_lat": 0.0, "lat": 39.003773333333335, "fusion_lon": 0.0, "rental_uris": {"ios": "https://dc.lft.to/lastmile_qr_scan", "android": "https://dc.lft.to/lastmile_qr_scan"}, "lon": -77.012872, "bike_id": "6128db17007c1f91c026cd03c7749cd8", "type": "electric_bike", "name": "6128db17007c1f91c026cd03c7749cd8"}, {"is_disabled": 0, "is_reserved": 0, "fusion_lat": 0.0, "lat": 38.925776, "fusion_lon": 0.0, "rental_uris": {"ios": "https://dc.lft.to/lastmile_qr_scan", "android": "https://dc.lft.to/lastmile_qr_scan"}, "lon": -76.99497716666667, "bike_id": "44f256eb3e8e86605b9be5491a6174ae", "type": "electric_scooter", "name": "44f256eb3e8e86605b9be5491a6174ae"}, {"is_disabled": 0, "is_reserved": 0, "fusion_lat": 0.0, "lat": 38.91676416666667, "fusion_lon": 0.0, "rental_uris": {"ios": "https://dc.lft.to/lastmile_qr_scan", "android": "https://dc.lft.to/lastmile_qr_scan"}, "lon": -77.0958135, "bike_id": "75c2716d60108030ae0625ad1a40b292", "type": "electric_scooter", "name": "75c2716d60108030ae0625ad1a40b292"}, {"is_disabled": 0, "is_reserved": 0, "fusion_lat": 0.0, "lat": 38.91811583333333, "fusion_lon": 0.0, "rental_uris": {"ios": "https://dc.lft.to/lastmile_qr_scan", "android": "https://dc.lft.to/lastmile_qr_scan"}, "lon": -77.027094, "bike_id": "8c9686238366c5590adb302b51cef9fe", "type": "electric_scooter", "name": "8c9686238366c5590adb302b51cef9fe"}, {"is_disabled": 0, "is_reserved": 0, "fusion_lat": 0.0, "lat": 38.87656466666667, "fusion_lon": 0.0, "rental_uris": {"ios": "https://dc.lft.to/lastmile_qr_scan", "android": "https://dc.lft.to/lastmile_qr_scan"}, "lon": -77.00880983333333, "bike_id": "b8e9620b0b0da6f27fcf7ffa7faa3f24", "type": "electric_scooter", "name": "b8e9620b0b0da6f27fcf7ffa7faa3f24"}, {"is_disabled": 0, "is_reserved": 0, "fusion_lat": 0.0, "lat": 38.923059333333335, "fusion_lon": 0.0, "rental_uris": {"ios": "https://dc.lft.to/lastmile_qr_scan", "android": "https://dc.lft.to/lastmile_qr_scan"}, "lon": -77.03414783333334, "bike_id": "aadd358640f1ed03fd5215c5f4bb530d", "type": "electric_scooter", "name": "aadd358640f1ed03fd5215c5f4bb530d"}, {"is_disabled": 0, "is_reserved": 0, "fusion_lat": 0.0, "lat": 38.898418, "fusion_lon": 0.0, "rental_uris": {"ios": "https://dc.lft.to/lastmile_qr_scan", "android": "https://dc.lft.to/lastmile_qr_scan"}, "lon": -77.00205016666666, "bike_id": "c8a714eaef9faaa995d12752c0e798d5", "type": "electric_scooter", "name": "c8a714eaef9faaa995d12752c0e798d5"}, {"is_disabled": 0, "is_reserved": 0, "fusion_lat": 0.0, "lat": 38.974390166666666, "fusion_lon": 0.0, "rental_uris": {"ios": "https://dc.lft.to/lastmile_qr_scan", "android": "https://dc.lft.to/lastmile_qr_scan"}, "lon": -77.09615966666667, "bike_id": "9db344a5bdb6b437631b0c33ae449b1c", "type": "electric_bike", "name": "9db344a5bdb6b437631b0c33ae449b1c"}, {"is_disabled": 0, "is_reserved": 0, "fusion_lat": 0.0, "lat": 38.894478666666664, "fusion_lon": 0.0, "rental_uris": {"ios": "https://dc.lft.to/lastmile_qr_scan", "android": "https://dc.lft.to/lastmile_qr_scan"}, "lon": -76.93680283333333, "bike_id": "95a63f93a9b731edec3ac6ddcc5d8d36", "type": "electric_bike", "name": "95a63f93a9b731edec3ac6ddcc5d8d36"}, {"is_disabled": 0, "is_reserved": 0, "fusion_lat": 0.0, "lat": 38.919528, "fusion_lon": 0.0, "rental_uris": {"ios": "https://dc.lft.to/lastmile_qr_scan", "android": "https://dc.lft.to/lastmile_qr_scan"}, "lon": -77.0230425, "bike_id": "68158693d05093ca418ae8fc752d334f", "type": "electric_scooter", "name": "68158693d05093ca418ae8fc752d334f"}, {"is_disabled": 0, "is_reserved": 0, "fusion_lat": 0.0, "lat": 38.908091666666664, "fusion_lon": 0.0, "rental_uris": {"ios": "https://dc.lft.to/lastmile_qr_scan", "android": "https://dc.lft.to/lastmile_qr_scan"}, "lon": -77.02529033333333, "bike_id": "6ca1d5e7ccc6a3f847804548f25dd140", "type": "electric_scooter", "name": "6ca1d5e7ccc6a3f847804548f25dd140"}, {"is_disabled": 0, "is_reserved": 0, "fusion_lat": 0.0, "lat": 38.9444395, "fusion_lon": 0.0, "rental_uris": {"ios": "https://dc.lft.to/lastmile_qr_scan", "android": "https://dc.lft.to/lastmile_qr_scan"}, "lon": -77.03280133333334, "bike_id": "a926000e1c1a93f8e146b7c0eec47502", "type": "electric_scooter", "name": "a926000e1c1a93f8e146b7c0eec47502"}, {"is_disabled": 0, "is_reserved": 0, "fusion_lat": 0.0, "lat": 38.906505833333334, "fusion_lon": 0.0, "rental_uris": {"ios": "https://dc.lft.to/lastmile_qr_scan", "android": "https://dc.lft.to/lastmile_qr_scan"}, "lon": -76.9794155, "bike_id": "2f41005398d038ec4cca506a49b6b220", "type": "electric_scooter", "name": "2f41005398d038ec4cca506a49b6b220"}, {"is_disabled": 0, "is_reserved": 0, "fusion_lat": 0.0, "lat": 38.89728916666667, "fusion_lon": 0.0, "rental_uris": {"ios": "https://dc.lft.to/lastmile_qr_scan", "android": "https://dc.lft.to/lastmile_qr_scan"}, "lon": -77.02401433333333, "bike_id": "0691a11aba3db2ecac3c935ad38e3a04", "type": "electric_scooter", "name": "0691a11aba3db2ecac3c935ad38e3a04"}, {"is_disabled": 0, "is_reserved": 0, "fusion_lat": 0.0, "lat": 38.90396916666667, "fusion_lon": 0.0, "rental_uris": {"ios": "https://dc.lft.to/lastmile_qr_scan", "android": "https://dc.lft.to/lastmile_qr_scan"}, "lon": -77.06296633333334, "bike_id": "b97d1d6bf04338b94d14ce7aaa70b6c5", "type": "electric_scooter", "name": "b97d1d6bf04338b94d14ce7aaa70b6c5"}, {"is_disabled": 0, "is_reserved": 0, "fusion_lat": 0.0, "lat": 38.90958833333333, "fusion_lon": 0.0, "rental_uris": {"ios": "https://dc.lft.to/lastmile_qr_scan", "android": "https://dc.lft.to/lastmile_qr_scan"}, "lon": -77.02278416666667, "bike_id": "efc08d674b93fcca026219ded009d662", "type": "electric_bike", "name": "efc08d674b93fcca026219ded009d662"}, {"is_disabled": 0, "is_reserved": 0, "fusion_lat": 0.0, "lat": 38.928779, "fusion_lon": 0.0, "rental_uris": {"ios": "https://dc.lft.to/lastmile_qr_scan", "android": "https://dc.lft.to/lastmile_qr_scan"}, "lon": -77.039934, "bike_id": "6cb83e6e77735e633b6507fe6eef9b24", "type": "electric_scooter", "name": "6cb83e6e77735e633b6507fe6eef9b24"}, {"is_disabled": 0, "is_reserved": 0, "fusion_lat": 0.0, "lat": 38.905024833333336, "fusion_lon": 0.0, "rental_uris": {"ios": "https://dc.lft.to/lastmile_qr_scan", "android": "https://dc.lft.to/lastmile_qr_scan"}, "lon": -77.0089485, "bike_id": "ebacfc4b804a1ad1291bdeb7b9cd796a", "type": "electric_scooter", "name": "ebacfc4b804a1ad1291bdeb7b9cd796a"}, {"is_disabled": 0, "is_reserved": 0, "fusion_lat": 0.0, "lat": 38.9223395, "fusion_lon": 0.0, "rental_uris": {"ios": "https://dc.lft.to/lastmile_qr_scan", "android": "https://dc.lft.to/lastmile_qr_scan"}, "lon": -77.03519983333334, "bike_id": "e46626730c7c717b29f6a2c9a6646079", "type": "electric_scooter", "name": "e46626730c7c717b29f6a2c9a6646079"}, {"is_disabled": 0, "is_reserved": 0, "fusion_lat": 0.0, "lat": 38.93366733333333, "fusion_lon": 0.0, "rental_uris": {"ios": "https://dc.lft.to/lastmile_qr_scan", "android": "https://dc.lft.to/lastmile_qr_scan"}, "lon": -77.02852033333333, "bike_id": "2022e7e4ee9fa21f3020c9ec690e1f28", "type": "electric_scooter", "name": "2022e7e4ee9fa21f3020c9ec690e1f28"}, {"is_disabled": 0, "is_reserved": 0, "fusion_lat": 0.0, "lat": 38.90425066666667, "fusion_lon": 0.0, "rental_uris": {"ios": "https://dc.lft.to/lastmile_qr_scan", "android": "https://dc.lft.to/lastmile_qr_scan"}, "lon": -77.06114083333334, "bike_id": "c59227aa336936dc62cde57ca8ef1677", "type": "electric_scooter", "name": "c59227aa336936dc62cde57ca8ef1677"}, {"is_disabled": 0, "is_reserved": 0, "fusion_lat": 0.0, "lat": 38.80728933333333, "fusion_lon": 0.0, "rental_uris": {"ios": "https://dc.lft.to/lastmile_qr_scan", "android": "https://dc.lft.to/lastmile_qr_scan"}, "lon": -76.99263516666667, "bike_id": "e3a7f8ade51a82a0b128783150144eff", "type": "electric_bike", "name": "e3a7f8ade51a82a0b128783150144eff"}, {"is_disabled": 0, "is_reserved": 0, "fusion_lat": 0.0, "lat": 38.933538666666664, "fusion_lon": 0.0, "rental_uris": {"ios": "https://dc.lft.to/lastmile_qr_scan", "android": "https://dc.lft.to/lastmile_qr_scan"}, "lon": -77.02562383333333, "bike_id": "66987c1d67e37e1ae076873fb6ad1f99", "type": "electric_scooter", "name": "66987c1d67e37e1ae076873fb6ad1f99"}, {"is_disabled": 0, "is_reserved": 0, "fusion_lat": 0.0, "lat": 38.89193383333333, "fusion_lon": 0.0, "rental_uris": {"ios": "https://dc.lft.to/lastmile_qr_scan", "android": "https://dc.lft.to/lastmile_qr_scan"}, "lon": -77.00295833333334, "bike_id": "49c0d2a57b4ba90e67d9b9547d64c455", "type": "electric_scooter", "name": "49c0d2a57b4ba90e67d9b9547d64c455"}, {"is_disabled": 0, "is_reserved": 0, "fusion_lat": 0.0, "lat": 38.9622145, "fusion_lon": 0.0, "rental_uris": {"ios": "https://dc.lft.to/lastmile_qr_scan", "android": "https://dc.lft.to/lastmile_qr_scan"}, "lon": -77.02627383333333, "bike_id": "1d2c1b40c726c85a5a5a5c558ff30157", "type": "electric_bike", "name": "1d2c1b40c726c85a5a5a5c558ff30157"}, {"is_disabled": 0, "is_reserved": 0, "fusion_lat": 0.0, "lat": 38.92453, "fusion_lon": 0.0, "rental_uris": {"ios": "https://dc.lft.to/lastmile_qr_scan", "android": "https://dc.lft.to/lastmile_qr_scan"}, "lon": -77.02034983333333, "bike_id": "ded529b839f501a2831ffcb1f9ce2ec5", "type": "electric_scooter", "name": "ded529b839f501a2831ffcb1f9ce2ec5"}, {"is_disabled": 0, "is_reserved": 0, "fusion_lat": 0.0, "lat": 38.892015666666666, "fusion_lon": 0.0, "rental_uris": {"ios": "https://dc.lft.to/lastmile_qr_scan", "android": "https://dc.lft.to/lastmile_qr_scan"}, "lon": -76.99850833333333, "bike_id": "cae1f8402d44b27078efc3c464b144a8", "type": "electric_scooter", "name": "cae1f8402d44b27078efc3c464b144a8"}, {"is_disabled": 0, "is_reserved": 0, "fusion_lat": 0.0, "lat": 38.92182916666667, "fusion_lon": 0.0, "rental_uris": {"ios": "https://dc.lft.to/lastmile_qr_scan", "android": "https://dc.lft.to/lastmile_qr_scan"}, "lon": -76.99855883333333, "bike_id": "55db84097a10a9e0d67ef426003beb8b", "type": "electric_scooter", "name": "55db84097a10a9e0d67ef426003beb8b"}, {"is_disabled": 0, "is_reserved": 0, "fusion_lat": 0.0, "lat": 38.915540166666666, "fusion_lon": 0.0, "rental_uris": {"ios": "https://dc.lft.to/lastmile_qr_scan", "android": "https://dc.lft.to/lastmile_qr_scan"}, "lon": -77.0540785, "bike_id": "882d760d40391baf34fe82110dbf81eb", "type": "electric_scooter", "name": "882d760d40391baf34fe82110dbf81eb"}, {"is_disabled": 0, "is_reserved": 0, "fusion_lat": 0.0, "lat": 38.89234966666667, "fusion_lon": 0.0, "rental_uris": {"ios": "https://dc.lft.to/lastmile_qr_scan", "android": "https://dc.lft.to/lastmile_qr_scan"}, "lon": -77.03348866666667, "bike_id": "ec67e2eebc8e6a9a5d8f4ce32ffc0fae", "type": "electric_scooter", "name": "ec67e2eebc8e6a9a5d8f4ce32ffc0fae"}, {"is_disabled": 0, "is_reserved": 0, "fusion_lat": 0.0, "lat": 38.89081133333333, "fusion_lon": 0.0, "rental_uris": {"ios": "https://dc.lft.to/lastmile_qr_scan", "android": "https://dc.lft.to/lastmile_qr_scan"}, "lon": -77.04043816666666, "bike_id": "1863104a8e6906a91027a2033eeadba0", "type": "electric_scooter", "name": "1863104a8e6906a91027a2033eeadba0"}, {"is_disabled": 0, "is_reserved": 0, "fusion_lat": 0.0, "lat": 38.912016666666666, "fusion_lon": 0.0, "rental_uris": {"ios": "https://dc.lft.to/lastmile_qr_scan", "android": "https://dc.lft.to/lastmile_qr_scan"}, "lon": -77.02097916666666, "bike_id": "9195bbbf4d6bc59d176cefc2c4cb626d", "type": "electric_scooter", "name": "9195bbbf4d6bc59d176cefc2c4cb626d"}, {"is_disabled": 0, "is_reserved": 0, "fusion_lat": 0.0, "lat": 38.918221333333335, "fusion_lon": 0.0, "rental_uris": {"ios": "https://dc.lft.to/lastmile_qr_scan", "android": "https://dc.lft.to/lastmile_qr_scan"}, "lon": -77.0252415, "bike_id": "9973862f28deb875c33192e038a3b022", "type": "electric_scooter", "name": "9973862f28deb875c33192e038a3b022"}, {"is_disabled": 0, "is_reserved": 0, "fusion_lat": 0.0, "lat": 38.93071916666667, "fusion_lon": 0.0, "rental_uris": {"ios": "https://dc.lft.to/lastmile_qr_scan", "android": "https://dc.lft.to/lastmile_qr_scan"}, "lon": -77.0319005, "bike_id": "e8032df0d894b3525794d298154c1fef", "type": "electric_scooter", "name": "e8032df0d894b3525794d298154c1fef"}, {"is_disabled": 0, "is_reserved": 0, "fusion_lat": 0.0, "lat": 38.921593666666666, "fusion_lon": 0.0, "rental_uris": {"ios": "https://dc.lft.to/lastmile_qr_scan", "android": "https://dc.lft.to/lastmile_qr_scan"}, "lon": -77.0366485, "bike_id": "ffdc6b8accd05e7b10f029b2f178639b", "type": "electric_scooter", "name": "ffdc6b8accd05e7b10f029b2f178639b"}, {"is_disabled": 0, "is_reserved": 0, "fusion_lat": 0.0, "lat": 38.9178225, "fusion_lon": 0.0, "rental_uris": {"ios": "https://dc.lft.to/lastmile_qr_scan", "android": "https://dc.lft.to/lastmile_qr_scan"}, "lon": -77.022974, "bike_id": "8873e539a046d446ce2689425243df11", "type": "electric_scooter", "name": "8873e539a046d446ce2689425243df11"}, {"is_disabled": 0, "is_reserved": 0, "fusion_lat": 0.0, "lat": 38.8962805, "fusion_lon": 0.0, "rental_uris": {"ios": "https://dc.lft.to/lastmile_qr_scan", "android": "https://dc.lft.to/lastmile_qr_scan"}, "lon": -77.02144566666666, "bike_id": "b45b64b500acf7c307372d6e405be4a3", "type": "electric_scooter", "name": "b45b64b500acf7c307372d6e405be4a3"}, {"is_disabled": 0, "is_reserved": 0, "fusion_lat": 0.0, "lat": 38.916926333333336, "fusion_lon": 0.0, "rental_uris": {"ios": "https://dc.lft.to/lastmile_qr_scan", "android": "https://dc.lft.to/lastmile_qr_scan"}, "lon": -77.02572383333333, "bike_id": "e30a6c6bc39c992fc41945cef74910ef", "type": "electric_scooter", "name": "e30a6c6bc39c992fc41945cef74910ef"}, {"is_disabled": 0, "is_reserved": 0, "fusion_lat": 0.0, "lat": 38.90560966666666, "fusion_lon": 0.0, "rental_uris": {"ios": "https://dc.lft.to/lastmile_qr_scan", "android": "https://dc.lft.to/lastmile_qr_scan"}, "lon": -77.008698, "bike_id": "100fefcdbe9c74e1fdbb426462bb0018", "type": "electric_scooter", "name": "100fefcdbe9c74e1fdbb426462bb0018"}, {"is_disabled": 0, "is_reserved": 0, "fusion_lat": 0.0, "lat": 38.92649616666667, "fusion_lon": 0.0, "rental_uris": {"ios": "https://dc.lft.to/lastmile_qr_scan", "android": "https://dc.lft.to/lastmile_qr_scan"}, "lon": -77.09019533333333, "bike_id": "09dc9dff9e26d5a9775185c8fef27c15", "type": "electric_bike", "name": "09dc9dff9e26d5a9775185c8fef27c15"}, {"is_disabled": 0, "is_reserved": 0, "fusion_lat": 0.0, "lat": 38.8948715, "fusion_lon": 0.0, "rental_uris": {"ios": "https://dc.lft.to/lastmile_qr_scan", "android": "https://dc.lft.to/lastmile_qr_scan"}, "lon": -77.00985083333333, "bike_id": "4fa6501ff01c9be49fd09003587f8bf7", "type": "electric_scooter", "name": "4fa6501ff01c9be49fd09003587f8bf7"}, {"is_disabled": 0, "is_reserved": 0, "fusion_lat": 0.0, "lat": 38.971521333333335, "fusion_lon": 0.0, "rental_uris": {"ios": "https://dc.lft.to/lastmile_qr_scan", "android": "https://dc.lft.to/lastmile_qr_scan"}, "lon": -76.983634, "bike_id": "9bb6e52e2b4c188d11094a77f03c6ed9", "type": "electric_bike", "name": "9bb6e52e2b4c188d11094a77f03c6ed9"}, {"is_disabled": 0, "is_reserved": 0, "fusion_lat": 0.0, "lat": 38.90322316666666, "fusion_lon": 0.0, "rental_uris": {"ios": "https://dc.lft.to/lastmile_qr_scan", "android": "https://dc.lft.to/lastmile_qr_scan"}, "lon": -77.0215635, "bike_id": "2c6b8e6b6d4f003705985544dfb07dd1", "type": "electric_scooter", "name": "2c6b8e6b6d4f003705985544dfb07dd1"}, {"is_disabled": 0, "is_reserved": 0, "fusion_lat": 0.0, "lat": 38.939337333333334, "fusion_lon": 0.0, "rental_uris": {"ios": "https://dc.lft.to/lastmile_qr_scan", "android": "https://dc.lft.to/lastmile_qr_scan"}, "lon": -77.025866, "bike_id": "4b5fedd4056d32a772e5c35bf8ca6ddb", "type": "electric_scooter", "name": "4b5fedd4056d32a772e5c35bf8ca6ddb"}, {"is_disabled": 0, "is_reserved": 0, "fusion_lat": 0.0, "lat": 38.90344266666666, "fusion_lon": 0.0, "rental_uris": {"ios": "https://dc.lft.to/lastmile_qr_scan", "android": "https://dc.lft.to/lastmile_qr_scan"}, "lon": -76.97488816666667, "bike_id": "aec405a625d25aa3de61c528b1281730", "type": "electric_scooter", "name": "aec405a625d25aa3de61c528b1281730"}, {"is_disabled": 0, "is_reserved": 0, "fusion_lat": 0.0, "lat": 38.926089166666664, "fusion_lon": 0.0, "rental_uris": {"ios": "https://dc.lft.to/lastmile_qr_scan", "android": "https://dc.lft.to/lastmile_qr_scan"}, "lon": -77.0065285, "bike_id": "fc31acf24415f23349adcd8b129567e5", "type": "electric_scooter", "name": "fc31acf24415f23349adcd8b129567e5"}, {"is_disabled": 0, "is_reserved": 0, "fusion_lat": 0.0, "lat": 38.93975966666667, "fusion_lon": 0.0, "rental_uris": {"ios": "https://dc.lft.to/lastmile_qr_scan", "android": "https://dc.lft.to/lastmile_qr_scan"}, "lon": -77.019101, "bike_id": "ad4584905e15a21717134bb1de8234b9", "type": "electric_scooter", "name": "ad4584905e15a21717134bb1de8234b9"}, {"is_disabled": 0, "is_reserved": 0, "fusion_lat": 0.0, "lat": 38.951086833333335, "fusion_lon": 0.0, "rental_uris": {"ios": "https://dc.lft.to/lastmile_qr_scan", "android": "https://dc.lft.to/lastmile_qr_scan"}, "lon": -77.018877, "bike_id": "65bf3ac3dd0cebd74d072042bfd624d9", "type": "electric_scooter", "name": "65bf3ac3dd0cebd74d072042bfd624d9"}, {"is_disabled": 0, "is_reserved": 0, "fusion_lat": 0.0, "lat": 38.8935905, "fusion_lon": 0.0, "rental_uris": {"ios": "https://dc.lft.to/lastmile_qr_scan", "android": "https://dc.lft.to/lastmile_qr_scan"}, "lon": -77.044738, "bike_id": "e788dab731202328adc538f8998d62c3", "type": "electric_scooter", "name": "e788dab731202328adc538f8998d62c3"}, {"is_disabled": 0, "is_reserved": 0, "fusion_lat": 0.0, "lat": 38.921473, "fusion_lon": 0.0, "rental_uris": {"ios": "https://dc.lft.to/lastmile_qr_scan", "android": "https://dc.lft.to/lastmile_qr_scan"}, "lon": -77.03651433333333, "bike_id": "a3311f26486fbe99fddc194fb53b4c23", "type": "electric_scooter", "name": "a3311f26486fbe99fddc194fb53b4c23"}, {"is_disabled": 0, "is_reserved": 0, "fusion_lat": 0.0, "lat": 38.98205383333333, "fusion_lon": 0.0, "rental_uris": {"ios": "https://dc.lft.to/lastmile_qr_scan", "android": "https://dc.lft.to/lastmile_qr_scan"}, "lon": -76.97817183333333, "bike_id": "011d01ee84bae6da367107bbf06f0f9e", "type": "electric_bike", "name": "011d01ee84bae6da367107bbf06f0f9e"}, {"is_disabled": 0, "is_reserved": 0, "fusion_lat": 0.0, "lat": 38.93600566666667, "fusion_lon": 0.0, "rental_uris": {"ios": "https://dc.lft.to/lastmile_qr_scan", "android": "https://dc.lft.to/lastmile_qr_scan"}, "lon": -77.05592666666666, "bike_id": "f77239698df49b4a8915461170eba01c", "type": "electric_scooter", "name": "f77239698df49b4a8915461170eba01c"}, {"is_disabled": 0, "is_reserved": 0, "fusion_lat": 0.0, "lat": 38.927726, "fusion_lon": 0.0, "rental_uris": {"ios": "https://dc.lft.to/lastmile_qr_scan", "android": "https://dc.lft.to/lastmile_qr_scan"}, "lon": -77.052589, "bike_id": "02d1495f3d3b69376d5515dabf9bd8d1", "type": "electric_scooter", "name": "02d1495f3d3b69376d5515dabf9bd8d1"}, {"is_disabled": 0, "is_reserved": 0, "fusion_lat": 0.0, "lat": 38.878355666666664, "fusion_lon": 0.0, "rental_uris": {"ios": "https://dc.lft.to/lastmile_qr_scan", "android": "https://dc.lft.to/lastmile_qr_scan"}, "lon": -76.98607266666667, "bike_id": "f6748b97b25bb4edabd177e3dbdf13ec", "type": "electric_scooter", "name": "f6748b97b25bb4edabd177e3dbdf13ec"}, {"is_disabled": 0, "is_reserved": 0, "fusion_lat": 0.0, "lat": 38.93458566666666, "fusion_lon": 0.0, "rental_uris": {"ios": "https://dc.lft.to/lastmile_qr_scan", "android": "https://dc.lft.to/lastmile_qr_scan"}, "lon": -77.02399283333334, "bike_id": "12119d53deb020eb30d26dde80fa3d07", "type": "electric_scooter", "name": "12119d53deb020eb30d26dde80fa3d07"}, {"is_disabled": 0, "is_reserved": 0, "fusion_lat": 0.0, "lat": 38.915373333333335, "fusion_lon": 0.0, "rental_uris": {"ios": "https://dc.lft.to/lastmile_qr_scan", "android": "https://dc.lft.to/lastmile_qr_scan"}, "lon": -77.0092415, "bike_id": "e05cd6f7c6cfd9d6795ee47640d0d652", "type": "electric_scooter", "name": "e05cd6f7c6cfd9d6795ee47640d0d652"}, {"is_disabled": 0, "is_reserved": 0, "fusion_lat": 0.0, "lat": 38.928157166666665, "fusion_lon": 0.0, "rental_uris": {"ios": "https://dc.lft.to/lastmile_qr_scan", "android": "https://dc.lft.to/lastmile_qr_scan"}, "lon": -77.01400266666667, "bike_id": "d11f9d81750162dca920643abca5d7e8", "type": "electric_scooter", "name": "d11f9d81750162dca920643abca5d7e8"}, {"is_disabled": 0, "is_reserved": 0, "fusion_lat": 0.0, "lat": 38.8924835, "fusion_lon": 0.0, "rental_uris": {"ios": "https://dc.lft.to/lastmile_qr_scan", "android": "https://dc.lft.to/lastmile_qr_scan"}, "lon": -77.03955616666667, "bike_id": "7652175dc288a5f80ba6c85c1a3b48e6", "type": "electric_scooter", "name": "7652175dc288a5f80ba6c85c1a3b48e6"}, {"is_disabled": 0, "is_reserved": 0, "fusion_lat": 0.0, "lat": 38.9147055, "fusion_lon": 0.0, "rental_uris": {"ios": "https://dc.lft.to/lastmile_qr_scan", "android": "https://dc.lft.to/lastmile_qr_scan"}, "lon": -77.00196133333333, "bike_id": "c7818d0142f70cfbf03c38da7acafcfa", "type": "electric_scooter", "name": "c7818d0142f70cfbf03c38da7acafcfa"}, {"is_disabled": 0, "is_reserved": 0, "fusion_lat": 0.0, "lat": 38.8960525, "fusion_lon": 0.0, "rental_uris": {"ios": "https://dc.lft.to/lastmile_qr_scan", "android": "https://dc.lft.to/lastmile_qr_scan"}, "lon": -76.9980135, "bike_id": "920df730c50c5f744202297c2535f47b", "type": "electric_scooter", "name": "920df730c50c5f744202297c2535f47b"}, {"is_disabled": 0, "is_reserved": 0, "fusion_lat": 0.0, "lat": 38.91108366666667, "fusion_lon": 0.0, "rental_uris": {"ios": "https://dc.lft.to/lastmile_qr_scan", "android": "https://dc.lft.to/lastmile_qr_scan"}, "lon": -77.01157566666667, "bike_id": "2b5795922a69922a8ba86f73cb153f88", "type": "electric_scooter", "name": "2b5795922a69922a8ba86f73cb153f88"}, {"is_disabled": 0, "is_reserved": 0, "fusion_lat": 0.0, "lat": 38.9289535, "fusion_lon": 0.0, "rental_uris": {"ios": "https://dc.lft.to/lastmile_qr_scan", "android": "https://dc.lft.to/lastmile_qr_scan"}, "lon": -77.02290816666667, "bike_id": "85d672bd03967329b18d7587e0cb329f", "type": "electric_scooter", "name": "85d672bd03967329b18d7587e0cb329f"}, {"is_disabled": 0, "is_reserved": 0, "fusion_lat": 0.0, "lat": 38.913358, "fusion_lon": 0.0, "rental_uris": {"ios": "https://dc.lft.to/lastmile_qr_scan", "android": "https://dc.lft.to/lastmile_qr_scan"}, "lon": -77.01622066666667, "bike_id": "983a3c69742a3889e40c7eeff9e3b178", "type": "electric_scooter", "name": "983a3c69742a3889e40c7eeff9e3b178"}, {"is_disabled": 0, "is_reserved": 0, "fusion_lat": 0.0, "lat": 38.89424916666667, "fusion_lon": 0.0, "rental_uris": {"ios": "https://dc.lft.to/lastmile_qr_scan", "android": "https://dc.lft.to/lastmile_qr_scan"}, "lon": -77.0109375, "bike_id": "30814163ed0b23588c75fbe38d0df945", "type": "electric_scooter", "name": "30814163ed0b23588c75fbe38d0df945"}, {"is_disabled": 0, "is_reserved": 0, "fusion_lat": 0.0, "lat": 38.885264, "fusion_lon": 0.0, "rental_uris": {"ios": "https://dc.lft.to/lastmile_qr_scan", "android": "https://dc.lft.to/lastmile_qr_scan"}, "lon": -76.98050966666666, "bike_id": "937ccf083b51b4400a2aa54a2752cfe6", "type": "electric_scooter", "name": "937ccf083b51b4400a2aa54a2752cfe6"}, {"is_disabled": 0, "is_reserved": 0, "fusion_lat": 0.0, "lat": 38.9220895, "fusion_lon": 0.0, "rental_uris": {"ios": "https://dc.lft.to/lastmile_qr_scan", "android": "https://dc.lft.to/lastmile_qr_scan"}, "lon": -77.0819265, "bike_id": "4126075e180ac1603d664b0c2e0917ba", "type": "electric_bike", "name": "4126075e180ac1603d664b0c2e0917ba"}, {"is_disabled": 0, "is_reserved": 0, "fusion_lat": 0.0, "lat": 38.956875333333336, "fusion_lon": 0.0, "rental_uris": {"ios": "https://dc.lft.to/lastmile_qr_scan", "android": "https://dc.lft.to/lastmile_qr_scan"}, "lon": -77.02229283333334, "bike_id": "3e4fc87e3ddb6874ffb4109f5cf77214", "type": "electric_scooter", "name": "3e4fc87e3ddb6874ffb4109f5cf77214"}, {"is_disabled": 0, "is_reserved": 0, "fusion_lat": 0.0, "lat": 38.957488833333336, "fusion_lon": 0.0, "rental_uris": {"ios": "https://dc.lft.to/lastmile_qr_scan", "android": "https://dc.lft.to/lastmile_qr_scan"}, "lon": -77.02207883333334, "bike_id": "7ffc2903cebbe787094c0b23316e6a14", "type": "electric_scooter", "name": "7ffc2903cebbe787094c0b23316e6a14"}, {"is_disabled": 0, "is_reserved": 0, "fusion_lat": 0.0, "lat": 38.874975166666665, "fusion_lon": 0.0, "rental_uris": {"ios": "https://dc.lft.to/lastmile_qr_scan", "android": "https://dc.lft.to/lastmile_qr_scan"}, "lon": -77.00078533333334, "bike_id": "e61d6b7ce4319ad51b043a788afd0b53", "type": "electric_scooter", "name": "e61d6b7ce4319ad51b043a788afd0b53"}, {"is_disabled": 0, "is_reserved": 0, "fusion_lat": 0.0, "lat": 38.8961925, "fusion_lon": 0.0, "rental_uris": {"ios": "https://dc.lft.to/lastmile_qr_scan", "android": "https://dc.lft.to/lastmile_qr_scan"}, "lon": -76.90750266666667, "bike_id": "518ed50e81401bdaafb9e9efa5e13d73", "type": "electric_bike", "name": "518ed50e81401bdaafb9e9efa5e13d73"}, {"is_disabled": 0, "is_reserved": 0, "fusion_lat": 0.0, "lat": 38.9229125, "fusion_lon": 0.0, "rental_uris": {"ios": "https://dc.lft.to/lastmile_qr_scan", "android": "https://dc.lft.to/lastmile_qr_scan"}, "lon": -77.02977416666667, "bike_id": "e7786662f3edff88e1777c705e311062", "type": "electric_scooter", "name": "e7786662f3edff88e1777c705e311062"}, {"is_disabled": 0, "is_reserved": 0, "fusion_lat": 0.0, "lat": 38.885441666666665, "fusion_lon": 0.0, "rental_uris": {"ios": "https://dc.lft.to/lastmile_qr_scan", "android": "https://dc.lft.to/lastmile_qr_scan"}, "lon": -76.923686, "bike_id": "80a63f38ab2250e18c6209cbf3747d80", "type": "electric_scooter", "name": "80a63f38ab2250e18c6209cbf3747d80"}, {"is_disabled": 0, "is_reserved": 0, "fusion_lat": 0.0, "lat": 38.88429633333333, "fusion_lon": 0.0, "rental_uris": {"ios": "https://dc.lft.to/lastmile_qr_scan", "android": "https://dc.lft.to/lastmile_qr_scan"}, "lon": -77.024958, "bike_id": "37883b68fc715904bb765b5783124f56", "type": "electric_scooter", "name": "37883b68fc715904bb765b5783124f56"}, {"is_disabled": 0, "is_reserved": 0, "fusion_lat": 0.0, "lat": 38.921305, "fusion_lon": 0.0, "rental_uris": {"ios": "https://dc.lft.to/lastmile_qr_scan", "android": "https://dc.lft.to/lastmile_qr_scan"}, "lon": -77.04559433333333, "bike_id": "353a266360f8c91877a962f4424f9410", "type": "electric_scooter", "name": "353a266360f8c91877a962f4424f9410"}, {"is_disabled": 0, "is_reserved": 0, "fusion_lat": 0.0, "lat": 38.96800133333333, "fusion_lon": 0.0, "rental_uris": {"ios": "https://dc.lft.to/lastmile_qr_scan", "android": "https://dc.lft.to/lastmile_qr_scan"}, "lon": -77.02559783333334, "bike_id": "9a6c3af579e0506f4b3eef4e92abc63a", "type": "electric_scooter", "name": "9a6c3af579e0506f4b3eef4e92abc63a"}, {"is_disabled": 0, "is_reserved": 0, "fusion_lat": 0.0, "lat": 38.9041735, "fusion_lon": 0.0, "rental_uris": {"ios": "https://dc.lft.to/lastmile_qr_scan", "android": "https://dc.lft.to/lastmile_qr_scan"}, "lon": -77.03100383333333, "bike_id": "8ad36d219373a34399f7d72ea33ecaa7", "type": "electric_scooter", "name": "8ad36d219373a34399f7d72ea33ecaa7"}, {"is_disabled": 0, "is_reserved": 0, "fusion_lat": 0.0, "lat": 38.905463833333336, "fusion_lon": 0.0, "rental_uris": {"ios": "https://dc.lft.to/lastmile_qr_scan", "android": "https://dc.lft.to/lastmile_qr_scan"}, "lon": -77.00707483333333, "bike_id": "245db2fd04f53bf5df6bea5468b292d4", "type": "electric_scooter", "name": "245db2fd04f53bf5df6bea5468b292d4"}, {"is_disabled": 0, "is_reserved": 0, "fusion_lat": 0.0, "lat": 38.917568333333335, "fusion_lon": 0.0, "rental_uris": {"ios": "https://dc.lft.to/lastmile_qr_scan", "android": "https://dc.lft.to/lastmile_qr_scan"}, "lon": -77.04764116666666, "bike_id": "ee0dc5e6048226b91045af7775663c96", "type": "electric_scooter", "name": "ee0dc5e6048226b91045af7775663c96"}, {"is_disabled": 0, "is_reserved": 0, "fusion_lat": 0.0, "lat": 38.9221525, "fusion_lon": 0.0, "rental_uris": {"ios": "https://dc.lft.to/lastmile_qr_scan", "android": "https://dc.lft.to/lastmile_qr_scan"}, "lon": -77.07437983333334, "bike_id": "47d049836a6463b8d64c8b2ae5902e97", "type": "electric_scooter", "name": "47d049836a6463b8d64c8b2ae5902e97"}, {"is_disabled": 0, "is_reserved": 0, "fusion_lat": 0.0, "lat": 38.9058645, "fusion_lon": 0.0, "rental_uris": {"ios": "https://dc.lft.to/lastmile_qr_scan", "android": "https://dc.lft.to/lastmile_qr_scan"}, "lon": -77.01614283333333, "bike_id": "46f8c739ded32b2eb391bcec11bbd3a2", "type": "electric_scooter", "name": "46f8c739ded32b2eb391bcec11bbd3a2"}, {"is_disabled": 0, "is_reserved": 0, "fusion_lat": 0.0, "lat": 38.91563333333333, "fusion_lon": 0.0, "rental_uris": {"ios": "https://dc.lft.to/lastmile_qr_scan", "android": "https://dc.lft.to/lastmile_qr_scan"}, "lon": -77.03633066666667, "bike_id": "55e10e7ad49ec1751d40af59b799ce2d", "type": "electric_scooter", "name": "55e10e7ad49ec1751d40af59b799ce2d"}, {"is_disabled": 0, "is_reserved": 0, "fusion_lat": 0.0, "lat": 38.90717133333333, "fusion_lon": 0.0, "rental_uris": {"ios": "https://dc.lft.to/lastmile_qr_scan", "android": "https://dc.lft.to/lastmile_qr_scan"}, "lon": -77.02558783333333, "bike_id": "c1aa370fde73876177698b7b7aaa6081", "type": "electric_scooter", "name": "c1aa370fde73876177698b7b7aaa6081"}, {"is_disabled": 0, "is_reserved": 0, "fusion_lat": 0.0, "lat": 38.918183166666665, "fusion_lon": 0.0, "rental_uris": {"ios": "https://dc.lft.to/lastmile_qr_scan", "android": "https://dc.lft.to/lastmile_qr_scan"}, "lon": -77.01209533333333, "bike_id": "6554acb5411697a24acc7d4691b0ee51", "type": "electric_scooter", "name": "6554acb5411697a24acc7d4691b0ee51"}, {"is_disabled": 0, "is_reserved": 0, "fusion_lat": 0.0, "lat": 38.92349316666667, "fusion_lon": 0.0, "rental_uris": {"ios": "https://dc.lft.to/lastmile_qr_scan", "android": "https://dc.lft.to/lastmile_qr_scan"}, "lon": -77.024439, "bike_id": "f7fdf09ac2282818417227a87124889b", "type": "electric_scooter", "name": "f7fdf09ac2282818417227a87124889b"}, {"is_disabled": 0, "is_reserved": 0, "fusion_lat": 0.0, "lat": 38.884433, "fusion_lon": 0.0, "rental_uris": {"ios": "https://dc.lft.to/lastmile_qr_scan", "android": "https://dc.lft.to/lastmile_qr_scan"}, "lon": -77.02987366666666, "bike_id": "3f56d35643ff2794d1a58de44e624cb0", "type": "electric_scooter", "name": "3f56d35643ff2794d1a58de44e624cb0"}, {"is_disabled": 0, "is_reserved": 0, "fusion_lat": 0.0, "lat": 38.929050333333336, "fusion_lon": 0.0, "rental_uris": {"ios": "https://dc.lft.to/lastmile_qr_scan", "android": "https://dc.lft.to/lastmile_qr_scan"}, "lon": -77.0598195, "bike_id": "3437a3c20d55cf415018716f0711bb86", "type": "electric_scooter", "name": "3437a3c20d55cf415018716f0711bb86"}, {"is_disabled": 0, "is_reserved": 0, "fusion_lat": 0.0, "lat": 38.914404, "fusion_lon": 0.0, "rental_uris": {"ios": "https://dc.lft.to/lastmile_qr_scan", "android": "https://dc.lft.to/lastmile_qr_scan"}, "lon": -77.02288033333333, "bike_id": "e4f0ae0105ddbd9f092b2312d2cf1dbd", "type": "electric_scooter", "name": "e4f0ae0105ddbd9f092b2312d2cf1dbd"}, {"is_disabled": 0, "is_reserved": 0, "fusion_lat": 0.0, "lat": 38.875760166666666, "fusion_lon": 0.0, "rental_uris": {"ios": "https://dc.lft.to/lastmile_qr_scan", "android": "https://dc.lft.to/lastmile_qr_scan"}, "lon": -77.23410166666666, "bike_id": "444d6d7d809f402e18ec6ebb621279db", "type": "electric_bike", "name": "444d6d7d809f402e18ec6ebb621279db"}, {"is_disabled": 0, "is_reserved": 0, "fusion_lat": 0.0, "lat": 38.880334, "fusion_lon": 0.0, "rental_uris": {"ios": "https://dc.lft.to/lastmile_qr_scan", "android": "https://dc.lft.to/lastmile_qr_scan"}, "lon": -76.927258, "bike_id": "1591d87976637b5ec4df25f9e3a43914", "type": "electric_scooter", "name": "1591d87976637b5ec4df25f9e3a43914"}, {"is_disabled": 0, "is_reserved": 0, "fusion_lat": 0.0, "lat": 38.93031083333333, "fusion_lon": 0.0, "rental_uris": {"ios": "https://dc.lft.to/lastmile_qr_scan", "android": "https://dc.lft.to/lastmile_qr_scan"}, "lon": -77.0607505, "bike_id": "b44772eeb92dd1be1ae8ef8538da3105", "type": "electric_scooter", "name": "b44772eeb92dd1be1ae8ef8538da3105"}, {"is_disabled": 0, "is_reserved": 0, "fusion_lat": 0.0, "lat": 38.8763145, "fusion_lon": 0.0, "rental_uris": {"ios": "https://dc.lft.to/lastmile_qr_scan", "android": "https://dc.lft.to/lastmile_qr_scan"}, "lon": -77.00953366666667, "bike_id": "e113b682258229aec3726e797eb52f61", "type": "electric_scooter", "name": "e113b682258229aec3726e797eb52f61"}, {"is_disabled": 0, "is_reserved": 0, "fusion_lat": 0.0, "lat": 38.870680166666666, "fusion_lon": 0.0, "rental_uris": {"ios": "https://dc.lft.to/lastmile_qr_scan", "android": "https://dc.lft.to/lastmile_qr_scan"}, "lon": -76.98130516666667, "bike_id": "636a2f17225b1419c2de325b85d12f36", "type": "electric_scooter", "name": "636a2f17225b1419c2de325b85d12f36"}, {"is_disabled": 0, "is_reserved": 0, "fusion_lat": 0.0, "lat": 38.907301, "fusion_lon": 0.0, "rental_uris": {"ios": "https://dc.lft.to/lastmile_qr_scan", "android": "https://dc.lft.to/lastmile_qr_scan"}, "lon": -77.02324333333334, "bike_id": "3a7ae9442200193f9f2f598d7670b627", "type": "electric_scooter", "name": "3a7ae9442200193f9f2f598d7670b627"}, {"is_disabled": 0, "is_reserved": 0, "fusion_lat": 0.0, "lat": 38.88517983333333, "fusion_lon": 0.0, "rental_uris": {"ios": "https://dc.lft.to/lastmile_qr_scan", "android": "https://dc.lft.to/lastmile_qr_scan"}, "lon": -77.02821233333333, "bike_id": "b7fc0796e01adddd6b82bb18b297326f", "type": "electric_scooter", "name": "b7fc0796e01adddd6b82bb18b297326f"}, {"is_disabled": 0, "is_reserved": 0, "fusion_lat": 0.0, "lat": 38.915956, "fusion_lon": 0.0, "rental_uris": {"ios": "https://dc.lft.to/lastmile_qr_scan", "android": "https://dc.lft.to/lastmile_qr_scan"}, "lon": -77.03847566666667, "bike_id": "1167b46ce7930f2ca4572b5e3b4ceca8", "type": "electric_scooter", "name": "1167b46ce7930f2ca4572b5e3b4ceca8"}, {"is_disabled": 0, "is_reserved": 0, "fusion_lat": 0.0, "lat": 39.010691666666666, "fusion_lon": 0.0, "rental_uris": {"ios": "https://dc.lft.to/lastmile_qr_scan", "android": "https://dc.lft.to/lastmile_qr_scan"}, "lon": -76.922412, "bike_id": "044790789e911ca424fe05b11891e1fd", "type": "electric_bike", "name": "044790789e911ca424fe05b11891e1fd"}, {"is_disabled": 0, "is_reserved": 0, "fusion_lat": 0.0, "lat": 38.87841266666667, "fusion_lon": 0.0, "rental_uris": {"ios": "https://dc.lft.to/lastmile_qr_scan", "android": "https://dc.lft.to/lastmile_qr_scan"}, "lon": -76.93128883333333, "bike_id": "a3bff5f31840f119c8fc08a25f141052", "type": "electric_scooter", "name": "a3bff5f31840f119c8fc08a25f141052"}, {"is_disabled": 0, "is_reserved": 0, "fusion_lat": 0.0, "lat": 38.93085166666667, "fusion_lon": 0.0, "rental_uris": {"ios": "https://dc.lft.to/lastmile_qr_scan", "android": "https://dc.lft.to/lastmile_qr_scan"}, "lon": -77.0344195, "bike_id": "e40ad919f2c32a0232d0c2dd44217da8", "type": "electric_scooter", "name": "e40ad919f2c32a0232d0c2dd44217da8"}, {"is_disabled": 0, "is_reserved": 0, "fusion_lat": 0.0, "lat": 38.882966, "fusion_lon": 0.0, "rental_uris": {"ios": "https://dc.lft.to/lastmile_qr_scan", "android": "https://dc.lft.to/lastmile_qr_scan"}, "lon": -77.02559916666667, "bike_id": "8bd58aeeea9681666490d4aca35c717d", "type": "electric_scooter", "name": "8bd58aeeea9681666490d4aca35c717d"}, {"is_disabled": 0, "is_reserved": 0, "fusion_lat": 0.0, "lat": 38.912642166666664, "fusion_lon": 0.0, "rental_uris": {"ios": "https://dc.lft.to/lastmile_qr_scan", "android": "https://dc.lft.to/lastmile_qr_scan"}, "lon": -77.00502433333334, "bike_id": "56b292d031ad9e10cb448b56339ab552", "type": "electric_scooter", "name": "56b292d031ad9e10cb448b56339ab552"}, {"is_disabled": 0, "is_reserved": 0, "fusion_lat": 0.0, "lat": 38.88270966666666, "fusion_lon": 0.0, "rental_uris": {"ios": "https://dc.lft.to/lastmile_qr_scan", "android": "https://dc.lft.to/lastmile_qr_scan"}, "lon": -77.00645316666666, "bike_id": "90474799161f98772bfc6a2cb4dada23", "type": "electric_scooter", "name": "90474799161f98772bfc6a2cb4dada23"}, {"is_disabled": 0, "is_reserved": 0, "fusion_lat": 0.0, "lat": 38.923106833333335, "fusion_lon": 0.0, "rental_uris": {"ios": "https://dc.lft.to/lastmile_qr_scan", "android": "https://dc.lft.to/lastmile_qr_scan"}, "lon": -77.0391015, "bike_id": "f6644759398598795df44e62ecc3a741", "type": "electric_scooter", "name": "f6644759398598795df44e62ecc3a741"}, {"is_disabled": 0, "is_reserved": 0, "fusion_lat": 0.0, "lat": 38.92228033333333, "fusion_lon": 0.0, "rental_uris": {"ios": "https://dc.lft.to/lastmile_qr_scan", "android": "https://dc.lft.to/lastmile_qr_scan"}, "lon": -77.03893416666666, "bike_id": "6d90e5aba9f04220bee8d679645d7b27", "type": "electric_scooter", "name": "6d90e5aba9f04220bee8d679645d7b27"}, {"is_disabled": 0, "is_reserved": 0, "fusion_lat": 0.0, "lat": 38.905779833333334, "fusion_lon": 0.0, "rental_uris": {"ios": "https://dc.lft.to/lastmile_qr_scan", "android": "https://dc.lft.to/lastmile_qr_scan"}, "lon": -77.02765583333333, "bike_id": "a61e150ef9c554ccda1d50e6af686f97", "type": "electric_scooter", "name": "a61e150ef9c554ccda1d50e6af686f97"}, {"is_disabled": 0, "is_reserved": 0, "fusion_lat": 0.0, "lat": 38.88142716666667, "fusion_lon": 0.0, "rental_uris": {"ios": "https://dc.lft.to/lastmile_qr_scan", "android": "https://dc.lft.to/lastmile_qr_scan"}, "lon": -77.01313883333333, "bike_id": "3e7e3f94710996594932c48099769f44", "type": "electric_scooter", "name": "3e7e3f94710996594932c48099769f44"}, {"is_disabled": 0, "is_reserved": 0, "fusion_lat": 0.0, "lat": 38.8963335, "fusion_lon": 0.0, "rental_uris": {"ios": "https://dc.lft.to/lastmile_qr_scan", "android": "https://dc.lft.to/lastmile_qr_scan"}, "lon": -76.93919616666666, "bike_id": "6abc61d48ff3c6253501ec35e60c3772", "type": "electric_scooter", "name": "6abc61d48ff3c6253501ec35e60c3772"}, {"is_disabled": 0, "is_reserved": 0, "fusion_lat": 0.0, "lat": 38.89823066666666, "fusion_lon": 0.0, "rental_uris": {"ios": "https://dc.lft.to/lastmile_qr_scan", "android": "https://dc.lft.to/lastmile_qr_scan"}, "lon": -77.04649466666666, "bike_id": "6dc14c2774e4fcd66a72bb32a037bd3d", "type": "electric_scooter", "name": "6dc14c2774e4fcd66a72bb32a037bd3d"}, {"is_disabled": 0, "is_reserved": 0, "fusion_lat": 0.0, "lat": 38.950706833333335, "fusion_lon": 0.0, "rental_uris": {"ios": "https://dc.lft.to/lastmile_qr_scan", "android": "https://dc.lft.to/lastmile_qr_scan"}, "lon": -76.99600883333333, "bike_id": "7b286e7a2ff377bc9b84c864a6269597", "type": "electric_bike", "name": "7b286e7a2ff377bc9b84c864a6269597"}, {"is_disabled": 0, "is_reserved": 0, "fusion_lat": 0.0, "lat": 38.89751583333333, "fusion_lon": 0.0, "rental_uris": {"ios": "https://dc.lft.to/lastmile_qr_scan", "android": "https://dc.lft.to/lastmile_qr_scan"}, "lon": -77.05487516666666, "bike_id": "dce2bf7a075cfd7a116eef063d36ca61", "type": "electric_scooter", "name": "dce2bf7a075cfd7a116eef063d36ca61"}, {"is_disabled": 0, "is_reserved": 0, "fusion_lat": 0.0, "lat": 38.909614166666664, "fusion_lon": 0.0, "rental_uris": {"ios": "https://dc.lft.to/lastmile_qr_scan", "android": "https://dc.lft.to/lastmile_qr_scan"}, "lon": -77.02216383333334, "bike_id": "60b4d7ceb5e4d494d8ce20eae3295516", "type": "electric_scooter", "name": "60b4d7ceb5e4d494d8ce20eae3295516"}, {"is_disabled": 0, "is_reserved": 0, "fusion_lat": 0.0, "lat": 38.95333883333333, "fusion_lon": 0.0, "rental_uris": {"ios": "https://dc.lft.to/lastmile_qr_scan", "android": "https://dc.lft.to/lastmile_qr_scan"}, "lon": -76.9825195, "bike_id": "5fe67796eebd333a6359830fdc09d72e", "type": "electric_bike", "name": "5fe67796eebd333a6359830fdc09d72e"}, {"is_disabled": 0, "is_reserved": 0, "fusion_lat": 0.0, "lat": 38.918854, "fusion_lon": 0.0, "rental_uris": {"ios": "https://dc.lft.to/lastmile_qr_scan", "android": "https://dc.lft.to/lastmile_qr_scan"}, "lon": -77.0417495, "bike_id": "9558d985c545f79baff00f1ba40fa545", "type": "electric_scooter", "name": "9558d985c545f79baff00f1ba40fa545"}, {"is_disabled": 0, "is_reserved": 0, "fusion_lat": 0.0, "lat": 38.9145295, "fusion_lon": 0.0, "rental_uris": {"ios": "https://dc.lft.to/lastmile_qr_scan", "android": "https://dc.lft.to/lastmile_qr_scan"}, "lon": -77.008926, "bike_id": "955739bf16dd547f69b898707a9e3b7e", "type": "electric_scooter", "name": "955739bf16dd547f69b898707a9e3b7e"}, {"is_disabled": 0, "is_reserved": 0, "fusion_lat": 0.0, "lat": 38.906479, "fusion_lon": 0.0, "rental_uris": {"ios": "https://dc.lft.to/lastmile_qr_scan", "android": "https://dc.lft.to/lastmile_qr_scan"}, "lon": -76.97940133333333, "bike_id": "f1462118c77b5d7cdbaa319bcab110b9", "type": "electric_scooter", "name": "f1462118c77b5d7cdbaa319bcab110b9"}, {"is_disabled": 0, "is_reserved": 0, "fusion_lat": 0.0, "lat": 38.94170833333333, "fusion_lon": 0.0, "rental_uris": {"ios": "https://dc.lft.to/lastmile_qr_scan", "android": "https://dc.lft.to/lastmile_qr_scan"}, "lon": -77.02535766666666, "bike_id": "00f23b5e77118da5a8efd4380c74ab09", "type": "electric_scooter", "name": "00f23b5e77118da5a8efd4380c74ab09"}, {"is_disabled": 0, "is_reserved": 0, "fusion_lat": 0.0, "lat": 38.9141185, "fusion_lon": 0.0, "rental_uris": {"ios": "https://dc.lft.to/lastmile_qr_scan", "android": "https://dc.lft.to/lastmile_qr_scan"}, "lon": -77.02116333333333, "bike_id": "8da853b878a48ea667b566e98d3d9a76", "type": "electric_scooter", "name": "8da853b878a48ea667b566e98d3d9a76"}, {"is_disabled": 0, "is_reserved": 0, "fusion_lat": 0.0, "lat": 38.91225583333333, "fusion_lon": 0.0, "rental_uris": {"ios": "https://dc.lft.to/lastmile_qr_scan", "android": "https://dc.lft.to/lastmile_qr_scan"}, "lon": -77.06409016666667, "bike_id": "50fac0fa5d2b16a434986243c7eba894", "type": "electric_scooter", "name": "50fac0fa5d2b16a434986243c7eba894"}, {"is_disabled": 0, "is_reserved": 0, "fusion_lat": 0.0, "lat": 38.90882233333333, "fusion_lon": 0.0, "rental_uris": {"ios": "https://dc.lft.to/lastmile_qr_scan", "android": "https://dc.lft.to/lastmile_qr_scan"}, "lon": -77.07434716666667, "bike_id": "760bcf18081846a53ae99433d66d830b", "type": "electric_scooter", "name": "760bcf18081846a53ae99433d66d830b"}, {"is_disabled": 0, "is_reserved": 0, "fusion_lat": 0.0, "lat": 38.9111925, "fusion_lon": 0.0, "rental_uris": {"ios": "https://dc.lft.to/lastmile_qr_scan", "android": "https://dc.lft.to/lastmile_qr_scan"}, "lon": -76.99745016666667, "bike_id": "71318dc0f163394068c1f92b97914ecc", "type": "electric_scooter", "name": "71318dc0f163394068c1f92b97914ecc"}, {"is_disabled": 0, "is_reserved": 0, "fusion_lat": 0.0, "lat": 38.96774216666667, "fusion_lon": 0.0, "rental_uris": {"ios": "https://dc.lft.to/lastmile_qr_scan", "android": "https://dc.lft.to/lastmile_qr_scan"}, "lon": -76.99649233333334, "bike_id": "e7e0cb5c1d25f4268a8e20abdad753eb", "type": "electric_bike", "name": "e7e0cb5c1d25f4268a8e20abdad753eb"}, {"is_disabled": 0, "is_reserved": 0, "fusion_lat": 0.0, "lat": 38.90498783333334, "fusion_lon": 0.0, "rental_uris": {"ios": "https://dc.lft.to/lastmile_qr_scan", "android": "https://dc.lft.to/lastmile_qr_scan"}, "lon": -77.061215, "bike_id": "a1b6667ae525413594dc70fe79adbdf4", "type": "electric_scooter", "name": "a1b6667ae525413594dc70fe79adbdf4"}, {"is_disabled": 0, "is_reserved": 0, "fusion_lat": 0.0, "lat": 38.87631183333333, "fusion_lon": 0.0, "rental_uris": {"ios": "https://dc.lft.to/lastmile_qr_scan", "android": "https://dc.lft.to/lastmile_qr_scan"}, "lon": -77.009549, "bike_id": "0ec384d567f9dd0016d067a26d2ddb42", "type": "electric_scooter", "name": "0ec384d567f9dd0016d067a26d2ddb42"}, {"is_disabled": 0, "is_reserved": 0, "fusion_lat": 0.0, "lat": 38.885764333333334, "fusion_lon": 0.0, "rental_uris": {"ios": "https://dc.lft.to/lastmile_qr_scan", "android": "https://dc.lft.to/lastmile_qr_scan"}, "lon": -77.01212466666667, "bike_id": "c976a3ca9e7e83ba41006ccc7606d9a6", "type": "electric_scooter", "name": "c976a3ca9e7e83ba41006ccc7606d9a6"}, {"is_disabled": 0, "is_reserved": 0, "fusion_lat": 0.0, "lat": 38.93194283333333, "fusion_lon": 0.0, "rental_uris": {"ios": "https://dc.lft.to/lastmile_qr_scan", "android": "https://dc.lft.to/lastmile_qr_scan"}, "lon": -77.03450333333333, "bike_id": "b063519891efdef4e15916d77b318657", "type": "electric_scooter", "name": "b063519891efdef4e15916d77b318657"}, {"is_disabled": 0, "is_reserved": 0, "fusion_lat": 0.0, "lat": 38.910570666666665, "fusion_lon": 0.0, "rental_uris": {"ios": "https://dc.lft.to/lastmile_qr_scan", "android": "https://dc.lft.to/lastmile_qr_scan"}, "lon": -77.0229985, "bike_id": "3eddda8f8d652a07da9f1b4e7a2fa7a9", "type": "electric_scooter", "name": "3eddda8f8d652a07da9f1b4e7a2fa7a9"}, {"is_disabled": 0, "is_reserved": 0, "fusion_lat": 0.0, "lat": 38.921661, "fusion_lon": 0.0, "rental_uris": {"ios": "https://dc.lft.to/lastmile_qr_scan", "android": "https://dc.lft.to/lastmile_qr_scan"}, "lon": -77.03265516666667, "bike_id": "b1e7efb3d91e1da0d6a35913527adbcb", "type": "electric_scooter", "name": "b1e7efb3d91e1da0d6a35913527adbcb"}, {"is_disabled": 0, "is_reserved": 0, "fusion_lat": 0.0, "lat": 38.911912666666666, "fusion_lon": 0.0, "rental_uris": {"ios": "https://dc.lft.to/lastmile_qr_scan", "android": "https://dc.lft.to/lastmile_qr_scan"}, "lon": -77.00200716666667, "bike_id": "51e9ddc5641a30fe9e2fab9e199954dc", "type": "electric_scooter", "name": "51e9ddc5641a30fe9e2fab9e199954dc"}, {"is_disabled": 0, "is_reserved": 0, "fusion_lat": 0.0, "lat": 38.927852666666666, "fusion_lon": 0.0, "rental_uris": {"ios": "https://dc.lft.to/lastmile_qr_scan", "android": "https://dc.lft.to/lastmile_qr_scan"}, "lon": -77.02728183333333, "bike_id": "e5aaf186f348d7e3390ba327198a6a54", "type": "electric_bike", "name": "e5aaf186f348d7e3390ba327198a6a54"}, {"is_disabled": 0, "is_reserved": 0, "fusion_lat": 0.0, "lat": 38.92812583333333, "fusion_lon": 0.0, "rental_uris": {"ios": "https://dc.lft.to/lastmile_qr_scan", "android": "https://dc.lft.to/lastmile_qr_scan"}, "lon": -77.0435645, "bike_id": "06fd694be009c5b625cf969c0b179054", "type": "electric_scooter", "name": "06fd694be009c5b625cf969c0b179054"}, {"is_disabled": 0, "is_reserved": 0, "fusion_lat": 0.0, "lat": 38.891102833333335, "fusion_lon": 0.0, "rental_uris": {"ios": "https://dc.lft.to/lastmile_qr_scan", "android": "https://dc.lft.to/lastmile_qr_scan"}, "lon": -77.014395, "bike_id": "dbd7d515b0e32025066cfd02c25d35f9", "type": "electric_scooter", "name": "dbd7d515b0e32025066cfd02c25d35f9"}, {"is_disabled": 0, "is_reserved": 0, "fusion_lat": 0.0, "lat": 38.932343833333334, "fusion_lon": 0.0, "rental_uris": {"ios": "https://dc.lft.to/lastmile_qr_scan", "android": "https://dc.lft.to/lastmile_qr_scan"}, "lon": -76.9970185, "bike_id": "2cb9ae6dc8fdaa1158e106e92939e92a", "type": "electric_scooter", "name": "2cb9ae6dc8fdaa1158e106e92939e92a"}, {"is_disabled": 0, "is_reserved": 0, "fusion_lat": 0.0, "lat": 38.90243, "fusion_lon": 0.0, "rental_uris": {"ios": "https://dc.lft.to/lastmile_qr_scan", "android": "https://dc.lft.to/lastmile_qr_scan"}, "lon": -77.00771566666667, "bike_id": "1c334bec86fd81a83e8204b8840b8bc0", "type": "electric_scooter", "name": "1c334bec86fd81a83e8204b8840b8bc0"}, {"is_disabled": 0, "is_reserved": 0, "fusion_lat": 0.0, "lat": 38.92100533333333, "fusion_lon": 0.0, "rental_uris": {"ios": "https://dc.lft.to/lastmile_qr_scan", "android": "https://dc.lft.to/lastmile_qr_scan"}, "lon": -77.041718, "bike_id": "b02b29ee9515b0552017761ccf1c5ffc", "type": "electric_scooter", "name": "b02b29ee9515b0552017761ccf1c5ffc"}, {"is_disabled": 0, "is_reserved": 0, "fusion_lat": 0.0, "lat": 38.87468283333333, "fusion_lon": 0.0, "rental_uris": {"ios": "https://dc.lft.to/lastmile_qr_scan", "android": "https://dc.lft.to/lastmile_qr_scan"}, "lon": -77.00515116666666, "bike_id": "a8ce4c643818002a8c9345333b376b61", "type": "electric_scooter", "name": "a8ce4c643818002a8c9345333b376b61"}, {"is_disabled": 0, "is_reserved": 0, "fusion_lat": 0.0, "lat": 38.89229, "fusion_lon": 0.0, "rental_uris": {"ios": "https://dc.lft.to/lastmile_qr_scan", "android": "https://dc.lft.to/lastmile_qr_scan"}, "lon": -77.02384316666667, "bike_id": "81659e21663ecdd3abfa0d907957c3af", "type": "electric_scooter", "name": "81659e21663ecdd3abfa0d907957c3af"}, {"is_disabled": 0, "is_reserved": 0, "fusion_lat": 0.0, "lat": 38.9217005, "fusion_lon": 0.0, "rental_uris": {"ios": "https://dc.lft.to/lastmile_qr_scan", "android": "https://dc.lft.to/lastmile_qr_scan"}, "lon": -77.01796266666666, "bike_id": "875ce6254e191080bc6fc6bddc284305", "type": "electric_scooter", "name": "875ce6254e191080bc6fc6bddc284305"}, {"is_disabled": 0, "is_reserved": 0, "fusion_lat": 0.0, "lat": 38.94177966666667, "fusion_lon": 0.0, "rental_uris": {"ios": "https://dc.lft.to/lastmile_qr_scan", "android": "https://dc.lft.to/lastmile_qr_scan"}, "lon": -77.03392566666666, "bike_id": "6ffbd54bb6012961e76c83b84b8cb589", "type": "electric_scooter", "name": "6ffbd54bb6012961e76c83b84b8cb589"}, {"is_disabled": 0, "is_reserved": 0, "fusion_lat": 0.0, "lat": 38.915071166666664, "fusion_lon": 0.0, "rental_uris": {"ios": "https://dc.lft.to/lastmile_qr_scan", "android": "https://dc.lft.to/lastmile_qr_scan"}, "lon": -76.9835225, "bike_id": "4a8f7eeb6994d4c2827070cf16cff3cb", "type": "electric_scooter", "name": "4a8f7eeb6994d4c2827070cf16cff3cb"}, {"is_disabled": 0, "is_reserved": 0, "fusion_lat": 0.0, "lat": 38.923378, "fusion_lon": 0.0, "rental_uris": {"ios": "https://dc.lft.to/lastmile_qr_scan", "android": "https://dc.lft.to/lastmile_qr_scan"}, "lon": -76.99871216666666, "bike_id": "0523d241fb6a6fa4d670122a2d73779b", "type": "electric_scooter", "name": "0523d241fb6a6fa4d670122a2d73779b"}, {"is_disabled": 0, "is_reserved": 0, "fusion_lat": 0.0, "lat": 38.91901383333333, "fusion_lon": 0.0, "rental_uris": {"ios": "https://dc.lft.to/lastmile_qr_scan", "android": "https://dc.lft.to/lastmile_qr_scan"}, "lon": -77.06003183333333, "bike_id": "8f9cdda20d4fec141e456fcf91a225cd", "type": "electric_bike", "name": "8f9cdda20d4fec141e456fcf91a225cd"}, {"is_disabled": 0, "is_reserved": 0, "fusion_lat": 0.0, "lat": 38.90819366666667, "fusion_lon": 0.0, "rental_uris": {"ios": "https://dc.lft.to/lastmile_qr_scan", "android": "https://dc.lft.to/lastmile_qr_scan"}, "lon": -77.043587, "bike_id": "143d6caadf4bd16a2cf61767b0ce1747", "type": "electric_scooter", "name": "143d6caadf4bd16a2cf61767b0ce1747"}, {"is_disabled": 0, "is_reserved": 0, "fusion_lat": 0.0, "lat": 38.92021, "fusion_lon": 0.0, "rental_uris": {"ios": "https://dc.lft.to/lastmile_qr_scan", "android": "https://dc.lft.to/lastmile_qr_scan"}, "lon": -76.99978833333333, "bike_id": "97707bf85d7d81b0cc9a3a0e17fc4a6b", "type": "electric_scooter", "name": "97707bf85d7d81b0cc9a3a0e17fc4a6b"}, {"is_disabled": 0, "is_reserved": 0, "fusion_lat": 0.0, "lat": 38.89854033333334, "fusion_lon": 0.0, "rental_uris": {"ios": "https://dc.lft.to/lastmile_qr_scan", "android": "https://dc.lft.to/lastmile_qr_scan"}, "lon": -77.00195383333333, "bike_id": "eb8d12f8e1f5d3dff9769da98e7207f3", "type": "electric_scooter", "name": "eb8d12f8e1f5d3dff9769da98e7207f3"}, {"is_disabled": 0, "is_reserved": 0, "fusion_lat": 0.0, "lat": 38.95733366666666, "fusion_lon": 0.0, "rental_uris": {"ios": "https://dc.lft.to/lastmile_qr_scan", "android": "https://dc.lft.to/lastmile_qr_scan"}, "lon": -77.02418, "bike_id": "99491828357851b5ae0c8919bc4dc494", "type": "electric_scooter", "name": "99491828357851b5ae0c8919bc4dc494"}, {"is_disabled": 0, "is_reserved": 0, "fusion_lat": 0.0, "lat": 38.930324666666664, "fusion_lon": 0.0, "rental_uris": {"ios": "https://dc.lft.to/lastmile_qr_scan", "android": "https://dc.lft.to/lastmile_qr_scan"}, "lon": -77.02959866666667, "bike_id": "1cfc03ca7b1614533dbb9fb902bcd7d5", "type": "electric_scooter", "name": "1cfc03ca7b1614533dbb9fb902bcd7d5"}, {"is_disabled": 0, "is_reserved": 0, "fusion_lat": 0.0, "lat": 38.92157733333333, "fusion_lon": 0.0, "rental_uris": {"ios": "https://dc.lft.to/lastmile_qr_scan", "android": "https://dc.lft.to/lastmile_qr_scan"}, "lon": -77.01806066666667, "bike_id": "b2483f91be0953a775ad4d99b15c6567", "type": "electric_scooter", "name": "b2483f91be0953a775ad4d99b15c6567"}, {"is_disabled": 0, "is_reserved": 0, "fusion_lat": 0.0, "lat": 38.928653833333335, "fusion_lon": 0.0, "rental_uris": {"ios": "https://dc.lft.to/lastmile_qr_scan", "android": "https://dc.lft.to/lastmile_qr_scan"}, "lon": -77.0139435, "bike_id": "aa026ab5da2ddd2ead69d2fc4d111649", "type": "electric_scooter", "name": "aa026ab5da2ddd2ead69d2fc4d111649"}, {"is_disabled": 0, "is_reserved": 0, "fusion_lat": 0.0, "lat": 38.9140045, "fusion_lon": 0.0, "rental_uris": {"ios": "https://dc.lft.to/lastmile_qr_scan", "android": "https://dc.lft.to/lastmile_qr_scan"}, "lon": -77.030849, "bike_id": "b8ec07f7f69706d9f0e0a013c5302961", "type": "electric_scooter", "name": "b8ec07f7f69706d9f0e0a013c5302961"}, {"is_disabled": 0, "is_reserved": 0, "fusion_lat": 0.0, "lat": 38.906439666666664, "fusion_lon": 0.0, "rental_uris": {"ios": "https://dc.lft.to/lastmile_qr_scan", "android": "https://dc.lft.to/lastmile_qr_scan"}, "lon": -76.98025366666667, "bike_id": "c70df761aa8ef29b935b360cbe0ddeeb", "type": "electric_scooter", "name": "c70df761aa8ef29b935b360cbe0ddeeb"}, {"is_disabled": 0, "is_reserved": 0, "fusion_lat": 0.0, "lat": 38.960167166666665, "fusion_lon": 0.0, "rental_uris": {"ios": "https://dc.lft.to/lastmile_qr_scan", "android": "https://dc.lft.to/lastmile_qr_scan"}, "lon": -77.02821983333334, "bike_id": "d776be02917db70c76ddd5fc458b968f", "type": "electric_scooter", "name": "d776be02917db70c76ddd5fc458b968f"}, {"is_disabled": 0, "is_reserved": 0, "fusion_lat": 0.0, "lat": 38.89533983333333, "fusion_lon": 0.0, "rental_uris": {"ios": "https://dc.lft.to/lastmile_qr_scan", "android": "https://dc.lft.to/lastmile_qr_scan"}, "lon": -77.026712, "bike_id": "7d26ad53d46e1f30780ab75d5ae409c7", "type": "electric_scooter", "name": "7d26ad53d46e1f30780ab75d5ae409c7"}, {"is_disabled": 0, "is_reserved": 0, "fusion_lat": 0.0, "lat": 38.90232666666667, "fusion_lon": 0.0, "rental_uris": {"ios": "https://dc.lft.to/lastmile_qr_scan", "android": "https://dc.lft.to/lastmile_qr_scan"}, "lon": -77.0532245, "bike_id": "bcb6278d470c9437ad6da9f006ae7fa2", "type": "electric_scooter", "name": "bcb6278d470c9437ad6da9f006ae7fa2"}, {"is_disabled": 0, "is_reserved": 0, "fusion_lat": 0.0, "lat": 38.892305, "fusion_lon": 0.0, "rental_uris": {"ios": "https://dc.lft.to/lastmile_qr_scan", "android": "https://dc.lft.to/lastmile_qr_scan"}, "lon": -77.02964933333334, "bike_id": "ef0c10190dc763a8d04e7c3c42bdfdae", "type": "electric_scooter", "name": "ef0c10190dc763a8d04e7c3c42bdfdae"}, {"is_disabled": 0, "is_reserved": 0, "fusion_lat": 0.0, "lat": 38.90906433333333, "fusion_lon": 0.0, "rental_uris": {"ios": "https://dc.lft.to/lastmile_qr_scan", "android": "https://dc.lft.to/lastmile_qr_scan"}, "lon": -76.99770683333334, "bike_id": "9d08d0088d2101bf642ff28ad79af6ec", "type": "electric_scooter", "name": "9d08d0088d2101bf642ff28ad79af6ec"}, {"is_disabled": 0, "is_reserved": 0, "fusion_lat": 0.0, "lat": 38.93597333333334, "fusion_lon": 0.0, "rental_uris": {"ios": "https://dc.lft.to/lastmile_qr_scan", "android": "https://dc.lft.to/lastmile_qr_scan"}, "lon": -77.03878133333333, "bike_id": "89ad5ab66e3d40b214b21f07975e217f", "type": "electric_scooter", "name": "89ad5ab66e3d40b214b21f07975e217f"}, {"is_disabled": 0, "is_reserved": 0, "fusion_lat": 0.0, "lat": 38.9285915, "fusion_lon": 0.0, "rental_uris": {"ios": "https://dc.lft.to/lastmile_qr_scan", "android": "https://dc.lft.to/lastmile_qr_scan"}, "lon": -77.02877933333333, "bike_id": "1e3e1d63f0f41231e00d860146eb5b1e", "type": "electric_scooter", "name": "1e3e1d63f0f41231e00d860146eb5b1e"}, {"is_disabled": 0, "is_reserved": 0, "fusion_lat": 0.0, "lat": 38.91786916666667, "fusion_lon": 0.0, "rental_uris": {"ios": "https://dc.lft.to/lastmile_qr_scan", "android": "https://dc.lft.to/lastmile_qr_scan"}, "lon": -77.0229755, "bike_id": "86b52b5db5a5796777e116ea8fa6d0f2", "type": "electric_scooter", "name": "86b52b5db5a5796777e116ea8fa6d0f2"}, {"is_disabled": 0, "is_reserved": 0, "fusion_lat": 0.0, "lat": 38.93412516666667, "fusion_lon": 0.0, "rental_uris": {"ios": "https://dc.lft.to/lastmile_qr_scan", "android": "https://dc.lft.to/lastmile_qr_scan"}, "lon": -77.04273133333334, "bike_id": "8eb014ff77082316da00f70064cb5f87", "type": "electric_scooter", "name": "8eb014ff77082316da00f70064cb5f87"}, {"is_disabled": 0, "is_reserved": 0, "fusion_lat": 0.0, "lat": 38.92237266666667, "fusion_lon": 0.0, "rental_uris": {"ios": "https://dc.lft.to/lastmile_qr_scan", "android": "https://dc.lft.to/lastmile_qr_scan"}, "lon": -77.02269566666666, "bike_id": "4d9e35208ea04131eaf38c818353c36b", "type": "electric_scooter", "name": "4d9e35208ea04131eaf38c818353c36b"}, {"is_disabled": 0, "is_reserved": 0, "fusion_lat": 0.0, "lat": 38.88758333333333, "fusion_lon": 0.0, "rental_uris": {"ios": "https://dc.lft.to/lastmile_qr_scan", "android": "https://dc.lft.to/lastmile_qr_scan"}, "lon": -77.15652766666666, "bike_id": "cfd7d4b1d259772d58d4db2cb9d474e9", "type": "electric_bike", "name": "cfd7d4b1d259772d58d4db2cb9d474e9"}, {"is_disabled": 0, "is_reserved": 0, "fusion_lat": 0.0, "lat": 38.842730333333336, "fusion_lon": 0.0, "rental_uris": {"ios": "https://dc.lft.to/lastmile_qr_scan", "android": "https://dc.lft.to/lastmile_qr_scan"}, "lon": -76.9883915, "bike_id": "7ee4f0bbf189321002c1d478783481ce", "type": "electric_bike", "name": "7ee4f0bbf189321002c1d478783481ce"}, {"is_disabled": 0, "is_reserved": 0, "fusion_lat": 0.0, "lat": 38.894936, "fusion_lon": 0.0, "rental_uris": {"ios": "https://dc.lft.to/lastmile_qr_scan", "android": "https://dc.lft.to/lastmile_qr_scan"}, "lon": -77.02579466666667, "bike_id": "9fec0f453b77bad1b41a387e645ec239", "type": "electric_scooter", "name": "9fec0f453b77bad1b41a387e645ec239"}, {"is_disabled": 0, "is_reserved": 0, "fusion_lat": 0.0, "lat": 38.929885, "fusion_lon": 0.0, "rental_uris": {"ios": "https://dc.lft.to/lastmile_qr_scan", "android": "https://dc.lft.to/lastmile_qr_scan"}, "lon": -77.03469166666666, "bike_id": "5f2f9c15439e27e295c3798d4debc666", "type": "electric_scooter", "name": "5f2f9c15439e27e295c3798d4debc666"}, {"is_disabled": 0, "is_reserved": 0, "fusion_lat": 0.0, "lat": 38.917282666666665, "fusion_lon": 0.0, "rental_uris": {"ios": "https://dc.lft.to/lastmile_qr_scan", "android": "https://dc.lft.to/lastmile_qr_scan"}, "lon": -77.02290983333333, "bike_id": "dc25794ab38c104fc78bd249539eed76", "type": "electric_scooter", "name": "dc25794ab38c104fc78bd249539eed76"}, {"is_disabled": 0, "is_reserved": 0, "fusion_lat": 0.0, "lat": 38.90603766666667, "fusion_lon": 0.0, "rental_uris": {"ios": "https://dc.lft.to/lastmile_qr_scan", "android": "https://dc.lft.to/lastmile_qr_scan"}, "lon": -77.05650666666666, "bike_id": "2a9d12cfac3dee5be301f0e6ad55aa53", "type": "electric_scooter", "name": "2a9d12cfac3dee5be301f0e6ad55aa53"}, {"is_disabled": 0, "is_reserved": 0, "fusion_lat": 0.0, "lat": 38.93440066666667, "fusion_lon": 0.0, "rental_uris": {"ios": "https://dc.lft.to/lastmile_qr_scan", "android": "https://dc.lft.to/lastmile_qr_scan"}, "lon": -77.02980116666667, "bike_id": "cab6110ae5604f62eaace8a83c56c83a", "type": "electric_scooter", "name": "cab6110ae5604f62eaace8a83c56c83a"}, {"is_disabled": 0, "is_reserved": 0, "fusion_lat": 0.0, "lat": 38.90034266666667, "fusion_lon": 0.0, "rental_uris": {"ios": "https://dc.lft.to/lastmile_qr_scan", "android": "https://dc.lft.to/lastmile_qr_scan"}, "lon": -77.0037095, "bike_id": "88d1945bfb23db64037e5511a41eddaf", "type": "electric_scooter", "name": "88d1945bfb23db64037e5511a41eddaf"}, {"is_disabled": 0, "is_reserved": 0, "fusion_lat": 0.0, "lat": 38.90265866666667, "fusion_lon": 0.0, "rental_uris": {"ios": "https://dc.lft.to/lastmile_qr_scan", "android": "https://dc.lft.to/lastmile_qr_scan"}, "lon": -77.01157983333333, "bike_id": "bddff1d40d7ff56f092430e89bcceb8b", "type": "electric_scooter", "name": "bddff1d40d7ff56f092430e89bcceb8b"}, {"is_disabled": 0, "is_reserved": 0, "fusion_lat": 0.0, "lat": 38.9336085, "fusion_lon": 0.0, "rental_uris": {"ios": "https://dc.lft.to/lastmile_qr_scan", "android": "https://dc.lft.to/lastmile_qr_scan"}, "lon": -77.02647583333334, "bike_id": "9583552540ab3992c1e725a567a4713e", "type": "electric_scooter", "name": "9583552540ab3992c1e725a567a4713e"}, {"is_disabled": 0, "is_reserved": 0, "fusion_lat": 0.0, "lat": 38.91969133333333, "fusion_lon": 0.0, "rental_uris": {"ios": "https://dc.lft.to/lastmile_qr_scan", "android": "https://dc.lft.to/lastmile_qr_scan"}, "lon": -77.0020995, "bike_id": "a69134b5d082d7379621788dc6fb696a", "type": "electric_scooter", "name": "a69134b5d082d7379621788dc6fb696a"}, {"is_disabled": 0, "is_reserved": 0, "fusion_lat": 0.0, "lat": 38.906043333333336, "fusion_lon": 0.0, "rental_uris": {"ios": "https://dc.lft.to/lastmile_qr_scan", "android": "https://dc.lft.to/lastmile_qr_scan"}, "lon": -77.12889666666666, "bike_id": "9eb1821084519da5ede4f3f29d2d47a4", "type": "electric_bike", "name": "9eb1821084519da5ede4f3f29d2d47a4"}, {"is_disabled": 0, "is_reserved": 0, "fusion_lat": 0.0, "lat": 38.921032, "fusion_lon": 0.0, "rental_uris": {"ios": "https://dc.lft.to/lastmile_qr_scan", "android": "https://dc.lft.to/lastmile_qr_scan"}, "lon": -77.04693583333334, "bike_id": "2e66c9679f4a59536de8701b29c3a6e3", "type": "electric_scooter", "name": "2e66c9679f4a59536de8701b29c3a6e3"}, {"is_disabled": 0, "is_reserved": 0, "fusion_lat": 0.0, "lat": 38.91172233333333, "fusion_lon": 0.0, "rental_uris": {"ios": "https://dc.lft.to/lastmile_qr_scan", "android": "https://dc.lft.to/lastmile_qr_scan"}, "lon": -77.02831116666667, "bike_id": "488c15bb5e5141d98992157e47585b9d", "type": "electric_scooter", "name": "488c15bb5e5141d98992157e47585b9d"}, {"is_disabled": 0, "is_reserved": 0, "fusion_lat": 0.0, "lat": 38.93374033333333, "fusion_lon": 0.0, "rental_uris": {"ios": "https://dc.lft.to/lastmile_qr_scan", "android": "https://dc.lft.to/lastmile_qr_scan"}, "lon": -77.02726716666666, "bike_id": "cea62be9729b0b50fd0836bcb13de125", "type": "electric_scooter", "name": "cea62be9729b0b50fd0836bcb13de125"}, {"is_disabled": 0, "is_reserved": 0, "fusion_lat": 0.0, "lat": 38.883957833333334, "fusion_lon": 0.0, "rental_uris": {"ios": "https://dc.lft.to/lastmile_qr_scan", "android": "https://dc.lft.to/lastmile_qr_scan"}, "lon": -77.04635416666666, "bike_id": "dd7174e5d4b881706a0a77f2c0ad44f5", "type": "electric_bike", "name": "dd7174e5d4b881706a0a77f2c0ad44f5"}, {"is_disabled": 0, "is_reserved": 0, "fusion_lat": 0.0, "lat": 38.91476766666667, "fusion_lon": 0.0, "rental_uris": {"ios": "https://dc.lft.to/lastmile_qr_scan", "android": "https://dc.lft.to/lastmile_qr_scan"}, "lon": -77.03187683333333, "bike_id": "50e2140e388e48f12e8129c6ade31382", "type": "electric_scooter", "name": "50e2140e388e48f12e8129c6ade31382"}, {"is_disabled": 0, "is_reserved": 0, "fusion_lat": 0.0, "lat": 38.878916, "fusion_lon": 0.0, "rental_uris": {"ios": "https://dc.lft.to/lastmile_qr_scan", "android": "https://dc.lft.to/lastmile_qr_scan"}, "lon": -76.93528166666667, "bike_id": "3c2b9090a74bb7608fd9e7805d1ba34b", "type": "electric_scooter", "name": "3c2b9090a74bb7608fd9e7805d1ba34b"}, {"is_disabled": 0, "is_reserved": 0, "fusion_lat": 0.0, "lat": 38.92969166666666, "fusion_lon": 0.0, "rental_uris": {"ios": "https://dc.lft.to/lastmile_qr_scan", "android": "https://dc.lft.to/lastmile_qr_scan"}, "lon": -77.039384, "bike_id": "f454fcbeefd918b152f811b2d15a2006", "type": "electric_scooter", "name": "f454fcbeefd918b152f811b2d15a2006"}, {"is_disabled": 0, "is_reserved": 0, "fusion_lat": 0.0, "lat": 38.922126, "fusion_lon": 0.0, "rental_uris": {"ios": "https://dc.lft.to/lastmile_qr_scan", "android": "https://dc.lft.to/lastmile_qr_scan"}, "lon": -77.03889866666667, "bike_id": "77d3afa4b95d7826c2d82034ac78a20a", "type": "electric_scooter", "name": "77d3afa4b95d7826c2d82034ac78a20a"}, {"is_disabled": 0, "is_reserved": 0, "fusion_lat": 0.0, "lat": 38.86493633333333, "fusion_lon": 0.0, "rental_uris": {"ios": "https://dc.lft.to/lastmile_qr_scan", "android": "https://dc.lft.to/lastmile_qr_scan"}, "lon": -76.96982333333334, "bike_id": "fd482e5d71fd5f077162ff805ce0dc53", "type": "electric_bike", "name": "fd482e5d71fd5f077162ff805ce0dc53"}, {"is_disabled": 0, "is_reserved": 0, "fusion_lat": 0.0, "lat": 38.80519833333334, "fusion_lon": 0.0, "rental_uris": {"ios": "https://dc.lft.to/lastmile_qr_scan", "android": "https://dc.lft.to/lastmile_qr_scan"}, "lon": -77.04335166666667, "bike_id": "feea85ebf19781dd63dc31012fa71eb1", "type": "electric_bike", "name": "feea85ebf19781dd63dc31012fa71eb1"}, {"is_disabled": 0, "is_reserved": 0, "fusion_lat": 0.0, "lat": 38.936747833333335, "fusion_lon": 0.0, "rental_uris": {"ios": "https://dc.lft.to/lastmile_qr_scan", "android": "https://dc.lft.to/lastmile_qr_scan"}, "lon": -77.03588033333334, "bike_id": "69920455568354f5ab734036170139d3", "type": "electric_scooter", "name": "69920455568354f5ab734036170139d3"}, {"is_disabled": 0, "is_reserved": 0, "fusion_lat": 0.0, "lat": 38.8951945, "fusion_lon": 0.0, "rental_uris": {"ios": "https://dc.lft.to/lastmile_qr_scan", "android": "https://dc.lft.to/lastmile_qr_scan"}, "lon": -77.02278183333334, "bike_id": "a8a5afc07b54b71a10b0bcca1bb4e2b0", "type": "electric_scooter", "name": "a8a5afc07b54b71a10b0bcca1bb4e2b0"}, {"is_disabled": 0, "is_reserved": 0, "fusion_lat": 0.0, "lat": 38.907146833333336, "fusion_lon": 0.0, "rental_uris": {"ios": "https://dc.lft.to/lastmile_qr_scan", "android": "https://dc.lft.to/lastmile_qr_scan"}, "lon": -76.9982475, "bike_id": "d63f5a5d11ba1885dd8907508155c250", "type": "electric_scooter", "name": "d63f5a5d11ba1885dd8907508155c250"}, {"is_disabled": 0, "is_reserved": 0, "fusion_lat": 0.0, "lat": 38.89742366666667, "fusion_lon": 0.0, "rental_uris": {"ios": "https://dc.lft.to/lastmile_qr_scan", "android": "https://dc.lft.to/lastmile_qr_scan"}, "lon": -77.017582, "bike_id": "4907f74e492a5402d0f662920c79719c", "type": "electric_scooter", "name": "4907f74e492a5402d0f662920c79719c"}, {"is_disabled": 0, "is_reserved": 0, "fusion_lat": 0.0, "lat": 39.0009575, "fusion_lon": 0.0, "rental_uris": {"ios": "https://dc.lft.to/lastmile_qr_scan", "android": "https://dc.lft.to/lastmile_qr_scan"}, "lon": -76.90983283333334, "bike_id": "fbb5e6cddb45fb864df98bba848c437d", "type": "electric_bike", "name": "fbb5e6cddb45fb864df98bba848c437d"},