{"data": {"bikes": [{"name": "dae185efa2140b4de15207fdbe4a1732", "fusion_lat": 0.0, "type": "electric_scooter", "lat": 38.912098666666665, "is_reserved": 0, "is_disabled": 0, "fusion_lon": 0.0, "bike_id": "dae185efa2140b4de15207fdbe4a1732", "lon": -77.07595966666666, "rental_uris": {"ios": "https://dc.lft.to/lastmile_qr_scan", "android": "https://dc.lft.to/lastmile_qr_scan"}}, {"name": "06c804e81c971d27b24d87bce48fd555", "fusion_lat": 0.0, "type": "electric_bike", "lat": 38.9939385, "is_reserved": 0, "is_disabled": 0, "fusion_lon": 0.0, "bike_id": "06c804e81c971d27b24d87bce48fd555", "lon": -77.0253355, "rental_uris": {"ios": "https://dc.lft.to/lastmile_qr_scan", "android": "https://dc.lft.to/lastmile_qr_scan"}}, {"name": "2a14892728af8a2b3293f3f08090ed89", "fusion_lat": 0.0, "type": "electric_scooter", "lat": 38.8948075, "is_reserved": 0, "is_disabled": 0, "fusion_lon": 0.0, "bike_id": "2a14892728af8a2b3293f3f08090ed89", "lon": -76.94877366666667, "rental_uris": {"ios": "https://dc.lft.to/lastmile_qr_scan", "android": "https://dc.lft.to/lastmile_qr_scan"}}, {"name": "80b37fb65ca2bacf662d80c2a4bceb78", "fusion_lat": 0.0, "type": "electric_bike", "lat": 38.85538483333333, "is_reserved": 0, "is_disabled": 0, "fusion_lon": 0.0, "bike_id": "80b37fb65ca2bacf662d80c2a4bceb78", "lon": -77.10713816666667, "rental_uris": {"ios": "https://dc.lft.to/lastmile_qr_scan", "android": "https://dc.lft.to/lastmile_qr_scan"}}, {"name": "73f306ecf1136be7e8fbbc23a2786e27", "fusion_lat": 0.0, "type": "electric_scooter", "lat": 38.8991195, "is_reserved": 0, "is_disabled": 0, "fusion_lon": 0.0, "bike_id": "73f306ecf1136be7e8fbbc23a2786e27", "lon": -77.07097916666666, "rental_uris": {"ios": "https://dc.lft.to/lastmile_qr_scan", "android": "https://dc.lft.to/lastmile_qr_scan"}}, {"name": "2f078d05f5cd8a06d489e019a75478f7", "fusion_lat": 0.0, "type": "electric_scooter", "lat": 38.904968, "is_reserved": 0, "is_disabled": 0, "fusion_lon": 0.0, "bike_id": "2f078d05f5cd8a06d489e019a75478f7", "lon": -77.05112883333334, "rental_uris": {"ios": "https://dc.lft.to/lastmile_qr_scan", "android": "https://dc.lft.to/lastmile_qr_scan"}}, {"name": "8aec8cb88918b0fc50969398bce964c8", "fusion_lat": 0.0, "type": "electric_scooter", "lat": 38.88992283333333, "is_reserved": 0, "is_disabled": 0, "fusion_lon": 0.0, "bike_id": "8aec8cb88918b0fc50969398bce964c8", "lon": -76.9542555, "rental_uris": {"ios": "https://dc.lft.to/lastmile_qr_scan", "android": "https://dc.lft.to/lastmile_qr_scan"}}, {"name": "6b517a64197598e5cb182d47f0929444", "fusion_lat": 0.0, "type": "electric_bike", "lat": 38.93414533333333, "is_reserved": 0, "is_disabled": 0, "fusion_lon": 0.0, "bike_id": "6b517a64197598e5cb182d47f0929444", "lon": -77.02507533333333, "rental_uris": {"ios": "https://dc.lft.to/lastmile_qr_scan", "android": "https://dc.lft.to/lastmile_qr_scan"}}, {"name": "7f7391bc8b9456a6389ff95ad37ed986", "fusion_lat": 0.0, "type": "electric_scooter", "lat": 38.9119125, "is_reserved": 0, "is_disabled": 0, "fusion_lon": 0.0, "bike_id": "7f7391bc8b9456a6389ff95ad37ed986", "lon": -77.06093983333334, "rental_uris": {"ios": "https://dc.lft.to/lastmile_qr_scan", "android": "https://dc.lft.to/lastmile_qr_scan"}}, {"name": "9dad61469782bdb7b93061dc7e2a67c2", "fusion_lat": 0.0, "type": "electric_scooter", "lat": 38.90243866666667, "is_reserved": 0, "is_disabled": 0, "fusion_lon": 0.0, "bike_id": "9dad61469782bdb7b93061dc7e2a67c2", "lon": -77.04361016666667, "rental_uris": {"ios": "https://dc.lft.to/lastmile_qr_scan", "android": "https://dc.lft.to/lastmile_qr_scan"}}, {"name": "e83fa3ac6a7ca20a5d743bade71ad122", "fusion_lat": 0.0, "type": "electric_scooter", "lat": 38.912650666666664, "is_reserved": 0, "is_disabled": 0, "fusion_lon": 0.0, "bike_id": "e83fa3ac6a7ca20a5d743bade71ad122", "lon": -77.04168383333334, "rental_uris": {"ios": "https://dc.lft.to/lastmile_qr_scan", "android": "https://dc.lft.to/lastmile_qr_scan"}}, {"name": "3347145dfa58028fcfbc43be129a629d", "fusion_lat": 0.0, "type": "electric_scooter", "lat": 38.88361916666667, "is_reserved": 0, "is_disabled": 0, "fusion_lon": 0.0, "bike_id": "3347145dfa58028fcfbc43be129a629d", "lon": -77.02614733333333, "rental_uris": {"ios": "https://dc.lft.to/lastmile_qr_scan", "android": "https://dc.lft.to/lastmile_qr_scan"}}, {"name": "a46c3d202959786f76c5b0d279a8b049", "fusion_lat": 0.0, "type": "electric_scooter", "lat": 38.8757605, "is_reserved": 0, "is_disabled": 0, "fusion_lon": 0.0, "bike_id": "a46c3d202959786f76c5b0d279a8b049", "lon": -77.010634, "rental_uris": {"ios": "https://dc.lft.to/lastmile_qr_scan", "android": "https://dc.lft.to/lastmile_qr_scan"}}, {"name": "6457758a183a0282eb8ecf695b3c743c", "fusion_lat": 0.0, "type": "electric_scooter", "lat": 38.91803183333333, "is_reserved": 0, "is_disabled": 0, "fusion_lon": 0.0, "bike_id": "6457758a183a0282eb8ecf695b3c743c", "lon": -77.0281435, "rental_uris": {"ios": "https://dc.lft.to/lastmile_qr_scan", "android": "https://dc.lft.to/lastmile_qr_scan"}}, {"name": "b99d35b54c70621fbf5111c568bfaedb", "fusion_lat": 0.0, "type": "electric_scooter", "lat": 38.906961, "is_reserved": 0, "is_disabled": 0, "fusion_lon": 0.0, "bike_id": "b99d35b54c70621fbf5111c568bfaedb", "lon": -77.02398666666667, "rental_uris": {"ios": "https://dc.lft.to/lastmile_qr_scan", "android": "https://dc.lft.to/lastmile_qr_scan"}}, {"name": "15a663d7d52f3e83ea553f63ae896d50", "fusion_lat": 0.0, "type": "electric_bike", "lat": 38.8075355, "is_reserved": 0, "is_disabled": 0, "fusion_lon": 0.0, "bike_id": "15a663d7d52f3e83ea553f63ae896d50", "lon": -77.0945545, "rental_uris": {"ios": "https://dc.lft.to/lastmile_qr_scan", "android": "https://dc.lft.to/lastmile_qr_scan"}}, {"name": "19f8a20b4e0b66298424d3a03870035a", "fusion_lat": 0.0, "type": "electric_scooter", "lat": 38.920679, "is_reserved": 0, "is_disabled": 0, "fusion_lon": 0.0, "bike_id": "19f8a20b4e0b66298424d3a03870035a", "lon": -77.04252516666666, "rental_uris": {"ios": "https://dc.lft.to/lastmile_qr_scan", "android": "https://dc.lft.to/lastmile_qr_scan"}}, {"name": "6fe42dfee64173db8e72b2a678c71b19", "fusion_lat": 0.0, "type": "electric_scooter", "lat": 38.907096833333334, "is_reserved": 0, "is_disabled": 0, "fusion_lon": 0.0, "bike_id": "6fe42dfee64173db8e72b2a678c71b19", "lon": -77.03456983333334, "rental_uris": {"ios": "https://dc.lft.to/lastmile_qr_scan", "android": "https://dc.lft.to/lastmile_qr_scan"}}, {"name": "a1b6c2c083401aae3b306d1d826c43de", "fusion_lat": 0.0, "type": "electric_scooter", "lat": 38.92754466666667, "is_reserved": 0, "is_disabled": 0, "fusion_lon": 0.0, "bike_id": "a1b6c2c083401aae3b306d1d826c43de", "lon": -77.034836, "rental_uris": {"ios": "https://dc.lft.to/lastmile_qr_scan", "android": "https://dc.lft.to/lastmile_qr_scan"}}, {"name": "7b399fcd8a082c81b2d75659685f2e57", "fusion_lat": 0.0, "type": "electric_scooter", "lat": 38.920558666666665, "is_reserved": 0, "is_disabled": 0, "fusion_lon": 0.0, "bike_id": "7b399fcd8a082c81b2d75659685f2e57", "lon": -76.998856, "rental_uris": {"ios": "https://dc.lft.to/lastmile_qr_scan", "android": "https://dc.lft.to/lastmile_qr_scan"}}, {"name": "e587061626fa40f36dc46ed96e82430b", "fusion_lat": 0.0, "type": "electric_scooter", "lat": 38.866584333333336, "is_reserved": 0, "is_disabled": 0, "fusion_lon": 0.0, "bike_id": "e587061626fa40f36dc46ed96e82430b", "lon": -76.9889195, "rental_uris": {"ios": "https://dc.lft.to/lastmile_qr_scan", "android": "https://dc.lft.to/lastmile_qr_scan"}}, {"name": "ad5118e914578b9f2204de9b9f8579e4", "fusion_lat": 0.0, "type": "electric_scooter", "lat": 38.92242916666667, "is_reserved": 0, "is_disabled": 0, "fusion_lon": 0.0, "bike_id": "ad5118e914578b9f2204de9b9f8579e4", "lon": -77.0366375, "rental_uris": {"ios": "https://dc.lft.to/lastmile_qr_scan", "android": "https://dc.lft.to/lastmile_qr_scan"}}, {"name": "8b888f9c609507780d93d5a1499e7e9d", "fusion_lat": 0.0, "type": "electric_scooter", "lat": 38.9057635, "is_reserved": 0, "is_disabled": 0, "fusion_lon": 0.0, "bike_id": "8b888f9c609507780d93d5a1499e7e9d", "lon": -77.0220505, "rental_uris": {"ios": "https://dc.lft.to/lastmile_qr_scan", "android": "https://dc.lft.to/lastmile_qr_scan"}}, {"name": "f19fa0c6d5ce0f53706391e99b6eeab0", "fusion_lat": 0.0, "type": "electric_bike", "lat": 38.955569, "is_reserved": 0, "is_disabled": 0, "fusion_lon": 0.0, "bike_id": "f19fa0c6d5ce0f53706391e99b6eeab0", "lon": -77.070833, "rental_uris": {"ios": "https://dc.lft.to/lastmile_qr_scan", "android": "https://dc.lft.to/lastmile_qr_scan"}}, {"name": "48827b30b955b1bbe38a9740858f6292", "fusion_lat": 0.0, "type": "electric_scooter", "lat": 38.88613316666667, "is_reserved": 0, "is_disabled": 0, "fusion_lon": 0.0, "bike_id": "48827b30b955b1bbe38a9740858f6292", "lon": -77.0199605, "rental_uris": {"ios": "https://dc.lft.to/lastmile_qr_scan", "android": "https://dc.lft.to/lastmile_qr_scan"}}, {"name": "537519cdc0a79f6f6a0b2cb3714f2728", "fusion_lat": 0.0, "type": "electric_scooter", "lat": 38.90233216666667, "is_reserved": 0, "is_disabled": 0, "fusion_lon": 0.0, "bike_id": "537519cdc0a79f6f6a0b2cb3714f2728", "lon": -77.01537116666667, "rental_uris": {"ios": "https://dc.lft.to/lastmile_qr_scan", "android": "https://dc.lft.to/lastmile_qr_scan"}}, {"name": "aa401d0a90cbb5cc9432c2c8ef8ee818", "fusion_lat": 0.0, "type": "electric_scooter", "lat": 38.9026685, "is_reserved": 0, "is_disabled": 0, "fusion_lon": 0.0, "bike_id": "aa401d0a90cbb5cc9432c2c8ef8ee818", "lon": -77.01733483333334, "rental_uris": {"ios": "https://dc.lft.to/lastmile_qr_scan", "android": "https://dc.lft.to/lastmile_qr_scan"}}, {"name": "ffe9a63b43d2512621929cc38bab4e3f", "fusion_lat": 0.0, "type": "electric_bike", "lat": 38.94269966666667, "is_reserved": 0, "is_disabled": 0, "fusion_lon": 0.0, "bike_id": "ffe9a63b43d2512621929cc38bab4e3f", "lon": -76.98074716666666, "rental_uris": {"ios": "https://dc.lft.to/lastmile_qr_scan", "android": "https://dc.lft.to/lastmile_qr_scan"}}, {"name": "dc6d6756d333f31f55d6b16967b94cdc", "fusion_lat": 0.0, "type": "electric_scooter", "lat": 38.9422665, "is_reserved": 0, "is_disabled": 0, "fusion_lon": 0.0, "bike_id": "dc6d6756d333f31f55d6b16967b94cdc", "lon": -77.0215775, "rental_uris": {"ios": "https://dc.lft.to/lastmile_qr_scan", "android": "https://dc.lft.to/lastmile_qr_scan"}}, {"name": "3550e72a9b36b4de127aa42c159eaf6a", "fusion_lat": 0.0, "type": "electric_scooter", "lat": 38.921785166666666, "is_reserved": 0, "is_disabled": 0, "fusion_lon": 0.0, "bike_id": "3550e72a9b36b4de127aa42c159eaf6a", "lon": -77.02660066666667, "rental_uris": {"ios": "https://dc.lft.to/lastmile_qr_scan", "android": "https://dc.lft.to/lastmile_qr_scan"}}, {"name": "215e2cab7577100746b765e2cd59b659", "fusion_lat": 0.0, "type": "electric_bike", "lat": 38.87476683333333, "is_reserved": 0, "is_disabled": 0, "fusion_lon": 0.0, "bike_id": "215e2cab7577100746b765e2cd59b659", "lon": -76.96528183333334, "rental_uris": {"ios": "https://dc.lft.to/lastmile_qr_scan", "android": "https://dc.lft.to/lastmile_qr_scan"}}, {"name": "a9759e8d52acc8ebb359c0f0d6c09d08", "fusion_lat": 0.0, "type": "electric_scooter", "lat": 38.89219883333333, "is_reserved": 0, "is_disabled": 0, "fusion_lon": 0.0, "bike_id": "a9759e8d52acc8ebb359c0f0d6c09d08", "lon": -77.02232333333333, "rental_uris": {"ios": "https://dc.lft.to/lastmile_qr_scan", "android": "https://dc.lft.to/lastmile_qr_scan"}}, {"name": "7e7c77583e200e413104647b734275bb", "fusion_lat": 0.0, "type": "electric_scooter", "lat": 38.917727666666664, "is_reserved": 0, "is_disabled": 0, "fusion_lon": 0.0, "bike_id": "7e7c77583e200e413104647b734275bb", "lon": -77.02352466666666, "rental_uris": {"ios": "https://dc.lft.to/lastmile_qr_scan", "android": "https://dc.lft.to/lastmile_qr_scan"}}, {"name": "fe14469a39d217c9a7c778722f2d2fc7", "fusion_lat": 0.0, "type": "electric_scooter", "lat": 38.909583833333336, "is_reserved": 0, "is_disabled": 0, "fusion_lon": 0.0, "bike_id": "fe14469a39d217c9a7c778722f2d2fc7", "lon": -77.02745066666667, "rental_uris": {"ios": "https://dc.lft.to/lastmile_qr_scan", "android": "https://dc.lft.to/lastmile_qr_scan"}}, {"name": "f14e3ee5cbf4523a12317da4a65d129a", "fusion_lat": 0.0, "type": "electric_scooter", "lat": 38.8835295, "is_reserved": 0, "is_disabled": 0, "fusion_lon": 0.0, "bike_id": "f14e3ee5cbf4523a12317da4a65d129a", "lon": -77.02323966666667, "rental_uris": {"ios": "https://dc.lft.to/lastmile_qr_scan", "android": "https://dc.lft.to/lastmile_qr_scan"}}, {"name": "8e6b03462fce3ebc763f7e849f67a21d", "fusion_lat": 0.0, "type": "electric_bike", "lat": 38.967560166666665, "is_reserved": 0, "is_disabled": 0, "fusion_lon": 0.0, "bike_id": "8e6b03462fce3ebc763f7e849f67a21d", "lon": -77.091627, "rental_uris": {"ios": "https://dc.lft.to/lastmile_qr_scan", "android": "https://dc.lft.to/lastmile_qr_scan"}}, {"name": "8d97382c146dff998a4f9e44a973483c", "fusion_lat": 0.0, "type": "electric_scooter", "lat": 38.921772, "is_reserved": 0, "is_disabled": 0, "fusion_lon": 0.0, "bike_id": "8d97382c146dff998a4f9e44a973483c", "lon": -77.02658683333334, "rental_uris": {"ios": "https://dc.lft.to/lastmile_qr_scan", "android": "https://dc.lft.to/lastmile_qr_scan"}}, {"name": "e40e234d1aee7f7706c2d7e930ab66a2", "fusion_lat": 0.0, "type": "electric_scooter", "lat": 38.90583433333333, "is_reserved": 0, "is_disabled": 0, "fusion_lon": 0.0, "bike_id": "e40e234d1aee7f7706c2d7e930ab66a2", "lon": -77.03428833333334, "rental_uris": {"ios": "https://dc.lft.to/lastmile_qr_scan", "android": "https://dc.lft.to/lastmile_qr_scan"}}, {"name": "fa3d8da4dc7f255dc47713ff39ee8fe4", "fusion_lat": 0.0, "type": "electric_scooter", "lat": 38.897316333333336, "is_reserved": 0, "is_disabled": 0, "fusion_lon": 0.0, "bike_id": "fa3d8da4dc7f255dc47713ff39ee8fe4", "lon": -77.04952566666667, "rental_uris": {"ios": "https://dc.lft.to/lastmile_qr_scan", "android": "https://dc.lft.to/lastmile_qr_scan"}}, {"name": "16e4af932a8f378b6203448137cd22c1", "fusion_lat": 0.0, "type": "electric_bike", "lat": 38.86160666666667, "is_reserved": 0, "is_disabled": 0, "fusion_lon": 0.0, "bike_id": "16e4af932a8f378b6203448137cd22c1", "lon": -77.13094383333333, "rental_uris": {"ios": "https://dc.lft.to/lastmile_qr_scan", "android": "https://dc.lft.to/lastmile_qr_scan"}}, {"name": "4addfcc295d1fc3ff64c853ecc21a01e", "fusion_lat": 0.0, "type": "electric_scooter", "lat": 38.917372, "is_reserved": 0, "is_disabled": 0, "fusion_lon": 0.0, "bike_id": "4addfcc295d1fc3ff64c853ecc21a01e", "lon": -77.036406, "rental_uris": {"ios": "https://dc.lft.to/lastmile_qr_scan", "android": "https://dc.lft.to/lastmile_qr_scan"}}, {"name": "21ad8aa319ec4e191672a370a9f18aca", "fusion_lat": 0.0, "type": "electric_scooter", "lat": 38.914061, "is_reserved": 0, "is_disabled": 0, "fusion_lon": 0.0, "bike_id": "21ad8aa319ec4e191672a370a9f18aca", "lon": -77.0080825, "rental_uris": {"ios": "https://dc.lft.to/lastmile_qr_scan", "android": "https://dc.lft.to/lastmile_qr_scan"}}, {"name": "a749fd5b4c839fc12dd5a3482e2a3934", "fusion_lat": 0.0, "type": "electric_scooter", "lat": 38.91333983333333, "is_reserved": 0, "is_disabled": 0, "fusion_lon": 0.0, "bike_id": "a749fd5b4c839fc12dd5a3482e2a3934", "lon": -77.00228766666666, "rental_uris": {"ios": "https://dc.lft.to/lastmile_qr_scan", "android": "https://dc.lft.to/lastmile_qr_scan"}}, {"name": "e7b5502daf93956863d09e41428fedc9", "fusion_lat": 0.0, "type": "electric_bike", "lat": 38.90476566666667, "is_reserved": 0, "is_disabled": 0, "fusion_lon": 0.0, "bike_id": "e7b5502daf93956863d09e41428fedc9", "lon": -77.026999, "rental_uris": {"ios": "https://dc.lft.to/lastmile_qr_scan", "android": "https://dc.lft.to/lastmile_qr_scan"}}, {"name": "4c173194c4543b3a02671ce4c0104a81", "fusion_lat": 0.0, "type": "electric_scooter", "lat": 38.87639, "is_reserved": 0, "is_disabled": 0, "fusion_lon": 0.0, "bike_id": "4c173194c4543b3a02671ce4c0104a81", "lon": -77.00836683333333, "rental_uris": {"ios": "https://dc.lft.to/lastmile_qr_scan", "android": "https://dc.lft.to/lastmile_qr_scan"}}, {"name": "cbed84e5ef14e4dea49b75fc49afb079", "fusion_lat": 0.0, "type": "electric_scooter", "lat": 38.905593333333336, "is_reserved": 0, "is_disabled": 0, "fusion_lon": 0.0, "bike_id": "cbed84e5ef14e4dea49b75fc49afb079", "lon": -77.0181445, "rental_uris": {"ios": "https://dc.lft.to/lastmile_qr_scan", "android": "https://dc.lft.to/lastmile_qr_scan"}}, {"name": "66135c1f814d2bfa541e5bef21962974", "fusion_lat": 0.0, "type": "electric_scooter", "lat": 38.90235933333334, "is_reserved": 0, "is_disabled": 0, "fusion_lon": 0.0, "bike_id": "66135c1f814d2bfa541e5bef21962974", "lon": -76.97409283333333, "rental_uris": {"ios": "https://dc.lft.to/lastmile_qr_scan", "android": "https://dc.lft.to/lastmile_qr_scan"}}, {"name": "b4e21352c7458edcf9653f5401f6e42b", "fusion_lat": 0.0, "type": "electric_scooter", "lat": 38.90574766666667, "is_reserved": 0, "is_disabled": 0, "fusion_lon": 0.0, "bike_id": "b4e21352c7458edcf9653f5401f6e42b", "lon": -77.00264016666667, "rental_uris": {"ios": "https://dc.lft.to/lastmile_qr_scan", "android": "https://dc.lft.to/lastmile_qr_scan"}}, {"name": "650ea3fa784dc10910fd670195a792c3", "fusion_lat": 0.0, "type": "electric_scooter", "lat": 38.917012166666666, "is_reserved": 0, "is_disabled": 0, "fusion_lon": 0.0, "bike_id": "650ea3fa784dc10910fd670195a792c3", "lon": -77.03937366666666, "rental_uris": {"ios": "https://dc.lft.to/lastmile_qr_scan", "android": "https://dc.lft.to/lastmile_qr_scan"}}, {"name": "306993d5d88b64733e5939c4ebf52faa", "fusion_lat": 0.0, "type": "electric_scooter", "lat": 38.91415933333333, "is_reserved": 0, "is_disabled": 0, "fusion_lon": 0.0, "bike_id": "306993d5d88b64733e5939c4ebf52faa", "lon": -77.00974716666667, "rental_uris": {"ios": "https://dc.lft.to/lastmile_qr_scan", "android": "https://dc.lft.to/lastmile_qr_scan"}}, {"name": "0b827d082339d35bd4f807a0d9bdbd63", "fusion_lat": 0.0, "type": "electric_scooter", "lat": 38.91870316666667, "is_reserved": 0, "is_disabled": 0, "fusion_lon": 0.0, "bike_id": "0b827d082339d35bd4f807a0d9bdbd63", "lon": -77.0350605, "rental_uris": {"ios": "https://dc.lft.to/lastmile_qr_scan", "android": "https://dc.lft.to/lastmile_qr_scan"}}, {"name": "545166110547d991e25be325a2e0b99a", "fusion_lat": 0.0, "type": "electric_scooter", "lat": 38.895909, "is_reserved": 0, "is_disabled": 0, "fusion_lon": 0.0, "bike_id": "545166110547d991e25be325a2e0b99a", "lon": -76.948546, "rental_uris": {"ios": "https://dc.lft.to/lastmile_qr_scan", "android": "https://dc.lft.to/lastmile_qr_scan"}}, {"name": "90083013e6d0b032c0e5cf54018eb70a", "fusion_lat": 0.0, "type": "electric_bike", "lat": 38.896502, "is_reserved": 0, "is_disabled": 0, "fusion_lon": 0.0, "bike_id": "90083013e6d0b032c0e5cf54018eb70a", "lon": -77.104564, "rental_uris": {"ios": "https://dc.lft.to/lastmile_qr_scan", "android": "https://dc.lft.to/lastmile_qr_scan"}}, {"name": "da517c86b018225bd4ce0671272aea10", "fusion_lat": 0.0, "type": "electric_bike", "lat": 38.86868616666667, "is_reserved": 0, "is_disabled": 0, "fusion_lon": 0.0, "bike_id": "da517c86b018225bd4ce0671272aea10", "lon": -76.91663683333333, "rental_uris": {"ios": "https://dc.lft.to/lastmile_qr_scan", "android": "https://dc.lft.to/lastmile_qr_scan"}}, {"name": "c5dffdf543b976ee6d152bf6371db785", "fusion_lat": 0.0, "type": "electric_scooter", "lat": 38.923564666666664, "is_reserved": 0, "is_disabled": 0, "fusion_lon": 0.0, "bike_id": "c5dffdf543b976ee6d152bf6371db785", "lon": -77.0505655, "rental_uris": {"ios": "https://dc.lft.to/lastmile_qr_scan", "android": "https://dc.lft.to/lastmile_qr_scan"}}, {"name": "ffed145b6357dde2e867ad6702b2b7ca", "fusion_lat": 0.0, "type": "electric_scooter", "lat": 38.87474, "is_reserved": 0, "is_disabled": 0, "fusion_lon": 0.0, "bike_id": "ffed145b6357dde2e867ad6702b2b7ca", "lon": -77.010631, "rental_uris": {"ios": "https://dc.lft.to/lastmile_qr_scan", "android": "https://dc.lft.to/lastmile_qr_scan"}}, {"name": "12a7a6af9222c4ae89487c3e312724e2", "fusion_lat": 0.0, "type": "electric_scooter", "lat": 38.91540116666667, "is_reserved": 0, "is_disabled": 0, "fusion_lon": 0.0, "bike_id": "12a7a6af9222c4ae89487c3e312724e2", "lon": -77.038559, "rental_uris": {"ios": "https://dc.lft.to/lastmile_qr_scan", "android": "https://dc.lft.to/lastmile_qr_scan"}}, {"name": "629ecc7e1d48fccc8cf3de167b675269", "fusion_lat": 0.0, "type": "electric_scooter", "lat": 38.921777666666664, "is_reserved": 0, "is_disabled": 0, "fusion_lon": 0.0, "bike_id": "629ecc7e1d48fccc8cf3de167b675269", "lon": -77.02418483333334, "rental_uris": {"ios": "https://dc.lft.to/lastmile_qr_scan", "android": "https://dc.lft.to/lastmile_qr_scan"}}, {"name": "5d34222b1af27fefa973ba78b62f562e", "fusion_lat": 0.0, "type": "electric_scooter", "lat": 38.907855833333336, "is_reserved": 0, "is_disabled": 0, "fusion_lon": 0.0, "bike_id": "5d34222b1af27fefa973ba78b62f562e", "lon": -77.03836833333334, "rental_uris": {"ios": "https://dc.lft.to/lastmile_qr_scan", "android": "https://dc.lft.to/lastmile_qr_scan"}}, {"name": "db3016c67eabea78e692f2efdbe012c8", "fusion_lat": 0.0, "type": "electric_scooter", "lat": 38.89792516666667, "is_reserved": 0, "is_disabled": 0, "fusion_lon": 0.0, "bike_id": "db3016c67eabea78e692f2efdbe012c8", "lon": -76.94420283333334, "rental_uris": {"ios": "https://dc.lft.to/lastmile_qr_scan", "android": "https://dc.lft.to/lastmile_qr_scan"}}, {"name": "42ac6314885213c57744ede74b8e9230", "fusion_lat": 0.0, "type": "electric_scooter", "lat": 38.92339233333333, "is_reserved": 0, "is_disabled": 0, "fusion_lon": 0.0, "bike_id": "42ac6314885213c57744ede74b8e9230", "lon": -77.03663166666666, "rental_uris": {"ios": "https://dc.lft.to/lastmile_qr_scan", "android": "https://dc.lft.to/lastmile_qr_scan"}}, {"name": "cd2f1eda5c072567a719a5df92a2c310", "fusion_lat": 0.0, "type": "electric_scooter", "lat": 38.93537333333333, "is_reserved": 0, "is_disabled": 0, "fusion_lon": 0.0, "bike_id": "cd2f1eda5c072567a719a5df92a2c310", "lon": -77.034236, "rental_uris": {"ios": "https://dc.lft.to/lastmile_qr_scan", "android": "https://dc.lft.to/lastmile_qr_scan"}}, {"name": "f3cda3d0650a8698ce3c28b68b6eb0f8", "fusion_lat": 0.0, "type": "electric_scooter", "lat": 38.91236983333334, "is_reserved": 0, "is_disabled": 0, "fusion_lon": 0.0, "bike_id": "f3cda3d0650a8698ce3c28b68b6eb0f8", "lon": -77.00922416666667, "rental_uris": {"ios": "https://dc.lft.to/lastmile_qr_scan", "android": "https://dc.lft.to/lastmile_qr_scan"}}, {"name": "6c2f3ce5d933e54bbb354be030a30476", "fusion_lat": 0.0, "type": "electric_scooter", "lat": 38.9027765, "is_reserved": 0, "is_disabled": 0, "fusion_lon": 0.0, "bike_id": "6c2f3ce5d933e54bbb354be030a30476", "lon": -76.99859716666667, "rental_uris": {"ios": "https://dc.lft.to/lastmile_qr_scan", "android": "https://dc.lft.to/lastmile_qr_scan"}}, {"name": "4d4def87d72bb936f8efd3e1ce4c63ed", "fusion_lat": 0.0, "type": "electric_scooter", "lat": 38.90523683333333, "is_reserved": 0, "is_disabled": 0, "fusion_lon": 0.0, "bike_id": "4d4def87d72bb936f8efd3e1ce4c63ed", "lon": -77.05004833333334, "rental_uris": {"ios": "https://dc.lft.to/lastmile_qr_scan", "android": "https://dc.lft.to/lastmile_qr_scan"}}, {"name": "fb7786be4647e14eebb7d24621c0fb34", "fusion_lat": 0.0, "type": "electric_scooter", "lat": 38.922355333333336, "is_reserved": 0, "is_disabled": 0, "fusion_lon": 0.0, "bike_id": "fb7786be4647e14eebb7d24621c0fb34", "lon": -77.02983433333333, "rental_uris": {"ios": "https://dc.lft.to/lastmile_qr_scan", "android": "https://dc.lft.to/lastmile_qr_scan"}}, {"name": "f2492c8c09f76d0088ee2f0b74516b8f", "fusion_lat": 0.0, "type": "electric_scooter", "lat": 38.92122966666667, "is_reserved": 0, "is_disabled": 0, "fusion_lon": 0.0, "bike_id": "f2492c8c09f76d0088ee2f0b74516b8f", "lon": -77.04107833333333, "rental_uris": {"ios": "https://dc.lft.to/lastmile_qr_scan", "android": "https://dc.lft.to/lastmile_qr_scan"}}, {"name": "16e61d2bad250e3a8d0b776fd75be5ed", "fusion_lat": 0.0, "type": "electric_scooter", "lat": 38.91272416666666, "is_reserved": 0, "is_disabled": 0, "fusion_lon": 0.0, "bike_id": "16e61d2bad250e3a8d0b776fd75be5ed", "lon": -77.022139, "rental_uris": {"ios": "https://dc.lft.to/lastmile_qr_scan", "android": "https://dc.lft.to/lastmile_qr_scan"}}, {"name": "b164f8071144f25e6317273733d9a866", "fusion_lat": 0.0, "type": "electric_scooter", "lat": 38.906611, "is_reserved": 0, "is_disabled": 0, "fusion_lon": 0.0, "bike_id": "b164f8071144f25e6317273733d9a866", "lon": -77.03855483333334, "rental_uris": {"ios": "https://dc.lft.to/lastmile_qr_scan", "android": "https://dc.lft.to/lastmile_qr_scan"}}, {"name": "56903e30f3c284cfaeb3f7603abae8cc", "fusion_lat": 0.0, "type": "electric_bike", "lat": 38.964947, "is_reserved": 0, "is_disabled": 0, "fusion_lon": 0.0, "bike_id": "56903e30f3c284cfaeb3f7603abae8cc", "lon": -77.06496983333334, "rental_uris": {"ios": "https://dc.lft.to/lastmile_qr_scan", "android": "https://dc.lft.to/lastmile_qr_scan"}}, {"name": "eb377475bfa716631e7f428d28b6d8b7", "fusion_lat": 0.0, "type": "electric_scooter", "lat": 38.91852316666667, "is_reserved": 0, "is_disabled": 0, "fusion_lon": 0.0, "bike_id": "eb377475bfa716631e7f428d28b6d8b7", "lon": -77.02451516666666, "rental_uris": {"ios": "https://dc.lft.to/lastmile_qr_scan", "android": "https://dc.lft.to/lastmile_qr_scan"}}, {"name": "670ec5cd3345641ebe36f9ca8442ff96", "fusion_lat": 0.0, "type": "electric_scooter", "lat": 38.94231966666667, "is_reserved": 0, "is_disabled": 0, "fusion_lon": 0.0, "bike_id": "670ec5cd3345641ebe36f9ca8442ff96", "lon": -77.01547716666667, "rental_uris": {"ios": "https://dc.lft.to/lastmile_qr_scan", "android": "https://dc.lft.to/lastmile_qr_scan"}}, {"name": "827a3ea875e03f57c8a6609c75b83f78", "fusion_lat": 0.0, "type": "electric_scooter", "lat": 38.90699633333333, "is_reserved": 0, "is_disabled": 0, "fusion_lon": 0.0, "bike_id": "827a3ea875e03f57c8a6609c75b83f78", "lon": -77.04142616666667, "rental_uris": {"ios": "https://dc.lft.to/lastmile_qr_scan", "android": "https://dc.lft.to/lastmile_qr_scan"}}, {"name": "09fed2f3e7c64f032cec25b90e9519c1", "fusion_lat": 0.0, "type": "electric_scooter", "lat": 38.902725, "is_reserved": 0, "is_disabled": 0, "fusion_lon": 0.0, "bike_id": "09fed2f3e7c64f032cec25b90e9519c1", "lon": -77.0300225, "rental_uris": {"ios": "https://dc.lft.to/lastmile_qr_scan", "android": "https://dc.lft.to/lastmile_qr_scan"}}, {"name": "fd04db800fc448d94d6286a1da0e705e", "fusion_lat": 0.0, "type": "electric_scooter", "lat": 38.90266466666667, "is_reserved": 0, "is_disabled": 0, "fusion_lon": 0.0, "bike_id": "fd04db800fc448d94d6286a1da0e705e", "lon": -77.05386083333333, "rental_uris": {"ios": "https://dc.lft.to/lastmile_qr_scan", "android": "https://dc.lft.to/lastmile_qr_scan"}}, {"name": "dd19b626d0a1ea949b8873d5138cf843", "fusion_lat": 0.0, "type": "electric_scooter", "lat": 38.832271166666665, "is_reserved": 0, "is_disabled": 0, "fusion_lon": 0.0, "bike_id": "dd19b626d0a1ea949b8873d5138cf843", "lon": -76.98892433333333, "rental_uris": {"ios": "https://dc.lft.to/lastmile_qr_scan", "android": "https://dc.lft.to/lastmile_qr_scan"}}, {"name": "51c240230c13d46012071fb8e8b03915", "fusion_lat": 0.0, "type": "electric_scooter", "lat": 38.92465383333333, "is_reserved": 0, "is_disabled": 0, "fusion_lon": 0.0, "bike_id": "51c240230c13d46012071fb8e8b03915", "lon": -77.0271145, "rental_uris": {"ios": "https://dc.lft.to/lastmile_qr_scan", "android": "https://dc.lft.to/lastmile_qr_scan"}}, {"name": "e06ce5282dc1a7099a5ea30967c17f45", "fusion_lat": 0.0, "type": "electric_bike", "lat": 38.843446, "is_reserved": 0, "is_disabled": 0, "fusion_lon": 0.0, "bike_id": "e06ce5282dc1a7099a5ea30967c17f45", "lon": -77.064089, "rental_uris": {"ios": "https://dc.lft.to/lastmile_qr_scan", "android": "https://dc.lft.to/lastmile_qr_scan"}}, {"name": "8603b7bb45e5743a9e78a9f24a76797e", "fusion_lat": 0.0, "type": "electric_scooter", "lat": 38.8958915, "is_reserved": 0, "is_disabled": 0, "fusion_lon": 0.0, "bike_id": "8603b7bb45e5743a9e78a9f24a76797e", "lon": -77.0426775, "rental_uris": {"ios": "https://dc.lft.to/lastmile_qr_scan", "android": "https://dc.lft.to/lastmile_qr_scan"}}, {"name": "b91abf44d292170dbf00f730acb4756a", "fusion_lat": 0.0, "type": "electric_bike", "lat": 38.97518516666667, "is_reserved": 0, "is_disabled": 0, "fusion_lon": 0.0, "bike_id": "b91abf44d292170dbf00f730acb4756a", "lon": -77.01690533333333, "rental_uris": {"ios": "https://dc.lft.to/lastmile_qr_scan", "android": "https://dc.lft.to/lastmile_qr_scan"}}, {"name": "ce2a444d9f7251194facba8a494ce898", "fusion_lat": 0.0, "type": "electric_scooter", "lat": 38.9275835, "is_reserved": 0, "is_disabled": 0, "fusion_lon": 0.0, "bike_id": "ce2a444d9f7251194facba8a494ce898", "lon": -77.02426166666666, "rental_uris": {"ios": "https://dc.lft.to/lastmile_qr_scan", "android": "https://dc.lft.to/lastmile_qr_scan"}}, {"name": "74e7cf033d206f6e3d430fee6f0e63fc", "fusion_lat": 0.0, "type": "electric_scooter", "lat": 38.877050833333335, "is_reserved": 0, "is_disabled": 0, "fusion_lon": 0.0, "bike_id": "74e7cf033d206f6e3d430fee6f0e63fc", "lon": -77.01766933333333, "rental_uris": {"ios": "https://dc.lft.to/lastmile_qr_scan", "android": "https://dc.lft.to/lastmile_qr_scan"}}, {"name": "8fb7b6850b6f55c94100673b547c1332", "fusion_lat": 0.0, "type": "electric_scooter", "lat": 38.88342933333333, "is_reserved": 0, "is_disabled": 0, "fusion_lon": 0.0, "bike_id": "8fb7b6850b6f55c94100673b547c1332", "lon": -76.93647366666667, "rental_uris": {"ios": "https://dc.lft.to/lastmile_qr_scan", "android": "https://dc.lft.to/lastmile_qr_scan"}}, {"name": "c4ead1ce49c9107719fc6aaa67b12857", "fusion_lat": 0.0, "type": "electric_scooter", "lat": 38.91293183333333, "is_reserved": 0, "is_disabled": 0, "fusion_lon": 0.0, "bike_id": "c4ead1ce49c9107719fc6aaa67b12857", "lon": -77.02973566666667, "rental_uris": {"ios": "https://dc.lft.to/lastmile_qr_scan", "android": "https://dc.lft.to/lastmile_qr_scan"}}, {"name": "973094e02a8fca28e1e0844596acd573", "fusion_lat": 0.0, "type": "electric_scooter", "lat": 38.8993265, "is_reserved": 0, "is_disabled": 0, "fusion_lon": 0.0, "bike_id": "973094e02a8fca28e1e0844596acd573", "lon": -77.02811683333333, "rental_uris": {"ios": "https://dc.lft.to/lastmile_qr_scan", "android": "https://dc.lft.to/lastmile_qr_scan"}}, {"name": "5b19f65322e4c1787d2c2770d903002b", "fusion_lat": 0.0, "type": "electric_scooter", "lat": 38.92698716666666, "is_reserved": 0, "is_disabled": 0, "fusion_lon": 0.0, "bike_id": "5b19f65322e4c1787d2c2770d903002b", "lon": -77.037343, "rental_uris": {"ios": "https://dc.lft.to/lastmile_qr_scan", "android": "https://dc.lft.to/lastmile_qr_scan"}}, {"name": "eefd7c1b9bae07ee336af68b352be7fd", "fusion_lat": 0.0, "type": "electric_scooter", "lat": 38.9181845, "is_reserved": 0, "is_disabled": 0, "fusion_lon": 0.0, "bike_id": "eefd7c1b9bae07ee336af68b352be7fd", "lon": -77.002592, "rental_uris": {"ios": "https://dc.lft.to/lastmile_qr_scan", "android": "https://dc.lft.to/lastmile_qr_scan"}}, {"name": "4526286f198644c5ebbf627bc51a2386", "fusion_lat": 0.0, "type": "electric_scooter", "lat": 38.895804166666665, "is_reserved": 0, "is_disabled": 0, "fusion_lon": 0.0, "bike_id": "4526286f198644c5ebbf627bc51a2386", "lon": -77.04331666666667, "rental_uris": {"ios": "https://dc.lft.to/lastmile_qr_scan", "android": "https://dc.lft.to/lastmile_qr_scan"}}, {"name": "293243045544e47a9cbb29eac811bdfb", "fusion_lat": 0.0, "type": "electric_scooter", "lat": 38.930586166666664, "is_reserved": 0, "is_disabled": 0, "fusion_lon": 0.0, "bike_id": "293243045544e47a9cbb29eac811bdfb", "lon": -77.02328433333334, "rental_uris": {"ios": "https://dc.lft.to/lastmile_qr_scan", "android": "https://dc.lft.to/lastmile_qr_scan"}}, {"name": "cbeb54888d8efbb1fcde370c6dd6c1c4", "fusion_lat": 0.0, "type": "electric_scooter", "lat": 38.901924666666666, "is_reserved": 0, "is_disabled": 0, "fusion_lon": 0.0, "bike_id": "cbeb54888d8efbb1fcde370c6dd6c1c4", "lon": -77.02186533333334, "rental_uris": {"ios": "https://dc.lft.to/lastmile_qr_scan", "android": "https://dc.lft.to/lastmile_qr_scan"}}, {"name": "c6bb3104d06264421aa5d96e43757968", "fusion_lat": 0.0, "type": "electric_bike", "lat": 38.95302516666667, "is_reserved": 0, "is_disabled": 0, "fusion_lon": 0.0, "bike_id": "c6bb3104d06264421aa5d96e43757968", "lon": -77.0250775, "rental_uris": {"ios": "https://dc.lft.to/lastmile_qr_scan", "android": "https://dc.lft.to/lastmile_qr_scan"}}, {"name": "19973d87ba75d8b9a99837b4b5005642", "fusion_lat": 0.0, "type": "electric_scooter", "lat": 38.899716166666664, "is_reserved": 0, "is_disabled": 0, "fusion_lon": 0.0, "bike_id": "19973d87ba75d8b9a99837b4b5005642", "lon": -77.01908366666666, "rental_uris": {"ios": "https://dc.lft.to/lastmile_qr_scan", "android": "https://dc.lft.to/lastmile_qr_scan"}}, {"name": "badfee01ce6542ca5ce155661b8c29a7", "fusion_lat": 0.0, "type": "electric_bike", "lat": 38.935822, "is_reserved": 0, "is_disabled": 0, "fusion_lon": 0.0, "bike_id": "badfee01ce6542ca5ce155661b8c29a7", "lon": -77.10687266666666, "rental_uris": {"ios": "https://dc.lft.to/lastmile_qr_scan", "android": "https://dc.lft.to/lastmile_qr_scan"}}, {"name": "9ea8e139442c8b432792bb91c1d6f2da", "fusion_lat": 0.0, "type": "electric_scooter", "lat": 38.9372535, "is_reserved": 0, "is_disabled": 0, "fusion_lon": 0.0, "bike_id": "9ea8e139442c8b432792bb91c1d6f2da", "lon": -77.03265466666667, "rental_uris": {"ios": "https://dc.lft.to/lastmile_qr_scan", "android": "https://dc.lft.to/lastmile_qr_scan"}}, {"name": "5de2f14792165c218795137fe53081af", "fusion_lat": 0.0, "type": "electric_scooter", "lat": 38.91194333333333, "is_reserved": 0, "is_disabled": 0, "fusion_lon": 0.0, "bike_id": "5de2f14792165c218795137fe53081af", "lon": -77.032109, "rental_uris": {"ios": "https://dc.lft.to/lastmile_qr_scan", "android": "https://dc.lft.to/lastmile_qr_scan"}}, {"name": "4dbdb5934af6c75f295224b5112ed240", "fusion_lat": 0.0, "type": "electric_scooter", "lat": 38.902819, "is_reserved": 0, "is_disabled": 0, "fusion_lon": 0.0, "bike_id": "4dbdb5934af6c75f295224b5112ed240", "lon": -77.042648, "rental_uris": {"ios": "https://dc.lft.to/lastmile_qr_scan", "android": "https://dc.lft.to/lastmile_qr_scan"}}, {"name": "b3a4cb7e9cd359e6c7eadc07a892bc07", "fusion_lat": 0.0, "type": "electric_scooter", "lat": 38.905203666666665, "is_reserved": 0, "is_disabled": 0, "fusion_lon": 0.0, "bike_id": "b3a4cb7e9cd359e6c7eadc07a892bc07", "lon": -77.066807, "rental_uris": {"ios": "https://dc.lft.to/lastmile_qr_scan", "android": "https://dc.lft.to/lastmile_qr_scan"}}, {"name": "30437a460a85ce76f9d8cf4fe9734efe", "fusion_lat": 0.0, "type": "electric_scooter", "lat": 38.9446015, "is_reserved": 0, "is_disabled": 0, "fusion_lon": 0.0, "bike_id": "30437a460a85ce76f9d8cf4fe9734efe", "lon": -77.00654066666667, "rental_uris": {"ios": "https://dc.lft.to/lastmile_qr_scan", "android": "https://dc.lft.to/lastmile_qr_scan"}}, {"name": "1f1e53ef7f1106319b42d2ba3acc93d9", "fusion_lat": 0.0, "type": "electric_scooter", "lat": 38.912558833333335, "is_reserved": 0, "is_disabled": 0, "fusion_lon": 0.0, "bike_id": "1f1e53ef7f1106319b42d2ba3acc93d9", "lon": -77.00766216666666, "rental_uris": {"ios": "https://dc.lft.to/lastmile_qr_scan", "android": "https://dc.lft.to/lastmile_qr_scan"}}, {"name": "38cfdcbbbcbeb72124918f27a32e0ebf", "fusion_lat": 0.0, "type": "electric_scooter", "lat": 38.8791985, "is_reserved": 0, "is_disabled": 0, "fusion_lon": 0.0, "bike_id": "38cfdcbbbcbeb72124918f27a32e0ebf", "lon": -77.00775566666667, "rental_uris": {"ios": "https://dc.lft.to/lastmile_qr_scan", "android": "https://dc.lft.to/lastmile_qr_scan"}}, {"name": "3e1a437a51c1c77fd1793e59c2f84ca7", "fusion_lat": 0.0, "type": "electric_scooter", "lat": 38.9187685, "is_reserved": 0, "is_disabled": 0, "fusion_lon": 0.0, "bike_id": "3e1a437a51c1c77fd1793e59c2f84ca7", "lon": -77.03508083333334, "rental_uris": {"ios": "https://dc.lft.to/lastmile_qr_scan", "android": "https://dc.lft.to/lastmile_qr_scan"}}, {"name": "1f91c2df0e476bfc2dee1a1f03085434", "fusion_lat": 0.0, "type": "electric_scooter", "lat": 38.921432833333334, "is_reserved": 0, "is_disabled": 0, "fusion_lon": 0.0, "bike_id": "1f91c2df0e476bfc2dee1a1f03085434", "lon": -77.03514616666666, "rental_uris": {"ios": "https://dc.lft.to/lastmile_qr_scan", "android": "https://dc.lft.to/lastmile_qr_scan"}}, {"name": "38fe82d6466113ac409f960dc3462367", "fusion_lat": 0.0, "type": "electric_scooter", "lat": 38.9312615, "is_reserved": 0, "is_disabled": 0, "fusion_lon": 0.0, "bike_id": "38fe82d6466113ac409f960dc3462367", "lon": -77.02822483333334, "rental_uris": {"ios": "https://dc.lft.to/lastmile_qr_scan", "android": "https://dc.lft.to/lastmile_qr_scan"}}, {"name": "42805833d6ab8890b2bfcfeb3b64c078", "fusion_lat": 0.0, "type": "electric_bike", "lat": 38.942013333333335, "is_reserved": 0, "is_disabled": 0, "fusion_lon": 0.0, "bike_id": "42805833d6ab8890b2bfcfeb3b64c078", "lon": -76.9663365, "rental_uris": {"ios": "https://dc.lft.to/lastmile_qr_scan", "android": "https://dc.lft.to/lastmile_qr_scan"}}, {"name": "f380f7d90874f0b16d98ff2f238e9194", "fusion_lat": 0.0, "type": "electric_scooter", "lat": 38.9142455, "is_reserved": 0, "is_disabled": 0, "fusion_lon": 0.0, "bike_id": "f380f7d90874f0b16d98ff2f238e9194", "lon": -77.03187583333333, "rental_uris": {"ios": "https://dc.lft.to/lastmile_qr_scan", "android": "https://dc.lft.to/lastmile_qr_scan"}}, {"name": "f4013e4865783d9dce5747c81fcc6dbd", "fusion_lat": 0.0, "type": "electric_scooter", "lat": 38.89329633333333, "is_reserved": 0, "is_disabled": 0, "fusion_lon": 0.0, "bike_id": "f4013e4865783d9dce5747c81fcc6dbd", "lon": -76.92891433333334, "rental_uris": {"ios": "https://dc.lft.to/lastmile_qr_scan", "android": "https://dc.lft.to/lastmile_qr_scan"}}, {"name": "adb2a520514109a476deec900e292816", "fusion_lat": 0.0, "type": "electric_scooter", "lat": 38.874219833333335, "is_reserved": 0, "is_disabled": 0, "fusion_lon": 0.0, "bike_id": "adb2a520514109a476deec900e292816", "lon": -77.02061133333333, "rental_uris": {"ios": "https://dc.lft.to/lastmile_qr_scan", "android": "https://dc.lft.to/lastmile_qr_scan"}}, {"name": "c2493ffa8c0ff8c2efbc93a0470747bc", "fusion_lat": 0.0, "type": "electric_scooter", "lat": 38.91859516666667, "is_reserved": 0, "is_disabled": 0, "fusion_lon": 0.0, "bike_id": "c2493ffa8c0ff8c2efbc93a0470747bc", "lon": -77.04593666666666, "rental_uris": {"ios": "https://dc.lft.to/lastmile_qr_scan", "android": "https://dc.lft.to/lastmile_qr_scan"}}, {"name": "7e3258da34a51af994f7bc5efe96a884", "fusion_lat": 0.0, "type": "electric_scooter", "lat": 38.927855666666666, "is_reserved": 0, "is_disabled": 0, "fusion_lon": 0.0, "bike_id": "7e3258da34a51af994f7bc5efe96a884", "lon": -77.03257683333334, "rental_uris": {"ios": "https://dc.lft.to/lastmile_qr_scan", "android": "https://dc.lft.to/lastmile_qr_scan"}}, {"name": "394706fa6e8ccff79e4b586eda6bbf30", "fusion_lat": 0.0, "type": "electric_scooter", "lat": 38.863708333333335, "is_reserved": 0, "is_disabled": 0, "fusion_lon": 0.0, "bike_id": "394706fa6e8ccff79e4b586eda6bbf30", "lon": -77.01360133333333, "rental_uris": {"ios": "https://dc.lft.to/lastmile_qr_scan", "android": "https://dc.lft.to/lastmile_qr_scan"}}, {"name": "18286ed57b23da25fc01fc349d0c0ded", "fusion_lat": 0.0, "type": "electric_scooter", "lat": 38.885280333333334, "is_reserved": 0, "is_disabled": 0, "fusion_lon": 0.0, "bike_id": "18286ed57b23da25fc01fc349d0c0ded", "lon": -77.03345066666667, "rental_uris": {"ios": "https://dc.lft.to/lastmile_qr_scan", "android": "https://dc.lft.to/lastmile_qr_scan"}}, {"name": "a3939e3af9813d505ae8b875617198fa", "fusion_lat": 0.0, "type": "electric_scooter", "lat": 38.900183166666665, "is_reserved": 0, "is_disabled": 0, "fusion_lon": 0.0, "bike_id": "a3939e3af9813d505ae8b875617198fa", "lon": -76.99695816666667, "rental_uris": {"ios": "https://dc.lft.to/lastmile_qr_scan", "android": "https://dc.lft.to/lastmile_qr_scan"}}, {"name": "82209dbb8f6019dd6c9e13bd459b3572", "fusion_lat": 0.0, "type": "electric_scooter", "lat": 38.919248333333336, "is_reserved": 0, "is_disabled": 0, "fusion_lon": 0.0, "bike_id": "82209dbb8f6019dd6c9e13bd459b3572", "lon": -77.02370766666667, "rental_uris": {"ios": "https://dc.lft.to/lastmile_qr_scan", "android": "https://dc.lft.to/lastmile_qr_scan"}}, {"name": "5e94261d46a64c85975946c9e434c2c9", "fusion_lat": 0.0, "type": "electric_scooter", "lat": 38.902576833333335, "is_reserved": 0, "is_disabled": 0, "fusion_lon": 0.0, "bike_id": "5e94261d46a64c85975946c9e434c2c9", "lon": -77.03210483333334, "rental_uris": {"ios": "https://dc.lft.to/lastmile_qr_scan", "android": "https://dc.lft.to/lastmile_qr_scan"}}, {"name": "678c8614e903d88c4b8099bad99a002f", "fusion_lat": 0.0, "type": "electric_scooter", "lat": 38.904765, "is_reserved": 0, "is_disabled": 0, "fusion_lon": 0.0, "bike_id": "678c8614e903d88c4b8099bad99a002f", "lon": -77.04154783333334, "rental_uris": {"ios": "https://dc.lft.to/lastmile_qr_scan", "android": "https://dc.lft.to/lastmile_qr_scan"}}, {"name": "8cf11a3428d612e0af55a4f7ad0e5e6d", "fusion_lat": 0.0, "type": "electric_scooter", "lat": 38.918181833333335, "is_reserved": 0, "is_disabled": 0, "fusion_lon": 0.0, "bike_id": "8cf11a3428d612e0af55a4f7ad0e5e6d", "lon": -77.011502, "rental_uris": {"ios": "https://dc.lft.to/lastmile_qr_scan", "android": "https://dc.lft.to/lastmile_qr_scan"}}, {"name": "b44aed530600f885d65da359cb6f5be4", "fusion_lat": 0.0, "type": "electric_scooter", "lat": 38.925111333333334, "is_reserved": 0, "is_disabled": 0, "fusion_lon": 0.0, "bike_id": "b44aed530600f885d65da359cb6f5be4", "lon": -77.0239065, "rental_uris": {"ios": "https://dc.lft.to/lastmile_qr_scan", "android": "https://dc.lft.to/lastmile_qr_scan"}}, {"name": "e85a892cb2be10c890d6eb4b15422f3a", "fusion_lat": 0.0, "type": "electric_scooter", "lat": 38.897335, "is_reserved": 0, "is_disabled": 0, "fusion_lon": 0.0, "bike_id": "e85a892cb2be10c890d6eb4b15422f3a", "lon": -77.04658783333333, "rental_uris": {"ios": "https://dc.lft.to/lastmile_qr_scan", "android": "https://dc.lft.to/lastmile_qr_scan"}}, {"name": "4bcbc4df99d3c0d33ceb1e1a34e17721", "fusion_lat": 0.0, "type": "electric_scooter", "lat": 38.89226716666667, "is_reserved": 0, "is_disabled": 0, "fusion_lon": 0.0, "bike_id": "4bcbc4df99d3c0d33ceb1e1a34e17721", "lon": -77.04506783333333, "rental_uris": {"ios": "https://dc.lft.to/lastmile_qr_scan", "android": "https://dc.lft.to/lastmile_qr_scan"}}, {"name": "877bc574ee76ea993a804b7225795da7", "fusion_lat": 0.0, "type": "electric_scooter", "lat": 38.896632833333335, "is_reserved": 0, "is_disabled": 0, "fusion_lon": 0.0, "bike_id": "877bc574ee76ea993a804b7225795da7", "lon": -77.04888516666666, "rental_uris": {"ios": "https://dc.lft.to/lastmile_qr_scan", "android": "https://dc.lft.to/lastmile_qr_scan"}}, {"name": "3983741bb991754d0a2bc4ca5f2316de", "fusion_lat": 0.0, "type": "electric_scooter", "lat": 38.94978116666667, "is_reserved": 0, "is_disabled": 0, "fusion_lon": 0.0, "bike_id": "3983741bb991754d0a2bc4ca5f2316de", "lon": -77.03501733333333, "rental_uris": {"ios": "https://dc.lft.to/lastmile_qr_scan", "android": "https://dc.lft.to/lastmile_qr_scan"}}, {"name": "efe9f39bf0f81b7c69c200d24864f32b", "fusion_lat": 0.0, "type": "electric_scooter", "lat": 38.924290166666665, "is_reserved": 0, "is_disabled": 0, "fusion_lon": 0.0, "bike_id": "efe9f39bf0f81b7c69c200d24864f32b", "lon": -77.05185516666667, "rental_uris": {"ios": "https://dc.lft.to/lastmile_qr_scan", "android": "https://dc.lft.to/lastmile_qr_scan"}}, {"name": "6b5e1641001a5b6e6ecd58af5cbf7d04", "fusion_lat": 0.0, "type": "electric_bike", "lat": 38.953621166666665, "is_reserved": 0, "is_disabled": 0, "fusion_lon": 0.0, "bike_id": "6b5e1641001a5b6e6ecd58af5cbf7d04", "lon": -77.08858216666667, "rental_uris": {"ios": "https://dc.lft.to/lastmile_qr_scan", "android": "https://dc.lft.to/lastmile_qr_scan"}}, {"name": "9bca9e68075c6b7314dcc08a4f477971", "fusion_lat": 0.0, "type": "electric_scooter", "lat": 38.90479633333333, "is_reserved": 0, "is_disabled": 0, "fusion_lon": 0.0, "bike_id": "9bca9e68075c6b7314dcc08a4f477971", "lon": -77.041456, "rental_uris": {"ios": "https://dc.lft.to/lastmile_qr_scan", "android": "https://dc.lft.to/lastmile_qr_scan"}}, {"name": "1adec7bbcf308278a7aa2fcdc6d31bd0", "fusion_lat": 0.0, "type": "electric_scooter", "lat": 38.895684, "is_reserved": 0, "is_disabled": 0, "fusion_lon": 0.0, "bike_id": "1adec7bbcf308278a7aa2fcdc6d31bd0", "lon": -77.03107166666666, "rental_uris": {"ios": "https://dc.lft.to/lastmile_qr_scan", "android": "https://dc.lft.to/lastmile_qr_scan"}}, {"name": "d2f60a3f0649fdf9ff6c27959d253ae7", "fusion_lat": 0.0, "type": "electric_scooter", "lat": 38.9096925, "is_reserved": 0, "is_disabled": 0, "fusion_lon": 0.0, "bike_id": "d2f60a3f0649fdf9ff6c27959d253ae7", "lon": -77.04475833333333, "rental_uris": {"ios": "https://dc.lft.to/lastmile_qr_scan", "android": "https://dc.lft.to/lastmile_qr_scan"}}, {"name": "61ef4bbb12517fe7ea6598f03afc32ae", "fusion_lat": 0.0, "type": "electric_bike", "lat": 38.8921825, "is_reserved": 0, "is_disabled": 0, "fusion_lon": 0.0, "bike_id": "61ef4bbb12517fe7ea6598f03afc32ae", "lon": -77.1077905, "rental_uris": {"ios": "https://dc.lft.to/lastmile_qr_scan", "android": "https://dc.lft.to/lastmile_qr_scan"}}, {"name": "288afd4b075add1f307c3baebf5fa65a", "fusion_lat": 0.0, "type": "electric_scooter", "lat": 38.902696166666665, "is_reserved": 0, "is_disabled": 0, "fusion_lon": 0.0, "bike_id": "288afd4b075add1f307c3baebf5fa65a", "lon": -77.0346345, "rental_uris": {"ios": "https://dc.lft.to/lastmile_qr_scan", "android": "https://dc.lft.to/lastmile_qr_scan"}}, {"name": "413c16073abe5501060d86de9d3f7ae5", "fusion_lat": 0.0, "type": "electric_scooter", "lat": 38.92173833333333, "is_reserved": 0, "is_disabled": 0, "fusion_lon": 0.0, "bike_id": "413c16073abe5501060d86de9d3f7ae5", "lon": -77.04018083333334, "rental_uris": {"ios": "https://dc.lft.to/lastmile_qr_scan", "android": "https://dc.lft.to/lastmile_qr_scan"}}, {"name": "7a94738963fd8218adbd0954c6baa5f4", "fusion_lat": 0.0, "type": "electric_scooter", "lat": 38.912916833333334, "is_reserved": 0, "is_disabled": 0, "fusion_lon": 0.0, "bike_id": "7a94738963fd8218adbd0954c6baa5f4", "lon": -77.06163483333333, "rental_uris": {"ios": "https://dc.lft.to/lastmile_qr_scan", "android": "https://dc.lft.to/lastmile_qr_scan"}}, {"name": "ab7883c7205216067ba8c1eff8899e06", "fusion_lat": 0.0, "type": "electric_scooter", "lat": 38.88361283333333, "is_reserved": 0, "is_disabled": 0, "fusion_lon": 0.0, "bike_id": "ab7883c7205216067ba8c1eff8899e06", "lon": -77.02610566666667, "rental_uris": {"ios": "https://dc.lft.to/lastmile_qr_scan", "android": "https://dc.lft.to/lastmile_qr_scan"}}, {"name": "ec3bdab617b3fcb02b061897e3cd5b2b", "fusion_lat": 0.0, "type": "electric_bike", "lat": 38.95267583333333, "is_reserved": 0, "is_disabled": 0, "fusion_lon": 0.0, "bike_id": "ec3bdab617b3fcb02b061897e3cd5b2b", "lon": -77.06983766666667, "rental_uris": {"ios": "https://dc.lft.to/lastmile_qr_scan", "android": "https://dc.lft.to/lastmile_qr_scan"}}, {"name": "098998c2733e6eecb4236d661abc4792", "fusion_lat": 0.0, "type": "electric_scooter", "lat": 38.89188083333333, "is_reserved": 0, "is_disabled": 0, "fusion_lon": 0.0, "bike_id": "098998c2733e6eecb4236d661abc4792", "lon": -77.01584, "rental_uris": {"ios": "https://dc.lft.to/lastmile_qr_scan", "android": "https://dc.lft.to/lastmile_qr_scan"}}, {"name": "f07bd851a00f1126800bf5b716711d65", "fusion_lat": 0.0, "type": "electric_scooter", "lat": 38.92385933333333, "is_reserved": 0, "is_disabled": 0, "fusion_lon": 0.0, "bike_id": "f07bd851a00f1126800bf5b716711d65", "lon": -77.02978633333333, "rental_uris": {"ios": "https://dc.lft.to/lastmile_qr_scan", "android": "https://dc.lft.to/lastmile_qr_scan"}}, {"name": "bdb86239e324ef3a74aaf3c962493fe9", "fusion_lat": 0.0, "type": "electric_scooter", "lat": 38.91064566666667, "is_reserved": 0, "is_disabled": 0, "fusion_lon": 0.0, "bike_id": "bdb86239e324ef3a74aaf3c962493fe9", "lon": -77.06711083333333, "rental_uris": {"ios": "https://dc.lft.to/lastmile_qr_scan", "android": "https://dc.lft.to/lastmile_qr_scan"}}, {"name": "5d0fac8310ddc2ab35994617ed88b67d", "fusion_lat": 0.0, "type": "electric_scooter", "lat": 38.909721166666664, "is_reserved": 0, "is_disabled": 0, "fusion_lon": 0.0, "bike_id": "5d0fac8310ddc2ab35994617ed88b67d", "lon": -77.038801, "rental_uris": {"ios": "https://dc.lft.to/lastmile_qr_scan", "android": "https://dc.lft.to/lastmile_qr_scan"}}, {"name": "566b4466dfe3c1f1922b5393e8658220", "fusion_lat": 0.0, "type": "electric_scooter", "lat": 38.8728705, "is_reserved": 0, "is_disabled": 0, "fusion_lon": 0.0, "bike_id": "566b4466dfe3c1f1922b5393e8658220", "lon": -77.00984016666666, "rental_uris": {"ios": "https://dc.lft.to/lastmile_qr_scan", "android": "https://dc.lft.to/lastmile_qr_scan"}}, {"name": "595cca411286b7fa228ad470181b00d8", "fusion_lat": 0.0, "type": "electric_scooter", "lat": 38.918191, "is_reserved": 0, "is_disabled": 0, "fusion_lon": 0.0, "bike_id": "595cca411286b7fa228ad470181b00d8", "lon": -77.04170633333334, "rental_uris": {"ios": "https://dc.lft.to/lastmile_qr_scan", "android": "https://dc.lft.to/lastmile_qr_scan"}}, {"name": "40f5886512aa81f2fa12e2221e463c96", "fusion_lat": 0.0, "type": "electric_scooter", "lat": 38.984738, "is_reserved": 0, "is_disabled": 0, "fusion_lon": 0.0, "bike_id": "40f5886512aa81f2fa12e2221e463c96", "lon": -77.026435, "rental_uris": {"ios": "https://dc.lft.to/lastmile_qr_scan", "android": "https://dc.lft.to/lastmile_qr_scan"}}, {"name": "54e88fe26028be831b83444f4084df25", "fusion_lat": 0.0, "type": "electric_scooter", "lat": 38.91558716666667, "is_reserved": 0, "is_disabled": 0, "fusion_lon": 0.0, "bike_id": "54e88fe26028be831b83444f4084df25", "lon": -77.02950166666666, "rental_uris": {"ios": "https://dc.lft.to/lastmile_qr_scan", "android": "https://dc.lft.to/lastmile_qr_scan"}}, {"name": "e78935d30c7826e8b23667f4b27b7bff", "fusion_lat": 0.0, "type": "electric_scooter", "lat": 38.94292, "is_reserved": 0, "is_disabled": 0, "fusion_lon": 0.0, "bike_id": "e78935d30c7826e8b23667f4b27b7bff", "lon": -77.02170766666667, "rental_uris": {"ios": "https://dc.lft.to/lastmile_qr_scan", "android": "https://dc.lft.to/lastmile_qr_scan"}}, {"name": "a928d17e9df298478888a36639f2ecbd", "fusion_lat": 0.0, "type": "electric_scooter", "lat": 38.866858666666666, "is_reserved": 0, "is_disabled": 0, "fusion_lon": 0.0, "bike_id": "a928d17e9df298478888a36639f2ecbd", "lon": -76.98905333333333, "rental_uris": {"ios": "https://dc.lft.to/lastmile_qr_scan", "android": "https://dc.lft.to/lastmile_qr_scan"}}, {"name": "4aa67ce5953caf94cc47a8617b9b9147", "fusion_lat": 0.0, "type": "electric_scooter", "lat": 38.90942483333333, "is_reserved": 0, "is_disabled": 0, "fusion_lon": 0.0, "bike_id": "4aa67ce5953caf94cc47a8617b9b9147", "lon": -77.026994, "rental_uris": {"ios": "https://dc.lft.to/lastmile_qr_scan", "android": "https://dc.lft.to/lastmile_qr_scan"}}, {"name": "922a250a5344c242a0adeb05c75c826a", "fusion_lat": 0.0, "type": "electric_scooter", "lat": 38.908633, "is_reserved": 0, "is_disabled": 0, "fusion_lon": 0.0, "bike_id": "922a250a5344c242a0adeb05c75c826a", "lon": -76.9995595, "rental_uris": {"ios": "https://dc.lft.to/lastmile_qr_scan", "android": "https://dc.lft.to/lastmile_qr_scan"}}, {"name": "614f8b2d0c9166c8bde3945fd6126e02", "fusion_lat": 0.0, "type": "electric_bike", "lat": 38.9945325, "is_reserved": 0, "is_disabled": 0, "fusion_lon": 0.0, "bike_id": "614f8b2d0c9166c8bde3945fd6126e02", "lon": -76.90819666666667, "rental_uris": {"ios": "https://dc.lft.to/lastmile_qr_scan", "android": "https://dc.lft.to/lastmile_qr_scan"}}, {"name": "c05bdeb2eae7ea186ea378ac9ebf2c39", "fusion_lat": 0.0, "type": "electric_scooter", "lat": 38.9043195, "is_reserved": 0, "is_disabled": 0, "fusion_lon": 0.0, "bike_id": "c05bdeb2eae7ea186ea378ac9ebf2c39", "lon": -77.02592283333334, "rental_uris": {"ios": "https://dc.lft.to/lastmile_qr_scan", "android": "https://dc.lft.to/lastmile_qr_scan"}}, {"name": "cffc0b5fa40ebc833a6b436100ce1dc6", "fusion_lat": 0.0, "type": "electric_scooter", "lat": 38.90433266666667, "is_reserved": 0, "is_disabled": 0, "fusion_lon": 0.0, "bike_id": "cffc0b5fa40ebc833a6b436100ce1dc6", "lon": -77.02891433333333, "rental_uris": {"ios": "https://dc.lft.to/lastmile_qr_scan", "android": "https://dc.lft.to/lastmile_qr_scan"}}, {"name": "225d2dc703433eb30dba3159dd8ea0bc", "fusion_lat": 0.0, "type": "electric_scooter", "lat": 38.904880166666665, "is_reserved": 0, "is_disabled": 0, "fusion_lon": 0.0, "bike_id": "225d2dc703433eb30dba3159dd8ea0bc", "lon": -77.02768816666666, "rental_uris": {"ios": "https://dc.lft.to/lastmile_qr_scan", "android": "https://dc.lft.to/lastmile_qr_scan"}}, {"name": "48837a8b2795362037b22b532a5cecbe", "fusion_lat": 0.0, "type": "electric_scooter", "lat": 38.9207625, "is_reserved": 0, "is_disabled": 0, "fusion_lon": 0.0, "bike_id": "48837a8b2795362037b22b532a5cecbe", "lon": -77.02219383333333, "rental_uris": {"ios": "https://dc.lft.to/lastmile_qr_scan", "android": "https://dc.lft.to/lastmile_qr_scan"}}, {"name": "8bf991bd3d4b51d3c9b47cc956834238", "fusion_lat": 0.0, "type": "electric_bike", "lat": 38.872315, "is_reserved": 0, "is_disabled": 0, "fusion_lon": 0.0, "bike_id": "8bf991bd3d4b51d3c9b47cc956834238", "lon": -77.011683, "rental_uris": {"ios": "https://dc.lft.to/lastmile_qr_scan", "android": "https://dc.lft.to/lastmile_qr_scan"}}, {"name": "f6392694882c1c04de45595328c3f4ae", "fusion_lat": 0.0, "type": "electric_scooter", "lat": 38.9050745, "is_reserved": 0, "is_disabled": 0, "fusion_lon": 0.0, "bike_id": "f6392694882c1c04de45595328c3f4ae", "lon": -77.05148233333334, "rental_uris": {"ios": "https://dc.lft.to/lastmile_qr_scan", "android": "https://dc.lft.to/lastmile_qr_scan"}}, {"name": "288fd061d6a71740060ca7cc4121c918", "fusion_lat": 0.0, "type": "electric_scooter", "lat": 38.93719016666667, "is_reserved": 0, "is_disabled": 0, "fusion_lon": 0.0, "bike_id": "288fd061d6a71740060ca7cc4121c918", "lon": -77.0363775, "rental_uris": {"ios": "https://dc.lft.to/lastmile_qr_scan", "android": "https://dc.lft.to/lastmile_qr_scan"}}, {"name": "51a1246e5fb6c0d589e03b752ce726f6", "fusion_lat": 0.0, "type": "electric_scooter", "lat": 38.917185333333336, "is_reserved": 0, "is_disabled": 0, "fusion_lon": 0.0, "bike_id": "51a1246e5fb6c0d589e03b752ce726f6", "lon": -77.018668, "rental_uris": {"ios": "https://dc.lft.to/lastmile_qr_scan", "android": "https://dc.lft.to/lastmile_qr_scan"}}, {"name": "1009ff6808bec07f9f690ebcb0c75fa7", "fusion_lat": 0.0, "type": "electric_scooter", "lat": 38.897349, "is_reserved": 0, "is_disabled": 0, "fusion_lon": 0.0, "bike_id": "1009ff6808bec07f9f690ebcb0c75fa7", "lon": -77.04657483333334, "rental_uris": {"ios": "https://dc.lft.to/lastmile_qr_scan", "android": "https://dc.lft.to/lastmile_qr_scan"}}, {"name": "9493e0d97119ecb4426d1448b5b0b450", "fusion_lat": 0.0, "type": "electric_scooter", "lat": 38.9020325, "is_reserved": 0, "is_disabled": 0, "fusion_lon": 0.0, "bike_id": "9493e0d97119ecb4426d1448b5b0b450", "lon": -77.05064483333334, "rental_uris": {"ios": "https://dc.lft.to/lastmile_qr_scan", "android": "https://dc.lft.to/lastmile_qr_scan"}}, {"name": "f264db0a36245075cc0099e4d0ba1008", "fusion_lat": 0.0, "type": "electric_scooter", "lat": 38.92338866666667, "is_reserved": 0, "is_disabled": 0, "fusion_lon": 0.0, "bike_id": "f264db0a36245075cc0099e4d0ba1008", "lon": -77.0352145, "rental_uris": {"ios": "https://dc.lft.to/lastmile_qr_scan", "android": "https://dc.lft.to/lastmile_qr_scan"}}, {"name": "f6bc3b8d1e5942d5c6074c2efe41ffdf", "fusion_lat": 0.0, "type": "electric_scooter", "lat": 38.9564395, "is_reserved": 0, "is_disabled": 0, "fusion_lon": 0.0, "bike_id": "f6bc3b8d1e5942d5c6074c2efe41ffdf", "lon": -77.02271816666666, "rental_uris": {"ios": "https://dc.lft.to/lastmile_qr_scan", "android": "https://dc.lft.to/lastmile_qr_scan"}}, {"name": "b29aa69c0c67961763c3f47af67dc27d", "fusion_lat": 0.0, "type": "electric_bike", "lat": 38.94622433333333, "is_reserved": 0, "is_disabled": 0, "fusion_lon": 0.0, "bike_id": "b29aa69c0c67961763c3f47af67dc27d", "lon": -77.08050783333333, "rental_uris": {"ios": "https://dc.lft.to/lastmile_qr_scan", "android": "https://dc.lft.to/lastmile_qr_scan"}}, {"name": "eec0866c971ebd786f6f9280ccd97eb0", "fusion_lat": 0.0, "type": "electric_bike", "lat": 38.923304, "is_reserved": 0, "is_disabled": 0, "fusion_lon": 0.0, "bike_id": "eec0866c971ebd786f6f9280ccd97eb0", "lon": -77.02286133333334, "rental_uris": {"ios": "https://dc.lft.to/lastmile_qr_scan", "android": "https://dc.lft.to/lastmile_qr_scan"}}, {"name": "26730079c84508511bceaef9129c31ef", "fusion_lat": 0.0, "type": "electric_scooter", "lat": 38.9016545, "is_reserved": 0, "is_disabled": 0, "fusion_lon": 0.0, "bike_id": "26730079c84508511bceaef9129c31ef", "lon": -77.01902583333333, "rental_uris": {"ios": "https://dc.lft.to/lastmile_qr_scan", "android": "https://dc.lft.to/lastmile_qr_scan"}}, {"name": "460c8222d89fe174810247023786783a", "fusion_lat": 0.0, "type": "electric_scooter", "lat": 38.903819, "is_reserved": 0, "is_disabled": 0, "fusion_lon": 0.0, "bike_id": "460c8222d89fe174810247023786783a", "lon": -77.04843683333333, "rental_uris": {"ios": "https://dc.lft.to/lastmile_qr_scan", "android": "https://dc.lft.to/lastmile_qr_scan"}}, {"name": "f2fe10063381bea1d001083ec8c08535", "fusion_lat": 0.0, "type": "electric_scooter", "lat": 38.912556333333335, "is_reserved": 0, "is_disabled": 0, "fusion_lon": 0.0, "bike_id": "f2fe10063381bea1d001083ec8c08535", "lon": -77.03844016666666, "rental_uris": {"ios": "https://dc.lft.to/lastmile_qr_scan", "android": "https://dc.lft.to/lastmile_qr_scan"}}, {"name": "b5a82cfceaa539089420ad38b747ce71", "fusion_lat": 0.0, "type": "electric_bike", "lat": 38.844851166666665, "is_reserved": 0, "is_disabled": 0, "fusion_lon": 0.0, "bike_id": "b5a82cfceaa539089420ad38b747ce71", "lon": -76.97220633333333, "rental_uris": {"ios": "https://dc.lft.to/lastmile_qr_scan", "android": "https://dc.lft.to/lastmile_qr_scan"}}, {"name": "84724e34fb7fef937e20b0410b6cddaa", "fusion_lat": 0.0, "type": "electric_scooter", "lat": 38.91760383333333, "is_reserved": 0, "is_disabled": 0, "fusion_lon": 0.0, "bike_id": "84724e34fb7fef937e20b0410b6cddaa", "lon": -77.02511633333333, "rental_uris": {"ios": "https://dc.lft.to/lastmile_qr_scan", "android": "https://dc.lft.to/lastmile_qr_scan"}}, {"name": "38fe34ae8c3330a038855fe36ed5864a", "fusion_lat": 0.0, "type": "electric_scooter", "lat": 38.898462333333335, "is_reserved": 0, "is_disabled": 0, "fusion_lon": 0.0, "bike_id": "38fe34ae8c3330a038855fe36ed5864a", "lon": -77.03314633333333, "rental_uris": {"ios": "https://dc.lft.to/lastmile_qr_scan", "android": "https://dc.lft.to/lastmile_qr_scan"}}, {"name": "c1dccd2373a332a5d4c06fe2ed625287", "fusion_lat": 0.0, "type": "electric_scooter", "lat": 38.9310655, "is_reserved": 0, "is_disabled": 0, "fusion_lon": 0.0, "bike_id": "c1dccd2373a332a5d4c06fe2ed625287", "lon": -77.0384015, "rental_uris": {"ios": "https://dc.lft.to/lastmile_qr_scan", "android": "https://dc.lft.to/lastmile_qr_scan"}}, {"name": "33a734e02a4ba561a780fa5924f07956", "fusion_lat": 0.0, "type": "electric_scooter", "lat": 38.91773716666667, "is_reserved": 0, "is_disabled": 0, "fusion_lon": 0.0, "bike_id": "33a734e02a4ba561a780fa5924f07956", "lon": -77.023439, "rental_uris": {"ios": "https://dc.lft.to/lastmile_qr_scan", "android": "https://dc.lft.to/lastmile_qr_scan"}}, {"name": "6df07187d1b6964e261e1e7607068422", "fusion_lat": 0.0, "type": "electric_bike", "lat": 38.9354565, "is_reserved": 0, "is_disabled": 0, "fusion_lon": 0.0, "bike_id": "6df07187d1b6964e261e1e7607068422", "lon": -77.08222616666667, "rental_uris": {"ios": "https://dc.lft.to/lastmile_qr_scan", "android": "https://dc.lft.to/lastmile_qr_scan"}}, {"name": "b9cd71d50114ae5613e50dba53d3eb8a", "fusion_lat": 0.0, "type": "electric_scooter", "lat": 38.90516566666667, "is_reserved": 0, "is_disabled": 0, "fusion_lon": 0.0, "bike_id": "b9cd71d50114ae5613e50dba53d3eb8a", "lon": -77.02963733333333, "rental_uris": {"ios": "https://dc.lft.to/lastmile_qr_scan", "android": "https://dc.lft.to/lastmile_qr_scan"}}, {"name": "9b450178697eb92281d429e6d7b39819", "fusion_lat": 0.0, "type": "electric_scooter", "lat": 38.9394205, "is_reserved": 0, "is_disabled": 0, "fusion_lon": 0.0, "bike_id": "9b450178697eb92281d429e6d7b39819", "lon": -77.03621633333333, "rental_uris": {"ios": "https://dc.lft.to/lastmile_qr_scan", "android": "https://dc.lft.to/lastmile_qr_scan"}}, {"name": "cc5b062d751ae2dd07bdf1f238735d23", "fusion_lat": 0.0, "type": "electric_scooter", "lat": 38.90680016666666, "is_reserved": 0, "is_disabled": 0, "fusion_lon": 0.0, "bike_id": "cc5b062d751ae2dd07bdf1f238735d23", "lon": -76.979994, "rental_uris": {"ios": "https://dc.lft.to/lastmile_qr_scan", "android": "https://dc.lft.to/lastmile_qr_scan"}}, {"name": "81eb68bd3d4d78601116380c71c85183", "fusion_lat": 0.0, "type": "electric_bike", "lat": 38.88589733333333, "is_reserved": 0, "is_disabled": 0, "fusion_lon": 0.0, "bike_id": "81eb68bd3d4d78601116380c71c85183", "lon": -77.00063333333334, "rental_uris": {"ios": "https://dc.lft.to/lastmile_qr_scan", "android": "https://dc.lft.to/lastmile_qr_scan"}}, {"name": "66bc405fe87926299c82ae6b30b8ab1d", "fusion_lat": 0.0, "type": "electric_scooter", "lat": 38.911995, "is_reserved": 0, "is_disabled": 0, "fusion_lon": 0.0, "bike_id": "66bc405fe87926299c82ae6b30b8ab1d", "lon": -77.00722783333333, "rental_uris": {"ios": "https://dc.lft.to/lastmile_qr_scan", "android": "https://dc.lft.to/lastmile_qr_scan"}}, {"name": "93e07522e63b612e497b45872d74ae12", "fusion_lat": 0.0, "type": "electric_scooter", "lat": 38.910457666666666, "is_reserved": 0, "is_disabled": 0, "fusion_lon": 0.0, "bike_id": "93e07522e63b612e497b45872d74ae12", "lon": -77.04131683333334, "rental_uris": {"ios": "https://dc.lft.to/lastmile_qr_scan", "android": "https://dc.lft.to/lastmile_qr_scan"}}, {"name": "defa10a0ff9ce1fbbdb030b0b763b5b7", "fusion_lat": 0.0, "type": "electric_scooter", "lat": 38.91107516666667, "is_reserved": 0, "is_disabled": 0, "fusion_lon": 0.0, "bike_id": "defa10a0ff9ce1fbbdb030b0b763b5b7", "lon": -77.01062, "rental_uris": {"ios": "https://dc.lft.to/lastmile_qr_scan", "android": "https://dc.lft.to/lastmile_qr_scan"}}, {"name": "ea7ff840eeb058044531ae0e252ad7b7", "fusion_lat": 0.0, "type": "electric_scooter", "lat": 38.908122666666664, "is_reserved": 0, "is_disabled": 0, "fusion_lon": 0.0, "bike_id": "ea7ff840eeb058044531ae0e252ad7b7", "lon": -77.03469716666666, "rental_uris": {"ios": "https://dc.lft.to/lastmile_qr_scan", "android": "https://dc.lft.to/lastmile_qr_scan"}}, {"name": "cfc5d325b55b94ac6b91f037839f9975", "fusion_lat": 0.0, "type": "electric_scooter", "lat": 38.9050725, "is_reserved": 0, "is_disabled": 0, "fusion_lon": 0.0, "bike_id": "cfc5d325b55b94ac6b91f037839f9975", "lon": -77.06943816666667, "rental_uris": {"ios": "https://dc.lft.to/lastmile_qr_scan", "android": "https://dc.lft.to/lastmile_qr_scan"}}, {"name": "4125bb8e2b7a8411266466261ae00cf2", "fusion_lat": 0.0, "type": "electric_scooter", "lat": 38.856563, "is_reserved": 0, "is_disabled": 0, "fusion_lon": 0.0, "bike_id": "4125bb8e2b7a8411266466261ae00cf2", "lon": -76.99091966666667, "rental_uris": {"ios": "https://dc.lft.to/lastmile_qr_scan", "android": "https://dc.lft.to/lastmile_qr_scan"}}, {"name": "4e3e7b32c25d6b2749abcb37a4dc1bc9", "fusion_lat": 0.0, "type": "electric_bike", "lat": 38.957137333333336, "is_reserved": 0, "is_disabled": 0, "fusion_lon": 0.0, "bike_id": "4e3e7b32c25d6b2749abcb37a4dc1bc9", "lon": -77.0147555, "rental_uris": {"ios": "https://dc.lft.to/lastmile_qr_scan", "android": "https://dc.lft.to/lastmile_qr_scan"}}, {"name": "5d84840e741d72cb50a5a381d6cbda0f", "fusion_lat": 0.0, "type": "electric_bike", "lat": 39.00378366666666, "is_reserved": 0, "is_disabled": 0, "fusion_lon": 0.0, "bike_id": "5d84840e741d72cb50a5a381d6cbda0f", "lon": -77.01283116666667, "rental_uris": {"ios": "https://dc.lft.to/lastmile_qr_scan", "android": "https://dc.lft.to/lastmile_qr_scan"}}, {"name": "e90cff4697b73b4088925c79dbf9a996", "fusion_lat": 0.0, "type": "electric_scooter", "lat": 38.927721166666664, "is_reserved": 0, "is_disabled": 0, "fusion_lon": 0.0, "bike_id": "e90cff4697b73b4088925c79dbf9a996", "lon": -77.02778716666667, "rental_uris": {"ios": "https://dc.lft.to/lastmile_qr_scan", "android": "https://dc.lft.to/lastmile_qr_scan"}}, {"name": "0137aefaa731cf06a796fb3ad37502ce", "fusion_lat": 0.0, "type": "electric_scooter", "lat": 38.94703283333333, "is_reserved": 0, "is_disabled": 0, "fusion_lon": 0.0, "bike_id": "0137aefaa731cf06a796fb3ad37502ce", "lon": -77.01949333333333, "rental_uris": {"ios": "https://dc.lft.to/lastmile_qr_scan", "android": "https://dc.lft.to/lastmile_qr_scan"}}, {"name": "ded1deea43a6fb0d00a42f5a1f484554", "fusion_lat": 0.0, "type": "electric_scooter", "lat": 38.93057366666667, "is_reserved": 0, "is_disabled": 0, "fusion_lon": 0.0, "bike_id": "ded1deea43a6fb0d00a42f5a1f484554", "lon": -77.02323033333333, "rental_uris": {"ios": "https://dc.lft.to/lastmile_qr_scan", "android": "https://dc.lft.to/lastmile_qr_scan"}}, {"name": "55a2824e6814c4269ce9990db861cf56", "fusion_lat": 0.0, "type": "electric_scooter", "lat": 38.923734, "is_reserved": 0, "is_disabled": 0, "fusion_lon": 0.0, "bike_id": "55a2824e6814c4269ce9990db861cf56", "lon": -77.03168333333333, "rental_uris": {"ios": "https://dc.lft.to/lastmile_qr_scan", "android": "https://dc.lft.to/lastmile_qr_scan"}}, {"name": "13c71203bb35e79d6fa669928d9b9e04", "fusion_lat": 0.0, "type": "electric_bike", "lat": 38.807894833333336, "is_reserved": 0, "is_disabled": 0, "fusion_lon": 0.0, "bike_id": "13c71203bb35e79d6fa669928d9b9e04", "lon": -77.12968333333333, "rental_uris": {"ios": "https://dc.lft.to/lastmile_qr_scan", "android": "https://dc.lft.to/lastmile_qr_scan"}}, {"name": "ceb3aa19ffbb72fb109fc9184a22a6fb", "fusion_lat": 0.0, "type": "electric_scooter", "lat": 38.92347, "is_reserved": 0, "is_disabled": 0, "fusion_lon": 0.0, "bike_id": "ceb3aa19ffbb72fb109fc9184a22a6fb", "lon": -77.05436633333333, "rental_uris": {"ios": "https://dc.lft.to/lastmile_qr_scan", "android": "https://dc.lft.to/lastmile_qr_scan"}}, {"name": "08382669ae452a7e0a64a36c98b8897d", "fusion_lat": 0.0, "type": "electric_bike", "lat": 38.852079333333336, "is_reserved": 0, "is_disabled": 0, "fusion_lon": 0.0, "bike_id": "08382669ae452a7e0a64a36c98b8897d", "lon": -77.04643183333333, "rental_uris": {"ios": "https://dc.lft.to/lastmile_qr_scan", "android": "https://dc.lft.to/lastmile_qr_scan"}}, {"name": "4d68c0688442ef08ce63c44f36e0c4fd", "fusion_lat": 0.0, "type": "electric_scooter", "lat": 38.95904316666667, "is_reserved": 0, "is_disabled": 0, "fusion_lon": 0.0, "bike_id": "4d68c0688442ef08ce63c44f36e0c4fd", "lon": -77.08076183333333, "rental_uris": {"ios": "https://dc.lft.to/lastmile_qr_scan", "android": "https://dc.lft.to/lastmile_qr_scan"}}, {"name": "09fd44e25f4e332d3a96e99dc43fcc49", "fusion_lat": 0.0, "type": "electric_bike", "lat": 38.931295666666664, "is_reserved": 0, "is_disabled": 0, "fusion_lon": 0.0, "bike_id": "09fd44e25f4e332d3a96e99dc43fcc49", "lon": -77.02029933333333, "rental_uris": {"ios": "https://dc.lft.to/lastmile_qr_scan", "android": "https://dc.lft.to/lastmile_qr_scan"}}, {"name": "7d98e28f2f3a93f39775c286f6700d48", "fusion_lat": 0.0, "type": "electric_scooter", "lat": 38.894068833333336, "is_reserved": 0, "is_disabled": 0, "fusion_lon": 0.0, "bike_id": "7d98e28f2f3a93f39775c286f6700d48", "lon": -76.93240283333333, "rental_uris": {"ios": "https://dc.lft.to/lastmile_qr_scan", "android": "https://dc.lft.to/lastmile_qr_scan"}}, {"name": "9f7bc5ad186d03ccc08629c1fd794391", "fusion_lat": 0.0, "type": "electric_scooter", "lat": 38.932067833333335, "is_reserved": 0, "is_disabled": 0, "fusion_lon": 0.0, "bike_id": "9f7bc5ad186d03ccc08629c1fd794391", "lon": -77.03669783333333, "rental_uris": {"ios": "https://dc.lft.to/lastmile_qr_scan", "android": "https://dc.lft.to/lastmile_qr_scan"}}, {"name": "486478e61b86d885f49f7b72fae3015e", "fusion_lat": 0.0, "type": "electric_scooter", "lat": 38.905949166666666, "is_reserved": 0, "is_disabled": 0, "fusion_lon": 0.0, "bike_id": "486478e61b86d885f49f7b72fae3015e", "lon": -77.005652, "rental_uris": {"ios": "https://dc.lft.to/lastmile_qr_scan", "android": "https://dc.lft.to/lastmile_qr_scan"}}, {"name": "3c3c61a5f63c57e9225e4c76e863ab93", "fusion_lat": 0.0, "type": "electric_scooter", "lat": 38.90414216666667, "is_reserved": 0, "is_disabled": 0, "fusion_lon": 0.0, "bike_id": "3c3c61a5f63c57e9225e4c76e863ab93", "lon": -76.99077233333334, "rental_uris": {"ios": "https://dc.lft.to/lastmile_qr_scan", "android": "https://dc.lft.to/lastmile_qr_scan"}}, {"name": "7e288c6d0d184c8933eb767093c191b5", "fusion_lat": 0.0, "type": "electric_scooter", "lat": 38.877906833333334, "is_reserved": 0, "is_disabled": 0, "fusion_lon": 0.0, "bike_id": "7e288c6d0d184c8933eb767093c191b5", "lon": -77.00565083333333, "rental_uris": {"ios": "https://dc.lft.to/lastmile_qr_scan", "android": "https://dc.lft.to/lastmile_qr_scan"}}, {"name": "85e170dd7b74a822233660e0a39b8c4d", "fusion_lat": 0.0, "type": "electric_bike", "lat": 38.880412666666665, "is_reserved": 0, "is_disabled": 0, "fusion_lon": 0.0, "bike_id": "85e170dd7b74a822233660e0a39b8c4d", "lon": -77.0132805, "rental_uris": {"ios": "https://dc.lft.to/lastmile_qr_scan", "android": "https://dc.lft.to/lastmile_qr_scan"}}, {"name": "c2827c4e68cda993cf6c2231dbb95877", "fusion_lat": 0.0, "type": "electric_bike", "lat": 38.98815466666667, "is_reserved": 0, "is_disabled": 0, "fusion_lon": 0.0, "bike_id": "c2827c4e68cda993cf6c2231dbb95877", "lon": -77.02649616666666, "rental_uris": {"ios": "https://dc.lft.to/lastmile_qr_scan", "android": "https://dc.lft.to/lastmile_qr_scan"}}, {"name": "8933354463971106495bddb60fd8aa9e", "fusion_lat": 0.0, "type": "electric_scooter", "lat": 38.90707166666667, "is_reserved": 0, "is_disabled": 0, "fusion_lon": 0.0, "bike_id": "8933354463971106495bddb60fd8aa9e", "lon": -77.0345305, "rental_uris": {"ios": "https://dc.lft.to/lastmile_qr_scan", "android": "https://dc.lft.to/lastmile_qr_scan"}}, {"name": "f84763c6b54e461685e81a3d87bf35eb", "fusion_lat": 0.0, "type": "electric_scooter", "lat": 38.91936066666667, "is_reserved": 0, "is_disabled": 0, "fusion_lon": 0.0, "bike_id": "f84763c6b54e461685e81a3d87bf35eb", "lon": -77.02381933333334, "rental_uris": {"ios": "https://dc.lft.to/lastmile_qr_scan", "android": "https://dc.lft.to/lastmile_qr_scan"}}, {"name": "1d09b2beead127418fdf565690e8c237", "fusion_lat": 0.0, "type": "electric_scooter", "lat": 38.880380833333334, "is_reserved": 0, "is_disabled": 0, "fusion_lon": 0.0, "bike_id": "1d09b2beead127418fdf565690e8c237", "lon": -76.927191, "rental_uris": {"ios": "https://dc.lft.to/lastmile_qr_scan", "android": "https://dc.lft.to/lastmile_qr_scan"}}, {"name": "30ef822ef6e779f449c047597b10886f", "fusion_lat": 0.0, "type": "electric_scooter", "lat": 38.93397616666667, "is_reserved": 0, "is_disabled": 0, "fusion_lon": 0.0, "bike_id": "30ef822ef6e779f449c047597b10886f", "lon": -77.02731483333334, "rental_uris": {"ios": "https://dc.lft.to/lastmile_qr_scan", "android": "https://dc.lft.to/lastmile_qr_scan"}}, {"name": "5125c12ce5c573c8e931b1d1440378b5", "fusion_lat": 0.0, "type": "electric_scooter", "lat": 38.90409183333333, "is_reserved": 0, "is_disabled": 0, "fusion_lon": 0.0, "bike_id": "5125c12ce5c573c8e931b1d1440378b5", "lon": -77.00134566666667, "rental_uris": {"ios": "https://dc.lft.to/lastmile_qr_scan", "android": "https://dc.lft.to/lastmile_qr_scan"}}, {"name": "2e7f3389824e3094085d24f5fba32a9a", "fusion_lat": 0.0, "type": "electric_bike", "lat": 38.852275, "is_reserved": 0, "is_disabled": 0, "fusion_lon": 0.0, "bike_id": "2e7f3389824e3094085d24f5fba32a9a", "lon": -77.10339183333333, "rental_uris": {"ios": "https://dc.lft.to/lastmile_qr_scan", "android": "https://dc.lft.to/lastmile_qr_scan"}}, {"name": "5b0a2cc444f77fa61fd26f63ee6ad551", "fusion_lat": 0.0, "type": "electric_scooter", "lat": 38.906329666666664, "is_reserved": 0, "is_disabled": 0, "fusion_lon": 0.0, "bike_id": "5b0a2cc444f77fa61fd26f63ee6ad551", "lon": -77.0344765, "rental_uris": {"ios": "https://dc.lft.to/lastmile_qr_scan", "android": "https://dc.lft.to/lastmile_qr_scan"}}, {"name": "6fb15ff2be72d5c449ff79683a7be966", "fusion_lat": 0.0, "type": "electric_bike", "lat": 38.938563, "is_reserved": 0, "is_disabled": 0, "fusion_lon": 0.0, "bike_id": "6fb15ff2be72d5c449ff79683a7be966", "lon": -77.02470916666667, "rental_uris": {"ios": "https://dc.lft.to/lastmile_qr_scan", "android": "https://dc.lft.to/lastmile_qr_scan"}}, {"name": "17503894bfefa9c40e91f58105e00e22", "fusion_lat": 0.0, "type": "electric_scooter", "lat": 38.89954316666667, "is_reserved": 0, "is_disabled": 0, "fusion_lon": 0.0, "bike_id": "17503894bfefa9c40e91f58105e00e22", "lon": -77.017841, "rental_uris": {"ios": "https://dc.lft.to/lastmile_qr_scan", "android": "https://dc.lft.to/lastmile_qr_scan"}}, {"name": "bcf98a8879636b1a4166ce789b28be08", "fusion_lat": 0.0, "type": "electric_scooter", "lat": 38.90029783333333, "is_reserved": 0, "is_disabled": 0, "fusion_lon": 0.0, "bike_id": "bcf98a8879636b1a4166ce789b28be08", "lon": -77.01160166666666, "rental_uris": {"ios": "https://dc.lft.to/lastmile_qr_scan", "android": "https://dc.lft.to/lastmile_qr_scan"}}, {"name": "6f33070a796e4c909e78385153602db9", "fusion_lat": 0.0, "type": "electric_bike", "lat": 38.90974, "is_reserved": 0, "is_disabled": 0, "fusion_lon": 0.0, "bike_id": "6f33070a796e4c909e78385153602db9", "lon": -77.08831133333334, "rental_uris": {"ios": "https://dc.lft.to/lastmile_qr_scan", "android": "https://dc.lft.to/lastmile_qr_scan"}}, {"name": "6e471a9116755f3fd7c82ada0ad30431", "fusion_lat": 0.0, "type": "electric_scooter", "lat": 38.9118495, "is_reserved": 0, "is_disabled": 0, "fusion_lon": 0.0, "bike_id": "6e471a9116755f3fd7c82ada0ad30431", "lon": -77.05956416666666, "rental_uris": {"ios": "https://dc.lft.to/lastmile_qr_scan", "android": "https://dc.lft.to/lastmile_qr_scan"}}, {"name": "8a44a27f74891adcc22b9f5999ec044e", "fusion_lat": 0.0, "type": "electric_scooter", "lat": 38.876251833333335, "is_reserved": 0, "is_disabled": 0, "fusion_lon": 0.0, "bike_id": "8a44a27f74891adcc22b9f5999ec044e", "lon": -76.96525133333333, "rental_uris": {"ios": "https://dc.lft.to/lastmile_qr_scan", "android": "https://dc.lft.to/lastmile_qr_scan"}}, {"name": "25dbaf01bf11ec944119c79277891c82", "fusion_lat": 0.0, "type": "electric_scooter", "lat": 38.915648166666664, "is_reserved": 0, "is_disabled": 0, "fusion_lon": 0.0, "bike_id": "25dbaf01bf11ec944119c79277891c82", "lon": -77.048774, "rental_uris": {"ios": "https://dc.lft.to/lastmile_qr_scan", "android": "https://dc.lft.to/lastmile_qr_scan"}}, {"name": "740f961fd504a98cc397ab78c2e518de", "fusion_lat": 0.0, "type": "electric_scooter", "lat": 38.9183055, "is_reserved": 0, "is_disabled": 0, "fusion_lon": 0.0, "bike_id": "740f961fd504a98cc397ab78c2e518de", "lon": -77.02697583333334, "rental_uris": {"ios": "https://dc.lft.to/lastmile_qr_scan", "android": "https://dc.lft.to/lastmile_qr_scan"}}, {"name": "b1f3ad6d4410bdea7af96b26d6b5c83f", "fusion_lat": 0.0, "type": "electric_scooter", "lat": 38.91689933333333, "is_reserved": 0, "is_disabled": 0, "fusion_lon": 0.0, "bike_id": "b1f3ad6d4410bdea7af96b26d6b5c83f", "lon": -77.02597366666667, "rental_uris": {"ios": "https://dc.lft.to/lastmile_qr_scan", "android": "https://dc.lft.to/lastmile_qr_scan"}}, {"name": "ef0bd686b17ddd9cef502e36cb7086c6", "fusion_lat": 0.0, "type": "electric_scooter", "lat": 38.90963166666667, "is_reserved": 0, "is_disabled": 0, "fusion_lon": 0.0, "bike_id": "ef0bd686b17ddd9cef502e36cb7086c6", "lon": -77.038671, "rental_uris": {"ios": "https://dc.lft.to/lastmile_qr_scan", "android": "https://dc.lft.to/lastmile_qr_scan"}}, {"name": "5a039374c9b324281a4ef9d295a6a31c", "fusion_lat": 0.0, "type": "electric_bike", "lat": 38.870773666666665, "is_reserved": 0, "is_disabled": 0, "fusion_lon": 0.0, "bike_id": "5a039374c9b324281a4ef9d295a6a31c", "lon": -77.11053966666667, "rental_uris": {"ios": "https://dc.lft.to/lastmile_qr_scan", "android": "https://dc.lft.to/lastmile_qr_scan"}}, {"name": "4369987e8112601818dfd5a266305301", "fusion_lat": 0.0, "type": "electric_scooter", "lat": 38.91764, "is_reserved": 0, "is_disabled": 0, "fusion_lon": 0.0, "bike_id": "4369987e8112601818dfd5a266305301", "lon": -77.01757816666667, "rental_uris": {"ios": "https://dc.lft.to/lastmile_qr_scan", "android": "https://dc.lft.to/lastmile_qr_scan"}}, {"name": "ab3d7c54295b70a4fd164d9695763ea1", "fusion_lat": 0.0, "type": "electric_bike", "lat": 38.96492966666667, "is_reserved": 0, "is_disabled": 0, "fusion_lon": 0.0, "bike_id": "ab3d7c54295b70a4fd164d9695763ea1", "lon": -77.028282, "rental_uris": {"ios": "https://dc.lft.to/lastmile_qr_scan", "android": "https://dc.lft.to/lastmile_qr_scan"}}, {"name": "9fb7f1907e3a94d000b3233a45090068", "fusion_lat": 0.0, "type": "electric_scooter", "lat": 38.89741933333333, "is_reserved": 0, "is_disabled": 0, "fusion_lon": 0.0, "bike_id": "9fb7f1907e3a94d000b3233a45090068", "lon": -77.04731266666667, "rental_uris": {"ios": "https://dc.lft.to/lastmile_qr_scan", "android": "https://dc.lft.to/lastmile_qr_scan"}}, {"name": "b122c253318c7e4f7a433e96e4eff877", "fusion_lat": 0.0, "type": "electric_scooter", "lat": 38.90130116666667, "is_reserved": 0, "is_disabled": 0, "fusion_lon": 0.0, "bike_id": "b122c253318c7e4f7a433e96e4eff877", "lon": -77.03986816666666, "rental_uris": {"ios": "https://dc.lft.to/lastmile_qr_scan", "android": "https://dc.lft.to/lastmile_qr_scan"}}, {"name": "0404c1e511bcb29fec4a97247822dadf", "fusion_lat": 0.0, "type": "electric_scooter", "lat": 38.88986416666667, "is_reserved": 0, "is_disabled": 0, "fusion_lon": 0.0, "bike_id": "0404c1e511bcb29fec4a97247822dadf", "lon": -77.001193, "rental_uris": {"ios": "https://dc.lft.to/lastmile_qr_scan", "android": "https://dc.lft.to/lastmile_qr_scan"}}, {"name": "9c75d8102a872e7390cdb5bc80d58485", "fusion_lat": 0.0, "type": "electric_scooter", "lat": 38.87749433333333, "is_reserved": 0, "is_disabled": 0, "fusion_lon": 0.0, "bike_id": "9c75d8102a872e7390cdb5bc80d58485", "lon": -76.97241266666667, "rental_uris": {"ios": "https://dc.lft.to/lastmile_qr_scan", "android": "https://dc.lft.to/lastmile_qr_scan"}}, {"name": "b5bf4b5882c62eaf3867eb1efa1703c5", "fusion_lat": 0.0, "type": "electric_scooter", "lat": 38.948319, "is_reserved": 0, "is_disabled": 0, "fusion_lon": 0.0, "bike_id": "b5bf4b5882c62eaf3867eb1efa1703c5", "lon": -77.02551316666667, "rental_uris": {"ios": "https://dc.lft.to/lastmile_qr_scan", "android": "https://dc.lft.to/lastmile_qr_scan"}}, {"name": "8b5f56a6705adec96d346746a5b6f5fa", "fusion_lat": 0.0, "type": "electric_scooter", "lat": 38.918672, "is_reserved": 0, "is_disabled": 0, "fusion_lon": 0.0, "bike_id": "8b5f56a6705adec96d346746a5b6f5fa", "lon": -77.07345483333333, "rental_uris": {"ios": "https://dc.lft.to/lastmile_qr_scan", "android": "https://dc.lft.to/lastmile_qr_scan"}}, {"name": "dd0a83936c05c6bd05a80a2e5ecdf41e", "fusion_lat": 0.0, "type": "electric_bike", "lat": 38.90694966666667, "is_reserved": 0, "is_disabled": 0, "fusion_lon": 0.0, "bike_id": "dd0a83936c05c6bd05a80a2e5ecdf41e", "lon": -77.0637195, "rental_uris": {"ios": "https://dc.lft.to/lastmile_qr_scan", "android": "https://dc.lft.to/lastmile_qr_scan"}}, {"name": "fae9edfad2cc49281bfefdb5aca1ee72", "fusion_lat": 0.0, "type": "electric_scooter", "lat": 38.915626833333334, "is_reserved": 0, "is_disabled": 0, "fusion_lon": 0.0, "bike_id": "fae9edfad2cc49281bfefdb5aca1ee72", "lon": -77.03237233333333, "rental_uris": {"ios": "https://dc.lft.to/lastmile_qr_scan", "android": "https://dc.lft.to/lastmile_qr_scan"}}, {"name": "c8de38f909bffff8900f9a95c84c0061", "fusion_lat": 0.0, "type": "electric_scooter", "lat": 38.926621, "is_reserved": 0, "is_disabled": 0, "fusion_lon": 0.0, "bike_id": "c8de38f909bffff8900f9a95c84c0061", "lon": -77.03331816666666, "rental_uris": {"ios": "https://dc.lft.to/lastmile_qr_scan", "android": "https://dc.lft.to/lastmile_qr_scan"}}, {"name": "175175b105c4426de0070d6f802a71de", "fusion_lat": 0.0, "type": "electric_scooter", "lat": 38.887684666666665, "is_reserved": 0, "is_disabled": 0, "fusion_lon": 0.0, "bike_id": "175175b105c4426de0070d6f802a71de", "lon": -76.9801865, "rental_uris": {"ios": "https://dc.lft.to/lastmile_qr_scan", "android": "https://dc.lft.to/lastmile_qr_scan"}}, {"name": "ccbc8cd3a8897e82db8c5d9535932d72", "fusion_lat": 0.0, "type": "electric_scooter", "lat": 38.90315666666667, "is_reserved": 0, "is_disabled": 0, "fusion_lon": 0.0, "bike_id": "ccbc8cd3a8897e82db8c5d9535932d72", "lon": -76.97801416666667, "rental_uris": {"ios": "https://dc.lft.to/lastmile_qr_scan", "android": "https://dc.lft.to/lastmile_qr_scan"}}, {"name": "3eef3aabe00f2234ede62b39b2fbc575", "fusion_lat": 0.0, "type": "electric_bike", "lat": 38.93414683333334, "is_reserved": 0, "is_disabled": 0, "fusion_lon": 0.0, "bike_id": "3eef3aabe00f2234ede62b39b2fbc575", "lon": -77.0251255, "rental_uris": {"ios": "https://dc.lft.to/lastmile_qr_scan", "android": "https://dc.lft.to/lastmile_qr_scan"}}, {"name": "8f03b459b95a090e1a1efb9d8927c92a", "fusion_lat": 0.0, "type": "electric_scooter", "lat": 38.91267233333333, "is_reserved": 0, "is_disabled": 0, "fusion_lon": 0.0, "bike_id": "8f03b459b95a090e1a1efb9d8927c92a", "lon": -77.03631183333333, "rental_uris": {"ios": "https://dc.lft.to/lastmile_qr_scan", "android": "https://dc.lft.to/lastmile_qr_scan"}}, {"name": "2034fde13b91d7fdeee487d87e4436d4", "fusion_lat": 0.0, "type": "electric_scooter", "lat": 38.866632, "is_reserved": 0, "is_disabled": 0, "fusion_lon": 0.0, "bike_id": "2034fde13b91d7fdeee487d87e4436d4", "lon": -76.9888125, "rental_uris": {"ios": "https://dc.lft.to/lastmile_qr_scan", "android": "https://dc.lft.to/lastmile_qr_scan"}}, {"name": "b7d918651a147987db3c3aede754f93e", "fusion_lat": 0.0, "type": "electric_scooter", "lat": 38.88123816666667, "is_reserved": 0, "is_disabled": 0, "fusion_lon": 0.0, "bike_id": "b7d918651a147987db3c3aede754f93e", "lon": -77.01340166666667, "rental_uris": {"ios": "https://dc.lft.to/lastmile_qr_scan", "android": "https://dc.lft.to/lastmile_qr_scan"}}, {"name": "9afab0f50dbe7a4b508ca8516603c66d", "fusion_lat": 0.0, "type": "electric_scooter", "lat": 38.91799733333333, "is_reserved": 0, "is_disabled": 0, "fusion_lon": 0.0, "bike_id": "9afab0f50dbe7a4b508ca8516603c66d", "lon": -77.0232, "rental_uris": {"ios": "https://dc.lft.to/lastmile_qr_scan", "android": "https://dc.lft.to/lastmile_qr_scan"}}, {"name": "93c46e2627c74ed6c15cd3ae85cb3779", "fusion_lat": 0.0, "type": "electric_scooter", "lat": 38.89727033333333, "is_reserved": 0, "is_disabled": 0, "fusion_lon": 0.0, "bike_id": "93c46e2627c74ed6c15cd3ae85cb3779", "lon": -77.00949, "rental_uris": {"ios": "https://dc.lft.to/lastmile_qr_scan", "android": "https://dc.lft.to/lastmile_qr_scan"}}, {"name": "dd1c51b9f0b2fb7096b8f70c9c9f5238", "fusion_lat": 0.0, "type": "electric_scooter", "lat": 38.913039166666664, "is_reserved": 0, "is_disabled": 0, "fusion_lon": 0.0, "bike_id": "dd1c51b9f0b2fb7096b8f70c9c9f5238", "lon": -77.0202985, "rental_uris": {"ios": "https://dc.lft.to/lastmile_qr_scan", "android": "https://dc.lft.to/lastmile_qr_scan"}}, {"name": "23b221d140f9fa38b69a0868dcd32663", "fusion_lat": 0.0, "type": "electric_scooter", "lat": 38.90674933333333, "is_reserved": 0, "is_disabled": 0, "fusion_lon": 0.0, "bike_id": "23b221d140f9fa38b69a0868dcd32663", "lon": -77.02720966666666, "rental_uris": {"ios": "https://dc.lft.to/lastmile_qr_scan", "android": "https://dc.lft.to/lastmile_qr_scan"}}, {"name": "e8d16ca1ab96a27b7f7a751af4744ec5", "fusion_lat": 0.0, "type": "electric_scooter", "lat": 38.91054116666667, "is_reserved": 0, "is_disabled": 0, "fusion_lon": 0.0, "bike_id": "e8d16ca1ab96a27b7f7a751af4744ec5", "lon": -77.042672, "rental_uris": {"ios": "https://dc.lft.to/lastmile_qr_scan", "android": "https://dc.lft.to/lastmile_qr_scan"}}, {"name": "01cb08449ab9142f6633c8ce8f5d0ef4", "fusion_lat": 0.0, "type": "electric_bike", "lat": 38.91926483333334, "is_reserved": 0, "is_disabled": 0, "fusion_lon": 0.0, "bike_id": "01cb08449ab9142f6633c8ce8f5d0ef4", "lon": -77.04604183333333, "rental_uris": {"ios": "https://dc.lft.to/lastmile_qr_scan", "android": "https://dc.lft.to/lastmile_qr_scan"}}, {"name": "2367b8e1fc4bd651df4d6bc1484b1b86", "fusion_lat": 0.0, "type": "electric_scooter", "lat": 38.9007485, "is_reserved": 0, "is_disabled": 0, "fusion_lon": 0.0, "bike_id": "2367b8e1fc4bd651df4d6bc1484b1b86", "lon": -77.03349866666667, "rental_uris": {"ios": "https://dc.lft.to/lastmile_qr_scan", "android": "https://dc.lft.to/lastmile_qr_scan"}}, {"name": "07f2f49ad801a470f479c6d26364e238", "fusion_lat": 0.0, "type": "electric_bike", "lat": 38.92451333333333, "is_reserved": 0, "is_disabled": 0, "fusion_lon": 0.0, "bike_id": "07f2f49ad801a470f479c6d26364e238", "lon": -76.99044133333334, "rental_uris": {"ios": "https://dc.lft.to/lastmile_qr_scan", "android": "https://dc.lft.to/lastmile_qr_scan"}}, {"name": "b3a67ec8f97bf2768e99847c204232c4", "fusion_lat": 0.0, "type": "electric_bike", "lat": 38.86911166666667, "is_reserved": 0, "is_disabled": 0, "fusion_lon": 0.0, "bike_id": "b3a67ec8f97bf2768e99847c204232c4", "lon": -77.1317655, "rental_uris": {"ios": "https://dc.lft.to/lastmile_qr_scan", "android": "https://dc.lft.to/lastmile_qr_scan"}}, {"name": "f26ab4c67671c680cf6217bbfc3a107e", "fusion_lat": 0.0, "type": "electric_scooter", "lat": 38.844287666666666, "is_reserved": 0, "is_disabled": 0, "fusion_lon": 0.0, "bike_id": "f26ab4c67671c680cf6217bbfc3a107e", "lon": -76.99722016666666, "rental_uris": {"ios": "https://dc.lft.to/lastmile_qr_scan", "android": "https://dc.lft.to/lastmile_qr_scan"}}, {"name": "caa8019d526ab994a2781dae02d5dfe5", "fusion_lat": 0.0, "type": "electric_scooter", "lat": 38.90694833333333, "is_reserved": 0, "is_disabled": 0, "fusion_lon": 0.0, "bike_id": "caa8019d526ab994a2781dae02d5dfe5", "lon": -77.02393433333333, "rental_uris": {"ios": "https://dc.lft.to/lastmile_qr_scan", "android": "https://dc.lft.to/lastmile_qr_scan"}}, {"name": "0d32d00a660d77be2c46ff22c0c3009e", "fusion_lat": 0.0, "type": "electric_scooter", "lat": 38.909683666666666, "is_reserved": 0, "is_disabled": 0, "fusion_lon": 0.0, "bike_id": "0d32d00a660d77be2c46ff22c0c3009e", "lon": -77.02173416666666, "rental_uris": {"ios": "https://dc.lft.to/lastmile_qr_scan", "android": "https://dc.lft.to/lastmile_qr_scan"}}, {"name": "bcdeebbd0afa0756a98f33e73e1898ef", "fusion_lat": 0.0, "type": "electric_scooter", "lat": 38.9021365, "is_reserved": 0, "is_disabled": 0, "fusion_lon": 0.0, "bike_id": "bcdeebbd0afa0756a98f33e73e1898ef", "lon": -77.05116666666666, "rental_uris": {"ios": "https://dc.lft.to/lastmile_qr_scan", "android": "https://dc.lft.to/lastmile_qr_scan"}}, {"name": "1f11f2463bfbb27b2be75053902b4742", "fusion_lat": 0.0, "type": "electric_scooter", "lat": 38.91698383333333, "is_reserved": 0, "is_disabled": 0, "fusion_lon": 0.0, "bike_id": "1f11f2463bfbb27b2be75053902b4742", "lon": -77.03149883333333, "rental_uris": {"ios": "https://dc.lft.to/lastmile_qr_scan", "android": "https://dc.lft.to/lastmile_qr_scan"}}, {"name": "b1892db3ce566b29700982a57ced6b05", "fusion_lat": 0.0, "type": "electric_scooter", "lat": 38.9113315, "is_reserved": 0, "is_disabled": 0, "fusion_lon": 0.0, "bike_id": "b1892db3ce566b29700982a57ced6b05", "lon": -77.01984816666666, "rental_uris": {"ios": "https://dc.lft.to/lastmile_qr_scan", "android": "https://dc.lft.to/lastmile_qr_scan"}}, {"name": "06450d8828dfc5cbce2233e11a60ce73", "fusion_lat": 0.0, "type": "electric_scooter", "lat": 38.941133, "is_reserved": 0, "is_disabled": 0, "fusion_lon": 0.0, "bike_id": "06450d8828dfc5cbce2233e11a60ce73", "lon": -77.017918, "rental_uris": {"ios": "https://dc.lft.to/lastmile_qr_scan", "android": "https://dc.lft.to/lastmile_qr_scan"}}, {"name": "057a08292fa9dc92edfc7491241f872b", "fusion_lat": 0.0, "type": "electric_scooter", "lat": 38.89358216666667, "is_reserved": 0, "is_disabled": 0, "fusion_lon": 0.0, "bike_id": "057a08292fa9dc92edfc7491241f872b", "lon": -76.94986883333334, "rental_uris": {"ios": "https://dc.lft.to/lastmile_qr_scan", "android": "https://dc.lft.to/lastmile_qr_scan"}}, {"name": "4cfbad94ea7ea65fcd7c4fbd46c3965a", "fusion_lat": 0.0, "type": "electric_scooter", "lat": 38.900387, "is_reserved": 0, "is_disabled": 0, "fusion_lon": 0.0, "bike_id": "4cfbad94ea7ea65fcd7c4fbd46c3965a", "lon": -77.02971883333333, "rental_uris": {"ios": "https://dc.lft.to/lastmile_qr_scan", "android": "https://dc.lft.to/lastmile_qr_scan"}}, {"name": "c265686fd316031c3291f792dbcb1217", "fusion_lat": 0.0, "type": "electric_scooter", "lat": 38.8764105, "is_reserved": 0, "is_disabled": 0, "fusion_lon": 0.0, "bike_id": "c265686fd316031c3291f792dbcb1217", "lon": -77.00771016666667, "rental_uris": {"ios": "https://dc.lft.to/lastmile_qr_scan", "android": "https://dc.lft.to/lastmile_qr_scan"}}, {"name": "6d30fe510535dbd72271e51316eebff4", "fusion_lat": 0.0, "type": "electric_bike", "lat": 38.834372, "is_reserved": 0, "is_disabled": 0, "fusion_lon": 0.0, "bike_id": "6d30fe510535dbd72271e51316eebff4", "lon": -77.00825316666666, "rental_uris": {"ios": "https://dc.lft.to/lastmile_qr_scan", "android": "https://dc.lft.to/lastmile_qr_scan"}}, {"name": "f7f5ddf26caf2734d1030b903e5f1c08", "fusion_lat": 0.0, "type": "electric_scooter", "lat": 38.931491666666666, "is_reserved": 0, "is_disabled": 0, "fusion_lon": 0.0, "bike_id": "f7f5ddf26caf2734d1030b903e5f1c08", "lon": -77.02970816666667, "rental_uris": {"ios": "https://dc.lft.to/lastmile_qr_scan", "android": "https://dc.lft.to/lastmile_qr_scan"}}, {"name": "15e46aa6e74de5d5317fa4384169eecc", "fusion_lat": 0.0, "type": "electric_scooter", "lat": 38.91811116666667, "is_reserved": 0, "is_disabled": 0, "fusion_lon": 0.0, "bike_id": "15e46aa6e74de5d5317fa4384169eecc", "lon": -77.02797, "rental_uris": {"ios": "https://dc.lft.to/lastmile_qr_scan", "android": "https://dc.lft.to/lastmile_qr_scan"}}, {"name": "3037d9ba0dcea54ad319485c3f62ae8f", "fusion_lat": 0.0, "type": "electric_scooter", "lat": 38.939625166666666, "is_reserved": 0, "is_disabled": 0, "fusion_lon": 0.0, "bike_id": "3037d9ba0dcea54ad319485c3f62ae8f", "lon": -77.02751983333333, "rental_uris": {"ios": "https://dc.lft.to/lastmile_qr_scan", "android": "https://dc.lft.to/lastmile_qr_scan"}}, {"name": "e44e7a16d1720e6525e04118d4d9d5b7", "fusion_lat": 0.0, "type": "electric_bike", "lat": 38.949175, "is_reserved": 0, "is_disabled": 0, "fusion_lon": 0.0, "bike_id": "e44e7a16d1720e6525e04118d4d9d5b7", "lon": -77.00797333333334, "rental_uris": {"ios": "https://dc.lft.to/lastmile_qr_scan", "android": "https://dc.lft.to/lastmile_qr_scan"}}, {"name": "fa7e7356d0374c201f5c571eb9c8836d", "fusion_lat": 0.0, "type": "electric_scooter", "lat": 38.92740283333333, "is_reserved": 0, "is_disabled": 0, "fusion_lon": 0.0, "bike_id": "fa7e7356d0374c201f5c571eb9c8836d", "lon": -77.02300116666666, "rental_uris": {"ios": "https://dc.lft.to/lastmile_qr_scan", "android": "https://dc.lft.to/lastmile_qr_scan"}}, {"name": "e3f13409ddf53a0e147e5249cec43a0c", "fusion_lat": 0.0, "type": "electric_scooter", "lat": 38.930612333333336, "is_reserved": 0, "is_disabled": 0, "fusion_lon": 0.0, "bike_id": "e3f13409ddf53a0e147e5249cec43a0c", "lon": -77.02976466666667, "rental_uris": {"ios": "https://dc.lft.to/lastmile_qr_scan", "android": "https://dc.lft.to/lastmile_qr_scan"}}, {"name": "caa2f511ece4d66fa5f84eaff892e80b", "fusion_lat": 0.0, "type": "electric_scooter", "lat": 38.88506983333333, "is_reserved": 0, "is_disabled": 0, "fusion_lon": 0.0, "bike_id": "caa2f511ece4d66fa5f84eaff892e80b", "lon": -77.02171, "rental_uris": {"ios": "https://dc.lft.to/lastmile_qr_scan", "android": "https://dc.lft.to/lastmile_qr_scan"}}, {"name": "d08c003f8a0da380a51fe25010986d75", "fusion_lat": 0.0, "type": "electric_bike", "lat": 39.0001415, "is_reserved": 0, "is_disabled": 0, "fusion_lon": 0.0, "bike_id": "d08c003f8a0da380a51fe25010986d75", "lon": -77.01742483333334, "rental_uris": {"ios": "https://dc.lft.to/lastmile_qr_scan", "android": "https://dc.lft.to/lastmile_qr_scan"}}, {"name": "bc6a5631d7b473d3727836500f52195d", "fusion_lat": 0.0, "type": "electric_scooter", "lat": 38.911119666666664, "is_reserved": 0, "is_disabled": 0, "fusion_lon": 0.0, "bike_id": "bc6a5631d7b473d3727836500f52195d", "lon": -77.038347, "rental_uris": {"ios": "https://dc.lft.to/lastmile_qr_scan", "android": "https://dc.lft.to/lastmile_qr_scan"}}, {"name": "0390efb0570c5b9c2748b88e788c98e8", "fusion_lat": 0.0, "type": "electric_bike", "lat": 38.858504333333336, "is_reserved": 0, "is_disabled": 0, "fusion_lon": 0.0, "bike_id": "0390efb0570c5b9c2748b88e788c98e8", "lon": -77.09758783333334, "rental_uris": {"ios": "https://dc.lft.to/lastmile_qr_scan", "android": "https://dc.lft.to/lastmile_qr_scan"}}, {"name": "c3bde7476e7171403fd00350e028e239", "fusion_lat": 0.0, "type": "electric_scooter", "lat": 38.91772, "is_reserved": 0, "is_disabled": 0, "fusion_lon": 0.0, "bike_id": "c3bde7476e7171403fd00350e028e239", "lon": -77.02340883333333, "rental_uris": {"ios": "https://dc.lft.to/lastmile_qr_scan", "android": "https://dc.lft.to/lastmile_qr_scan"}}, {"name": "8346118770aaf4b57cbce5fcf7c66572", "fusion_lat": 0.0, "type": "electric_scooter", "lat": 38.89230416666667, "is_reserved": 0, "is_disabled": 0, "fusion_lon": 0.0, "bike_id": "8346118770aaf4b57cbce5fcf7c66572", "lon": -77.015093, "rental_uris": {"ios": "https://dc.lft.to/lastmile_qr_scan", "android": "https://dc.lft.to/lastmile_qr_scan"}}, {"name": "7f288bba3fa4f7145d1c8993bcef2e95", "fusion_lat": 0.0, "type": "electric_scooter", "lat": 38.916347333333334, "is_reserved": 0, "is_disabled": 0, "fusion_lon": 0.0, "bike_id": "7f288bba3fa4f7145d1c8993bcef2e95", "lon": -77.000993, "rental_uris": {"ios": "https://dc.lft.to/lastmile_qr_scan", "android": "https://dc.lft.to/lastmile_qr_scan"}}, {"name": "123846fab60946c19cc3ab6af3bf1339", "fusion_lat": 0.0, "type": "electric_scooter", "lat": 38.9333595, "is_reserved": 0, "is_disabled": 0, "fusion_lon": 0.0, "bike_id": "123846fab60946c19cc3ab6af3bf1339", "lon": -77.0274225, "rental_uris": {"ios": "https://dc.lft.to/lastmile_qr_scan", "android": "https://dc.lft.to/lastmile_qr_scan"}}, {"name": "45b6126e23de378219d0084e97d4f2a5", "fusion_lat": 0.0, "type": "electric_scooter", "lat": 38.860978, "is_reserved": 0, "is_disabled": 0, "fusion_lon": 0.0, "bike_id": "45b6126e23de378219d0084e97d4f2a5", "lon": -76.98909316666666, "rental_uris": {"ios": "https://dc.lft.to/lastmile_qr_scan", "android": "https://dc.lft.to/lastmile_qr_scan"}}, {"name": "cd6a7c8daade5fa52852a323704aaf6c", "fusion_lat": 0.0, "type": "electric_scooter", "lat": 38.9311385, "is_reserved": 0, "is_disabled": 0, "fusion_lon": 0.0, "bike_id": "cd6a7c8daade5fa52852a323704aaf6c", "lon": -77.0241165, "rental_uris": {"ios": "https://dc.lft.to/lastmile_qr_scan", "android": "https://dc.lft.to/lastmile_qr_scan"}}, {"name": "755c55bc8e1d547e5bbf5cdb07c4f120", "fusion_lat": 0.0, "type": "electric_scooter", "lat": 38.923872833333334, "is_reserved": 0, "is_disabled": 0, "fusion_lon": 0.0, "bike_id": "755c55bc8e1d547e5bbf5cdb07c4f120", "lon": -77.02979666666667, "rental_uris": {"ios": "https://dc.lft.to/lastmile_qr_scan", "android": "https://dc.lft.to/lastmile_qr_scan"}}, {"name": "8ba6106fb0f813197a9020c43a3dda65", "fusion_lat": 0.0, "type": "electric_scooter", "lat": 38.900255, "is_reserved": 0, "is_disabled": 0, "fusion_lon": 0.0, "bike_id": "8ba6106fb0f813197a9020c43a3dda65", "lon": -76.9906525, "rental_uris": {"ios": "https://dc.lft.to/lastmile_qr_scan", "android": "https://dc.lft.to/lastmile_qr_scan"}}, {"name": "ecbc7f66ffa5ab6f8616b037cf0f7be4", "fusion_lat": 0.0, "type": "electric_scooter", "lat": 38.92026283333333, "is_reserved": 0, "is_disabled": 0, "fusion_lon": 0.0, "bike_id": "ecbc7f66ffa5ab6f8616b037cf0f7be4", "lon": -77.03856733333333, "rental_uris": {"ios": "https://dc.lft.to/lastmile_qr_scan", "android": "https://dc.lft.to/lastmile_qr_scan"}}, {"name": "d07647e524608e6ae04982dc43fae528", "fusion_lat": 0.0, "type": "electric_scooter", "lat": 38.918166, "is_reserved": 0, "is_disabled": 0, "fusion_lon": 0.0, "bike_id": "d07647e524608e6ae04982dc43fae528", "lon": -77.040119, "rental_uris": {"ios": "https://dc.lft.to/lastmile_qr_scan", "android": "https://dc.lft.to/lastmile_qr_scan"}}, {"name": "0c871304fda8ca9d6fd46680c835c253", "fusion_lat": 0.0, "type": "electric_scooter", "lat": 38.92684466666667, "is_reserved": 0, "is_disabled": 0, "fusion_lon": 0.0, "bike_id": "0c871304fda8ca9d6fd46680c835c253", "lon": -77.0157555, "rental_uris": {"ios": "https://dc.lft.to/lastmile_qr_scan", "android": "https://dc.lft.to/lastmile_qr_scan"}}, {"name": "1e5018fd9d87cc89c0eb162ecd02a989", "fusion_lat": 0.0, "type": "electric_scooter", "lat": 38.936980166666665, "is_reserved": 0, "is_disabled": 0, "fusion_lon": 0.0, "bike_id": "1e5018fd9d87cc89c0eb162ecd02a989", "lon": -77.05603183333334, "rental_uris": {"ios": "https://dc.lft.to/lastmile_qr_scan", "android": "https://dc.lft.to/lastmile_qr_scan"}}, {"name": "92ae6a5f915d9037968c862daaf7f2e8", "fusion_lat": 0.0, "type": "electric_scooter", "lat": 38.91471283333333, "is_reserved": 0, "is_disabled": 0, "fusion_lon": 0.0, "bike_id": "92ae6a5f915d9037968c862daaf7f2e8", "lon": -77.03849966666667, "rental_uris": {"ios": "https://dc.lft.to/lastmile_qr_scan", "android": "https://dc.lft.to/lastmile_qr_scan"}}, {"name": "c5241239cd44851b6117b3fadde43c05", "fusion_lat": 0.0, "type": "electric_scooter", "lat": 38.90319983333333, "is_reserved": 0, "is_disabled": 0, "fusion_lon": 0.0, "bike_id": "c5241239cd44851b6117b3fadde43c05", "lon": -76.98152733333333, "rental_uris": {"ios": "https://dc.lft.to/lastmile_qr_scan", "android": "https://dc.lft.to/lastmile_qr_scan"}}, {"name": "62091a7557378c45031fa638fa8d0c9e", "fusion_lat": 0.0, "type": "electric_scooter", "lat": 38.90196233333333, "is_reserved": 0, "is_disabled": 0, "fusion_lon": 0.0, "bike_id": "62091a7557378c45031fa638fa8d0c9e", "lon": -77.02171016666667, "rental_uris": {"ios": "https://dc.lft.to/lastmile_qr_scan", "android": "https://dc.lft.to/lastmile_qr_scan"}}, {"name": "8bb4c003cd2ed082a711b2c56c8e7f8e", "fusion_lat": 0.0, "type": "electric_scooter", "lat": 38.904003, "is_reserved": 0, "is_disabled": 0, "fusion_lon": 0.0, "bike_id": "8bb4c003cd2ed082a711b2c56c8e7f8e", "lon": -77.0640215, "rental_uris": {"ios": "https://dc.lft.to/lastmile_qr_scan", "android": "https://dc.lft.to/lastmile_qr_scan"}}, {"name": "5ef6c2f7b1fa4df2f5aa1a10367c4c65", "fusion_lat": 0.0, "type": "electric_scooter", "lat": 38.918071, "is_reserved": 0, "is_disabled": 0, "fusion_lon": 0.0, "bike_id": "5ef6c2f7b1fa4df2f5aa1a10367c4c65", "lon": -77.04004633333334, "rental_uris": {"ios": "https://dc.lft.to/lastmile_qr_scan", "android": "https://dc.lft.to/lastmile_qr_scan"}}, {"name": "fe36d57c7aa969de230162d5b543bf49", "fusion_lat": 0.0, "type": "electric_scooter", "lat": 38.88730733333333, "is_reserved": 0, "is_disabled": 0, "fusion_lon": 0.0, "bike_id": "fe36d57c7aa969de230162d5b543bf49", "lon": -77.01768383333334, "rental_uris": {"ios": "https://dc.lft.to/lastmile_qr_scan", "android": "https://dc.lft.to/lastmile_qr_scan"}}, {"name": "d541a90c221fd0a25adf8a992382d076", "fusion_lat": 0.0, "type": "electric_bike", "lat": 39.088961833333336, "is_reserved": 0, "is_disabled": 0, "fusion_lon": 0.0, "bike_id": "d541a90c221fd0a25adf8a992382d076", "lon": -77.1784485, "rental_uris": {"ios": "https://dc.lft.to/lastmile_qr_scan", "android": "https://dc.lft.to/lastmile_qr_scan"}}, {"name": "4d65348adc29b6963eb30ca174f0899e", "fusion_lat": 0.0, "type": "electric_scooter", "lat": 38.907893333333334, "is_reserved": 0, "is_disabled": 0, "fusion_lon": 0.0, "bike_id": "4d65348adc29b6963eb30ca174f0899e", "lon": -77.03834983333333, "rental_uris": {"ios": "https://dc.lft.to/lastmile_qr_scan", "android": "https://dc.lft.to/lastmile_qr_scan"}}, {"name": "67f5acf3a0c77a4b37cb31c14a56c649", "fusion_lat": 0.0, "type": "electric_bike", "lat": 38.84610416666666, "is_reserved": 0, "is_disabled": 0, "fusion_lon": 0.0, "bike_id": "67f5acf3a0c77a4b37cb31c14a56c649", "lon": -76.978297, "rental_uris": {"ios": "https://dc.lft.to/lastmile_qr_scan", "android": "https://dc.lft.to/lastmile_qr_scan"}},