{"data": {"bikes": [{"is_disabled": 0, "is_reserved": 0, "type": "electric_scooter", "lon": -77.00802716666666, "fusion_lon": 0.0, "lat": 38.90741883333333, "rental_uris": {"android": "https://dc.lft.to/lastmile_qr_scan", "ios": "https://dc.lft.to/lastmile_qr_scan"}, "fusion_lat": 0.0, "name": "4c108d1ebf182fe3c7fe4098dd1e58a5", "bike_id": "4c108d1ebf182fe3c7fe4098dd1e58a5"}, {"is_disabled": 0, "is_reserved": 0, "type": "electric_scooter", "lon": -77.0416, "fusion_lon": 0.0, "lat": 38.916047, "rental_uris": {"android": "https://dc.lft.to/lastmile_qr_scan", "ios": "https://dc.lft.to/lastmile_qr_scan"}, "fusion_lat": 0.0, "name": "e9fdfcc61d879f0bad858af9cd531414", "bike_id": "e9fdfcc61d879f0bad858af9cd531414"}, {"is_disabled": 0, "is_reserved": 0, "type": "electric_scooter", "lon": -77.02316283333333, "fusion_lon": 0.0, "lat": 38.917762, "rental_uris": {"android": "https://dc.lft.to/lastmile_qr_scan", "ios": "https://dc.lft.to/lastmile_qr_scan"}, "fusion_lat": 0.0, "name": "1826c542751fae7ac27fb86c98f4b102", "bike_id": "1826c542751fae7ac27fb86c98f4b102"}, {"is_disabled": 0, "is_reserved": 0, "type": "electric_scooter", "lon": -77.03056066666667, "fusion_lon": 0.0, "lat": 38.9641875, "rental_uris": {"android": "https://dc.lft.to/lastmile_qr_scan", "ios": "https://dc.lft.to/lastmile_qr_scan"}, "fusion_lat": 0.0, "name": "63f2155ab0dea9f05d3492ed05f7d5d4", "bike_id": "63f2155ab0dea9f05d3492ed05f7d5d4"}, {"is_disabled": 0, "is_reserved": 0, "type": "electric_scooter", "lon": -77.02610083333333, "fusion_lon": 0.0, "lat": 38.92439533333334, "rental_uris": {"android": "https://dc.lft.to/lastmile_qr_scan", "ios": "https://dc.lft.to/lastmile_qr_scan"}, "fusion_lat": 0.0, "name": "f9ed377794e45bd637963e6a43c29ca6", "bike_id": "f9ed377794e45bd637963e6a43c29ca6"}, {"is_disabled": 0, "is_reserved": 0, "type": "electric_scooter", "lon": -77.0409715, "fusion_lon": 0.0, "lat": 38.908878333333334, "rental_uris": {"android": "https://dc.lft.to/lastmile_qr_scan", "ios": "https://dc.lft.to/lastmile_qr_scan"}, "fusion_lat": 0.0, "name": "d9d0dd317c42280eae2eab625af140df", "bike_id": "d9d0dd317c42280eae2eab625af140df"}, {"is_disabled": 0, "is_reserved": 0, "type": "electric_scooter", "lon": -77.041491, "fusion_lon": 0.0, "lat": 38.92292966666667, "rental_uris": {"android": "https://dc.lft.to/lastmile_qr_scan", "ios": "https://dc.lft.to/lastmile_qr_scan"}, "fusion_lat": 0.0, "name": "9d103046dbb5759141190d123bd221ca", "bike_id": "9d103046dbb5759141190d123bd221ca"}, {"is_disabled": 0, "is_reserved": 0, "type": "electric_scooter", "lon": -76.96529516666666, "fusion_lon": 0.0, "lat": 38.876251833333335, "rental_uris": {"android": "https://dc.lft.to/lastmile_qr_scan", "ios": "https://dc.lft.to/lastmile_qr_scan"}, "fusion_lat": 0.0, "name": "7d3af656ff9966b27df3570f96450530", "bike_id": "7d3af656ff9966b27df3570f96450530"}, {"is_disabled": 0, "is_reserved": 0, "type": "electric_scooter", "lon": -77.06802683333333, "fusion_lon": 0.0, "lat": 38.90496566666667, "rental_uris": {"android": "https://dc.lft.to/lastmile_qr_scan", "ios": "https://dc.lft.to/lastmile_qr_scan"}, "fusion_lat": 0.0, "name": "df96868ab50127adcfafc65106e0c755", "bike_id": "df96868ab50127adcfafc65106e0c755"}, {"is_disabled": 0, "is_reserved": 0, "type": "electric_scooter", "lon": -77.04404333333333, "fusion_lon": 0.0, "lat": 38.91041933333333, "rental_uris": {"android": "https://dc.lft.to/lastmile_qr_scan", "ios": "https://dc.lft.to/lastmile_qr_scan"}, "fusion_lat": 0.0, "name": "ce3b49101eb6d10d1add3c042e9be5ef", "bike_id": "ce3b49101eb6d10d1add3c042e9be5ef"}, {"is_disabled": 0, "is_reserved": 0, "type": "electric_scooter", "lon": -77.02184816666667, "fusion_lon": 0.0, "lat": 38.9155425, "rental_uris": {"android": "https://dc.lft.to/lastmile_qr_scan", "ios": "https://dc.lft.to/lastmile_qr_scan"}, "fusion_lat": 0.0, "name": "fd40a244d328bed8de3487079ec2726e", "bike_id": "fd40a244d328bed8de3487079ec2726e"}, {"is_disabled": 0, "is_reserved": 0, "type": "electric_scooter", "lon": -77.01130466666666, "fusion_lon": 0.0, "lat": 38.90030933333333, "rental_uris": {"android": "https://dc.lft.to/lastmile_qr_scan", "ios": "https://dc.lft.to/lastmile_qr_scan"}, "fusion_lat": 0.0, "name": "2bd9cfb5a22826e5cd3fd0bad5239fd4", "bike_id": "2bd9cfb5a22826e5cd3fd0bad5239fd4"}, {"is_disabled": 0, "is_reserved": 0, "type": "electric_scooter", "lon": -77.01759, "fusion_lon": 0.0, "lat": 38.877210166666664, "rental_uris": {"android": "https://dc.lft.to/lastmile_qr_scan", "ios": "https://dc.lft.to/lastmile_qr_scan"}, "fusion_lat": 0.0, "name": "3fbee9a52181badb8f1062a0b648e0a3", "bike_id": "3fbee9a52181badb8f1062a0b648e0a3"}, {"is_disabled": 0, "is_reserved": 0, "type": "electric_scooter", "lon": -77.038031, "fusion_lon": 0.0, "lat": 38.935795, "rental_uris": {"android": "https://dc.lft.to/lastmile_qr_scan", "ios": "https://dc.lft.to/lastmile_qr_scan"}, "fusion_lat": 0.0, "name": "9273dfbe0985aa9366a306c1e66d13e3", "bike_id": "9273dfbe0985aa9366a306c1e66d13e3"}, {"is_disabled": 0, "is_reserved": 0, "type": "electric_bike", "lon": -77.01232033333334, "fusion_lon": 0.0, "lat": 38.950821, "rental_uris": {"android": "https://dc.lft.to/lastmile_qr_scan", "ios": "https://dc.lft.to/lastmile_qr_scan"}, "fusion_lat": 0.0, "name": "5097f473895a8d3ae9bdd691fbffb904", "bike_id": "5097f473895a8d3ae9bdd691fbffb904"}, {"is_disabled": 0, "is_reserved": 0, "type": "electric_scooter", "lon": -77.0257805, "fusion_lon": 0.0, "lat": 38.892162166666665, "rental_uris": {"android": "https://dc.lft.to/lastmile_qr_scan", "ios": "https://dc.lft.to/lastmile_qr_scan"}, "fusion_lat": 0.0, "name": "c60e1f63d773548e1d3e4dc3bdbbb881", "bike_id": "c60e1f63d773548e1d3e4dc3bdbbb881"}, {"is_disabled": 0, "is_reserved": 0, "type": "electric_scooter", "lon": -77.01781133333333, "fusion_lon": 0.0, "lat": 38.8769615, "rental_uris": {"android": "https://dc.lft.to/lastmile_qr_scan", "ios": "https://dc.lft.to/lastmile_qr_scan"}, "fusion_lat": 0.0, "name": "f9de26800df464b673a83191dd8cc74f", "bike_id": "f9de26800df464b673a83191dd8cc74f"}, {"is_disabled": 0, "is_reserved": 0, "type": "electric_bike", "lon": -76.90972666666667, "fusion_lon": 0.0, "lat": 38.8543475, "rental_uris": {"android": "https://dc.lft.to/lastmile_qr_scan", "ios": "https://dc.lft.to/lastmile_qr_scan"}, "fusion_lat": 0.0, "name": "f54e8897b9c884db4c20da1d4b858f8a", "bike_id": "f54e8897b9c884db4c20da1d4b858f8a"}, {"is_disabled": 0, "is_reserved": 0, "type": "electric_scooter", "lon": -76.94208083333334, "fusion_lon": 0.0, "lat": 38.889907666666666, "rental_uris": {"android": "https://dc.lft.to/lastmile_qr_scan", "ios": "https://dc.lft.to/lastmile_qr_scan"}, "fusion_lat": 0.0, "name": "667c8e526eb39ca21debd17c147830b4", "bike_id": "667c8e526eb39ca21debd17c147830b4"}, {"is_disabled": 0, "is_reserved": 0, "type": "electric_scooter", "lon": -77.03060766666667, "fusion_lon": 0.0, "lat": 38.901241166666665, "rental_uris": {"android": "https://dc.lft.to/lastmile_qr_scan", "ios": "https://dc.lft.to/lastmile_qr_scan"}, "fusion_lat": 0.0, "name": "01787d410e9511b6fa6478cad485dc28", "bike_id": "01787d410e9511b6fa6478cad485dc28"}, {"is_disabled": 0, "is_reserved": 0, "type": "electric_scooter", "lon": -77.05136016666667, "fusion_lon": 0.0, "lat": 38.907093, "rental_uris": {"android": "https://dc.lft.to/lastmile_qr_scan", "ios": "https://dc.lft.to/lastmile_qr_scan"}, "fusion_lat": 0.0, "name": "6e0966ef3b8da4677cfa84d9a76c33fd", "bike_id": "6e0966ef3b8da4677cfa84d9a76c33fd"}, {"is_disabled": 0, "is_reserved": 0, "type": "electric_scooter", "lon": -77.010134, "fusion_lon": 0.0, "lat": 38.86718366666667, "rental_uris": {"android": "https://dc.lft.to/lastmile_qr_scan", "ios": "https://dc.lft.to/lastmile_qr_scan"}, "fusion_lat": 0.0, "name": "ab231c4668f413ee29790d9fd7baeb41", "bike_id": "ab231c4668f413ee29790d9fd7baeb41"}, {"is_disabled": 0, "is_reserved": 0, "type": "electric_scooter", "lon": -77.01423466666667, "fusion_lon": 0.0, "lat": 38.928450166666664, "rental_uris": {"android": "https://dc.lft.to/lastmile_qr_scan", "ios": "https://dc.lft.to/lastmile_qr_scan"}, "fusion_lat": 0.0, "name": "e771ca323e74a285fbf7978cee66c221", "bike_id": "e771ca323e74a285fbf7978cee66c221"}, {"is_disabled": 0, "is_reserved": 0, "type": "electric_scooter", "lon": -77.0392935, "fusion_lon": 0.0, "lat": 38.90810466666667, "rental_uris": {"android": "https://dc.lft.to/lastmile_qr_scan", "ios": "https://dc.lft.to/lastmile_qr_scan"}, "fusion_lat": 0.0, "name": "7a8c707fa7bef511a12c847a6dad5811", "bike_id": "7a8c707fa7bef511a12c847a6dad5811"}, {"is_disabled": 0, "is_reserved": 0, "type": "electric_scooter", "lon": -77.03229316666666, "fusion_lon": 0.0, "lat": 38.9247665, "rental_uris": {"android": "https://dc.lft.to/lastmile_qr_scan", "ios": "https://dc.lft.to/lastmile_qr_scan"}, "fusion_lat": 0.0, "name": "4d554d3c7585a47b316143f5d0699559", "bike_id": "4d554d3c7585a47b316143f5d0699559"}, {"is_disabled": 0, "is_reserved": 0, "type": "electric_scooter", "lon": -77.02137433333333, "fusion_lon": 0.0, "lat": 38.91592516666667, "rental_uris": {"android": "https://dc.lft.to/lastmile_qr_scan", "ios": "https://dc.lft.to/lastmile_qr_scan"}, "fusion_lat": 0.0, "name": "e8dffb6930a39ba545da8ecd6404311a", "bike_id": "e8dffb6930a39ba545da8ecd6404311a"}, {"is_disabled": 0, "is_reserved": 0, "type": "electric_scooter", "lon": -77.061247, "fusion_lon": 0.0, "lat": 38.943636833333336, "rental_uris": {"android": "https://dc.lft.to/lastmile_qr_scan", "ios": "https://dc.lft.to/lastmile_qr_scan"}, "fusion_lat": 0.0, "name": "ec97eee9531055565eb922423054143d", "bike_id": "ec97eee9531055565eb922423054143d"}, {"is_disabled": 0, "is_reserved": 0, "type": "electric_scooter", "lon": -76.93663066666667, "fusion_lon": 0.0, "lat": 38.88957333333333, "rental_uris": {"android": "https://dc.lft.to/lastmile_qr_scan", "ios": "https://dc.lft.to/lastmile_qr_scan"}, "fusion_lat": 0.0, "name": "a47375ecccbf1b5cd11fde07424dac09", "bike_id": "a47375ecccbf1b5cd11fde07424dac09"}, {"is_disabled": 0, "is_reserved": 0, "type": "electric_scooter", "lon": -76.99647866666666, "fusion_lon": 0.0, "lat": 38.887186, "rental_uris": {"android": "https://dc.lft.to/lastmile_qr_scan", "ios": "https://dc.lft.to/lastmile_qr_scan"}, "fusion_lat": 0.0, "name": "127272e7ceb32d422a475a5c1bbce532", "bike_id": "127272e7ceb32d422a475a5c1bbce532"}, {"is_disabled": 0, "is_reserved": 0, "type": "electric_scooter", "lon": -77.03139, "fusion_lon": 0.0, "lat": 38.90361866666667, "rental_uris": {"android": "https://dc.lft.to/lastmile_qr_scan", "ios": "https://dc.lft.to/lastmile_qr_scan"}, "fusion_lat": 0.0, "name": "41412857f880c5dba3b1370ce327eff7", "bike_id": "41412857f880c5dba3b1370ce327eff7"}, {"is_disabled": 0, "is_reserved": 0, "type": "electric_scooter", "lon": -77.05791266666667, "fusion_lon": 0.0, "lat": 38.90507066666667, "rental_uris": {"android": "https://dc.lft.to/lastmile_qr_scan", "ios": "https://dc.lft.to/lastmile_qr_scan"}, "fusion_lat": 0.0, "name": "5dcf0ade83f868dea9533f2cc8d861af", "bike_id": "5dcf0ade83f868dea9533f2cc8d861af"}, {"is_disabled": 0, "is_reserved": 0, "type": "electric_scooter", "lon": -77.03209666666666, "fusion_lon": 0.0, "lat": 38.917317833333335, "rental_uris": {"android": "https://dc.lft.to/lastmile_qr_scan", "ios": "https://dc.lft.to/lastmile_qr_scan"}, "fusion_lat": 0.0, "name": "61ec3d2c30b325d2238e86f3be0da38e", "bike_id": "61ec3d2c30b325d2238e86f3be0da38e"}, {"is_disabled": 0, "is_reserved": 0, "type": "electric_scooter", "lon": -77.033996, "fusion_lon": 0.0, "lat": 38.907097666666665, "rental_uris": {"android": "https://dc.lft.to/lastmile_qr_scan", "ios": "https://dc.lft.to/lastmile_qr_scan"}, "fusion_lat": 0.0, "name": "0841d9c629a808da3091a1ae1330d634", "bike_id": "0841d9c629a808da3091a1ae1330d634"}, {"is_disabled": 0, "is_reserved": 0, "type": "electric_scooter", "lon": -77.04299666666667, "fusion_lon": 0.0, "lat": 38.913403, "rental_uris": {"android": "https://dc.lft.to/lastmile_qr_scan", "ios": "https://dc.lft.to/lastmile_qr_scan"}, "fusion_lat": 0.0, "name": "7e0a5aed02b9cdeed9e8013bfa9d0cf1", "bike_id": "7e0a5aed02b9cdeed9e8013bfa9d0cf1"}, {"is_disabled": 0, "is_reserved": 0, "type": "electric_scooter", "lon": -77.04045416666666, "fusion_lon": 0.0, "lat": 38.905699, "rental_uris": {"android": "https://dc.lft.to/lastmile_qr_scan", "ios": "https://dc.lft.to/lastmile_qr_scan"}, "fusion_lat": 0.0, "name": "412240574f1aebf859174800aa107ae5", "bike_id": "412240574f1aebf859174800aa107ae5"}, {"is_disabled": 0, "is_reserved": 0, "type": "electric_scooter", "lon": -77.019762, "fusion_lon": 0.0, "lat": 38.893629833333335, "rental_uris": {"android": "https://dc.lft.to/lastmile_qr_scan", "ios": "https://dc.lft.to/lastmile_qr_scan"}, "fusion_lat": 0.0, "name": "dd4ba13063db8d437c9cb6582ba218b5", "bike_id": "dd4ba13063db8d437c9cb6582ba218b5"}, {"is_disabled": 0, "is_reserved": 0, "type": "electric_scooter", "lon": -77.0160775, "fusion_lon": 0.0, "lat": 38.887390833333335, "rental_uris": {"android": "https://dc.lft.to/lastmile_qr_scan", "ios": "https://dc.lft.to/lastmile_qr_scan"}, "fusion_lat": 0.0, "name": "a2b74988e9718fed66b2a668b584bfab", "bike_id": "a2b74988e9718fed66b2a668b584bfab"}, {"is_disabled": 0, "is_reserved": 0, "type": "electric_scooter", "lon": -77.04241133333333, "fusion_lon": 0.0, "lat": 38.91929433333333, "rental_uris": {"android": "https://dc.lft.to/lastmile_qr_scan", "ios": "https://dc.lft.to/lastmile_qr_scan"}, "fusion_lat": 0.0, "name": "e50656d2e054555d89f4772f2cb3ae5d", "bike_id": "e50656d2e054555d89f4772f2cb3ae5d"}, {"is_disabled": 0, "is_reserved": 0, "type": "electric_scooter", "lon": -77.08577283333334, "fusion_lon": 0.0, "lat": 38.9335145, "rental_uris": {"android": "https://dc.lft.to/lastmile_qr_scan", "ios": "https://dc.lft.to/lastmile_qr_scan"}, "fusion_lat": 0.0, "name": "2e7f0f7d3e2f151e09fb230bd6c2d470", "bike_id": "2e7f0f7d3e2f151e09fb230bd6c2d470"}, {"is_disabled": 0, "is_reserved": 0, "type": "electric_scooter", "lon": -77.033, "fusion_lon": 0.0, "lat": 38.90468833333333, "rental_uris": {"android": "https://dc.lft.to/lastmile_qr_scan", "ios": "https://dc.lft.to/lastmile_qr_scan"}, "fusion_lat": 0.0, "name": "e81baf6beecd0bc37316998b1d26a032", "bike_id": "e81baf6beecd0bc37316998b1d26a032"}, {"is_disabled": 0, "is_reserved": 0, "type": "electric_scooter", "lon": -77.006212, "fusion_lon": 0.0, "lat": 38.8719085, "rental_uris": {"android": "https://dc.lft.to/lastmile_qr_scan", "ios": "https://dc.lft.to/lastmile_qr_scan"}, "fusion_lat": 0.0, "name": "d88110e9789b0661ec9bd26925c76abf", "bike_id": "d88110e9789b0661ec9bd26925c76abf"}, {"is_disabled": 0, "is_reserved": 0, "type": "electric_scooter", "lon": -76.988706, "fusion_lon": 0.0, "lat": 38.8920395, "rental_uris": {"android": "https://dc.lft.to/lastmile_qr_scan", "ios": "https://dc.lft.to/lastmile_qr_scan"}, "fusion_lat": 0.0, "name": "1eedfd97d43983d47ea00ce003688d03", "bike_id": "1eedfd97d43983d47ea00ce003688d03"}, {"is_disabled": 0, "is_reserved": 0, "type": "electric_bike", "lon": -77.09564466666667, "fusion_lon": 0.0, "lat": 38.917026666666665, "rental_uris": {"android": "https://dc.lft.to/lastmile_qr_scan", "ios": "https://dc.lft.to/lastmile_qr_scan"}, "fusion_lat": 0.0, "name": "6b3a6cae5edded8923caf42996d26d4a", "bike_id": "6b3a6cae5edded8923caf42996d26d4a"}, {"is_disabled": 0, "is_reserved": 0, "type": "electric_scooter", "lon": -77.0265745, "fusion_lon": 0.0, "lat": 38.896095, "rental_uris": {"android": "https://dc.lft.to/lastmile_qr_scan", "ios": "https://dc.lft.to/lastmile_qr_scan"}, "fusion_lat": 0.0, "name": "f8b90359771a0b964d85bd7485d6f301", "bike_id": "f8b90359771a0b964d85bd7485d6f301"}, {"is_disabled": 0, "is_reserved": 0, "type": "electric_scooter", "lon": -77.043644, "fusion_lon": 0.0, "lat": 38.901462333333335, "rental_uris": {"android": "https://dc.lft.to/lastmile_qr_scan", "ios": "https://dc.lft.to/lastmile_qr_scan"}, "fusion_lat": 0.0, "name": "50c9c37352fadb850fcc5fb1315a7c28", "bike_id": "50c9c37352fadb850fcc5fb1315a7c28"}, {"is_disabled": 0, "is_reserved": 0, "type": "electric_scooter", "lon": -77.04087783333334, "fusion_lon": 0.0, "lat": 38.898265, "rental_uris": {"android": "https://dc.lft.to/lastmile_qr_scan", "ios": "https://dc.lft.to/lastmile_qr_scan"}, "fusion_lat": 0.0, "name": "b8d1cdfce809129d4ae5341e57673f19", "bike_id": "b8d1cdfce809129d4ae5341e57673f19"}, {"is_disabled": 0, "is_reserved": 0, "type": "electric_scooter", "lon": -77.02158816666666, "fusion_lon": 0.0, "lat": 38.92599883333333, "rental_uris": {"android": "https://dc.lft.to/lastmile_qr_scan", "ios": "https://dc.lft.to/lastmile_qr_scan"}, "fusion_lat": 0.0, "name": "1b2a81f4bd6bf509c5bca4adb591c83b", "bike_id": "1b2a81f4bd6bf509c5bca4adb591c83b"}, {"is_disabled": 0, "is_reserved": 0, "type": "electric_scooter", "lon": -77.03661483333333, "fusion_lon": 0.0, "lat": 38.91727783333333, "rental_uris": {"android": "https://dc.lft.to/lastmile_qr_scan", "ios": "https://dc.lft.to/lastmile_qr_scan"}, "fusion_lat": 0.0, "name": "7a654872ef8f7a056ec44e93561ac525", "bike_id": "7a654872ef8f7a056ec44e93561ac525"}, {"is_disabled": 0, "is_reserved": 0, "type": "electric_scooter", "lon": -76.98714833333334, "fusion_lon": 0.0, "lat": 38.866963166666665, "rental_uris": {"android": "https://dc.lft.to/lastmile_qr_scan", "ios": "https://dc.lft.to/lastmile_qr_scan"}, "fusion_lat": 0.0, "name": "bac4e96f815663f0cd185d321ae0b5d7", "bike_id": "bac4e96f815663f0cd185d321ae0b5d7"}, {"is_disabled": 0, "is_reserved": 0, "type": "electric_scooter", "lon": -77.03210616666667, "fusion_lon": 0.0, "lat": 38.92581333333333, "rental_uris": {"android": "https://dc.lft.to/lastmile_qr_scan", "ios": "https://dc.lft.to/lastmile_qr_scan"}, "fusion_lat": 0.0, "name": "a4dfa995c803f1f67d0b6a186f586295", "bike_id": "a4dfa995c803f1f67d0b6a186f586295"}, {"is_disabled": 0, "is_reserved": 0, "type": "electric_bike", "lon": -76.9956555, "fusion_lon": 0.0, "lat": 39.00783466666667, "rental_uris": {"android": "https://dc.lft.to/lastmile_qr_scan", "ios": "https://dc.lft.to/lastmile_qr_scan"}, "fusion_lat": 0.0, "name": "0e49bfcaeba60505de85f14f769fb8d9", "bike_id": "0e49bfcaeba60505de85f14f769fb8d9"}, {"is_disabled": 0, "is_reserved": 0, "type": "electric_scooter", "lon": -77.04664016666666, "fusion_lon": 0.0, "lat": 38.91021466666667, "rental_uris": {"android": "https://dc.lft.to/lastmile_qr_scan", "ios": "https://dc.lft.to/lastmile_qr_scan"}, "fusion_lat": 0.0, "name": "4edb0071760888cb3eb5571074b21fcb", "bike_id": "4edb0071760888cb3eb5571074b21fcb"}, {"is_disabled": 0, "is_reserved": 0, "type": "electric_scooter", "lon": -77.0291545, "fusion_lon": 0.0, "lat": 38.903634, "rental_uris": {"android": "https://dc.lft.to/lastmile_qr_scan", "ios": "https://dc.lft.to/lastmile_qr_scan"}, "fusion_lat": 0.0, "name": "ce6c1d030a09d9737a19d2555104903b", "bike_id": "ce6c1d030a09d9737a19d2555104903b"}, {"is_disabled": 0, "is_reserved": 0, "type": "electric_scooter", "lon": -77.04273883333333, "fusion_lon": 0.0, "lat": 38.91036233333333, "rental_uris": {"android": "https://dc.lft.to/lastmile_qr_scan", "ios": "https://dc.lft.to/lastmile_qr_scan"}, "fusion_lat": 0.0, "name": "853b047ed6774b854e127899ede890db", "bike_id": "853b047ed6774b854e127899ede890db"}, {"is_disabled": 0, "is_reserved": 0, "type": "electric_scooter", "lon": -77.02436233333333, "fusion_lon": 0.0, "lat": 38.937050666666664, "rental_uris": {"android": "https://dc.lft.to/lastmile_qr_scan", "ios": "https://dc.lft.to/lastmile_qr_scan"}, "fusion_lat": 0.0, "name": "87a2f2baeece4e148236254beb36c5ac", "bike_id": "87a2f2baeece4e148236254beb36c5ac"}, {"is_disabled": 0, "is_reserved": 0, "type": "electric_scooter", "lon": -77.0514845, "fusion_lon": 0.0, "lat": 38.90662666666667, "rental_uris": {"android": "https://dc.lft.to/lastmile_qr_scan", "ios": "https://dc.lft.to/lastmile_qr_scan"}, "fusion_lat": 0.0, "name": "da2b2c5abc22d83b7e6cdbd35cc51dd9", "bike_id": "da2b2c5abc22d83b7e6cdbd35cc51dd9"}, {"is_disabled": 0, "is_reserved": 0, "type": "electric_scooter", "lon": -76.98461866666666, "fusion_lon": 0.0, "lat": 38.893646333333336, "rental_uris": {"android": "https://dc.lft.to/lastmile_qr_scan", "ios": "https://dc.lft.to/lastmile_qr_scan"}, "fusion_lat": 0.0, "name": "c6d048a508b0bf218d10ebac1d16de9b", "bike_id": "c6d048a508b0bf218d10ebac1d16de9b"}, {"is_disabled": 0, "is_reserved": 0, "type": "electric_scooter", "lon": -77.031448, "fusion_lon": 0.0, "lat": 38.916924333333334, "rental_uris": {"android": "https://dc.lft.to/lastmile_qr_scan", "ios": "https://dc.lft.to/lastmile_qr_scan"}, "fusion_lat": 0.0, "name": "39b95cb661e35dbc78128a7e421c126d", "bike_id": "39b95cb661e35dbc78128a7e421c126d"}, {"is_disabled": 0, "is_reserved": 0, "type": "electric_scooter", "lon": -77.03213566666666, "fusion_lon": 0.0, "lat": 38.92583116666667, "rental_uris": {"android": "https://dc.lft.to/lastmile_qr_scan", "ios": "https://dc.lft.to/lastmile_qr_scan"}, "fusion_lat": 0.0, "name": "f328fb3eb8717e01d146827866832ce4", "bike_id": "f328fb3eb8717e01d146827866832ce4"}, {"is_disabled": 0, "is_reserved": 0, "type": "electric_scooter", "lon": -77.03385066666667, "fusion_lon": 0.0, "lat": 38.90276516666667, "rental_uris": {"android": "https://dc.lft.to/lastmile_qr_scan", "ios": "https://dc.lft.to/lastmile_qr_scan"}, "fusion_lat": 0.0, "name": "dc4b9b9c2e44366d25bf784cd773284d", "bike_id": "dc4b9b9c2e44366d25bf784cd773284d"}, {"is_disabled": 0, "is_reserved": 0, "type": "electric_scooter", "lon": -77.01203433333333, "fusion_lon": 0.0, "lat": 38.92743, "rental_uris": {"android": "https://dc.lft.to/lastmile_qr_scan", "ios": "https://dc.lft.to/lastmile_qr_scan"}, "fusion_lat": 0.0, "name": "0b66547400a4fd38e78d5499d1a4c868", "bike_id": "0b66547400a4fd38e78d5499d1a4c868"}, {"is_disabled": 0, "is_reserved": 0, "type": "electric_scooter", "lon": -76.99337133333333, "fusion_lon": 0.0, "lat": 38.83874266666667, "rental_uris": {"android": "https://dc.lft.to/lastmile_qr_scan", "ios": "https://dc.lft.to/lastmile_qr_scan"}, "fusion_lat": 0.0, "name": "a5accadbdcb3118dc0a0fda7b0974fb4", "bike_id": "a5accadbdcb3118dc0a0fda7b0974fb4"}, {"is_disabled": 0, "is_reserved": 0, "type": "electric_bike", "lon": -76.95194583333334, "fusion_lon": 0.0, "lat": 38.90687366666667, "rental_uris": {"android": "https://dc.lft.to/lastmile_qr_scan", "ios": "https://dc.lft.to/lastmile_qr_scan"}, "fusion_lat": 0.0, "name": "aec88aeaba498afede6f84d394534bc2", "bike_id": "aec88aeaba498afede6f84d394534bc2"}, {"is_disabled": 0, "is_reserved": 0, "type": "electric_scooter", "lon": -76.985496, "fusion_lon": 0.0, "lat": 38.90420866666667, "rental_uris": {"android": "https://dc.lft.to/lastmile_qr_scan", "ios": "https://dc.lft.to/lastmile_qr_scan"}, "fusion_lat": 0.0, "name": "f754115e5c112f09bf51e402bd3cf50b", "bike_id": "f754115e5c112f09bf51e402bd3cf50b"}, {"is_disabled": 0, "is_reserved": 0, "type": "electric_scooter", "lon": -76.93556316666667, "fusion_lon": 0.0, "lat": 38.901549, "rental_uris": {"android": "https://dc.lft.to/lastmile_qr_scan", "ios": "https://dc.lft.to/lastmile_qr_scan"}, "fusion_lat": 0.0, "name": "ffa8c5c996b977e60a3d0860a8ad2a1f", "bike_id": "ffa8c5c996b977e60a3d0860a8ad2a1f"}, {"is_disabled": 0, "is_reserved": 0, "type": "electric_scooter", "lon": -77.03787266666667, "fusion_lon": 0.0, "lat": 38.930234666666664, "rental_uris": {"android": "https://dc.lft.to/lastmile_qr_scan", "ios": "https://dc.lft.to/lastmile_qr_scan"}, "fusion_lat": 0.0, "name": "ed783dbc712324e0be875f1a6d963efa", "bike_id": "ed783dbc712324e0be875f1a6d963efa"}, {"is_disabled": 0, "is_reserved": 0, "type": "electric_scooter", "lon": -77.023145, "fusion_lon": 0.0, "lat": 38.9090045, "rental_uris": {"android": "https://dc.lft.to/lastmile_qr_scan", "ios": "https://dc.lft.to/lastmile_qr_scan"}, "fusion_lat": 0.0, "name": "9b0cd830cfa5962c639b6b1799385138", "bike_id": "9b0cd830cfa5962c639b6b1799385138"}, {"is_disabled": 0, "is_reserved": 0, "type": "electric_scooter", "lon": -77.03246916666667, "fusion_lon": 0.0, "lat": 38.90973683333333, "rental_uris": {"android": "https://dc.lft.to/lastmile_qr_scan", "ios": "https://dc.lft.to/lastmile_qr_scan"}, "fusion_lat": 0.0, "name": "8ed6b155ef5a4acb14101a5aef42e41f", "bike_id": "8ed6b155ef5a4acb14101a5aef42e41f"}, {"is_disabled": 0, "is_reserved": 0, "type": "electric_scooter", "lon": -77.02583433333334, "fusion_lon": 0.0, "lat": 38.942094166666664, "rental_uris": {"android": "https://dc.lft.to/lastmile_qr_scan", "ios": "https://dc.lft.to/lastmile_qr_scan"}, "fusion_lat": 0.0, "name": "4e96c5864baf2d1a92ef5c6ed6990ba9", "bike_id": "4e96c5864baf2d1a92ef5c6ed6990ba9"}, {"is_disabled": 0, "is_reserved": 0, "type": "electric_scooter", "lon": -77.057882, "fusion_lon": 0.0, "lat": 38.9050745, "rental_uris": {"android": "https://dc.lft.to/lastmile_qr_scan", "ios": "https://dc.lft.to/lastmile_qr_scan"}, "fusion_lat": 0.0, "name": "93233dcfe9342de1a6ae1f0142f4b26d", "bike_id": "93233dcfe9342de1a6ae1f0142f4b26d"}, {"is_disabled": 0, "is_reserved": 0, "type": "electric_scooter", "lon": -77.0457235, "fusion_lon": 0.0, "lat": 38.917776333333336, "rental_uris": {"android": "https://dc.lft.to/lastmile_qr_scan", "ios": "https://dc.lft.to/lastmile_qr_scan"}, "fusion_lat": 0.0, "name": "a6e61736b7debef7c4baf9a5d8ed94d3", "bike_id": "a6e61736b7debef7c4baf9a5d8ed94d3"}, {"is_disabled": 0, "is_reserved": 0, "type": "electric_scooter", "lon": -77.001432, "fusion_lon": 0.0, "lat": 38.9003565, "rental_uris": {"android": "https://dc.lft.to/lastmile_qr_scan", "ios": "https://dc.lft.to/lastmile_qr_scan"}, "fusion_lat": 0.0, "name": "ff8dfc2b354ed3966a48b8030a842d3a", "bike_id": "ff8dfc2b354ed3966a48b8030a842d3a"}, {"is_disabled": 0, "is_reserved": 0, "type": "electric_scooter", "lon": -77.02957, "fusion_lon": 0.0, "lat": 38.916828333333335, "rental_uris": {"android": "https://dc.lft.to/lastmile_qr_scan", "ios": "https://dc.lft.to/lastmile_qr_scan"}, "fusion_lat": 0.0, "name": "065fb7a88876652fe7062aa28dfe3548", "bike_id": "065fb7a88876652fe7062aa28dfe3548"}, {"is_disabled": 0, "is_reserved": 0, "type": "electric_scooter", "lon": -77.02586466666666, "fusion_lon": 0.0, "lat": 38.92036266666667, "rental_uris": {"android": "https://dc.lft.to/lastmile_qr_scan", "ios": "https://dc.lft.to/lastmile_qr_scan"}, "fusion_lat": 0.0, "name": "34830b1f056a616e944aebbf7979a79d", "bike_id": "34830b1f056a616e944aebbf7979a79d"}, {"is_disabled": 0, "is_reserved": 0, "type": "electric_bike", "lon": -77.0305175, "fusion_lon": 0.0, "lat": 38.994071166666664, "rental_uris": {"android": "https://dc.lft.to/lastmile_qr_scan", "ios": "https://dc.lft.to/lastmile_qr_scan"}, "fusion_lat": 0.0, "name": "0352095cf7d2d299f8c1715d553b6793", "bike_id": "0352095cf7d2d299f8c1715d553b6793"}, {"is_disabled": 0, "is_reserved": 0, "type": "electric_scooter", "lon": -77.01741533333333, "fusion_lon": 0.0, "lat": 38.91442466666667, "rental_uris": {"android": "https://dc.lft.to/lastmile_qr_scan", "ios": "https://dc.lft.to/lastmile_qr_scan"}, "fusion_lat": 0.0, "name": "c43ff37dfa88fdedab1ad49f75261378", "bike_id": "c43ff37dfa88fdedab1ad49f75261378"}, {"is_disabled": 0, "is_reserved": 0, "type": "electric_scooter", "lon": -77.03439083333333, "fusion_lon": 0.0, "lat": 38.910079, "rental_uris": {"android": "https://dc.lft.to/lastmile_qr_scan", "ios": "https://dc.lft.to/lastmile_qr_scan"}, "fusion_lat": 0.0, "name": "f7a977fa9de82eab324a9533373ce6e1", "bike_id": "f7a977fa9de82eab324a9533373ce6e1"}, {"is_disabled": 0, "is_reserved": 0, "type": "electric_scooter", "lon": -76.9906765, "fusion_lon": 0.0, "lat": 38.8635885, "rental_uris": {"android": "https://dc.lft.to/lastmile_qr_scan", "ios": "https://dc.lft.to/lastmile_qr_scan"}, "fusion_lat": 0.0, "name": "0c2a2edad49f4adebcefa7fc01ec1278", "bike_id": "0c2a2edad49f4adebcefa7fc01ec1278"}, {"is_disabled": 0, "is_reserved": 0, "type": "electric_scooter", "lon": -77.027168, "fusion_lon": 0.0, "lat": 38.90962366666667, "rental_uris": {"android": "https://dc.lft.to/lastmile_qr_scan", "ios": "https://dc.lft.to/lastmile_qr_scan"}, "fusion_lat": 0.0, "name": "775fbdc8c6f6caad6b24a842ae389d52", "bike_id": "775fbdc8c6f6caad6b24a842ae389d52"}, {"is_disabled": 0, "is_reserved": 0, "type": "electric_scooter", "lon": -77.00071533333333, "fusion_lon": 0.0, "lat": 38.876581, "rental_uris": {"android": "https://dc.lft.to/lastmile_qr_scan", "ios": "https://dc.lft.to/lastmile_qr_scan"}, "fusion_lat": 0.0, "name": "4388c3102ce47120b54419271a87cb01", "bike_id": "4388c3102ce47120b54419271a87cb01"}, {"is_disabled": 0, "is_reserved": 0, "type": "electric_scooter", "lon": -76.9808015, "fusion_lon": 0.0, "lat": 38.936471, "rental_uris": {"android": "https://dc.lft.to/lastmile_qr_scan", "ios": "https://dc.lft.to/lastmile_qr_scan"}, "fusion_lat": 0.0, "name": "dd8d2812c072143ea6b66bfda36c1e9d", "bike_id": "dd8d2812c072143ea6b66bfda36c1e9d"}, {"is_disabled": 0, "is_reserved": 0, "type": "electric_bike", "lon": -76.94539666666667, "fusion_lon": 0.0, "lat": 38.867564, "rental_uris": {"android": "https://dc.lft.to/lastmile_qr_scan", "ios": "https://dc.lft.to/lastmile_qr_scan"}, "fusion_lat": 0.0, "name": "89ff8872ef5c33f30e0d8290245edc17", "bike_id": "89ff8872ef5c33f30e0d8290245edc17"}, {"is_disabled": 0, "is_reserved": 0, "type": "electric_scooter", "lon": -77.01990516666666, "fusion_lon": 0.0, "lat": 38.898749333333335, "rental_uris": {"android": "https://dc.lft.to/lastmile_qr_scan", "ios": "https://dc.lft.to/lastmile_qr_scan"}, "fusion_lat": 0.0, "name": "b55812a7d768a3bf0c4cada5eef6dc75", "bike_id": "b55812a7d768a3bf0c4cada5eef6dc75"}, {"is_disabled": 0, "is_reserved": 0, "type": "electric_scooter", "lon": -77.01455816666666, "fusion_lon": 0.0, "lat": 38.92991283333333, "rental_uris": {"android": "https://dc.lft.to/lastmile_qr_scan", "ios": "https://dc.lft.to/lastmile_qr_scan"}, "fusion_lat": 0.0, "name": "ee4e4a7ee4c5bb92c12fc133a3528172", "bike_id": "ee4e4a7ee4c5bb92c12fc133a3528172"}, {"is_disabled": 0, "is_reserved": 0, "type": "electric_scooter", "lon": -77.03654783333333, "fusion_lon": 0.0, "lat": 38.91581716666666, "rental_uris": {"android": "https://dc.lft.to/lastmile_qr_scan", "ios": "https://dc.lft.to/lastmile_qr_scan"}, "fusion_lat": 0.0, "name": "830285afab8b0db549887a91b030a4d0", "bike_id": "830285afab8b0db549887a91b030a4d0"}, {"is_disabled": 0, "is_reserved": 0, "type": "electric_scooter", "lon": -77.00556716666667, "fusion_lon": 0.0, "lat": 38.87919183333333, "rental_uris": {"android": "https://dc.lft.to/lastmile_qr_scan", "ios": "https://dc.lft.to/lastmile_qr_scan"}, "fusion_lat": 0.0, "name": "49e327a40052bc8b765c900c5d17bc66", "bike_id": "49e327a40052bc8b765c900c5d17bc66"}, {"is_disabled": 0, "is_reserved": 0, "type": "electric_scooter", "lon": -76.99613216666667, "fusion_lon": 0.0, "lat": 38.92614016666667, "rental_uris": {"android": "https://dc.lft.to/lastmile_qr_scan", "ios": "https://dc.lft.to/lastmile_qr_scan"}, "fusion_lat": 0.0, "name": "63ee0579c00071d0bcebf3c790c03718", "bike_id": "63ee0579c00071d0bcebf3c790c03718"}, {"is_disabled": 0, "is_reserved": 0, "type": "electric_scooter", "lon": -77.04523766666667, "fusion_lon": 0.0, "lat": 38.9037225, "rental_uris": {"android": "https://dc.lft.to/lastmile_qr_scan", "ios": "https://dc.lft.to/lastmile_qr_scan"}, "fusion_lat": 0.0, "name": "a4e6d219e407ef5f7c2ad133cc824ec6", "bike_id": "a4e6d219e407ef5f7c2ad133cc824ec6"}, {"is_disabled": 0, "is_reserved": 0, "type": "electric_scooter", "lon": -77.041728, "fusion_lon": 0.0, "lat": 38.9200405, "rental_uris": {"android": "https://dc.lft.to/lastmile_qr_scan", "ios": "https://dc.lft.to/lastmile_qr_scan"}, "fusion_lat": 0.0, "name": "ebd62755e16cf8c31eae0ca4228bd622", "bike_id": "ebd62755e16cf8c31eae0ca4228bd622"}, {"is_disabled": 0, "is_reserved": 0, "type": "electric_scooter", "lon": -77.03115116666666, "fusion_lon": 0.0, "lat": 38.920101, "rental_uris": {"android": "https://dc.lft.to/lastmile_qr_scan", "ios": "https://dc.lft.to/lastmile_qr_scan"}, "fusion_lat": 0.0, "name": "35257633d23b7c369c8630dd88d9e85a", "bike_id": "35257633d23b7c369c8630dd88d9e85a"}, {"is_disabled": 0, "is_reserved": 0, "type": "electric_bike", "lon": -77.041369, "fusion_lon": 0.0, "lat": 38.943986, "rental_uris": {"android": "https://dc.lft.to/lastmile_qr_scan", "ios": "https://dc.lft.to/lastmile_qr_scan"}, "fusion_lat": 0.0, "name": "5fc1bf50c94cc1605df43a4b28ae7361", "bike_id": "5fc1bf50c94cc1605df43a4b28ae7361"}, {"is_disabled": 0, "is_reserved": 0, "type": "electric_scooter", "lon": -77.03610733333333, "fusion_lon": 0.0, "lat": 38.92329183333333, "rental_uris": {"android": "https://dc.lft.to/lastmile_qr_scan", "ios": "https://dc.lft.to/lastmile_qr_scan"}, "fusion_lat": 0.0, "name": "b21ace955fdf2b6b9bd8463e62f80d58", "bike_id": "b21ace955fdf2b6b9bd8463e62f80d58"}, {"is_disabled": 0, "is_reserved": 0, "type": "electric_scooter", "lon": -77.023914, "fusion_lon": 0.0, "lat": 38.927969833333336, "rental_uris": {"android": "https://dc.lft.to/lastmile_qr_scan", "ios": "https://dc.lft.to/lastmile_qr_scan"}, "fusion_lat": 0.0, "name": "b73b41c25f27c6aabcce6884bc289557", "bike_id": "b73b41c25f27c6aabcce6884bc289557"}, {"is_disabled": 0, "is_reserved": 0, "type": "electric_scooter", "lon": -77.015156, "fusion_lon": 0.0, "lat": 38.91029566666667, "rental_uris": {"android": "https://dc.lft.to/lastmile_qr_scan", "ios": "https://dc.lft.to/lastmile_qr_scan"}, "fusion_lat": 0.0, "name": "8bdc5e2739d52c6be15263a5e3da7081", "bike_id": "8bdc5e2739d52c6be15263a5e3da7081"}, {"is_disabled": 0, "is_reserved": 0, "type": "electric_scooter", "lon": -77.03700483333333, "fusion_lon": 0.0, "lat": 38.926423, "rental_uris": {"android": "https://dc.lft.to/lastmile_qr_scan", "ios": "https://dc.lft.to/lastmile_qr_scan"}, "fusion_lat": 0.0, "name": "be0a359beba476b4d1082c727e707a72", "bike_id": "be0a359beba476b4d1082c727e707a72"}, {"is_disabled": 0, "is_reserved": 0, "type": "electric_scooter", "lon": -77.01995983333333, "fusion_lon": 0.0, "lat": 38.9662495, "rental_uris": {"android": "https://dc.lft.to/lastmile_qr_scan", "ios": "https://dc.lft.to/lastmile_qr_scan"}, "fusion_lat": 0.0, "name": "5ed02a6ab53bbc10983c2c6ffce6b40f", "bike_id": "5ed02a6ab53bbc10983c2c6ffce6b40f"}, {"is_disabled": 0, "is_reserved": 0, "type": "electric_scooter", "lon": -77.0458275, "fusion_lon": 0.0, "lat": 38.92418216666667, "rental_uris": {"android": "https://dc.lft.to/lastmile_qr_scan", "ios": "https://dc.lft.to/lastmile_qr_scan"}, "fusion_lat": 0.0, "name": "fc78a9274bad3ff46320de30f561d9c4", "bike_id": "fc78a9274bad3ff46320de30f561d9c4"}, {"is_disabled": 0, "is_reserved": 0, "type": "electric_bike", "lon": -77.07086833333334, "fusion_lon": 0.0, "lat": 38.9062685, "rental_uris": {"android": "https://dc.lft.to/lastmile_qr_scan", "ios": "https://dc.lft.to/lastmile_qr_scan"}, "fusion_lat": 0.0, "name": "50abf8137d329a3f5d0fa53ed8851ff3", "bike_id": "50abf8137d329a3f5d0fa53ed8851ff3"}, {"is_disabled": 0, "is_reserved": 0, "type": "electric_scooter", "lon": -77.04173, "fusion_lon": 0.0, "lat": 38.9057935, "rental_uris": {"android": "https://dc.lft.to/lastmile_qr_scan", "ios": "https://dc.lft.to/lastmile_qr_scan"}, "fusion_lat": 0.0, "name": "f57eb90a3d648d6aa56b3c536f138508", "bike_id": "f57eb90a3d648d6aa56b3c536f138508"}, {"is_disabled": 0, "is_reserved": 0, "type": "electric_scooter", "lon": -77.03212416666666, "fusion_lon": 0.0, "lat": 38.91538516666667, "rental_uris": {"android": "https://dc.lft.to/lastmile_qr_scan", "ios": "https://dc.lft.to/lastmile_qr_scan"}, "fusion_lat": 0.0, "name": "9601bbc25dd5e6e2f3b42d768779bdca", "bike_id": "9601bbc25dd5e6e2f3b42d768779bdca"}, {"is_disabled": 0, "is_reserved": 0, "type": "electric_scooter", "lon": -77.026876, "fusion_lon": 0.0, "lat": 38.89735816666666, "rental_uris": {"android": "https://dc.lft.to/lastmile_qr_scan", "ios": "https://dc.lft.to/lastmile_qr_scan"}, "fusion_lat": 0.0, "name": "aa270496a1d24e30112570ddb9bf11bf", "bike_id": "aa270496a1d24e30112570ddb9bf11bf"}, {"is_disabled": 0, "is_reserved": 0, "type": "electric_scooter", "lon": -77.00924933333333, "fusion_lon": 0.0, "lat": 38.89645733333333, "rental_uris": {"android": "https://dc.lft.to/lastmile_qr_scan", "ios": "https://dc.lft.to/lastmile_qr_scan"}, "fusion_lat": 0.0, "name": "6a4bd598e8e2a8e5defc736e4396d9f1", "bike_id": "6a4bd598e8e2a8e5defc736e4396d9f1"}, {"is_disabled": 0, "is_reserved": 0, "type": "electric_scooter", "lon": -77.01854316666666, "fusion_lon": 0.0, "lat": 38.9542705, "rental_uris": {"android": "https://dc.lft.to/lastmile_qr_scan", "ios": "https://dc.lft.to/lastmile_qr_scan"}, "fusion_lat": 0.0, "name": "34403cf25cc4d9ced723f3e4ec0c9a10", "bike_id": "34403cf25cc4d9ced723f3e4ec0c9a10"}, {"is_disabled": 0, "is_reserved": 0, "type": "electric_scooter", "lon": -76.991193, "fusion_lon": 0.0, "lat": 38.90136583333334, "rental_uris": {"android": "https://dc.lft.to/lastmile_qr_scan", "ios": "https://dc.lft.to/lastmile_qr_scan"}, "fusion_lat": 0.0, "name": "dd002ee7bf27236459a6b0f51b563916", "bike_id": "dd002ee7bf27236459a6b0f51b563916"}, {"is_disabled": 0, "is_reserved": 0, "type": "electric_scooter", "lon": -77.02545566666667, "fusion_lon": 0.0, "lat": 38.9072225, "rental_uris": {"android": "https://dc.lft.to/lastmile_qr_scan", "ios": "https://dc.lft.to/lastmile_qr_scan"}, "fusion_lat": 0.0, "name": "6c2ebacdbe9663caff8712c49c330059", "bike_id": "6c2ebacdbe9663caff8712c49c330059"}, {"is_disabled": 0, "is_reserved": 0, "type": "electric_scooter", "lon": -77.0075825, "fusion_lon": 0.0, "lat": 38.87659016666667, "rental_uris": {"android": "https://dc.lft.to/lastmile_qr_scan", "ios": "https://dc.lft.to/lastmile_qr_scan"}, "fusion_lat": 0.0, "name": "f27b5e5a62a1a9cbc98350aa2b9f7a91", "bike_id": "f27b5e5a62a1a9cbc98350aa2b9f7a91"}, {"is_disabled": 0, "is_reserved": 0, "type": "electric_scooter", "lon": -77.041727, "fusion_lon": 0.0, "lat": 38.905952666666664, "rental_uris": {"android": "https://dc.lft.to/lastmile_qr_scan", "ios": "https://dc.lft.to/lastmile_qr_scan"}, "fusion_lat": 0.0, "name": "518b5eba51392cce17803882a982d65f", "bike_id": "518b5eba51392cce17803882a982d65f"}, {"is_disabled": 0, "is_reserved": 0, "type": "electric_scooter", "lon": -77.01379683333333, "fusion_lon": 0.0, "lat": 38.870839333333336, "rental_uris": {"android": "https://dc.lft.to/lastmile_qr_scan", "ios": "https://dc.lft.to/lastmile_qr_scan"}, "fusion_lat": 0.0, "name": "df85502a9824f6625e132c7e8e10a6ae", "bike_id": "df85502a9824f6625e132c7e8e10a6ae"}, {"is_disabled": 0, "is_reserved": 0, "type": "electric_scooter", "lon": -77.00872916666667, "fusion_lon": 0.0, "lat": 38.90575416666667, "rental_uris": {"android": "https://dc.lft.to/lastmile_qr_scan", "ios": "https://dc.lft.to/lastmile_qr_scan"}, "fusion_lat": 0.0, "name": "3404fce04e1b41c6886ac28aa57fc266", "bike_id": "3404fce04e1b41c6886ac28aa57fc266"}, {"is_disabled": 0, "is_reserved": 0, "type": "electric_scooter", "lon": -77.03256616666667, "fusion_lon": 0.0, "lat": 38.921061, "rental_uris": {"android": "https://dc.lft.to/lastmile_qr_scan", "ios": "https://dc.lft.to/lastmile_qr_scan"}, "fusion_lat": 0.0, "name": "2c9c5db138810c7f995e1c000a4b666a", "bike_id": "2c9c5db138810c7f995e1c000a4b666a"}, {"is_disabled": 0, "is_reserved": 0, "type": "electric_scooter", "lon": -76.9721575, "fusion_lon": 0.0, "lat": 38.89797883333333, "rental_uris": {"android": "https://dc.lft.to/lastmile_qr_scan", "ios": "https://dc.lft.to/lastmile_qr_scan"}, "fusion_lat": 0.0, "name": "aa0d9e918e6da327eaa5992b54bc5fe2", "bike_id": "aa0d9e918e6da327eaa5992b54bc5fe2"}, {"is_disabled": 0, "is_reserved": 0, "type": "electric_bike", "lon": -76.93197916666666, "fusion_lon": 0.0, "lat": 38.8723245, "rental_uris": {"android": "https://dc.lft.to/lastmile_qr_scan", "ios": "https://dc.lft.to/lastmile_qr_scan"}, "fusion_lat": 0.0, "name": "04d9a00bf730f7d1395137f88fd5cc2c", "bike_id": "04d9a00bf730f7d1395137f88fd5cc2c"}, {"is_disabled": 0, "is_reserved": 0, "type": "electric_scooter", "lon": -77.0343945, "fusion_lon": 0.0, "lat": 38.918011666666665, "rental_uris": {"android": "https://dc.lft.to/lastmile_qr_scan", "ios": "https://dc.lft.to/lastmile_qr_scan"}, "fusion_lat": 0.0, "name": "f3554675404d91bbe0e328c8a551268b", "bike_id": "f3554675404d91bbe0e328c8a551268b"}, {"is_disabled": 0, "is_reserved": 0, "type": "electric_scooter", "lon": -77.041526, "fusion_lon": 0.0, "lat": 38.923484, "rental_uris": {"android": "https://dc.lft.to/lastmile_qr_scan", "ios": "https://dc.lft.to/lastmile_qr_scan"}, "fusion_lat": 0.0, "name": "3d1ef7f5e4be39cbcc3bb7cb1d1077cc", "bike_id": "3d1ef7f5e4be39cbcc3bb7cb1d1077cc"}, {"is_disabled": 0, "is_reserved": 0, "type": "electric_scooter", "lon": -77.02161133333334, "fusion_lon": 0.0, "lat": 38.92609016666667, "rental_uris": {"android": "https://dc.lft.to/lastmile_qr_scan", "ios": "https://dc.lft.to/lastmile_qr_scan"}, "fusion_lat": 0.0, "name": "761ab6fa4d156698e1a15a9a6979dbcc", "bike_id": "761ab6fa4d156698e1a15a9a6979dbcc"}, {"is_disabled": 0, "is_reserved": 0, "type": "electric_scooter", "lon": -77.00590866666667, "fusion_lon": 0.0, "lat": 38.92760233333333, "rental_uris": {"android": "https://dc.lft.to/lastmile_qr_scan", "ios": "https://dc.lft.to/lastmile_qr_scan"}, "fusion_lat": 0.0, "name": "5991e1452d544a06ad138d64864bf76a", "bike_id": "5991e1452d544a06ad138d64864bf76a"}, {"is_disabled": 0, "is_reserved": 0, "type": "electric_scooter", "lon": -77.03614033333334, "fusion_lon": 0.0, "lat": 38.911088, "rental_uris": {"android": "https://dc.lft.to/lastmile_qr_scan", "ios": "https://dc.lft.to/lastmile_qr_scan"}, "fusion_lat": 0.0, "name": "59b1553902715c34b451ad84f6b92cca", "bike_id": "59b1553902715c34b451ad84f6b92cca"}, {"is_disabled": 0, "is_reserved": 0, "type": "electric_scooter", "lon": -77.05041466666667, "fusion_lon": 0.0, "lat": 38.92356916666667, "rental_uris": {"android": "https://dc.lft.to/lastmile_qr_scan", "ios": "https://dc.lft.to/lastmile_qr_scan"}, "fusion_lat": 0.0, "name": "45ae1b576a6b0737a13e19d067976c97", "bike_id": "45ae1b576a6b0737a13e19d067976c97"}, {"is_disabled": 0, "is_reserved": 0, "type": "electric_scooter", "lon": -76.98073783333334, "fusion_lon": 0.0, "lat": 38.919327, "rental_uris": {"android": "https://dc.lft.to/lastmile_qr_scan", "ios": "https://dc.lft.to/lastmile_qr_scan"}, "fusion_lat": 0.0, "name": "598a0132e8628c25ffc2a3f936dfcb59", "bike_id": "598a0132e8628c25ffc2a3f936dfcb59"}, {"is_disabled": 0, "is_reserved": 0, "type": "electric_scooter", "lon": -77.03957816666667, "fusion_lon": 0.0, "lat": 38.901862666666666, "rental_uris": {"android": "https://dc.lft.to/lastmile_qr_scan", "ios": "https://dc.lft.to/lastmile_qr_scan"}, "fusion_lat": 0.0, "name": "94b0705dbaf131d88ea52d9d4bb8fb15", "bike_id": "94b0705dbaf131d88ea52d9d4bb8fb15"}, {"is_disabled": 0, "is_reserved": 0, "type": "electric_scooter", "lon": -77.02545766666667, "fusion_lon": 0.0, "lat": 38.984131166666664, "rental_uris": {"android": "https://dc.lft.to/lastmile_qr_scan", "ios": "https://dc.lft.to/lastmile_qr_scan"}, "fusion_lat": 0.0, "name": "b034f96b5282870e0709a66834949102", "bike_id": "b034f96b5282870e0709a66834949102"}, {"is_disabled": 0, "is_reserved": 0, "type": "electric_scooter", "lon": -77.04182016666667, "fusion_lon": 0.0, "lat": 38.9049525, "rental_uris": {"android": "https://dc.lft.to/lastmile_qr_scan", "ios": "https://dc.lft.to/lastmile_qr_scan"}, "fusion_lat": 0.0, "name": "6fb658ba04b59710c5d2fa19ccb6d92b", "bike_id": "6fb658ba04b59710c5d2fa19ccb6d92b"}, {"is_disabled": 0, "is_reserved": 0, "type": "electric_scooter", "lon": -77.0363545, "fusion_lon": 0.0, "lat": 38.918112, "rental_uris": {"android": "https://dc.lft.to/lastmile_qr_scan", "ios": "https://dc.lft.to/lastmile_qr_scan"}, "fusion_lat": 0.0, "name": "384c550dbd605a4f6c604d4c60df5678", "bike_id": "384c550dbd605a4f6c604d4c60df5678"}, {"is_disabled": 0, "is_reserved": 0, "type": "electric_scooter", "lon": -77.03186916666667, "fusion_lon": 0.0, "lat": 38.8922125, "rental_uris": {"android": "https://dc.lft.to/lastmile_qr_scan", "ios": "https://dc.lft.to/lastmile_qr_scan"}, "fusion_lat": 0.0, "name": "3b9dcfbe47e470d0f7fe5d23391a3dec", "bike_id": "3b9dcfbe47e470d0f7fe5d23391a3dec"}, {"is_disabled": 0, "is_reserved": 0, "type": "electric_bike", "lon": -77.12512433333333, "fusion_lon": 0.0, "lat": 39.02423683333333, "rental_uris": {"android": "https://dc.lft.to/lastmile_qr_scan", "ios": "https://dc.lft.to/lastmile_qr_scan"}, "fusion_lat": 0.0, "name": "e3f24db21de2eff283071fc3384a20a8", "bike_id": "e3f24db21de2eff283071fc3384a20a8"}, {"is_disabled": 0, "is_reserved": 0, "type": "electric_scooter", "lon": -77.0222595, "fusion_lon": 0.0, "lat": 38.9126835, "rental_uris": {"android": "https://dc.lft.to/lastmile_qr_scan", "ios": "https://dc.lft.to/lastmile_qr_scan"}, "fusion_lat": 0.0, "name": "08fbef2d71f80257f58788ef3ead8ae1", "bike_id": "08fbef2d71f80257f58788ef3ead8ae1"}, {"is_disabled": 0, "is_reserved": 0, "type": "electric_scooter", "lon": -77.03224533333334, "fusion_lon": 0.0, "lat": 38.925445833333335, "rental_uris": {"android": "https://dc.lft.to/lastmile_qr_scan", "ios": "https://dc.lft.to/lastmile_qr_scan"}, "fusion_lat": 0.0, "name": "bed88b9200995bec5beb8c502ee082cf", "bike_id": "bed88b9200995bec5beb8c502ee082cf"}, {"is_disabled": 0, "is_reserved": 0, "type": "electric_scooter", "lon": -77.038576, "fusion_lon": 0.0, "lat": 38.917451666666665, "rental_uris": {"android": "https://dc.lft.to/lastmile_qr_scan", "ios": "https://dc.lft.to/lastmile_qr_scan"}, "fusion_lat": 0.0, "name": "4cda579997ad8ecef27e270c38fe8f9f", "bike_id": "4cda579997ad8ecef27e270c38fe8f9f"}, {"is_disabled": 0, "is_reserved": 0, "type": "electric_scooter", "lon": -77.051491, "fusion_lon": 0.0, "lat": 38.90636416666667, "rental_uris": {"android": "https://dc.lft.to/lastmile_qr_scan", "ios": "https://dc.lft.to/lastmile_qr_scan"}, "fusion_lat": 0.0, "name": "14c6365ee038c722197fc965c8bbbe91", "bike_id": "14c6365ee038c722197fc965c8bbbe91"}, {"is_disabled": 0, "is_reserved": 0, "type": "electric_scooter", "lon": -77.0321655, "fusion_lon": 0.0, "lat": 38.91615816666667, "rental_uris": {"android": "https://dc.lft.to/lastmile_qr_scan", "ios": "https://dc.lft.to/lastmile_qr_scan"}, "fusion_lat": 0.0, "name": "be70db56e3c1f1c6e83f3b45410456fc", "bike_id": "be70db56e3c1f1c6e83f3b45410456fc"}, {"is_disabled": 0, "is_reserved": 0, "type": "electric_scooter", "lon": -76.93839366666667, "fusion_lon": 0.0, "lat": 38.890070333333334, "rental_uris": {"android": "https://dc.lft.to/lastmile_qr_scan", "ios": "https://dc.lft.to/lastmile_qr_scan"}, "fusion_lat": 0.0, "name": "d927c2faab7eac795c8fc683b96be7df", "bike_id": "d927c2faab7eac795c8fc683b96be7df"}, {"is_disabled": 0, "is_reserved": 0, "type": "electric_scooter", "lon": -77.04394366666666, "fusion_lon": 0.0, "lat": 38.92277583333333, "rental_uris": {"android": "https://dc.lft.to/lastmile_qr_scan", "ios": "https://dc.lft.to/lastmile_qr_scan"}, "fusion_lat": 0.0, "name": "da938d5646930b8ab287adefa2b72461", "bike_id": "da938d5646930b8ab287adefa2b72461"}, {"is_disabled": 0, "is_reserved": 0, "type": "electric_scooter", "lon": -76.987158, "fusion_lon": 0.0, "lat": 38.866957166666666, "rental_uris": {"android": "https://dc.lft.to/lastmile_qr_scan", "ios": "https://dc.lft.to/lastmile_qr_scan"}, "fusion_lat": 0.0, "name": "cafcd9b30149fe4fea7ff64752ec2b9e", "bike_id": "cafcd9b30149fe4fea7ff64752ec2b9e"}, {"is_disabled": 0, "is_reserved": 0, "type": "electric_scooter", "lon": -77.06179033333333, "fusion_lon": 0.0, "lat": 38.906797833333336, "rental_uris": {"android": "https://dc.lft.to/lastmile_qr_scan", "ios": "https://dc.lft.to/lastmile_qr_scan"}, "fusion_lat": 0.0, "name": "ba82cf9899e68c699275569e1c1929a3", "bike_id": "ba82cf9899e68c699275569e1c1929a3"}, {"is_disabled": 0, "is_reserved": 0, "type": "electric_scooter", "lon": -77.00332766666666, "fusion_lon": 0.0, "lat": 38.893631666666664, "rental_uris": {"android": "https://dc.lft.to/lastmile_qr_scan", "ios": "https://dc.lft.to/lastmile_qr_scan"}, "fusion_lat": 0.0, "name": "83bbeb4adc3c9d19943b6e7c312700d0", "bike_id": "83bbeb4adc3c9d19943b6e7c312700d0"}, {"is_disabled": 0, "is_reserved": 0, "type": "electric_bike", "lon": -76.98434566666667, "fusion_lon": 0.0, "lat": 38.85506683333333, "rental_uris": {"android": "https://dc.lft.to/lastmile_qr_scan", "ios": "https://dc.lft.to/lastmile_qr_scan"}, "fusion_lat": 0.0, "name": "29e7443e2b705fd7c172d23677212f5f", "bike_id": "29e7443e2b705fd7c172d23677212f5f"}, {"is_disabled": 0, "is_reserved": 0, "type": "electric_scooter", "lon": -77.02263966666666, "fusion_lon": 0.0, "lat": 38.927407, "rental_uris": {"android": "https://dc.lft.to/lastmile_qr_scan", "ios": "https://dc.lft.to/lastmile_qr_scan"}, "fusion_lat": 0.0, "name": "80633c0023e1c6b50e4a2c1c83b0ec2a", "bike_id": "80633c0023e1c6b50e4a2c1c83b0ec2a"}, {"is_disabled": 0, "is_reserved": 0, "type": "electric_scooter", "lon": -77.064702, "fusion_lon": 0.0, "lat": 38.90504266666667, "rental_uris": {"android": "https://dc.lft.to/lastmile_qr_scan", "ios": "https://dc.lft.to/lastmile_qr_scan"}, "fusion_lat": 0.0, "name": "8a4972461edacd0e4fe7a3b08a5a3dcf", "bike_id": "8a4972461edacd0e4fe7a3b08a5a3dcf"}, {"is_disabled": 0, "is_reserved": 0, "type": "electric_scooter", "lon": -77.04891866666667, "fusion_lon": 0.0, "lat": 38.892502, "rental_uris": {"android": "https://dc.lft.to/lastmile_qr_scan", "ios": "https://dc.lft.to/lastmile_qr_scan"}, "fusion_lat": 0.0, "name": "660267aefebcde99c3300f1101042687", "bike_id": "660267aefebcde99c3300f1101042687"}, {"is_disabled": 0, "is_reserved": 0, "type": "electric_bike", "lon": -77.00232316666667, "fusion_lon": 0.0, "lat": 38.957456, "rental_uris": {"android": "https://dc.lft.to/lastmile_qr_scan", "ios": "https://dc.lft.to/lastmile_qr_scan"}, "fusion_lat": 0.0, "name": "9dde19467e0f739ace70a042f9e38805", "bike_id": "9dde19467e0f739ace70a042f9e38805"}, {"is_disabled": 0, "is_reserved": 0, "type": "electric_scooter", "lon": -76.96712266666667, "fusion_lon": 0.0, "lat": 38.84796683333333, "rental_uris": {"android": "https://dc.lft.to/lastmile_qr_scan", "ios": "https://dc.lft.to/lastmile_qr_scan"}, "fusion_lat": 0.0, "name": "90e9eedcada7e5ae806a41c65108193f", "bike_id": "90e9eedcada7e5ae806a41c65108193f"}, {"is_disabled": 0, "is_reserved": 0, "type": "electric_scooter", "lon": -77.03192616666666, "fusion_lon": 0.0, "lat": 38.91678233333333, "rental_uris": {"android": "https://dc.lft.to/lastmile_qr_scan", "ios": "https://dc.lft.to/lastmile_qr_scan"}, "fusion_lat": 0.0, "name": "c690ed8cbc1ac3e88dcf1407d4c71972", "bike_id": "c690ed8cbc1ac3e88dcf1407d4c71972"}, {"is_disabled": 0, "is_reserved": 0, "type": "electric_bike", "lon": -77.03048783333334, "fusion_lon": 0.0, "lat": 38.884115333333334, "rental_uris": {"android": "https://dc.lft.to/lastmile_qr_scan", "ios": "https://dc.lft.to/lastmile_qr_scan"}, "fusion_lat": 0.0, "name": "d297cf8892cc129cd12e26ac0ec90775", "bike_id": "d297cf8892cc129cd12e26ac0ec90775"}, {"is_disabled": 0, "is_reserved": 0, "type": "electric_scooter", "lon": -77.030035, "fusion_lon": 0.0, "lat": 38.8964145, "rental_uris": {"android": "https://dc.lft.to/lastmile_qr_scan", "ios": "https://dc.lft.to/lastmile_qr_scan"}, "fusion_lat": 0.0, "name": "a4622f3e0da5dc5a69b863e67d141080", "bike_id": "a4622f3e0da5dc5a69b863e67d141080"}, {"is_disabled": 0, "is_reserved": 0, "type": "electric_scooter", "lon": -76.98008116666666, "fusion_lon": 0.0, "lat": 38.9068155, "rental_uris": {"android": "https://dc.lft.to/lastmile_qr_scan", "ios": "https://dc.lft.to/lastmile_qr_scan"}, "fusion_lat": 0.0, "name": "3b5508f983956f3d1c586715f1048247", "bike_id": "3b5508f983956f3d1c586715f1048247"}, {"is_disabled": 0, "is_reserved": 0, "type": "electric_scooter", "lon": -76.97802683333333, "fusion_lon": 0.0, "lat": 38.92058766666667, "rental_uris": {"android": "https://dc.lft.to/lastmile_qr_scan", "ios": "https://dc.lft.to/lastmile_qr_scan"}, "fusion_lat": 0.0, "name": "1a8e8c41e1e1831825ec14daea6aaaa6", "bike_id": "1a8e8c41e1e1831825ec14daea6aaaa6"}, {"is_disabled": 0, "is_reserved": 0, "type": "electric_scooter", "lon": -77.01785416666667, "fusion_lon": 0.0, "lat": 38.876938, "rental_uris": {"android": "https://dc.lft.to/lastmile_qr_scan", "ios": "https://dc.lft.to/lastmile_qr_scan"}, "fusion_lat": 0.0, "name": "5069ccfb2c36339066b6e3736356351d", "bike_id": "5069ccfb2c36339066b6e3736356351d"}, {"is_disabled": 0, "is_reserved": 0, "type": "electric_scooter", "lon": -76.99900616666666, "fusion_lon": 0.0, "lat": 38.892055666666664, "rental_uris": {"android": "https://dc.lft.to/lastmile_qr_scan", "ios": "https://dc.lft.to/lastmile_qr_scan"}, "fusion_lat": 0.0, "name": "7d8fb977a6c02394bbdfcb53c9575902", "bike_id": "7d8fb977a6c02394bbdfcb53c9575902"}, {"is_disabled": 0, "is_reserved": 0, "type": "electric_scooter", "lon": -77.04172733333333, "fusion_lon": 0.0, "lat": 38.9052495, "rental_uris": {"android": "https://dc.lft.to/lastmile_qr_scan", "ios": "https://dc.lft.to/lastmile_qr_scan"}, "fusion_lat": 0.0, "name": "db97d8d56e9425450b2999f809f36205", "bike_id": "db97d8d56e9425450b2999f809f36205"}, {"is_disabled": 0, "is_reserved": 0, "type": "electric_bike", "lon": -77.048882, "fusion_lon": 0.0, "lat": 38.9047465, "rental_uris": {"android": "https://dc.lft.to/lastmile_qr_scan", "ios": "https://dc.lft.to/lastmile_qr_scan"}, "fusion_lat": 0.0, "name": "d82d7ee53ffb74bb527bc583884420b0", "bike_id": "d82d7ee53ffb74bb527bc583884420b0"}, {"is_disabled": 0, "is_reserved": 0, "type": "electric_scooter", "lon": -76.997993, "fusion_lon": 0.0, "lat": 38.9085175, "rental_uris": {"android": "https://dc.lft.to/lastmile_qr_scan", "ios": "https://dc.lft.to/lastmile_qr_scan"}, "fusion_lat": 0.0, "name": "0e9f0e1cf5f9be3a313d71773904e8fc", "bike_id": "0e9f0e1cf5f9be3a313d71773904e8fc"}, {"is_disabled": 0, "is_reserved": 0, "type": "electric_scooter", "lon": -76.99827233333333, "fusion_lon": 0.0, "lat": 38.88530166666666, "rental_uris": {"android": "https://dc.lft.to/lastmile_qr_scan", "ios": "https://dc.lft.to/lastmile_qr_scan"}, "fusion_lat": 0.0, "name": "01b539957564e746d71905268e86469b", "bike_id": "01b539957564e746d71905268e86469b"}, {"is_disabled": 0, "is_reserved": 0, "type": "electric_scooter", "lon": -77.03494366666666, "fusion_lon": 0.0, "lat": 38.921507, "rental_uris": {"android": "https://dc.lft.to/lastmile_qr_scan", "ios": "https://dc.lft.to/lastmile_qr_scan"}, "fusion_lat": 0.0, "name": "04d58ad4d25bcb85c3b012531aa8a493", "bike_id": "04d58ad4d25bcb85c3b012531aa8a493"}, {"is_disabled": 0, "is_reserved": 0, "type": "electric_scooter", "lon": -77.05022766666667, "fusion_lon": 0.0, "lat": 38.89690266666667, "rental_uris": {"android": "https://dc.lft.to/lastmile_qr_scan", "ios": "https://dc.lft.to/lastmile_qr_scan"}, "fusion_lat": 0.0, "name": "a8b915d25c71cfdc052241007ed34859", "bike_id": "a8b915d25c71cfdc052241007ed34859"}, {"is_disabled": 0, "is_reserved": 0, "type": "electric_scooter", "lon": -77.03172933333333, "fusion_lon": 0.0, "lat": 38.887412166666664, "rental_uris": {"android": "https://dc.lft.to/lastmile_qr_scan", "ios": "https://dc.lft.to/lastmile_qr_scan"}, "fusion_lat": 0.0, "name": "ba959524cda868a4edfec956dffb8269", "bike_id": "ba959524cda868a4edfec956dffb8269"}, {"is_disabled": 0, "is_reserved": 0, "type": "electric_scooter", "lon": -77.02010766666666, "fusion_lon": 0.0, "lat": 38.8830465, "rental_uris": {"android": "https://dc.lft.to/lastmile_qr_scan", "ios": "https://dc.lft.to/lastmile_qr_scan"}, "fusion_lat": 0.0, "name": "9d36bb21b5d29801397ed2a4215247a9", "bike_id": "9d36bb21b5d29801397ed2a4215247a9"}, {"is_disabled": 0, "is_reserved": 0, "type": "electric_scooter", "lon": -77.03881566666666, "fusion_lon": 0.0, "lat": 38.9126735, "rental_uris": {"android": "https://dc.lft.to/lastmile_qr_scan", "ios": "https://dc.lft.to/lastmile_qr_scan"}, "fusion_lat": 0.0, "name": "323085009ca7a5f54191cfdd64d01680", "bike_id": "323085009ca7a5f54191cfdd64d01680"}, {"is_disabled": 0, "is_reserved": 0, "type": "electric_scooter", "lon": -77.03163866666667, "fusion_lon": 0.0, "lat": 38.916222166666664, "rental_uris": {"android": "https://dc.lft.to/lastmile_qr_scan", "ios": "https://dc.lft.to/lastmile_qr_scan"}, "fusion_lat": 0.0, "name": "81c4a6d35c55cd6dd76a46a0e5e783bb", "bike_id": "81c4a6d35c55cd6dd76a46a0e5e783bb"}, {"is_disabled": 0, "is_reserved": 0, "type": "electric_scooter", "lon": -77.03418533333334, "fusion_lon": 0.0, "lat": 38.919214333333336, "rental_uris": {"android": "https://dc.lft.to/lastmile_qr_scan", "ios": "https://dc.lft.to/lastmile_qr_scan"}, "fusion_lat": 0.0, "name": "aa49693677eb83f64ae098e9e038e32b", "bike_id": "aa49693677eb83f64ae098e9e038e32b"}, {"is_disabled": 0, "is_reserved": 0, "type": "electric_scooter", "lon": -77.05414516666667, "fusion_lon": 0.0, "lat": 38.92828, "rental_uris": {"android": "https://dc.lft.to/lastmile_qr_scan", "ios": "https://dc.lft.to/lastmile_qr_scan"}, "fusion_lat": 0.0, "name": "b2f7c9a225040a121291ea8cc13ab2fa", "bike_id": "b2f7c9a225040a121291ea8cc13ab2fa"}, {"is_disabled": 0, "is_reserved": 0, "type": "electric_scooter", "lon": -76.99822116666667, "fusion_lon": 0.0, "lat": 38.844353166666664, "rental_uris": {"android": "https://dc.lft.to/lastmile_qr_scan", "ios": "https://dc.lft.to/lastmile_qr_scan"}, "fusion_lat": 0.0, "name": "f98952d0331875067669ccb65fb34ee5", "bike_id": "f98952d0331875067669ccb65fb34ee5"}, {"is_disabled": 0, "is_reserved": 0, "type": "electric_scooter", "lon": -76.94996166666667, "fusion_lon": 0.0, "lat": 38.89389583333333, "rental_uris": {"android": "https://dc.lft.to/lastmile_qr_scan", "ios": "https://dc.lft.to/lastmile_qr_scan"}, "fusion_lat": 0.0, "name": "429f6708d0a89c9d8af7085e85a3abd6", "bike_id": "429f6708d0a89c9d8af7085e85a3abd6"}, {"is_disabled": 0, "is_reserved": 0, "type": "electric_bike", "lon": -76.9825725, "fusion_lon": 0.0, "lat": 38.95334016666666, "rental_uris": {"android": "https://dc.lft.to/lastmile_qr_scan", "ios": "https://dc.lft.to/lastmile_qr_scan"}, "fusion_lat": 0.0, "name": "76190d1940d8f1f5867654675190d938", "bike_id": "76190d1940d8f1f5867654675190d938"}, {"is_disabled": 0, "is_reserved": 0, "type": "electric_scooter", "lon": -77.03466716666667, "fusion_lon": 0.0, "lat": 38.90975866666667, "rental_uris": {"android": "https://dc.lft.to/lastmile_qr_scan", "ios": "https://dc.lft.to/lastmile_qr_scan"}, "fusion_lat": 0.0, "name": "4fc123221770ea1a9f12bb8b52982f38", "bike_id": "4fc123221770ea1a9f12bb8b52982f38"}, {"is_disabled": 0, "is_reserved": 0, "type": "electric_scooter", "lon": -77.04657533333334, "fusion_lon": 0.0, "lat": 38.893387, "rental_uris": {"android": "https://dc.lft.to/lastmile_qr_scan", "ios": "https://dc.lft.to/lastmile_qr_scan"}, "fusion_lat": 0.0, "name": "324af092799d53a65f74ab2f68cafee1", "bike_id": "324af092799d53a65f74ab2f68cafee1"}, {"is_disabled": 0, "is_reserved": 0, "type": "electric_scooter", "lon": -77.00341416666667, "fusion_lon": 0.0, "lat": 38.89352783333333, "rental_uris": {"android": "https://dc.lft.to/lastmile_qr_scan", "ios": "https://dc.lft.to/lastmile_qr_scan"}, "fusion_lat": 0.0, "name": "60d3a85727d1c165d280d864a4841bd0", "bike_id": "60d3a85727d1c165d280d864a4841bd0"}, {"is_disabled": 0, "is_reserved": 0, "type": "electric_scooter", "lon": -76.99498316666667, "fusion_lon": 0.0, "lat": 38.86242433333334, "rental_uris": {"android": "https://dc.lft.to/lastmile_qr_scan", "ios": "https://dc.lft.to/lastmile_qr_scan"}, "fusion_lat": 0.0, "name": "0b3e363251025c850b844c57ab9e8b14", "bike_id": "0b3e363251025c850b844c57ab9e8b14"}, {"is_disabled": 0, "is_reserved": 0, "type": "electric_scooter", "lon": -77.02619, "fusion_lon": 0.0, "lat": 38.905704166666666, "rental_uris": {"android": "https://dc.lft.to/lastmile_qr_scan", "ios": "https://dc.lft.to/lastmile_qr_scan"}, "fusion_lat": 0.0, "name": "0b717137440ae05fc172c4a59a7c7aaf", "bike_id": "0b717137440ae05fc172c4a59a7c7aaf"}, {"is_disabled": 0, "is_reserved": 0, "type": "electric_bike", "lon": -76.9668765, "fusion_lon": 0.0, "lat": 38.95886616666667, "rental_uris": {"android": "https://dc.lft.to/lastmile_qr_scan", "ios": "https://dc.lft.to/lastmile_qr_scan"}, "fusion_lat": 0.0, "name": "4e23192fac536a0627a3075a84772f50", "bike_id": "4e23192fac536a0627a3075a84772f50"}, {"is_disabled": 0, "is_reserved": 0, "type": "electric_scooter", "lon": -76.95753766666667, "fusion_lon": 0.0, "lat": 38.88428866666667, "rental_uris": {"android": "https://dc.lft.to/lastmile_qr_scan", "ios": "https://dc.lft.to/lastmile_qr_scan"}, "fusion_lat": 0.0, "name": "6f8df01277f217397663ddc06194e627", "bike_id": "6f8df01277f217397663ddc06194e627"}, {"is_disabled": 0, "is_reserved": 0, "type": "electric_scooter", "lon": -77.04480433333333, "fusion_lon": 0.0, "lat": 38.90847016666667, "rental_uris": {"android": "https://dc.lft.to/lastmile_qr_scan", "ios": "https://dc.lft.to/lastmile_qr_scan"}, "fusion_lat": 0.0, "name": "39529d4ee639d0848607b9208733d81d", "bike_id": "39529d4ee639d0848607b9208733d81d"}, {"is_disabled": 0, "is_reserved": 0, "type": "electric_scooter", "lon": -77.04791716666666, "fusion_lon": 0.0, "lat": 38.89022466666667, "rental_uris": {"android": "https://dc.lft.to/lastmile_qr_scan", "ios": "https://dc.lft.to/lastmile_qr_scan"}, "fusion_lat": 0.0, "name": "e9d38c61cbc0cfd602fc95900dbe2912", "bike_id": "e9d38c61cbc0cfd602fc95900dbe2912"}, {"is_disabled": 0, "is_reserved": 0, "type": "electric_scooter", "lon": -77.01996033333333, "fusion_lon": 0.0, "lat": 38.8757135, "rental_uris": {"android": "https://dc.lft.to/lastmile_qr_scan", "ios": "https://dc.lft.to/lastmile_qr_scan"}, "fusion_lat": 0.0, "name": "30820aad5deb9ba34d1d320a33774900", "bike_id": "30820aad5deb9ba34d1d320a33774900"}, {"is_disabled": 0, "is_reserved": 0, "type": "electric_scooter", "lon": -77.03184016666667, "fusion_lon": 0.0, "lat": 38.89229266666667, "rental_uris": {"android": "https://dc.lft.to/lastmile_qr_scan", "ios": "https://dc.lft.to/lastmile_qr_scan"}, "fusion_lat": 0.0, "name": "aedfb7d00081ca690ecff67a16eeb50c", "bike_id": "aedfb7d00081ca690ecff67a16eeb50c"}, {"is_disabled": 0, "is_reserved": 0, "type": "electric_scooter", "lon": -77.05189416666667, "fusion_lon": 0.0, "lat": 38.925406, "rental_uris": {"android": "https://dc.lft.to/lastmile_qr_scan", "ios": "https://dc.lft.to/lastmile_qr_scan"}, "fusion_lat": 0.0, "name": "973ca2cdb74ad663fe013d4fb5416399", "bike_id": "973ca2cdb74ad663fe013d4fb5416399"}, {"is_disabled": 0, "is_reserved": 0, "type": "electric_scooter", "lon": -77.04614083333334, "fusion_lon": 0.0, "lat": 38.917123833333335, "rental_uris": {"android": "https://dc.lft.to/lastmile_qr_scan", "ios": "https://dc.lft.to/lastmile_qr_scan"}, "fusion_lat": 0.0, "name": "4054afca4a7dd9fdc16fb7b27c396ed1", "bike_id": "4054afca4a7dd9fdc16fb7b27c396ed1"}, {"is_disabled": 0, "is_reserved": 0, "type": "electric_scooter", "lon": -77.0222825, "fusion_lon": 0.0, "lat": 38.88743633333333, "rental_uris": {"android": "https://dc.lft.to/lastmile_qr_scan", "ios": "https://dc.lft.to/lastmile_qr_scan"}, "fusion_lat": 0.0, "name": "5c434d45de18e281b5137da953d45718", "bike_id": "5c434d45de18e281b5137da953d45718"}, {"is_disabled": 0, "is_reserved": 0, "type": "electric_scooter", "lon": -77.01028083333334, "fusion_lon": 0.0, "lat": 38.91115583333333, "rental_uris": {"android": "https://dc.lft.to/lastmile_qr_scan", "ios": "https://dc.lft.to/lastmile_qr_scan"}, "fusion_lat": 0.0, "name": "18e11b8b3652cde19ec65bc9f7702235", "bike_id": "18e11b8b3652cde19ec65bc9f7702235"}, {"is_disabled": 0, "is_reserved": 0, "type": "electric_scooter", "lon": -77.0653235, "fusion_lon": 0.0, "lat": 38.90523666666667, "rental_uris": {"android": "https://dc.lft.to/lastmile_qr_scan", "ios": "https://dc.lft.to/lastmile_qr_scan"}, "fusion_lat": 0.0, "name": "66ab3e40f9ee68e2a3bb141fce2ff3c0", "bike_id": "66ab3e40f9ee68e2a3bb141fce2ff3c0"}, {"is_disabled": 0, "is_reserved": 0, "type": "electric_scooter", "lon": -77.04352316666666, "fusion_lon": 0.0, "lat": 38.911159, "rental_uris": {"android": "https://dc.lft.to/lastmile_qr_scan", "ios": "https://dc.lft.to/lastmile_qr_scan"}, "fusion_lat": 0.0, "name": "e8e7e15b465eda3e3052f724761e132a", "bike_id": "e8e7e15b465eda3e3052f724761e132a"}, {"is_disabled": 0, "is_reserved": 0, "type": "electric_bike", "lon": -77.08055566666667, "fusion_lon": 0.0, "lat": 38.848410666666666, "rental_uris": {"android": "https://dc.lft.to/lastmile_qr_scan", "ios": "https://dc.lft.to/lastmile_qr_scan"}, "fusion_lat": 0.0, "name": "2c0629797a0ca37533c4b3b7f325de00", "bike_id": "2c0629797a0ca37533c4b3b7f325de00"}, {"is_disabled": 0, "is_reserved": 0, "type": "electric_scooter", "lon": -77.021604, "fusion_lon": 0.0, "lat": 38.92603033333333, "rental_uris": {"android": "https://dc.lft.to/lastmile_qr_scan", "ios": "https://dc.lft.to/lastmile_qr_scan"}, "fusion_lat": 0.0, "name": "497976319cba7d0c2fec1a22a18d6446", "bike_id": "497976319cba7d0c2fec1a22a18d6446"}, {"is_disabled": 0, "is_reserved": 0, "type": "electric_scooter", "lon": -77.00582566666667, "fusion_lon": 0.0, "lat": 38.875274833333336, "rental_uris": {"android": "https://dc.lft.to/lastmile_qr_scan", "ios": "https://dc.lft.to/lastmile_qr_scan"}, "fusion_lat": 0.0, "name": "75c5ff27e316c5f0710e22af0de4980a", "bike_id": "75c5ff27e316c5f0710e22af0de4980a"}, {"is_disabled": 0, "is_reserved": 0, "type": "electric_scooter", "lon": -77.04160583333334, "fusion_lon": 0.0, "lat": 38.91420766666667, "rental_uris": {"android": "https://dc.lft.to/lastmile_qr_scan", "ios": "https://dc.lft.to/lastmile_qr_scan"}, "fusion_lat": 0.0, "name": "4567311b054fb79ae52c860fec218cfc", "bike_id": "4567311b054fb79ae52c860fec218cfc"}, {"is_disabled": 0, "is_reserved": 0, "type": "electric_bike", "lon": -77.0335605, "fusion_lon": 0.0, "lat": 38.89827183333333, "rental_uris": {"android": "https://dc.lft.to/lastmile_qr_scan", "ios": "https://dc.lft.to/lastmile_qr_scan"}, "fusion_lat": 0.0, "name": "76693e32332d0adca4aefa4071cbdd2e", "bike_id": "76693e32332d0adca4aefa4071cbdd2e"}, {"is_disabled": 0, "is_reserved": 0, "type": "electric_scooter", "lon": -77.0321245, "fusion_lon": 0.0, "lat": 38.918439, "rental_uris": {"android": "https://dc.lft.to/lastmile_qr_scan", "ios": "https://dc.lft.to/lastmile_qr_scan"}, "fusion_lat": 0.0, "name": "074b0c9e551954e2544bf1ddeb6972b8", "bike_id": "074b0c9e551954e2544bf1ddeb6972b8"}, {"is_disabled": 0, "is_reserved": 0, "type": "electric_scooter", "lon": -77.04329416666667, "fusion_lon": 0.0, "lat": 38.911025, "rental_uris": {"android": "https://dc.lft.to/lastmile_qr_scan", "ios": "https://dc.lft.to/lastmile_qr_scan"}, "fusion_lat": 0.0, "name": "a10d382987d255b14ff10536c2862561", "bike_id": "a10d382987d255b14ff10536c2862561"}, {"is_disabled": 0, "is_reserved": 0, "type": "electric_scooter", "lon": -76.99633683333333, "fusion_lon": 0.0, "lat": 38.8462025, "rental_uris": {"android": "https://dc.lft.to/lastmile_qr_scan", "ios": "https://dc.lft.to/lastmile_qr_scan"}, "fusion_lat": 0.0, "name": "7bd594455818643558e99977ea41c682", "bike_id": "7bd594455818643558e99977ea41c682"}, {"is_disabled": 0, "is_reserved": 0, "type": "electric_scooter", "lon": -77.03347916666667, "fusion_lon": 0.0, "lat": 38.8984205, "rental_uris": {"android": "https://dc.lft.to/lastmile_qr_scan", "ios": "https://dc.lft.to/lastmile_qr_scan"}, "fusion_lat": 0.0, "name": "ddc71681d35be7a89df148b0e6c1b9dc", "bike_id": "ddc71681d35be7a89df148b0e6c1b9dc"}, {"is_disabled": 0, "is_reserved": 0, "type": "electric_scooter", "lon": -77.0366775, "fusion_lon": 0.0, "lat": 38.903214166666665, "rental_uris": {"android": "https://dc.lft.to/lastmile_qr_scan", "ios": "https://dc.lft.to/lastmile_qr_scan"}, "fusion_lat": 0.0, "name": "e6c5419f0238dc2202979f840715f0bb", "bike_id": "e6c5419f0238dc2202979f840715f0bb"}, {"is_disabled": 0, "is_reserved": 0, "type": "electric_scooter", "lon": -77.0392375, "fusion_lon": 0.0, "lat": 38.91911483333333, "rental_uris": {"android": "https://dc.lft.to/lastmile_qr_scan", "ios": "https://dc.lft.to/lastmile_qr_scan"}, "fusion_lat": 0.0, "name": "76cd254c38ade54bac0e6939ce92ad8e", "bike_id": "76cd254c38ade54bac0e6939ce92ad8e"}, {"is_disabled": 0, "is_reserved": 0, "type": "electric_scooter", "lon": -77.031781, "fusion_lon": 0.0, "lat": 38.91415333333333, "rental_uris": {"android": "https://dc.lft.to/lastmile_qr_scan", "ios": "https://dc.lft.to/lastmile_qr_scan"}, "fusion_lat": 0.0, "name": "e4a7ab30a101d2fd7b82c8113201d86d", "bike_id": "e4a7ab30a101d2fd7b82c8113201d86d"}, {"is_disabled": 0, "is_reserved": 0, "type": "electric_scooter", "lon": -77.02968083333333, "fusion_lon": 0.0, "lat": 38.89634266666667, "rental_uris": {"android": "https://dc.lft.to/lastmile_qr_scan", "ios": "https://dc.lft.to/lastmile_qr_scan"}, "fusion_lat": 0.0, "name": "c60616f43ed0dd886630480344d8eb93", "bike_id": "c60616f43ed0dd886630480344d8eb93"}, {"is_disabled": 0, "is_reserved": 0, "type": "electric_scooter", "lon": -77.03335833333334, "fusion_lon": 0.0, "lat": 38.918076166666665, "rental_uris": {"android": "https://dc.lft.to/lastmile_qr_scan", "ios": "https://dc.lft.to/lastmile_qr_scan"}, "fusion_lat": 0.0, "name": "a17a0f5bbd3810251a60edc52ab79fc8", "bike_id": "a17a0f5bbd3810251a60edc52ab79fc8"}, {"is_disabled": 0, "is_reserved": 0, "type": "electric_scooter", "lon": -77.02222866666666, "fusion_lon": 0.0, "lat": 38.935480166666665, "rental_uris": {"android": "https://dc.lft.to/lastmile_qr_scan", "ios": "https://dc.lft.to/lastmile_qr_scan"}, "fusion_lat": 0.0, "name": "bc7f83415d60d57e308060ddfba33083", "bike_id": "bc7f83415d60d57e308060ddfba33083"}, {"is_disabled": 0, "is_reserved": 0, "type": "electric_bike", "lon": -77.12402783333333, "fusion_lon": 0.0, "lat": 38.893282166666665, "rental_uris": {"android": "https://dc.lft.to/lastmile_qr_scan", "ios": "https://dc.lft.to/lastmile_qr_scan"}, "fusion_lat": 0.0, "name": "f3c09bf238f08f7d99ec3efdbc91ca90", "bike_id": "f3c09bf238f08f7d99ec3efdbc91ca90"}, {"is_disabled": 0, "is_reserved": 0, "type": "electric_scooter", "lon": -76.93050983333333, "fusion_lon": 0.0, "lat": 38.897914, "rental_uris": {"android": "https://dc.lft.to/lastmile_qr_scan", "ios": "https://dc.lft.to/lastmile_qr_scan"}, "fusion_lat": 0.0, "name": "92e460fdb8c7f3c04ffbfcf41ff521e0", "bike_id": "92e460fdb8c7f3c04ffbfcf41ff521e0"}, {"is_disabled": 0, "is_reserved": 0, "type": "electric_scooter", "lon": -76.94780016666667, "fusion_lon": 0.0, "lat": 38.884626833333336, "rental_uris": {"android": "https://dc.lft.to/lastmile_qr_scan", "ios": "https://dc.lft.to/lastmile_qr_scan"}, "fusion_lat": 0.0, "name": "ddd5d276070aafda041e56f05b52cf92", "bike_id": "ddd5d276070aafda041e56f05b52cf92"}, {"is_disabled": 0, "is_reserved": 0, "type": "electric_scooter", "lon": -76.99956483333334, "fusion_lon": 0.0, "lat": 38.84289066666667, "rental_uris": {"android": "https://dc.lft.to/lastmile_qr_scan", "ios": "https://dc.lft.to/lastmile_qr_scan"}, "fusion_lat": 0.0, "name": "9cf17c0afc62b27a7ccd357b55e40b36", "bike_id": "9cf17c0afc62b27a7ccd357b55e40b36"}, {"is_disabled": 0, "is_reserved": 0, "type": "electric_scooter", "lon": -77.02312233333333, "fusion_lon": 0.0, "lat": 38.917885, "rental_uris": {"android": "https://dc.lft.to/lastmile_qr_scan", "ios": "https://dc.lft.to/lastmile_qr_scan"}, "fusion_lat": 0.0, "name": "c4d3e538c65db632d068682da2a2da46", "bike_id": "c4d3e538c65db632d068682da2a2da46"}, {"is_disabled": 0, "is_reserved": 0, "type": "electric_scooter", "lon": -77.04074016666667, "fusion_lon": 0.0, "lat": 38.89615233333333, "rental_uris": {"android": "https://dc.lft.to/lastmile_qr_scan", "ios": "https://dc.lft.to/lastmile_qr_scan"}, "fusion_lat": 0.0, "name": "bf537ca43e1c7d7dd8cefcfe75e51b7d", "bike_id": "bf537ca43e1c7d7dd8cefcfe75e51b7d"}, {"is_disabled": 0, "is_reserved": 0, "type": "electric_scooter", "lon": -77.05410833333333, "fusion_lon": 0.0, "lat": 38.950471, "rental_uris": {"android": "https://dc.lft.to/lastmile_qr_scan", "ios": "https://dc.lft.to/lastmile_qr_scan"}, "fusion_lat": 0.0, "name": "9a591496680fe9ad633feb9c628f3504", "bike_id": "9a591496680fe9ad633feb9c628f3504"}, {"is_disabled": 0, "is_reserved": 0, "type": "electric_scooter", "lon": -77.0216085, "fusion_lon": 0.0, "lat": 38.92612116666667, "rental_uris": {"android": "https://dc.lft.to/lastmile_qr_scan", "ios": "https://dc.lft.to/lastmile_qr_scan"}, "fusion_lat": 0.0, "name": "fe3b1b68fed87c0e018e0579078d00c0", "bike_id": "fe3b1b68fed87c0e018e0579078d00c0"}, {"is_disabled": 0, "is_reserved": 0, "type": "electric_scooter", "lon": -77.04100816666667, "fusion_lon": 0.0, "lat": 38.900235, "rental_uris": {"android": "https://dc.lft.to/lastmile_qr_scan", "ios": "https://dc.lft.to/lastmile_qr_scan"}, "fusion_lat": 0.0, "name": "66cc27dad40ec720028f3121f5b744cd", "bike_id": "66cc27dad40ec720028f3121f5b744cd"}, {"is_disabled": 0, "is_reserved": 0, "type": "electric_scooter", "lon": -76.94897033333334, "fusion_lon": 0.0, "lat": 38.89526583333333, "rental_uris": {"android": "https://dc.lft.to/lastmile_qr_scan", "ios": "https://dc.lft.to/lastmile_qr_scan"}, "fusion_lat": 0.0, "name": "b6e9eb1300404f72e49dabab30685fba", "bike_id": "b6e9eb1300404f72e49dabab30685fba"}, {"is_disabled": 0, "is_reserved": 0, "type": "electric_scooter", "lon": -77.0438935, "fusion_lon": 0.0, "lat": 38.90580833333333, "rental_uris": {"android": "https://dc.lft.to/lastmile_qr_scan", "ios": "https://dc.lft.to/lastmile_qr_scan"}, "fusion_lat": 0.0, "name": "df727dfc5fb31a8c10fa01fd3eb09a60", "bike_id": "df727dfc5fb31a8c10fa01fd3eb09a60"}, {"is_disabled": 0, "is_reserved": 0, "type": "electric_scooter", "lon": -76.97382666666667, "fusion_lon": 0.0, "lat": 38.88370883333333, "rental_uris": {"android": "https://dc.lft.to/lastmile_qr_scan", "ios": "https://dc.lft.to/lastmile_qr_scan"}, "fusion_lat": 0.0, "name": "a02cb716d8245db15487690395adb4d3", "bike_id": "a02cb716d8245db15487690395adb4d3"}, {"is_disabled": 0, "is_reserved": 0, "type": "electric_scooter", "lon": -77.04336633333334, "fusion_lon": 0.0, "lat": 38.892266666666664, "rental_uris": {"android": "https://dc.lft.to/lastmile_qr_scan", "ios": "https://dc.lft.to/lastmile_qr_scan"}, "fusion_lat": 0.0, "name": "b32fd8864ddbedf8286e1ae7f4fbffe6", "bike_id": "b32fd8864ddbedf8286e1ae7f4fbffe6"}, {"is_disabled": 0, "is_reserved": 0, "type": "electric_scooter", "lon": -77.01405516666667, "fusion_lon": 0.0, "lat": 38.92843666666667, "rental_uris": {"android": "https://dc.lft.to/lastmile_qr_scan", "ios": "https://dc.lft.to/lastmile_qr_scan"}, "fusion_lat": 0.0, "name": "44f8dd7055603158d03cca771ec8875b", "bike_id": "44f8dd7055603158d03cca771ec8875b"}, {"is_disabled": 0, "is_reserved": 0, "type": "electric_scooter", "lon": -77.04237666666667, "fusion_lon": 0.0, "lat": 38.9097155, "rental_uris": {"android": "https://dc.lft.to/lastmile_qr_scan", "ios": "https://dc.lft.to/lastmile_qr_scan"}, "fusion_lat": 0.0, "name": "39a64a05a68a7a9c3fb910deae13270d", "bike_id": "39a64a05a68a7a9c3fb910deae13270d"}, {"is_disabled": 0, "is_reserved": 0, "type": "electric_bike", "lon": -76.87494933333333, "fusion_lon": 0.0, "lat": 38.9908975, "rental_uris": {"android": "https://dc.lft.to/lastmile_qr_scan", "ios": "https://dc.lft.to/lastmile_qr_scan"}, "fusion_lat": 0.0, "name": "7d54aff497c839594db381123d9263fc", "bike_id": "7d54aff497c839594db381123d9263fc"}, {"is_disabled": 0, "is_reserved": 0, "type": "electric_scooter", "lon": -77.02157633333333, "fusion_lon": 0.0, "lat": 38.92602733333333, "rental_uris": {"android": "https://dc.lft.to/lastmile_qr_scan", "ios": "https://dc.lft.to/lastmile_qr_scan"}, "fusion_lat": 0.0, "name": "5d1fb66f637909a85d7ad1a6ef51045e", "bike_id": "5d1fb66f637909a85d7ad1a6ef51045e"}, {"is_disabled": 0, "is_reserved": 0, "type": "electric_scooter", "lon": -77.005809, "fusion_lon": 0.0, "lat": 38.8752605, "rental_uris": {"android": "https://dc.lft.to/lastmile_qr_scan", "ios": "https://dc.lft.to/lastmile_qr_scan"}, "fusion_lat": 0.0, "name": "680d84ed7ea135524aee98eed76ced8d", "bike_id": "680d84ed7ea135524aee98eed76ced8d"}, {"is_disabled": 0, "is_reserved": 0, "type": "electric_scooter", "lon": -77.017953, "fusion_lon": 0.0, "lat": 38.94114283333333, "rental_uris": {"android": "https://dc.lft.to/lastmile_qr_scan", "ios": "https://dc.lft.to/lastmile_qr_scan"}, "fusion_lat": 0.0, "name": "01817142b2b3ca59861fe1759bba7e17", "bike_id": "01817142b2b3ca59861fe1759bba7e17"}, {"is_disabled": 0, "is_reserved": 0, "type": "electric_bike", "lon": -77.049041, "fusion_lon": 0.0, "lat": 38.874891833333336, "rental_uris": {"android": "https://dc.lft.to/lastmile_qr_scan", "ios": "https://dc.lft.to/lastmile_qr_scan"}, "fusion_lat": 0.0, "name": "0a1885093b50392db85a2d4b17d90ff5", "bike_id": "0a1885093b50392db85a2d4b17d90ff5"}, {"is_disabled": 0, "is_reserved": 0, "type": "electric_scooter", "lon": -77.03830816666667, "fusion_lon": 0.0, "lat": 38.91493533333333, "rental_uris": {"android": "https://dc.lft.to/lastmile_qr_scan", "ios": "https://dc.lft.to/lastmile_qr_scan"}, "fusion_lat": 0.0, "name": "ce25ffc46ca16c8d317c737810c9b28f", "bike_id": "ce25ffc46ca16c8d317c737810c9b28f"}, {"is_disabled": 0, "is_reserved": 0, "type": "electric_scooter", "lon": -77.02317, "fusion_lon": 0.0, "lat": 38.91700266666667, "rental_uris": {"android": "https://dc.lft.to/lastmile_qr_scan", "ios": "https://dc.lft.to/lastmile_qr_scan"}, "fusion_lat": 0.0, "name": "eed07dfc91487fa5bd4186910682c884", "bike_id": "eed07dfc91487fa5bd4186910682c884"}, {"is_disabled": 0, "is_reserved": 0, "type": "electric_scooter", "lon": -77.0282585, "fusion_lon": 0.0, "lat": 38.88581516666667, "rental_uris": {"android": "https://dc.lft.to/lastmile_qr_scan", "ios": "https://dc.lft.to/lastmile_qr_scan"}, "fusion_lat": 0.0, "name": "11b099e78fec7e0e9c0077cbb66144d6", "bike_id": "11b099e78fec7e0e9c0077cbb66144d6"}, {"is_disabled": 0, "is_reserved": 0, "type": "electric_scooter", "lon": -77.0034955, "fusion_lon": 0.0, "lat": 38.90694666666667, "rental_uris": {"android": "https://dc.lft.to/lastmile_qr_scan", "ios": "https://dc.lft.to/lastmile_qr_scan"}, "fusion_lat": 0.0, "name": "6d21a1f77d4b31febc5f711f058ebdd5", "bike_id": "6d21a1f77d4b31febc5f711f058ebdd5"}, {"is_disabled": 0, "is_reserved": 0, "type": "electric_bike", "lon": -77.10028516666667, "fusion_lon": 0.0, "lat": 38.99058683333333, "rental_uris": {"android": "https://dc.lft.to/lastmile_qr_scan", "ios": "https://dc.lft.to/lastmile_qr_scan"}, "fusion_lat": 0.0, "name": "52e21716dc3c3e0cfebf3959c471e115", "bike_id": "52e21716dc3c3e0cfebf3959c471e115"}, {"is_disabled": 0, "is_reserved": 0, "type": "electric_scooter", "lon": -77.03365316666667, "fusion_lon": 0.0, "lat": 38.902106833333335, "rental_uris": {"android": "https://dc.lft.to/lastmile_qr_scan", "ios": "https://dc.lft.to/lastmile_qr_scan"}, "fusion_lat": 0.0, "name": "16b1d48818ae5d536545b9b2d3f59bc8", "bike_id": "16b1d48818ae5d536545b9b2d3f59bc8"}, {"is_disabled": 0, "is_reserved": 0, "type": "electric_scooter", "lon": -77.03493983333334, "fusion_lon": 0.0, "lat": 38.923524666666665, "rental_uris": {"android": "https://dc.lft.to/lastmile_qr_scan", "ios": "https://dc.lft.to/lastmile_qr_scan"}, "fusion_lat": 0.0, "name": "b56e72ecbe01166d22a9bcc35ddd55ac", "bike_id": "b56e72ecbe01166d22a9bcc35ddd55ac"}, {"is_disabled": 0, "is_reserved": 0, "type": "electric_scooter", "lon": -77.02935683333334, "fusion_lon": 0.0, "lat": 38.914189, "rental_uris": {"android": "https://dc.lft.to/lastmile_qr_scan", "ios": "https://dc.lft.to/lastmile_qr_scan"}, "fusion_lat": 0.0, "name": "56772d193dd90795e12bddd766fc8393", "bike_id": "56772d193dd90795e12bddd766fc8393"}, {"is_disabled": 0, "is_reserved": 0, "type": "electric_scooter", "lon": -77.03529616666667, "fusion_lon": 0.0, "lat": 38.92150433333333, "rental_uris": {"android": "https://dc.lft.to/lastmile_qr_scan", "ios": "https://dc.lft.to/lastmile_qr_scan"}, "fusion_lat": 0.0, "name": "132e2a52da88df6730264d9ee27c1fbf", "bike_id": "132e2a52da88df6730264d9ee27c1fbf"}, {"is_disabled": 0, "is_reserved": 0, "type": "electric_scooter", "lon": -77.04344383333333, "fusion_lon": 0.0, "lat": 38.898333, "rental_uris": {"android": "https://dc.lft.to/lastmile_qr_scan", "ios": "https://dc.lft.to/lastmile_qr_scan"}, "fusion_lat": 0.0, "name": "52e3666a47a18a90e63b013e55312279", "bike_id": "52e3666a47a18a90e63b013e55312279"}, {"is_disabled": 0, "is_reserved": 0, "type": "electric_scooter", "lon": -77.04578316666667, "fusion_lon": 0.0, "lat": 38.917820166666665, "rental_uris": {"android": "https://dc.lft.to/lastmile_qr_scan", "ios": "https://dc.lft.to/lastmile_qr_scan"}, "fusion_lat": 0.0, "name": "06a2debfb94f44ee060a3735a1536424", "bike_id": "06a2debfb94f44ee060a3735a1536424"}, {"is_disabled": 0, "is_reserved": 0, "type": "electric_scooter", "lon": -77.019538, "fusion_lon": 0.0, "lat": 38.922577, "rental_uris": {"android": "https://dc.lft.to/lastmile_qr_scan", "ios": "https://dc.lft.to/lastmile_qr_scan"}, "fusion_lat": 0.0, "name": "6cdb82eb28de679df2f23f643c29ce78", "bike_id": "6cdb82eb28de679df2f23f643c29ce78"}, {"is_disabled": 0, "is_reserved": 0, "type": "electric_bike", "lon": -77.009619, "fusion_lon": 0.0, "lat": 38.907029333333334, "rental_uris": {"android": "https://dc.lft.to/lastmile_qr_scan", "ios": "https://dc.lft.to/lastmile_qr_scan"}, "fusion_lat": 0.0, "name": "f32da9097a17c30c0157e0f237a61991", "bike_id": "f32da9097a17c30c0157e0f237a61991"}, {"is_disabled": 0, "is_reserved": 0, "type": "electric_scooter", "lon": -77.04071266666666, "fusion_lon": 0.0, "lat": 38.898255166666665, "rental_uris": {"android": "https://dc.lft.to/lastmile_qr_scan", "ios": "https://dc.lft.to/lastmile_qr_scan"}, "fusion_lat": 0.0, "name": "26e61a4672073b20ed68f255b9e756df", "bike_id": "26e61a4672073b20ed68f255b9e756df"}, {"is_disabled": 0, "is_reserved": 0, "type": "electric_scooter", "lon": -77.0437915, "fusion_lon": 0.0, "lat": 38.90097216666667, "rental_uris": {"android": "https://dc.lft.to/lastmile_qr_scan", "ios": "https://dc.lft.to/lastmile_qr_scan"}, "fusion_lat": 0.0, "name": "41c45c55240eecf5a520e71b64e17b7b", "bike_id": "41c45c55240eecf5a520e71b64e17b7b"}, {"is_disabled": 0, "is_reserved": 0, "type": "electric_scooter", "lon": -77.03325366666667, "fusion_lon": 0.0, "lat": 38.898421, "rental_uris": {"android": "https://dc.lft.to/lastmile_qr_scan", "ios": "https://dc.lft.to/lastmile_qr_scan"}, "fusion_lat": 0.0, "name": "5d04b0dd6a5ecaa954606f9fa4270340", "bike_id": "5d04b0dd6a5ecaa954606f9fa4270340"}, {"is_disabled": 0, "is_reserved": 0, "type": "electric_scooter", "lon": -77.0122735, "fusion_lon": 0.0, "lat": 38.885839, "rental_uris": {"android": "https://dc.lft.to/lastmile_qr_scan", "ios": "https://dc.lft.to/lastmile_qr_scan"}, "fusion_lat": 0.0, "name": "56d6491ab5a4cc109e8d53be378a7837", "bike_id": "56d6491ab5a4cc109e8d53be378a7837"}, {"is_disabled": 0, "is_reserved": 0, "type": "electric_scooter", "lon": -77.02298816666666, "fusion_lon": 0.0, "lat": 38.91651616666667, "rental_uris": {"android": "https://dc.lft.to/lastmile_qr_scan", "ios": "https://dc.lft.to/lastmile_qr_scan"}, "fusion_lat": 0.0, "name": "85ab7993d5af8674e7f4e3eb434409ed", "bike_id": "85ab7993d5af8674e7f4e3eb434409ed"}, {"is_disabled": 0, "is_reserved": 0, "type": "electric_scooter", "lon": -77.00866116666667, "fusion_lon": 0.0, "lat": 38.906456166666665, "rental_uris": {"android": "https://dc.lft.to/lastmile_qr_scan", "ios": "https://dc.lft.to/lastmile_qr_scan"}, "fusion_lat": 0.0, "name": "46c81c7e7c5523e4fc59f02a7b8978c8", "bike_id": "46c81c7e7c5523e4fc59f02a7b8978c8"}, {"is_disabled": 0, "is_reserved": 0, "type": "electric_scooter", "lon": -76.97876983333333, "fusion_lon": 0.0, "lat": 38.92721733333333, "rental_uris": {"android": "https://dc.lft.to/lastmile_qr_scan", "ios": "https://dc.lft.to/lastmile_qr_scan"}, "fusion_lat": 0.0, "name": "6197f0d8ad779d914a90fffb60d20384", "bike_id": "6197f0d8ad779d914a90fffb60d20384"}, {"is_disabled": 0, "is_reserved": 0, "type": "electric_scooter", "lon": -76.94827133333334, "fusion_lon": 0.0, "lat": 38.885113833333335, "rental_uris": {"android": "https://dc.lft.to/lastmile_qr_scan", "ios": "https://dc.lft.to/lastmile_qr_scan"}, "fusion_lat": 0.0, "name": "28cd633ca576b1bd51a52849bafd66de", "bike_id": "28cd633ca576b1bd51a52849bafd66de"}, {"is_disabled": 0, "is_reserved": 0, "type": "electric_scooter", "lon": -77.037636, "fusion_lon": 0.0, "lat": 38.916927666666666, "rental_uris": {"android": "https://dc.lft.to/lastmile_qr_scan", "ios": "https://dc.lft.to/lastmile_qr_scan"}, "fusion_lat": 0.0, "name": "f893a95c6e64ab1bdfb696b59dbfb159", "bike_id": "f893a95c6e64ab1bdfb696b59dbfb159"}, {"is_disabled": 0, "is_reserved": 0, "type": "electric_scooter", "lon": -77.0544045, "fusion_lon": 0.0, "lat": 38.896030333333336, "rental_uris": {"android": "https://dc.lft.to/lastmile_qr_scan", "ios": "https://dc.lft.to/lastmile_qr_scan"}, "fusion_lat": 0.0, "name": "cecbb01600e8aaa91cf22442780d39a4", "bike_id": "cecbb01600e8aaa91cf22442780d39a4"}, {"is_disabled": 0, "is_reserved": 0, "type": "electric_scooter", "lon": -77.03862283333333, "fusion_lon": 0.0, "lat": 38.903344, "rental_uris": {"android": "https://dc.lft.to/lastmile_qr_scan", "ios": "https://dc.lft.to/lastmile_qr_scan"}, "fusion_lat": 0.0, "name": "0597f573077ed9e451b4c19af68b1273", "bike_id": "0597f573077ed9e451b4c19af68b1273"}, {"is_disabled": 0, "is_reserved": 0, "type": "electric_scooter", "lon": -77.02350466666667, "fusion_lon": 0.0, "lat": 38.915971666666664, "rental_uris": {"android": "https://dc.lft.to/lastmile_qr_scan", "ios": "https://dc.lft.to/lastmile_qr_scan"}, "fusion_lat": 0.0, "name": "815051a0ba5d377e5480df7276f4027d", "bike_id": "815051a0ba5d377e5480df7276f4027d"}, {"is_disabled": 0, "is_reserved": 0, "type": "electric_scooter", "lon": -77.01109483333333, "fusion_lon": 0.0, "lat": 38.903567, "rental_uris": {"android": "https://dc.lft.to/lastmile_qr_scan", "ios": "https://dc.lft.to/lastmile_qr_scan"}, "fusion_lat": 0.0, "name": "a2a1c77fb6f397adf3b70a57cfb7700c", "bike_id": "a2a1c77fb6f397adf3b70a57cfb7700c"}, {"is_disabled": 0, "is_reserved": 0, "type": "electric_scooter", "lon": -77.043616, "fusion_lon": 0.0, "lat": 38.90472316666666, "rental_uris": {"android": "https://dc.lft.to/lastmile_qr_scan", "ios": "https://dc.lft.to/lastmile_qr_scan"}, "fusion_lat": 0.0, "name": "77fe6bfab41eb325e528a564ec653437", "bike_id": "77fe6bfab41eb325e528a564ec653437"}, {"is_disabled": 0, "is_reserved": 0, "type": "electric_scooter", "lon": -77.027238, "fusion_lon": 0.0, "lat": 38.908513166666665, "rental_uris": {"android": "https://dc.lft.to/lastmile_qr_scan", "ios": "https://dc.lft.to/lastmile_qr_scan"}, "fusion_lat": 0.0, "name": "83e804eae0f35bc722ca8f2ecfa4f8fc", "bike_id": "83e804eae0f35bc722ca8f2ecfa4f8fc"}, {"is_disabled": 0, "is_reserved": 0, "type": "electric_scooter", "lon": -77.009893, "fusion_lon": 0.0, "lat": 38.897375333333336, "rental_uris": {"android": "https://dc.lft.to/lastmile_qr_scan", "ios": "https://dc.lft.to/lastmile_qr_scan"}, "fusion_lat": 0.0, "name": "3f98f97602265966cfcffaac41457450", "bike_id": "3f98f97602265966cfcffaac41457450"}, {"is_disabled": 0, "is_reserved": 0, "type": "electric_scooter", "lon": -76.93351066666666, "fusion_lon": 0.0, "lat": 38.89904966666667, "rental_uris": {"android": "https://dc.lft.to/lastmile_qr_scan", "ios": "https://dc.lft.to/lastmile_qr_scan"}, "fusion_lat": 0.0, "name": "1decb288006f042702aa98189a222b3c", "bike_id": "1decb288006f042702aa98189a222b3c"}, {"is_disabled": 0, "is_reserved": 0, "type": "electric_bike", "lon": -77.0852845, "fusion_lon": 0.0, "lat": 38.8564755, "rental_uris": {"android": "https://dc.lft.to/lastmile_qr_scan", "ios": "https://dc.lft.to/lastmile_qr_scan"}, "fusion_lat": 0.0, "name": "8df878acb918005fe147c3c957b05ad2", "bike_id": "8df878acb918005fe147c3c957b05ad2"}, {"is_disabled": 0, "is_reserved": 0, "type": "electric_scooter", "lon": -76.965285, "fusion_lon": 0.0, "lat": 38.87626316666667, "rental_uris": {"android": "https://dc.lft.to/lastmile_qr_scan", "ios": "https://dc.lft.to/lastmile_qr_scan"}, "fusion_lat": 0.0, "name": "50c3bb908794a80a3025b30b342fb918", "bike_id": "50c3bb908794a80a3025b30b342fb918"}, {"is_disabled": 0, "is_reserved": 0, "type": "electric_scooter", "lon": -77.031967, "fusion_lon": 0.0, "lat": 38.91674916666667, "rental_uris": {"android": "https://dc.lft.to/lastmile_qr_scan", "ios": "https://dc.lft.to/lastmile_qr_scan"}, "fusion_lat": 0.0, "name": "54745146774f7cc7a551dbeaff7ce1fc", "bike_id": "54745146774f7cc7a551dbeaff7ce1fc"}, {"is_disabled": 0, "is_reserved": 0, "type": "electric_scooter", "lon": -77.0426575, "fusion_lon": 0.0, "lat": 38.921895666666664, "rental_uris": {"android": "https://dc.lft.to/lastmile_qr_scan", "ios": "https://dc.lft.to/lastmile_qr_scan"}, "fusion_lat": 0.0, "name": "4956b8c23fde5262b096646c1811ec0c", "bike_id": "4956b8c23fde5262b096646c1811ec0c"}, {"is_disabled": 0, "is_reserved": 0, "type": "electric_scooter", "lon": -77.03150866666667, "fusion_lon": 0.0, "lat": 38.887468, "rental_uris": {"android": "https://dc.lft.to/lastmile_qr_scan", "ios": "https://dc.lft.to/lastmile_qr_scan"}, "fusion_lat": 0.0, "name": "28c89a43d103f4c8d2ff5002862506d0", "bike_id": "28c89a43d103f4c8d2ff5002862506d0"}, {"is_disabled": 0, "is_reserved": 0, "type": "electric_bike", "lon": -77.02629216666666, "fusion_lon": 0.0, "lat": 38.962266, "rental_uris": {"android": "https://dc.lft.to/lastmile_qr_scan", "ios": "https://dc.lft.to/lastmile_qr_scan"}, "fusion_lat": 0.0, "name": "7c5bc58b13f315561ba3ef9df92d0d47", "bike_id": "7c5bc58b13f315561ba3ef9df92d0d47"}, {"is_disabled": 0, "is_reserved": 0, "type": "electric_scooter", "lon": -77.04190716666666, "fusion_lon": 0.0, "lat": 38.898795, "rental_uris": {"android": "https://dc.lft.to/lastmile_qr_scan", "ios": "https://dc.lft.to/lastmile_qr_scan"}, "fusion_lat": 0.0, "name": "ccc5185f0feb074e5518b711e543bd1b", "bike_id": "ccc5185f0feb074e5518b711e543bd1b"}, {"is_disabled": 0, "is_reserved": 0, "type": "electric_scooter", "lon": -77.054143, "fusion_lon": 0.0, "lat": 38.92830583333333, "rental_uris": {"android": "https://dc.lft.to/lastmile_qr_scan", "ios": "https://dc.lft.to/lastmile_qr_scan"}, "fusion_lat": 0.0, "name": "09a3920519ddb9dd7916db2ccc744aa0", "bike_id": "09a3920519ddb9dd7916db2ccc744aa0"}, {"is_disabled": 0, "is_reserved": 0, "type": "electric_scooter", "lon": -77.012045, "fusion_lon": 0.0, "lat": 38.911063666666664, "rental_uris": {"android": "https://dc.lft.to/lastmile_qr_scan", "ios": "https://dc.lft.to/lastmile_qr_scan"}, "fusion_lat": 0.0, "name": "f51eb23000b854846e3cc24ba90ad3c9", "bike_id": "f51eb23000b854846e3cc24ba90ad3c9"}, {"is_disabled": 0, "is_reserved": 0, "type": "electric_scooter", "lon": -77.03761, "fusion_lon": 0.0, "lat": 38.916878, "rental_uris": {"android": "https://dc.lft.to/lastmile_qr_scan", "ios": "https://dc.lft.to/lastmile_qr_scan"}, "fusion_lat": 0.0, "name": "a35d4d41605946ec746b300c76dcfe0c", "bike_id": "a35d4d41605946ec746b300c76dcfe0c"}, {"is_disabled": 0, "is_reserved": 0, "type": "electric_scooter", "lon": -77.03311416666666, "fusion_lon": 0.0, "lat": 38.9561535, "rental_uris": {"android": "https://dc.lft.to/lastmile_qr_scan", "ios": "https://dc.lft.to/lastmile_qr_scan"}, "fusion_lat": 0.0, "name": "8c4a464e4efc67b579d6dfb7c9ba5595", "bike_id": "8c4a464e4efc67b579d6dfb7c9ba5595"}, {"is_disabled": 0, "is_reserved": 0, "type": "electric_scooter", "lon": -77.0442405, "fusion_lon": 0.0, "lat": 38.917718, "rental_uris": {"android": "https://dc.lft.to/lastmile_qr_scan", "ios": "https://dc.lft.to/lastmile_qr_scan"}, "fusion_lat": 0.0, "name": "7077fe9d1aeeb8e47556ef139215e9e9", "bike_id": "7077fe9d1aeeb8e47556ef139215e9e9"}, {"is_disabled": 0, "is_reserved": 0, "type": "electric_bike", "lon": -77.05157833333334, "fusion_lon": 0.0, "lat": 38.89739516666667, "rental_uris": {"android": "https://dc.lft.to/lastmile_qr_scan", "ios": "https://dc.lft.to/lastmile_qr_scan"}, "fusion_lat": 0.0, "name": "3a4ec55236bef57985bbba152d22e923", "bike_id": "3a4ec55236bef57985bbba152d22e923"}, {"is_disabled": 0, "is_reserved": 0, "type": "electric_scooter", "lon": -77.00200133333334, "fusion_lon": 0.0, "lat": 38.90240083333333, "rental_uris": {"android": "https://dc.lft.to/lastmile_qr_scan", "ios": "https://dc.lft.to/lastmile_qr_scan"}, "fusion_lat": 0.0, "name": "45fe8e41af1cbe80f2133362ba31d0cf", "bike_id": "45fe8e41af1cbe80f2133362ba31d0cf"}, {"is_disabled": 0, "is_reserved": 0, "type": "electric_bike", "lon": -77.00596683333333, "fusion_lon": 0.0, "lat": 38.898224666666664, "rental_uris": {"android": "https://dc.lft.to/lastmile_qr_scan", "ios": "https://dc.lft.to/lastmile_qr_scan"}, "fusion_lat": 0.0, "name": "f87f36b8a2b9178e12fe911f7f79e18f", "bike_id": "f87f36b8a2b9178e12fe911f7f79e18f"}, {"is_disabled": 0, "is_reserved": 0, "type": "electric_scooter", "lon": -77.037035, "fusion_lon": 0.0, "lat": 38.9264655, "rental_uris": {"android": "https://dc.lft.to/lastmile_qr_scan", "ios": "https://dc.lft.to/lastmile_qr_scan"}, "fusion_lat": 0.0, "name": "ae5e21ba71ffaf33d5d675457dcc6441", "bike_id": "ae5e21ba71ffaf33d5d675457dcc6441"}, {"is_disabled": 0, "is_reserved": 0, "type": "electric_scooter", "lon": -77.01764666666666, "fusion_lon": 0.0, "lat": 38.88387316666667, "rental_uris": {"android": "https://dc.lft.to/lastmile_qr_scan", "ios": "https://dc.lft.to/lastmile_qr_scan"}, "fusion_lat": 0.0, "name": "5b36e34832730d97a7f101c00ea1dd0e", "bike_id": "5b36e34832730d97a7f101c00ea1dd0e"}, {"is_disabled": 0, "is_reserved": 0, "type": "electric_scooter", "lon": -77.03656283333333, "fusion_lon": 0.0, "lat": 38.922759666666664, "rental_uris": {"android": "https://dc.lft.to/lastmile_qr_scan", "ios": "https://dc.lft.to/lastmile_qr_scan"}, "fusion_lat": 0.0, "name": "fb3f2996488f1a2617fd9de62066cf4b", "bike_id": "fb3f2996488f1a2617fd9de62066cf4b"}, {"is_disabled": 0, "is_reserved": 0, "type": "electric_scooter", "lon": -76.98734333333333, "fusion_lon": 0.0, "lat": 38.867102, "rental_uris": {"android": "https://dc.lft.to/lastmile_qr_scan", "ios": "https://dc.lft.to/lastmile_qr_scan"}, "fusion_lat": 0.0, "name": "3f4368bdc425a4277f0f19b5a0ce09c0", "bike_id": "3f4368bdc425a4277f0f19b5a0ce09c0"}, {"is_disabled": 0, "is_reserved": 0, "type": "electric_scooter", "lon": -77.04467166666667, "fusion_lon": 0.0, "lat": 38.902333166666665, "rental_uris": {"android": "https://dc.lft.to/lastmile_qr_scan", "ios": "https://dc.lft.to/lastmile_qr_scan"}, "fusion_lat": 0.0, "name": "fec137556bd505f9c8d10394f8b2dd19", "bike_id": "fec137556bd505f9c8d10394f8b2dd19"}, {"is_disabled": 0, "is_reserved": 0, "type": "electric_scooter", "lon": -76.99401533333334, "fusion_lon": 0.0, "lat": 38.9216405, "rental_uris": {"android": "https://dc.lft.to/lastmile_qr_scan", "ios": "https://dc.lft.to/lastmile_qr_scan"}, "fusion_lat": 0.0, "name": "e82544a2a049c209ab797e83487ecb3b", "bike_id": "e82544a2a049c209ab797e83487ecb3b"}, {"is_disabled": 0, "is_reserved": 0, "type": "electric_scooter", "lon": -77.0528245, "fusion_lon": 0.0, "lat": 38.92257633333333, "rental_uris": {"android": "https://dc.lft.to/lastmile_qr_scan", "ios": "https://dc.lft.to/lastmile_qr_scan"}, "fusion_lat": 0.0, "name": "fae808d5c088d854f11f1ade537bd3c2", "bike_id": "fae808d5c088d854f11f1ade537bd3c2"}, {"is_disabled": 0, "is_reserved": 0, "type": "electric_bike", "lon": -76.97363133333333, "fusion_lon": 0.0, "lat": 38.86553516666667, "rental_uris": {"android": "https://dc.lft.to/lastmile_qr_scan", "ios": "https://dc.lft.to/lastmile_qr_scan"}, "fusion_lat": 0.0, "name": "ff0bda440a5c16a338ac56ef35ec2fcb", "bike_id": "ff0bda440a5c16a338ac56ef35ec2fcb"}, {"is_disabled": 0, "is_reserved": 0, "type": "electric_scooter", "lon": -77.05021516666666, "fusion_lon": 0.0, "lat": 38.90065466666667, "rental_uris": {"android": "https://dc.lft.to/lastmile_qr_scan", "ios": "https://dc.lft.to/lastmile_qr_scan"}, "fusion_lat": 0.0, "name": "095539076b47405df9a927e9d8cf772f", "bike_id": "095539076b47405df9a927e9d8cf772f"}, {"is_disabled": 0, "is_reserved": 0, "type": "electric_scooter", "lon": -76.94153866666667, "fusion_lon": 0.0, "lat": 38.88362566666667, "rental_uris": {"android": "https://dc.lft.to/lastmile_qr_scan", "ios": "https://dc.lft.to/lastmile_qr_scan"}, "fusion_lat": 0.0, "name": "98754525d48a67bc90b9f7478354baea", "bike_id": "98754525d48a67bc90b9f7478354baea"}, {"is_disabled": 0, "is_reserved": 0, "type": "electric_scooter", "lon": -77.03120666666666, "fusion_lon": 0.0, "lat": 38.92012883333334, "rental_uris": {"android": "https://dc.lft.to/lastmile_qr_scan", "ios": "https://dc.lft.to/lastmile_qr_scan"}, "fusion_lat": 0.0, "name": "f668cef3ae734b28d223222926dcef22", "bike_id": "f668cef3ae734b28d223222926dcef22"}, {"is_disabled": 0, "is_reserved": 0, "type": "electric_scooter", "lon": -77.029611, "fusion_lon": 0.0, "lat": 38.904160833333336, "rental_uris": {"android": "https://dc.lft.to/lastmile_qr_scan", "ios": "https://dc.lft.to/lastmile_qr_scan"}, "fusion_lat": 0.0, "name": "fb8b6edbc1344e49218fc32d9cd921c8", "bike_id": "fb8b6edbc1344e49218fc32d9cd921c8"}, {"is_disabled": 0, "is_reserved": 0, "type": "electric_scooter", "lon": -77.0385795, "fusion_lon": 0.0, "lat": 38.903852666666666, "rental_uris": {"android": "https://dc.lft.to/lastmile_qr_scan", "ios": "https://dc.lft.to/lastmile_qr_scan"}, "fusion_lat": 0.0, "name": "6e9faed5b63b334b1e693b10c5464e5d", "bike_id": "6e9faed5b63b334b1e693b10c5464e5d"}, {"is_disabled": 0, "is_reserved": 0, "type": "electric_scooter", "lon": -77.02656483333334, "fusion_lon": 0.0, "lat": 38.932768333333335, "rental_uris": {"android": "https://dc.lft.to/lastmile_qr_scan", "ios": "https://dc.lft.to/lastmile_qr_scan"}, "fusion_lat": 0.0, "name": "c44197fabd53112ba978394fd285c5b7", "bike_id": "c44197fabd53112ba978394fd285c5b7"}, {"is_disabled": 0, "is_reserved": 0, "type": "electric_scooter", "lon": -77.03467016666667, "fusion_lon": 0.0, "lat": 38.9041055, "rental_uris": {"android": "https://dc.lft.to/lastmile_qr_scan", "ios": "https://dc.lft.to/lastmile_qr_scan"}, "fusion_lat": 0.0, "name": "d1654f19f12f15ec272b9960cef2a1b8", "bike_id": "d1654f19f12f15ec272b9960cef2a1b8"}, {"is_disabled": 0, "is_reserved": 0, "type": "electric_scooter", "lon": -77.0299275, "fusion_lon": 0.0, "lat": 38.932358, "rental_uris": {"android": "https://dc.lft.to/lastmile_qr_scan", "ios": "https://dc.lft.to/lastmile_qr_scan"}, "fusion_lat": 0.0, "name": "c0c12f9465d3365ee76894c77fd8f224", "bike_id": "c0c12f9465d3365ee76894c77fd8f224"}, {"is_disabled": 0, "is_reserved": 0, "type": "electric_scooter", "lon": -77.03899016666666, "fusion_lon": 0.0, "lat": 38.92497866666667, "rental_uris": {"android": "https://dc.lft.to/lastmile_qr_scan", "ios": "https://dc.lft.to/lastmile_qr_scan"}, "fusion_lat": 0.0, "name": "7af4d819a1f06888f4e1f167d3d931b5", "bike_id": "7af4d819a1f06888f4e1f167d3d931b5"}, {"is_disabled": 0, "is_reserved": 0, "type": "electric_scooter", "lon": -76.98783383333334, "fusion_lon": 0.0, "lat": 38.84461666666667, "rental_uris": {"android": "https://dc.lft.to/lastmile_qr_scan", "ios": "https://dc.lft.to/lastmile_qr_scan"}, "fusion_lat": 0.0, "name": "44645d9949c31074fa10a465d2e7688f", "bike_id": "44645d9949c31074fa10a465d2e7688f"}, {"is_disabled": 0, "is_reserved": 0, "type": "electric_scooter", "lon": -77.04697033333333, "fusion_lon": 0.0, "lat": 38.897402666666665, "rental_uris": {"android": "https://dc.lft.to/lastmile_qr_scan", "ios": "https://dc.lft.to/lastmile_qr_scan"}, "fusion_lat": 0.0, "name": "de79af56a9a1d377fa2e2af8984e790d", "bike_id": "de79af56a9a1d377fa2e2af8984e790d"}, {"is_disabled": 0, "is_reserved": 0, "type": "electric_bike", "lon": -76.98831533333333, "fusion_lon": 0.0, "lat": 38.98559866666667, "rental_uris": {"android": "https://dc.lft.to/lastmile_qr_scan", "ios": "https://dc.lft.to/lastmile_qr_scan"}, "fusion_lat": 0.0, "name": "6629e0ec84053f0cc8ee91fad91c00fb", "bike_id": "6629e0ec84053f0cc8ee91fad91c00fb"}, {"is_disabled": 0, "is_reserved": 0, "type": "electric_scooter", "lon": -76.990296, "fusion_lon": 0.0, "lat": 38.89847966666667, "rental_uris": {"android": "https://dc.lft.to/lastmile_qr_scan", "ios": "https://dc.lft.to/lastmile_qr_scan"}, "fusion_lat": 0.0, "name": "fbc55b811fe216b804c4ae928a79e342", "bike_id": "fbc55b811fe216b804c4ae928a79e342"}, {"is_disabled": 0, "is_reserved": 0, "type": "electric_scooter", "lon": -77.05089833333334, "fusion_lon": 0.0, "lat": 38.90538383333333, "rental_uris": {"android": "https://dc.lft.to/lastmile_qr_scan", "ios": "https://dc.lft.to/lastmile_qr_scan"}, "fusion_lat": 0.0, "name": "ca05efbf94e6542996cd6b5bc68bc4ca", "bike_id": "ca05efbf94e6542996cd6b5bc68bc4ca"},