{"data": {"bikes": [{"is_reserved": 0, "fusion_lon": 0.0, "fusion_lat": 0.0, "name": "dfc7527f9a9a07e8da9f0270a31a8164", "type": "electric_scooter", "is_disabled": 0, "lat": 38.90034583333333, "rental_uris": {"android": "https://dc.lft.to/lastmile_qr_scan", "ios": "https://dc.lft.to/lastmile_qr_scan"}, "bike_id": "dfc7527f9a9a07e8da9f0270a31a8164", "lon": -76.99618833333334}, {"is_reserved": 0, "fusion_lon": 0.0, "fusion_lat": 0.0, "name": "4a9ae64f079af2ab68ac0acb9f15850a", "type": "electric_scooter", "is_disabled": 0, "lat": 38.89865533333333, "rental_uris": {"android": "https://dc.lft.to/lastmile_qr_scan", "ios": "https://dc.lft.to/lastmile_qr_scan"}, "bike_id": "4a9ae64f079af2ab68ac0acb9f15850a", "lon": -76.94661733333334}, {"is_reserved": 0, "fusion_lon": 0.0, "fusion_lat": 0.0, "name": "53ebba3b67616eb6e5cb2f64100453e7", "type": "electric_scooter", "is_disabled": 0, "lat": 38.8935055, "rental_uris": {"android": "https://dc.lft.to/lastmile_qr_scan", "ios": "https://dc.lft.to/lastmile_qr_scan"}, "bike_id": "53ebba3b67616eb6e5cb2f64100453e7", "lon": -77.0172305}, {"is_reserved": 0, "fusion_lon": 0.0, "fusion_lat": 0.0, "name": "28529e5c721e88d715e58a230b665730", "type": "electric_scooter", "is_disabled": 0, "lat": 38.91425733333333, "rental_uris": {"android": "https://dc.lft.to/lastmile_qr_scan", "ios": "https://dc.lft.to/lastmile_qr_scan"}, "bike_id": "28529e5c721e88d715e58a230b665730", "lon": -77.03814333333334}, {"is_reserved": 0, "fusion_lon": 0.0, "fusion_lat": 0.0, "name": "5449fd3fdd414c873fa39bb4699c4d29", "type": "electric_scooter", "is_disabled": 0, "lat": 38.9008745, "rental_uris": {"android": "https://dc.lft.to/lastmile_qr_scan", "ios": "https://dc.lft.to/lastmile_qr_scan"}, "bike_id": "5449fd3fdd414c873fa39bb4699c4d29", "lon": -77.04881983333334}, {"is_reserved": 0, "fusion_lon": 0.0, "fusion_lat": 0.0, "name": "590fc66b6bddec67af9c1db0f7a6a7c6", "type": "electric_bike", "is_disabled": 0, "lat": 38.878714, "rental_uris": {"android": "https://dc.lft.to/lastmile_qr_scan", "ios": "https://dc.lft.to/lastmile_qr_scan"}, "bike_id": "590fc66b6bddec67af9c1db0f7a6a7c6", "lon": -76.99015633333333}, {"is_reserved": 0, "fusion_lon": 0.0, "fusion_lat": 0.0, "name": "da7a7acbb4ff29cc89082c64c426b51c", "type": "electric_scooter", "is_disabled": 0, "lat": 38.906490166666664, "rental_uris": {"android": "https://dc.lft.to/lastmile_qr_scan", "ios": "https://dc.lft.to/lastmile_qr_scan"}, "bike_id": "da7a7acbb4ff29cc89082c64c426b51c", "lon": -77.046737}, {"is_reserved": 0, "fusion_lon": 0.0, "fusion_lat": 0.0, "name": "cc3c8b24209a418689f641ab42486ecf", "type": "electric_bike", "is_disabled": 0, "lat": 38.85483933333333, "rental_uris": {"android": "https://dc.lft.to/lastmile_qr_scan", "ios": "https://dc.lft.to/lastmile_qr_scan"}, "bike_id": "cc3c8b24209a418689f641ab42486ecf", "lon": -77.11612116666667}, {"is_reserved": 0, "fusion_lon": 0.0, "fusion_lat": 0.0, "name": "8cc26d89777a6527933029dac15f1803", "type": "electric_scooter", "is_disabled": 0, "lat": 38.911192666666665, "rental_uris": {"android": "https://dc.lft.to/lastmile_qr_scan", "ios": "https://dc.lft.to/lastmile_qr_scan"}, "bike_id": "8cc26d89777a6527933029dac15f1803", "lon": -77.03146716666667}, {"is_reserved": 0, "fusion_lon": 0.0, "fusion_lat": 0.0, "name": "8f06d262d98d6f97c040a01faa927858", "type": "electric_scooter", "is_disabled": 0, "lat": 38.918181833333335, "rental_uris": {"android": "https://dc.lft.to/lastmile_qr_scan", "ios": "https://dc.lft.to/lastmile_qr_scan"}, "bike_id": "8f06d262d98d6f97c040a01faa927858", "lon": -77.02977883333334}, {"is_reserved": 0, "fusion_lon": 0.0, "fusion_lat": 0.0, "name": "88a47317fd9853cabe07c4f51261bffa", "type": "electric_scooter", "is_disabled": 0, "lat": 38.909608666666664, "rental_uris": {"android": "https://dc.lft.to/lastmile_qr_scan", "ios": "https://dc.lft.to/lastmile_qr_scan"}, "bike_id": "88a47317fd9853cabe07c4f51261bffa", "lon": -77.03860066666667}, {"is_reserved": 0, "fusion_lon": 0.0, "fusion_lat": 0.0, "name": "51573122cb43ffb7b65a8a0712a81160", "type": "electric_scooter", "is_disabled": 0, "lat": 38.90844416666667, "rental_uris": {"android": "https://dc.lft.to/lastmile_qr_scan", "ios": "https://dc.lft.to/lastmile_qr_scan"}, "bike_id": "51573122cb43ffb7b65a8a0712a81160", "lon": -77.03323483333334}, {"is_reserved": 0, "fusion_lon": 0.0, "fusion_lat": 0.0, "name": "96316d2f77c7c4355175abdce4acb293", "type": "electric_scooter", "is_disabled": 0, "lat": 38.88074183333333, "rental_uris": {"android": "https://dc.lft.to/lastmile_qr_scan", "ios": "https://dc.lft.to/lastmile_qr_scan"}, "bike_id": "96316d2f77c7c4355175abdce4acb293", "lon": -76.98524533333334}, {"is_reserved": 0, "fusion_lon": 0.0, "fusion_lat": 0.0, "name": "c776303d0be7dce6892fb9b61775e012", "type": "electric_scooter", "is_disabled": 0, "lat": 38.9264585, "rental_uris": {"android": "https://dc.lft.to/lastmile_qr_scan", "ios": "https://dc.lft.to/lastmile_qr_scan"}, "bike_id": "c776303d0be7dce6892fb9b61775e012", "lon": -77.04137866666666}, {"is_reserved": 0, "fusion_lon": 0.0, "fusion_lat": 0.0, "name": "e790b8ba687930fffcfbc1ae4e4d6910", "type": "electric_scooter", "is_disabled": 0, "lat": 38.922856333333335, "rental_uris": {"android": "https://dc.lft.to/lastmile_qr_scan", "ios": "https://dc.lft.to/lastmile_qr_scan"}, "bike_id": "e790b8ba687930fffcfbc1ae4e4d6910", "lon": -77.07288566666666}, {"is_reserved": 0, "fusion_lon": 0.0, "fusion_lat": 0.0, "name": "cd2091232f3b0417f653470993d995f2", "type": "electric_scooter", "is_disabled": 0, "lat": 38.901788833333335, "rental_uris": {"android": "https://dc.lft.to/lastmile_qr_scan", "ios": "https://dc.lft.to/lastmile_qr_scan"}, "bike_id": "cd2091232f3b0417f653470993d995f2", "lon": -76.92864183333333}, {"is_reserved": 0, "fusion_lon": 0.0, "fusion_lat": 0.0, "name": "0dcd39cea17c691b704124c38d5eb7a9", "type": "electric_scooter", "is_disabled": 0, "lat": 38.85859683333334, "rental_uris": {"android": "https://dc.lft.to/lastmile_qr_scan", "ios": "https://dc.lft.to/lastmile_qr_scan"}, "bike_id": "0dcd39cea17c691b704124c38d5eb7a9", "lon": -76.98565233333333}, {"is_reserved": 0, "fusion_lon": 0.0, "fusion_lat": 0.0, "name": "c70d78270b86379a16cdc7a15811c5ec", "type": "electric_bike", "is_disabled": 0, "lat": 38.83606433333333, "rental_uris": {"android": "https://dc.lft.to/lastmile_qr_scan", "ios": "https://dc.lft.to/lastmile_qr_scan"}, "bike_id": "c70d78270b86379a16cdc7a15811c5ec", "lon": -77.0037505}, {"is_reserved": 0, "fusion_lon": 0.0, "fusion_lat": 0.0, "name": "2bbaf69003fb2ffcf46bbf8ead356b2d", "type": "electric_scooter", "is_disabled": 0, "lat": 38.921640333333336, "rental_uris": {"android": "https://dc.lft.to/lastmile_qr_scan", "ios": "https://dc.lft.to/lastmile_qr_scan"}, "bike_id": "2bbaf69003fb2ffcf46bbf8ead356b2d", "lon": -77.04217883333334}, {"is_reserved": 0, "fusion_lon": 0.0, "fusion_lat": 0.0, "name": "24dd9d588a2e6ffc2e3e2be899a8bafc", "type": "electric_scooter", "is_disabled": 0, "lat": 38.9026705, "rental_uris": {"android": "https://dc.lft.to/lastmile_qr_scan", "ios": "https://dc.lft.to/lastmile_qr_scan"}, "bike_id": "24dd9d588a2e6ffc2e3e2be899a8bafc", "lon": -77.03891816666666}, {"is_reserved": 0, "fusion_lon": 0.0, "fusion_lat": 0.0, "name": "bc03069c7d5fb93d19a432a7f2196344", "type": "electric_scooter", "is_disabled": 0, "lat": 38.90600233333333, "rental_uris": {"android": "https://dc.lft.to/lastmile_qr_scan", "ios": "https://dc.lft.to/lastmile_qr_scan"}, "bike_id": "bc03069c7d5fb93d19a432a7f2196344", "lon": -77.02216916666667}, {"is_reserved": 0, "fusion_lon": 0.0, "fusion_lat": 0.0, "name": "4d363dd6c073e2cc82de6da210c912df", "type": "electric_scooter", "is_disabled": 0, "lat": 38.9088725, "rental_uris": {"android": "https://dc.lft.to/lastmile_qr_scan", "ios": "https://dc.lft.to/lastmile_qr_scan"}, "bike_id": "4d363dd6c073e2cc82de6da210c912df", "lon": -76.99857}, {"is_reserved": 0, "fusion_lon": 0.0, "fusion_lat": 0.0, "name": "8bb8984e0d2ee34978bdb5fa4ce1d3e7", "type": "electric_scooter", "is_disabled": 0, "lat": 38.8500095, "rental_uris": {"android": "https://dc.lft.to/lastmile_qr_scan", "ios": "https://dc.lft.to/lastmile_qr_scan"}, "bike_id": "8bb8984e0d2ee34978bdb5fa4ce1d3e7", "lon": -76.98342166666667}, {"is_reserved": 0, "fusion_lon": 0.0, "fusion_lat": 0.0, "name": "ff9da74662e331db4bfd58fbcea6511c", "type": "electric_scooter", "is_disabled": 0, "lat": 38.90260466666667, "rental_uris": {"android": "https://dc.lft.to/lastmile_qr_scan", "ios": "https://dc.lft.to/lastmile_qr_scan"}, "bike_id": "ff9da74662e331db4bfd58fbcea6511c", "lon": -77.01758933333333}, {"is_reserved": 0, "fusion_lon": 0.0, "fusion_lat": 0.0, "name": "b5032e2c65e8bb02f92a4f42c8b753a4", "type": "electric_scooter", "is_disabled": 0, "lat": 38.91267766666667, "rental_uris": {"android": "https://dc.lft.to/lastmile_qr_scan", "ios": "https://dc.lft.to/lastmile_qr_scan"}, "bike_id": "b5032e2c65e8bb02f92a4f42c8b753a4", "lon": -77.02871183333333}, {"is_reserved": 0, "fusion_lon": 0.0, "fusion_lat": 0.0, "name": "8a82d54e7cc06617250fccdcf8c5a49e", "type": "electric_bike", "is_disabled": 0, "lat": 39.014815, "rental_uris": {"android": "https://dc.lft.to/lastmile_qr_scan", "ios": "https://dc.lft.to/lastmile_qr_scan"}, "bike_id": "8a82d54e7cc06617250fccdcf8c5a49e", "lon": -77.05494233333333}, {"is_reserved": 0, "fusion_lon": 0.0, "fusion_lat": 0.0, "name": "622271b0729c791660c866d494af41bd", "type": "electric_bike", "is_disabled": 0, "lat": 38.96739916666667, "rental_uris": {"android": "https://dc.lft.to/lastmile_qr_scan", "ios": "https://dc.lft.to/lastmile_qr_scan"}, "bike_id": "622271b0729c791660c866d494af41bd", "lon": -76.98188866666666}, {"is_reserved": 0, "fusion_lon": 0.0, "fusion_lat": 0.0, "name": "11f3c749660c1c9c41ed7ffe151755a7", "type": "electric_scooter", "is_disabled": 0, "lat": 38.915612833333334, "rental_uris": {"android": "https://dc.lft.to/lastmile_qr_scan", "ios": "https://dc.lft.to/lastmile_qr_scan"}, "bike_id": "11f3c749660c1c9c41ed7ffe151755a7", "lon": -77.0409345}, {"is_reserved": 0, "fusion_lon": 0.0, "fusion_lat": 0.0, "name": "f3444ecd19358e14d840c567669baed9", "type": "electric_scooter", "is_disabled": 0, "lat": 38.9119395, "rental_uris": {"android": "https://dc.lft.to/lastmile_qr_scan", "ios": "https://dc.lft.to/lastmile_qr_scan"}, "bike_id": "f3444ecd19358e14d840c567669baed9", "lon": -77.03833183333333}, {"is_reserved": 0, "fusion_lon": 0.0, "fusion_lat": 0.0, "name": "cb1541e9b030bf7aa88fcc6b7ef70f2f", "type": "electric_scooter", "is_disabled": 0, "lat": 38.91496166666667, "rental_uris": {"android": "https://dc.lft.to/lastmile_qr_scan", "ios": "https://dc.lft.to/lastmile_qr_scan"}, "bike_id": "cb1541e9b030bf7aa88fcc6b7ef70f2f", "lon": -77.0199485}, {"is_reserved": 0, "fusion_lon": 0.0, "fusion_lat": 0.0, "name": "70fca1746a26ea4387322de8c29df70f", "type": "electric_scooter", "is_disabled": 0, "lat": 38.93954983333333, "rental_uris": {"android": "https://dc.lft.to/lastmile_qr_scan", "ios": "https://dc.lft.to/lastmile_qr_scan"}, "bike_id": "70fca1746a26ea4387322de8c29df70f", "lon": -77.02487366666666}, {"is_reserved": 0, "fusion_lon": 0.0, "fusion_lat": 0.0, "name": "7c46599a82e5a163ab69eb7469827477", "type": "electric_scooter", "is_disabled": 0, "lat": 38.9026045, "rental_uris": {"android": "https://dc.lft.to/lastmile_qr_scan", "ios": "https://dc.lft.to/lastmile_qr_scan"}, "bike_id": "7c46599a82e5a163ab69eb7469827477", "lon": -77.03653316666667}, {"is_reserved": 0, "fusion_lon": 0.0, "fusion_lat": 0.0, "name": "ccc331741bfe624370c2bd62bdaa24cb", "type": "electric_scooter", "is_disabled": 0, "lat": 38.923370166666665, "rental_uris": {"android": "https://dc.lft.to/lastmile_qr_scan", "ios": "https://dc.lft.to/lastmile_qr_scan"}, "bike_id": "ccc331741bfe624370c2bd62bdaa24cb", "lon": -77.03527133333333}, {"is_reserved": 0, "fusion_lon": 0.0, "fusion_lat": 0.0, "name": "4a332e6768359526b9ce54b58bd91c07", "type": "electric_scooter", "is_disabled": 0, "lat": 38.99601583333333, "rental_uris": {"android": "https://dc.lft.to/lastmile_qr_scan", "ios": "https://dc.lft.to/lastmile_qr_scan"}, "bike_id": "4a332e6768359526b9ce54b58bd91c07", "lon": -77.03207383333333}, {"is_reserved": 0, "fusion_lon": 0.0, "fusion_lat": 0.0, "name": "7e0a913aaa0a553cdca01e5652364106", "type": "electric_scooter", "is_disabled": 0, "lat": 38.906681, "rental_uris": {"android": "https://dc.lft.to/lastmile_qr_scan", "ios": "https://dc.lft.to/lastmile_qr_scan"}, "bike_id": "7e0a913aaa0a553cdca01e5652364106", "lon": -77.02714483333334}, {"is_reserved": 0, "fusion_lon": 0.0, "fusion_lat": 0.0, "name": "ae75fe08553108ef274b5c9dcfa227c6", "type": "electric_scooter", "is_disabled": 0, "lat": 38.864673333333336, "rental_uris": {"android": "https://dc.lft.to/lastmile_qr_scan", "ios": "https://dc.lft.to/lastmile_qr_scan"}, "bike_id": "ae75fe08553108ef274b5c9dcfa227c6", "lon": -76.98229683333334}, {"is_reserved": 0, "fusion_lon": 0.0, "fusion_lat": 0.0, "name": "727acba10482d2e27665237ca8a3347d", "type": "electric_scooter", "is_disabled": 0, "lat": 38.90599516666666, "rental_uris": {"android": "https://dc.lft.to/lastmile_qr_scan", "ios": "https://dc.lft.to/lastmile_qr_scan"}, "bike_id": "727acba10482d2e27665237ca8a3347d", "lon": -77.00374233333334}, {"is_reserved": 0, "fusion_lon": 0.0, "fusion_lat": 0.0, "name": "1402fef7d758c68ac7a9266ed66137bc", "type": "electric_scooter", "is_disabled": 0, "lat": 38.908868166666664, "rental_uris": {"android": "https://dc.lft.to/lastmile_qr_scan", "ios": "https://dc.lft.to/lastmile_qr_scan"}, "bike_id": "1402fef7d758c68ac7a9266ed66137bc", "lon": -76.998438}, {"is_reserved": 0, "fusion_lon": 0.0, "fusion_lat": 0.0, "name": "392304a9104f14b619e17c5be3d80653", "type": "electric_scooter", "is_disabled": 0, "lat": 38.90217633333334, "rental_uris": {"android": "https://dc.lft.to/lastmile_qr_scan", "ios": "https://dc.lft.to/lastmile_qr_scan"}, "bike_id": "392304a9104f14b619e17c5be3d80653", "lon": -77.048214}, {"is_reserved": 0, "fusion_lon": 0.0, "fusion_lat": 0.0, "name": "e1cbd594b3cac78fd3cd78a71c4b52fb", "type": "electric_scooter", "is_disabled": 0, "lat": 38.90409416666667, "rental_uris": {"android": "https://dc.lft.to/lastmile_qr_scan", "ios": "https://dc.lft.to/lastmile_qr_scan"}, "bike_id": "e1cbd594b3cac78fd3cd78a71c4b52fb", "lon": -76.9732805}, {"is_reserved": 0, "fusion_lon": 0.0, "fusion_lat": 0.0, "name": "6d4290fc6eb345d6022c9cba98356eef", "type": "electric_bike", "is_disabled": 0, "lat": 38.9248235, "rental_uris": {"android": "https://dc.lft.to/lastmile_qr_scan", "ios": "https://dc.lft.to/lastmile_qr_scan"}, "bike_id": "6d4290fc6eb345d6022c9cba98356eef", "lon": -77.03766833333333}, {"is_reserved": 0, "fusion_lon": 0.0, "fusion_lat": 0.0, "name": "bff3681c444e1de83350b5bc6d6a46c1", "type": "electric_scooter", "is_disabled": 0, "lat": 38.92182666666667, "rental_uris": {"android": "https://dc.lft.to/lastmile_qr_scan", "ios": "https://dc.lft.to/lastmile_qr_scan"}, "bike_id": "bff3681c444e1de83350b5bc6d6a46c1", "lon": -77.04343333333334}, {"is_reserved": 0, "fusion_lon": 0.0, "fusion_lat": 0.0, "name": "e3bde00869817cec05a58a8386988488", "type": "electric_scooter", "is_disabled": 0, "lat": 38.921449333333335, "rental_uris": {"android": "https://dc.lft.to/lastmile_qr_scan", "ios": "https://dc.lft.to/lastmile_qr_scan"}, "bike_id": "e3bde00869817cec05a58a8386988488", "lon": -77.04525933333333}, {"is_reserved": 0, "fusion_lon": 0.0, "fusion_lat": 0.0, "name": "02be42c5c062060fb474ae760fd313d2", "type": "electric_bike", "is_disabled": 0, "lat": 39.05048983333333, "rental_uris": {"android": "https://dc.lft.to/lastmile_qr_scan", "ios": "https://dc.lft.to/lastmile_qr_scan"}, "bike_id": "02be42c5c062060fb474ae760fd313d2", "lon": -77.0515095}, {"is_reserved": 0, "fusion_lon": 0.0, "fusion_lat": 0.0, "name": "247642a2c53ebb832b16dca3bb2c74e1", "type": "electric_scooter", "is_disabled": 0, "lat": 38.885502333333335, "rental_uris": {"android": "https://dc.lft.to/lastmile_qr_scan", "ios": "https://dc.lft.to/lastmile_qr_scan"}, "bike_id": "247642a2c53ebb832b16dca3bb2c74e1", "lon": -76.99802816666667}, {"is_reserved": 0, "fusion_lon": 0.0, "fusion_lat": 0.0, "name": "9da7cc2b1b24e7f27d6c85907b43b90f", "type": "electric_scooter", "is_disabled": 0, "lat": 38.91714416666667, "rental_uris": {"android": "https://dc.lft.to/lastmile_qr_scan", "ios": "https://dc.lft.to/lastmile_qr_scan"}, "bike_id": "9da7cc2b1b24e7f27d6c85907b43b90f", "lon": -77.0385915}, {"is_reserved": 0, "fusion_lon": 0.0, "fusion_lat": 0.0, "name": "7d12c73444251a2b2240641cc32474c2", "type": "electric_bike", "is_disabled": 0, "lat": 38.83231716666667, "rental_uris": {"android": "https://dc.lft.to/lastmile_qr_scan", "ios": "https://dc.lft.to/lastmile_qr_scan"}, "bike_id": "7d12c73444251a2b2240641cc32474c2", "lon": -76.94623}, {"is_reserved": 0, "fusion_lon": 0.0, "fusion_lat": 0.0, "name": "e7e7a966670b541b36d6e5e8aa1a4e9a", "type": "electric_scooter", "is_disabled": 0, "lat": 38.876780333333336, "rental_uris": {"android": "https://dc.lft.to/lastmile_qr_scan", "ios": "https://dc.lft.to/lastmile_qr_scan"}, "bike_id": "e7e7a966670b541b36d6e5e8aa1a4e9a", "lon": -77.00429183333334}, {"is_reserved": 0, "fusion_lon": 0.0, "fusion_lat": 0.0, "name": "278182a1f2653b026bbcc387e80f591a", "type": "electric_scooter", "is_disabled": 0, "lat": 38.91096533333333, "rental_uris": {"android": "https://dc.lft.to/lastmile_qr_scan", "ios": "https://dc.lft.to/lastmile_qr_scan"}, "bike_id": "278182a1f2653b026bbcc387e80f591a", "lon": -77.02806183333334}, {"is_reserved": 0, "fusion_lon": 0.0, "fusion_lat": 0.0, "name": "1cae2fb22cc127d61e6d5d081f579fe0", "type": "electric_scooter", "is_disabled": 0, "lat": 38.93404816666666, "rental_uris": {"android": "https://dc.lft.to/lastmile_qr_scan", "ios": "https://dc.lft.to/lastmile_qr_scan"}, "bike_id": "1cae2fb22cc127d61e6d5d081f579fe0", "lon": -77.032692}, {"is_reserved": 0, "fusion_lon": 0.0, "fusion_lat": 0.0, "name": "f1d1f194861cfbc14c2ee04898575bd3", "type": "electric_scooter", "is_disabled": 0, "lat": 38.930246, "rental_uris": {"android": "https://dc.lft.to/lastmile_qr_scan", "ios": "https://dc.lft.to/lastmile_qr_scan"}, "bike_id": "f1d1f194861cfbc14c2ee04898575bd3", "lon": -77.06309033333334}, {"is_reserved": 0, "fusion_lon": 0.0, "fusion_lat": 0.0, "name": "9cbca73559f4e344c81842e1271a1c91", "type": "electric_scooter", "is_disabled": 0, "lat": 38.86383266666667, "rental_uris": {"android": "https://dc.lft.to/lastmile_qr_scan", "ios": "https://dc.lft.to/lastmile_qr_scan"}, "bike_id": "9cbca73559f4e344c81842e1271a1c91", "lon": -76.989229}, {"is_reserved": 0, "fusion_lon": 0.0, "fusion_lat": 0.0, "name": "7ba193fbdd7852ac0b5aa5cf46405a04", "type": "electric_scooter", "is_disabled": 0, "lat": 38.9274885, "rental_uris": {"android": "https://dc.lft.to/lastmile_qr_scan", "ios": "https://dc.lft.to/lastmile_qr_scan"}, "bike_id": "7ba193fbdd7852ac0b5aa5cf46405a04", "lon": -77.0253065}, {"is_reserved": 0, "fusion_lon": 0.0, "fusion_lat": 0.0, "name": "2f80a7fcc4f90dea3d22a2f3c547b8ac", "type": "electric_scooter", "is_disabled": 0, "lat": 38.90975866666667, "rental_uris": {"android": "https://dc.lft.to/lastmile_qr_scan", "ios": "https://dc.lft.to/lastmile_qr_scan"}, "bike_id": "2f80a7fcc4f90dea3d22a2f3c547b8ac", "lon": -77.03216533333334}, {"is_reserved": 0, "fusion_lon": 0.0, "fusion_lat": 0.0, "name": "0348fd255e9e5e9d786ec2e652225eab", "type": "electric_scooter", "is_disabled": 0, "lat": 38.88828083333333, "rental_uris": {"android": "https://dc.lft.to/lastmile_qr_scan", "ios": "https://dc.lft.to/lastmile_qr_scan"}, "bike_id": "0348fd255e9e5e9d786ec2e652225eab", "lon": -76.99372216666667}, {"is_reserved": 0, "fusion_lon": 0.0, "fusion_lat": 0.0, "name": "746ab6e877e996e571239b1463d67292", "type": "electric_scooter", "is_disabled": 0, "lat": 38.9187505, "rental_uris": {"android": "https://dc.lft.to/lastmile_qr_scan", "ios": "https://dc.lft.to/lastmile_qr_scan"}, "bike_id": "746ab6e877e996e571239b1463d67292", "lon": -77.0444985}, {"is_reserved": 0, "fusion_lon": 0.0, "fusion_lat": 0.0, "name": "7fc12311d6c705e2c03b44934ea49bb9", "type": "electric_bike", "is_disabled": 0, "lat": 38.96228216666667, "rental_uris": {"android": "https://dc.lft.to/lastmile_qr_scan", "ios": "https://dc.lft.to/lastmile_qr_scan"}, "bike_id": "7fc12311d6c705e2c03b44934ea49bb9", "lon": -77.02642883333333}, {"is_reserved": 0, "fusion_lon": 0.0, "fusion_lat": 0.0, "name": "6fa9d7409a4e4865b5c0325597a94548", "type": "electric_scooter", "is_disabled": 0, "lat": 38.900321, "rental_uris": {"android": "https://dc.lft.to/lastmile_qr_scan", "ios": "https://dc.lft.to/lastmile_qr_scan"}, "bike_id": "6fa9d7409a4e4865b5c0325597a94548", "lon": -76.98856033333334}, {"is_reserved": 0, "fusion_lon": 0.0, "fusion_lat": 0.0, "name": "e38e6937b0ed237d8fbb25dbcd2ebe4e", "type": "electric_scooter", "is_disabled": 0, "lat": 38.908098, "rental_uris": {"android": "https://dc.lft.to/lastmile_qr_scan", "ios": "https://dc.lft.to/lastmile_qr_scan"}, "bike_id": "e38e6937b0ed237d8fbb25dbcd2ebe4e", "lon": -77.04344683333333}, {"is_reserved": 0, "fusion_lon": 0.0, "fusion_lat": 0.0, "name": "48578ba5d9203108c753bb444cf1e30a", "type": "electric_bike", "is_disabled": 0, "lat": 38.812045166666664, "rental_uris": {"android": "https://dc.lft.to/lastmile_qr_scan", "ios": "https://dc.lft.to/lastmile_qr_scan"}, "bike_id": "48578ba5d9203108c753bb444cf1e30a", "lon": -77.10834266666667}, {"is_reserved": 0, "fusion_lon": 0.0, "fusion_lat": 0.0, "name": "893ad8d335cbfe919caa95413f57ebc3", "type": "electric_scooter", "is_disabled": 0, "lat": 38.90026266666667, "rental_uris": {"android": "https://dc.lft.to/lastmile_qr_scan", "ios": "https://dc.lft.to/lastmile_qr_scan"}, "bike_id": "893ad8d335cbfe919caa95413f57ebc3", "lon": -77.01193716666667}, {"is_reserved": 0, "fusion_lon": 0.0, "fusion_lat": 0.0, "name": "a8decf8b3f86730645ffb9de4b00213d", "type": "electric_scooter", "is_disabled": 0, "lat": 38.886102, "rental_uris": {"android": "https://dc.lft.to/lastmile_qr_scan", "ios": "https://dc.lft.to/lastmile_qr_scan"}, "bike_id": "a8decf8b3f86730645ffb9de4b00213d", "lon": -76.99511933333334}, {"is_reserved": 0, "fusion_lon": 0.0, "fusion_lat": 0.0, "name": "7dc62d068be2b803b05b33b2031b7ac0", "type": "electric_scooter", "is_disabled": 0, "lat": 38.911112, "rental_uris": {"android": "https://dc.lft.to/lastmile_qr_scan", "ios": "https://dc.lft.to/lastmile_qr_scan"}, "bike_id": "7dc62d068be2b803b05b33b2031b7ac0", "lon": -77.04468716666666}, {"is_reserved": 0, "fusion_lon": 0.0, "fusion_lat": 0.0, "name": "31e9d4487e50fc52ffe78e57db1b283f", "type": "electric_bike", "is_disabled": 0, "lat": 38.938705, "rental_uris": {"android": "https://dc.lft.to/lastmile_qr_scan", "ios": "https://dc.lft.to/lastmile_qr_scan"}, "bike_id": "31e9d4487e50fc52ffe78e57db1b283f", "lon": -76.94290016666666}, {"is_reserved": 0, "fusion_lon": 0.0, "fusion_lat": 0.0, "name": "97e767fca08fa3292afba686ff6dff48", "type": "electric_scooter", "is_disabled": 0, "lat": 38.9145455, "rental_uris": {"android": "https://dc.lft.to/lastmile_qr_scan", "ios": "https://dc.lft.to/lastmile_qr_scan"}, "bike_id": "97e767fca08fa3292afba686ff6dff48", "lon": -77.02283666666666}, {"is_reserved": 0, "fusion_lon": 0.0, "fusion_lat": 0.0, "name": "4b833cf29bf0855b547a7b7e14e3953f", "type": "electric_scooter", "is_disabled": 0, "lat": 38.8852995, "rental_uris": {"android": "https://dc.lft.to/lastmile_qr_scan", "ios": "https://dc.lft.to/lastmile_qr_scan"}, "bike_id": "4b833cf29bf0855b547a7b7e14e3953f", "lon": -76.99602066666667}, {"is_reserved": 0, "fusion_lon": 0.0, "fusion_lat": 0.0, "name": "7cf9c3f8ace95a9d031b5cbdb3ed402a", "type": "electric_scooter", "is_disabled": 0, "lat": 38.923464, "rental_uris": {"android": "https://dc.lft.to/lastmile_qr_scan", "ios": "https://dc.lft.to/lastmile_qr_scan"}, "bike_id": "7cf9c3f8ace95a9d031b5cbdb3ed402a", "lon": -77.035012}, {"is_reserved": 0, "fusion_lon": 0.0, "fusion_lat": 0.0, "name": "3bfd5f8967e46094423ad297d1555e4f", "type": "electric_scooter", "is_disabled": 0, "lat": 38.8728745, "rental_uris": {"android": "https://dc.lft.to/lastmile_qr_scan", "ios": "https://dc.lft.to/lastmile_qr_scan"}, "bike_id": "3bfd5f8967e46094423ad297d1555e4f", "lon": -77.00987183333334}, {"is_reserved": 0, "fusion_lon": 0.0, "fusion_lat": 0.0, "name": "e6c1feb10dc1ae27608069903fb7a625", "type": "electric_scooter", "is_disabled": 0, "lat": 38.88459233333333, "rental_uris": {"android": "https://dc.lft.to/lastmile_qr_scan", "ios": "https://dc.lft.to/lastmile_qr_scan"}, "bike_id": "e6c1feb10dc1ae27608069903fb7a625", "lon": -76.926236}, {"is_reserved": 0, "fusion_lon": 0.0, "fusion_lat": 0.0, "name": "e25b5de5441f33c65b5f6e7a4a3b563c", "type": "electric_scooter", "is_disabled": 0, "lat": 38.930390333333335, "rental_uris": {"android": "https://dc.lft.to/lastmile_qr_scan", "ios": "https://dc.lft.to/lastmile_qr_scan"}, "bike_id": "e25b5de5441f33c65b5f6e7a4a3b563c", "lon": -77.0329295}, {"is_reserved": 0, "fusion_lon": 0.0, "fusion_lat": 0.0, "name": "b7a276f25856081dd8ee61974d8fb44d", "type": "electric_bike", "is_disabled": 0, "lat": 38.962292166666664, "rental_uris": {"android": "https://dc.lft.to/lastmile_qr_scan", "ios": "https://dc.lft.to/lastmile_qr_scan"}, "bike_id": "b7a276f25856081dd8ee61974d8fb44d", "lon": -77.02631366666667}, {"is_reserved": 0, "fusion_lon": 0.0, "fusion_lat": 0.0, "name": "215b956864b428df004f92084ac23a7f", "type": "electric_scooter", "is_disabled": 0, "lat": 38.905392, "rental_uris": {"android": "https://dc.lft.to/lastmile_qr_scan", "ios": "https://dc.lft.to/lastmile_qr_scan"}, "bike_id": "215b956864b428df004f92084ac23a7f", "lon": -77.050788}, {"is_reserved": 0, "fusion_lon": 0.0, "fusion_lat": 0.0, "name": "c40cb7a9a5ffae807d75e7f8b6e3dbfe", "type": "electric_scooter", "is_disabled": 0, "lat": 38.939789166666664, "rental_uris": {"android": "https://dc.lft.to/lastmile_qr_scan", "ios": "https://dc.lft.to/lastmile_qr_scan"}, "bike_id": "c40cb7a9a5ffae807d75e7f8b6e3dbfe", "lon": -77.0314845}, {"is_reserved": 0, "fusion_lon": 0.0, "fusion_lat": 0.0, "name": "f1a40f24501e427d9f50dc968b655eea", "type": "electric_scooter", "is_disabled": 0, "lat": 38.92749233333333, "rental_uris": {"android": "https://dc.lft.to/lastmile_qr_scan", "ios": "https://dc.lft.to/lastmile_qr_scan"}, "bike_id": "f1a40f24501e427d9f50dc968b655eea", "lon": -77.029633}, {"is_reserved": 0, "fusion_lon": 0.0, "fusion_lat": 0.0, "name": "9f75af6e2990d5f9e4bc2f10c4e4e9a2", "type": "electric_scooter", "is_disabled": 0, "lat": 38.876536333333334, "rental_uris": {"android": "https://dc.lft.to/lastmile_qr_scan", "ios": "https://dc.lft.to/lastmile_qr_scan"}, "bike_id": "9f75af6e2990d5f9e4bc2f10c4e4e9a2", "lon": -77.015785}, {"is_reserved": 0, "fusion_lon": 0.0, "fusion_lat": 0.0, "name": "41552ddba002573804c1956141751826", "type": "electric_scooter", "is_disabled": 0, "lat": 38.89221466666667, "rental_uris": {"android": "https://dc.lft.to/lastmile_qr_scan", "ios": "https://dc.lft.to/lastmile_qr_scan"}, "bike_id": "41552ddba002573804c1956141751826", "lon": -76.99259633333334}, {"is_reserved": 0, "fusion_lon": 0.0, "fusion_lat": 0.0, "name": "3193afd2005e7989b9cef559bfca6cf7", "type": "electric_scooter", "is_disabled": 0, "lat": 38.904868666666665, "rental_uris": {"android": "https://dc.lft.to/lastmile_qr_scan", "ios": "https://dc.lft.to/lastmile_qr_scan"}, "bike_id": "3193afd2005e7989b9cef559bfca6cf7", "lon": -76.9822855}, {"is_reserved": 0, "fusion_lon": 0.0, "fusion_lat": 0.0, "name": "ec7db5682a3c56cb0d169f2ddd2c72b4", "type": "electric_scooter", "is_disabled": 0, "lat": 38.92876016666666, "rental_uris": {"android": "https://dc.lft.to/lastmile_qr_scan", "ios": "https://dc.lft.to/lastmile_qr_scan"}, "bike_id": "ec7db5682a3c56cb0d169f2ddd2c72b4", "lon": -77.03327133333333}, {"is_reserved": 0, "fusion_lon": 0.0, "fusion_lat": 0.0, "name": "9fbcbed307f28533883578b6f2c22185", "type": "electric_scooter", "is_disabled": 0, "lat": 38.91925416666667, "rental_uris": {"android": "https://dc.lft.to/lastmile_qr_scan", "ios": "https://dc.lft.to/lastmile_qr_scan"}, "bike_id": "9fbcbed307f28533883578b6f2c22185", "lon": -77.0789905}, {"is_reserved": 0, "fusion_lon": 0.0, "fusion_lat": 0.0, "name": "dae4ead7c894beaf65078b02e6288294", "type": "electric_scooter", "is_disabled": 0, "lat": 38.9222735, "rental_uris": {"android": "https://dc.lft.to/lastmile_qr_scan", "ios": "https://dc.lft.to/lastmile_qr_scan"}, "bike_id": "dae4ead7c894beaf65078b02e6288294", "lon": -77.0449305}, {"is_reserved": 0, "fusion_lon": 0.0, "fusion_lat": 0.0, "name": "a4be7ab8200459cb3b9dc3d15f3f9265", "type": "electric_bike", "is_disabled": 0, "lat": 38.874263, "rental_uris": {"android": "https://dc.lft.to/lastmile_qr_scan", "ios": "https://dc.lft.to/lastmile_qr_scan"}, "bike_id": "a4be7ab8200459cb3b9dc3d15f3f9265", "lon": -77.10830333333334}, {"is_reserved": 0, "fusion_lon": 0.0, "fusion_lat": 0.0, "name": "918b0841535537253822747436721f71", "type": "electric_scooter", "is_disabled": 0, "lat": 38.91791283333333, "rental_uris": {"android": "https://dc.lft.to/lastmile_qr_scan", "ios": "https://dc.lft.to/lastmile_qr_scan"}, "bike_id": "918b0841535537253822747436721f71", "lon": -77.03456966666667}, {"is_reserved": 0, "fusion_lon": 0.0, "fusion_lat": 0.0, "name": "f5769dd667d6d2ef12f82df037e6fe68", "type": "electric_scooter", "is_disabled": 0, "lat": 38.90043283333333, "rental_uris": {"android": "https://dc.lft.to/lastmile_qr_scan", "ios": "https://dc.lft.to/lastmile_qr_scan"}, "bike_id": "f5769dd667d6d2ef12f82df037e6fe68", "lon": -77.03315333333333}, {"is_reserved": 0, "fusion_lon": 0.0, "fusion_lat": 0.0, "name": "cb29168b23f0f65145d00ede8aef7e9c", "type": "electric_scooter", "is_disabled": 0, "lat": 38.8836425, "rental_uris": {"android": "https://dc.lft.to/lastmile_qr_scan", "ios": "https://dc.lft.to/lastmile_qr_scan"}, "bike_id": "cb29168b23f0f65145d00ede8aef7e9c", "lon": -76.94156183333334}, {"is_reserved": 0, "fusion_lon": 0.0, "fusion_lat": 0.0, "name": "a7cff65210d12a8d5d3e939c815847c4", "type": "electric_bike", "is_disabled": 0, "lat": 38.91130233333333, "rental_uris": {"android": "https://dc.lft.to/lastmile_qr_scan", "ios": "https://dc.lft.to/lastmile_qr_scan"}, "bike_id": "a7cff65210d12a8d5d3e939c815847c4", "lon": -77.08613616666666}, {"is_reserved": 0, "fusion_lon": 0.0, "fusion_lat": 0.0, "name": "108882984995ac13324fc573d6b75a41", "type": "electric_scooter", "is_disabled": 0, "lat": 38.91264416666667, "rental_uris": {"android": "https://dc.lft.to/lastmile_qr_scan", "ios": "https://dc.lft.to/lastmile_qr_scan"}, "bike_id": "108882984995ac13324fc573d6b75a41", "lon": -77.022495}, {"is_reserved": 0, "fusion_lon": 0.0, "fusion_lat": 0.0, "name": "dca82e93225dbc58d2162a50662f6b39", "type": "electric_scooter", "is_disabled": 0, "lat": 38.93817516666667, "rental_uris": {"android": "https://dc.lft.to/lastmile_qr_scan", "ios": "https://dc.lft.to/lastmile_qr_scan"}, "bike_id": "dca82e93225dbc58d2162a50662f6b39", "lon": -77.03377783333333}, {"is_reserved": 0, "fusion_lon": 0.0, "fusion_lat": 0.0, "name": "8aae00b23839509afa178dbf778526f7", "type": "electric_scooter", "is_disabled": 0, "lat": 38.91119366666667, "rental_uris": {"android": "https://dc.lft.to/lastmile_qr_scan", "ios": "https://dc.lft.to/lastmile_qr_scan"}, "bike_id": "8aae00b23839509afa178dbf778526f7", "lon": -77.02280283333333}, {"is_reserved": 0, "fusion_lon": 0.0, "fusion_lat": 0.0, "name": "2001624cf6d91ce4777eec2dd1c24bd3", "type": "electric_scooter", "is_disabled": 0, "lat": 38.920912666666666, "rental_uris": {"android": "https://dc.lft.to/lastmile_qr_scan", "ios": "https://dc.lft.to/lastmile_qr_scan"}, "bike_id": "2001624cf6d91ce4777eec2dd1c24bd3", "lon": -77.0240615}, {"is_reserved": 0, "fusion_lon": 0.0, "fusion_lat": 0.0, "name": "64b7b95d67de1d12cf7fef11ce92750e", "type": "electric_scooter", "is_disabled": 0, "lat": 38.893721666666664, "rental_uris": {"android": "https://dc.lft.to/lastmile_qr_scan", "ios": "https://dc.lft.to/lastmile_qr_scan"}, "bike_id": "64b7b95d67de1d12cf7fef11ce92750e", "lon": -77.04783466666666}, {"is_reserved": 0, "fusion_lon": 0.0, "fusion_lat": 0.0, "name": "4b2c8a24ec566adba341aa775d3c5195", "type": "electric_scooter", "is_disabled": 0, "lat": 38.892205833333335, "rental_uris": {"android": "https://dc.lft.to/lastmile_qr_scan", "ios": "https://dc.lft.to/lastmile_qr_scan"}, "bike_id": "4b2c8a24ec566adba341aa775d3c5195", "lon": -77.02348233333333}, {"is_reserved": 0, "fusion_lon": 0.0, "fusion_lat": 0.0, "name": "8e7d95718bc15c415ab7e9988b48a0e1", "type": "electric_scooter", "is_disabled": 0, "lat": 38.90366133333333, "rental_uris": {"android": "https://dc.lft.to/lastmile_qr_scan", "ios": "https://dc.lft.to/lastmile_qr_scan"}, "bike_id": "8e7d95718bc15c415ab7e9988b48a0e1", "lon": -77.04346033333333}, {"is_reserved": 0, "fusion_lon": 0.0, "fusion_lat": 0.0, "name": "ec5407e3fb791b86040e08d7e17e0270", "type": "electric_scooter", "is_disabled": 0, "lat": 38.92232416666667, "rental_uris": {"android": "https://dc.lft.to/lastmile_qr_scan", "ios": "https://dc.lft.to/lastmile_qr_scan"}, "bike_id": "ec5407e3fb791b86040e08d7e17e0270", "lon": -77.0449205}, {"is_reserved": 0, "fusion_lon": 0.0, "fusion_lat": 0.0, "name": "3bbfd981199ed84ba75a0671b1a127bd", "type": "electric_scooter", "is_disabled": 0, "lat": 38.931159666666666, "rental_uris": {"android": "https://dc.lft.to/lastmile_qr_scan", "ios": "https://dc.lft.to/lastmile_qr_scan"}, "bike_id": "3bbfd981199ed84ba75a0671b1a127bd", "lon": -77.02362466666666}, {"is_reserved": 0, "fusion_lon": 0.0, "fusion_lat": 0.0, "name": "ee4df2219e20aac34df322e6b26d316a", "type": "electric_scooter", "is_disabled": 0, "lat": 38.9051365, "rental_uris": {"android": "https://dc.lft.to/lastmile_qr_scan", "ios": "https://dc.lft.to/lastmile_qr_scan"}, "bike_id": "ee4df2219e20aac34df322e6b26d316a", "lon": -77.02949183333334}, {"is_reserved": 0, "fusion_lon": 0.0, "fusion_lat": 0.0, "name": "3d2f13c9bd32252eb2d7140776cb8e48", "type": "electric_scooter", "is_disabled": 0, "lat": 38.92031733333334, "rental_uris": {"android": "https://dc.lft.to/lastmile_qr_scan", "ios": "https://dc.lft.to/lastmile_qr_scan"}, "bike_id": "3d2f13c9bd32252eb2d7140776cb8e48", "lon": -76.98487183333333}, {"is_reserved": 0, "fusion_lon": 0.0, "fusion_lat": 0.0, "name": "afc5f77a0dce58520a25ca13732747d1", "type": "electric_scooter", "is_disabled": 0, "lat": 38.892226666666666, "rental_uris": {"android": "https://dc.lft.to/lastmile_qr_scan", "ios": "https://dc.lft.to/lastmile_qr_scan"}, "bike_id": "afc5f77a0dce58520a25ca13732747d1", "lon": -77.04859983333333}, {"is_reserved": 0, "fusion_lon": 0.0, "fusion_lat": 0.0, "name": "9899e3477ec37444427285c110204a31", "type": "electric_scooter", "is_disabled": 0, "lat": 38.883028833333334, "rental_uris": {"android": "https://dc.lft.to/lastmile_qr_scan", "ios": "https://dc.lft.to/lastmile_qr_scan"}, "bike_id": "9899e3477ec37444427285c110204a31", "lon": -77.03144366666666}, {"is_reserved": 0, "fusion_lon": 0.0, "fusion_lat": 0.0, "name": "86f64b7793c315d646d5adcf8427c2ff", "type": "electric_scooter", "is_disabled": 0, "lat": 38.923223, "rental_uris": {"android": "https://dc.lft.to/lastmile_qr_scan", "ios": "https://dc.lft.to/lastmile_qr_scan"}, "bike_id": "86f64b7793c315d646d5adcf8427c2ff", "lon": -77.035476}, {"is_reserved": 0, "fusion_lon": 0.0, "fusion_lat": 0.0, "name": "6572f9121b9022940992b9f853fb12c8", "type": "electric_scooter", "is_disabled": 0, "lat": 38.924420166666664, "rental_uris": {"android": "https://dc.lft.to/lastmile_qr_scan", "ios": "https://dc.lft.to/lastmile_qr_scan"}, "bike_id": "6572f9121b9022940992b9f853fb12c8", "lon": -77.05757233333334}, {"is_reserved": 0, "fusion_lon": 0.0, "fusion_lat": 0.0, "name": "9d055e953f1b6257f0d17ea0df6a2f2d", "type": "electric_scooter", "is_disabled": 0, "lat": 38.91062683333333, "rental_uris": {"android": "https://dc.lft.to/lastmile_qr_scan", "ios": "https://dc.lft.to/lastmile_qr_scan"}, "bike_id": "9d055e953f1b6257f0d17ea0df6a2f2d", "lon": -77.04105816666667}, {"is_reserved": 0, "fusion_lon": 0.0, "fusion_lat": 0.0, "name": "e9782a37d8b56b7f2ae35e8c0268872a", "type": "electric_scooter", "is_disabled": 0, "lat": 38.925830166666664, "rental_uris": {"android": "https://dc.lft.to/lastmile_qr_scan", "ios": "https://dc.lft.to/lastmile_qr_scan"}, "bike_id": "e9782a37d8b56b7f2ae35e8c0268872a", "lon": -77.026857}, {"is_reserved": 0, "fusion_lon": 0.0, "fusion_lat": 0.0, "name": "84b3e335f1cdaeade18f75ef7fe68b85", "type": "electric_scooter", "is_disabled": 0, "lat": 38.93052383333333, "rental_uris": {"android": "https://dc.lft.to/lastmile_qr_scan", "ios": "https://dc.lft.to/lastmile_qr_scan"}, "bike_id": "84b3e335f1cdaeade18f75ef7fe68b85", "lon": -77.03786766666667}, {"is_reserved": 0, "fusion_lon": 0.0, "fusion_lat": 0.0, "name": "cf51b6d51787975ebb326f78d17efa53", "type": "electric_scooter", "is_disabled": 0, "lat": 38.897319833333334, "rental_uris": {"android": "https://dc.lft.to/lastmile_qr_scan", "ios": "https://dc.lft.to/lastmile_qr_scan"}, "bike_id": "cf51b6d51787975ebb326f78d17efa53", "lon": -77.05471766666666}, {"is_reserved": 0, "fusion_lon": 0.0, "fusion_lat": 0.0, "name": "8c32a83156b622e77dfd307cbb05e671", "type": "electric_scooter", "is_disabled": 0, "lat": 38.92200616666667, "rental_uris": {"android": "https://dc.lft.to/lastmile_qr_scan", "ios": "https://dc.lft.to/lastmile_qr_scan"}, "bike_id": "8c32a83156b622e77dfd307cbb05e671", "lon": -77.04231033333333}, {"is_reserved": 0, "fusion_lon": 0.0, "fusion_lat": 0.0, "name": "559ac99136e16882401819b3e99093e3", "type": "electric_scooter", "is_disabled": 0, "lat": 38.95323716666667, "rental_uris": {"android": "https://dc.lft.to/lastmile_qr_scan", "ios": "https://dc.lft.to/lastmile_qr_scan"}, "bike_id": "559ac99136e16882401819b3e99093e3", "lon": -77.07069583333333}, {"is_reserved": 0, "fusion_lon": 0.0, "fusion_lat": 0.0, "name": "b1acd9e208b6683f9e58947ab08ec19b", "type": "electric_bike", "is_disabled": 0, "lat": 39.057913666666664, "rental_uris": {"android": "https://dc.lft.to/lastmile_qr_scan", "ios": "https://dc.lft.to/lastmile_qr_scan"}, "bike_id": "b1acd9e208b6683f9e58947ab08ec19b", "lon": -77.1502435}, {"is_reserved": 0, "fusion_lon": 0.0, "fusion_lat": 0.0, "name": "b947725311a793016b5c3a2c80311864", "type": "electric_scooter", "is_disabled": 0, "lat": 38.895188833333336, "rental_uris": {"android": "https://dc.lft.to/lastmile_qr_scan", "ios": "https://dc.lft.to/lastmile_qr_scan"}, "bike_id": "b947725311a793016b5c3a2c80311864", "lon": -77.03960433333333}, {"is_reserved": 0, "fusion_lon": 0.0, "fusion_lat": 0.0, "name": "b79fb68e70f48deea8bcaad421f8821d", "type": "electric_scooter", "is_disabled": 0, "lat": 38.90354683333333, "rental_uris": {"android": "https://dc.lft.to/lastmile_qr_scan", "ios": "https://dc.lft.to/lastmile_qr_scan"}, "bike_id": "b79fb68e70f48deea8bcaad421f8821d", "lon": -77.053418}, {"is_reserved": 0, "fusion_lon": 0.0, "fusion_lat": 0.0, "name": "57814578ba6f0075b4ed4ec3ba4fb45d", "type": "electric_scooter", "is_disabled": 0, "lat": 38.90027116666667, "rental_uris": {"android": "https://dc.lft.to/lastmile_qr_scan", "ios": "https://dc.lft.to/lastmile_qr_scan"}, "bike_id": "57814578ba6f0075b4ed4ec3ba4fb45d", "lon": -77.011933}, {"is_reserved": 0, "fusion_lon": 0.0, "fusion_lat": 0.0, "name": "7dfd1f4660f0c55712e05f5cbbc42830", "type": "electric_scooter", "is_disabled": 0, "lat": 38.90721216666667, "rental_uris": {"android": "https://dc.lft.to/lastmile_qr_scan", "ios": "https://dc.lft.to/lastmile_qr_scan"}, "bike_id": "7dfd1f4660f0c55712e05f5cbbc42830", "lon": -77.01749066666666}, {"is_reserved": 0, "fusion_lon": 0.0, "fusion_lat": 0.0, "name": "8514f9df588beaf818916ed0f5ad3cc3", "type": "electric_bike", "is_disabled": 0, "lat": 38.89811233333333, "rental_uris": {"android": "https://dc.lft.to/lastmile_qr_scan", "ios": "https://dc.lft.to/lastmile_qr_scan"}, "bike_id": "8514f9df588beaf818916ed0f5ad3cc3", "lon": -77.00602066666667}, {"is_reserved": 0, "fusion_lon": 0.0, "fusion_lat": 0.0, "name": "b64fcc461fd204e06b94a3a76b9c92f9", "type": "electric_scooter", "is_disabled": 0, "lat": 38.89222733333333, "rental_uris": {"android": "https://dc.lft.to/lastmile_qr_scan", "ios": "https://dc.lft.to/lastmile_qr_scan"}, "bike_id": "b64fcc461fd204e06b94a3a76b9c92f9", "lon": -77.04504633333333}, {"is_reserved": 0, "fusion_lon": 0.0, "fusion_lat": 0.0, "name": "6ed1a6d188798c93d1c3232e2b2b9993", "type": "electric_scooter", "is_disabled": 0, "lat": 38.922753, "rental_uris": {"android": "https://dc.lft.to/lastmile_qr_scan", "ios": "https://dc.lft.to/lastmile_qr_scan"}, "bike_id": "6ed1a6d188798c93d1c3232e2b2b9993", "lon": -77.03220283333333}, {"is_reserved": 0, "fusion_lon": 0.0, "fusion_lat": 0.0, "name": "3c34323ea8d9d59491a58149405f2c83", "type": "electric_scooter", "is_disabled": 0, "lat": 38.878873, "rental_uris": {"android": "https://dc.lft.to/lastmile_qr_scan", "ios": "https://dc.lft.to/lastmile_qr_scan"}, "bike_id": "3c34323ea8d9d59491a58149405f2c83", "lon": -77.0231725}, {"is_reserved": 0, "fusion_lon": 0.0, "fusion_lat": 0.0, "name": "1d6c66402a329b0c401231ada3dab8ac", "type": "electric_scooter", "is_disabled": 0, "lat": 38.9523195, "rental_uris": {"android": "https://dc.lft.to/lastmile_qr_scan", "ios": "https://dc.lft.to/lastmile_qr_scan"}, "bike_id": "1d6c66402a329b0c401231ada3dab8ac", "lon": -77.01427716666667}, {"is_reserved": 0, "fusion_lon": 0.0, "fusion_lat": 0.0, "name": "545e5fb5ac312bd347d61ad89a7adb98", "type": "electric_scooter", "is_disabled": 0, "lat": 38.90735466666667, "rental_uris": {"android": "https://dc.lft.to/lastmile_qr_scan", "ios": "https://dc.lft.to/lastmile_qr_scan"}, "bike_id": "545e5fb5ac312bd347d61ad89a7adb98", "lon": -77.03838666666667}, {"is_reserved": 0, "fusion_lon": 0.0, "fusion_lat": 0.0, "name": "73d41ba78225fc7c236a737899bc7748", "type": "electric_scooter", "is_disabled": 0, "lat": 38.887181166666664, "rental_uris": {"android": "https://dc.lft.to/lastmile_qr_scan", "ios": "https://dc.lft.to/lastmile_qr_scan"}, "bike_id": "73d41ba78225fc7c236a737899bc7748", "lon": -77.02173483333333}, {"is_reserved": 0, "fusion_lon": 0.0, "fusion_lat": 0.0, "name": "97bf20fabe42907fc4a8125fd2c5eacc", "type": "electric_scooter", "is_disabled": 0, "lat": 38.9193125, "rental_uris": {"android": "https://dc.lft.to/lastmile_qr_scan", "ios": "https://dc.lft.to/lastmile_qr_scan"}, "bike_id": "97bf20fabe42907fc4a8125fd2c5eacc", "lon": -77.07073833333334}, {"is_reserved": 0, "fusion_lon": 0.0, "fusion_lat": 0.0, "name": "1bf7e1a89e29a93f0c7ab52ca11a3c06", "type": "electric_scooter", "is_disabled": 0, "lat": 38.89490983333334, "rental_uris": {"android": "https://dc.lft.to/lastmile_qr_scan", "ios": "https://dc.lft.to/lastmile_qr_scan"}, "bike_id": "1bf7e1a89e29a93f0c7ab52ca11a3c06", "lon": -77.00215016666667}, {"is_reserved": 0, "fusion_lon": 0.0, "fusion_lat": 0.0, "name": "7c663c99689aaa8c5c05d444dff8022b", "type": "electric_scooter", "is_disabled": 0, "lat": 38.908662666666665, "rental_uris": {"android": "https://dc.lft.to/lastmile_qr_scan", "ios": "https://dc.lft.to/lastmile_qr_scan"}, "bike_id": "7c663c99689aaa8c5c05d444dff8022b", "lon": -77.00074583333334}, {"is_reserved": 0, "fusion_lon": 0.0, "fusion_lat": 0.0, "name": "29ac8dde64dc9f8f5e5f514ab3de792a", "type": "electric_scooter", "is_disabled": 0, "lat": 38.9248585, "rental_uris": {"android": "https://dc.lft.to/lastmile_qr_scan", "ios": "https://dc.lft.to/lastmile_qr_scan"}, "bike_id": "29ac8dde64dc9f8f5e5f514ab3de792a", "lon": -77.034975}, {"is_reserved": 0, "fusion_lon": 0.0, "fusion_lat": 0.0, "name": "948128954d5b9aeb56fcc68279e8a4e9", "type": "electric_scooter", "is_disabled": 0, "lat": 38.930247333333334, "rental_uris": {"android": "https://dc.lft.to/lastmile_qr_scan", "ios": "https://dc.lft.to/lastmile_qr_scan"}, "bike_id": "948128954d5b9aeb56fcc68279e8a4e9", "lon": -77.0129655}, {"is_reserved": 0, "fusion_lon": 0.0, "fusion_lat": 0.0, "name": "0812491dc3cd749a75dc2fad8e6fe560", "type": "electric_scooter", "is_disabled": 0, "lat": 38.91812, "rental_uris": {"android": "https://dc.lft.to/lastmile_qr_scan", "ios": "https://dc.lft.to/lastmile_qr_scan"}, "bike_id": "0812491dc3cd749a75dc2fad8e6fe560", "lon": -77.03568133333333}, {"is_reserved": 0, "fusion_lon": 0.0, "fusion_lat": 0.0, "name": "aa73e08a195d16b7f291087aace26201", "type": "electric_scooter", "is_disabled": 0, "lat": 38.934543166666664, "rental_uris": {"android": "https://dc.lft.to/lastmile_qr_scan", "ios": "https://dc.lft.to/lastmile_qr_scan"}, "bike_id": "aa73e08a195d16b7f291087aace26201", "lon": -77.03755033333333}, {"is_reserved": 0, "fusion_lon": 0.0, "fusion_lat": 0.0, "name": "e7f713c10515ce3212ad2b94992fb7cb", "type": "electric_bike", "is_disabled": 0, "lat": 38.8811835, "rental_uris": {"android": "https://dc.lft.to/lastmile_qr_scan", "ios": "https://dc.lft.to/lastmile_qr_scan"}, "bike_id": "e7f713c10515ce3212ad2b94992fb7cb", "lon": -77.01657066666667}, {"is_reserved": 0, "fusion_lon": 0.0, "fusion_lat": 0.0, "name": "b84a794d97ec86b065008e15a0a24032", "type": "electric_scooter", "is_disabled": 0, "lat": 38.90027766666667, "rental_uris": {"android": "https://dc.lft.to/lastmile_qr_scan", "ios": "https://dc.lft.to/lastmile_qr_scan"}, "bike_id": "b84a794d97ec86b065008e15a0a24032", "lon": -76.98854833333333}, {"is_reserved": 0, "fusion_lon": 0.0, "fusion_lat": 0.0, "name": "d5ea24e8e22add6c38d3b6df9983e690", "type": "electric_scooter", "is_disabled": 0, "lat": 38.90737766666667, "rental_uris": {"android": "https://dc.lft.to/lastmile_qr_scan", "ios": "https://dc.lft.to/lastmile_qr_scan"}, "bike_id": "d5ea24e8e22add6c38d3b6df9983e690", "lon": -77.04147316666666}, {"is_reserved": 0, "fusion_lon": 0.0, "fusion_lat": 0.0, "name": "cc71b0bacbf1aa31c012dbdb84ab355b", "type": "electric_scooter", "is_disabled": 0, "lat": 38.936229833333336, "rental_uris": {"android": "https://dc.lft.to/lastmile_qr_scan", "ios": "https://dc.lft.to/lastmile_qr_scan"}, "bike_id": "cc71b0bacbf1aa31c012dbdb84ab355b", "lon": -77.05901133333333}, {"is_reserved": 0, "fusion_lon": 0.0, "fusion_lat": 0.0, "name": "e4348fb67a4e076a2aa357c8b51b425a", "type": "electric_scooter", "is_disabled": 0, "lat": 38.92825216666667, "rental_uris": {"android": "https://dc.lft.to/lastmile_qr_scan", "ios": "https://dc.lft.to/lastmile_qr_scan"}, "bike_id": "e4348fb67a4e076a2aa357c8b51b425a", "lon": -77.02255433333333}, {"is_reserved": 0, "fusion_lon": 0.0, "fusion_lat": 0.0, "name": "26b7f68558b30bd16e44aba5e736d96a", "type": "electric_scooter", "is_disabled": 0, "lat": 38.9043645, "rental_uris": {"android": "https://dc.lft.to/lastmile_qr_scan", "ios": "https://dc.lft.to/lastmile_qr_scan"}, "bike_id": "26b7f68558b30bd16e44aba5e736d96a", "lon": -77.02585783333333}, {"is_reserved": 0, "fusion_lon": 0.0, "fusion_lat": 0.0, "name": "b9127f11dbcc9d7041251869db4a6bbb", "type": "electric_scooter", "is_disabled": 0, "lat": 38.896176, "rental_uris": {"android": "https://dc.lft.to/lastmile_qr_scan", "ios": "https://dc.lft.to/lastmile_qr_scan"}, "bike_id": "b9127f11dbcc9d7041251869db4a6bbb", "lon": -77.03192383333334}, {"is_reserved": 0, "fusion_lon": 0.0, "fusion_lat": 0.0, "name": "d1d332610929a0774c93f01237d3a55d", "type": "electric_scooter", "is_disabled": 0, "lat": 38.90579783333333, "rental_uris": {"android": "https://dc.lft.to/lastmile_qr_scan", "ios": "https://dc.lft.to/lastmile_qr_scan"}, "bike_id": "d1d332610929a0774c93f01237d3a55d", "lon": -77.00720816666667}, {"is_reserved": 0, "fusion_lon": 0.0, "fusion_lat": 0.0, "name": "f87702cf0d8158610b83052a93adc247", "type": "electric_scooter", "is_disabled": 0, "lat": 38.917874166666664, "rental_uris": {"android": "https://dc.lft.to/lastmile_qr_scan", "ios": "https://dc.lft.to/lastmile_qr_scan"}, "bike_id": "f87702cf0d8158610b83052a93adc247", "lon": -77.02588783333333}, {"is_reserved": 0, "fusion_lon": 0.0, "fusion_lat": 0.0, "name": "8792462e84f382da90bcce4c4fee2029", "type": "electric_scooter", "is_disabled": 0, "lat": 38.9027045, "rental_uris": {"android": "https://dc.lft.to/lastmile_qr_scan", "ios": "https://dc.lft.to/lastmile_qr_scan"}, "bike_id": "8792462e84f382da90bcce4c4fee2029", "lon": -77.03143866666667}, {"is_reserved": 0, "fusion_lon": 0.0, "fusion_lat": 0.0, "name": "a0e2998ccaff82e9b6db006b18941c5b", "type": "electric_scooter", "is_disabled": 0, "lat": 38.89015766666667, "rental_uris": {"android": "https://dc.lft.to/lastmile_qr_scan", "ios": "https://dc.lft.to/lastmile_qr_scan"}, "bike_id": "a0e2998ccaff82e9b6db006b18941c5b", "lon": -76.93731183333334}, {"is_reserved": 0, "fusion_lon": 0.0, "fusion_lat": 0.0, "name": "baf645af429843ddd071259f9fbef41c", "type": "electric_scooter", "is_disabled": 0, "lat": 38.908081333333335, "rental_uris": {"android": "https://dc.lft.to/lastmile_qr_scan", "ios": "https://dc.lft.to/lastmile_qr_scan"}, "bike_id": "baf645af429843ddd071259f9fbef41c", "lon": -77.03450183333334}, {"is_reserved": 0, "fusion_lon": 0.0, "fusion_lat": 0.0, "name": "b1a4404a40661de4f9684753b969577b", "type": "electric_scooter", "is_disabled": 0, "lat": 38.92252966666667, "rental_uris": {"android": "https://dc.lft.to/lastmile_qr_scan", "ios": "https://dc.lft.to/lastmile_qr_scan"}, "bike_id": "b1a4404a40661de4f9684753b969577b", "lon": -77.02955516666667}, {"is_reserved": 0, "fusion_lon": 0.0, "fusion_lat": 0.0, "name": "5640b42162a9be24a5b7f2f707264f84", "type": "electric_scooter", "is_disabled": 0, "lat": 38.909036666666665, "rental_uris": {"android": "https://dc.lft.to/lastmile_qr_scan", "ios": "https://dc.lft.to/lastmile_qr_scan"}, "bike_id": "5640b42162a9be24a5b7f2f707264f84", "lon": -77.07262633333333}, {"is_reserved": 0, "fusion_lon": 0.0, "fusion_lat": 0.0, "name": "f1bb0c2dfc82543144aafd141db9ed88", "type": "electric_bike", "is_disabled": 0, "lat": 38.88047816666667, "rental_uris": {"android": "https://dc.lft.to/lastmile_qr_scan", "ios": "https://dc.lft.to/lastmile_qr_scan"}, "bike_id": "f1bb0c2dfc82543144aafd141db9ed88", "lon": -77.01126916666666}, {"is_reserved": 0, "fusion_lon": 0.0, "fusion_lat": 0.0, "name": "58894ffc6fdd53a37610a6d11de407ae", "type": "electric_scooter", "is_disabled": 0, "lat": 38.900167, "rental_uris": {"android": "https://dc.lft.to/lastmile_qr_scan", "ios": "https://dc.lft.to/lastmile_qr_scan"}, "bike_id": "58894ffc6fdd53a37610a6d11de407ae", "lon": -77.04033083333333}, {"is_reserved": 0, "fusion_lon": 0.0, "fusion_lat": 0.0, "name": "0ab451e22dfa8d437f50e1c028028e20", "type": "electric_scooter", "is_disabled": 0, "lat": 38.867365, "rental_uris": {"android": "https://dc.lft.to/lastmile_qr_scan", "ios": "https://dc.lft.to/lastmile_qr_scan"}, "bike_id": "0ab451e22dfa8d437f50e1c028028e20", "lon": -76.98783816666666}, {"is_reserved": 0, "fusion_lon": 0.0, "fusion_lat": 0.0, "name": "2227c84e3e3960bee4a20f49ce3d9a69", "type": "electric_scooter", "is_disabled": 0, "lat": 38.866993666666666, "rental_uris": {"android": "https://dc.lft.to/lastmile_qr_scan", "ios": "https://dc.lft.to/lastmile_qr_scan"}, "bike_id": "2227c84e3e3960bee4a20f49ce3d9a69", "lon": -76.98707283333333}, {"is_reserved": 0, "fusion_lon": 0.0, "fusion_lat": 0.0, "name": "3f1a27525d661309aec423ee9bc68b0d", "type": "electric_scooter", "is_disabled": 0, "lat": 38.932402, "rental_uris": {"android": "https://dc.lft.to/lastmile_qr_scan", "ios": "https://dc.lft.to/lastmile_qr_scan"}, "bike_id": "3f1a27525d661309aec423ee9bc68b0d", "lon": -77.02953366666667}, {"is_reserved": 0, "fusion_lon": 0.0, "fusion_lat": 0.0, "name": "276770fec9a78ed874ba196ed080c350", "type": "electric_scooter", "is_disabled": 0, "lat": 38.89359416666667, "rental_uris": {"android": "https://dc.lft.to/lastmile_qr_scan", "ios": "https://dc.lft.to/lastmile_qr_scan"}, "bike_id": "276770fec9a78ed874ba196ed080c350", "lon": -77.03212616666667}, {"is_reserved": 0, "fusion_lon": 0.0, "fusion_lat": 0.0, "name": "7360786dc76eaa50826a04eee1a4a4c1", "type": "electric_scooter", "is_disabled": 0, "lat": 38.900022166666666, "rental_uris": {"android": "https://dc.lft.to/lastmile_qr_scan", "ios": "https://dc.lft.to/lastmile_qr_scan"}, "bike_id": "7360786dc76eaa50826a04eee1a4a4c1", "lon": -76.996159}, {"is_reserved": 0, "fusion_lon": 0.0, "fusion_lat": 0.0, "name": "4ad7c20f40975b10797abe9a4ecbaf27", "type": "electric_scooter", "is_disabled": 0, "lat": 38.91551583333333, "rental_uris": {"android": "https://dc.lft.to/lastmile_qr_scan", "ios": "https://dc.lft.to/lastmile_qr_scan"}, "bike_id": "4ad7c20f40975b10797abe9a4ecbaf27", "lon": -77.03853416666666}, {"is_reserved": 0, "fusion_lon": 0.0, "fusion_lat": 0.0, "name": "3e369de478acbc633dd21752f9d9bcbf", "type": "electric_scooter", "is_disabled": 0, "lat": 38.92325983333333, "rental_uris": {"android": "https://dc.lft.to/lastmile_qr_scan", "ios": "https://dc.lft.to/lastmile_qr_scan"}, "bike_id": "3e369de478acbc633dd21752f9d9bcbf", "lon": -77.04388933333334}, {"is_reserved": 0, "fusion_lon": 0.0, "fusion_lat": 0.0, "name": "3a41b99316d08f6d2770bcf4c5055cd3", "type": "electric_scooter", "is_disabled": 0, "lat": 38.82378283333333, "rental_uris": {"android": "https://dc.lft.to/lastmile_qr_scan", "ios": "https://dc.lft.to/lastmile_qr_scan"}, "bike_id": "3a41b99316d08f6d2770bcf4c5055cd3", "lon": -77.011881}, {"is_reserved": 0, "fusion_lon": 0.0, "fusion_lat": 0.0, "name": "5352c51bb726d339811b4156550a2a87", "type": "electric_scooter", "is_disabled": 0, "lat": 38.871841833333335, "rental_uris": {"android": "https://dc.lft.to/lastmile_qr_scan", "ios": "https://dc.lft.to/lastmile_qr_scan"}, "bike_id": "5352c51bb726d339811b4156550a2a87", "lon": -77.00597833333333}, {"is_reserved": 0, "fusion_lon": 0.0, "fusion_lat": 0.0, "name": "77290267587d9c5b959bcbeb7c4f21c7", "type": "electric_bike", "is_disabled": 0, "lat": 38.920178, "rental_uris": {"android": "https://dc.lft.to/lastmile_qr_scan", "ios": "https://dc.lft.to/lastmile_qr_scan"}, "bike_id": "77290267587d9c5b959bcbeb7c4f21c7", "lon": -77.01315616666666}, {"is_reserved": 0, "fusion_lon": 0.0, "fusion_lat": 0.0, "name": "af2620b5dcedb47e86e3a7bcea986fdf", "type": "electric_scooter", "is_disabled": 0, "lat": 38.91989866666667, "rental_uris": {"android": "https://dc.lft.to/lastmile_qr_scan", "ios": "https://dc.lft.to/lastmile_qr_scan"}, "bike_id": "af2620b5dcedb47e86e3a7bcea986fdf", "lon": -77.0324905}, {"is_reserved": 0, "fusion_lon": 0.0, "fusion_lat": 0.0, "name": "19084b0cac80292406081ce494e7bfcf", "type": "electric_bike", "is_disabled": 0, "lat": 38.94928733333333, "rental_uris": {"android": "https://dc.lft.to/lastmile_qr_scan", "ios": "https://dc.lft.to/lastmile_qr_scan"}, "bike_id": "19084b0cac80292406081ce494e7bfcf", "lon": -77.00795533333333}, {"is_reserved": 0, "fusion_lon": 0.0, "fusion_lat": 0.0, "name": "977e4278be81391a41a0ced242e5eea9", "type": "electric_scooter", "is_disabled": 0, "lat": 38.91070633333333, "rental_uris": {"android": "https://dc.lft.to/lastmile_qr_scan", "ios": "https://dc.lft.to/lastmile_qr_scan"}, "bike_id": "977e4278be81391a41a0ced242e5eea9", "lon": -77.04235316666667}, {"is_reserved": 0, "fusion_lon": 0.0, "fusion_lat": 0.0, "name": "7ef4b7b33487ee3da434fe86532e5b27", "type": "electric_scooter", "is_disabled": 0, "lat": 38.90647516666667, "rental_uris": {"android": "https://dc.lft.to/lastmile_qr_scan", "ios": "https://dc.lft.to/lastmile_qr_scan"}, "bike_id": "7ef4b7b33487ee3da434fe86532e5b27", "lon": -77.02709233333333}, {"is_reserved": 0, "fusion_lon": 0.0, "fusion_lat": 0.0, "name": "8ce10c5f8fd77d672ba6178e213aa657", "type": "electric_scooter", "is_disabled": 0, "lat": 38.901196, "rental_uris": {"android": "https://dc.lft.to/lastmile_qr_scan", "ios": "https://dc.lft.to/lastmile_qr_scan"}, "bike_id": "8ce10c5f8fd77d672ba6178e213aa657", "lon": -77.0436925}, {"is_reserved": 0, "fusion_lon": 0.0, "fusion_lat": 0.0, "name": "99f39b49371982c31ed7204bc7b62e3f", "type": "electric_scooter", "is_disabled": 0, "lat": 38.90887, "rental_uris": {"android": "https://dc.lft.to/lastmile_qr_scan", "ios": "https://dc.lft.to/lastmile_qr_scan"}, "bike_id": "99f39b49371982c31ed7204bc7b62e3f", "lon": -77.045822}, {"is_reserved": 0, "fusion_lon": 0.0, "fusion_lat": 0.0, "name": "26b1ce768a86285105ad5f5c6358a1e0", "type": "electric_scooter", "is_disabled": 0, "lat": 38.908691, "rental_uris": {"android": "https://dc.lft.to/lastmile_qr_scan", "ios": "https://dc.lft.to/lastmile_qr_scan"}, "bike_id": "26b1ce768a86285105ad5f5c6358a1e0", "lon": -77.04274683333334}, {"is_reserved": 0, "fusion_lon": 0.0, "fusion_lat": 0.0, "name": "214c7dd3d4dc7b1bb37750fb3581ecc3", "type": "electric_scooter", "is_disabled": 0, "lat": 38.911178666666665, "rental_uris": {"android": "https://dc.lft.to/lastmile_qr_scan", "ios": "https://dc.lft.to/lastmile_qr_scan"}, "bike_id": "214c7dd3d4dc7b1bb37750fb3581ecc3", "lon": -77.0432595}, {"is_reserved": 0, "fusion_lon": 0.0, "fusion_lat": 0.0, "name": "f42009e093252195c5edd38466f6e676", "type": "electric_scooter", "is_disabled": 0, "lat": 38.90864216666667, "rental_uris": {"android": "https://dc.lft.to/lastmile_qr_scan", "ios": "https://dc.lft.to/lastmile_qr_scan"}, "bike_id": "f42009e093252195c5edd38466f6e676", "lon": -77.07095016666666}, {"is_reserved": 0, "fusion_lon": 0.0, "fusion_lat": 0.0, "name": "83f801a92c9048a309c204bde479c601", "type": "electric_scooter", "is_disabled": 0, "lat": 38.87683, "rental_uris": {"android": "https://dc.lft.to/lastmile_qr_scan", "ios": "https://dc.lft.to/lastmile_qr_scan"}, "bike_id": "83f801a92c9048a309c204bde479c601", "lon": -77.01787666666667}, {"is_reserved": 0, "fusion_lon": 0.0, "fusion_lat": 0.0, "name": "810921a9616110e2cb1615c57447f2af", "type": "electric_scooter", "is_disabled": 0, "lat": 38.9057035, "rental_uris": {"android": "https://dc.lft.to/lastmile_qr_scan", "ios": "https://dc.lft.to/lastmile_qr_scan"}, "bike_id": "810921a9616110e2cb1615c57447f2af", "lon": -77.0071795}, {"is_reserved": 0, "fusion_lon": 0.0, "fusion_lat": 0.0, "name": "58f37dce1445b77251b554008d990449", "type": "electric_scooter", "is_disabled": 0, "lat": 38.880633, "rental_uris": {"android": "https://dc.lft.to/lastmile_qr_scan", "ios": "https://dc.lft.to/lastmile_qr_scan"}, "bike_id": "58f37dce1445b77251b554008d990449", "lon": -76.93216383333333}, {"is_reserved": 0, "fusion_lon": 0.0, "fusion_lat": 0.0, "name": "39cb97c5318cbee8dd6e89d4bacb2f4b", "type": "electric_scooter", "is_disabled": 0, "lat": 38.907322666666666, "rental_uris": {"android": "https://dc.lft.to/lastmile_qr_scan", "ios": "https://dc.lft.to/lastmile_qr_scan"}, "bike_id": "39cb97c5318cbee8dd6e89d4bacb2f4b", "lon": -77.02965066666667}, {"is_reserved": 0, "fusion_lon": 0.0, "fusion_lat": 0.0, "name": "393516829e5cb8f45bf9718f4c9ab82d", "type": "electric_scooter", "is_disabled": 0, "lat": 38.91029916666667, "rental_uris": {"android": "https://dc.lft.to/lastmile_qr_scan", "ios": "https://dc.lft.to/lastmile_qr_scan"}, "bike_id": "393516829e5cb8f45bf9718f4c9ab82d", "lon": -77.03444016666667}, {"is_reserved": 0, "fusion_lon": 0.0, "fusion_lat": 0.0, "name": "a2addd028871cc484af7c45757f8065b", "type": "electric_scooter", "is_disabled": 0, "lat": 38.91835183333333, "rental_uris": {"android": "https://dc.lft.to/lastmile_qr_scan", "ios": "https://dc.lft.to/lastmile_qr_scan"}, "bike_id": "a2addd028871cc484af7c45757f8065b", "lon": -77.0246525}, {"is_reserved": 0, "fusion_lon": 0.0, "fusion_lat": 0.0, "name": "bfdf709a40a892bd84af9d8cc927e082", "type": "electric_scooter", "is_disabled": 0, "lat": 38.8753675, "rental_uris": {"android": "https://dc.lft.to/lastmile_qr_scan", "ios": "https://dc.lft.to/lastmile_qr_scan"}, "bike_id": "bfdf709a40a892bd84af9d8cc927e082", "lon": -77.0057535}, {"is_reserved": 0, "fusion_lon": 0.0, "fusion_lat": 0.0, "name": "164a8d0ee889fdfdf3c19f0ba6226c82", "type": "electric_scooter", "is_disabled": 0, "lat": 38.917072, "rental_uris": {"android": "https://dc.lft.to/lastmile_qr_scan", "ios": "https://dc.lft.to/lastmile_qr_scan"}, "bike_id": "164a8d0ee889fdfdf3c19f0ba6226c82", "lon": -77.03098933333334}, {"is_reserved": 0, "fusion_lon": 0.0, "fusion_lat": 0.0, "name": "f557f36e9e9f0d4577922eeb0a23b0ce", "type": "electric_bike", "is_disabled": 0, "lat": 38.92603883333334, "rental_uris": {"android": "https://dc.lft.to/lastmile_qr_scan", "ios": "https://dc.lft.to/lastmile_qr_scan"}, "bike_id": "f557f36e9e9f0d4577922eeb0a23b0ce", "lon": -77.024247}, {"is_reserved": 0, "fusion_lon": 0.0, "fusion_lat": 0.0, "name": "d5a77400a602beb0a2fb226d0bdd089d", "type": "electric_bike", "is_disabled": 0, "lat": 38.854403, "rental_uris": {"android": "https://dc.lft.to/lastmile_qr_scan", "ios": "https://dc.lft.to/lastmile_qr_scan"}, "bike_id": "d5a77400a602beb0a2fb226d0bdd089d", "lon": -77.0832475}, {"is_reserved": 0, "fusion_lon": 0.0, "fusion_lat": 0.0, "name": "72f3828942e19254a30b0796e30b1afd", "type": "electric_scooter", "is_disabled": 0, "lat": 38.930560166666666, "rental_uris": {"android": "https://dc.lft.to/lastmile_qr_scan", "ios": "https://dc.lft.to/lastmile_qr_scan"}, "bike_id": "72f3828942e19254a30b0796e30b1afd", "lon": -77.03935616666666}, {"is_reserved": 0, "fusion_lon": 0.0, "fusion_lat": 0.0, "name": "4840889ea3e3c2875b2a02d2595973b5", "type": "electric_scooter", "is_disabled": 0, "lat": 38.887403, "rental_uris": {"android": "https://dc.lft.to/lastmile_qr_scan", "ios": "https://dc.lft.to/lastmile_qr_scan"}, "bike_id": "4840889ea3e3c2875b2a02d2595973b5", "lon": -77.02384916666666}, {"is_reserved": 0, "fusion_lon": 0.0, "fusion_lat": 0.0, "name": "6b6449260b5a01428c1703d33779657a", "type": "electric_scooter", "is_disabled": 0, "lat": 38.876524833333335, "rental_uris": {"android": "https://dc.lft.to/lastmile_qr_scan", "ios": "https://dc.lft.to/lastmile_qr_scan"}, "bike_id": "6b6449260b5a01428c1703d33779657a", "lon": -77.005255}, {"is_reserved": 0, "fusion_lon": 0.0, "fusion_lat": 0.0, "name": "8f42eda25379eb0351e0daa79bcce7ab", "type": "electric_scooter", "is_disabled": 0, "lat": 38.938636333333335, "rental_uris": {"android": "https://dc.lft.to/lastmile_qr_scan", "ios": "https://dc.lft.to/lastmile_qr_scan"}, "bike_id": "8f42eda25379eb0351e0daa79bcce7ab", "lon": -77.02459266666666}, {"is_reserved": 0, "fusion_lon": 0.0, "fusion_lat": 0.0, "name": "ec7850ccc7801ab8d13636c8c982fb75", "type": "electric_scooter", "is_disabled": 0, "lat": 38.918295666666666, "rental_uris": {"android": "https://dc.lft.to/lastmile_qr_scan", "ios": "https://dc.lft.to/lastmile_qr_scan"}, "bike_id": "ec7850ccc7801ab8d13636c8c982fb75", "lon": -77.012088}, {"is_reserved": 0, "fusion_lon": 0.0, "fusion_lat": 0.0, "name": "0eac79b5046dfc6c28996c5497029f47", "type": "electric_scooter", "is_disabled": 0, "lat": 38.90087166666667, "rental_uris": {"android": "https://dc.lft.to/lastmile_qr_scan", "ios": "https://dc.lft.to/lastmile_qr_scan"}, "bike_id": "0eac79b5046dfc6c28996c5497029f47", "lon": -76.93028966666667}, {"is_reserved": 0, "fusion_lon": 0.0, "fusion_lat": 0.0, "name": "e00179f8ae4e00d7ecea168b5a735db3", "type": "electric_scooter", "is_disabled": 0, "lat": 38.94203133333333, "rental_uris": {"android": "https://dc.lft.to/lastmile_qr_scan", "ios": "https://dc.lft.to/lastmile_qr_scan"}, "bike_id": "e00179f8ae4e00d7ecea168b5a735db3", "lon": -77.02502383333334}, {"is_reserved": 0, "fusion_lon": 0.0, "fusion_lat": 0.0, "name": "4f4f28c90463e8092fd32fe009b8c83f", "type": "electric_scooter", "is_disabled": 0, "lat": 38.92506316666667, "rental_uris": {"android": "https://dc.lft.to/lastmile_qr_scan", "ios": "https://dc.lft.to/lastmile_qr_scan"}, "bike_id": "4f4f28c90463e8092fd32fe009b8c83f", "lon": -77.0022685}, {"is_reserved": 0, "fusion_lon": 0.0, "fusion_lat": 0.0, "name": "eb81eeb725140e69d866f48399c23e98", "type": "electric_scooter", "is_disabled": 0, "lat": 38.93342633333334, "rental_uris": {"android": "https://dc.lft.to/lastmile_qr_scan", "ios": "https://dc.lft.to/lastmile_qr_scan"}, "bike_id": "eb81eeb725140e69d866f48399c23e98", "lon": -77.02622333333333}, {"is_reserved": 0, "fusion_lon": 0.0, "fusion_lat": 0.0, "name": "c6ee5cc1444be995832bfcf5896e5bd4", "type": "electric_scooter", "is_disabled": 0, "lat": 38.91130016666666, "rental_uris": {"android": "https://dc.lft.to/lastmile_qr_scan", "ios": "https://dc.lft.to/lastmile_qr_scan"}, "bike_id": "c6ee5cc1444be995832bfcf5896e5bd4", "lon": -77.0441915}, {"is_reserved": 0, "fusion_lon": 0.0, "fusion_lat": 0.0, "name": "b8071ce039456962094e41eaaad6a3c9", "type": "electric_scooter", "is_disabled": 0, "lat": 38.886228, "rental_uris": {"android": "https://dc.lft.to/lastmile_qr_scan", "ios": "https://dc.lft.to/lastmile_qr_scan"}, "bike_id": "b8071ce039456962094e41eaaad6a3c9", "lon": -77.0198155}, {"is_reserved": 0, "fusion_lon": 0.0, "fusion_lat": 0.0, "name": "fbee6a82b6699484bf4ba7badf12a953", "type": "electric_scooter", "is_disabled": 0, "lat": 38.8921105, "rental_uris": {"android": "https://dc.lft.to/lastmile_qr_scan", "ios": "https://dc.lft.to/lastmile_qr_scan"}, "bike_id": "fbee6a82b6699484bf4ba7badf12a953", "lon": -76.95705116666667}, {"is_reserved": 0, "fusion_lon": 0.0, "fusion_lat": 0.0, "name": "18674937054c8ddd0ea149c45ea9f963", "type": "electric_scooter", "is_disabled": 0, "lat": 38.94503983333333, "rental_uris": {"android": "https://dc.lft.to/lastmile_qr_scan", "ios": "https://dc.lft.to/lastmile_qr_scan"}, "bike_id": "18674937054c8ddd0ea149c45ea9f963", "lon": -77.0349875}, {"is_reserved": 0, "fusion_lon": 0.0, "fusion_lat": 0.0, "name": "67e91d08fdd227ccc94acba176b61d7e", "type": "electric_scooter", "is_disabled": 0, "lat": 38.878478333333334, "rental_uris": {"android": "https://dc.lft.to/lastmile_qr_scan", "ios": "https://dc.lft.to/lastmile_qr_scan"}, "bike_id": "67e91d08fdd227ccc94acba176b61d7e", "lon": -77.01963166666667}, {"is_reserved": 0, "fusion_lon": 0.0, "fusion_lat": 0.0, "name": "77d69516611407519f9140c2dd0767f4", "type": "electric_scooter", "is_disabled": 0, "lat": 38.9395195, "rental_uris": {"android": "https://dc.lft.to/lastmile_qr_scan", "ios": "https://dc.lft.to/lastmile_qr_scan"}, "bike_id": "77d69516611407519f9140c2dd0767f4", "lon": -77.03664366666666}, {"is_reserved": 0, "fusion_lon": 0.0, "fusion_lat": 0.0, "name": "01314bbd3cc7cab9217cc5eac8f8a209", "type": "electric_scooter", "is_disabled": 0, "lat": 38.93339016666667, "rental_uris": {"android": "https://dc.lft.to/lastmile_qr_scan", "ios": "https://dc.lft.to/lastmile_qr_scan"}, "bike_id": "01314bbd3cc7cab9217cc5eac8f8a209", "lon": -77.02623616666666}, {"is_reserved": 0, "fusion_lon": 0.0, "fusion_lat": 0.0, "name": "6d4d0f545090ee07591142c03a5bc1d8", "type": "electric_bike", "is_disabled": 0, "lat": 38.911619, "rental_uris": {"android": "https://dc.lft.to/lastmile_qr_scan", "ios": "https://dc.lft.to/lastmile_qr_scan"}, "bike_id": "6d4d0f545090ee07591142c03a5bc1d8", "lon": -77.00289533333333}, {"is_reserved": 0, "fusion_lon": 0.0, "fusion_lat": 0.0, "name": "2ab4e2290b8ca89aef41b6d8dd63cd01", "type": "electric_scooter", "is_disabled": 0, "lat": 38.886032666666665, "rental_uris": {"android": "https://dc.lft.to/lastmile_qr_scan", "ios": "https://dc.lft.to/lastmile_qr_scan"}, "bike_id": "2ab4e2290b8ca89aef41b6d8dd63cd01", "lon": -77.01244316666667}, {"is_reserved": 0, "fusion_lon": 0.0, "fusion_lat": 0.0, "name": "1bcc025180ccbc961a2e573a4ecc71a7", "type": "electric_scooter", "is_disabled": 0, "lat": 38.887704166666666, "rental_uris": {"android": "https://dc.lft.to/lastmile_qr_scan", "ios": "https://dc.lft.to/lastmile_qr_scan"}, "bike_id": "1bcc025180ccbc961a2e573a4ecc71a7", "lon": -76.95530916666667}, {"is_reserved": 0, "fusion_lon": 0.0, "fusion_lat": 0.0, "name": "4cef1002335cbef0a9a899e0a69ee997", "type": "electric_scooter", "is_disabled": 0, "lat": 38.9369845, "rental_uris": {"android": "https://dc.lft.to/lastmile_qr_scan", "ios": "https://dc.lft.to/lastmile_qr_scan"}, "bike_id": "4cef1002335cbef0a9a899e0a69ee997", "lon": -77.02411083333334}, {"is_reserved": 0, "fusion_lon": 0.0, "fusion_lat": 0.0, "name": "6eeb300ad6d91b5e8930c0c1bd37d28e", "type": "electric_scooter", "is_disabled": 0, "lat": 38.84316166666667, "rental_uris": {"android": "https://dc.lft.to/lastmile_qr_scan", "ios": "https://dc.lft.to/lastmile_qr_scan"}, "bike_id": "6eeb300ad6d91b5e8930c0c1bd37d28e", "lon": -76.99938716666666}, {"is_reserved": 0, "fusion_lon": 0.0, "fusion_lat": 0.0, "name": "ef126f3efcb1f18c40afad784625bb74", "type": "electric_bike", "is_disabled": 0, "lat": 39.013693333333336, "rental_uris": {"android": "https://dc.lft.to/lastmile_qr_scan", "ios": "https://dc.lft.to/lastmile_qr_scan"}, "bike_id": "ef126f3efcb1f18c40afad784625bb74", "lon": -76.92132833333334}, {"is_reserved": 0, "fusion_lon": 0.0, "fusion_lat": 0.0, "name": "3105cd93a3a941fa07a098fcd0449f1f", "type": "electric_scooter", "is_disabled": 0, "lat": 38.90003466666667, "rental_uris": {"android": "https://dc.lft.to/lastmile_qr_scan", "ios": "https://dc.lft.to/lastmile_qr_scan"}, "bike_id": "3105cd93a3a941fa07a098fcd0449f1f", "lon": -76.99840533333334}, {"is_reserved": 0, "fusion_lon": 0.0, "fusion_lat": 0.0, "name": "5b0aef98b817a2bdb8b3a7877d21abb7", "type": "electric_scooter", "is_disabled": 0, "lat": 38.892226, "rental_uris": {"android": "https://dc.lft.to/lastmile_qr_scan", "ios": "https://dc.lft.to/lastmile_qr_scan"}, "bike_id": "5b0aef98b817a2bdb8b3a7877d21abb7", "lon": -77.048665}, {"is_reserved": 0, "fusion_lon": 0.0, "fusion_lat": 0.0, "name": "669cf52f777e15e6d2ef9cd444be4949", "type": "electric_scooter", "is_disabled": 0, "lat": 38.90893783333333, "rental_uris": {"android": "https://dc.lft.to/lastmile_qr_scan", "ios": "https://dc.lft.to/lastmile_qr_scan"}, "bike_id": "669cf52f777e15e6d2ef9cd444be4949", "lon": -76.98232683333333}, {"is_reserved": 0, "fusion_lon": 0.0, "fusion_lat": 0.0, "name": "0163cb37e16296de62172c105df48b82", "type": "electric_bike", "is_disabled": 0, "lat": 38.895635166666665, "rental_uris": {"android": "https://dc.lft.to/lastmile_qr_scan", "ios": "https://dc.lft.to/lastmile_qr_scan"}, "bike_id": "0163cb37e16296de62172c105df48b82", "lon": -77.127285}, {"is_reserved": 0, "fusion_lon": 0.0, "fusion_lat": 0.0, "name": "6966a0d4060c09ab3a31a9711416b0f4", "type": "electric_scooter", "is_disabled": 0, "lat": 38.86149016666667, "rental_uris": {"android": "https://dc.lft.to/lastmile_qr_scan", "ios": "https://dc.lft.to/lastmile_qr_scan"}, "bike_id": "6966a0d4060c09ab3a31a9711416b0f4", "lon": -76.98373566666666}, {"is_reserved": 0, "fusion_lon": 0.0, "fusion_lat": 0.0, "name": "4f2bf61dbe79eca18c5184e10255de46", "type": "electric_scooter", "is_disabled": 0, "lat": 38.91712, "rental_uris": {"android": "https://dc.lft.to/lastmile_qr_scan", "ios": "https://dc.lft.to/lastmile_qr_scan"}, "bike_id": "4f2bf61dbe79eca18c5184e10255de46", "lon": -77.03857566666667}, {"is_reserved": 0, "fusion_lon": 0.0, "fusion_lat": 0.0, "name": "631da6585cab47ab71b56325477e2413", "type": "electric_scooter", "is_disabled": 0, "lat": 38.919510333333335, "rental_uris": {"android": "https://dc.lft.to/lastmile_qr_scan", "ios": "https://dc.lft.to/lastmile_qr_scan"}, "bike_id": "631da6585cab47ab71b56325477e2413", "lon": -77.02391616666667}, {"is_reserved": 0, "fusion_lon": 0.0, "fusion_lat": 0.0, "name": "286c07dc72b3e15bbff0140e2570a234", "type": "electric_scooter", "is_disabled": 0, "lat": 38.914249166666664, "rental_uris": {"android": "https://dc.lft.to/lastmile_qr_scan", "ios": "https://dc.lft.to/lastmile_qr_scan"}, "bike_id": "286c07dc72b3e15bbff0140e2570a234", "lon": -77.0215515}, {"is_reserved": 0, "fusion_lon": 0.0, "fusion_lat": 0.0, "name": "8e710ffb5c4f82ba8646afcee0cc03ea", "type": "electric_scooter", "is_disabled": 0, "lat": 38.8922985, "rental_uris": {"android": "https://dc.lft.to/lastmile_qr_scan", "ios": "https://dc.lft.to/lastmile_qr_scan"}, "bike_id": "8e710ffb5c4f82ba8646afcee0cc03ea", "lon": -77.043344}, {"is_reserved": 0, "fusion_lon": 0.0, "fusion_lat": 0.0, "name": "7c070dd0f81b9f75becb0c2c3e7e5092", "type": "electric_scooter", "is_disabled": 0, "lat": 38.91599933333333, "rental_uris": {"android": "https://dc.lft.to/lastmile_qr_scan", "ios": "https://dc.lft.to/lastmile_qr_scan"}, "bike_id": "7c070dd0f81b9f75becb0c2c3e7e5092", "lon": -77.02399283333334}, {"is_reserved": 0, "fusion_lon": 0.0, "fusion_lat": 0.0, "name": "b83868c2b69b526f781d3a3545222bc2", "type": "electric_scooter", "is_disabled": 0, "lat": 38.93536183333333, "rental_uris": {"android": "https://dc.lft.to/lastmile_qr_scan", "ios": "https://dc.lft.to/lastmile_qr_scan"}, "bike_id": "b83868c2b69b526f781d3a3545222bc2", "lon": -77.03470533333333}, {"is_reserved": 0, "fusion_lon": 0.0, "fusion_lat": 0.0, "name": "65e833c39fed779ee1706dd34347bdba", "type": "electric_scooter", "is_disabled": 0, "lat": 38.92770316666667, "rental_uris": {"android": "https://dc.lft.to/lastmile_qr_scan", "ios": "https://dc.lft.to/lastmile_qr_scan"}, "bike_id": "65e833c39fed779ee1706dd34347bdba", "lon": -77.02064616666667}, {"is_reserved": 0, "fusion_lon": 0.0, "fusion_lat": 0.0, "name": "d55942d82f303f3b4e45acc10ba73521", "type": "electric_scooter", "is_disabled": 0, "lat": 38.900778833333334, "rental_uris": {"android": "https://dc.lft.to/lastmile_qr_scan", "ios": "https://dc.lft.to/lastmile_qr_scan"}, "bike_id": "d55942d82f303f3b4e45acc10ba73521", "lon": -77.00208333333333}, {"is_reserved": 0, "fusion_lon": 0.0, "fusion_lat": 0.0, "name": "168d9f9fab79d1d7b070e719298282d3", "type": "electric_bike", "is_disabled": 0, "lat": 38.94755083333333, "rental_uris": {"android": "https://dc.lft.to/lastmile_qr_scan", "ios": "https://dc.lft.to/lastmile_qr_scan"}, "bike_id": "168d9f9fab79d1d7b070e719298282d3", "lon": -77.023674}, {"is_reserved": 0, "fusion_lon": 0.0, "fusion_lat": 0.0, "name": "5448f60df9f0e3d21c6da5d11dfe3d54", "type": "electric_scooter", "is_disabled": 0, "lat": 38.91692716666667, "rental_uris": {"android": "https://dc.lft.to/lastmile_qr_scan", "ios": "https://dc.lft.to/lastmile_qr_scan"}, "bike_id": "5448f60df9f0e3d21c6da5d11dfe3d54", "lon": -77.02295566666666}, {"is_reserved": 0, "fusion_lon": 0.0, "fusion_lat": 0.0, "name": "55909e82279b11dcf37b38c8b1fbdcf0", "type": "electric_scooter", "is_disabled": 0, "lat": 38.907027666666664, "rental_uris": {"android": "https://dc.lft.to/lastmile_qr_scan", "ios": "https://dc.lft.to/lastmile_qr_scan"}, "bike_id": "55909e82279b11dcf37b38c8b1fbdcf0", "lon": -76.9982675}, {"is_reserved": 0, "fusion_lon": 0.0, "fusion_lat": 0.0, "name": "60afeb7fbc13ff511978ab59cb34b38c", "type": "electric_scooter", "is_disabled": 0, "lat": 38.911097, "rental_uris": {"android": "https://dc.lft.to/lastmile_qr_scan", "ios": "https://dc.lft.to/lastmile_qr_scan"}, "bike_id": "60afeb7fbc13ff511978ab59cb34b38c", "lon": -77.02419083333334}, {"is_reserved": 0, "fusion_lon": 0.0, "fusion_lat": 0.0, "name": "0eabf61c26bb1bc4dce89be5ae4330cc", "type": "electric_scooter", "is_disabled": 0, "lat": 38.890176, "rental_uris": {"android": "https://dc.lft.to/lastmile_qr_scan", "ios": "https://dc.lft.to/lastmile_qr_scan"}, "bike_id": "0eabf61c26bb1bc4dce89be5ae4330cc", "lon": -76.937343}, {"is_reserved": 0, "fusion_lon": 0.0, "fusion_lat": 0.0, "name": "6191bf940dd4ab426727c01afd211b47", "type": "electric_scooter", "is_disabled": 0, "lat": 38.931720166666665, "rental_uris": {"android": "https://dc.lft.to/lastmile_qr_scan", "ios": "https://dc.lft.to/lastmile_qr_scan"}, "bike_id": "6191bf940dd4ab426727c01afd211b47", "lon": -77.02814233333334}, {"is_reserved": 0, "fusion_lon": 0.0, "fusion_lat": 0.0, "name": "ccc07ea3c6baa60735893f93461663ae", "type": "electric_scooter", "is_disabled": 0, "lat": 38.91577066666667, "rental_uris": {"android": "https://dc.lft.to/lastmile_qr_scan", "ios": "https://dc.lft.to/lastmile_qr_scan"}, "bike_id": "ccc07ea3c6baa60735893f93461663ae", "lon": -77.0320045}, {"is_reserved": 0, "fusion_lon": 0.0, "fusion_lat": 0.0, "name": "e82e7d7ab97fc197c9f42115b36dd5c1", "type": "electric_scooter", "is_disabled": 0, "lat": 38.900255, "rental_uris": {"android": "https://dc.lft.to/lastmile_qr_scan", "ios": "https://dc.lft.to/lastmile_qr_scan"}, "bike_id": "e82e7d7ab97fc197c9f42115b36dd5c1", "lon": -77.00202416666667}, {"is_reserved": 0, "fusion_lon": 0.0, "fusion_lat": 0.0, "name": "eb8a1a5155eef7b937ea3d7ee9782086", "type": "electric_scooter", "is_disabled": 0, "lat": 38.898513333333334, "rental_uris": {"android": "https://dc.lft.to/lastmile_qr_scan", "ios": "https://dc.lft.to/lastmile_qr_scan"}, "bike_id": "eb8a1a5155eef7b937ea3d7ee9782086", "lon": -77.02882433333333}, {"is_reserved": 0, "fusion_lon": 0.0, "fusion_lat": 0.0, "name": "31ef506a6833fb62ed832cc6b9bdb11c", "type": "electric_scooter", "is_disabled": 0, "lat": 38.902653666666666, "rental_uris": {"android": "https://dc.lft.to/lastmile_qr_scan", "ios": "https://dc.lft.to/lastmile_qr_scan"}, "bike_id": "31ef506a6833fb62ed832cc6b9bdb11c", "lon": -77.06113166666667}, {"is_reserved": 0, "fusion_lon": 0.0, "fusion_lat": 0.0, "name": "cdf98a67399455da20a762c70ee6267c", "type": "electric_scooter", "is_disabled": 0, "lat": 38.938853333333334, "rental_uris": {"android": "https://dc.lft.to/lastmile_qr_scan", "ios": "https://dc.lft.to/lastmile_qr_scan"}, "bike_id": "cdf98a67399455da20a762c70ee6267c", "lon": -77.03305733333333}, {"is_reserved": 0, "fusion_lon": 0.0, "fusion_lat": 0.0, "name": "fa8489f1a88bc3aee633a1ac06261c40", "type": "electric_bike", "is_disabled": 0, "lat": 38.834294, "rental_uris": {"android": "https://dc.lft.to/lastmile_qr_scan", "ios": "https://dc.lft.to/lastmile_qr_scan"}, "bike_id": "fa8489f1a88bc3aee633a1ac06261c40", "lon": -77.10354183333334}, {"is_reserved": 0, "fusion_lon": 0.0, "fusion_lat": 0.0, "name": "72dca9fedd52609679f4a1aca147186a", "type": "electric_scooter", "is_disabled": 0, "lat": 38.94836133333333, "rental_uris": {"android": "https://dc.lft.to/lastmile_qr_scan", "ios": "https://dc.lft.to/lastmile_qr_scan"}, "bike_id": "72dca9fedd52609679f4a1aca147186a", "lon": -77.02545316666667}, {"is_reserved": 0, "fusion_lon": 0.0, "fusion_lat": 0.0, "name": "5c4782e45f88b1150e7b5122224962dd", "type": "electric_scooter", "is_disabled": 0, "lat": 38.913567666666665, "rental_uris": {"android": "https://dc.lft.to/lastmile_qr_scan", "ios": "https://dc.lft.to/lastmile_qr_scan"}, "bike_id": "5c4782e45f88b1150e7b5122224962dd", "lon": -77.02949733333334}, {"is_reserved": 0, "fusion_lon": 0.0, "fusion_lat": 0.0, "name": "e639442c0001174dbe7b53ca9ff869ca", "type": "electric_scooter", "is_disabled": 0, "lat": 38.949579166666666, "rental_uris": {"android": "https://dc.lft.to/lastmile_qr_scan", "ios": "https://dc.lft.to/lastmile_qr_scan"}, "bike_id": "e639442c0001174dbe7b53ca9ff869ca", "lon": -77.02724}, {"is_reserved": 0, "fusion_lon": 0.0, "fusion_lat": 0.0, "name": "ba83f93df0c3e1b006a7ad3d3dd69ea7", "type": "electric_scooter", "is_disabled": 0, "lat": 38.908182833333335, "rental_uris": {"android": "https://dc.lft.to/lastmile_qr_scan", "ios": "https://dc.lft.to/lastmile_qr_scan"}, "bike_id": "ba83f93df0c3e1b006a7ad3d3dd69ea7", "lon": -77.04329366666667}, {"is_reserved": 0, "fusion_lon": 0.0, "fusion_lat": 0.0, "name": "470f836932a399c02053ec08ee2be012", "type": "electric_scooter", "is_disabled": 0, "lat": 38.923705, "rental_uris": {"android": "https://dc.lft.to/lastmile_qr_scan", "ios": "https://dc.lft.to/lastmile_qr_scan"}, "bike_id": "470f836932a399c02053ec08ee2be012", "lon": -77.031272}, {"is_reserved": 0, "fusion_lon": 0.0, "fusion_lat": 0.0, "name": "e807d735ce368c1bfba648844d896e61", "type": "electric_scooter", "is_disabled": 0, "lat": 38.844346, "rental_uris": {"android": "https://dc.lft.to/lastmile_qr_scan", "ios": "https://dc.lft.to/lastmile_qr_scan"}, "bike_id": "e807d735ce368c1bfba648844d896e61", "lon": -76.99809883333333}, {"is_reserved": 0, "fusion_lon": 0.0, "fusion_lat": 0.0, "name": "3b1f3eedb956bae7a9e1e8b7dc37e6e5", "type": "electric_scooter", "is_disabled": 0, "lat": 38.91426416666667, "rental_uris": {"android": "https://dc.lft.to/lastmile_qr_scan", "ios": "https://dc.lft.to/lastmile_qr_scan"}, "bike_id": "3b1f3eedb956bae7a9e1e8b7dc37e6e5", "lon": -77.03203533333334}, {"is_reserved": 0, "fusion_lon": 0.0, "fusion_lat": 0.0, "name": "71c897814f2f094289e42b13af4a2130", "type": "electric_scooter", "is_disabled": 0, "lat": 38.90069783333333, "rental_uris": {"android": "https://dc.lft.to/lastmile_qr_scan", "ios": "https://dc.lft.to/lastmile_qr_scan"}, "bike_id": "71c897814f2f094289e42b13af4a2130", "lon": -77.0474655}, {"is_reserved": 0, "fusion_lon": 0.0, "fusion_lat": 0.0, "name": "e7b87f5d3fc6245c49b2f97308bd0f75", "type": "electric_scooter", "is_disabled": 0, "lat": 38.908776833333334, "rental_uris": {"android": "https://dc.lft.to/lastmile_qr_scan", "ios": "https://dc.lft.to/lastmile_qr_scan"}, "bike_id": "e7b87f5d3fc6245c49b2f97308bd0f75", "lon": -77.07170716666667}, {"is_reserved": 0, "fusion_lon": 0.0, "fusion_lat": 0.0, "name": "850e23a43e8661ece309b229aaad86c5", "type": "electric_bike", "is_disabled": 0, "lat": 38.9138395, "rental_uris": {"android": "https://dc.lft.to/lastmile_qr_scan", "ios": "https://dc.lft.to/lastmile_qr_scan"}, "bike_id": "850e23a43e8661ece309b229aaad86c5", "lon": -77.08918716666666}, {"is_reserved": 0, "fusion_lon": 0.0, "fusion_lat": 0.0, "name": "73f6b122ddefa308b42bcdf6c6b0e724", "type": "electric_scooter", "is_disabled": 0, "lat": 38.95652166666667, "rental_uris": {"android": "https://dc.lft.to/lastmile_qr_scan", "ios": "https://dc.lft.to/lastmile_qr_scan"}, "bike_id": "73f6b122ddefa308b42bcdf6c6b0e724", "lon": -77.01054133333334}, {"is_reserved": 0, "fusion_lon": 0.0, "fusion_lat": 0.0, "name": "0640cc246019881f50133cfafb0e1837", "type": "electric_scooter", "is_disabled": 0, "lat": 38.92151916666667, "rental_uris": {"android": "https://dc.lft.to/lastmile_qr_scan", "ios": "https://dc.lft.to/lastmile_qr_scan"}, "bike_id": "0640cc246019881f50133cfafb0e1837", "lon": -77.035086}, {"is_reserved": 0, "fusion_lon": 0.0, "fusion_lat": 0.0, "name": "39d17dc0e116dfa4ee09716d14ce2c89", "type": "electric_scooter", "is_disabled": 0, "lat": 38.908242, "rental_uris": {"android": "https://dc.lft.to/lastmile_qr_scan", "ios": "https://dc.lft.to/lastmile_qr_scan"}, "bike_id": "39d17dc0e116dfa4ee09716d14ce2c89", "lon": -76.9920275}, {"is_reserved": 0, "fusion_lon": 0.0, "fusion_lat": 0.0, "name": "3dc7861d045e4f4270cdffb625509bca", "type": "electric_scooter", "is_disabled": 0, "lat": 38.92159216666667, "rental_uris": {"android": "https://dc.lft.to/lastmile_qr_scan", "ios": "https://dc.lft.to/lastmile_qr_scan"}, "bike_id": "3dc7861d045e4f4270cdffb625509bca", "lon": -77.03335}, {"is_reserved": 0, "fusion_lon": 0.0, "fusion_lat": 0.0, "name": "19abec66d00d371c5f53994a51359e6a", "type": "electric_scooter", "is_disabled": 0, "lat": 38.917782833333334, "rental_uris": {"android": "https://dc.lft.to/lastmile_qr_scan", "ios": "https://dc.lft.to/lastmile_qr_scan"}, "bike_id": "19abec66d00d371c5f53994a51359e6a", "lon": -77.02311066666667}, {"is_reserved": 0, "fusion_lon": 0.0, "fusion_lat": 0.0, "name": "7c61b242d8bc7e6cd8534a050e964b27", "type": "electric_scooter", "is_disabled": 0, "lat": 38.90793733333334, "rental_uris": {"android": "https://dc.lft.to/lastmile_qr_scan", "ios": "https://dc.lft.to/lastmile_qr_scan"}, "bike_id": "7c61b242d8bc7e6cd8534a050e964b27", "lon": -77.0386275}, {"is_reserved": 0, "fusion_lon": 0.0, "fusion_lat": 0.0, "name": "85767b8108db6f5d809cb86b29e23704", "type": "electric_scooter", "is_disabled": 0, "lat": 38.907334666666664, "rental_uris": {"android": "https://dc.lft.to/lastmile_qr_scan", "ios": "https://dc.lft.to/lastmile_qr_scan"}, "bike_id": "85767b8108db6f5d809cb86b29e23704", "lon": -77.03833266666666}, {"is_reserved": 0, "fusion_lon": 0.0, "fusion_lat": 0.0, "name": "ac4c2801f4cbd4ba06bdf48864e29c9e", "type": "electric_scooter", "is_disabled": 0, "lat": 38.89225583333333, "rental_uris": {"android": "https://dc.lft.to/lastmile_qr_scan", "ios": "https://dc.lft.to/lastmile_qr_scan"}, "bike_id": "ac4c2801f4cbd4ba06bdf48864e29c9e", "lon": -77.0319085}, {"is_reserved": 0, "fusion_lon": 0.0, "fusion_lat": 0.0, "name": "1b9a0d3806cf97ae3b26cd88eac7e81e", "type": "electric_scooter", "is_disabled": 0, "lat": 38.92254166666667, "rental_uris": {"android": "https://dc.lft.to/lastmile_qr_scan", "ios": "https://dc.lft.to/lastmile_qr_scan"}, "bike_id": "1b9a0d3806cf97ae3b26cd88eac7e81e", "lon": -77.03060816666667}, {"is_reserved": 0, "fusion_lon": 0.0, "fusion_lat": 0.0, "name": "2d30c6b1e50557da0af80115d1c74b15", "type": "electric_scooter", "is_disabled": 0, "lat": 38.945138, "rental_uris": {"android": "https://dc.lft.to/lastmile_qr_scan", "ios": "https://dc.lft.to/lastmile_qr_scan"}, "bike_id": "2d30c6b1e50557da0af80115d1c74b15", "lon": -77.03317516666667}, {"is_reserved": 0, "fusion_lon": 0.0, "fusion_lat": 0.0, "name": "2f3d78a2443cd426614aed8666731d46", "type": "electric_scooter", "is_disabled": 0, "lat": 38.908089833333335, "rental_uris": {"android": "https://dc.lft.to/lastmile_qr_scan", "ios": "https://dc.lft.to/lastmile_qr_scan"}, "bike_id": "2f3d78a2443cd426614aed8666731d46", "lon": -77.04329866666667}, {"is_reserved": 0, "fusion_lon": 0.0, "fusion_lat": 0.0, "name": "f818800f573f977f1443263bdfe15401", "type": "electric_scooter", "is_disabled": 0, "lat": 38.928638, "rental_uris": {"android": "https://dc.lft.to/lastmile_qr_scan", "ios": "https://dc.lft.to/lastmile_qr_scan"}, "bike_id": "f818800f573f977f1443263bdfe15401", "lon": -77.03335583333333}, {"is_reserved": 0, "fusion_lon": 0.0, "fusion_lat": 0.0, "name": "b8a598f9be3572840f9e9c2b91c9dc7d", "type": "electric_scooter", "is_disabled": 0, "lat": 38.911243, "rental_uris": {"android": "https://dc.lft.to/lastmile_qr_scan", "ios": "https://dc.lft.to/lastmile_qr_scan"}, "bike_id": "b8a598f9be3572840f9e9c2b91c9dc7d", "lon": -77.03153816666666}, {"is_reserved": 0, "fusion_lon": 0.0, "fusion_lat": 0.0, "name": "372bda8bc3022f91d6c1fa4ff1ac26c7", "type": "electric_bike", "is_disabled": 0, "lat": 38.85893166666666, "rental_uris": {"android": "https://dc.lft.to/lastmile_qr_scan", "ios": "https://dc.lft.to/lastmile_qr_scan"}, "bike_id": "372bda8bc3022f91d6c1fa4ff1ac26c7", "lon": -77.11861966666666}, {"is_reserved": 0, "fusion_lon": 0.0, "fusion_lat": 0.0, "name": "f0848279adefc0510d71f2f559e211f8", "type": "electric_scooter", "is_disabled": 0, "lat": 38.907345666666664, "rental_uris": {"android": "https://dc.lft.to/lastmile_qr_scan", "ios": "https://dc.lft.to/lastmile_qr_scan"}, "bike_id": "f0848279adefc0510d71f2f559e211f8", "lon": -77.038373}, {"is_reserved": 0, "fusion_lon": 0.0, "fusion_lat": 0.0, "name": "36b8bfef3251ebd14aa053d744e43c31", "type": "electric_scooter", "is_disabled": 0, "lat": 38.900194, "rental_uris": {"android": "https://dc.lft.to/lastmile_qr_scan", "ios": "https://dc.lft.to/lastmile_qr_scan"}, "bike_id": "36b8bfef3251ebd14aa053d744e43c31", "lon": -76.9887455}, {"is_reserved": 0, "fusion_lon": 0.0, "fusion_lat": 0.0, "name": "0cb9b052e54523dc07d76cb04f97f4f0", "type": "electric_scooter", "is_disabled": 0, "lat": 38.8735645, "rental_uris": {"android": "https://dc.lft.to/lastmile_qr_scan", "ios": "https://dc.lft.to/lastmile_qr_scan"}, "bike_id": "0cb9b052e54523dc07d76cb04f97f4f0", "lon": -77.005981}, {"is_reserved": 0, "fusion_lon": 0.0, "fusion_lat": 0.0, "name": "4a996895ffbbcaa1100d72327f1e73aa", "type": "electric_scooter", "is_disabled": 0, "lat": 38.902781166666664, "rental_uris": {"android": "https://dc.lft.to/lastmile_qr_scan", "ios": "https://dc.lft.to/lastmile_qr_scan"}, "bike_id": "4a996895ffbbcaa1100d72327f1e73aa", "lon": -77.03354966666667}, {"is_reserved": 0, "fusion_lon": 0.0, "fusion_lat": 0.0, "name": "694bf491ab91801c80e4af81b859353f", "type": "electric_bike", "is_disabled": 0, "lat": 38.87636766666667, "rental_uris": {"android": "https://dc.lft.to/lastmile_qr_scan", "ios": "https://dc.lft.to/lastmile_qr_scan"}, "bike_id": "694bf491ab91801c80e4af81b859353f", "lon": -76.98866116666667}, {"is_reserved": 0, "fusion_lon": 0.0, "fusion_lat": 0.0, "name": "74b7caaa9f710a35ce7f5030d81b68b1", "type": "electric_scooter", "is_disabled": 0, "lat": 38.86416466666667, "rental_uris": {"android": "https://dc.lft.to/lastmile_qr_scan", "ios": "https://dc.lft.to/lastmile_qr_scan"}, "bike_id": "74b7caaa9f710a35ce7f5030d81b68b1", "lon": -77.01222133333333}, {"is_reserved": 0, "fusion_lon": 0.0, "fusion_lat": 0.0, "name": "db99a87fa506369c897d13e469e39b2f", "type": "electric_scooter", "is_disabled": 0, "lat": 38.904376166666665, "rental_uris": {"android": "https://dc.lft.to/lastmile_qr_scan", "ios": "https://dc.lft.to/lastmile_qr_scan"}, "bike_id": "db99a87fa506369c897d13e469e39b2f", "lon": -77.02592466666667}, {"is_reserved": 0, "fusion_lon": 0.0, "fusion_lat": 0.0, "name": "3f23717e74c281a493d8b4b7ee75966a", "type": "electric_scooter", "is_disabled": 0, "lat": 38.88588516666667, "rental_uris": {"android": "https://dc.lft.to/lastmile_qr_scan", "ios": "https://dc.lft.to/lastmile_qr_scan"}, "bike_id": "3f23717e74c281a493d8b4b7ee75966a", "lon": -76.92981033333334}, {"is_reserved": 0, "fusion_lon": 0.0, "fusion_lat": 0.0, "name": "f144341c6520806313d7cf702ebb4d1a", "type": "electric_scooter", "is_disabled": 0, "lat": 38.917445666666666, "rental_uris": {"android": "https://dc.lft.to/lastmile_qr_scan", "ios": "https://dc.lft.to/lastmile_qr_scan"}, "bike_id": "f144341c6520806313d7cf702ebb4d1a", "lon": -77.01084683333333}, {"is_reserved": 0, "fusion_lon": 0.0, "fusion_lat": 0.0, "name": "18eab7ee64480abca827ebee33bb583f", "type": "electric_scooter", "is_disabled": 0, "lat": 38.900687166666664, "rental_uris": {"android": "https://dc.lft.to/lastmile_qr_scan", "ios": "https://dc.lft.to/lastmile_qr_scan"}, "bike_id": "18eab7ee64480abca827ebee33bb583f", "lon": -77.00218883333334}, {"is_reserved": 0, "fusion_lon": 0.0, "fusion_lat": 0.0, "name": "511e6947d155c9f46036cdf1cf5d98d8", "type": "electric_scooter", "is_disabled": 0, "lat": 38.9277885, "rental_uris": {"android": "https://dc.lft.to/lastmile_qr_scan", "ios": "https://dc.lft.to/lastmile_qr_scan"}, "bike_id": "511e6947d155c9f46036cdf1cf5d98d8", "lon": -77.027773}, {"is_reserved": 0, "fusion_lon": 0.0, "fusion_lat": 0.0, "name": "4aeaaea2fe889a3c1b133534c8f77a53", "type": "electric_scooter", "is_disabled": 0, "lat": 38.91576833333333, "rental_uris": {"android": "https://dc.lft.to/lastmile_qr_scan", "ios": "https://dc.lft.to/lastmile_qr_scan"}, "bike_id": "4aeaaea2fe889a3c1b133534c8f77a53", "lon": -77.03192916666667}, {"is_reserved": 0, "fusion_lon": 0.0, "fusion_lat": 0.0, "name": "70b132adc9c57707b7510e7cb3eed5c7", "type": "electric_bike", "is_disabled": 0, "lat": 38.96738116666667, "rental_uris": {"android": "https://dc.lft.to/lastmile_qr_scan", "ios": "https://dc.lft.to/lastmile_qr_scan"}, "bike_id": "70b132adc9c57707b7510e7cb3eed5c7", "lon": -76.96047383333334}, {"is_reserved": 0, "fusion_lon": 0.0, "fusion_lat": 0.0, "name": "55534868799b74590e9fd7649e8f3e73", "type": "electric_scooter", "is_disabled": 0, "lat": 38.91770116666667, "rental_uris": {"android": "https://dc.lft.to/lastmile_qr_scan", "ios": "https://dc.lft.to/lastmile_qr_scan"}, "bike_id": "55534868799b74590e9fd7649e8f3e73", "lon": -77.0364255}, {"is_reserved": 0, "fusion_lon": 0.0, "fusion_lat": 0.0, "name": "2dfdf77fcc1331dbb3bb79a19ddbd951", "type": "electric_scooter", "is_disabled": 0, "lat": 38.92240816666666, "rental_uris": {"android": "https://dc.lft.to/lastmile_qr_scan", "ios": "https://dc.lft.to/lastmile_qr_scan"}, "bike_id": "2dfdf77fcc1331dbb3bb79a19ddbd951", "lon": -77.01819066666667}, {"is_reserved": 0, "fusion_lon": 0.0, "fusion_lat": 0.0, "name": "9a3de39333182012ed9974c1895fa6ab", "type": "electric_scooter", "is_disabled": 0, "lat": 38.9200475, "rental_uris": {"android": "https://dc.lft.to/lastmile_qr_scan", "ios": "https://dc.lft.to/lastmile_qr_scan"}, "bike_id": "9a3de39333182012ed9974c1895fa6ab", "lon": -77.04169683333333}, {"is_reserved": 0, "fusion_lon": 0.0, "fusion_lat": 0.0, "name": "82049572dc9ebe83f79dffcb510cb189", "type": "electric_scooter", "is_disabled": 0, "lat": 38.886111166666666, "rental_uris": {"android": "https://dc.lft.to/lastmile_qr_scan", "ios": "https://dc.lft.to/lastmile_qr_scan"}, "bike_id": "82049572dc9ebe83f79dffcb510cb189", "lon": -76.9951145}, {"is_reserved": 0, "fusion_lon": 0.0, "fusion_lat": 0.0, "name": "bf4dbfaaa0c34bc07b8a0cb7c17fbd84", "type": "electric_scooter", "is_disabled": 0, "lat": 38.897303, "rental_uris": {"android": "https://dc.lft.to/lastmile_qr_scan", "ios": "https://dc.lft.to/lastmile_qr_scan"}, "bike_id": "bf4dbfaaa0c34bc07b8a0cb7c17fbd84", "lon": -77.0551945}, {"is_reserved": 0, "fusion_lon": 0.0, "fusion_lat": 0.0, "name": "ef50de16a7b86b7183d1154b6dff1d61", "type": "electric_scooter", "is_disabled": 0, "lat": 38.932943333333334, "rental_uris": {"android": "https://dc.lft.to/lastmile_qr_scan", "ios": "https://dc.lft.to/lastmile_qr_scan"}, "bike_id": "ef50de16a7b86b7183d1154b6dff1d61", "lon": -77.021877}, {"is_reserved": 0, "fusion_lon": 0.0, "fusion_lat": 0.0, "name": "fae525b46f2da385f1896407892d5118", "type": "electric_scooter", "is_disabled": 0, "lat": 38.926726333333335, "rental_uris": {"android": "https://dc.lft.to/lastmile_qr_scan", "ios": "https://dc.lft.to/lastmile_qr_scan"}, "bike_id": "fae525b46f2da385f1896407892d5118", "lon": -77.04350133333334}, {"is_reserved": 0, "fusion_lon": 0.0, "fusion_lat": 0.0, "name": "e38f91bce147bd00453e404cea7f6459", "type": "electric_bike", "is_disabled": 0, "lat": 38.8966075, "rental_uris": {"android": "https://dc.lft.to/lastmile_qr_scan", "ios": "https://dc.lft.to/lastmile_qr_scan"}, "bike_id": "e38f91bce147bd00453e404cea7f6459", "lon": -76.93008433333333}, {"is_reserved": 0, "fusion_lon": 0.0, "fusion_lat": 0.0, "name": "169c81b699b3d34d12d42d40791fd1c5", "type": "electric_bike", "is_disabled": 0, "lat": 38.903296833333336, "rental_uris": {"android": "https://dc.lft.to/lastmile_qr_scan", "ios": "https://dc.lft.to/lastmile_qr_scan"}, "bike_id": "169c81b699b3d34d12d42d40791fd1c5", "lon": -76.975303}, {"is_reserved": 0, "fusion_lon": 0.0, "fusion_lat": 0.0, "name": "c0987fbec215c1551a59aa81b7621e1d", "type": "electric_scooter", "is_disabled": 0, "lat": 38.92158166666667, "rental_uris": {"android": "https://dc.lft.to/lastmile_qr_scan", "ios": "https://dc.lft.to/lastmile_qr_scan"}, "bike_id": "c0987fbec215c1551a59aa81b7621e1d", "lon": -77.02103383333333}, {"is_reserved": 0, "fusion_lon": 0.0, "fusion_lat": 0.0, "name": "649613d18c6ec87b8131c3ce8b0c0fce", "type": "electric_scooter", "is_disabled": 0, "lat": 38.91465133333333, "rental_uris": {"android": "https://dc.lft.to/lastmile_qr_scan", "ios": "https://dc.lft.to/lastmile_qr_scan"}, "bike_id": "649613d18c6ec87b8131c3ce8b0c0fce", "lon": -77.02095283333334}, {"is_reserved": 0, "fusion_lon": 0.0, "fusion_lat": 0.0, "name": "5ab10f15f5647ad7433e4b81f69b7ffc", "type": "electric_scooter", "is_disabled": 0, "lat": 38.891516, "rental_uris": {"android": "https://dc.lft.to/lastmile_qr_scan", "ios": "https://dc.lft.to/lastmile_qr_scan"}, "bike_id": "5ab10f15f5647ad7433e4b81f69b7ffc", "lon": -76.983804}, {"is_reserved": 0, "fusion_lon": 0.0, "fusion_lat": 0.0, "name": "4d58a666e8dd0f892490aea6a3b0a143", "type": "electric_scooter", "is_disabled": 0, "lat": 38.92016866666667, "rental_uris": {"android": "https://dc.lft.to/lastmile_qr_scan", "ios": "https://dc.lft.to/lastmile_qr_scan"}, "bike_id": "4d58a666e8dd0f892490aea6a3b0a143", "lon": -77.03470233333333}, {"is_reserved": 0, "fusion_lon": 0.0, "fusion_lat": 0.0, "name": "1e187e7b16940a676ebdeab8dae4f5f3", "type": "electric_scooter", "is_disabled": 0, "lat": 38.87166766666667, "rental_uris": {"android": "https://dc.lft.to/lastmile_qr_scan", "ios": "https://dc.lft.to/lastmile_qr_scan"}, "bike_id": "1e187e7b16940a676ebdeab8dae4f5f3", "lon": -76.97741866666667}, {"is_reserved": 0, "fusion_lon": 0.0, "fusion_lat": 0.0, "name": "b8ae40dfaae9f26bdbd990fdc9ccbe12", "type": "electric_scooter", "is_disabled": 0, "lat": 38.918069833333334, "rental_uris": {"android": "https://dc.lft.to/lastmile_qr_scan", "ios": "https://dc.lft.to/lastmile_qr_scan"}, "bike_id": "b8ae40dfaae9f26bdbd990fdc9ccbe12", "lon": -77.024953}, {"is_reserved": 0, "fusion_lon": 0.0, "fusion_lat": 0.0, "name": "e779b635cd716cef19eb83001b9cdcb9", "type": "electric_scooter", "is_disabled": 0, "lat": 38.91720333333333, "rental_uris": {"android": "https://dc.lft.to/lastmile_qr_scan", "ios": "https://dc.lft.to/lastmile_qr_scan"}, "bike_id": "e779b635cd716cef19eb83001b9cdcb9", "lon": -77.036608}, {"is_reserved": 0, "fusion_lon": 0.0, "fusion_lat": 0.0, "name": "706bb0c9af8c4b3f604da436652940cf", "type": "electric_scooter", "is_disabled": 0, "lat": 38.90079816666667, "rental_uris": {"android": "https://dc.lft.to/lastmile_qr_scan", "ios": "https://dc.lft.to/lastmile_qr_scan"}, "bike_id": "706bb0c9af8c4b3f604da436652940cf", "lon": -77.0488905}, {"is_reserved": 0, "fusion_lon": 0.0, "fusion_lat": 0.0, "name": "b775c3514858717e52ca1955e3ded82d", "type": "electric_scooter", "is_disabled": 0, "lat": 38.91933066666667, "rental_uris": {"android": "https://dc.lft.to/lastmile_qr_scan", "ios": "https://dc.lft.to/lastmile_qr_scan"}, "bike_id": "b775c3514858717e52ca1955e3ded82d", "lon": -77.0449385}, {"is_reserved": 0, "fusion_lon": 0.0, "fusion_lat": 0.0, "name": "6f43aea863eea1ebb8e0b18f0ebeadfa", "type": "electric_scooter", "is_disabled": 0, "lat": 38.924670166666665, "rental_uris": {"android": "https://dc.lft.to/lastmile_qr_scan", "ios": "https://dc.lft.to/lastmile_qr_scan"}, "bike_id": "6f43aea863eea1ebb8e0b18f0ebeadfa", "lon": -77.03284666666667}, {"is_reserved": 0, "fusion_lon": 0.0, "fusion_lat": 0.0, "name": "bc13fa85e3d500e92dd1daf6982daf65", "type": "electric_scooter", "is_disabled": 0, "lat": 38.909720166666666, "rental_uris": {"android": "https://dc.lft.to/lastmile_qr_scan", "ios": "https://dc.lft.to/lastmile_qr_scan"}, "bike_id": "bc13fa85e3d500e92dd1daf6982daf65", "lon": -77.03410016666666}, {"is_reserved": 0, "fusion_lon": 0.0, "fusion_lat": 0.0, "name": "3a01aa3e0bae04297d0f9391fa2e9c34", "type": "electric_scooter", "is_disabled": 0, "lat": 38.9045875, "rental_uris": {"android": "https://dc.lft.to/lastmile_qr_scan", "ios": "https://dc.lft.to/lastmile_qr_scan"}, "bike_id": "3a01aa3e0bae04297d0f9391fa2e9c34", "lon": -77.04800566666667}, {"is_reserved": 0, "fusion_lon": 0.0, "fusion_lat": 0.0, "name": "4d647b1f818bba73eb42583707bad49d", "type": "electric_bike", "is_disabled": 0, "lat": 38.993406, "rental_uris": {"android": "https://dc.lft.to/lastmile_qr_scan", "ios": "https://dc.lft.to/lastmile_qr_scan"}, "bike_id": "4d647b1f818bba73eb42583707bad49d", "lon": -77.11574416666667}, {"is_reserved": 0, "fusion_lon": 0.0, "fusion_lat": 0.0, "name": "7b26f3cd2999d367df15cf0e08cb7dd0", "type": "electric_scooter", "is_disabled": 0, "lat": 38.931555333333336, "rental_uris": {"android": "https://dc.lft.to/lastmile_qr_scan", "ios": "https://dc.lft.to/lastmile_qr_scan"}, "bike_id": "7b26f3cd2999d367df15cf0e08cb7dd0", "lon": -77.03248783333333}, {"is_reserved": 0, "fusion_lon": 0.0, "fusion_lat": 0.0, "name": "5ac17fb1f5d920bca5accf2f851911b5", "type": "electric_scooter", "is_disabled": 0, "lat": 38.90251416666667, "rental_uris": {"android": "https://dc.lft.to/lastmile_qr_scan", "ios": "https://dc.lft.to/lastmile_qr_scan"}, "bike_id": "5ac17fb1f5d920bca5accf2f851911b5", "lon": -77.03371466666667}, {"is_reserved": 0, "fusion_lon": 0.0, "fusion_lat": 0.0, "name": "760030e1410747952c740fe43000f738", "type": "electric_bike", "is_disabled": 0, "lat": 38.84564916666667, "rental_uris": {"android": "https://dc.lft.to/lastmile_qr_scan", "ios": "https://dc.lft.to/lastmile_qr_scan"}, "bike_id": "760030e1410747952c740fe43000f738", "lon": -77.0668965}, {"is_reserved": 0, "fusion_lon": 0.0, "fusion_lat": 0.0, "name": "b8ae88f7848369cc7b573bae2437b268", "type": "electric_scooter", "is_disabled": 0, "lat": 38.930148, "rental_uris": {"android": "https://dc.lft.to/lastmile_qr_scan", "ios": "https://dc.lft.to/lastmile_qr_scan"}, "bike_id": "b8ae88f7848369cc7b573bae2437b268", "lon": -77.05532983333333}, {"is_reserved": 0, "fusion_lon": 0.0, "fusion_lat": 0.0, "name": "4c80b8a02ea3f88d4ab5abd8f1ab17f8", "type": "electric_scooter", "is_disabled": 0, "lat": 38.9418305, "rental_uris": {"android": "https://dc.lft.to/lastmile_qr_scan", "ios": "https://dc.lft.to/lastmile_qr_scan"}, "bike_id": "4c80b8a02ea3f88d4ab5abd8f1ab17f8", "lon": -77.02488783333334}, {"is_reserved": 0, "fusion_lon": 0.0, "fusion_lat": 0.0, "name": "59c183a59d742c8c8c78287a91ffd67a", "type": "electric_bike", "is_disabled": 0, "lat": 38.837843, "rental_uris": {"android": "https://dc.lft.to/lastmile_qr_scan", "ios": "https://dc.lft.to/lastmile_qr_scan"}, "bike_id": "59c183a59d742c8c8c78287a91ffd67a", "lon": -76.99757266666667},