{"data": {"bikes": [{"lat": 38.95756933333333, "fusion_lat": 0.0, "type": "electric_scooter", "bike_id": "824c728aa55bdd26147e118858e2f6f2", "is_reserved": 0, "rental_uris": {"ios": "https://dc.lft.to/lastmile_qr_scan", "android": "https://dc.lft.to/lastmile_qr_scan"}, "is_disabled": 0, "lon": -77.020958, "name": "824c728aa55bdd26147e118858e2f6f2", "fusion_lon": 0.0}, {"lat": 38.900450666666664, "fusion_lat": 0.0, "type": "electric_scooter", "bike_id": "7d8fc8f02db2b5568781b85110af1529", "is_reserved": 0, "rental_uris": {"ios": "https://dc.lft.to/lastmile_qr_scan", "android": "https://dc.lft.to/lastmile_qr_scan"}, "is_disabled": 0, "lon": -77.01776816666667, "name": "7d8fc8f02db2b5568781b85110af1529", "fusion_lon": 0.0}, {"lat": 38.9037065, "fusion_lat": 0.0, "type": "electric_scooter", "bike_id": "fa96caf025f69c15402d95fa4ce4bb26", "is_reserved": 0, "rental_uris": {"ios": "https://dc.lft.to/lastmile_qr_scan", "android": "https://dc.lft.to/lastmile_qr_scan"}, "is_disabled": 0, "lon": -77.04024433333333, "name": "fa96caf025f69c15402d95fa4ce4bb26", "fusion_lon": 0.0}, {"lat": 38.904394333333336, "fusion_lat": 0.0, "type": "electric_scooter", "bike_id": "fe5ca2a8b6d22ce9d3351e9e81e95106", "is_reserved": 0, "rental_uris": {"ios": "https://dc.lft.to/lastmile_qr_scan", "android": "https://dc.lft.to/lastmile_qr_scan"}, "is_disabled": 0, "lon": -76.984871, "name": "fe5ca2a8b6d22ce9d3351e9e81e95106", "fusion_lon": 0.0}, {"lat": 38.90017866666667, "fusion_lat": 0.0, "type": "electric_scooter", "bike_id": "eaacf6560a4af1cdaee87e631d45a4ca", "is_reserved": 0, "rental_uris": {"ios": "https://dc.lft.to/lastmile_qr_scan", "android": "https://dc.lft.to/lastmile_qr_scan"}, "is_disabled": 0, "lon": -76.9806415, "name": "eaacf6560a4af1cdaee87e631d45a4ca", "fusion_lon": 0.0}, {"lat": 38.903116, "fusion_lat": 0.0, "type": "electric_scooter", "bike_id": "59cdb0b764cf4452b06fece921afcb97", "is_reserved": 0, "rental_uris": {"ios": "https://dc.lft.to/lastmile_qr_scan", "android": "https://dc.lft.to/lastmile_qr_scan"}, "is_disabled": 0, "lon": -76.99078066666667, "name": "59cdb0b764cf4452b06fece921afcb97", "fusion_lon": 0.0}, {"lat": 38.911906, "fusion_lat": 0.0, "type": "electric_scooter", "bike_id": "f4056082af2c60b4fb9c160bffa84c2c", "is_reserved": 0, "rental_uris": {"ios": "https://dc.lft.to/lastmile_qr_scan", "android": "https://dc.lft.to/lastmile_qr_scan"}, "is_disabled": 0, "lon": -77.01774483333334, "name": "f4056082af2c60b4fb9c160bffa84c2c", "fusion_lon": 0.0}, {"lat": 38.95184, "fusion_lat": 0.0, "type": "electric_scooter", "bike_id": "386c8c14154f48c753a0e3d980a8a5fc", "is_reserved": 0, "rental_uris": {"ios": "https://dc.lft.to/lastmile_qr_scan", "android": "https://dc.lft.to/lastmile_qr_scan"}, "is_disabled": 0, "lon": -77.02724783333333, "name": "386c8c14154f48c753a0e3d980a8a5fc", "fusion_lon": 0.0}, {"lat": 38.900483, "fusion_lat": 0.0, "type": "electric_scooter", "bike_id": "124127fb2af754ddbd02139dc42dbd8c", "is_reserved": 0, "rental_uris": {"ios": "https://dc.lft.to/lastmile_qr_scan", "android": "https://dc.lft.to/lastmile_qr_scan"}, "is_disabled": 0, "lon": -77.03510983333334, "name": "124127fb2af754ddbd02139dc42dbd8c", "fusion_lon": 0.0}, {"lat": 38.90668, "fusion_lat": 0.0, "type": "electric_scooter", "bike_id": "795aa5836b094743d180a94f2248d2c6", "is_reserved": 0, "rental_uris": {"ios": "https://dc.lft.to/lastmile_qr_scan", "android": "https://dc.lft.to/lastmile_qr_scan"}, "is_disabled": 0, "lon": -77.07166216666667, "name": "795aa5836b094743d180a94f2248d2c6", "fusion_lon": 0.0}, {"lat": 38.901728, "fusion_lat": 0.0, "type": "electric_scooter", "bike_id": "2abb8b6eee46476a96be9029c2d5bee9", "is_reserved": 0, "rental_uris": {"ios": "https://dc.lft.to/lastmile_qr_scan", "android": "https://dc.lft.to/lastmile_qr_scan"}, "is_disabled": 0, "lon": -77.02477833333333, "name": "2abb8b6eee46476a96be9029c2d5bee9", "fusion_lon": 0.0}, {"lat": 38.905064333333335, "fusion_lat": 0.0, "type": "electric_scooter", "bike_id": "4033f0f22eb4dc2ea8be65c8367369f0", "is_reserved": 0, "rental_uris": {"ios": "https://dc.lft.to/lastmile_qr_scan", "android": "https://dc.lft.to/lastmile_qr_scan"}, "is_disabled": 0, "lon": -77.038371, "name": "4033f0f22eb4dc2ea8be65c8367369f0", "fusion_lon": 0.0}, {"lat": 38.90497116666667, "fusion_lat": 0.0, "type": "electric_scooter", "bike_id": "921c40ac9ae705e78155eb118257b6d1", "is_reserved": 0, "rental_uris": {"ios": "https://dc.lft.to/lastmile_qr_scan", "android": "https://dc.lft.to/lastmile_qr_scan"}, "is_disabled": 0, "lon": -77.06503633333334, "name": "921c40ac9ae705e78155eb118257b6d1", "fusion_lon": 0.0}, {"lat": 38.91713266666667, "fusion_lat": 0.0, "type": "electric_scooter", "bike_id": "9c152ea4bd1c2373c899eefacf136671", "is_reserved": 0, "rental_uris": {"ios": "https://dc.lft.to/lastmile_qr_scan", "android": "https://dc.lft.to/lastmile_qr_scan"}, "is_disabled": 0, "lon": -77.03444283333333, "name": "9c152ea4bd1c2373c899eefacf136671", "fusion_lon": 0.0}, {"lat": 38.936421333333335, "fusion_lat": 0.0, "type": "electric_scooter", "bike_id": "c094fe93f03b54ebcf49bbae7d5f75aa", "is_reserved": 0, "rental_uris": {"ios": "https://dc.lft.to/lastmile_qr_scan", "android": "https://dc.lft.to/lastmile_qr_scan"}, "is_disabled": 0, "lon": -77.05886533333333, "name": "c094fe93f03b54ebcf49bbae7d5f75aa", "fusion_lon": 0.0}, {"lat": 38.91615133333333, "fusion_lat": 0.0, "type": "electric_scooter", "bike_id": "df841cc5399cc87e87f0cff96cbc1d3a", "is_reserved": 0, "rental_uris": {"ios": "https://dc.lft.to/lastmile_qr_scan", "android": "https://dc.lft.to/lastmile_qr_scan"}, "is_disabled": 0, "lon": -77.03213216666667, "name": "df841cc5399cc87e87f0cff96cbc1d3a", "fusion_lon": 0.0}, {"lat": 38.92318916666667, "fusion_lat": 0.0, "type": "electric_scooter", "bike_id": "dc53028c87f49ca9d6a8b5551c120482", "is_reserved": 0, "rental_uris": {"ios": "https://dc.lft.to/lastmile_qr_scan", "android": "https://dc.lft.to/lastmile_qr_scan"}, "is_disabled": 0, "lon": -77.039212, "name": "dc53028c87f49ca9d6a8b5551c120482", "fusion_lon": 0.0}, {"lat": 38.90043433333334, "fusion_lat": 0.0, "type": "electric_scooter", "bike_id": "05dbe750817942f298bc173e253f29e9", "is_reserved": 0, "rental_uris": {"ios": "https://dc.lft.to/lastmile_qr_scan", "android": "https://dc.lft.to/lastmile_qr_scan"}, "is_disabled": 0, "lon": -77.04330016666667, "name": "05dbe750817942f298bc173e253f29e9", "fusion_lon": 0.0}, {"lat": 38.85514516666667, "fusion_lat": 0.0, "type": "electric_bike", "bike_id": "42aa60775bbca9bc7da995f695e5a0bd", "is_reserved": 0, "rental_uris": {"ios": "https://dc.lft.to/lastmile_qr_scan", "android": "https://dc.lft.to/lastmile_qr_scan"}, "is_disabled": 0, "lon": -76.98450916666667, "name": "42aa60775bbca9bc7da995f695e5a0bd", "fusion_lon": 0.0}, {"lat": 38.8748495, "fusion_lat": 0.0, "type": "electric_scooter", "bike_id": "30aea9f8c6fe719e851b2879cbe97226", "is_reserved": 0, "rental_uris": {"ios": "https://dc.lft.to/lastmile_qr_scan", "android": "https://dc.lft.to/lastmile_qr_scan"}, "is_disabled": 0, "lon": -77.0094215, "name": "30aea9f8c6fe719e851b2879cbe97226", "fusion_lon": 0.0}, {"lat": 38.8999845, "fusion_lat": 0.0, "type": "electric_scooter", "bike_id": "cdfafd6e25b385b84e064831d5e11307", "is_reserved": 0, "rental_uris": {"ios": "https://dc.lft.to/lastmile_qr_scan", "android": "https://dc.lft.to/lastmile_qr_scan"}, "is_disabled": 0, "lon": -77.01023866666667, "name": "cdfafd6e25b385b84e064831d5e11307", "fusion_lon": 0.0}, {"lat": 38.88313383333333, "fusion_lat": 0.0, "type": "electric_scooter", "bike_id": "fab595eb8eb3ea9df254df2bddd26aa9", "is_reserved": 0, "rental_uris": {"ios": "https://dc.lft.to/lastmile_qr_scan", "android": "https://dc.lft.to/lastmile_qr_scan"}, "is_disabled": 0, "lon": -77.0005235, "name": "fab595eb8eb3ea9df254df2bddd26aa9", "fusion_lon": 0.0}, {"lat": 38.920395166666665, "fusion_lat": 0.0, "type": "electric_scooter", "bike_id": "a3962d96c2259588e5252674800165c5", "is_reserved": 0, "rental_uris": {"ios": "https://dc.lft.to/lastmile_qr_scan", "android": "https://dc.lft.to/lastmile_qr_scan"}, "is_disabled": 0, "lon": -77.02595466666666, "name": "a3962d96c2259588e5252674800165c5", "fusion_lon": 0.0}, {"lat": 38.8431495, "fusion_lat": 0.0, "type": "electric_scooter", "bike_id": "887b67c0c92bffa180e57a411c46860c", "is_reserved": 0, "rental_uris": {"ios": "https://dc.lft.to/lastmile_qr_scan", "android": "https://dc.lft.to/lastmile_qr_scan"}, "is_disabled": 0, "lon": -76.99929933333334, "name": "887b67c0c92bffa180e57a411c46860c", "fusion_lon": 0.0}, {"lat": 38.90505916666667, "fusion_lat": 0.0, "type": "electric_scooter", "bike_id": "dfa96985d14cecd140a6e8611edf613f", "is_reserved": 0, "rental_uris": {"ios": "https://dc.lft.to/lastmile_qr_scan", "android": "https://dc.lft.to/lastmile_qr_scan"}, "is_disabled": 0, "lon": -77.06010033333334, "name": "dfa96985d14cecd140a6e8611edf613f", "fusion_lon": 0.0}, {"lat": 38.900398333333335, "fusion_lat": 0.0, "type": "electric_scooter", "bike_id": "82eccd856f984ada9dc639be1d8e7ddb", "is_reserved": 0, "rental_uris": {"ios": "https://dc.lft.to/lastmile_qr_scan", "android": "https://dc.lft.to/lastmile_qr_scan"}, "is_disabled": 0, "lon": -76.9192235, "name": "82eccd856f984ada9dc639be1d8e7ddb", "fusion_lon": 0.0}, {"lat": 38.9347925, "fusion_lat": 0.0, "type": "electric_scooter", "bike_id": "50438e7319587d2ec34404552b015393", "is_reserved": 0, "rental_uris": {"ios": "https://dc.lft.to/lastmile_qr_scan", "android": "https://dc.lft.to/lastmile_qr_scan"}, "is_disabled": 0, "lon": -77.07261666666666, "name": "50438e7319587d2ec34404552b015393", "fusion_lon": 0.0}, {"lat": 38.877474166666666, "fusion_lat": 0.0, "type": "electric_scooter", "bike_id": "d521c7480924dcb28872df73332846f2", "is_reserved": 0, "rental_uris": {"ios": "https://dc.lft.to/lastmile_qr_scan", "android": "https://dc.lft.to/lastmile_qr_scan"}, "is_disabled": 0, "lon": -77.00422516666667, "name": "d521c7480924dcb28872df73332846f2", "fusion_lon": 0.0}, {"lat": 38.9191725, "fusion_lat": 0.0, "type": "electric_scooter", "bike_id": "157a011f811227a9604cc98533f98685", "is_reserved": 0, "rental_uris": {"ios": "https://dc.lft.to/lastmile_qr_scan", "android": "https://dc.lft.to/lastmile_qr_scan"}, "is_disabled": 0, "lon": -77.03191066666666, "name": "157a011f811227a9604cc98533f98685", "fusion_lon": 0.0}, {"lat": 38.90711233333333, "fusion_lat": 0.0, "type": "electric_scooter", "bike_id": "c4eed2591afa4ac74d3f01f6e3830c2c", "is_reserved": 0, "rental_uris": {"ios": "https://dc.lft.to/lastmile_qr_scan", "android": "https://dc.lft.to/lastmile_qr_scan"}, "is_disabled": 0, "lon": -77.02954183333334, "name": "c4eed2591afa4ac74d3f01f6e3830c2c", "fusion_lon": 0.0}, {"lat": 38.9590185, "fusion_lat": 0.0, "type": "electric_bike", "bike_id": "9d3e43c14101b92081fed596e9d51ce6", "is_reserved": 0, "rental_uris": {"ios": "https://dc.lft.to/lastmile_qr_scan", "android": "https://dc.lft.to/lastmile_qr_scan"}, "is_disabled": 0, "lon": -77.084981, "name": "9d3e43c14101b92081fed596e9d51ce6", "fusion_lon": 0.0}, {"lat": 38.89313766666667, "fusion_lat": 0.0, "type": "electric_scooter", "bike_id": "67d684f43a92ff9e0de7274daaa293f3", "is_reserved": 0, "rental_uris": {"ios": "https://dc.lft.to/lastmile_qr_scan", "android": "https://dc.lft.to/lastmile_qr_scan"}, "is_disabled": 0, "lon": -77.05002083333333, "name": "67d684f43a92ff9e0de7274daaa293f3", "fusion_lon": 0.0}, {"lat": 38.9186025, "fusion_lat": 0.0, "type": "electric_scooter", "bike_id": "e130863b3fdcde8538b3f52aca12377a", "is_reserved": 0, "rental_uris": {"ios": "https://dc.lft.to/lastmile_qr_scan", "android": "https://dc.lft.to/lastmile_qr_scan"}, "is_disabled": 0, "lon": -77.0403905, "name": "e130863b3fdcde8538b3f52aca12377a", "fusion_lon": 0.0}, {"lat": 38.88375166666667, "fusion_lat": 0.0, "type": "electric_scooter", "bike_id": "b3548306dbfe2041da524ef2361a2a9b", "is_reserved": 0, "rental_uris": {"ios": "https://dc.lft.to/lastmile_qr_scan", "android": "https://dc.lft.to/lastmile_qr_scan"}, "is_disabled": 0, "lon": -76.99517283333333, "name": "b3548306dbfe2041da524ef2361a2a9b", "fusion_lon": 0.0}, {"lat": 38.88604616666667, "fusion_lat": 0.0, "type": "electric_scooter", "bike_id": "580a69a28a26e7020417be557148a7d5", "is_reserved": 0, "rental_uris": {"ios": "https://dc.lft.to/lastmile_qr_scan", "android": "https://dc.lft.to/lastmile_qr_scan"}, "is_disabled": 0, "lon": -77.01915166666667, "name": "580a69a28a26e7020417be557148a7d5", "fusion_lon": 0.0}, {"lat": 38.871796333333336, "fusion_lat": 0.0, "type": "electric_scooter", "bike_id": "768a990fef27539c6fd01da315337f48", "is_reserved": 0, "rental_uris": {"ios": "https://dc.lft.to/lastmile_qr_scan", "android": "https://dc.lft.to/lastmile_qr_scan"}, "is_disabled": 0, "lon": -77.00614716666666, "name": "768a990fef27539c6fd01da315337f48", "fusion_lon": 0.0}, {"lat": 38.88745633333333, "fusion_lat": 0.0, "type": "electric_scooter", "bike_id": "a3dcc2f6bcdbf9a14e1e9d0bd62b0914", "is_reserved": 0, "rental_uris": {"ios": "https://dc.lft.to/lastmile_qr_scan", "android": "https://dc.lft.to/lastmile_qr_scan"}, "is_disabled": 0, "lon": -77.0284305, "name": "a3dcc2f6bcdbf9a14e1e9d0bd62b0914", "fusion_lon": 0.0}, {"lat": 38.91976416666667, "fusion_lat": 0.0, "type": "electric_scooter", "bike_id": "28f7b9cf3b38f8ec1e14f498c0ae87e5", "is_reserved": 0, "rental_uris": {"ios": "https://dc.lft.to/lastmile_qr_scan", "android": "https://dc.lft.to/lastmile_qr_scan"}, "is_disabled": 0, "lon": -77.019103, "name": "28f7b9cf3b38f8ec1e14f498c0ae87e5", "fusion_lon": 0.0}, {"lat": 38.88848816666667, "fusion_lat": 0.0, "type": "electric_scooter", "bike_id": "68b575e8b2139388a5cdbd676755790f", "is_reserved": 0, "rental_uris": {"ios": "https://dc.lft.to/lastmile_qr_scan", "android": "https://dc.lft.to/lastmile_qr_scan"}, "is_disabled": 0, "lon": -76.92682683333334, "name": "68b575e8b2139388a5cdbd676755790f", "fusion_lon": 0.0}, {"lat": 38.90738316666667, "fusion_lat": 0.0, "type": "electric_scooter", "bike_id": "357f9b2feaa9309553074481b6ee62a7", "is_reserved": 0, "rental_uris": {"ios": "https://dc.lft.to/lastmile_qr_scan", "android": "https://dc.lft.to/lastmile_qr_scan"}, "is_disabled": 0, "lon": -77.00929016666667, "name": "357f9b2feaa9309553074481b6ee62a7", "fusion_lon": 0.0}, {"lat": 38.9365315, "fusion_lat": 0.0, "type": "electric_scooter", "bike_id": "89f40e107c2206451449f5893eaa0b7e", "is_reserved": 0, "rental_uris": {"ios": "https://dc.lft.to/lastmile_qr_scan", "android": "https://dc.lft.to/lastmile_qr_scan"}, "is_disabled": 0, "lon": -77.02638216666666, "name": "89f40e107c2206451449f5893eaa0b7e", "fusion_lon": 0.0}, {"lat": 38.916924333333334, "fusion_lat": 0.0, "type": "electric_scooter", "bike_id": "c2ac5d07a5c6e87041e95101a845ac8b", "is_reserved": 0, "rental_uris": {"ios": "https://dc.lft.to/lastmile_qr_scan", "android": "https://dc.lft.to/lastmile_qr_scan"}, "is_disabled": 0, "lon": -77.03392233333334, "name": "c2ac5d07a5c6e87041e95101a845ac8b", "fusion_lon": 0.0}, {"lat": 38.88434183333333, "fusion_lat": 0.0, "type": "electric_scooter", "bike_id": "2699e02cf9358412c53302b9a35a5063", "is_reserved": 0, "rental_uris": {"ios": "https://dc.lft.to/lastmile_qr_scan", "android": "https://dc.lft.to/lastmile_qr_scan"}, "is_disabled": 0, "lon": -76.9574515, "name": "2699e02cf9358412c53302b9a35a5063", "fusion_lon": 0.0}, {"lat": 38.86937066666667, "fusion_lat": 0.0, "type": "electric_bike", "bike_id": "1d2dd9f18fe105a40583b131032fd682", "is_reserved": 0, "rental_uris": {"ios": "https://dc.lft.to/lastmile_qr_scan", "android": "https://dc.lft.to/lastmile_qr_scan"}, "is_disabled": 0, "lon": -77.09469066666666, "name": "1d2dd9f18fe105a40583b131032fd682", "fusion_lon": 0.0}, {"lat": 38.90510583333333, "fusion_lat": 0.0, "type": "electric_scooter", "bike_id": "fcd2cffc0e9ecf887432e63a1237c9d2", "is_reserved": 0, "rental_uris": {"ios": "https://dc.lft.to/lastmile_qr_scan", "android": "https://dc.lft.to/lastmile_qr_scan"}, "is_disabled": 0, "lon": -77.050854, "name": "fcd2cffc0e9ecf887432e63a1237c9d2", "fusion_lon": 0.0}, {"lat": 38.91845033333333, "fusion_lat": 0.0, "type": "electric_scooter", "bike_id": "82af350080fb245392924b953096889b", "is_reserved": 0, "rental_uris": {"ios": "https://dc.lft.to/lastmile_qr_scan", "android": "https://dc.lft.to/lastmile_qr_scan"}, "is_disabled": 0, "lon": -77.04018066666667, "name": "82af350080fb245392924b953096889b", "fusion_lon": 0.0}, {"lat": 38.928686, "fusion_lat": 0.0, "type": "electric_scooter", "bike_id": "2e352a26139b86ef7437eaefb8d36d11", "is_reserved": 0, "rental_uris": {"ios": "https://dc.lft.to/lastmile_qr_scan", "android": "https://dc.lft.to/lastmile_qr_scan"}, "is_disabled": 0, "lon": -77.02849666666667, "name": "2e352a26139b86ef7437eaefb8d36d11", "fusion_lon": 0.0}, {"lat": 38.93580766666667, "fusion_lat": 0.0, "type": "electric_scooter", "bike_id": "2eb011fcb9bf809127600c01f454f12a", "is_reserved": 0, "rental_uris": {"ios": "https://dc.lft.to/lastmile_qr_scan", "android": "https://dc.lft.to/lastmile_qr_scan"}, "is_disabled": 0, "lon": -77.02123916666666, "name": "2eb011fcb9bf809127600c01f454f12a", "fusion_lon": 0.0}, {"lat": 38.8960345, "fusion_lat": 0.0, "type": "electric_scooter", "bike_id": "f20bf626521abbe1c415589b9da54a11", "is_reserved": 0, "rental_uris": {"ios": "https://dc.lft.to/lastmile_qr_scan", "android": "https://dc.lft.to/lastmile_qr_scan"}, "is_disabled": 0, "lon": -77.0220605, "name": "f20bf626521abbe1c415589b9da54a11", "fusion_lon": 0.0}, {"lat": 38.91815016666666, "fusion_lat": 0.0, "type": "electric_scooter", "bike_id": "c9693660711db827544b7fe223b06790", "is_reserved": 0, "rental_uris": {"ios": "https://dc.lft.to/lastmile_qr_scan", "android": "https://dc.lft.to/lastmile_qr_scan"}, "is_disabled": 0, "lon": -77.0896135, "name": "c9693660711db827544b7fe223b06790", "fusion_lon": 0.0}, {"lat": 38.96322283333333, "fusion_lat": 0.0, "type": "electric_bike", "bike_id": "5c2fbc1ec467e11e67b264c61d1fb92a", "is_reserved": 0, "rental_uris": {"ios": "https://dc.lft.to/lastmile_qr_scan", "android": "https://dc.lft.to/lastmile_qr_scan"}, "is_disabled": 0, "lon": -76.97362266666667, "name": "5c2fbc1ec467e11e67b264c61d1fb92a", "fusion_lon": 0.0}, {"lat": 38.904848666666666, "fusion_lat": 0.0, "type": "electric_scooter", "bike_id": "0e4e42f39378b4e45721a64895e68b59", "is_reserved": 0, "rental_uris": {"ios": "https://dc.lft.to/lastmile_qr_scan", "android": "https://dc.lft.to/lastmile_qr_scan"}, "is_disabled": 0, "lon": -77.04178266666666, "name": "0e4e42f39378b4e45721a64895e68b59", "fusion_lon": 0.0}, {"lat": 38.963033833333334, "fusion_lat": 0.0, "type": "electric_bike", "bike_id": "dc66f03a68a7b6a5a57bcbf3c34668f0", "is_reserved": 0, "rental_uris": {"ios": "https://dc.lft.to/lastmile_qr_scan", "android": "https://dc.lft.to/lastmile_qr_scan"}, "is_disabled": 0, "lon": -77.011084, "name": "dc66f03a68a7b6a5a57bcbf3c34668f0", "fusion_lon": 0.0}, {"lat": 38.905114833333336, "fusion_lat": 0.0, "type": "electric_scooter", "bike_id": "ba169a7554c3c0f703ac64818bae0a4d", "is_reserved": 0, "rental_uris": {"ios": "https://dc.lft.to/lastmile_qr_scan", "android": "https://dc.lft.to/lastmile_qr_scan"}, "is_disabled": 0, "lon": -77.07012616666667, "name": "ba169a7554c3c0f703ac64818bae0a4d", "fusion_lon": 0.0}, {"lat": 38.91681283333333, "fusion_lat": 0.0, "type": "electric_scooter", "bike_id": "212711abd441e41607b5c5f82fe6bc36", "is_reserved": 0, "rental_uris": {"ios": "https://dc.lft.to/lastmile_qr_scan", "android": "https://dc.lft.to/lastmile_qr_scan"}, "is_disabled": 0, "lon": -77.01579, "name": "212711abd441e41607b5c5f82fe6bc36", "fusion_lon": 0.0}, {"lat": 38.9287205, "fusion_lat": 0.0, "type": "electric_scooter", "bike_id": "73a20c5d7988a16f7fa2eef68669523b", "is_reserved": 0, "rental_uris": {"ios": "https://dc.lft.to/lastmile_qr_scan", "android": "https://dc.lft.to/lastmile_qr_scan"}, "is_disabled": 0, "lon": -77.033294, "name": "73a20c5d7988a16f7fa2eef68669523b", "fusion_lon": 0.0}, {"lat": 38.919093333333336, "fusion_lat": 0.0, "type": "electric_scooter", "bike_id": "96be77a016e3c4ffac4a8553242ede1b", "is_reserved": 0, "rental_uris": {"ios": "https://dc.lft.to/lastmile_qr_scan", "android": "https://dc.lft.to/lastmile_qr_scan"}, "is_disabled": 0, "lon": -77.015397, "name": "96be77a016e3c4ffac4a8553242ede1b", "fusion_lon": 0.0}, {"lat": 38.955295, "fusion_lat": 0.0, "type": "electric_bike", "bike_id": "e34cd4e0df4200344356fb22586cfbcc", "is_reserved": 0, "rental_uris": {"ios": "https://dc.lft.to/lastmile_qr_scan", "android": "https://dc.lft.to/lastmile_qr_scan"}, "is_disabled": 0, "lon": -76.96825883333334, "name": "e34cd4e0df4200344356fb22586cfbcc", "fusion_lon": 0.0}, {"lat": 38.887323, "fusion_lat": 0.0, "type": "electric_scooter", "bike_id": "d2611f24de21e65fcf93318e27659c83", "is_reserved": 0, "rental_uris": {"ios": "https://dc.lft.to/lastmile_qr_scan", "android": "https://dc.lft.to/lastmile_qr_scan"}, "is_disabled": 0, "lon": -77.03178866666667, "name": "d2611f24de21e65fcf93318e27659c83", "fusion_lon": 0.0}, {"lat": 38.905261, "fusion_lat": 0.0, "type": "electric_scooter", "bike_id": "690fbf2430f0fa052251e103c82da03a", "is_reserved": 0, "rental_uris": {"ios": "https://dc.lft.to/lastmile_qr_scan", "android": "https://dc.lft.to/lastmile_qr_scan"}, "is_disabled": 0, "lon": -77.06141266666667, "name": "690fbf2430f0fa052251e103c82da03a", "fusion_lon": 0.0}, {"lat": 38.9001305, "fusion_lat": 0.0, "type": "electric_scooter", "bike_id": "c5ab082d169154dd289beebf18461f2c", "is_reserved": 0, "rental_uris": {"ios": "https://dc.lft.to/lastmile_qr_scan", "android": "https://dc.lft.to/lastmile_qr_scan"}, "is_disabled": 0, "lon": -77.026176, "name": "c5ab082d169154dd289beebf18461f2c", "fusion_lon": 0.0}, {"lat": 38.93543783333333, "fusion_lat": 0.0, "type": "electric_scooter", "bike_id": "5451968b12a96bfe39ebb1a156fb6331", "is_reserved": 0, "rental_uris": {"ios": "https://dc.lft.to/lastmile_qr_scan", "android": "https://dc.lft.to/lastmile_qr_scan"}, "is_disabled": 0, "lon": -77.05857866666666, "name": "5451968b12a96bfe39ebb1a156fb6331", "fusion_lon": 0.0}, {"lat": 38.9322845, "fusion_lat": 0.0, "type": "electric_scooter", "bike_id": "066b2ab468f2df9a4c9695c0eba23a76", "is_reserved": 0, "rental_uris": {"ios": "https://dc.lft.to/lastmile_qr_scan", "android": "https://dc.lft.to/lastmile_qr_scan"}, "is_disabled": 0, "lon": -76.99528516666666, "name": "066b2ab468f2df9a4c9695c0eba23a76", "fusion_lon": 0.0}, {"lat": 38.916894666666664, "fusion_lat": 0.0, "type": "electric_scooter", "bike_id": "615c126c92ddfc440b6a9fd8e006e0ce", "is_reserved": 0, "rental_uris": {"ios": "https://dc.lft.to/lastmile_qr_scan", "android": "https://dc.lft.to/lastmile_qr_scan"}, "is_disabled": 0, "lon": -77.03154166666667, "name": "615c126c92ddfc440b6a9fd8e006e0ce", "fusion_lon": 0.0}, {"lat": 38.969595, "fusion_lat": 0.0, "type": "electric_bike", "bike_id": "d7b0cd7847d5abaf2b3604351ad08cc3", "is_reserved": 0, "rental_uris": {"ios": "https://dc.lft.to/lastmile_qr_scan", "android": "https://dc.lft.to/lastmile_qr_scan"}, "is_disabled": 0, "lon": -76.957492, "name": "d7b0cd7847d5abaf2b3604351ad08cc3", "fusion_lon": 0.0}, {"lat": 38.89560683333333, "fusion_lat": 0.0, "type": "electric_scooter", "bike_id": "11ad466c65b99f0768c50cb9e3017ad6", "is_reserved": 0, "rental_uris": {"ios": "https://dc.lft.to/lastmile_qr_scan", "android": "https://dc.lft.to/lastmile_qr_scan"}, "is_disabled": 0, "lon": -77.04678033333333, "name": "11ad466c65b99f0768c50cb9e3017ad6", "fusion_lon": 0.0}, {"lat": 38.920269833333336, "fusion_lat": 0.0, "type": "electric_scooter", "bike_id": "efa8089bacb9ae942d4b13a00372bef0", "is_reserved": 0, "rental_uris": {"ios": "https://dc.lft.to/lastmile_qr_scan", "android": "https://dc.lft.to/lastmile_qr_scan"}, "is_disabled": 0, "lon": -77.01865016666666, "name": "efa8089bacb9ae942d4b13a00372bef0", "fusion_lon": 0.0}, {"lat": 38.92333516666667, "fusion_lat": 0.0, "type": "electric_scooter", "bike_id": "a18adad9d3eab8894a31616dd80b9d96", "is_reserved": 0, "rental_uris": {"ios": "https://dc.lft.to/lastmile_qr_scan", "android": "https://dc.lft.to/lastmile_qr_scan"}, "is_disabled": 0, "lon": -77.02967266666667, "name": "a18adad9d3eab8894a31616dd80b9d96", "fusion_lon": 0.0}, {"lat": 38.86475333333333, "fusion_lat": 0.0, "type": "electric_scooter", "bike_id": "8c151abb3b7e5695c92fb0c26a8fa5c5", "is_reserved": 0, "rental_uris": {"ios": "https://dc.lft.to/lastmile_qr_scan", "android": "https://dc.lft.to/lastmile_qr_scan"}, "is_disabled": 0, "lon": -76.977363, "name": "8c151abb3b7e5695c92fb0c26a8fa5c5", "fusion_lon": 0.0}, {"lat": 38.90835883333333, "fusion_lat": 0.0, "type": "electric_scooter", "bike_id": "8e60c1473ba785d487c7b807e509d012", "is_reserved": 0, "rental_uris": {"ios": "https://dc.lft.to/lastmile_qr_scan", "android": "https://dc.lft.to/lastmile_qr_scan"}, "is_disabled": 0, "lon": -77.01274866666667, "name": "8e60c1473ba785d487c7b807e509d012", "fusion_lon": 0.0}, {"lat": 38.89357833333333, "fusion_lat": 0.0, "type": "electric_scooter", "bike_id": "f4d944fd46b12fac2e7a31b3411b8d05", "is_reserved": 0, "rental_uris": {"ios": "https://dc.lft.to/lastmile_qr_scan", "android": "https://dc.lft.to/lastmile_qr_scan"}, "is_disabled": 0, "lon": -76.9493665, "name": "f4d944fd46b12fac2e7a31b3411b8d05", "fusion_lon": 0.0}, {"lat": 38.92420933333333, "fusion_lat": 0.0, "type": "electric_scooter", "bike_id": "5f27e57df064919ca2759ad1b3181b09", "is_reserved": 0, "rental_uris": {"ios": "https://dc.lft.to/lastmile_qr_scan", "android": "https://dc.lft.to/lastmile_qr_scan"}, "is_disabled": 0, "lon": -77.02011016666667, "name": "5f27e57df064919ca2759ad1b3181b09", "fusion_lon": 0.0}, {"lat": 38.916832, "fusion_lat": 0.0, "type": "electric_scooter", "bike_id": "d3fdb4243652fbc84d80e3ffc3dd1db2", "is_reserved": 0, "rental_uris": {"ios": "https://dc.lft.to/lastmile_qr_scan", "android": "https://dc.lft.to/lastmile_qr_scan"}, "is_disabled": 0, "lon": -77.02698116666667, "name": "d3fdb4243652fbc84d80e3ffc3dd1db2", "fusion_lon": 0.0}, {"lat": 38.9155355, "fusion_lat": 0.0, "type": "electric_scooter", "bike_id": "51ae83aa4cd5483df190b32712aa565b", "is_reserved": 0, "rental_uris": {"ios": "https://dc.lft.to/lastmile_qr_scan", "android": "https://dc.lft.to/lastmile_qr_scan"}, "is_disabled": 0, "lon": -77.04515033333334, "name": "51ae83aa4cd5483df190b32712aa565b", "fusion_lon": 0.0}, {"lat": 38.95477483333333, "fusion_lat": 0.0, "type": "electric_scooter", "bike_id": "9540f1f70f3012f5429dafcfc7c7577f", "is_reserved": 0, "rental_uris": {"ios": "https://dc.lft.to/lastmile_qr_scan", "android": "https://dc.lft.to/lastmile_qr_scan"}, "is_disabled": 0, "lon": -77.02225433333334, "name": "9540f1f70f3012f5429dafcfc7c7577f", "fusion_lon": 0.0}, {"lat": 38.887151833333334, "fusion_lat": 0.0, "type": "electric_scooter", "bike_id": "0e9e968eb54d23c75fd9aebe38cbb5e6", "is_reserved": 0, "rental_uris": {"ios": "https://dc.lft.to/lastmile_qr_scan", "android": "https://dc.lft.to/lastmile_qr_scan"}, "is_disabled": 0, "lon": -77.00345866666666, "name": "0e9e968eb54d23c75fd9aebe38cbb5e6", "fusion_lon": 0.0}, {"lat": 38.901177833333335, "fusion_lat": 0.0, "type": "electric_scooter", "bike_id": "0f21a3ca5a31f3a3499991c29f4a1bce", "is_reserved": 0, "rental_uris": {"ios": "https://dc.lft.to/lastmile_qr_scan", "android": "https://dc.lft.to/lastmile_qr_scan"}, "is_disabled": 0, "lon": -77.02486466666667, "name": "0f21a3ca5a31f3a3499991c29f4a1bce", "fusion_lon": 0.0}, {"lat": 38.908285666666664, "fusion_lat": 0.0, "type": "electric_scooter", "bike_id": "ac8a5ba2b2f9480ab722444e11b44030", "is_reserved": 0, "rental_uris": {"ios": "https://dc.lft.to/lastmile_qr_scan", "android": "https://dc.lft.to/lastmile_qr_scan"}, "is_disabled": 0, "lon": -77.03925883333334, "name": "ac8a5ba2b2f9480ab722444e11b44030", "fusion_lon": 0.0}, {"lat": 38.90709616666667, "fusion_lat": 0.0, "type": "electric_scooter", "bike_id": "afe11bd864451e675868b4a84633ebe9", "is_reserved": 0, "rental_uris": {"ios": "https://dc.lft.to/lastmile_qr_scan", "android": "https://dc.lft.to/lastmile_qr_scan"}, "is_disabled": 0, "lon": -77.00754883333333, "name": "afe11bd864451e675868b4a84633ebe9", "fusion_lon": 0.0}, {"lat": 38.91406666666666, "fusion_lat": 0.0, "type": "electric_scooter", "bike_id": "7cb1b68caa252c9b75fcb8b0e89a9b28", "is_reserved": 0, "rental_uris": {"ios": "https://dc.lft.to/lastmile_qr_scan", "android": "https://dc.lft.to/lastmile_qr_scan"}, "is_disabled": 0, "lon": -77.02656216666666, "name": "7cb1b68caa252c9b75fcb8b0e89a9b28", "fusion_lon": 0.0}, {"lat": 38.900683666666666, "fusion_lat": 0.0, "type": "electric_scooter", "bike_id": "ae8add86215df254aa7cfe084d98b4e0", "is_reserved": 0, "rental_uris": {"ios": "https://dc.lft.to/lastmile_qr_scan", "android": "https://dc.lft.to/lastmile_qr_scan"}, "is_disabled": 0, "lon": -76.9274555, "name": "ae8add86215df254aa7cfe084d98b4e0", "fusion_lon": 0.0}, {"lat": 38.894639, "fusion_lat": 0.0, "type": "electric_scooter", "bike_id": "45212b547b2a7177e597ed6b6600e7de", "is_reserved": 0, "rental_uris": {"ios": "https://dc.lft.to/lastmile_qr_scan", "android": "https://dc.lft.to/lastmile_qr_scan"}, "is_disabled": 0, "lon": -77.02265583333333, "name": "45212b547b2a7177e597ed6b6600e7de", "fusion_lon": 0.0}, {"lat": 38.907179166666666, "fusion_lat": 0.0, "type": "electric_scooter", "bike_id": "92318fcf14060789c803d7fa2c76cf0e", "is_reserved": 0, "rental_uris": {"ios": "https://dc.lft.to/lastmile_qr_scan", "android": "https://dc.lft.to/lastmile_qr_scan"}, "is_disabled": 0, "lon": -77.0146865, "name": "92318fcf14060789c803d7fa2c76cf0e", "fusion_lon": 0.0}, {"lat": 38.870118166666664, "fusion_lat": 0.0, "type": "electric_scooter", "bike_id": "4ec331876a3e82fdd63d3f2a892c2add", "is_reserved": 0, "rental_uris": {"ios": "https://dc.lft.to/lastmile_qr_scan", "android": "https://dc.lft.to/lastmile_qr_scan"}, "is_disabled": 0, "lon": -76.98080433333334, "name": "4ec331876a3e82fdd63d3f2a892c2add", "fusion_lon": 0.0}, {"lat": 38.89222816666667, "fusion_lat": 0.0, "type": "electric_scooter", "bike_id": "cf5c1af3d837588453976e5522ff8788", "is_reserved": 0, "rental_uris": {"ios": "https://dc.lft.to/lastmile_qr_scan", "android": "https://dc.lft.to/lastmile_qr_scan"}, "is_disabled": 0, "lon": -77.0486145, "name": "cf5c1af3d837588453976e5522ff8788", "fusion_lon": 0.0}, {"lat": 38.92327383333333, "fusion_lat": 0.0, "type": "electric_scooter", "bike_id": "ae80e1c073677c2d5e6a6250d5b37b36", "is_reserved": 0, "rental_uris": {"ios": "https://dc.lft.to/lastmile_qr_scan", "android": "https://dc.lft.to/lastmile_qr_scan"}, "is_disabled": 0, "lon": -77.02136233333333, "name": "ae80e1c073677c2d5e6a6250d5b37b36", "fusion_lon": 0.0}, {"lat": 38.9099105, "fusion_lat": 0.0, "type": "electric_scooter", "bike_id": "4176368a60e7b2c140c0715d8135a01e", "is_reserved": 0, "rental_uris": {"ios": "https://dc.lft.to/lastmile_qr_scan", "android": "https://dc.lft.to/lastmile_qr_scan"}, "is_disabled": 0, "lon": -77.03841783333333, "name": "4176368a60e7b2c140c0715d8135a01e", "fusion_lon": 0.0}, {"lat": 38.9235655, "fusion_lat": 0.0, "type": "electric_scooter", "bike_id": "95d9ddbb4d8df64ab88ae8d5fd366510", "is_reserved": 0, "rental_uris": {"ios": "https://dc.lft.to/lastmile_qr_scan", "android": "https://dc.lft.to/lastmile_qr_scan"}, "is_disabled": 0, "lon": -77.05103116666666, "name": "95d9ddbb4d8df64ab88ae8d5fd366510", "fusion_lon": 0.0}, {"lat": 38.831548833333336, "fusion_lat": 0.0, "type": "electric_scooter", "bike_id": "618b9b7fcb3306640348d6ef82b30361", "is_reserved": 0, "rental_uris": {"ios": "https://dc.lft.to/lastmile_qr_scan", "android": "https://dc.lft.to/lastmile_qr_scan"}, "is_disabled": 0, "lon": -77.051108, "name": "618b9b7fcb3306640348d6ef82b30361", "fusion_lon": 0.0}, {"lat": 38.801291666666664, "fusion_lat": 0.0, "type": "electric_bike", "bike_id": "e9cafd2a94333590d428a31f1dbe49cf", "is_reserved": 0, "rental_uris": {"ios": "https://dc.lft.to/lastmile_qr_scan", "android": "https://dc.lft.to/lastmile_qr_scan"}, "is_disabled": 0, "lon": -77.07050783333334, "name": "e9cafd2a94333590d428a31f1dbe49cf", "fusion_lon": 0.0}, {"lat": 38.93627266666667, "fusion_lat": 0.0, "type": "electric_bike", "bike_id": "9732d9c7767aa8976e159ce7966f9f35", "is_reserved": 0, "rental_uris": {"ios": "https://dc.lft.to/lastmile_qr_scan", "android": "https://dc.lft.to/lastmile_qr_scan"}, "is_disabled": 0, "lon": -77.090117, "name": "9732d9c7767aa8976e159ce7966f9f35", "fusion_lon": 0.0}, {"lat": 38.89960333333333, "fusion_lat": 0.0, "type": "electric_bike", "bike_id": "23c231461d5f132ae70812947e21fcb7", "is_reserved": 0, "rental_uris": {"ios": "https://dc.lft.to/lastmile_qr_scan", "android": "https://dc.lft.to/lastmile_qr_scan"}, "is_disabled": 0, "lon": -76.98662516666667, "name": "23c231461d5f132ae70812947e21fcb7", "fusion_lon": 0.0}, {"lat": 38.87936116666667, "fusion_lat": 0.0, "type": "electric_scooter", "bike_id": "6fa300f1f4d1fa5ab670437255699295", "is_reserved": 0, "rental_uris": {"ios": "https://dc.lft.to/lastmile_qr_scan", "android": "https://dc.lft.to/lastmile_qr_scan"}, "is_disabled": 0, "lon": -77.00063416666667, "name": "6fa300f1f4d1fa5ab670437255699295", "fusion_lon": 0.0}, {"lat": 38.9280115, "fusion_lat": 0.0, "type": "electric_scooter", "bike_id": "45aeb772ffb83b2253150ce8a696359a", "is_reserved": 0, "rental_uris": {"ios": "https://dc.lft.to/lastmile_qr_scan", "android": "https://dc.lft.to/lastmile_qr_scan"}, "is_disabled": 0, "lon": -77.01405, "name": "45aeb772ffb83b2253150ce8a696359a", "fusion_lon": 0.0}, {"lat": 38.89899533333333, "fusion_lat": 0.0, "type": "electric_scooter", "bike_id": "386deff3bc0bf187309d4526c2e686ce", "is_reserved": 0, "rental_uris": {"ios": "https://dc.lft.to/lastmile_qr_scan", "android": "https://dc.lft.to/lastmile_qr_scan"}, "is_disabled": 0, "lon": -77.0399025, "name": "386deff3bc0bf187309d4526c2e686ce", "fusion_lon": 0.0}, {"lat": 38.907354, "fusion_lat": 0.0, "type": "electric_scooter", "bike_id": "01e020d2d2adab7004a2d5417fcac9b4", "is_reserved": 0, "rental_uris": {"ios": "https://dc.lft.to/lastmile_qr_scan", "android": "https://dc.lft.to/lastmile_qr_scan"}, "is_disabled": 0, "lon": -76.9797, "name": "01e020d2d2adab7004a2d5417fcac9b4", "fusion_lon": 0.0}, {"lat": 38.863894, "fusion_lat": 0.0, "type": "electric_scooter", "bike_id": "6ce163868998921a80e00fc967c5401c", "is_reserved": 0, "rental_uris": {"ios": "https://dc.lft.to/lastmile_qr_scan", "android": "https://dc.lft.to/lastmile_qr_scan"}, "is_disabled": 0, "lon": -76.99042183333333, "name": "6ce163868998921a80e00fc967c5401c", "fusion_lon": 0.0}, {"lat": 38.90958466666667, "fusion_lat": 0.0, "type": "electric_scooter", "bike_id": "321aeba3b811e0b895e45e092f3636ef", "is_reserved": 0, "rental_uris": {"ios": "https://dc.lft.to/lastmile_qr_scan", "android": "https://dc.lft.to/lastmile_qr_scan"}, "is_disabled": 0, "lon": -77.02686433333334, "name": "321aeba3b811e0b895e45e092f3636ef", "fusion_lon": 0.0}, {"lat": 38.9005075, "fusion_lat": 0.0, "type": "electric_scooter", "bike_id": "b47b77f19fdafe5b92ab345e222119a0", "is_reserved": 0, "rental_uris": {"ios": "https://dc.lft.to/lastmile_qr_scan", "android": "https://dc.lft.to/lastmile_qr_scan"}, "is_disabled": 0, "lon": -76.91935266666667, "name": "b47b77f19fdafe5b92ab345e222119a0", "fusion_lon": 0.0}, {"lat": 38.92870683333334, "fusion_lat": 0.0, "type": "electric_scooter", "bike_id": "c31b5a8077ba841777c10fffebe671f8", "is_reserved": 0, "rental_uris": {"ios": "https://dc.lft.to/lastmile_qr_scan", "android": "https://dc.lft.to/lastmile_qr_scan"}, "is_disabled": 0, "lon": -77.03288716666667, "name": "c31b5a8077ba841777c10fffebe671f8", "fusion_lon": 0.0}, {"lat": 38.927653166666666, "fusion_lat": 0.0, "type": "electric_bike", "bike_id": "8bf8bbaaf8478cc7f21d3a7122385fc8", "is_reserved": 0, "rental_uris": {"ios": "https://dc.lft.to/lastmile_qr_scan", "android": "https://dc.lft.to/lastmile_qr_scan"}, "is_disabled": 0, "lon": -77.070111, "name": "8bf8bbaaf8478cc7f21d3a7122385fc8", "fusion_lon": 0.0}, {"lat": 38.90560833333333, "fusion_lat": 0.0, "type": "electric_scooter", "bike_id": "6e045b3ddd0f3205e9cd82570f6efbe7", "is_reserved": 0, "rental_uris": {"ios": "https://dc.lft.to/lastmile_qr_scan", "android": "https://dc.lft.to/lastmile_qr_scan"}, "is_disabled": 0, "lon": -77.041836, "name": "6e045b3ddd0f3205e9cd82570f6efbe7", "fusion_lon": 0.0}, {"lat": 38.896191, "fusion_lat": 0.0, "type": "electric_scooter", "bike_id": "42df56aa2e41e037a18a09a6466bd235", "is_reserved": 0, "rental_uris": {"ios": "https://dc.lft.to/lastmile_qr_scan", "android": "https://dc.lft.to/lastmile_qr_scan"}, "is_disabled": 0, "lon": -77.02145783333333, "name": "42df56aa2e41e037a18a09a6466bd235", "fusion_lon": 0.0}, {"lat": 38.9076165, "fusion_lat": 0.0, "type": "electric_scooter", "bike_id": "74b6dbc39c66ff206664d4d6a8e5b4e0", "is_reserved": 0, "rental_uris": {"ios": "https://dc.lft.to/lastmile_qr_scan", "android": "https://dc.lft.to/lastmile_qr_scan"}, "is_disabled": 0, "lon": -77.03458866666666, "name": "74b6dbc39c66ff206664d4d6a8e5b4e0", "fusion_lon": 0.0}, {"lat": 38.90685416666667, "fusion_lat": 0.0, "type": "electric_scooter", "bike_id": "dcd0f66c70f7742c2f3e3f7a28dd768a", "is_reserved": 0, "rental_uris": {"ios": "https://dc.lft.to/lastmile_qr_scan", "android": "https://dc.lft.to/lastmile_qr_scan"}, "is_disabled": 0, "lon": -77.0448255, "name": "dcd0f66c70f7742c2f3e3f7a28dd768a", "fusion_lon": 0.0}, {"lat": 38.89896516666667, "fusion_lat": 0.0, "type": "electric_scooter", "bike_id": "c9ec84d2f38bfc9cc7f966de3574fa12", "is_reserved": 0, "rental_uris": {"ios": "https://dc.lft.to/lastmile_qr_scan", "android": "https://dc.lft.to/lastmile_qr_scan"}, "is_disabled": 0, "lon": -76.976142, "name": "c9ec84d2f38bfc9cc7f966de3574fa12", "fusion_lon": 0.0}, {"lat": 38.92517683333333, "fusion_lat": 0.0, "type": "electric_scooter", "bike_id": "be32689bb47a7f3ff5a8cb7c0aadc641", "is_reserved": 0, "rental_uris": {"ios": "https://dc.lft.to/lastmile_qr_scan", "android": "https://dc.lft.to/lastmile_qr_scan"}, "is_disabled": 0, "lon": -77.052555, "name": "be32689bb47a7f3ff5a8cb7c0aadc641", "fusion_lon": 0.0}, {"lat": 38.927866, "fusion_lat": 0.0, "type": "electric_scooter", "bike_id": "02c79bb11f82b83e41a7164896d2bcfa", "is_reserved": 0, "rental_uris": {"ios": "https://dc.lft.to/lastmile_qr_scan", "android": "https://dc.lft.to/lastmile_qr_scan"}, "is_disabled": 0, "lon": -77.01411716666667, "name": "02c79bb11f82b83e41a7164896d2bcfa", "fusion_lon": 0.0}, {"lat": 38.919129, "fusion_lat": 0.0, "type": "electric_scooter", "bike_id": "52763cda765c30362bdfa25215d1f50a", "is_reserved": 0, "rental_uris": {"ios": "https://dc.lft.to/lastmile_qr_scan", "android": "https://dc.lft.to/lastmile_qr_scan"}, "is_disabled": 0, "lon": -77.02491316666666, "name": "52763cda765c30362bdfa25215d1f50a", "fusion_lon": 0.0}, {"lat": 38.9212415, "fusion_lat": 0.0, "type": "electric_scooter", "bike_id": "55d9466dddddd0cd9e34482ff3682f2c", "is_reserved": 0, "rental_uris": {"ios": "https://dc.lft.to/lastmile_qr_scan", "android": "https://dc.lft.to/lastmile_qr_scan"}, "is_disabled": 0, "lon": -77.04569316666667, "name": "55d9466dddddd0cd9e34482ff3682f2c", "fusion_lon": 0.0}, {"lat": 38.9005345, "fusion_lat": 0.0, "type": "electric_scooter", "bike_id": "f06c8c2a421d662957358fe6db7e32f6", "is_reserved": 0, "rental_uris": {"ios": "https://dc.lft.to/lastmile_qr_scan", "android": "https://dc.lft.to/lastmile_qr_scan"}, "is_disabled": 0, "lon": -77.0291145, "name": "f06c8c2a421d662957358fe6db7e32f6", "fusion_lon": 0.0}, {"lat": 38.922905, "fusion_lat": 0.0, "type": "electric_scooter", "bike_id": "d50825dd17f0a232b47fe9feebfc1167", "is_reserved": 0, "rental_uris": {"ios": "https://dc.lft.to/lastmile_qr_scan", "android": "https://dc.lft.to/lastmile_qr_scan"}, "is_disabled": 0, "lon": -77.0421975, "name": "d50825dd17f0a232b47fe9feebfc1167", "fusion_lon": 0.0}, {"lat": 38.907129833333336, "fusion_lat": 0.0, "type": "electric_scooter", "bike_id": "ed2441ffb16ea236a40f8202ba588ce1", "is_reserved": 0, "rental_uris": {"ios": "https://dc.lft.to/lastmile_qr_scan", "android": "https://dc.lft.to/lastmile_qr_scan"}, "is_disabled": 0, "lon": -77.0101225, "name": "ed2441ffb16ea236a40f8202ba588ce1", "fusion_lon": 0.0}, {"lat": 38.918198, "fusion_lat": 0.0, "type": "electric_scooter", "bike_id": "795fae4c63e0b937eec0ba40e406d375", "is_reserved": 0, "rental_uris": {"ios": "https://dc.lft.to/lastmile_qr_scan", "android": "https://dc.lft.to/lastmile_qr_scan"}, "is_disabled": 0, "lon": -77.02490716666667, "name": "795fae4c63e0b937eec0ba40e406d375", "fusion_lon": 0.0}, {"lat": 38.927413, "fusion_lat": 0.0, "type": "electric_scooter", "bike_id": "e726ee4e770d834c62c181ea220d2579", "is_reserved": 0, "rental_uris": {"ios": "https://dc.lft.to/lastmile_qr_scan", "android": "https://dc.lft.to/lastmile_qr_scan"}, "is_disabled": 0, "lon": -77.02228683333334, "name": "e726ee4e770d834c62c181ea220d2579", "fusion_lon": 0.0}, {"lat": 38.911297, "fusion_lat": 0.0, "type": "electric_scooter", "bike_id": "d6f8a2c73d9c88233468a86063b819c7", "is_reserved": 0, "rental_uris": {"ios": "https://dc.lft.to/lastmile_qr_scan", "android": "https://dc.lft.to/lastmile_qr_scan"}, "is_disabled": 0, "lon": -77.03829483333334, "name": "d6f8a2c73d9c88233468a86063b819c7", "fusion_lon": 0.0}, {"lat": 38.892251, "fusion_lat": 0.0, "type": "electric_scooter", "bike_id": "91a8352204ba66397ef49b8bce637f15", "is_reserved": 0, "rental_uris": {"ios": "https://dc.lft.to/lastmile_qr_scan", "android": "https://dc.lft.to/lastmile_qr_scan"}, "is_disabled": 0, "lon": -77.02346366666667, "name": "91a8352204ba66397ef49b8bce637f15", "fusion_lon": 0.0}, {"lat": 38.928735833333334, "fusion_lat": 0.0, "type": "electric_scooter", "bike_id": "b8623b157b61360abfe62edefd5ada27", "is_reserved": 0, "rental_uris": {"ios": "https://dc.lft.to/lastmile_qr_scan", "android": "https://dc.lft.to/lastmile_qr_scan"}, "is_disabled": 0, "lon": -77.01373516666666, "name": "b8623b157b61360abfe62edefd5ada27", "fusion_lon": 0.0}, {"lat": 38.893974666666665, "fusion_lat": 0.0, "type": "electric_scooter", "bike_id": "274da266f53d8b34d79ed9970f56ef2d", "is_reserved": 0, "rental_uris": {"ios": "https://dc.lft.to/lastmile_qr_scan", "android": "https://dc.lft.to/lastmile_qr_scan"}, "is_disabled": 0, "lon": -77.022595, "name": "274da266f53d8b34d79ed9970f56ef2d", "fusion_lon": 0.0}, {"lat": 38.928644166666665, "fusion_lat": 0.0, "type": "electric_scooter", "bike_id": "0ab5433f1ac76140edd116651af8fd55", "is_reserved": 0, "rental_uris": {"ios": "https://dc.lft.to/lastmile_qr_scan", "android": "https://dc.lft.to/lastmile_qr_scan"}, "is_disabled": 0, "lon": -77.03403866666666, "name": "0ab5433f1ac76140edd116651af8fd55", "fusion_lon": 0.0}, {"lat": 38.91565633333333, "fusion_lat": 0.0, "type": "electric_scooter", "bike_id": "76d681a0d5071fabd3ba2f92cdf4e398", "is_reserved": 0, "rental_uris": {"ios": "https://dc.lft.to/lastmile_qr_scan", "android": "https://dc.lft.to/lastmile_qr_scan"}, "is_disabled": 0, "lon": -77.0428635, "name": "76d681a0d5071fabd3ba2f92cdf4e398", "fusion_lon": 0.0}, {"lat": 38.876206333333336, "fusion_lat": 0.0, "type": "electric_scooter", "bike_id": "b8699327ebc9914590e21bdaf6f62d8c", "is_reserved": 0, "rental_uris": {"ios": "https://dc.lft.to/lastmile_qr_scan", "android": "https://dc.lft.to/lastmile_qr_scan"}, "is_disabled": 0, "lon": -77.003834, "name": "b8699327ebc9914590e21bdaf6f62d8c", "fusion_lon": 0.0}, {"lat": 38.9110295, "fusion_lat": 0.0, "type": "electric_scooter", "bike_id": "7202b72be11eb4f5179a397017c678c4", "is_reserved": 0, "rental_uris": {"ios": "https://dc.lft.to/lastmile_qr_scan", "android": "https://dc.lft.to/lastmile_qr_scan"}, "is_disabled": 0, "lon": -77.02504416666666, "name": "7202b72be11eb4f5179a397017c678c4", "fusion_lon": 0.0}, {"lat": 38.9056945, "fusion_lat": 0.0, "type": "electric_scooter", "bike_id": "7eb75adf4d1b9920c418c75f63d5d066", "is_reserved": 0, "rental_uris": {"ios": "https://dc.lft.to/lastmile_qr_scan", "android": "https://dc.lft.to/lastmile_qr_scan"}, "is_disabled": 0, "lon": -77.0344655, "name": "7eb75adf4d1b9920c418c75f63d5d066", "fusion_lon": 0.0}, {"lat": 38.902866333333336, "fusion_lat": 0.0, "type": "electric_scooter", "bike_id": "b4ffd424f44d4731ac61493a98e21c12", "is_reserved": 0, "rental_uris": {"ios": "https://dc.lft.to/lastmile_qr_scan", "android": "https://dc.lft.to/lastmile_qr_scan"}, "is_disabled": 0, "lon": -77.02265383333334, "name": "b4ffd424f44d4731ac61493a98e21c12", "fusion_lon": 0.0}, {"lat": 38.90944733333333, "fusion_lat": 0.0, "type": "electric_scooter", "bike_id": "6568779bfb1d21ef2a3e3a864f12bbb4", "is_reserved": 0, "rental_uris": {"ios": "https://dc.lft.to/lastmile_qr_scan", "android": "https://dc.lft.to/lastmile_qr_scan"}, "is_disabled": 0, "lon": -77.0493955, "name": "6568779bfb1d21ef2a3e3a864f12bbb4", "fusion_lon": 0.0}, {"lat": 38.906706166666666, "fusion_lat": 0.0, "type": "electric_scooter", "bike_id": "d58de5b4c6d075f0f947425d18eddb8e", "is_reserved": 0, "rental_uris": {"ios": "https://dc.lft.to/lastmile_qr_scan", "android": "https://dc.lft.to/lastmile_qr_scan"}, "is_disabled": 0, "lon": -77.03753533333334, "name": "d58de5b4c6d075f0f947425d18eddb8e", "fusion_lon": 0.0}, {"lat": 38.92417433333333, "fusion_lat": 0.0, "type": "electric_scooter", "bike_id": "78a1f4367db76182fd9db34f8737ced7", "is_reserved": 0, "rental_uris": {"ios": "https://dc.lft.to/lastmile_qr_scan", "android": "https://dc.lft.to/lastmile_qr_scan"}, "is_disabled": 0, "lon": -77.05067083333333, "name": "78a1f4367db76182fd9db34f8737ced7", "fusion_lon": 0.0}, {"lat": 38.90012866666667, "fusion_lat": 0.0, "type": "electric_scooter", "bike_id": "62ce0167fba9aab24c29747ec671ea64", "is_reserved": 0, "rental_uris": {"ios": "https://dc.lft.to/lastmile_qr_scan", "android": "https://dc.lft.to/lastmile_qr_scan"}, "is_disabled": 0, "lon": -76.9800595, "name": "62ce0167fba9aab24c29747ec671ea64", "fusion_lon": 0.0}, {"lat": 38.831470833333334, "fusion_lat": 0.0, "type": "electric_scooter", "bike_id": "3933cbb25aa49ff40971350f12e6082a", "is_reserved": 0, "rental_uris": {"ios": "https://dc.lft.to/lastmile_qr_scan", "android": "https://dc.lft.to/lastmile_qr_scan"}, "is_disabled": 0, "lon": -77.0510665, "name": "3933cbb25aa49ff40971350f12e6082a", "fusion_lon": 0.0}, {"lat": 38.86245616666667, "fusion_lat": 0.0, "type": "electric_scooter", "bike_id": "9c0de470f35dd12622e80a24344eaeb3", "is_reserved": 0, "rental_uris": {"ios": "https://dc.lft.to/lastmile_qr_scan", "android": "https://dc.lft.to/lastmile_qr_scan"}, "is_disabled": 0, "lon": -76.99495716666667, "name": "9c0de470f35dd12622e80a24344eaeb3", "fusion_lon": 0.0}, {"lat": 38.9367215, "fusion_lat": 0.0, "type": "electric_scooter", "bike_id": "b1e8ee60e3cedbbfbc2c0efa89ee75ba", "is_reserved": 0, "rental_uris": {"ios": "https://dc.lft.to/lastmile_qr_scan", "android": "https://dc.lft.to/lastmile_qr_scan"}, "is_disabled": 0, "lon": -77.03564533333333, "name": "b1e8ee60e3cedbbfbc2c0efa89ee75ba", "fusion_lon": 0.0}, {"lat": 38.903824, "fusion_lat": 0.0, "type": "electric_scooter", "bike_id": "d257dba4591dd5b47adfaa5066bc3bc7", "is_reserved": 0, "rental_uris": {"ios": "https://dc.lft.to/lastmile_qr_scan", "android": "https://dc.lft.to/lastmile_qr_scan"}, "is_disabled": 0, "lon": -77.03015783333333, "name": "d257dba4591dd5b47adfaa5066bc3bc7", "fusion_lon": 0.0}, {"lat": 38.902140333333335, "fusion_lat": 0.0, "type": "electric_scooter", "bike_id": "9ed594ae44a16dc7f99ce9a218778518", "is_reserved": 0, "rental_uris": {"ios": "https://dc.lft.to/lastmile_qr_scan", "android": "https://dc.lft.to/lastmile_qr_scan"}, "is_disabled": 0, "lon": -77.0440525, "name": "9ed594ae44a16dc7f99ce9a218778518", "fusion_lon": 0.0}, {"lat": 38.907537, "fusion_lat": 0.0, "type": "electric_scooter", "bike_id": "91957e00b09bcc03c894853542c0f189", "is_reserved": 0, "rental_uris": {"ios": "https://dc.lft.to/lastmile_qr_scan", "android": "https://dc.lft.to/lastmile_qr_scan"}, "is_disabled": 0, "lon": -77.031942, "name": "91957e00b09bcc03c894853542c0f189", "fusion_lon": 0.0}, {"lat": 38.88299666666666, "fusion_lat": 0.0, "type": "electric_scooter", "bike_id": "3fcd8eb816438dda32b5567ff268ad50", "is_reserved": 0, "rental_uris": {"ios": "https://dc.lft.to/lastmile_qr_scan", "android": "https://dc.lft.to/lastmile_qr_scan"}, "is_disabled": 0, "lon": -77.02555216666667, "name": "3fcd8eb816438dda32b5567ff268ad50", "fusion_lon": 0.0}, {"lat": 38.92348883333333, "fusion_lat": 0.0, "type": "electric_scooter", "bike_id": "c57e5b60c34c83d51ecbfbd400bd0d53", "is_reserved": 0, "rental_uris": {"ios": "https://dc.lft.to/lastmile_qr_scan", "android": "https://dc.lft.to/lastmile_qr_scan"}, "is_disabled": 0, "lon": -77.05080483333333, "name": "c57e5b60c34c83d51ecbfbd400bd0d53", "fusion_lon": 0.0}, {"lat": 38.91635083333333, "fusion_lat": 0.0, "type": "electric_scooter", "bike_id": "60628087cb5a77388658fb1f10586fab", "is_reserved": 0, "rental_uris": {"ios": "https://dc.lft.to/lastmile_qr_scan", "android": "https://dc.lft.to/lastmile_qr_scan"}, "is_disabled": 0, "lon": -77.03184366666666, "name": "60628087cb5a77388658fb1f10586fab", "fusion_lon": 0.0}, {"lat": 38.96141166666666, "fusion_lat": 0.0, "type": "electric_scooter", "bike_id": "fea4d6f7cf46f8a8985002d03804f403", "is_reserved": 0, "rental_uris": {"ios": "https://dc.lft.to/lastmile_qr_scan", "android": "https://dc.lft.to/lastmile_qr_scan"}, "is_disabled": 0, "lon": -77.02784733333333, "name": "fea4d6f7cf46f8a8985002d03804f403", "fusion_lon": 0.0}, {"lat": 38.928766, "fusion_lat": 0.0, "type": "electric_scooter", "bike_id": "222ceac1412dcd45c73863683ee29abe", "is_reserved": 0, "rental_uris": {"ios": "https://dc.lft.to/lastmile_qr_scan", "android": "https://dc.lft.to/lastmile_qr_scan"}, "is_disabled": 0, "lon": -77.01230033333333, "name": "222ceac1412dcd45c73863683ee29abe", "fusion_lon": 0.0}, {"lat": 39.014792, "fusion_lat": 0.0, "type": "electric_bike", "bike_id": "576c6b412d55821a0efb6a0618d36cb2", "is_reserved": 0, "rental_uris": {"ios": "https://dc.lft.to/lastmile_qr_scan", "android": "https://dc.lft.to/lastmile_qr_scan"}, "is_disabled": 0, "lon": -77.05493866666667, "name": "576c6b412d55821a0efb6a0618d36cb2", "fusion_lon": 0.0}, {"lat": 38.87398016666667, "fusion_lat": 0.0, "type": "electric_scooter", "bike_id": "7358f9f5c0739cdd35a4aeca43cda96d", "is_reserved": 0, "rental_uris": {"ios": "https://dc.lft.to/lastmile_qr_scan", "android": "https://dc.lft.to/lastmile_qr_scan"}, "is_disabled": 0, "lon": -77.00029783333333, "name": "7358f9f5c0739cdd35a4aeca43cda96d", "fusion_lon": 0.0}, {"lat": 38.92125016666667, "fusion_lat": 0.0, "type": "electric_scooter", "bike_id": "44d46795c63a4c61a4b63e751bb9e157", "is_reserved": 0, "rental_uris": {"ios": "https://dc.lft.to/lastmile_qr_scan", "android": "https://dc.lft.to/lastmile_qr_scan"}, "is_disabled": 0, "lon": -77.01206883333333, "name": "44d46795c63a4c61a4b63e751bb9e157", "fusion_lon": 0.0}, {"lat": 38.920537833333334, "fusion_lat": 0.0, "type": "electric_scooter", "bike_id": "01b9906b4adbbcd3ad2ac99992005bf6", "is_reserved": 0, "rental_uris": {"ios": "https://dc.lft.to/lastmile_qr_scan", "android": "https://dc.lft.to/lastmile_qr_scan"}, "is_disabled": 0, "lon": -77.02404533333333, "name": "01b9906b4adbbcd3ad2ac99992005bf6", "fusion_lon": 0.0}, {"lat": 38.91115516666667, "fusion_lat": 0.0, "type": "electric_scooter", "bike_id": "ce318afed01adf515b75a1dd2c22a98e", "is_reserved": 0, "rental_uris": {"ios": "https://dc.lft.to/lastmile_qr_scan", "android": "https://dc.lft.to/lastmile_qr_scan"}, "is_disabled": 0, "lon": -77.03810366666667, "name": "ce318afed01adf515b75a1dd2c22a98e", "fusion_lon": 0.0}, {"lat": 38.9034065, "fusion_lat": 0.0, "type": "electric_scooter", "bike_id": "c06869ab11400f595daa66fce8ef5d43", "is_reserved": 0, "rental_uris": {"ios": "https://dc.lft.to/lastmile_qr_scan", "android": "https://dc.lft.to/lastmile_qr_scan"}, "is_disabled": 0, "lon": -77.05318516666667, "name": "c06869ab11400f595daa66fce8ef5d43", "fusion_lon": 0.0}, {"lat": 38.91201783333333, "fusion_lat": 0.0, "type": "electric_scooter", "bike_id": "80e3c58acd9ba98e7bb895a1df946977", "is_reserved": 0, "rental_uris": {"ios": "https://dc.lft.to/lastmile_qr_scan", "android": "https://dc.lft.to/lastmile_qr_scan"}, "is_disabled": 0, "lon": -77.02342583333333, "name": "80e3c58acd9ba98e7bb895a1df946977", "fusion_lon": 0.0}, {"lat": 38.9185765, "fusion_lat": 0.0, "type": "electric_scooter", "bike_id": "65a07d3c1fa5c484619fc2a2d7930e1c", "is_reserved": 0, "rental_uris": {"ios": "https://dc.lft.to/lastmile_qr_scan", "android": "https://dc.lft.to/lastmile_qr_scan"}, "is_disabled": 0, "lon": -77.0271375, "name": "65a07d3c1fa5c484619fc2a2d7930e1c", "fusion_lon": 0.0}, {"lat": 38.90719166666667, "fusion_lat": 0.0, "type": "electric_scooter", "bike_id": "f44786b7dc9de951e22eac6aee057fd6", "is_reserved": 0, "rental_uris": {"ios": "https://dc.lft.to/lastmile_qr_scan", "android": "https://dc.lft.to/lastmile_qr_scan"}, "is_disabled": 0, "lon": -77.02946783333333, "name": "f44786b7dc9de951e22eac6aee057fd6", "fusion_lon": 0.0}, {"lat": 38.8747885, "fusion_lat": 0.0, "type": "electric_bike", "bike_id": "ee332fb5cc4ed737428d3111070d6e43", "is_reserved": 0, "rental_uris": {"ios": "https://dc.lft.to/lastmile_qr_scan", "android": "https://dc.lft.to/lastmile_qr_scan"}, "is_disabled": 0, "lon": -76.9652855, "name": "ee332fb5cc4ed737428d3111070d6e43", "fusion_lon": 0.0}, {"lat": 38.914148833333336, "fusion_lat": 0.0, "type": "electric_scooter", "bike_id": "1e3ecb339a578bccc617bf7de58ea908", "is_reserved": 0, "rental_uris": {"ios": "https://dc.lft.to/lastmile_qr_scan", "android": "https://dc.lft.to/lastmile_qr_scan"}, "is_disabled": 0, "lon": -77.049142, "name": "1e3ecb339a578bccc617bf7de58ea908", "fusion_lon": 0.0}, {"lat": 38.90172183333333, "fusion_lat": 0.0, "type": "electric_scooter", "bike_id": "7741935ad26e30756a3c37f48ba64b98", "is_reserved": 0, "rental_uris": {"ios": "https://dc.lft.to/lastmile_qr_scan", "android": "https://dc.lft.to/lastmile_qr_scan"}, "is_disabled": 0, "lon": -76.93026916666666, "name": "7741935ad26e30756a3c37f48ba64b98", "fusion_lon": 0.0}, {"lat": 38.928713333333334, "fusion_lat": 0.0, "type": "electric_scooter", "bike_id": "0280fe40c09e06df29ff6399396e4d98", "is_reserved": 0, "rental_uris": {"ios": "https://dc.lft.to/lastmile_qr_scan", "android": "https://dc.lft.to/lastmile_qr_scan"}, "is_disabled": 0, "lon": -77.03408283333333, "name": "0280fe40c09e06df29ff6399396e4d98", "fusion_lon": 0.0}, {"lat": 38.89734833333333, "fusion_lat": 0.0, "type": "electric_scooter", "bike_id": "733307e5d0b14dadf59c83b39160b566", "is_reserved": 0, "rental_uris": {"ios": "https://dc.lft.to/lastmile_qr_scan", "android": "https://dc.lft.to/lastmile_qr_scan"}, "is_disabled": 0, "lon": -76.99753333333334, "name": "733307e5d0b14dadf59c83b39160b566", "fusion_lon": 0.0}, {"lat": 38.8973645, "fusion_lat": 0.0, "type": "electric_scooter", "bike_id": "e1baf651101d65f41a9458552e965d0d", "is_reserved": 0, "rental_uris": {"ios": "https://dc.lft.to/lastmile_qr_scan", "android": "https://dc.lft.to/lastmile_qr_scan"}, "is_disabled": 0, "lon": -77.00370716666667, "name": "e1baf651101d65f41a9458552e965d0d", "fusion_lon": 0.0}, {"lat": 38.92346466666667, "fusion_lat": 0.0, "type": "electric_scooter", "bike_id": "8b55429389974006da7d3b1c186e21ad", "is_reserved": 0, "rental_uris": {"ios": "https://dc.lft.to/lastmile_qr_scan", "android": "https://dc.lft.to/lastmile_qr_scan"}, "is_disabled": 0, "lon": -77.051053, "name": "8b55429389974006da7d3b1c186e21ad", "fusion_lon": 0.0}, {"lat": 38.91755416666667, "fusion_lat": 0.0, "type": "electric_scooter", "bike_id": "895fef7f2c5ba0cddc423989b5c3bd98", "is_reserved": 0, "rental_uris": {"ios": "https://dc.lft.to/lastmile_qr_scan", "android": "https://dc.lft.to/lastmile_qr_scan"}, "is_disabled": 0, "lon": -77.02819333333333, "name": "895fef7f2c5ba0cddc423989b5c3bd98", "fusion_lon": 0.0}, {"lat": 38.874712833333334, "fusion_lat": 0.0, "type": "electric_scooter", "bike_id": "a4bbcd0123a12e9aa016f60e7871fa85", "is_reserved": 0, "rental_uris": {"ios": "https://dc.lft.to/lastmile_qr_scan", "android": "https://dc.lft.to/lastmile_qr_scan"}, "is_disabled": 0, "lon": -77.00556566666667, "name": "a4bbcd0123a12e9aa016f60e7871fa85", "fusion_lon": 0.0}, {"lat": 38.90749983333333, "fusion_lat": 0.0, "type": "electric_scooter", "bike_id": "abb46460cafca452a99e1dd0c5f1364b", "is_reserved": 0, "rental_uris": {"ios": "https://dc.lft.to/lastmile_qr_scan", "android": "https://dc.lft.to/lastmile_qr_scan"}, "is_disabled": 0, "lon": -77.0318985, "name": "abb46460cafca452a99e1dd0c5f1364b", "fusion_lon": 0.0}, {"lat": 38.92414566666667, "fusion_lat": 0.0, "type": "electric_scooter", "bike_id": "457b863c0b8892e487a3f9e562ce911e", "is_reserved": 0, "rental_uris": {"ios": "https://dc.lft.to/lastmile_qr_scan", "android": "https://dc.lft.to/lastmile_qr_scan"}, "is_disabled": 0, "lon": -77.05062333333333, "name": "457b863c0b8892e487a3f9e562ce911e", "fusion_lon": 0.0}, {"lat": 38.93196366666667, "fusion_lat": 0.0, "type": "electric_scooter", "bike_id": "57ea130aedaf75a11c01d44639d8a910", "is_reserved": 0, "rental_uris": {"ios": "https://dc.lft.to/lastmile_qr_scan", "android": "https://dc.lft.to/lastmile_qr_scan"}, "is_disabled": 0, "lon": -77.045329, "name": "57ea130aedaf75a11c01d44639d8a910", "fusion_lon": 0.0}, {"lat": 38.981359, "fusion_lat": 0.0, "type": "electric_bike", "bike_id": "284f174a934d162f588dad38649379e4", "is_reserved": 0, "rental_uris": {"ios": "https://dc.lft.to/lastmile_qr_scan", "android": "https://dc.lft.to/lastmile_qr_scan"}, "is_disabled": 0, "lon": -77.09262083333333, "name": "284f174a934d162f588dad38649379e4", "fusion_lon": 0.0}, {"lat": 38.908339, "fusion_lat": 0.0, "type": "electric_scooter", "bike_id": "485acd92bd240814b7c3a3269bf11885", "is_reserved": 0, "rental_uris": {"ios": "https://dc.lft.to/lastmile_qr_scan", "android": "https://dc.lft.to/lastmile_qr_scan"}, "is_disabled": 0, "lon": -77.04329566666667, "name": "485acd92bd240814b7c3a3269bf11885", "fusion_lon": 0.0}, {"lat": 38.92492466666667, "fusion_lat": 0.0, "type": "electric_scooter", "bike_id": "b508ffbdb97cd30e2c3e72dbbc83c1ba", "is_reserved": 0, "rental_uris": {"ios": "https://dc.lft.to/lastmile_qr_scan", "android": "https://dc.lft.to/lastmile_qr_scan"}, "is_disabled": 0, "lon": -77.0525475, "name": "b508ffbdb97cd30e2c3e72dbbc83c1ba", "fusion_lon": 0.0}, {"lat": 38.90047166666667, "fusion_lat": 0.0, "type": "electric_scooter", "bike_id": "feb887e18d5802a61ae71f498bb80a51", "is_reserved": 0, "rental_uris": {"ios": "https://dc.lft.to/lastmile_qr_scan", "android": "https://dc.lft.to/lastmile_qr_scan"}, "is_disabled": 0, "lon": -76.988291, "name": "feb887e18d5802a61ae71f498bb80a51", "fusion_lon": 0.0}, {"lat": 38.907296333333335, "fusion_lat": 0.0, "type": "electric_scooter", "bike_id": "0436a859269069cddb6070be5ac6dafa", "is_reserved": 0, "rental_uris": {"ios": "https://dc.lft.to/lastmile_qr_scan", "android": "https://dc.lft.to/lastmile_qr_scan"}, "is_disabled": 0, "lon": -77.03215616666667, "name": "0436a859269069cddb6070be5ac6dafa", "fusion_lon": 0.0}, {"lat": 38.91633783333333, "fusion_lat": 0.0, "type": "electric_scooter", "bike_id": "751971ca8721dac6e04455796f595720", "is_reserved": 0, "rental_uris": {"ios": "https://dc.lft.to/lastmile_qr_scan", "android": "https://dc.lft.to/lastmile_qr_scan"}, "is_disabled": 0, "lon": -77.02552516666667, "name": "751971ca8721dac6e04455796f595720", "fusion_lon": 0.0}, {"lat": 38.9102435, "fusion_lat": 0.0, "type": "electric_scooter", "bike_id": "b92ffadad3714dbd5fd17ce9ea1f7e58", "is_reserved": 0, "rental_uris": {"ios": "https://dc.lft.to/lastmile_qr_scan", "android": "https://dc.lft.to/lastmile_qr_scan"}, "is_disabled": 0, "lon": -77.03662183333333, "name": "b92ffadad3714dbd5fd17ce9ea1f7e58", "fusion_lon": 0.0}, {"lat": 38.90653566666667, "fusion_lat": 0.0, "type": "electric_scooter", "bike_id": "fda419c0efa1a71e8a7356a728efd029", "is_reserved": 0, "rental_uris": {"ios": "https://dc.lft.to/lastmile_qr_scan", "android": "https://dc.lft.to/lastmile_qr_scan"}, "is_disabled": 0, "lon": -77.001859, "name": "fda419c0efa1a71e8a7356a728efd029", "fusion_lon": 0.0}, {"lat": 38.919679333333335, "fusion_lat": 0.0, "type": "electric_scooter", "bike_id": "50ec4a752968f6cdb7ec671a7697c8db", "is_reserved": 0, "rental_uris": {"ios": "https://dc.lft.to/lastmile_qr_scan", "android": "https://dc.lft.to/lastmile_qr_scan"}, "is_disabled": 0, "lon": -77.012081, "name": "50ec4a752968f6cdb7ec671a7697c8db", "fusion_lon": 0.0}, {"lat": 38.90963566666667, "fusion_lat": 0.0, "type": "electric_scooter", "bike_id": "eaa96237c0a005aa67e13d4c53f60e61", "is_reserved": 0, "rental_uris": {"ios": "https://dc.lft.to/lastmile_qr_scan", "android": "https://dc.lft.to/lastmile_qr_scan"}, "is_disabled": 0, "lon": -77.03953133333333, "name": "eaa96237c0a005aa67e13d4c53f60e61", "fusion_lon": 0.0}, {"lat": 38.899648166666665, "fusion_lat": 0.0, "type": "electric_scooter", "bike_id": "30b65530ca56fe4ab884100a1d9da337", "is_reserved": 0, "rental_uris": {"ios": "https://dc.lft.to/lastmile_qr_scan", "android": "https://dc.lft.to/lastmile_qr_scan"}, "is_disabled": 0, "lon": -77.01506166666667, "name": "30b65530ca56fe4ab884100a1d9da337", "fusion_lon": 0.0}, {"lat": 38.932732333333334, "fusion_lat": 0.0, "type": "electric_scooter", "bike_id": "18f5a9e1f5b4d7c2d5b7355a99ba1403", "is_reserved": 0, "rental_uris": {"ios": "https://dc.lft.to/lastmile_qr_scan", "android": "https://dc.lft.to/lastmile_qr_scan"}, "is_disabled": 0, "lon": -77.0453065, "name": "18f5a9e1f5b4d7c2d5b7355a99ba1403", "fusion_lon": 0.0}, {"lat": 38.863855666666666, "fusion_lat": 0.0, "type": "electric_scooter", "bike_id": "9c2d70677cd7ae9a4e9953e664c8ba3f", "is_reserved": 0, "rental_uris": {"ios": "https://dc.lft.to/lastmile_qr_scan", "android": "https://dc.lft.to/lastmile_qr_scan"}, "is_disabled": 0, "lon": -76.99041283333334, "name": "9c2d70677cd7ae9a4e9953e664c8ba3f", "fusion_lon": 0.0}, {"lat": 38.91654583333333, "fusion_lat": 0.0, "type": "electric_scooter", "bike_id": "256d4ce82ed9d1fd91d0507512819b1b", "is_reserved": 0, "rental_uris": {"ios": "https://dc.lft.to/lastmile_qr_scan", "android": "https://dc.lft.to/lastmile_qr_scan"}, "is_disabled": 0, "lon": -77.02008266666667, "name": "256d4ce82ed9d1fd91d0507512819b1b", "fusion_lon": 0.0}, {"lat": 38.888132666666664, "fusion_lat": 0.0, "type": "electric_scooter", "bike_id": "5be3fd8e5e9bb562e7e0ae62f38a347e", "is_reserved": 0, "rental_uris": {"ios": "https://dc.lft.to/lastmile_qr_scan", "android": "https://dc.lft.to/lastmile_qr_scan"}, "is_disabled": 0, "lon": -76.93344316666666, "name": "5be3fd8e5e9bb562e7e0ae62f38a347e", "fusion_lon": 0.0}, {"lat": 38.90765866666667, "fusion_lat": 0.0, "type": "electric_scooter", "bike_id": "0170a65824a7b6b8629309ef3eaad327", "is_reserved": 0, "rental_uris": {"ios": "https://dc.lft.to/lastmile_qr_scan", "android": "https://dc.lft.to/lastmile_qr_scan"}, "is_disabled": 0, "lon": -77.03192466666667, "name": "0170a65824a7b6b8629309ef3eaad327", "fusion_lon": 0.0}, {"lat": 38.897282833333335, "fusion_lat": 0.0, "type": "electric_scooter", "bike_id": "9b136df48ddc03f8470dbe75a759dc4a", "is_reserved": 0, "rental_uris": {"ios": "https://dc.lft.to/lastmile_qr_scan", "android": "https://dc.lft.to/lastmile_qr_scan"}, "is_disabled": 0, "lon": -77.04287116666667, "name": "9b136df48ddc03f8470dbe75a759dc4a", "fusion_lon": 0.0}, {"lat": 38.91041216666667, "fusion_lat": 0.0, "type": "electric_scooter", "bike_id": "a32e2b90a41f346a3b802777dd701bb2", "is_reserved": 0, "rental_uris": {"ios": "https://dc.lft.to/lastmile_qr_scan", "android": "https://dc.lft.to/lastmile_qr_scan"}, "is_disabled": 0, "lon": -77.0161845, "name": "a32e2b90a41f346a3b802777dd701bb2", "fusion_lon": 0.0}, {"lat": 38.9084165, "fusion_lat": 0.0, "type": "electric_scooter", "bike_id": "14ae96384bb82e9a847024e705169772", "is_reserved": 0, "rental_uris": {"ios": "https://dc.lft.to/lastmile_qr_scan", "android": "https://dc.lft.to/lastmile_qr_scan"}, "is_disabled": 0, "lon": -77.0400275, "name": "14ae96384bb82e9a847024e705169772", "fusion_lon": 0.0}, {"lat": 38.922126166666665, "fusion_lat": 0.0, "type": "electric_bike", "bike_id": "07dd3906aefd58c9c40b00808eca4984", "is_reserved": 0, "rental_uris": {"ios": "https://dc.lft.to/lastmile_qr_scan", "android": "https://dc.lft.to/lastmile_qr_scan"}, "is_disabled": 0, "lon": -76.987962, "name": "07dd3906aefd58c9c40b00808eca4984", "fusion_lon": 0.0}, {"lat": 38.917243666666664, "fusion_lat": 0.0, "type": "electric_scooter", "bike_id": "7dc20f64648eb6a724d6392f13467031", "is_reserved": 0, "rental_uris": {"ios": "https://dc.lft.to/lastmile_qr_scan", "android": "https://dc.lft.to/lastmile_qr_scan"}, "is_disabled": 0, "lon": -77.02971616666666, "name": "7dc20f64648eb6a724d6392f13467031", "fusion_lon": 0.0}, {"lat": 38.920361166666666, "fusion_lat": 0.0, "type": "electric_scooter", "bike_id": "96e98045c4bc00867615b68239dab097", "is_reserved": 0, "rental_uris": {"ios": "https://dc.lft.to/lastmile_qr_scan", "android": "https://dc.lft.to/lastmile_qr_scan"}, "is_disabled": 0, "lon": -77.01221866666667, "name": "96e98045c4bc00867615b68239dab097", "fusion_lon": 0.0}, {"lat": 38.878579333333334, "fusion_lat": 0.0, "type": "electric_scooter", "bike_id": "425c1cd8c15449e46f147fc34b7f8dd8", "is_reserved": 0, "rental_uris": {"ios": "https://dc.lft.to/lastmile_qr_scan", "android": "https://dc.lft.to/lastmile_qr_scan"}, "is_disabled": 0, "lon": -77.01962766666666, "name": "425c1cd8c15449e46f147fc34b7f8dd8", "fusion_lon": 0.0}, {"lat": 38.927228166666666, "fusion_lat": 0.0, "type": "electric_scooter", "bike_id": "c2a5a3504597568e49f445c391dfb56f", "is_reserved": 0, "rental_uris": {"ios": "https://dc.lft.to/lastmile_qr_scan", "android": "https://dc.lft.to/lastmile_qr_scan"}, "is_disabled": 0, "lon": -77.02268166666667, "name": "c2a5a3504597568e49f445c391dfb56f", "fusion_lon": 0.0}, {"lat": 38.90123066666666, "fusion_lat": 0.0, "type": "electric_scooter", "bike_id": "f73003a232550427e026836ecf05726d", "is_reserved": 0, "rental_uris": {"ios": "https://dc.lft.to/lastmile_qr_scan", "android": "https://dc.lft.to/lastmile_qr_scan"}, "is_disabled": 0, "lon": -77.01756566666667, "name": "f73003a232550427e026836ecf05726d", "fusion_lon": 0.0}, {"lat": 38.903502333333336, "fusion_lat": 0.0, "type": "electric_scooter", "bike_id": "4e48bcdc89c130d6a223753c80892f51", "is_reserved": 0, "rental_uris": {"ios": "https://dc.lft.to/lastmile_qr_scan", "android": "https://dc.lft.to/lastmile_qr_scan"}, "is_disabled": 0, "lon": -77.04639316666666, "name": "4e48bcdc89c130d6a223753c80892f51", "fusion_lon": 0.0}, {"lat": 38.88570416666666, "fusion_lat": 0.0, "type": "electric_scooter", "bike_id": "040ac4fd1212c5105cdb9cf313d93366", "is_reserved": 0, "rental_uris": {"ios": "https://dc.lft.to/lastmile_qr_scan", "android": "https://dc.lft.to/lastmile_qr_scan"}, "is_disabled": 0, "lon": -77.02004483333333, "name": "040ac4fd1212c5105cdb9cf313d93366", "fusion_lon": 0.0}, {"lat": 38.91692066666667, "fusion_lat": 0.0, "type": "electric_scooter", "bike_id": "a1bf647e744f66a222cf94d70eb7f2b1", "is_reserved": 0, "rental_uris": {"ios": "https://dc.lft.to/lastmile_qr_scan", "android": "https://dc.lft.to/lastmile_qr_scan"}, "is_disabled": 0, "lon": -77.037713, "name": "a1bf647e744f66a222cf94d70eb7f2b1", "fusion_lon": 0.0}, {"lat": 38.91251916666667, "fusion_lat": 0.0, "type": "electric_scooter", "bike_id": "e64d754f63e698d25d60292367559bcf", "is_reserved": 0, "rental_uris": {"ios": "https://dc.lft.to/lastmile_qr_scan", "android": "https://dc.lft.to/lastmile_qr_scan"}, "is_disabled": 0, "lon": -77.008019, "name": "e64d754f63e698d25d60292367559bcf", "fusion_lon": 0.0}, {"lat": 38.896206666666664, "fusion_lat": 0.0, "type": "electric_scooter", "bike_id": "8693dbfebf5362e43ae63c6f60896e8f", "is_reserved": 0, "rental_uris": {"ios": "https://dc.lft.to/lastmile_qr_scan", "android": "https://dc.lft.to/lastmile_qr_scan"}, "is_disabled": 0, "lon": -77.02856833333334, "name": "8693dbfebf5362e43ae63c6f60896e8f", "fusion_lon": 0.0}, {"lat": 38.9015005, "fusion_lat": 0.0, "type": "electric_scooter", "bike_id": "1ee5c5dffb603484a72975bbb07558f0", "is_reserved": 0, "rental_uris": {"ios": "https://dc.lft.to/lastmile_qr_scan", "android": "https://dc.lft.to/lastmile_qr_scan"}, "is_disabled": 0, "lon": -76.92136616666667, "name": "1ee5c5dffb603484a72975bbb07558f0", "fusion_lon": 0.0}, {"lat": 38.93536733333333, "fusion_lat": 0.0, "type": "electric_scooter", "bike_id": "46b425e2b465a6c25fdbba0382b4661b", "is_reserved": 0, "rental_uris": {"ios": "https://dc.lft.to/lastmile_qr_scan", "android": "https://dc.lft.to/lastmile_qr_scan"}, "is_disabled": 0, "lon": -77.02349366666667, "name": "46b425e2b465a6c25fdbba0382b4661b", "fusion_lon": 0.0}, {"lat": 38.86242333333333, "fusion_lat": 0.0, "type": "electric_scooter", "bike_id": "e569ab231ec8b59c1e1fefd51c7d4a3a", "is_reserved": 0, "rental_uris": {"ios": "https://dc.lft.to/lastmile_qr_scan", "android": "https://dc.lft.to/lastmile_qr_scan"}, "is_disabled": 0, "lon": -76.99492733333334, "name": "e569ab231ec8b59c1e1fefd51c7d4a3a", "fusion_lon": 0.0}, {"lat": 38.919625333333336, "fusion_lat": 0.0, "type": "electric_scooter", "bike_id": "c356158fd511adf2fc5861bc8c1dd3b0", "is_reserved": 0, "rental_uris": {"ios": "https://dc.lft.to/lastmile_qr_scan", "android": "https://dc.lft.to/lastmile_qr_scan"}, "is_disabled": 0, "lon": -77.04168933333334, "name": "c356158fd511adf2fc5861bc8c1dd3b0", "fusion_lon": 0.0}, {"lat": 38.899712666666666, "fusion_lat": 0.0, "type": "electric_scooter", "bike_id": "79845f4a2d37cc08dc82779a7e3550a4", "is_reserved": 0, "rental_uris": {"ios": "https://dc.lft.to/lastmile_qr_scan", "android": "https://dc.lft.to/lastmile_qr_scan"}, "is_disabled": 0, "lon": -77.04662983333333, "name": "79845f4a2d37cc08dc82779a7e3550a4", "fusion_lon": 0.0}, {"lat": 38.85418883333333, "fusion_lat": 0.0, "type": "electric_bike", "bike_id": "f4fa247b0cf32fc46ee037135a447dd1", "is_reserved": 0, "rental_uris": {"ios": "https://dc.lft.to/lastmile_qr_scan", "android": "https://dc.lft.to/lastmile_qr_scan"}, "is_disabled": 0, "lon": -77.1208145, "name": "f4fa247b0cf32fc46ee037135a447dd1", "fusion_lon": 0.0}, {"lat": 38.9225645, "fusion_lat": 0.0, "type": "electric_scooter", "bike_id": "322046ef5cfe953e9678b48205cdb34d", "is_reserved": 0, "rental_uris": {"ios": "https://dc.lft.to/lastmile_qr_scan", "android": "https://dc.lft.to/lastmile_qr_scan"}, "is_disabled": 0, "lon": -77.02086633333333, "name": "322046ef5cfe953e9678b48205cdb34d", "fusion_lon": 0.0}, {"lat": 38.928757833333336, "fusion_lat": 0.0, "type": "electric_scooter", "bike_id": "0c0b9d76d03229e4383932362be0b298", "is_reserved": 0, "rental_uris": {"ios": "https://dc.lft.to/lastmile_qr_scan", "android": "https://dc.lft.to/lastmile_qr_scan"}, "is_disabled": 0, "lon": -77.0334825, "name": "0c0b9d76d03229e4383932362be0b298", "fusion_lon": 0.0}, {"lat": 38.899801, "fusion_lat": 0.0, "type": "electric_scooter", "bike_id": "468ad8e2ef50d55bc3c283928c9ad2ae", "is_reserved": 0, "rental_uris": {"ios": "https://dc.lft.to/lastmile_qr_scan", "android": "https://dc.lft.to/lastmile_qr_scan"}, "is_disabled": 0, "lon": -77.00672883333333, "name": "468ad8e2ef50d55bc3c283928c9ad2ae", "fusion_lon": 0.0}, {"lat": 38.876399666666664, "fusion_lat": 0.0, "type": "electric_scooter", "bike_id": "f71fbbe6e1f34df419f67a28a07d3030", "is_reserved": 0, "rental_uris": {"ios": "https://dc.lft.to/lastmile_qr_scan", "android": "https://dc.lft.to/lastmile_qr_scan"}, "is_disabled": 0, "lon": -77.01447316666666, "name": "f71fbbe6e1f34df419f67a28a07d3030", "fusion_lon": 0.0}, {"lat": 38.90338283333333, "fusion_lat": 0.0, "type": "electric_scooter", "bike_id": "10fbb4c52abdb42e870b595142eaebc7", "is_reserved": 0, "rental_uris": {"ios": "https://dc.lft.to/lastmile_qr_scan", "android": "https://dc.lft.to/lastmile_qr_scan"}, "is_disabled": 0, "lon": -76.97582283333334, "name": "10fbb4c52abdb42e870b595142eaebc7", "fusion_lon": 0.0}, {"lat": 38.91573833333333, "fusion_lat": 0.0, "type": "electric_scooter", "bike_id": "f3fc9d4051b8d77fb3152b91bc20baf3", "is_reserved": 0, "rental_uris": {"ios": "https://dc.lft.to/lastmile_qr_scan", "android": "https://dc.lft.to/lastmile_qr_scan"}, "is_disabled": 0, "lon": -77.02289233333333, "name": "f3fc9d4051b8d77fb3152b91bc20baf3", "fusion_lon": 0.0}, {"lat": 38.90035433333333, "fusion_lat": 0.0, "type": "electric_scooter", "bike_id": "82f75d7633491881375e1a8277cbc2df", "is_reserved": 0, "rental_uris": {"ios": "https://dc.lft.to/lastmile_qr_scan", "android": "https://dc.lft.to/lastmile_qr_scan"}, "is_disabled": 0, "lon": -77.01226183333333, "name": "82f75d7633491881375e1a8277cbc2df", "fusion_lon": 0.0}, {"lat": 38.89836566666666, "fusion_lat": 0.0, "type": "electric_scooter", "bike_id": "b610ce1846223a978b75c799d43ec7a5", "is_reserved": 0, "rental_uris": {"ios": "https://dc.lft.to/lastmile_qr_scan", "android": "https://dc.lft.to/lastmile_qr_scan"}, "is_disabled": 0, "lon": -77.021985, "name": "b610ce1846223a978b75c799d43ec7a5", "fusion_lon": 0.0}, {"lat": 38.86241833333333, "fusion_lat": 0.0, "type": "electric_scooter", "bike_id": "d59bcdbc8074e27eb2a18f7e27f909e6", "is_reserved": 0, "rental_uris": {"ios": "https://dc.lft.to/lastmile_qr_scan", "android": "https://dc.lft.to/lastmile_qr_scan"}, "is_disabled": 0, "lon": -76.99491416666666, "name": "d59bcdbc8074e27eb2a18f7e27f909e6", "fusion_lon": 0.0}, {"lat": 38.956529333333336, "fusion_lat": 0.0, "type": "electric_bike", "bike_id": "18d8fb76fb0a673c316bbce718edf3bc", "is_reserved": 0, "rental_uris": {"ios": "https://dc.lft.to/lastmile_qr_scan", "android": "https://dc.lft.to/lastmile_qr_scan"}, "is_disabled": 0, "lon": -77.01281783333333, "name": "18d8fb76fb0a673c316bbce718edf3bc", "fusion_lon": 0.0}, {"lat": 38.925377833333336, "fusion_lat": 0.0, "type": "electric_scooter", "bike_id": "21bbd5f6fb48d8ec1c6302e17d533cc5", "is_reserved": 0, "rental_uris": {"ios": "https://dc.lft.to/lastmile_qr_scan", "android": "https://dc.lft.to/lastmile_qr_scan"}, "is_disabled": 0, "lon": -77.03293966666666, "name": "21bbd5f6fb48d8ec1c6302e17d533cc5", "fusion_lon": 0.0}, {"lat": 38.903913833333334, "fusion_lat": 0.0, "type": "electric_scooter", "bike_id": "f626219e33669f394c13f879845c2cd5", "is_reserved": 0, "rental_uris": {"ios": "https://dc.lft.to/lastmile_qr_scan", "android": "https://dc.lft.to/lastmile_qr_scan"}, "is_disabled": 0, "lon": -77.06765383333334, "name": "f626219e33669f394c13f879845c2cd5", "fusion_lon": 0.0}, {"lat": 38.912191, "fusion_lat": 0.0, "type": "electric_scooter", "bike_id": "47f41e0936efd7cf14a42a15538ce965", "is_reserved": 0, "rental_uris": {"ios": "https://dc.lft.to/lastmile_qr_scan", "android": "https://dc.lft.to/lastmile_qr_scan"}, "is_disabled": 0, "lon": -77.022747, "name": "47f41e0936efd7cf14a42a15538ce965", "fusion_lon": 0.0}, {"lat": 38.849314, "fusion_lat": 0.0, "type": "electric_bike", "bike_id": "c8169e917393eeca3fc66b9e21007dd2", "is_reserved": 0, "rental_uris": {"ios": "https://dc.lft.to/lastmile_qr_scan", "android": "https://dc.lft.to/lastmile_qr_scan"}, "is_disabled": 0, "lon": -77.077946, "name": "c8169e917393eeca3fc66b9e21007dd2", "fusion_lon": 0.0}, {"lat": 38.905154833333334, "fusion_lat": 0.0, "type": "electric_scooter", "bike_id": "3b228dbf883d9b0af378b2e9aa869c54", "is_reserved": 0, "rental_uris": {"ios": "https://dc.lft.to/lastmile_qr_scan", "android": "https://dc.lft.to/lastmile_qr_scan"}, "is_disabled": 0, "lon": -77.00133783333334, "name": "3b228dbf883d9b0af378b2e9aa869c54", "fusion_lon": 0.0}, {"lat": 38.865138, "fusion_lat": 0.0, "type": "electric_scooter", "bike_id": "0ba24eb345f1cb509bed8aa7f4ab49bb", "is_reserved": 0, "rental_uris": {"ios": "https://dc.lft.to/lastmile_qr_scan", "android": "https://dc.lft.to/lastmile_qr_scan"}, "is_disabled": 0, "lon": -76.97345983333334, "name": "0ba24eb345f1cb509bed8aa7f4ab49bb", "fusion_lon": 0.0}, {"lat": 38.89757916666667, "fusion_lat": 0.0, "type": "electric_scooter", "bike_id": "96bf6f02b45572fd293c9547f08aa5c3", "is_reserved": 0, "rental_uris": {"ios": "https://dc.lft.to/lastmile_qr_scan", "android": "https://dc.lft.to/lastmile_qr_scan"}, "is_disabled": 0, "lon": -77.009169, "name": "96bf6f02b45572fd293c9547f08aa5c3", "fusion_lon": 0.0}, {"lat": 38.921503333333334, "fusion_lat": 0.0, "type": "electric_scooter", "bike_id": "02343b56612dae123ed50f492be8fc84", "is_reserved": 0, "rental_uris": {"ios": "https://dc.lft.to/lastmile_qr_scan", "android": "https://dc.lft.to/lastmile_qr_scan"}, "is_disabled": 0, "lon": -77.03870666666667, "name": "02343b56612dae123ed50f492be8fc84", "fusion_lon": 0.0}, {"lat": 38.86656933333333, "fusion_lat": 0.0, "type": "electric_scooter", "bike_id": "9ffcdae1bfe45c35ebb9f8edfd00f887", "is_reserved": 0, "rental_uris": {"ios": "https://dc.lft.to/lastmile_qr_scan", "android": "https://dc.lft.to/lastmile_qr_scan"}, "is_disabled": 0, "lon": -76.98882866666666, "name": "9ffcdae1bfe45c35ebb9f8edfd00f887", "fusion_lon": 0.0}, {"lat": 38.916033666666664, "fusion_lat": 0.0, "type": "electric_scooter", "bike_id": "6ab8801e64420feee7e5535ea3cb600d", "is_reserved": 0, "rental_uris": {"ios": "https://dc.lft.to/lastmile_qr_scan", "android": "https://dc.lft.to/lastmile_qr_scan"}, "is_disabled": 0, "lon": -77.031814, "name": "6ab8801e64420feee7e5535ea3cb600d", "fusion_lon": 0.0}, {"lat": 38.90985716666667, "fusion_lat": 0.0, "type": "electric_scooter", "bike_id": "6852ee18bed33ad0116cc08b89fb88eb", "is_reserved": 0, "rental_uris": {"ios": "https://dc.lft.to/lastmile_qr_scan", "android": "https://dc.lft.to/lastmile_qr_scan"}, "is_disabled": 0, "lon": -77.03172266666667, "name": "6852ee18bed33ad0116cc08b89fb88eb", "fusion_lon": 0.0}, {"lat": 38.9169425, "fusion_lat": 0.0, "type": "electric_scooter", "bike_id": "ffca2a559001ae76eb4bb496e3ff9053", "is_reserved": 0, "rental_uris": {"ios": "https://dc.lft.to/lastmile_qr_scan", "android": "https://dc.lft.to/lastmile_qr_scan"}, "is_disabled": 0, "lon": -77.01050933333333, "name": "ffca2a559001ae76eb4bb496e3ff9053", "fusion_lon": 0.0}, {"lat": 38.893113166666666, "fusion_lat": 0.0, "type": "electric_scooter", "bike_id": "453e32426062181ae576b0f416136837", "is_reserved": 0, "rental_uris": {"ios": "https://dc.lft.to/lastmile_qr_scan", "android": "https://dc.lft.to/lastmile_qr_scan"}, "is_disabled": 0, "lon": -76.939821, "name": "453e32426062181ae576b0f416136837", "fusion_lon": 0.0}, {"lat": 38.9344185, "fusion_lat": 0.0, "type": "electric_scooter", "bike_id": "f4b13a6a96f4baef5234cc5e34bed0c2", "is_reserved": 0, "rental_uris": {"ios": "https://dc.lft.to/lastmile_qr_scan", "android": "https://dc.lft.to/lastmile_qr_scan"}, "is_disabled": 0, "lon": -77.0327305, "name": "f4b13a6a96f4baef5234cc5e34bed0c2", "fusion_lon": 0.0}, {"lat": 38.91117416666667, "fusion_lat": 0.0, "type": "electric_scooter", "bike_id": "a682a8f17fdc2c0232e6b8c21bb906c6", "is_reserved": 0, "rental_uris": {"ios": "https://dc.lft.to/lastmile_qr_scan", "android": "https://dc.lft.to/lastmile_qr_scan"}, "is_disabled": 0, "lon": -77.04471266666667, "name": "a682a8f17fdc2c0232e6b8c21bb906c6", "fusion_lon": 0.0}, {"lat": 38.915525333333335, "fusion_lat": 0.0, "type": "electric_scooter", "bike_id": "cb5856ad8386d1f0f69cf083a02453b4", "is_reserved": 0, "rental_uris": {"ios": "https://dc.lft.to/lastmile_qr_scan", "android": "https://dc.lft.to/lastmile_qr_scan"}, "is_disabled": 0, "lon": -77.03948666666666, "name": "cb5856ad8386d1f0f69cf083a02453b4", "fusion_lon": 0.0}, {"lat": 38.909341166666664, "fusion_lat": 0.0, "type": "electric_scooter", "bike_id": "0d30947532064239f414815ec3f20a35", "is_reserved": 0, "rental_uris": {"ios": "https://dc.lft.to/lastmile_qr_scan", "android": "https://dc.lft.to/lastmile_qr_scan"}, "is_disabled": 0, "lon": -77.05538266666667, "name": "0d30947532064239f414815ec3f20a35", "fusion_lon": 0.0}, {"lat": 38.883711166666664, "fusion_lat": 0.0, "type": "electric_scooter", "bike_id": "44dcd77c3d9b20bdad0f6c6d53e2ae97", "is_reserved": 0, "rental_uris": {"ios": "https://dc.lft.to/lastmile_qr_scan", "android": "https://dc.lft.to/lastmile_qr_scan"}, "is_disabled": 0, "lon": -76.995194, "name": "44dcd77c3d9b20bdad0f6c6d53e2ae97", "fusion_lon": 0.0}, {"lat": 38.850666833333335, "fusion_lat": 0.0, "type": "electric_scooter", "bike_id": "cdeb2e9214c350d51517ce8105aecef2", "is_reserved": 0, "rental_uris": {"ios": "https://dc.lft.to/lastmile_qr_scan", "android": "https://dc.lft.to/lastmile_qr_scan"}, "is_disabled": 0, "lon": -76.97009383333334, "name": "cdeb2e9214c350d51517ce8105aecef2", "fusion_lon": 0.0}, {"lat": 38.9013625, "fusion_lat": 0.0, "type": "electric_scooter", "bike_id": "f55fff7dfca6f7ee3de5775871bc75fc", "is_reserved": 0, "rental_uris": {"ios": "https://dc.lft.to/lastmile_qr_scan", "android": "https://dc.lft.to/lastmile_qr_scan"}, "is_disabled": 0, "lon": -77.013179, "name": "f55fff7dfca6f7ee3de5775871bc75fc", "fusion_lon": 0.0}, {"lat": 38.90785316666667, "fusion_lat": 0.0, "type": "electric_scooter", "bike_id": "4023a8cace566f5996f311de09717925", "is_reserved": 0, "rental_uris": {"ios": "https://dc.lft.to/lastmile_qr_scan", "android": "https://dc.lft.to/lastmile_qr_scan"}, "is_disabled": 0, "lon": -77.03824483333334, "name": "4023a8cace566f5996f311de09717925", "fusion_lon": 0.0}, {"lat": 38.91985483333333, "fusion_lat": 0.0, "type": "electric_scooter", "bike_id": "251abc6cd2e76f0874293f625049e1fc", "is_reserved": 0, "rental_uris": {"ios": "https://dc.lft.to/lastmile_qr_scan", "android": "https://dc.lft.to/lastmile_qr_scan"}, "is_disabled": 0, "lon": -76.9730455, "name": "251abc6cd2e76f0874293f625049e1fc", "fusion_lon": 0.0}, {"lat": 38.92101616666667, "fusion_lat": 0.0, "type": "electric_scooter", "bike_id": "100236605698e6b1a3134609b32f5fa5", "is_reserved": 0, "rental_uris": {"ios": "https://dc.lft.to/lastmile_qr_scan", "android": "https://dc.lft.to/lastmile_qr_scan"}, "is_disabled": 0, "lon": -77.0333915, "name": "100236605698e6b1a3134609b32f5fa5", "fusion_lon": 0.0}, {"lat": 38.911556, "fusion_lat": 0.0, "type": "electric_scooter", "bike_id": "64a3cc5d6546d22d96a890bd0c7d652e", "is_reserved": 0, "rental_uris": {"ios": "https://dc.lft.to/lastmile_qr_scan", "android": "https://dc.lft.to/lastmile_qr_scan"}, "is_disabled": 0, "lon": -77.0384085, "name": "64a3cc5d6546d22d96a890bd0c7d652e", "fusion_lon": 0.0}, {"lat": 38.90569466666667, "fusion_lat": 0.0, "type": "electric_scooter", "bike_id": "d3c08a29cf564526c72e7dd9b203347c", "is_reserved": 0, "rental_uris": {"ios": "https://dc.lft.to/lastmile_qr_scan", "android": "https://dc.lft.to/lastmile_qr_scan"}, "is_disabled": 0, "lon": -77.0249615, "name": "d3c08a29cf564526c72e7dd9b203347c", "fusion_lon": 0.0}, {"lat": 38.935318, "fusion_lat": 0.0, "type": "electric_scooter", "bike_id": "cbe3ad57331aea594302709817c32935", "is_reserved": 0, "rental_uris": {"ios": "https://dc.lft.to/lastmile_qr_scan", "android": "https://dc.lft.to/lastmile_qr_scan"}, "is_disabled": 0, "lon": -77.05446416666666, "name": "cbe3ad57331aea594302709817c32935", "fusion_lon": 0.0}, {"lat": 38.895133333333334, "fusion_lat": 0.0, "type": "electric_scooter", "bike_id": "d3f271077a9ee5b293f0159d2fc5f59e", "is_reserved": 0, "rental_uris": {"ios": "https://dc.lft.to/lastmile_qr_scan", "android": "https://dc.lft.to/lastmile_qr_scan"}, "is_disabled": 0, "lon": -76.98830266666667, "name": "d3f271077a9ee5b293f0159d2fc5f59e", "fusion_lon": 0.0}, {"lat": 38.902377666666666, "fusion_lat": 0.0, "type": "electric_scooter", "bike_id": "5a69bf5903a53d9105295c5444cb7585", "is_reserved": 0, "rental_uris": {"ios": "https://dc.lft.to/lastmile_qr_scan", "android": "https://dc.lft.to/lastmile_qr_scan"}, "is_disabled": 0, "lon": -76.97407216666667, "name": "5a69bf5903a53d9105295c5444cb7585", "fusion_lon": 0.0}, {"lat": 38.8745955, "fusion_lat": 0.0, "type": "electric_scooter", "bike_id": "5b24455ec64b15bb1186f106270dddfb", "is_reserved": 0, "rental_uris": {"ios": "https://dc.lft.to/lastmile_qr_scan", "android": "https://dc.lft.to/lastmile_qr_scan"}, "is_disabled": 0, "lon": -77.00543166666667, "name": "5b24455ec64b15bb1186f106270dddfb", "fusion_lon": 0.0}, {"lat": 38.862145166666664, "fusion_lat": 0.0, "type": "electric_scooter", "bike_id": "1798b06f0628422f9719ce3d977b5af2", "is_reserved": 0, "rental_uris": {"ios": "https://dc.lft.to/lastmile_qr_scan", "android": "https://dc.lft.to/lastmile_qr_scan"}, "is_disabled": 0, "lon": -76.994804, "name": "1798b06f0628422f9719ce3d977b5af2", "fusion_lon": 0.0}, {"lat": 38.92359866666666, "fusion_lat": 0.0, "type": "electric_scooter", "bike_id": "5db5d82ed251d882d417dd7ffc12ef1d", "is_reserved": 0, "rental_uris": {"ios": "https://dc.lft.to/lastmile_qr_scan", "android": "https://dc.lft.to/lastmile_qr_scan"}, "is_disabled": 0, "lon": -77.05072866666667, "name": "5db5d82ed251d882d417dd7ffc12ef1d", "fusion_lon": 0.0}, {"lat": 38.900802666666664, "fusion_lat": 0.0, "type": "electric_scooter", "bike_id": "33487b401117a60e6b621d62aa43bad9", "is_reserved": 0, "rental_uris": {"ios": "https://dc.lft.to/lastmile_qr_scan", "android": "https://dc.lft.to/lastmile_qr_scan"}, "is_disabled": 0, "lon": -77.03199866666667, "name": "33487b401117a60e6b621d62aa43bad9", "fusion_lon": 0.0}, {"lat": 38.925059166666664, "fusion_lat": 0.0, "type": "electric_scooter", "bike_id": "2bf8dd343b071fd4f2acfe6e630299ca", "is_reserved": 0, "rental_uris": {"ios": "https://dc.lft.to/lastmile_qr_scan", "android": "https://dc.lft.to/lastmile_qr_scan"}, "is_disabled": 0, "lon": -77.00892016666667, "name": "2bf8dd343b071fd4f2acfe6e630299ca", "fusion_lon": 0.0}, {"lat": 38.91487766666667, "fusion_lat": 0.0, "type": "electric_scooter", "bike_id": "c52efa98f84dcb71c51e5be7eeffd34a", "is_reserved": 0, "rental_uris": {"ios": "https://dc.lft.to/lastmile_qr_scan", "android": "https://dc.lft.to/lastmile_qr_scan"}, "is_disabled": 0, "lon": -76.985726, "name": "c52efa98f84dcb71c51e5be7eeffd34a", "fusion_lon": 0.0}, {"lat": 38.92907916666667, "fusion_lat": 0.0, "type": "electric_scooter", "bike_id": "5ed9580f93b7a1910380f70b89292464", "is_reserved": 0, "rental_uris": {"ios": "https://dc.lft.to/lastmile_qr_scan", "android": "https://dc.lft.to/lastmile_qr_scan"}, "is_disabled": 0, "lon": -77.062627, "name": "5ed9580f93b7a1910380f70b89292464", "fusion_lon": 0.0}, {"lat": 38.89223916666667, "fusion_lat": 0.0, "type": "electric_scooter", "bike_id": "6a08246480eb335b1e4c5342c7f4d8e4", "is_reserved": 0, "rental_uris": {"ios": "https://dc.lft.to/lastmile_qr_scan", "android": "https://dc.lft.to/lastmile_qr_scan"}, "is_disabled": 0, "lon": -77.04799483333333, "name": "6a08246480eb335b1e4c5342c7f4d8e4", "fusion_lon": 0.0}, {"lat": 38.9147805, "fusion_lat": 0.0, "type": "electric_scooter", "bike_id": "ff017d156cad136d35057ef2eb19e00c", "is_reserved": 0, "rental_uris": {"ios": "https://dc.lft.to/lastmile_qr_scan", "android": "https://dc.lft.to/lastmile_qr_scan"}, "is_disabled": 0, "lon": -76.98374266666667, "name": "ff017d156cad136d35057ef2eb19e00c", "fusion_lon": 0.0}, {"lat": 38.899965333333334, "fusion_lat": 0.0, "type": "electric_scooter", "bike_id": "60a5da500f7860ab1e4e5dc481848cef", "is_reserved": 0, "rental_uris": {"ios": "https://dc.lft.to/lastmile_qr_scan", "android": "https://dc.lft.to/lastmile_qr_scan"}, "is_disabled": 0, "lon": -77.04348616666667, "name": "60a5da500f7860ab1e4e5dc481848cef", "fusion_lon": 0.0}, {"lat": 38.900202, "fusion_lat": 0.0, "type": "electric_scooter", "bike_id": "9f3cfa4faea74490ff348c8a718a2d88", "is_reserved": 0, "rental_uris": {"ios": "https://dc.lft.to/lastmile_qr_scan", "android": "https://dc.lft.to/lastmile_qr_scan"}, "is_disabled": 0, "lon": -77.01205966666667, "name": "9f3cfa4faea74490ff348c8a718a2d88", "fusion_lon": 0.0}, {"lat": 38.89230233333333, "fusion_lat": 0.0, "type": "electric_scooter", "bike_id": "5c90bd099143430129552b817d455599", "is_reserved": 0, "rental_uris": {"ios": "https://dc.lft.to/lastmile_qr_scan", "android": "https://dc.lft.to/lastmile_qr_scan"}, "is_disabled": 0, "lon": -77.049996, "name": "5c90bd099143430129552b817d455599", "fusion_lon": 0.0}, {"lat": 38.891154, "fusion_lat": 0.0, "type": "electric_scooter", "bike_id": "47be34d8f7b83aefa3ee67ad3a996676", "is_reserved": 0, "rental_uris": {"ios": "https://dc.lft.to/lastmile_qr_scan", "android": "https://dc.lft.to/lastmile_qr_scan"}, "is_disabled": 0, "lon": -76.99161666666667, "name": "47be34d8f7b83aefa3ee67ad3a996676", "fusion_lon": 0.0}, {"lat": 38.8442445, "fusion_lat": 0.0, "type": "electric_scooter", "bike_id": "5ecb72a2dd50c1b947c6ed66b3c5cc4a", "is_reserved": 0, "rental_uris": {"ios": "https://dc.lft.to/lastmile_qr_scan", "android": "https://dc.lft.to/lastmile_qr_scan"}, "is_disabled": 0, "lon": -76.99776016666667, "name": "5ecb72a2dd50c1b947c6ed66b3c5cc4a", "fusion_lon": 0.0}, {"lat": 38.92286333333333, "fusion_lat": 0.0, "type": "electric_scooter", "bike_id": "bd8c557fc73e38c7f5aee23b4a2b1e2c", "is_reserved": 0, "rental_uris": {"ios": "https://dc.lft.to/lastmile_qr_scan", "android": "https://dc.lft.to/lastmile_qr_scan"}, "is_disabled": 0, "lon": -77.04458283333334, "name": "bd8c557fc73e38c7f5aee23b4a2b1e2c", "fusion_lon": 0.0}, {"lat": 38.9188565, "fusion_lat": 0.0, "type": "electric_scooter", "bike_id": "98e28a511706344ca564291c14629a00", "is_reserved": 0, "rental_uris": {"ios": "https://dc.lft.to/lastmile_qr_scan", "android": "https://dc.lft.to/lastmile_qr_scan"}, "is_disabled": 0, "lon": -77.04618666666667, "name": "98e28a511706344ca564291c14629a00", "fusion_lon": 0.0}, {"lat": 38.91607233333333, "fusion_lat": 0.0, "type": "electric_scooter", "bike_id": "bc50560e70fc314e2dfa3fe9f9476f7e", "is_reserved": 0, "rental_uris": {"ios": "https://dc.lft.to/lastmile_qr_scan", "android": "https://dc.lft.to/lastmile_qr_scan"}, "is_disabled": 0, "lon": -77.0318955, "name": "bc50560e70fc314e2dfa3fe9f9476f7e", "fusion_lon": 0.0}, {"lat": 38.9225205, "fusion_lat": 0.0, "type": "electric_bike", "bike_id": "c72030700f610a1a9ee8aac651cea75a", "is_reserved": 0, "rental_uris": {"ios": "https://dc.lft.to/lastmile_qr_scan", "android": "https://dc.lft.to/lastmile_qr_scan"}, "is_disabled": 0, "lon": -77.01944966666667, "name": "c72030700f610a1a9ee8aac651cea75a", "fusion_lon": 0.0}, {"lat": 38.9360545, "fusion_lat": 0.0, "type": "electric_scooter", "bike_id": "b3583ec775749f6bca9613f66c7c851f", "is_reserved": 0, "rental_uris": {"ios": "https://dc.lft.to/lastmile_qr_scan", "android": "https://dc.lft.to/lastmile_qr_scan"}, "is_disabled": 0, "lon": -77.05858616666667, "name": "b3583ec775749f6bca9613f66c7c851f", "fusion_lon": 0.0}, {"lat": 38.90382233333333, "fusion_lat": 0.0, "type": "electric_scooter", "bike_id": "d1a58d10f1b95480464240bc335c9922", "is_reserved": 0, "rental_uris": {"ios": "https://dc.lft.to/lastmile_qr_scan", "android": "https://dc.lft.to/lastmile_qr_scan"}, "is_disabled": 0, "lon": -77.04472533333333, "name": "d1a58d10f1b95480464240bc335c9922", "fusion_lon": 0.0}, {"lat": 38.89172283333333, "fusion_lat": 0.0, "type": "electric_bike", "bike_id": "bb1f975303dff47df2b77647f02a89fd", "is_reserved": 0, "rental_uris": {"ios": "https://dc.lft.to/lastmile_qr_scan", "android": "https://dc.lft.to/lastmile_qr_scan"}, "is_disabled": 0, "lon": -77.019688, "name": "bb1f975303dff47df2b77647f02a89fd", "fusion_lon": 0.0}, {"lat": 38.886865666666665, "fusion_lat": 0.0, "type": "electric_scooter", "bike_id": "eff6fa10e960a8adef3a35b5452c644e", "is_reserved": 0, "rental_uris": {"ios": "https://dc.lft.to/lastmile_qr_scan", "android": "https://dc.lft.to/lastmile_qr_scan"}, "is_disabled": 0, "lon": -76.97638516666666, "name": "eff6fa10e960a8adef3a35b5452c644e", "fusion_lon": 0.0}, {"lat": 38.867004666666666, "fusion_lat": 0.0, "type": "electric_scooter", "bike_id": "cac74c07dddce00abdb68af8d8def668", "is_reserved": 0, "rental_uris": {"ios": "https://dc.lft.to/lastmile_qr_scan", "android": "https://dc.lft.to/lastmile_qr_scan"}, "is_disabled": 0, "lon": -76.9808195, "name": "cac74c07dddce00abdb68af8d8def668", "fusion_lon": 0.0}, {"lat": 38.925577, "fusion_lat": 0.0, "type": "electric_scooter", "bike_id": "46118bcea6055efa61b7a09e4ff1fb4d", "is_reserved": 0, "rental_uris": {"ios": "https://dc.lft.to/lastmile_qr_scan", "android": "https://dc.lft.to/lastmile_qr_scan"}, "is_disabled": 0, "lon": -77.04377816666667, "name": "46118bcea6055efa61b7a09e4ff1fb4d", "fusion_lon": 0.0}, {"lat": 38.9260405, "fusion_lat": 0.0, "type": "electric_scooter", "bike_id": "58249a6230210913d6f5fb133f068a16", "is_reserved": 0, "rental_uris": {"ios": "https://dc.lft.to/lastmile_qr_scan", "android": "https://dc.lft.to/lastmile_qr_scan"}, "is_disabled": 0, "lon": -77.02414633333333, "name": "58249a6230210913d6f5fb133f068a16", "fusion_lon": 0.0}, {"lat": 38.92321966666667, "fusion_lat": 0.0, "type": "electric_scooter", "bike_id": "45265b307423c0ddbea76b61bbea7732", "is_reserved": 0, "rental_uris": {"ios": "https://dc.lft.to/lastmile_qr_scan", "android": "https://dc.lft.to/lastmile_qr_scan"}, "is_disabled": 0, "lon": -77.02136066666667, "name": "45265b307423c0ddbea76b61bbea7732", "fusion_lon": 0.0}, {"lat": 38.904400833333334, "fusion_lat": 0.0, "type": "electric_scooter", "bike_id": "6d31c8f188b9754588cc0b8ec3efd0b8", "is_reserved": 0, "rental_uris": {"ios": "https://dc.lft.to/lastmile_qr_scan", "android": "https://dc.lft.to/lastmile_qr_scan"}, "is_disabled": 0, "lon": -77.04352433333334, "name": "6d31c8f188b9754588cc0b8ec3efd0b8", "fusion_lon": 0.0}, {"lat": 38.90027333333333, "fusion_lat": 0.0, "type": "electric_scooter", "bike_id": "1cfe9befcb383b596e5778aa8f22b74f", "is_reserved": 0, "rental_uris": {"ios": "https://dc.lft.to/lastmile_qr_scan", "android": "https://dc.lft.to/lastmile_qr_scan"}, "is_disabled": 0, "lon": -77.0003405, "name": "1cfe9befcb383b596e5778aa8f22b74f", "fusion_lon": 0.0}, {"lat": 38.95152816666667, "fusion_lat": 0.0, "type": "electric_scooter", "bike_id": "2c1a2edb870aeb947dc160f8fbe156e6", "is_reserved": 0, "rental_uris": {"ios": "https://dc.lft.to/lastmile_qr_scan", "android": "https://dc.lft.to/lastmile_qr_scan"}, "is_disabled": 0, "lon": -77.01867033333333, "name": "2c1a2edb870aeb947dc160f8fbe156e6", "fusion_lon": 0.0}, {"lat": 38.921869666666666, "fusion_lat": 0.0, "type": "electric_scooter", "bike_id": "97bb51123bc9e706cf415eccd18173a7", "is_reserved": 0, "rental_uris": {"ios": "https://dc.lft.to/lastmile_qr_scan", "android": "https://dc.lft.to/lastmile_qr_scan"}, "is_disabled": 0, "lon": -77.04346283333334, "name": "97bb51123bc9e706cf415eccd18173a7", "fusion_lon": 0.0}, {"lat": 38.8932605, "fusion_lat": 0.0, "type": "electric_scooter", "bike_id": "e814102a7983bee0a28000a788c3a4fe", "is_reserved": 0, "rental_uris": {"ios": "https://dc.lft.to/lastmile_qr_scan", "android": "https://dc.lft.to/lastmile_qr_scan"}, "is_disabled": 0, "lon": -77.04876983333334, "name": "e814102a7983bee0a28000a788c3a4fe", "fusion_lon": 0.0}, {"lat": 38.90564633333334, "fusion_lat": 0.0, "type": "electric_scooter", "bike_id": "3e8ab049fc9322990c6673cbcce2f716", "is_reserved": 0, "rental_uris": {"ios": "https://dc.lft.to/lastmile_qr_scan", "android": "https://dc.lft.to/lastmile_qr_scan"}, "is_disabled": 0, "lon": -77.02961016666667, "name": "3e8ab049fc9322990c6673cbcce2f716", "fusion_lon": 0.0}, {"lat": 38.874167666666665, "fusion_lat": 0.0, "type": "electric_scooter", "bike_id": "b945e85c7f3bf1e13120e84367faea4b", "is_reserved": 0, "rental_uris": {"ios": "https://dc.lft.to/lastmile_qr_scan", "android": "https://dc.lft.to/lastmile_qr_scan"}, "is_disabled": 0, "lon": -76.97113483333334, "name": "b945e85c7f3bf1e13120e84367faea4b", "fusion_lon": 0.0}, {"lat": 38.90725716666667, "fusion_lat": 0.0, "type": "electric_scooter", "bike_id": "ab85e12e71b253cf5b82dd5b093bc0cd", "is_reserved": 0, "rental_uris": {"ios": "https://dc.lft.to/lastmile_qr_scan", "android": "https://dc.lft.to/lastmile_qr_scan"}, "is_disabled": 0, "lon": -77.02980016666666, "name": "ab85e12e71b253cf5b82dd5b093bc0cd", "fusion_lon": 0.0}, {"lat": 38.91637, "fusion_lat": 0.0, "type": "electric_scooter", "bike_id": "0e1ed1dcf33d00a08e626c63502466cf", "is_reserved": 0, "rental_uris": {"ios": "https://dc.lft.to/lastmile_qr_scan", "android": "https://dc.lft.to/lastmile_qr_scan"}, "is_disabled": 0, "lon": -77.04245016666667, "name": "0e1ed1dcf33d00a08e626c63502466cf", "fusion_lon": 0.0}, {"lat": 38.903997, "fusion_lat": 0.0, "type": "electric_scooter", "bike_id": "04b2edfec99c8620246a9bfd2c899795", "is_reserved": 0, "rental_uris": {"ios": "https://dc.lft.to/lastmile_qr_scan", "android": "https://dc.lft.to/lastmile_qr_scan"}, "is_disabled": 0, "lon": -77.06507433333333, "name": "04b2edfec99c8620246a9bfd2c899795", "fusion_lon": 0.0}, {"lat": 38.90006916666667, "fusion_lat": 0.0, "type": "electric_scooter", "bike_id": "3e4f1bd09b0fe446cf41e1865815022f", "is_reserved": 0, "rental_uris": {"ios": "https://dc.lft.to/lastmile_qr_scan", "android": "https://dc.lft.to/lastmile_qr_scan"}, "is_disabled": 0, "lon": -76.996255, "name": "3e4f1bd09b0fe446cf41e1865815022f", "fusion_lon": 0.0}, {"lat": 38.952485, "fusion_lat": 0.0, "type": "electric_scooter", "bike_id": "51b5246bbd13b67d8e3280407c16614e", "is_reserved": 0, "rental_uris": {"ios": "https://dc.lft.to/lastmile_qr_scan", "android": "https://dc.lft.to/lastmile_qr_scan"}, "is_disabled": 0, "lon": -77.001957, "name": "51b5246bbd13b67d8e3280407c16614e", "fusion_lon": 0.0}, {"lat": 38.87481366666667, "fusion_lat": 0.0, "type": "electric_bike", "bike_id": "964f4d4fa962fa16aa3a6b25f31f4cce", "is_reserved": 0, "rental_uris": {"ios": "https://dc.lft.to/lastmile_qr_scan", "android": "https://dc.lft.to/lastmile_qr_scan"}, "is_disabled": 0, "lon": -76.965334, "name": "964f4d4fa962fa16aa3a6b25f31f4cce", "fusion_lon": 0.0}, {"lat": 38.8961365, "fusion_lat": 0.0, "type": "electric_scooter", "bike_id": "7d5cfaa5a74f98afa5e924b9e39e7462", "is_reserved": 0, "rental_uris": {"ios": "https://dc.lft.to/lastmile_qr_scan", "android": "https://dc.lft.to/lastmile_qr_scan"}, "is_disabled": 0, "lon": -76.98114266666667, "name": "7d5cfaa5a74f98afa5e924b9e39e7462", "fusion_lon": 0.0}, {"lat": 38.912895, "fusion_lat": 0.0, "type": "electric_scooter", "bike_id": "0234e46313d997441c1c89b3c9354fbd", "is_reserved": 0, "rental_uris": {"ios": "https://dc.lft.to/lastmile_qr_scan", "android": "https://dc.lft.to/lastmile_qr_scan"}, "is_disabled": 0, "lon": -77.023827, "name": "0234e46313d997441c1c89b3c9354fbd", "fusion_lon": 0.0}, {"lat": 38.89621783333333, "fusion_lat": 0.0, "type": "electric_scooter", "bike_id": "bb0af531a5123e1ba4837f4179a51fdb", "is_reserved": 0, "rental_uris": {"ios": "https://dc.lft.to/lastmile_qr_scan", "android": "https://dc.lft.to/lastmile_qr_scan"}, "is_disabled": 0, "lon": -77.01603083333333, "name": "bb0af531a5123e1ba4837f4179a51fdb", "fusion_lon": 0.0}, {"lat": 38.896171833333334, "fusion_lat": 0.0, "type": "electric_scooter", "bike_id": "ea0e0f1f0e2508746ef6992db8208427", "is_reserved": 0, "rental_uris": {"ios": "https://dc.lft.to/lastmile_qr_scan", "android": "https://dc.lft.to/lastmile_qr_scan"}, "is_disabled": 0, "lon": -77.02202583333333, "name": "ea0e0f1f0e2508746ef6992db8208427", "fusion_lon": 0.0}, {"lat": 38.910098166666664, "fusion_lat": 0.0, "type": "electric_scooter", "bike_id": "2b1a971e09d36404aeba2aaf5ce3602d", "is_reserved": 0, "rental_uris": {"ios": "https://dc.lft.to/lastmile_qr_scan", "android": "https://dc.lft.to/lastmile_qr_scan"}, "is_disabled": 0, "lon": -77.05260733333333, "name": "2b1a971e09d36404aeba2aaf5ce3602d", "fusion_lon": 0.0}, {"lat": 38.907203333333335, "fusion_lat": 0.0, "type": "electric_scooter", "bike_id": "03c7e8e37892c64803659e0c7679e6e4", "is_reserved": 0, "rental_uris": {"ios": "https://dc.lft.to/lastmile_qr_scan", "android": "https://dc.lft.to/lastmile_qr_scan"}, "is_disabled": 0, "lon": -77.02887566666666, "name": "03c7e8e37892c64803659e0c7679e6e4", "fusion_lon": 0.0}, {"lat": 38.873524333333336, "fusion_lat": 0.0, "type": "electric_scooter", "bike_id": "1471f8e3cefb20ccbda6abc32348df93", "is_reserved": 0, "rental_uris": {"ios": "https://dc.lft.to/lastmile_qr_scan", "android": "https://dc.lft.to/lastmile_qr_scan"}, "is_disabled": 0, "lon": -77.005858, "name": "1471f8e3cefb20ccbda6abc32348df93", "fusion_lon": 0.0}, {"lat": 38.9360875, "fusion_lat": 0.0, "type": "electric_scooter", "bike_id": "4d67ea5069daf8df6402330af839079a", "is_reserved": 0, "rental_uris": {"ios": "https://dc.lft.to/lastmile_qr_scan", "android": "https://dc.lft.to/lastmile_qr_scan"}, "is_disabled": 0, "lon": -77.037302, "name": "4d67ea5069daf8df6402330af839079a", "fusion_lon": 0.0},