{"data": {"bikes": [{"is_disabled": 0, "is_reserved": 0, "fusion_lat": 0.0, "lat": 38.9241485, "fusion_lon": 0.0, "rental_uris": {"ios": "https://dc.lft.to/lastmile_qr_scan", "android": "https://dc.lft.to/lastmile_qr_scan"}, "lon": -77.02698616666666, "bike_id": "7cd6a8d13901eb9fc0cc74856ae5a8d0", "type": "electric_scooter", "name": "7cd6a8d13901eb9fc0cc74856ae5a8d0"}, {"is_disabled": 0, "is_reserved": 0, "fusion_lat": 0.0, "lat": 38.917799333333335, "fusion_lon": 0.0, "rental_uris": {"ios": "https://dc.lft.to/lastmile_qr_scan", "android": "https://dc.lft.to/lastmile_qr_scan"}, "lon": -77.02304683333334, "bike_id": "e8a1add9adf0d7a76565858e9411bd1c", "type": "electric_scooter", "name": "e8a1add9adf0d7a76565858e9411bd1c"}, {"is_disabled": 0, "is_reserved": 0, "fusion_lat": 0.0, "lat": 38.917134833333336, "fusion_lon": 0.0, "rental_uris": {"ios": "https://dc.lft.to/lastmile_qr_scan", "android": "https://dc.lft.to/lastmile_qr_scan"}, "lon": -77.0386745, "bike_id": "d5c9b8b61dc8e9390d05dceac4c5d768", "type": "electric_scooter", "name": "d5c9b8b61dc8e9390d05dceac4c5d768"}, {"is_disabled": 0, "is_reserved": 0, "fusion_lat": 0.0, "lat": 38.88736016666667, "fusion_lon": 0.0, "rental_uris": {"ios": "https://dc.lft.to/lastmile_qr_scan", "android": "https://dc.lft.to/lastmile_qr_scan"}, "lon": -77.02209516666667, "bike_id": "6660180c2b859746caa40233decbd451", "type": "electric_scooter", "name": "6660180c2b859746caa40233decbd451"}, {"is_disabled": 0, "is_reserved": 0, "fusion_lat": 0.0, "lat": 38.92197633333333, "fusion_lon": 0.0, "rental_uris": {"ios": "https://dc.lft.to/lastmile_qr_scan", "android": "https://dc.lft.to/lastmile_qr_scan"}, "lon": -77.03793933333333, "bike_id": "9a3a4aaea506cd9771c5b1f2e903f40b", "type": "electric_scooter", "name": "9a3a4aaea506cd9771c5b1f2e903f40b"}, {"is_disabled": 0, "is_reserved": 0, "fusion_lat": 0.0, "lat": 38.923173, "fusion_lon": 0.0, "rental_uris": {"ios": "https://dc.lft.to/lastmile_qr_scan", "android": "https://dc.lft.to/lastmile_qr_scan"}, "lon": -77.0280175, "bike_id": "6727772ce45d4783234ee7c454f6bbbc", "type": "electric_scooter", "name": "6727772ce45d4783234ee7c454f6bbbc"}, {"is_disabled": 0, "is_reserved": 0, "fusion_lat": 0.0, "lat": 38.85788733333333, "fusion_lon": 0.0, "rental_uris": {"ios": "https://dc.lft.to/lastmile_qr_scan", "android": "https://dc.lft.to/lastmile_qr_scan"}, "lon": -76.98758583333333, "bike_id": "06c50e253a0ded9085035dcec602453e", "type": "electric_bike", "name": "06c50e253a0ded9085035dcec602453e"}, {"is_disabled": 0, "is_reserved": 0, "fusion_lat": 0.0, "lat": 38.91913983333333, "fusion_lon": 0.0, "rental_uris": {"ios": "https://dc.lft.to/lastmile_qr_scan", "android": "https://dc.lft.to/lastmile_qr_scan"}, "lon": -77.0310315, "bike_id": "72fdb08c2455e94d63713fdf7c7535ea", "type": "electric_scooter", "name": "72fdb08c2455e94d63713fdf7c7535ea"}, {"is_disabled": 0, "is_reserved": 0, "fusion_lat": 0.0, "lat": 38.92329383333333, "fusion_lon": 0.0, "rental_uris": {"ios": "https://dc.lft.to/lastmile_qr_scan", "android": "https://dc.lft.to/lastmile_qr_scan"}, "lon": -77.0296495, "bike_id": "475a8da72b36c691c86e5ce1e5550774", "type": "electric_scooter", "name": "475a8da72b36c691c86e5ce1e5550774"}, {"is_disabled": 0, "is_reserved": 0, "fusion_lat": 0.0, "lat": 38.90007633333333, "fusion_lon": 0.0, "rental_uris": {"ios": "https://dc.lft.to/lastmile_qr_scan", "android": "https://dc.lft.to/lastmile_qr_scan"}, "lon": -77.0526065, "bike_id": "4f062edf17c1213c21beca4dac065fee", "type": "electric_scooter", "name": "4f062edf17c1213c21beca4dac065fee"}, {"is_disabled": 0, "is_reserved": 0, "fusion_lat": 0.0, "lat": 38.871077666666665, "fusion_lon": 0.0, "rental_uris": {"ios": "https://dc.lft.to/lastmile_qr_scan", "android": "https://dc.lft.to/lastmile_qr_scan"}, "lon": -77.00790066666667, "bike_id": "84ab35f9e85b80ae91a8b9aceda44786", "type": "electric_scooter", "name": "84ab35f9e85b80ae91a8b9aceda44786"}, {"is_disabled": 0, "is_reserved": 0, "fusion_lat": 0.0, "lat": 38.982085166666664, "fusion_lon": 0.0, "rental_uris": {"ios": "https://dc.lft.to/lastmile_qr_scan", "android": "https://dc.lft.to/lastmile_qr_scan"}, "lon": -76.97815183333333, "bike_id": "63dd76ad30f1f1b5f0e0be9379e3eac6", "type": "electric_bike", "name": "63dd76ad30f1f1b5f0e0be9379e3eac6"}, {"is_disabled": 0, "is_reserved": 0, "fusion_lat": 0.0, "lat": 38.927759333333334, "fusion_lon": 0.0, "rental_uris": {"ios": "https://dc.lft.to/lastmile_qr_scan", "android": "https://dc.lft.to/lastmile_qr_scan"}, "lon": -77.052596, "bike_id": "5f25d67fd4cca35fa243bf3661d3ee8f", "type": "electric_scooter", "name": "5f25d67fd4cca35fa243bf3661d3ee8f"}, {"is_disabled": 0, "is_reserved": 0, "fusion_lat": 0.0, "lat": 38.933946, "fusion_lon": 0.0, "rental_uris": {"ios": "https://dc.lft.to/lastmile_qr_scan", "android": "https://dc.lft.to/lastmile_qr_scan"}, "lon": -77.057427, "bike_id": "a34134b66bc2190462e18aa46c539005", "type": "electric_scooter", "name": "a34134b66bc2190462e18aa46c539005"}, {"is_disabled": 0, "is_reserved": 0, "fusion_lat": 0.0, "lat": 38.8678285, "fusion_lon": 0.0, "rental_uris": {"ios": "https://dc.lft.to/lastmile_qr_scan", "android": "https://dc.lft.to/lastmile_qr_scan"}, "lon": -77.06626516666667, "bike_id": "ac9699b1bb1ce59f047ee4f281fdcd7f", "type": "electric_bike", "name": "ac9699b1bb1ce59f047ee4f281fdcd7f"}, {"is_disabled": 0, "is_reserved": 0, "fusion_lat": 0.0, "lat": 38.93070916666667, "fusion_lon": 0.0, "rental_uris": {"ios": "https://dc.lft.to/lastmile_qr_scan", "android": "https://dc.lft.to/lastmile_qr_scan"}, "lon": -77.04049, "bike_id": "c5031d1df23e1954d76b6d5a379d3777", "type": "electric_scooter", "name": "c5031d1df23e1954d76b6d5a379d3777"}, {"is_disabled": 0, "is_reserved": 0, "fusion_lat": 0.0, "lat": 38.92526483333333, "fusion_lon": 0.0, "rental_uris": {"ios": "https://dc.lft.to/lastmile_qr_scan", "android": "https://dc.lft.to/lastmile_qr_scan"}, "lon": -77.03882666666667, "bike_id": "ddffc4602c8efbdcaf30dfd561d2b098", "type": "electric_scooter", "name": "ddffc4602c8efbdcaf30dfd561d2b098"}, {"is_disabled": 0, "is_reserved": 0, "fusion_lat": 0.0, "lat": 38.93606783333333, "fusion_lon": 0.0, "rental_uris": {"ios": "https://dc.lft.to/lastmile_qr_scan", "android": "https://dc.lft.to/lastmile_qr_scan"}, "lon": -77.0560345, "bike_id": "5fd7603c39a0e40acedf62373cb6a304", "type": "electric_scooter", "name": "5fd7603c39a0e40acedf62373cb6a304"}, {"is_disabled": 0, "is_reserved": 0, "fusion_lat": 0.0, "lat": 38.921514, "fusion_lon": 0.0, "rental_uris": {"ios": "https://dc.lft.to/lastmile_qr_scan", "android": "https://dc.lft.to/lastmile_qr_scan"}, "lon": -77.0364745, "bike_id": "6cca4e61bd41ab809cbd4b293ea850c6", "type": "electric_scooter", "name": "6cca4e61bd41ab809cbd4b293ea850c6"}, {"is_disabled": 0, "is_reserved": 0, "fusion_lat": 0.0, "lat": 38.9127025, "fusion_lon": 0.0, "rental_uris": {"ios": "https://dc.lft.to/lastmile_qr_scan", "android": "https://dc.lft.to/lastmile_qr_scan"}, "lon": -77.0223055, "bike_id": "6b39018b37bb50af109e530e15264f19", "type": "electric_scooter", "name": "6b39018b37bb50af109e530e15264f19"}, {"is_disabled": 0, "is_reserved": 0, "fusion_lat": 0.0, "lat": 38.919611333333336, "fusion_lon": 0.0, "rental_uris": {"ios": "https://dc.lft.to/lastmile_qr_scan", "android": "https://dc.lft.to/lastmile_qr_scan"}, "lon": -77.07872933333333, "bike_id": "2cf6aa0e3f2277a6856bfc0dc58e2926", "type": "electric_scooter", "name": "2cf6aa0e3f2277a6856bfc0dc58e2926"}, {"is_disabled": 0, "is_reserved": 0, "fusion_lat": 0.0, "lat": 38.92111666666667, "fusion_lon": 0.0, "rental_uris": {"ios": "https://dc.lft.to/lastmile_qr_scan", "android": "https://dc.lft.to/lastmile_qr_scan"}, "lon": -77.032594, "bike_id": "c7950f905a64ed1436f84c106735d7a7", "type": "electric_scooter", "name": "c7950f905a64ed1436f84c106735d7a7"}, {"is_disabled": 0, "is_reserved": 0, "fusion_lat": 0.0, "lat": 38.92050533333333, "fusion_lon": 0.0, "rental_uris": {"ios": "https://dc.lft.to/lastmile_qr_scan", "android": "https://dc.lft.to/lastmile_qr_scan"}, "lon": -77.03471583333334, "bike_id": "56b6cfe953e3d1392429e47629d06fbe", "type": "electric_scooter", "name": "56b6cfe953e3d1392429e47629d06fbe"}, {"is_disabled": 0, "is_reserved": 0, "fusion_lat": 0.0, "lat": 38.92905833333333, "fusion_lon": 0.0, "rental_uris": {"ios": "https://dc.lft.to/lastmile_qr_scan", "android": "https://dc.lft.to/lastmile_qr_scan"}, "lon": -77.0325925, "bike_id": "4d19d15791d4b527b63968c3b433c01b", "type": "electric_scooter", "name": "4d19d15791d4b527b63968c3b433c01b"}, {"is_disabled": 0, "is_reserved": 0, "fusion_lat": 0.0, "lat": 38.87930983333333, "fusion_lon": 0.0, "rental_uris": {"ios": "https://dc.lft.to/lastmile_qr_scan", "android": "https://dc.lft.to/lastmile_qr_scan"}, "lon": -77.00762783333333, "bike_id": "ba7d84b3c0e90335d8e7eea71b547645", "type": "electric_scooter", "name": "ba7d84b3c0e90335d8e7eea71b547645"}, {"is_disabled": 0, "is_reserved": 0, "fusion_lat": 0.0, "lat": 38.928410666666664, "fusion_lon": 0.0, "rental_uris": {"ios": "https://dc.lft.to/lastmile_qr_scan", "android": "https://dc.lft.to/lastmile_qr_scan"}, "lon": -77.03733533333333, "bike_id": "210b76f4b840ebb7c85006176b69df0c", "type": "electric_scooter", "name": "210b76f4b840ebb7c85006176b69df0c"}, {"is_disabled": 0, "is_reserved": 0, "fusion_lat": 0.0, "lat": 38.920946, "fusion_lon": 0.0, "rental_uris": {"ios": "https://dc.lft.to/lastmile_qr_scan", "android": "https://dc.lft.to/lastmile_qr_scan"}, "lon": -77.01804533333333, "bike_id": "94c8f668ce846316ddcb4219df183389", "type": "electric_scooter", "name": "94c8f668ce846316ddcb4219df183389"}, {"is_disabled": 0, "is_reserved": 0, "fusion_lat": 0.0, "lat": 38.907643666666665, "fusion_lon": 0.0, "rental_uris": {"ios": "https://dc.lft.to/lastmile_qr_scan", "android": "https://dc.lft.to/lastmile_qr_scan"}, "lon": -77.001208, "bike_id": "a13d0eb8ee08eb1056065301d92d0176", "type": "electric_scooter", "name": "a13d0eb8ee08eb1056065301d92d0176"}, {"is_disabled": 0, "is_reserved": 0, "fusion_lat": 0.0, "lat": 38.8767195, "fusion_lon": 0.0, "rental_uris": {"ios": "https://dc.lft.to/lastmile_qr_scan", "android": "https://dc.lft.to/lastmile_qr_scan"}, "lon": -77.01444716666667, "bike_id": "2cecb0826f9cb4d766e1a6e77f7cbdb5", "type": "electric_bike", "name": "2cecb0826f9cb4d766e1a6e77f7cbdb5"}, {"is_disabled": 0, "is_reserved": 0, "fusion_lat": 0.0, "lat": 38.95078433333333, "fusion_lon": 0.0, "rental_uris": {"ios": "https://dc.lft.to/lastmile_qr_scan", "android": "https://dc.lft.to/lastmile_qr_scan"}, "lon": -77.01202966666666, "bike_id": "57605a5e09090be28aba97a6484e8fee", "type": "electric_bike", "name": "57605a5e09090be28aba97a6484e8fee"}, {"is_disabled": 0, "is_reserved": 0, "fusion_lat": 0.0, "lat": 38.848616166666666, "fusion_lon": 0.0, "rental_uris": {"ios": "https://dc.lft.to/lastmile_qr_scan", "android": "https://dc.lft.to/lastmile_qr_scan"}, "lon": -77.06829533333334, "bike_id": "5a618d83a66b107733ca0de220152298", "type": "electric_bike", "name": "5a618d83a66b107733ca0de220152298"}, {"is_disabled": 0, "is_reserved": 0, "fusion_lat": 0.0, "lat": 38.897433666666664, "fusion_lon": 0.0, "rental_uris": {"ios": "https://dc.lft.to/lastmile_qr_scan", "android": "https://dc.lft.to/lastmile_qr_scan"}, "lon": -76.992196, "bike_id": "a7e9537906f412c92e28a88d2b519118", "type": "electric_bike", "name": "a7e9537906f412c92e28a88d2b519118"}, {"is_disabled": 0, "is_reserved": 0, "fusion_lat": 0.0, "lat": 38.8975385, "fusion_lon": 0.0, "rental_uris": {"ios": "https://dc.lft.to/lastmile_qr_scan", "android": "https://dc.lft.to/lastmile_qr_scan"}, "lon": -77.02777416666666, "bike_id": "34abf500d2a500bbaf664c1a5a234a00", "type": "electric_scooter", "name": "34abf500d2a500bbaf664c1a5a234a00"}, {"is_disabled": 0, "is_reserved": 0, "fusion_lat": 0.0, "lat": 38.919991833333334, "fusion_lon": 0.0, "rental_uris": {"ios": "https://dc.lft.to/lastmile_qr_scan", "android": "https://dc.lft.to/lastmile_qr_scan"}, "lon": -77.0417345, "bike_id": "ff864c77317bc6f8294b9f2d3331d8cf", "type": "electric_scooter", "name": "ff864c77317bc6f8294b9f2d3331d8cf"}, {"is_disabled": 0, "is_reserved": 0, "fusion_lat": 0.0, "lat": 38.92356083333333, "fusion_lon": 0.0, "rental_uris": {"ios": "https://dc.lft.to/lastmile_qr_scan", "android": "https://dc.lft.to/lastmile_qr_scan"}, "lon": -77.073113, "bike_id": "c38236c92020215a6e4cd62d5561b289", "type": "electric_scooter", "name": "c38236c92020215a6e4cd62d5561b289"}, {"is_disabled": 0, "is_reserved": 0, "fusion_lat": 0.0, "lat": 38.89295666666666, "fusion_lon": 0.0, "rental_uris": {"ios": "https://dc.lft.to/lastmile_qr_scan", "android": "https://dc.lft.to/lastmile_qr_scan"}, "lon": -76.976198, "bike_id": "27ddeeace6aa507a62698b9ddfd374e9", "type": "electric_bike", "name": "27ddeeace6aa507a62698b9ddfd374e9"}, {"is_disabled": 0, "is_reserved": 0, "fusion_lat": 0.0, "lat": 38.937010666666666, "fusion_lon": 0.0, "rental_uris": {"ios": "https://dc.lft.to/lastmile_qr_scan", "android": "https://dc.lft.to/lastmile_qr_scan"}, "lon": -77.05600333333334, "bike_id": "6481a7cbe5d5190a4196d888606c1222", "type": "electric_scooter", "name": "6481a7cbe5d5190a4196d888606c1222"}, {"is_disabled": 0, "is_reserved": 0, "fusion_lat": 0.0, "lat": 38.92398683333333, "fusion_lon": 0.0, "rental_uris": {"ios": "https://dc.lft.to/lastmile_qr_scan", "android": "https://dc.lft.to/lastmile_qr_scan"}, "lon": -76.9937075, "bike_id": "3558f6649d7508b21bc73e986f8b64ab", "type": "electric_scooter", "name": "3558f6649d7508b21bc73e986f8b64ab"}, {"is_disabled": 0, "is_reserved": 0, "fusion_lat": 0.0, "lat": 38.892104833333335, "fusion_lon": 0.0, "rental_uris": {"ios": "https://dc.lft.to/lastmile_qr_scan", "android": "https://dc.lft.to/lastmile_qr_scan"}, "lon": -76.998419, "bike_id": "af14da461ee9c6e5eeafde613f4fb5fe", "type": "electric_scooter", "name": "af14da461ee9c6e5eeafde613f4fb5fe"}, {"is_disabled": 0, "is_reserved": 0, "fusion_lat": 0.0, "lat": 38.93119133333333, "fusion_lon": 0.0, "rental_uris": {"ios": "https://dc.lft.to/lastmile_qr_scan", "android": "https://dc.lft.to/lastmile_qr_scan"}, "lon": -77.02070333333333, "bike_id": "e4cfebdd56b6e708c7b8337089944dc8", "type": "electric_scooter", "name": "e4cfebdd56b6e708c7b8337089944dc8"}, {"is_disabled": 0, "is_reserved": 0, "fusion_lat": 0.0, "lat": 38.93255283333333, "fusion_lon": 0.0, "rental_uris": {"ios": "https://dc.lft.to/lastmile_qr_scan", "android": "https://dc.lft.to/lastmile_qr_scan"}, "lon": -77.03285, "bike_id": "1f22c95b8f068866f59987997492319b", "type": "electric_scooter", "name": "1f22c95b8f068866f59987997492319b"}, {"is_disabled": 0, "is_reserved": 0, "fusion_lat": 0.0, "lat": 38.90798783333334, "fusion_lon": 0.0, "rental_uris": {"ios": "https://dc.lft.to/lastmile_qr_scan", "android": "https://dc.lft.to/lastmile_qr_scan"}, "lon": -77.049865, "bike_id": "eb0c2b67ac2331d9d98f2d90aeb2fa9f", "type": "electric_scooter", "name": "eb0c2b67ac2331d9d98f2d90aeb2fa9f"}, {"is_disabled": 0, "is_reserved": 0, "fusion_lat": 0.0, "lat": 38.918623, "fusion_lon": 0.0, "rental_uris": {"ios": "https://dc.lft.to/lastmile_qr_scan", "android": "https://dc.lft.to/lastmile_qr_scan"}, "lon": -77.04451516666667, "bike_id": "31667be93367fd98b4ebaa1834e5e064", "type": "electric_scooter", "name": "31667be93367fd98b4ebaa1834e5e064"}, {"is_disabled": 0, "is_reserved": 0, "fusion_lat": 0.0, "lat": 38.9073925, "fusion_lon": 0.0, "rental_uris": {"ios": "https://dc.lft.to/lastmile_qr_scan", "android": "https://dc.lft.to/lastmile_qr_scan"}, "lon": -77.028034, "bike_id": "e8830ecb15c59e3ecf3e67b8cf90ed65", "type": "electric_scooter", "name": "e8830ecb15c59e3ecf3e67b8cf90ed65"}, {"is_disabled": 0, "is_reserved": 0, "fusion_lat": 0.0, "lat": 38.88358133333333, "fusion_lon": 0.0, "rental_uris": {"ios": "https://dc.lft.to/lastmile_qr_scan", "android": "https://dc.lft.to/lastmile_qr_scan"}, "lon": -76.95768566666666, "bike_id": "2cb05ebb3aaf67fd48b66359f88b0e06", "type": "electric_scooter", "name": "2cb05ebb3aaf67fd48b66359f88b0e06"}, {"is_disabled": 0, "is_reserved": 0, "fusion_lat": 0.0, "lat": 38.94840383333333, "fusion_lon": 0.0, "rental_uris": {"ios": "https://dc.lft.to/lastmile_qr_scan", "android": "https://dc.lft.to/lastmile_qr_scan"}, "lon": -77.0798315, "bike_id": "63746acc4c9bfe1c17ca91e73f66875c", "type": "electric_scooter", "name": "63746acc4c9bfe1c17ca91e73f66875c"}, {"is_disabled": 0, "is_reserved": 0, "fusion_lat": 0.0, "lat": 38.8985005, "fusion_lon": 0.0, "rental_uris": {"ios": "https://dc.lft.to/lastmile_qr_scan", "android": "https://dc.lft.to/lastmile_qr_scan"}, "lon": -76.942544, "bike_id": "a1921066b47601186fde06aa538fbb66", "type": "electric_bike", "name": "a1921066b47601186fde06aa538fbb66"}, {"is_disabled": 0, "is_reserved": 0, "fusion_lat": 0.0, "lat": 38.892288, "fusion_lon": 0.0, "rental_uris": {"ios": "https://dc.lft.to/lastmile_qr_scan", "android": "https://dc.lft.to/lastmile_qr_scan"}, "lon": -77.0500125, "bike_id": "669bcfa0b374d4dd661dbfc6ed0f9993", "type": "electric_scooter", "name": "669bcfa0b374d4dd661dbfc6ed0f9993"}, {"is_disabled": 0, "is_reserved": 0, "fusion_lat": 0.0, "lat": 38.91752066666667, "fusion_lon": 0.0, "rental_uris": {"ios": "https://dc.lft.to/lastmile_qr_scan", "android": "https://dc.lft.to/lastmile_qr_scan"}, "lon": -77.03905916666666, "bike_id": "0ee481e9c15c23b4feca4f9984485783", "type": "electric_scooter", "name": "0ee481e9c15c23b4feca4f9984485783"}, {"is_disabled": 0, "is_reserved": 0, "fusion_lat": 0.0, "lat": 38.9200005, "fusion_lon": 0.0, "rental_uris": {"ios": "https://dc.lft.to/lastmile_qr_scan", "android": "https://dc.lft.to/lastmile_qr_scan"}, "lon": -77.04748966666666, "bike_id": "d698c0659632cf042a585d27d20ccac0", "type": "electric_scooter", "name": "d698c0659632cf042a585d27d20ccac0"}, {"is_disabled": 0, "is_reserved": 0, "fusion_lat": 0.0, "lat": 38.87163316666667, "fusion_lon": 0.0, "rental_uris": {"ios": "https://dc.lft.to/lastmile_qr_scan", "android": "https://dc.lft.to/lastmile_qr_scan"}, "lon": -77.0135935, "bike_id": "3d090887bad2ae18200f3fbcfd283a3b", "type": "electric_scooter", "name": "3d090887bad2ae18200f3fbcfd283a3b"}, {"is_disabled": 0, "is_reserved": 0, "fusion_lat": 0.0, "lat": 38.92354516666666, "fusion_lon": 0.0, "rental_uris": {"ios": "https://dc.lft.to/lastmile_qr_scan", "android": "https://dc.lft.to/lastmile_qr_scan"}, "lon": -77.033714, "bike_id": "5eb2672cb5ebd4c5cd56bdb9978ee7b8", "type": "electric_scooter", "name": "5eb2672cb5ebd4c5cd56bdb9978ee7b8"}, {"is_disabled": 0, "is_reserved": 0, "fusion_lat": 0.0, "lat": 38.884487, "fusion_lon": 0.0, "rental_uris": {"ios": "https://dc.lft.to/lastmile_qr_scan", "android": "https://dc.lft.to/lastmile_qr_scan"}, "lon": -77.029281, "bike_id": "59ce6907eb32f6335ed73a4aff235ce1", "type": "electric_scooter", "name": "59ce6907eb32f6335ed73a4aff235ce1"}, {"is_disabled": 0, "is_reserved": 0, "fusion_lat": 0.0, "lat": 38.9141495, "fusion_lon": 0.0, "rental_uris": {"ios": "https://dc.lft.to/lastmile_qr_scan", "android": "https://dc.lft.to/lastmile_qr_scan"}, "lon": -77.02216166666666, "bike_id": "c982544564441c72aa32256f19099973", "type": "electric_scooter", "name": "c982544564441c72aa32256f19099973"}, {"is_disabled": 0, "is_reserved": 0, "fusion_lat": 0.0, "lat": 38.9057375, "fusion_lon": 0.0, "rental_uris": {"ios": "https://dc.lft.to/lastmile_qr_scan", "android": "https://dc.lft.to/lastmile_qr_scan"}, "lon": -77.00393266666667, "bike_id": "4bdf7ef3089509aa4251bad4ef055750", "type": "electric_scooter", "name": "4bdf7ef3089509aa4251bad4ef055750"}, {"is_disabled": 0, "is_reserved": 0, "fusion_lat": 0.0, "lat": 38.8993865, "fusion_lon": 0.0, "rental_uris": {"ios": "https://dc.lft.to/lastmile_qr_scan", "android": "https://dc.lft.to/lastmile_qr_scan"}, "lon": -77.03227283333334, "bike_id": "b4f475219e34035e5c2c7774a97dabec", "type": "electric_scooter", "name": "b4f475219e34035e5c2c7774a97dabec"}, {"is_disabled": 0, "is_reserved": 0, "fusion_lat": 0.0, "lat": 38.90026366666667, "fusion_lon": 0.0, "rental_uris": {"ios": "https://dc.lft.to/lastmile_qr_scan", "android": "https://dc.lft.to/lastmile_qr_scan"}, "lon": -76.99862116666667, "bike_id": "325dadbc7dfb357952feacd8e00c47f7", "type": "electric_scooter", "name": "325dadbc7dfb357952feacd8e00c47f7"}, {"is_disabled": 0, "is_reserved": 0, "fusion_lat": 0.0, "lat": 38.918242, "fusion_lon": 0.0, "rental_uris": {"ios": "https://dc.lft.to/lastmile_qr_scan", "android": "https://dc.lft.to/lastmile_qr_scan"}, "lon": -77.03443483333334, "bike_id": "348b3bd89a4b7b5382e5d029c4bcb587", "type": "electric_scooter", "name": "348b3bd89a4b7b5382e5d029c4bcb587"}, {"is_disabled": 0, "is_reserved": 0, "fusion_lat": 0.0, "lat": 38.923463, "fusion_lon": 0.0, "rental_uris": {"ios": "https://dc.lft.to/lastmile_qr_scan", "android": "https://dc.lft.to/lastmile_qr_scan"}, "lon": -76.9987015, "bike_id": "67190ed0cb00646251ef6c6a432fa30c", "type": "electric_scooter", "name": "67190ed0cb00646251ef6c6a432fa30c"}, {"is_disabled": 0, "is_reserved": 0, "fusion_lat": 0.0, "lat": 38.874325666666664, "fusion_lon": 0.0, "rental_uris": {"ios": "https://dc.lft.to/lastmile_qr_scan", "android": "https://dc.lft.to/lastmile_qr_scan"}, "lon": -77.00061716666667, "bike_id": "b0c00882c0a5b0c3e801bcec7c8600da", "type": "electric_scooter", "name": "b0c00882c0a5b0c3e801bcec7c8600da"}, {"is_disabled": 0, "is_reserved": 0, "fusion_lat": 0.0, "lat": 38.898041, "fusion_lon": 0.0, "rental_uris": {"ios": "https://dc.lft.to/lastmile_qr_scan", "android": "https://dc.lft.to/lastmile_qr_scan"}, "lon": -76.97949033333333, "bike_id": "274e6e8038b97c7182149f6990a341fb", "type": "electric_scooter", "name": "274e6e8038b97c7182149f6990a341fb"}, {"is_disabled": 0, "is_reserved": 0, "fusion_lat": 0.0, "lat": 38.8923235, "fusion_lon": 0.0, "rental_uris": {"ios": "https://dc.lft.to/lastmile_qr_scan", "android": "https://dc.lft.to/lastmile_qr_scan"}, "lon": -77.03201833333334, "bike_id": "fe55d20e5e41cd40abfee92f1f1f2933", "type": "electric_scooter", "name": "fe55d20e5e41cd40abfee92f1f1f2933"}, {"is_disabled": 0, "is_reserved": 0, "fusion_lat": 0.0, "lat": 38.93073583333333, "fusion_lon": 0.0, "rental_uris": {"ios": "https://dc.lft.to/lastmile_qr_scan", "android": "https://dc.lft.to/lastmile_qr_scan"}, "lon": -77.02166333333334, "bike_id": "1e4f7dd22234cc52e47c477194ac79ad", "type": "electric_scooter", "name": "1e4f7dd22234cc52e47c477194ac79ad"}, {"is_disabled": 0, "is_reserved": 0, "fusion_lat": 0.0, "lat": 38.909061, "fusion_lon": 0.0, "rental_uris": {"ios": "https://dc.lft.to/lastmile_qr_scan", "android": "https://dc.lft.to/lastmile_qr_scan"}, "lon": -77.0045895, "bike_id": "4963d2d6b3fa34c54ec0aa71108f4b10", "type": "electric_scooter", "name": "4963d2d6b3fa34c54ec0aa71108f4b10"}, {"is_disabled": 0, "is_reserved": 0, "fusion_lat": 0.0, "lat": 38.89827366666667, "fusion_lon": 0.0, "rental_uris": {"ios": "https://dc.lft.to/lastmile_qr_scan", "android": "https://dc.lft.to/lastmile_qr_scan"}, "lon": -76.926001, "bike_id": "db8e6716d5f33c85cfea80197bfd622f", "type": "electric_scooter", "name": "db8e6716d5f33c85cfea80197bfd622f"}, {"is_disabled": 0, "is_reserved": 0, "fusion_lat": 0.0, "lat": 38.921515166666666, "fusion_lon": 0.0, "rental_uris": {"ios": "https://dc.lft.to/lastmile_qr_scan", "android": "https://dc.lft.to/lastmile_qr_scan"}, "lon": -77.03512533333334, "bike_id": "bbd6ff755b81c78bb28fea6ea3f15f7a", "type": "electric_scooter", "name": "bbd6ff755b81c78bb28fea6ea3f15f7a"}, {"is_disabled": 0, "is_reserved": 0, "fusion_lat": 0.0, "lat": 38.9162765, "fusion_lon": 0.0, "rental_uris": {"ios": "https://dc.lft.to/lastmile_qr_scan", "android": "https://dc.lft.to/lastmile_qr_scan"}, "lon": -77.03502116666667, "bike_id": "a151c6f9ba79d59d7710d11e88624035", "type": "electric_scooter", "name": "a151c6f9ba79d59d7710d11e88624035"}, {"is_disabled": 0, "is_reserved": 0, "fusion_lat": 0.0, "lat": 38.905162, "fusion_lon": 0.0, "rental_uris": {"ios": "https://dc.lft.to/lastmile_qr_scan", "android": "https://dc.lft.to/lastmile_qr_scan"}, "lon": -77.0170105, "bike_id": "fb89c4351730d82a9e8549aad887676e", "type": "electric_scooter", "name": "fb89c4351730d82a9e8549aad887676e"}, {"is_disabled": 0, "is_reserved": 0, "fusion_lat": 0.0, "lat": 38.89306466666667, "fusion_lon": 0.0, "rental_uris": {"ios": "https://dc.lft.to/lastmile_qr_scan", "android": "https://dc.lft.to/lastmile_qr_scan"}, "lon": -76.99960383333334, "bike_id": "66e7e318bb6115a12391f647b4235c0a", "type": "electric_scooter", "name": "66e7e318bb6115a12391f647b4235c0a"}, {"is_disabled": 0, "is_reserved": 0, "fusion_lat": 0.0, "lat": 38.9387715, "fusion_lon": 0.0, "rental_uris": {"ios": "https://dc.lft.to/lastmile_qr_scan", "android": "https://dc.lft.to/lastmile_qr_scan"}, "lon": -77.03038483333333, "bike_id": "f1cdf56a367dd5818d790dd6a7cfa1a7", "type": "electric_scooter", "name": "f1cdf56a367dd5818d790dd6a7cfa1a7"}, {"is_disabled": 0, "is_reserved": 0, "fusion_lat": 0.0, "lat": 38.932879, "fusion_lon": 0.0, "rental_uris": {"ios": "https://dc.lft.to/lastmile_qr_scan", "android": "https://dc.lft.to/lastmile_qr_scan"}, "lon": -77.03549, "bike_id": "191dd95654b630329c38afb3acae1f4d", "type": "electric_scooter", "name": "191dd95654b630329c38afb3acae1f4d"}, {"is_disabled": 0, "is_reserved": 0, "fusion_lat": 0.0, "lat": 38.898918, "fusion_lon": 0.0, "rental_uris": {"ios": "https://dc.lft.to/lastmile_qr_scan", "android": "https://dc.lft.to/lastmile_qr_scan"}, "lon": -76.93237183333333, "bike_id": "1238ed01d79bc01d3af717653fcd1ac2", "type": "electric_scooter", "name": "1238ed01d79bc01d3af717653fcd1ac2"}, {"is_disabled": 0, "is_reserved": 0, "fusion_lat": 0.0, "lat": 38.896488833333336, "fusion_lon": 0.0, "rental_uris": {"ios": "https://dc.lft.to/lastmile_qr_scan", "android": "https://dc.lft.to/lastmile_qr_scan"}, "lon": -77.05132883333333, "bike_id": "10ce95faea09b12542c8a9757ddbebe0", "type": "electric_scooter", "name": "10ce95faea09b12542c8a9757ddbebe0"}, {"is_disabled": 0, "is_reserved": 0, "fusion_lat": 0.0, "lat": 38.89954616666667, "fusion_lon": 0.0, "rental_uris": {"ios": "https://dc.lft.to/lastmile_qr_scan", "android": "https://dc.lft.to/lastmile_qr_scan"}, "lon": -77.052669, "bike_id": "6873f01c88a170a57cf21aed35f59d52", "type": "electric_scooter", "name": "6873f01c88a170a57cf21aed35f59d52"}, {"is_disabled": 0, "is_reserved": 0, "fusion_lat": 0.0, "lat": 38.956890333333334, "fusion_lon": 0.0, "rental_uris": {"ios": "https://dc.lft.to/lastmile_qr_scan", "android": "https://dc.lft.to/lastmile_qr_scan"}, "lon": -77.02231383333333, "bike_id": "37816bf39669c4da0ec471026c4c7657", "type": "electric_bike", "name": "37816bf39669c4da0ec471026c4c7657"}, {"is_disabled": 0, "is_reserved": 0, "fusion_lat": 0.0, "lat": 38.88903166666667, "fusion_lon": 0.0, "rental_uris": {"ios": "https://dc.lft.to/lastmile_qr_scan", "android": "https://dc.lft.to/lastmile_qr_scan"}, "lon": -76.98370083333333, "bike_id": "b0c8950a49be5f33e6d86761fc6cc3ec", "type": "electric_scooter", "name": "b0c8950a49be5f33e6d86761fc6cc3ec"}, {"is_disabled": 0, "is_reserved": 0, "fusion_lat": 0.0, "lat": 38.900625, "fusion_lon": 0.0, "rental_uris": {"ios": "https://dc.lft.to/lastmile_qr_scan", "android": "https://dc.lft.to/lastmile_qr_scan"}, "lon": -77.0075, "bike_id": "ccb51c9e1f8ce665acbc65ed6f389620", "type": "electric_scooter", "name": "ccb51c9e1f8ce665acbc65ed6f389620"}, {"is_disabled": 0, "is_reserved": 0, "fusion_lat": 0.0, "lat": 38.8804215, "fusion_lon": 0.0, "rental_uris": {"ios": "https://dc.lft.to/lastmile_qr_scan", "android": "https://dc.lft.to/lastmile_qr_scan"}, "lon": -77.0175335, "bike_id": "b3ada31b088134e316f789d9c5d1adb2", "type": "electric_scooter", "name": "b3ada31b088134e316f789d9c5d1adb2"}, {"is_disabled": 0, "is_reserved": 0, "fusion_lat": 0.0, "lat": 38.923345833333336, "fusion_lon": 0.0, "rental_uris": {"ios": "https://dc.lft.to/lastmile_qr_scan", "android": "https://dc.lft.to/lastmile_qr_scan"}, "lon": -77.056799, "bike_id": "23049673553a4257f0d31885d9ea5e4c", "type": "electric_scooter", "name": "23049673553a4257f0d31885d9ea5e4c"}, {"is_disabled": 0, "is_reserved": 0, "fusion_lat": 0.0, "lat": 38.924502833333335, "fusion_lon": 0.0, "rental_uris": {"ios": "https://dc.lft.to/lastmile_qr_scan", "android": "https://dc.lft.to/lastmile_qr_scan"}, "lon": -77.02978533333334, "bike_id": "c7f90af2075ab0c2daf7677d3e43cbcd", "type": "electric_scooter", "name": "c7f90af2075ab0c2daf7677d3e43cbcd"}, {"is_disabled": 0, "is_reserved": 0, "fusion_lat": 0.0, "lat": 38.90673983333333, "fusion_lon": 0.0, "rental_uris": {"ios": "https://dc.lft.to/lastmile_qr_scan", "android": "https://dc.lft.to/lastmile_qr_scan"}, "lon": -77.02703016666666, "bike_id": "5c850d1270f0eec9b6e4aac376691581", "type": "electric_scooter", "name": "5c850d1270f0eec9b6e4aac376691581"}, {"is_disabled": 0, "is_reserved": 0, "fusion_lat": 0.0, "lat": 38.921580666666664, "fusion_lon": 0.0, "rental_uris": {"ios": "https://dc.lft.to/lastmile_qr_scan", "android": "https://dc.lft.to/lastmile_qr_scan"}, "lon": -77.03316416666667, "bike_id": "c542b1729b44d01a2d4f1b699a4cfb23", "type": "electric_scooter", "name": "c542b1729b44d01a2d4f1b699a4cfb23"}, {"is_disabled": 0, "is_reserved": 0, "fusion_lat": 0.0, "lat": 38.873447666666664, "fusion_lon": 0.0, "rental_uris": {"ios": "https://dc.lft.to/lastmile_qr_scan", "android": "https://dc.lft.to/lastmile_qr_scan"}, "lon": -76.991639, "bike_id": "931a773f5ffdd977d16f3c0f22a81901", "type": "electric_scooter", "name": "931a773f5ffdd977d16f3c0f22a81901"}, {"is_disabled": 0, "is_reserved": 0, "fusion_lat": 0.0, "lat": 38.93127716666667, "fusion_lon": 0.0, "rental_uris": {"ios": "https://dc.lft.to/lastmile_qr_scan", "android": "https://dc.lft.to/lastmile_qr_scan"}, "lon": -77.02200133333334, "bike_id": "ab0d11edc95d5f6bd5d2a0089740e041", "type": "electric_scooter", "name": "ab0d11edc95d5f6bd5d2a0089740e041"}, {"is_disabled": 0, "is_reserved": 0, "fusion_lat": 0.0, "lat": 38.928787, "fusion_lon": 0.0, "rental_uris": {"ios": "https://dc.lft.to/lastmile_qr_scan", "android": "https://dc.lft.to/lastmile_qr_scan"}, "lon": -77.03434083333333, "bike_id": "aed060b31d84405bcd1303b899f6e643", "type": "electric_scooter", "name": "aed060b31d84405bcd1303b899f6e643"}, {"is_disabled": 0, "is_reserved": 0, "fusion_lat": 0.0, "lat": 38.89196616666667, "fusion_lon": 0.0, "rental_uris": {"ios": "https://dc.lft.to/lastmile_qr_scan", "android": "https://dc.lft.to/lastmile_qr_scan"}, "lon": -77.02230983333334, "bike_id": "3ba172af501e55b5f2a41a82b1c68d03", "type": "electric_scooter", "name": "3ba172af501e55b5f2a41a82b1c68d03"}, {"is_disabled": 0, "is_reserved": 0, "fusion_lat": 0.0, "lat": 38.88247583333333, "fusion_lon": 0.0, "rental_uris": {"ios": "https://dc.lft.to/lastmile_qr_scan", "android": "https://dc.lft.to/lastmile_qr_scan"}, "lon": -76.96258616666667, "bike_id": "4c84b03fe899897f4a65da1b728b10fe", "type": "electric_bike", "name": "4c84b03fe899897f4a65da1b728b10fe"}, {"is_disabled": 0, "is_reserved": 0, "fusion_lat": 0.0, "lat": 38.91880066666667, "fusion_lon": 0.0, "rental_uris": {"ios": "https://dc.lft.to/lastmile_qr_scan", "android": "https://dc.lft.to/lastmile_qr_scan"}, "lon": -77.04453033333333, "bike_id": "7695e71285746df3856af70cb08bd7c9", "type": "electric_scooter", "name": "7695e71285746df3856af70cb08bd7c9"}, {"is_disabled": 0, "is_reserved": 0, "fusion_lat": 0.0, "lat": 38.90568916666667, "fusion_lon": 0.0, "rental_uris": {"ios": "https://dc.lft.to/lastmile_qr_scan", "android": "https://dc.lft.to/lastmile_qr_scan"}, "lon": -77.03291, "bike_id": "43e2c2be17c162d701f64111c9359da8", "type": "electric_scooter", "name": "43e2c2be17c162d701f64111c9359da8"}, {"is_disabled": 0, "is_reserved": 0, "fusion_lat": 0.0, "lat": 38.8819645, "fusion_lon": 0.0, "rental_uris": {"ios": "https://dc.lft.to/lastmile_qr_scan", "android": "https://dc.lft.to/lastmile_qr_scan"}, "lon": -77.02861866666667, "bike_id": "faf34a94e99945cc61bdb3f43d19fe8d", "type": "electric_scooter", "name": "faf34a94e99945cc61bdb3f43d19fe8d"}, {"is_disabled": 0, "is_reserved": 0, "fusion_lat": 0.0, "lat": 38.88076133333333, "fusion_lon": 0.0, "rental_uris": {"ios": "https://dc.lft.to/lastmile_qr_scan", "android": "https://dc.lft.to/lastmile_qr_scan"}, "lon": -77.03262716666667, "bike_id": "f46ed9026af1e09f0ed49275fb19ae7f", "type": "electric_bike", "name": "f46ed9026af1e09f0ed49275fb19ae7f"}, {"is_disabled": 0, "is_reserved": 0, "fusion_lat": 0.0, "lat": 38.87925633333333, "fusion_lon": 0.0, "rental_uris": {"ios": "https://dc.lft.to/lastmile_qr_scan", "android": "https://dc.lft.to/lastmile_qr_scan"}, "lon": -77.00786216666667, "bike_id": "5dcc3ad1e10f3c43f9243367c211a4b2", "type": "electric_scooter", "name": "5dcc3ad1e10f3c43f9243367c211a4b2"}, {"is_disabled": 0, "is_reserved": 0, "fusion_lat": 0.0, "lat": 38.807386666666666, "fusion_lon": 0.0, "rental_uris": {"ios": "https://dc.lft.to/lastmile_qr_scan", "android": "https://dc.lft.to/lastmile_qr_scan"}, "lon": -77.0969275, "bike_id": "25a6f26c6462babfaa309a641953a867", "type": "electric_bike", "name": "25a6f26c6462babfaa309a641953a867"}, {"is_disabled": 0, "is_reserved": 0, "fusion_lat": 0.0, "lat": 38.905338, "fusion_lon": 0.0, "rental_uris": {"ios": "https://dc.lft.to/lastmile_qr_scan", "android": "https://dc.lft.to/lastmile_qr_scan"}, "lon": -77.06278583333334, "bike_id": "60c099c3159b9d9c7ccb2f6cc8fce36c", "type": "electric_bike", "name": "60c099c3159b9d9c7ccb2f6cc8fce36c"}, {"is_disabled": 0, "is_reserved": 0, "fusion_lat": 0.0, "lat": 38.90521116666667, "fusion_lon": 0.0, "rental_uris": {"ios": "https://dc.lft.to/lastmile_qr_scan", "android": "https://dc.lft.to/lastmile_qr_scan"}, "lon": -77.02949416666667, "bike_id": "48bff64f25f16a0041309b16ebf706bb", "type": "electric_scooter", "name": "48bff64f25f16a0041309b16ebf706bb"}, {"is_disabled": 0, "is_reserved": 0, "fusion_lat": 0.0, "lat": 38.875661666666666, "fusion_lon": 0.0, "rental_uris": {"ios": "https://dc.lft.to/lastmile_qr_scan", "android": "https://dc.lft.to/lastmile_qr_scan"}, "lon": -77.00605833333333, "bike_id": "ed0f8d74afa2c6a0ad7a3992ffe9d321", "type": "electric_scooter", "name": "ed0f8d74afa2c6a0ad7a3992ffe9d321"}, {"is_disabled": 0, "is_reserved": 0, "fusion_lat": 0.0, "lat": 38.93712083333333, "fusion_lon": 0.0, "rental_uris": {"ios": "https://dc.lft.to/lastmile_qr_scan", "android": "https://dc.lft.to/lastmile_qr_scan"}, "lon": -77.02386, "bike_id": "b93289c3b315695147e6fa2de124f94b", "type": "electric_scooter", "name": "b93289c3b315695147e6fa2de124f94b"}, {"is_disabled": 0, "is_reserved": 0, "fusion_lat": 0.0, "lat": 38.9183295, "fusion_lon": 0.0, "rental_uris": {"ios": "https://dc.lft.to/lastmile_qr_scan", "android": "https://dc.lft.to/lastmile_qr_scan"}, "lon": -77.045044, "bike_id": "b759b988f45041bb78ca20f27ebf3537", "type": "electric_scooter", "name": "b759b988f45041bb78ca20f27ebf3537"}, {"is_disabled": 0, "is_reserved": 0, "fusion_lat": 0.0, "lat": 38.8924925, "fusion_lon": 0.0, "rental_uris": {"ios": "https://dc.lft.to/lastmile_qr_scan", "android": "https://dc.lft.to/lastmile_qr_scan"}, "lon": -77.04658966666666, "bike_id": "3575bce729e1f26bc9bc5c77eb22d2b0", "type": "electric_scooter", "name": "3575bce729e1f26bc9bc5c77eb22d2b0"}, {"is_disabled": 0, "is_reserved": 0, "fusion_lat": 0.0, "lat": 38.929853666666666, "fusion_lon": 0.0, "rental_uris": {"ios": "https://dc.lft.to/lastmile_qr_scan", "android": "https://dc.lft.to/lastmile_qr_scan"}, "lon": -77.01467016666666, "bike_id": "6c34828d525ff88255d9033260614e90", "type": "electric_scooter", "name": "6c34828d525ff88255d9033260614e90"}, {"is_disabled": 0, "is_reserved": 0, "fusion_lat": 0.0, "lat": 38.936051, "fusion_lon": 0.0, "rental_uris": {"ios": "https://dc.lft.to/lastmile_qr_scan", "android": "https://dc.lft.to/lastmile_qr_scan"}, "lon": -77.0379855, "bike_id": "d634e3b4f3a6bb64c9d2e3bc15800721", "type": "electric_scooter", "name": "d634e3b4f3a6bb64c9d2e3bc15800721"}, {"is_disabled": 0, "is_reserved": 0, "fusion_lat": 0.0, "lat": 38.916306166666665, "fusion_lon": 0.0, "rental_uris": {"ios": "https://dc.lft.to/lastmile_qr_scan", "android": "https://dc.lft.to/lastmile_qr_scan"}, "lon": -77.0314565, "bike_id": "906af838ead982450db4b0565fa94d93", "type": "electric_scooter", "name": "906af838ead982450db4b0565fa94d93"}, {"is_disabled": 0, "is_reserved": 0, "fusion_lat": 0.0, "lat": 38.90455633333333, "fusion_lon": 0.0, "rental_uris": {"ios": "https://dc.lft.to/lastmile_qr_scan", "android": "https://dc.lft.to/lastmile_qr_scan"}, "lon": -77.02695416666667, "bike_id": "869b5e317c77b94d71d0e3d0a6369ff8", "type": "electric_scooter", "name": "869b5e317c77b94d71d0e3d0a6369ff8"}, {"is_disabled": 0, "is_reserved": 0, "fusion_lat": 0.0, "lat": 38.915836, "fusion_lon": 0.0, "rental_uris": {"ios": "https://dc.lft.to/lastmile_qr_scan", "android": "https://dc.lft.to/lastmile_qr_scan"}, "lon": -77.05037166666666, "bike_id": "840dbf15f0d386e375076e53cf43c818", "type": "electric_scooter", "name": "840dbf15f0d386e375076e53cf43c818"}, {"is_disabled": 0, "is_reserved": 0, "fusion_lat": 0.0, "lat": 38.87567683333333, "fusion_lon": 0.0, "rental_uris": {"ios": "https://dc.lft.to/lastmile_qr_scan", "android": "https://dc.lft.to/lastmile_qr_scan"}, "lon": -77.00601466666667, "bike_id": "5879adf1c91efc7e581d7b2a00145d91", "type": "electric_scooter", "name": "5879adf1c91efc7e581d7b2a00145d91"}, {"is_disabled": 0, "is_reserved": 0, "fusion_lat": 0.0, "lat": 38.868916166666665, "fusion_lon": 0.0, "rental_uris": {"ios": "https://dc.lft.to/lastmile_qr_scan", "android": "https://dc.lft.to/lastmile_qr_scan"}, "lon": -76.99002016666667, "bike_id": "90c7f0c14411a6f630f2294b595bbbd7", "type": "electric_scooter", "name": "90c7f0c14411a6f630f2294b595bbbd7"}, {"is_disabled": 0, "is_reserved": 0, "fusion_lat": 0.0, "lat": 38.886560833333334, "fusion_lon": 0.0, "rental_uris": {"ios": "https://dc.lft.to/lastmile_qr_scan", "android": "https://dc.lft.to/lastmile_qr_scan"}, "lon": -77.02826883333333, "bike_id": "095f4f9387550e085d07f412d3acf30c", "type": "electric_scooter", "name": "095f4f9387550e085d07f412d3acf30c"}, {"is_disabled": 0, "is_reserved": 0, "fusion_lat": 0.0, "lat": 38.896026666666664, "fusion_lon": 0.0, "rental_uris": {"ios": "https://dc.lft.to/lastmile_qr_scan", "android": "https://dc.lft.to/lastmile_qr_scan"}, "lon": -76.98324383333333, "bike_id": "d66603bb6b60757e8604c2f082f5930c", "type": "electric_scooter", "name": "d66603bb6b60757e8604c2f082f5930c"}, {"is_disabled": 0, "is_reserved": 0, "fusion_lat": 0.0, "lat": 38.97473016666667, "fusion_lon": 0.0, "rental_uris": {"ios": "https://dc.lft.to/lastmile_qr_scan", "android": "https://dc.lft.to/lastmile_qr_scan"}, "lon": -76.986645, "bike_id": "11d5c87c08e73f10743a666df6d0d555", "type": "electric_bike", "name": "11d5c87c08e73f10743a666df6d0d555"}, {"is_disabled": 0, "is_reserved": 0, "fusion_lat": 0.0, "lat": 38.90850666666667, "fusion_lon": 0.0, "rental_uris": {"ios": "https://dc.lft.to/lastmile_qr_scan", "android": "https://dc.lft.to/lastmile_qr_scan"}, "lon": -76.99799066666667, "bike_id": "fb86ecd794c512ef81fa73a8fd821fd8", "type": "electric_scooter", "name": "fb86ecd794c512ef81fa73a8fd821fd8"}, {"is_disabled": 0, "is_reserved": 0, "fusion_lat": 0.0, "lat": 38.90587983333333, "fusion_lon": 0.0, "rental_uris": {"ios": "https://dc.lft.to/lastmile_qr_scan", "android": "https://dc.lft.to/lastmile_qr_scan"}, "lon": -76.98896933333333, "bike_id": "376c81f25406c2ac936ad222c797d608", "type": "electric_scooter", "name": "376c81f25406c2ac936ad222c797d608"}, {"is_disabled": 0, "is_reserved": 0, "fusion_lat": 0.0, "lat": 38.874429666666664, "fusion_lon": 0.0, "rental_uris": {"ios": "https://dc.lft.to/lastmile_qr_scan", "android": "https://dc.lft.to/lastmile_qr_scan"}, "lon": -77.00049683333333, "bike_id": "5a4bdbf7079fa1e823d715946f112789", "type": "electric_scooter", "name": "5a4bdbf7079fa1e823d715946f112789"}, {"is_disabled": 0, "is_reserved": 0, "fusion_lat": 0.0, "lat": 38.834941, "fusion_lon": 0.0, "rental_uris": {"ios": "https://dc.lft.to/lastmile_qr_scan", "android": "https://dc.lft.to/lastmile_qr_scan"}, "lon": -77.00435516666667, "bike_id": "3cb0683a3822091bab3cb7221bf8300a", "type": "electric_bike", "name": "3cb0683a3822091bab3cb7221bf8300a"}, {"is_disabled": 0, "is_reserved": 0, "fusion_lat": 0.0, "lat": 39.029308, "fusion_lon": 0.0, "rental_uris": {"ios": "https://dc.lft.to/lastmile_qr_scan", "android": "https://dc.lft.to/lastmile_qr_scan"}, "lon": -77.013611, "bike_id": "22160f89293e3b5f5a0675c61f4a2551", "type": "electric_bike", "name": "22160f89293e3b5f5a0675c61f4a2551"}, {"is_disabled": 0, "is_reserved": 0, "fusion_lat": 0.0, "lat": 38.8402895, "fusion_lon": 0.0, "rental_uris": {"ios": "https://dc.lft.to/lastmile_qr_scan", "android": "https://dc.lft.to/lastmile_qr_scan"}, "lon": -76.9762525, "bike_id": "2053288eba493534f70ad0cb300d2264", "type": "electric_bike", "name": "2053288eba493534f70ad0cb300d2264"}, {"is_disabled": 0, "is_reserved": 0, "fusion_lat": 0.0, "lat": 38.88712366666667, "fusion_lon": 0.0, "rental_uris": {"ios": "https://dc.lft.to/lastmile_qr_scan", "android": "https://dc.lft.to/lastmile_qr_scan"}, "lon": -76.99608683333334, "bike_id": "3757e21d8dfb7b1ac95127ebdb98cfb6", "type": "electric_scooter", "name": "3757e21d8dfb7b1ac95127ebdb98cfb6"}, {"is_disabled": 0, "is_reserved": 0, "fusion_lat": 0.0, "lat": 38.92203383333333, "fusion_lon": 0.0, "rental_uris": {"ios": "https://dc.lft.to/lastmile_qr_scan", "android": "https://dc.lft.to/lastmile_qr_scan"}, "lon": -77.04257016666666, "bike_id": "94dbec3a622730aedaf7023199bbfea5", "type": "electric_scooter", "name": "94dbec3a622730aedaf7023199bbfea5"}, {"is_disabled": 0, "is_reserved": 0, "fusion_lat": 0.0, "lat": 38.90866966666667, "fusion_lon": 0.0, "rental_uris": {"ios": "https://dc.lft.to/lastmile_qr_scan", "android": "https://dc.lft.to/lastmile_qr_scan"}, "lon": -77.04732666666666, "bike_id": "753d8689424bf55bb9b7474625c2f11a", "type": "electric_scooter", "name": "753d8689424bf55bb9b7474625c2f11a"}, {"is_disabled": 0, "is_reserved": 0, "fusion_lat": 0.0, "lat": 38.908607833333335, "fusion_lon": 0.0, "rental_uris": {"ios": "https://dc.lft.to/lastmile_qr_scan", "android": "https://dc.lft.to/lastmile_qr_scan"}, "lon": -77.0482485, "bike_id": "cb720defe5367705828dab1361277238", "type": "electric_scooter", "name": "cb720defe5367705828dab1361277238"}, {"is_disabled": 0, "is_reserved": 0, "fusion_lat": 0.0, "lat": 38.898254666666666, "fusion_lon": 0.0, "rental_uris": {"ios": "https://dc.lft.to/lastmile_qr_scan", "android": "https://dc.lft.to/lastmile_qr_scan"}, "lon": -77.029548, "bike_id": "7617061cff98eb302a7ddb5673e65801", "type": "electric_scooter", "name": "7617061cff98eb302a7ddb5673e65801"}, {"is_disabled": 0, "is_reserved": 0, "fusion_lat": 0.0, "lat": 38.9006525, "fusion_lon": 0.0, "rental_uris": {"ios": "https://dc.lft.to/lastmile_qr_scan", "android": "https://dc.lft.to/lastmile_qr_scan"}, "lon": -76.98699183333333, "bike_id": "7af9a2b34784adf1c4cb942f745d3721", "type": "electric_scooter", "name": "7af9a2b34784adf1c4cb942f745d3721"}, {"is_disabled": 0, "is_reserved": 0, "fusion_lat": 0.0, "lat": 38.92333333333333, "fusion_lon": 0.0, "rental_uris": {"ios": "https://dc.lft.to/lastmile_qr_scan", "android": "https://dc.lft.to/lastmile_qr_scan"}, "lon": -77.07300783333334, "bike_id": "168af44d88c9264cc0373077c33d2ee5", "type": "electric_scooter", "name": "168af44d88c9264cc0373077c33d2ee5"}, {"is_disabled": 0, "is_reserved": 0, "fusion_lat": 0.0, "lat": 38.86266166666667, "fusion_lon": 0.0, "rental_uris": {"ios": "https://dc.lft.to/lastmile_qr_scan", "android": "https://dc.lft.to/lastmile_qr_scan"}, "lon": -77.08931733333333, "bike_id": "3c65a08d13d566b15ef77e2db7ab1c61", "type": "electric_bike", "name": "3c65a08d13d566b15ef77e2db7ab1c61"}, {"is_disabled": 0, "is_reserved": 0, "fusion_lat": 0.0, "lat": 38.91823683333333, "fusion_lon": 0.0, "rental_uris": {"ios": "https://dc.lft.to/lastmile_qr_scan", "android": "https://dc.lft.to/lastmile_qr_scan"}, "lon": -77.0344075, "bike_id": "d46396558fa1d5c765a3f1abe20ce373", "type": "electric_scooter", "name": "d46396558fa1d5c765a3f1abe20ce373"}, {"is_disabled": 0, "is_reserved": 0, "fusion_lat": 0.0, "lat": 38.91318233333333, "fusion_lon": 0.0, "rental_uris": {"ios": "https://dc.lft.to/lastmile_qr_scan", "android": "https://dc.lft.to/lastmile_qr_scan"}, "lon": -77.01437866666667, "bike_id": "8312393f4d3c96c86a86df9b59c2556f", "type": "electric_scooter", "name": "8312393f4d3c96c86a86df9b59c2556f"}, {"is_disabled": 0, "is_reserved": 0, "fusion_lat": 0.0, "lat": 38.90567333333333, "fusion_lon": 0.0, "rental_uris": {"ios": "https://dc.lft.to/lastmile_qr_scan", "android": "https://dc.lft.to/lastmile_qr_scan"}, "lon": -77.00568183333333, "bike_id": "509aa6a9a7068afb604600b9633d3b95", "type": "electric_scooter", "name": "509aa6a9a7068afb604600b9633d3b95"}, {"is_disabled": 0, "is_reserved": 0, "fusion_lat": 0.0, "lat": 38.8994225, "fusion_lon": 0.0, "rental_uris": {"ios": "https://dc.lft.to/lastmile_qr_scan", "android": "https://dc.lft.to/lastmile_qr_scan"}, "lon": -77.03227566666666, "bike_id": "416b13928597b9bfa593b9c676857de2", "type": "electric_scooter", "name": "416b13928597b9bfa593b9c676857de2"}, {"is_disabled": 0, "is_reserved": 0, "fusion_lat": 0.0, "lat": 38.80020733333333, "fusion_lon": 0.0, "rental_uris": {"ios": "https://dc.lft.to/lastmile_qr_scan", "android": "https://dc.lft.to/lastmile_qr_scan"}, "lon": -77.13001083333333, "bike_id": "3b3cdb31340277884ed1db2792c407ab", "type": "electric_bike", "name": "3b3cdb31340277884ed1db2792c407ab"}, {"is_disabled": 0, "is_reserved": 0, "fusion_lat": 0.0, "lat": 38.8924205, "fusion_lon": 0.0, "rental_uris": {"ios": "https://dc.lft.to/lastmile_qr_scan", "android": "https://dc.lft.to/lastmile_qr_scan"}, "lon": -77.03207483333334, "bike_id": "206b49fc9f1df30beb7ed239712ace4d", "type": "electric_scooter", "name": "206b49fc9f1df30beb7ed239712ace4d"}, {"is_disabled": 0, "is_reserved": 0, "fusion_lat": 0.0, "lat": 38.84759233333333, "fusion_lon": 0.0, "rental_uris": {"ios": "https://dc.lft.to/lastmile_qr_scan", "android": "https://dc.lft.to/lastmile_qr_scan"}, "lon": -77.05377383333334, "bike_id": "a168510791d28f5e1acff51ae56d61d4", "type": "electric_bike", "name": "a168510791d28f5e1acff51ae56d61d4"}, {"is_disabled": 0, "is_reserved": 0, "fusion_lat": 0.0, "lat": 38.90572233333333, "fusion_lon": 0.0, "rental_uris": {"ios": "https://dc.lft.to/lastmile_qr_scan", "android": "https://dc.lft.to/lastmile_qr_scan"}, "lon": -77.04276433333334, "bike_id": "6913bb7cda6b05493f11f2fef4abe2cc", "type": "electric_scooter", "name": "6913bb7cda6b05493f11f2fef4abe2cc"}, {"is_disabled": 0, "is_reserved": 0, "fusion_lat": 0.0, "lat": 38.87290316666667, "fusion_lon": 0.0, "rental_uris": {"ios": "https://dc.lft.to/lastmile_qr_scan", "android": "https://dc.lft.to/lastmile_qr_scan"}, "lon": -76.96785266666667, "bike_id": "3d647822ef80dde1d4c3ac87918a888e", "type": "electric_scooter", "name": "3d647822ef80dde1d4c3ac87918a888e"}, {"is_disabled": 0, "is_reserved": 0, "fusion_lat": 0.0, "lat": 38.92079866666667, "fusion_lon": 0.0, "rental_uris": {"ios": "https://dc.lft.to/lastmile_qr_scan", "android": "https://dc.lft.to/lastmile_qr_scan"}, "lon": -77.00455, "bike_id": "a5b693e3b8ecc3f5a9d4f9a6394029c8", "type": "electric_scooter", "name": "a5b693e3b8ecc3f5a9d4f9a6394029c8"}, {"is_disabled": 0, "is_reserved": 0, "fusion_lat": 0.0, "lat": 38.9319705, "fusion_lon": 0.0, "rental_uris": {"ios": "https://dc.lft.to/lastmile_qr_scan", "android": "https://dc.lft.to/lastmile_qr_scan"}, "lon": -77.024493, "bike_id": "7ca3b482f863e0b746ae9503351f6df4", "type": "electric_scooter", "name": "7ca3b482f863e0b746ae9503351f6df4"}, {"is_disabled": 0, "is_reserved": 0, "fusion_lat": 0.0, "lat": 38.92081733333333, "fusion_lon": 0.0, "rental_uris": {"ios": "https://dc.lft.to/lastmile_qr_scan", "android": "https://dc.lft.to/lastmile_qr_scan"}, "lon": -77.02304516666666, "bike_id": "b2c4a585517b2f7f8d26ef02046ee31b", "type": "electric_scooter", "name": "b2c4a585517b2f7f8d26ef02046ee31b"}, {"is_disabled": 0, "is_reserved": 0, "fusion_lat": 0.0, "lat": 38.892958166666666, "fusion_lon": 0.0, "rental_uris": {"ios": "https://dc.lft.to/lastmile_qr_scan", "android": "https://dc.lft.to/lastmile_qr_scan"}, "lon": -77.03939466666667, "bike_id": "2b4d77a9a4fdf2c5e7812cebd5f213b7", "type": "electric_scooter", "name": "2b4d77a9a4fdf2c5e7812cebd5f213b7"}, {"is_disabled": 0, "is_reserved": 0, "fusion_lat": 0.0, "lat": 38.922597333333336, "fusion_lon": 0.0, "rental_uris": {"ios": "https://dc.lft.to/lastmile_qr_scan", "android": "https://dc.lft.to/lastmile_qr_scan"}, "lon": -77.03670533333333, "bike_id": "89ad7a266adf4b2f45ffda90ae7622dd", "type": "electric_scooter", "name": "89ad7a266adf4b2f45ffda90ae7622dd"}, {"is_disabled": 0, "is_reserved": 0, "fusion_lat": 0.0, "lat": 38.933476666666664, "fusion_lon": 0.0, "rental_uris": {"ios": "https://dc.lft.to/lastmile_qr_scan", "android": "https://dc.lft.to/lastmile_qr_scan"}, "lon": -77.02395433333334, "bike_id": "f27ff0c3ef0749741a24f7112dfc38be", "type": "electric_scooter", "name": "f27ff0c3ef0749741a24f7112dfc38be"}, {"is_disabled": 0, "is_reserved": 0, "fusion_lat": 0.0, "lat": 38.955949, "fusion_lon": 0.0, "rental_uris": {"ios": "https://dc.lft.to/lastmile_qr_scan", "android": "https://dc.lft.to/lastmile_qr_scan"}, "lon": -77.02814366666667, "bike_id": "41640e0256875ec9ff5111151dc02566", "type": "electric_scooter", "name": "41640e0256875ec9ff5111151dc02566"}, {"is_disabled": 0, "is_reserved": 0, "fusion_lat": 0.0, "lat": 38.907297666666665, "fusion_lon": 0.0, "rental_uris": {"ios": "https://dc.lft.to/lastmile_qr_scan", "android": "https://dc.lft.to/lastmile_qr_scan"}, "lon": -77.02727116666667, "bike_id": "f6fef717ecf30a5a3669c412eca3cacb", "type": "electric_scooter", "name": "f6fef717ecf30a5a3669c412eca3cacb"}, {"is_disabled": 0, "is_reserved": 0, "fusion_lat": 0.0, "lat": 38.951418, "fusion_lon": 0.0, "rental_uris": {"ios": "https://dc.lft.to/lastmile_qr_scan", "android": "https://dc.lft.to/lastmile_qr_scan"}, "lon": -76.96628749999999, "bike_id": "55ffe430c48fa9af13f398c140928d1b", "type": "electric_bike", "name": "55ffe430c48fa9af13f398c140928d1b"}, {"is_disabled": 0, "is_reserved": 0, "fusion_lat": 0.0, "lat": 38.90680116666667, "fusion_lon": 0.0, "rental_uris": {"ios": "https://dc.lft.to/lastmile_qr_scan", "android": "https://dc.lft.to/lastmile_qr_scan"}, "lon": -77.027035, "bike_id": "f98e82ca40791f90a0ef49d6c3821b2c", "type": "electric_scooter", "name": "f98e82ca40791f90a0ef49d6c3821b2c"}, {"is_disabled": 0, "is_reserved": 0, "fusion_lat": 0.0, "lat": 38.857890833333336, "fusion_lon": 0.0, "rental_uris": {"ios": "https://dc.lft.to/lastmile_qr_scan", "android": "https://dc.lft.to/lastmile_qr_scan"}, "lon": -77.09960316666667, "bike_id": "7212dd49f0fa3889abcc99f825fd69e1", "type": "electric_bike", "name": "7212dd49f0fa3889abcc99f825fd69e1"}, {"is_disabled": 0, "is_reserved": 0, "fusion_lat": 0.0, "lat": 38.953562833333336, "fusion_lon": 0.0, "rental_uris": {"ios": "https://dc.lft.to/lastmile_qr_scan", "android": "https://dc.lft.to/lastmile_qr_scan"}, "lon": -76.98090966666666, "bike_id": "e454801ad659bd77abcfb65d57e1b707", "type": "electric_bike", "name": "e454801ad659bd77abcfb65d57e1b707"}, {"is_disabled": 0, "is_reserved": 0, "fusion_lat": 0.0, "lat": 38.89871683333333, "fusion_lon": 0.0, "rental_uris": {"ios": "https://dc.lft.to/lastmile_qr_scan", "android": "https://dc.lft.to/lastmile_qr_scan"}, "lon": -77.05017633333334, "bike_id": "6a589135fecae8f3da51e710743e7580", "type": "electric_scooter", "name": "6a589135fecae8f3da51e710743e7580"}, {"is_disabled": 0, "is_reserved": 0, "fusion_lat": 0.0, "lat": 38.9132275, "fusion_lon": 0.0, "rental_uris": {"ios": "https://dc.lft.to/lastmile_qr_scan", "android": "https://dc.lft.to/lastmile_qr_scan"}, "lon": -77.06244916666667, "bike_id": "df8637baf0fe97fd17faba3a3f3a12d4", "type": "electric_scooter", "name": "df8637baf0fe97fd17faba3a3f3a12d4"}, {"is_disabled": 0, "is_reserved": 0, "fusion_lat": 0.0, "lat": 38.917158666666666, "fusion_lon": 0.0, "rental_uris": {"ios": "https://dc.lft.to/lastmile_qr_scan", "android": "https://dc.lft.to/lastmile_qr_scan"}, "lon": -77.0315865, "bike_id": "b0834f7e8dbb1e31d656203330036a06", "type": "electric_scooter", "name": "b0834f7e8dbb1e31d656203330036a06"}, {"is_disabled": 0, "is_reserved": 0, "fusion_lat": 0.0, "lat": 38.91408783333333, "fusion_lon": 0.0, "rental_uris": {"ios": "https://dc.lft.to/lastmile_qr_scan", "android": "https://dc.lft.to/lastmile_qr_scan"}, "lon": -77.01144333333333, "bike_id": "140984cb699a6d44e2f549562ea8c8d0", "type": "electric_scooter", "name": "140984cb699a6d44e2f549562ea8c8d0"}, {"is_disabled": 0, "is_reserved": 0, "fusion_lat": 0.0, "lat": 38.80980733333333, "fusion_lon": 0.0, "rental_uris": {"ios": "https://dc.lft.to/lastmile_qr_scan", "android": "https://dc.lft.to/lastmile_qr_scan"}, "lon": -77.076591, "bike_id": "451c48f4b4ba08862af13e314a3c7379", "type": "electric_bike", "name": "451c48f4b4ba08862af13e314a3c7379"}, {"is_disabled": 0, "is_reserved": 0, "fusion_lat": 0.0, "lat": 38.92153616666667, "fusion_lon": 0.0, "rental_uris": {"ios": "https://dc.lft.to/lastmile_qr_scan", "android": "https://dc.lft.to/lastmile_qr_scan"}, "lon": -77.038771, "bike_id": "5321d2e37574177c82cf90c37b0af41d", "type": "electric_scooter", "name": "5321d2e37574177c82cf90c37b0af41d"}, {"is_disabled": 0, "is_reserved": 0, "fusion_lat": 0.0, "lat": 38.9410375, "fusion_lon": 0.0, "rental_uris": {"ios": "https://dc.lft.to/lastmile_qr_scan", "android": "https://dc.lft.to/lastmile_qr_scan"}, "lon": -77.0250795, "bike_id": "ff05672691edb12669c74e79585833f7", "type": "electric_scooter", "name": "ff05672691edb12669c74e79585833f7"}, {"is_disabled": 0, "is_reserved": 0, "fusion_lat": 0.0, "lat": 38.92857766666667, "fusion_lon": 0.0, "rental_uris": {"ios": "https://dc.lft.to/lastmile_qr_scan", "android": "https://dc.lft.to/lastmile_qr_scan"}, "lon": -77.03618583333333, "bike_id": "7982f7667491f2ca85421aa3cd598578", "type": "electric_scooter", "name": "7982f7667491f2ca85421aa3cd598578"}, {"is_disabled": 0, "is_reserved": 0, "fusion_lat": 0.0, "lat": 38.91204616666667, "fusion_lon": 0.0, "rental_uris": {"ios": "https://dc.lft.to/lastmile_qr_scan", "android": "https://dc.lft.to/lastmile_qr_scan"}, "lon": -77.04479616666667, "bike_id": "29c4cbc9088a2e17be3ab11c9af9e1a1", "type": "electric_scooter", "name": "29c4cbc9088a2e17be3ab11c9af9e1a1"}, {"is_disabled": 0, "is_reserved": 0, "fusion_lat": 0.0, "lat": 38.892243666666666, "fusion_lon": 0.0, "rental_uris": {"ios": "https://dc.lft.to/lastmile_qr_scan", "android": "https://dc.lft.to/lastmile_qr_scan"}, "lon": -77.024195, "bike_id": "7b2aee292048e39ab32de1a7437dcfbe", "type": "electric_scooter", "name": "7b2aee292048e39ab32de1a7437dcfbe"}, {"is_disabled": 0, "is_reserved": 0, "fusion_lat": 0.0, "lat": 38.89857533333333, "fusion_lon": 0.0, "rental_uris": {"ios": "https://dc.lft.to/lastmile_qr_scan", "android": "https://dc.lft.to/lastmile_qr_scan"}, "lon": -77.0514225, "bike_id": "7ea7347a797f3d3b4b6d798e52182157", "type": "electric_bike", "name": "7ea7347a797f3d3b4b6d798e52182157"}, {"is_disabled": 0, "is_reserved": 0, "fusion_lat": 0.0, "lat": 38.928615, "fusion_lon": 0.0, "rental_uris": {"ios": "https://dc.lft.to/lastmile_qr_scan", "android": "https://dc.lft.to/lastmile_qr_scan"}, "lon": -77.03285183333334, "bike_id": "3a71b6596e2cbf8217005a60b2f8a1f0", "type": "electric_scooter", "name": "3a71b6596e2cbf8217005a60b2f8a1f0"}, {"is_disabled": 0, "is_reserved": 0, "fusion_lat": 0.0, "lat": 38.95734916666667, "fusion_lon": 0.0, "rental_uris": {"ios": "https://dc.lft.to/lastmile_qr_scan", "android": "https://dc.lft.to/lastmile_qr_scan"}, "lon": -77.0240335, "bike_id": "2731c100c5ef8f89846cbd89ee5252cb", "type": "electric_scooter", "name": "2731c100c5ef8f89846cbd89ee5252cb"}, {"is_disabled": 0, "is_reserved": 0, "fusion_lat": 0.0, "lat": 38.827772, "fusion_lon": 0.0, "rental_uris": {"ios": "https://dc.lft.to/lastmile_qr_scan", "android": "https://dc.lft.to/lastmile_qr_scan"}, "lon": -77.06017233333333, "bike_id": "209b8221ec45348bcaf4cd41d7a5ca83", "type": "electric_bike", "name": "209b8221ec45348bcaf4cd41d7a5ca83"}, {"is_disabled": 0, "is_reserved": 0, "fusion_lat": 0.0, "lat": 38.9223955, "fusion_lon": 0.0, "rental_uris": {"ios": "https://dc.lft.to/lastmile_qr_scan", "android": "https://dc.lft.to/lastmile_qr_scan"}, "lon": -77.0351805, "bike_id": "fa7dcb96b2c98b732f191e4607eec962", "type": "electric_scooter", "name": "fa7dcb96b2c98b732f191e4607eec962"}, {"is_disabled": 0, "is_reserved": 0, "fusion_lat": 0.0, "lat": 38.8621455, "fusion_lon": 0.0, "rental_uris": {"ios": "https://dc.lft.to/lastmile_qr_scan", "android": "https://dc.lft.to/lastmile_qr_scan"}, "lon": -76.9947855, "bike_id": "2cdb2dc0471ddec53429fb066d3e9e3c", "type": "electric_scooter", "name": "2cdb2dc0471ddec53429fb066d3e9e3c"}, {"is_disabled": 0, "is_reserved": 0, "fusion_lat": 0.0, "lat": 38.92566, "fusion_lon": 0.0, "rental_uris": {"ios": "https://dc.lft.to/lastmile_qr_scan", "android": "https://dc.lft.to/lastmile_qr_scan"}, "lon": -77.02277316666667, "bike_id": "a1a111ec3d11e261e11d4a07db6a4acf", "type": "electric_scooter", "name": "a1a111ec3d11e261e11d4a07db6a4acf"}, {"is_disabled": 0, "is_reserved": 0, "fusion_lat": 0.0, "lat": 38.9125905, "fusion_lon": 0.0, "rental_uris": {"ios": "https://dc.lft.to/lastmile_qr_scan", "android": "https://dc.lft.to/lastmile_qr_scan"}, "lon": -77.01908216666666, "bike_id": "30c977c9c781899354dc04075581bb89", "type": "electric_scooter", "name": "30c977c9c781899354dc04075581bb89"}, {"is_disabled": 0, "is_reserved": 0, "fusion_lat": 0.0, "lat": 38.92069266666667, "fusion_lon": 0.0, "rental_uris": {"ios": "https://dc.lft.to/lastmile_qr_scan", "android": "https://dc.lft.to/lastmile_qr_scan"}, "lon": -77.02846433333333, "bike_id": "8576f3efeea29a44849f29f66f5d99db", "type": "electric_scooter", "name": "8576f3efeea29a44849f29f66f5d99db"}, {"is_disabled": 0, "is_reserved": 0, "fusion_lat": 0.0, "lat": 38.90728683333333, "fusion_lon": 0.0, "rental_uris": {"ios": "https://dc.lft.to/lastmile_qr_scan", "android": "https://dc.lft.to/lastmile_qr_scan"}, "lon": -77.03207983333333, "bike_id": "32604c54bf19155f1c90e42d4bb4ffd8", "type": "electric_scooter", "name": "32604c54bf19155f1c90e42d4bb4ffd8"}, {"is_disabled": 0, "is_reserved": 0, "fusion_lat": 0.0, "lat": 38.892265333333334, "fusion_lon": 0.0, "rental_uris": {"ios": "https://dc.lft.to/lastmile_qr_scan", "android": "https://dc.lft.to/lastmile_qr_scan"}, "lon": -77.033413, "bike_id": "45821cafba3e1499efc17238a0c9e0f8", "type": "electric_scooter", "name": "45821cafba3e1499efc17238a0c9e0f8"}, {"is_disabled": 0, "is_reserved": 0, "fusion_lat": 0.0, "lat": 38.914177333333335, "fusion_lon": 0.0, "rental_uris": {"ios": "https://dc.lft.to/lastmile_qr_scan", "android": "https://dc.lft.to/lastmile_qr_scan"}, "lon": -77.0317695, "bike_id": "fd644865949109b2c2d02b81880f966a", "type": "electric_scooter", "name": "fd644865949109b2c2d02b81880f966a"}, {"is_disabled": 0, "is_reserved": 0, "fusion_lat": 0.0, "lat": 38.9073645, "fusion_lon": 0.0, "rental_uris": {"ios": "https://dc.lft.to/lastmile_qr_scan", "android": "https://dc.lft.to/lastmile_qr_scan"}, "lon": -77.02803433333334, "bike_id": "8c0b9ed750413e6b2de6b6414de7ead5", "type": "electric_scooter", "name": "8c0b9ed750413e6b2de6b6414de7ead5"}, {"is_disabled": 0, "is_reserved": 0, "fusion_lat": 0.0, "lat": 38.956996833333335, "fusion_lon": 0.0, "rental_uris": {"ios": "https://dc.lft.to/lastmile_qr_scan", "android": "https://dc.lft.to/lastmile_qr_scan"}, "lon": -77.02230716666666, "bike_id": "e59e16049a913fe877d5a5388d2e5cb3", "type": "electric_bike", "name": "e59e16049a913fe877d5a5388d2e5cb3"}, {"is_disabled": 0, "is_reserved": 0, "fusion_lat": 0.0, "lat": 38.9497375, "fusion_lon": 0.0, "rental_uris": {"ios": "https://dc.lft.to/lastmile_qr_scan", "android": "https://dc.lft.to/lastmile_qr_scan"}, "lon": -77.06749616666667, "bike_id": "e09d314372d19ce619a32751ab5b9ee6", "type": "electric_scooter", "name": "e09d314372d19ce619a32751ab5b9ee6"}, {"is_disabled": 0, "is_reserved": 0, "fusion_lat": 0.0, "lat": 38.95173366666667, "fusion_lon": 0.0, "rental_uris": {"ios": "https://dc.lft.to/lastmile_qr_scan", "android": "https://dc.lft.to/lastmile_qr_scan"}, "lon": -77.0184955, "bike_id": "6b56894fb01b4ca85247494a9595a3a5", "type": "electric_scooter", "name": "6b56894fb01b4ca85247494a9595a3a5"}, {"is_disabled": 0, "is_reserved": 0, "fusion_lat": 0.0, "lat": 38.91715466666667, "fusion_lon": 0.0, "rental_uris": {"ios": "https://dc.lft.to/lastmile_qr_scan", "android": "https://dc.lft.to/lastmile_qr_scan"}, "lon": -77.038578, "bike_id": "8ba7ecbc0f22f6232e64943b8e16353a", "type": "electric_scooter", "name": "8ba7ecbc0f22f6232e64943b8e16353a"}, {"is_disabled": 0, "is_reserved": 0, "fusion_lat": 0.0, "lat": 38.904800333333334, "fusion_lon": 0.0, "rental_uris": {"ios": "https://dc.lft.to/lastmile_qr_scan", "android": "https://dc.lft.to/lastmile_qr_scan"}, "lon": -77.0487005, "bike_id": "0d339588a7c5e5cbd2e53fc05a3aed2c", "type": "electric_scooter", "name": "0d339588a7c5e5cbd2e53fc05a3aed2c"}, {"is_disabled": 0, "is_reserved": 0, "fusion_lat": 0.0, "lat": 38.917811, "fusion_lon": 0.0, "rental_uris": {"ios": "https://dc.lft.to/lastmile_qr_scan", "android": "https://dc.lft.to/lastmile_qr_scan"}, "lon": -77.02314833333334, "bike_id": "e6f4f2b80a71f709ed63e51287a9797f", "type": "electric_scooter", "name": "e6f4f2b80a71f709ed63e51287a9797f"}, {"is_disabled": 0, "is_reserved": 0, "fusion_lat": 0.0, "lat": 38.996756166666664, "fusion_lon": 0.0, "rental_uris": {"ios": "https://dc.lft.to/lastmile_qr_scan", "android": "https://dc.lft.to/lastmile_qr_scan"}, "lon": -77.03786133333334, "bike_id": "b5e79ec0d8ea1999876badbbcd4641ff", "type": "electric_bike", "name": "b5e79ec0d8ea1999876badbbcd4641ff"}, {"is_disabled": 0, "is_reserved": 0, "fusion_lat": 0.0, "lat": 38.906757, "fusion_lon": 0.0, "rental_uris": {"ios": "https://dc.lft.to/lastmile_qr_scan", "android": "https://dc.lft.to/lastmile_qr_scan"}, "lon": -77.02713466666667, "bike_id": "75e0b12ef375312ddaa46006d4304751", "type": "electric_scooter", "name": "75e0b12ef375312ddaa46006d4304751"}, {"is_disabled": 0, "is_reserved": 0, "fusion_lat": 0.0, "lat": 38.94592383333333, "fusion_lon": 0.0, "rental_uris": {"ios": "https://dc.lft.to/lastmile_qr_scan", "android": "https://dc.lft.to/lastmile_qr_scan"}, "lon": -77.020345, "bike_id": "5b06cfda55c9688c4086d1e79df0c2e6", "type": "electric_scooter", "name": "5b06cfda55c9688c4086d1e79df0c2e6"}, {"is_disabled": 0, "is_reserved": 0, "fusion_lat": 0.0, "lat": 38.89732933333333, "fusion_lon": 0.0, "rental_uris": {"ios": "https://dc.lft.to/lastmile_qr_scan", "android": "https://dc.lft.to/lastmile_qr_scan"}, "lon": -77.00732116666667, "bike_id": "3d83303a38847cb4064b70d01e6c48b2", "type": "electric_bike", "name": "3d83303a38847cb4064b70d01e6c48b2"}, {"is_disabled": 0, "is_reserved": 0, "fusion_lat": 0.0, "lat": 38.909640833333334, "fusion_lon": 0.0, "rental_uris": {"ios": "https://dc.lft.to/lastmile_qr_scan", "android": "https://dc.lft.to/lastmile_qr_scan"}, "lon": -77.04826566666667, "bike_id": "3484ef46984c81524f345e8cdf95e150", "type": "electric_scooter", "name": "3484ef46984c81524f345e8cdf95e150"}, {"is_disabled": 0, "is_reserved": 0, "fusion_lat": 0.0, "lat": 38.89266583333333, "fusion_lon": 0.0, "rental_uris": {"ios": "https://dc.lft.to/lastmile_qr_scan", "android": "https://dc.lft.to/lastmile_qr_scan"}, "lon": -77.0420275, "bike_id": "cb8110519805f097702e5cd98b307130", "type": "electric_scooter", "name": "cb8110519805f097702e5cd98b307130"}, {"is_disabled": 0, "is_reserved": 0, "fusion_lat": 0.0, "lat": 38.90681983333333, "fusion_lon": 0.0, "rental_uris": {"ios": "https://dc.lft.to/lastmile_qr_scan", "android": "https://dc.lft.to/lastmile_qr_scan"}, "lon": -77.03550016666667, "bike_id": "bb6016cedbbc929468892f42ab0943fa", "type": "electric_scooter", "name": "bb6016cedbbc929468892f42ab0943fa"}, {"is_disabled": 0, "is_reserved": 0, "fusion_lat": 0.0, "lat": 38.92385516666667, "fusion_lon": 0.0, "rental_uris": {"ios": "https://dc.lft.to/lastmile_qr_scan", "android": "https://dc.lft.to/lastmile_qr_scan"}, "lon": -77.040256, "bike_id": "f30390356bfa403a7b40bb0d8d6cdec2", "type": "electric_scooter", "name": "f30390356bfa403a7b40bb0d8d6cdec2"}, {"is_disabled": 0, "is_reserved": 0, "fusion_lat": 0.0, "lat": 38.91267533333333, "fusion_lon": 0.0, "rental_uris": {"ios": "https://dc.lft.to/lastmile_qr_scan", "android": "https://dc.lft.to/lastmile_qr_scan"}, "lon": -77.02231116666667, "bike_id": "fe16a7ff6ece6e94d4464eb15e47bfd8", "type": "electric_scooter", "name": "fe16a7ff6ece6e94d4464eb15e47bfd8"}, {"is_disabled": 0, "is_reserved": 0, "fusion_lat": 0.0, "lat": 38.907345166666666, "fusion_lon": 0.0, "rental_uris": {"ios": "https://dc.lft.to/lastmile_qr_scan", "android": "https://dc.lft.to/lastmile_qr_scan"}, "lon": -77.03065033333333, "bike_id": "00ed72eb6dafe04d979d1beef3dd39d4", "type": "electric_scooter", "name": "00ed72eb6dafe04d979d1beef3dd39d4"}, {"is_disabled": 0, "is_reserved": 0, "fusion_lat": 0.0, "lat": 38.946316, "fusion_lon": 0.0, "rental_uris": {"ios": "https://dc.lft.to/lastmile_qr_scan", "android": "https://dc.lft.to/lastmile_qr_scan"}, "lon": -77.01843416666667, "bike_id": "9eabeba9e2910f575ba641855e8bc6f0", "type": "electric_scooter", "name": "9eabeba9e2910f575ba641855e8bc6f0"}, {"is_disabled": 0, "is_reserved": 0, "fusion_lat": 0.0, "lat": 38.951072333333336, "fusion_lon": 0.0, "rental_uris": {"ios": "https://dc.lft.to/lastmile_qr_scan", "android": "https://dc.lft.to/lastmile_qr_scan"}, "lon": -77.01574616666667, "bike_id": "0a675cf084fb28b235eda5c6c6314a39", "type": "electric_scooter", "name": "0a675cf084fb28b235eda5c6c6314a39"}, {"is_disabled": 0, "is_reserved": 0, "fusion_lat": 0.0, "lat": 38.9286245, "fusion_lon": 0.0, "rental_uris": {"ios": "https://dc.lft.to/lastmile_qr_scan", "android": "https://dc.lft.to/lastmile_qr_scan"}, "lon": -77.07339116666667, "bike_id": "e6440c70547e25b11c05dca47740ac7c", "type": "electric_scooter", "name": "e6440c70547e25b11c05dca47740ac7c"}, {"is_disabled": 0, "is_reserved": 0, "fusion_lat": 0.0, "lat": 38.93263816666666, "fusion_lon": 0.0, "rental_uris": {"ios": "https://dc.lft.to/lastmile_qr_scan", "android": "https://dc.lft.to/lastmile_qr_scan"}, "lon": -77.02095766666666, "bike_id": "84cf78fadc5e35a5611172bd0fab9341", "type": "electric_scooter", "name": "84cf78fadc5e35a5611172bd0fab9341"}, {"is_disabled": 0, "is_reserved": 0, "fusion_lat": 0.0, "lat": 38.910436833333335, "fusion_lon": 0.0, "rental_uris": {"ios": "https://dc.lft.to/lastmile_qr_scan", "android": "https://dc.lft.to/lastmile_qr_scan"}, "lon": -77.00999383333334, "bike_id": "80990026bcc112b1f9e5f2d01a9f0777", "type": "electric_scooter", "name": "80990026bcc112b1f9e5f2d01a9f0777"}, {"is_disabled": 0, "is_reserved": 0, "fusion_lat": 0.0, "lat": 38.88486366666667, "fusion_lon": 0.0, "rental_uris": {"ios": "https://dc.lft.to/lastmile_qr_scan", "android": "https://dc.lft.to/lastmile_qr_scan"}, "lon": -77.03472416666666, "bike_id": "5501e4054cc6cc076ce71c830d57476c", "type": "electric_scooter", "name": "5501e4054cc6cc076ce71c830d57476c"}, {"is_disabled": 0, "is_reserved": 0, "fusion_lat": 0.0, "lat": 38.92010166666667, "fusion_lon": 0.0, "rental_uris": {"ios": "https://dc.lft.to/lastmile_qr_scan", "android": "https://dc.lft.to/lastmile_qr_scan"}, "lon": -77.0216495, "bike_id": "babb9817483cc5c679314bd92a8cf3f0", "type": "electric_scooter", "name": "babb9817483cc5c679314bd92a8cf3f0"}, {"is_disabled": 0, "is_reserved": 0, "fusion_lat": 0.0, "lat": 38.88966383333333, "fusion_lon": 0.0, "rental_uris": {"ios": "https://dc.lft.to/lastmile_qr_scan", "android": "https://dc.lft.to/lastmile_qr_scan"}, "lon": -76.98035983333334, "bike_id": "ec427a79bec8c43be9bd79ff620f61fb", "type": "electric_scooter", "name": "ec427a79bec8c43be9bd79ff620f61fb"}, {"is_disabled": 0, "is_reserved": 0, "fusion_lat": 0.0, "lat": 38.9142345, "fusion_lon": 0.0, "rental_uris": {"ios": "https://dc.lft.to/lastmile_qr_scan", "android": "https://dc.lft.to/lastmile_qr_scan"}, "lon": -77.02223383333333, "bike_id": "af7db7d7412cfdb6af93bb0258e91c23", "type": "electric_scooter", "name": "af7db7d7412cfdb6af93bb0258e91c23"}, {"is_disabled": 0, "is_reserved": 0, "fusion_lat": 0.0, "lat": 38.8467905, "fusion_lon": 0.0, "rental_uris": {"ios": "https://dc.lft.to/lastmile_qr_scan", "android": "https://dc.lft.to/lastmile_qr_scan"}, "lon": -77.1393195, "bike_id": "be9413d31cd4a2cd63b5ba4dc81a096f", "type": "electric_bike", "name": "be9413d31cd4a2cd63b5ba4dc81a096f"}, {"is_disabled": 0, "is_reserved": 0, "fusion_lat": 0.0, "lat": 38.911222, "fusion_lon": 0.0, "rental_uris": {"ios": "https://dc.lft.to/lastmile_qr_scan", "android": "https://dc.lft.to/lastmile_qr_scan"}, "lon": -77.03831983333333, "bike_id": "40d2458c230f2b96fcee896d31e24c61", "type": "electric_scooter", "name": "40d2458c230f2b96fcee896d31e24c61"}, {"is_disabled": 0, "is_reserved": 0, "fusion_lat": 0.0, "lat": 38.915557, "fusion_lon": 0.0, "rental_uris": {"ios": "https://dc.lft.to/lastmile_qr_scan", "android": "https://dc.lft.to/lastmile_qr_scan"}, "lon": -77.05103033333333, "bike_id": "b8c993477a2191a719da8361320b3ada", "type": "electric_scooter", "name": "b8c993477a2191a719da8361320b3ada"}, {"is_disabled": 0, "is_reserved": 0, "fusion_lat": 0.0, "lat": 38.92238183333333, "fusion_lon": 0.0, "rental_uris": {"ios": "https://dc.lft.to/lastmile_qr_scan", "android": "https://dc.lft.to/lastmile_qr_scan"}, "lon": -77.03894316666667, "bike_id": "1cceeea35a598d16531c47a825ac7099", "type": "electric_scooter", "name": "1cceeea35a598d16531c47a825ac7099"}, {"is_disabled": 0, "is_reserved": 0, "fusion_lat": 0.0, "lat": 38.965130333333335, "fusion_lon": 0.0, "rental_uris": {"ios": "https://dc.lft.to/lastmile_qr_scan", "android": "https://dc.lft.to/lastmile_qr_scan"}, "lon": -77.03363766666666, "bike_id": "83e400702d25a899c47efc6326b80131", "type": "electric_bike", "name": "83e400702d25a899c47efc6326b80131"}, {"is_disabled": 0, "is_reserved": 0, "fusion_lat": 0.0, "lat": 38.92326633333333, "fusion_lon": 0.0, "rental_uris": {"ios": "https://dc.lft.to/lastmile_qr_scan", "android": "https://dc.lft.to/lastmile_qr_scan"}, "lon": -77.02967216666667, "bike_id": "0c52a3b942ddcf38bfde3e3317b801cf", "type": "electric_scooter", "name": "0c52a3b942ddcf38bfde3e3317b801cf"}, {"is_disabled": 0, "is_reserved": 0, "fusion_lat": 0.0, "lat": 38.92151166666667, "fusion_lon": 0.0, "rental_uris": {"ios": "https://dc.lft.to/lastmile_qr_scan", "android": "https://dc.lft.to/lastmile_qr_scan"}, "lon": -77.03871583333333, "bike_id": "e3d6b46c90979bc8de604d594aa33103", "type": "electric_scooter", "name": "e3d6b46c90979bc8de604d594aa33103"}, {"is_disabled": 0, "is_reserved": 0, "fusion_lat": 0.0, "lat": 38.9352615, "fusion_lon": 0.0, "rental_uris": {"ios": "https://dc.lft.to/lastmile_qr_scan", "android": "https://dc.lft.to/lastmile_qr_scan"}, "lon": -77.0381825, "bike_id": "2c329f1e555b64d9c82da0454b3107e6", "type": "electric_scooter", "name": "2c329f1e555b64d9c82da0454b3107e6"}, {"is_disabled": 0, "is_reserved": 0, "fusion_lat": 0.0, "lat": 38.933902333333336, "fusion_lon": 0.0, "rental_uris": {"ios": "https://dc.lft.to/lastmile_qr_scan", "android": "https://dc.lft.to/lastmile_qr_scan"}, "lon": -77.020798, "bike_id": "0b3d2daaacbee57295b96c3fa5e37e4b", "type": "electric_scooter", "name": "0b3d2daaacbee57295b96c3fa5e37e4b"}, {"is_disabled": 0, "is_reserved": 0, "fusion_lat": 0.0, "lat": 38.88659766666667, "fusion_lon": 0.0, "rental_uris": {"ios": "https://dc.lft.to/lastmile_qr_scan", "android": "https://dc.lft.to/lastmile_qr_scan"}, "lon": -77.03389216666666, "bike_id": "ef10ebc154de6a2483397dfca95b7dfc", "type": "electric_scooter", "name": "ef10ebc154de6a2483397dfca95b7dfc"}, {"is_disabled": 0, "is_reserved": 0, "fusion_lat": 0.0, "lat": 38.93742, "fusion_lon": 0.0, "rental_uris": {"ios": "https://dc.lft.to/lastmile_qr_scan", "android": "https://dc.lft.to/lastmile_qr_scan"}, "lon": -77.03594666666666, "bike_id": "9a426b05f36c4fdfae388472418eb39c", "type": "electric_scooter", "name": "9a426b05f36c4fdfae388472418eb39c"}, {"is_disabled": 0, "is_reserved": 0, "fusion_lat": 0.0, "lat": 38.89508583333333, "fusion_lon": 0.0, "rental_uris": {"ios": "https://dc.lft.to/lastmile_qr_scan", "android": "https://dc.lft.to/lastmile_qr_scan"}, "lon": -77.04154783333334, "bike_id": "2f22009bfc9ec53c14360190780e18e0", "type": "electric_scooter", "name": "2f22009bfc9ec53c14360190780e18e0"}, {"is_disabled": 0, "is_reserved": 0, "fusion_lat": 0.0, "lat": 38.961759, "fusion_lon": 0.0, "rental_uris": {"ios": "https://dc.lft.to/lastmile_qr_scan", "android": "https://dc.lft.to/lastmile_qr_scan"}, "lon": -77.0322855, "bike_id": "2cf105ca6ffc9c7aae035700d3375692", "type": "electric_scooter", "name": "2cf105ca6ffc9c7aae035700d3375692"}, {"is_disabled": 0, "is_reserved": 0, "fusion_lat": 0.0, "lat": 38.899679166666665, "fusion_lon": 0.0, "rental_uris": {"ios": "https://dc.lft.to/lastmile_qr_scan", "android": "https://dc.lft.to/lastmile_qr_scan"}, "lon": -77.0164245, "bike_id": "480447fc9209f2b094ccc9087cff2b9d", "type": "electric_scooter", "name": "480447fc9209f2b094ccc9087cff2b9d"}, {"is_disabled": 0, "is_reserved": 0, "fusion_lat": 0.0, "lat": 38.894535166666664, "fusion_lon": 0.0, "rental_uris": {"ios": "https://dc.lft.to/lastmile_qr_scan", "android": "https://dc.lft.to/lastmile_qr_scan"}, "lon": -77.1582505, "bike_id": "37dc856896f716ac16cdb8af7efa6806", "type": "electric_bike", "name": "37dc856896f716ac16cdb8af7efa6806"}, {"is_disabled": 0, "is_reserved": 0, "fusion_lat": 0.0, "lat": 38.90868866666667, "fusion_lon": 0.0, "rental_uris": {"ios": "https://dc.lft.to/lastmile_qr_scan", "android": "https://dc.lft.to/lastmile_qr_scan"}, "lon": -77.085944, "bike_id": "ef2af586a831ec56245b2322fb469833", "type": "electric_scooter", "name": "ef2af586a831ec56245b2322fb469833"}, {"is_disabled": 0, "is_reserved": 0, "fusion_lat": 0.0, "lat": 38.913557, "fusion_lon": 0.0, "rental_uris": {"ios": "https://dc.lft.to/lastmile_qr_scan", "android": "https://dc.lft.to/lastmile_qr_scan"}, "lon": -77.03208033333334, "bike_id": "2eadd4cc1186f96b083c094d482513ce", "type": "electric_scooter", "name": "2eadd4cc1186f96b083c094d482513ce"}, {"is_disabled": 0, "is_reserved": 0, "fusion_lat": 0.0, "lat": 38.9472235, "fusion_lon": 0.0, "rental_uris": {"ios": "https://dc.lft.to/lastmile_qr_scan", "android": "https://dc.lft.to/lastmile_qr_scan"}, "lon": -77.02354166666667, "bike_id": "04d3a0564929f20c3ee817ad2fe7ba22", "type": "electric_scooter", "name": "04d3a0564929f20c3ee817ad2fe7ba22"}, {"is_disabled": 0, "is_reserved": 0, "fusion_lat": 0.0, "lat": 38.9296385, "fusion_lon": 0.0, "rental_uris": {"ios": "https://dc.lft.to/lastmile_qr_scan", "android": "https://dc.lft.to/lastmile_qr_scan"}, "lon": -77.04199883333334, "bike_id": "269ef5113fc09709397be97699120c2d", "type": "electric_scooter", "name": "269ef5113fc09709397be97699120c2d"}, {"is_disabled": 0, "is_reserved": 0, "fusion_lat": 0.0, "lat": 38.91788483333333, "fusion_lon": 0.0, "rental_uris": {"ios": "https://dc.lft.to/lastmile_qr_scan", "android": "https://dc.lft.to/lastmile_qr_scan"}, "lon": -77.02476416666667, "bike_id": "16efbdf9063c54e83b7acaa39d60443a", "type": "electric_scooter", "name": "16efbdf9063c54e83b7acaa39d60443a"}, {"is_disabled": 0, "is_reserved": 0, "fusion_lat": 0.0, "lat": 38.89589733333333, "fusion_lon": 0.0, "rental_uris": {"ios": "https://dc.lft.to/lastmile_qr_scan", "android": "https://dc.lft.to/lastmile_qr_scan"}, "lon": -77.02527416666666, "bike_id": "ca7307c167a962ceef785049787bd575", "type": "electric_scooter", "name": "ca7307c167a962ceef785049787bd575"}, {"is_disabled": 0, "is_reserved": 0, "fusion_lat": 0.0, "lat": 38.92089266666667, "fusion_lon": 0.0, "rental_uris": {"ios": "https://dc.lft.to/lastmile_qr_scan", "android": "https://dc.lft.to/lastmile_qr_scan"}, "lon": -77.02250133333334, "bike_id": "1a1014d9d74bde9c1ef3c583a1464902", "type": "electric_scooter", "name": "1a1014d9d74bde9c1ef3c583a1464902"}, {"is_disabled": 0, "is_reserved": 0, "fusion_lat": 0.0, "lat": 38.908574333333334, "fusion_lon": 0.0, "rental_uris": {"ios": "https://dc.lft.to/lastmile_qr_scan", "android": "https://dc.lft.to/lastmile_qr_scan"}, "lon": -77.04826183333333, "bike_id": "41ef4f4b8d081c067fbe76ab9e62ff7e", "type": "electric_scooter", "name": "41ef4f4b8d081c067fbe76ab9e62ff7e"}, {"is_disabled": 0, "is_reserved": 0, "fusion_lat": 0.0, "lat": 38.901901333333335, "fusion_lon": 0.0, "rental_uris": {"ios": "https://dc.lft.to/lastmile_qr_scan", "android": "https://dc.lft.to/lastmile_qr_scan"}, "lon": -77.0508715, "bike_id": "bc346ae4b3f157096871beded75d1165", "type": "electric_scooter", "name": "bc346ae4b3f157096871beded75d1165"}, {"is_disabled": 0, "is_reserved": 0, "fusion_lat": 0.0, "lat": 38.900272, "fusion_lon": 0.0, "rental_uris": {"ios": "https://dc.lft.to/lastmile_qr_scan", "android": "https://dc.lft.to/lastmile_qr_scan"}, "lon": -77.01197733333333, "bike_id": "104c0c48a1229a6cd3e39ed35e4360f4", "type": "electric_scooter", "name": "104c0c48a1229a6cd3e39ed35e4360f4"}, {"is_disabled": 0, "is_reserved": 0, "fusion_lat": 0.0, "lat": 38.87518466666667, "fusion_lon": 0.0, "rental_uris": {"ios": "https://dc.lft.to/lastmile_qr_scan", "android": "https://dc.lft.to/lastmile_qr_scan"}, "lon": -77.117614, "bike_id": "581a2b6b840d9ee5e76534ae98872eb7", "type": "electric_bike", "name": "581a2b6b840d9ee5e76534ae98872eb7"}, {"is_disabled": 0, "is_reserved": 0, "fusion_lat": 0.0, "lat": 38.884887, "fusion_lon": 0.0, "rental_uris": {"ios": "https://dc.lft.to/lastmile_qr_scan", "android": "https://dc.lft.to/lastmile_qr_scan"}, "lon": -77.03478866666667, "bike_id": "d4bc7c267759bc0980cb0d273d71bbc3", "type": "electric_scooter", "name": "d4bc7c267759bc0980cb0d273d71bbc3"}, {"is_disabled": 0, "is_reserved": 0, "fusion_lat": 0.0, "lat": 38.907106, "fusion_lon": 0.0, "rental_uris": {"ios": "https://dc.lft.to/lastmile_qr_scan", "android": "https://dc.lft.to/lastmile_qr_scan"}, "lon": -77.03210766666666, "bike_id": "898eac3f5b370122fa4033f41d3b6566", "type": "electric_scooter", "name": "898eac3f5b370122fa4033f41d3b6566"}, {"is_disabled": 0, "is_reserved": 0, "fusion_lat": 0.0, "lat": 38.91126166666667, "fusion_lon": 0.0, "rental_uris": {"ios": "https://dc.lft.to/lastmile_qr_scan", "android": "https://dc.lft.to/lastmile_qr_scan"}, "lon": -77.02105166666666, "bike_id": "beea5d30f4d65e7eaab4f3dedf3afd1f", "type": "electric_scooter", "name": "beea5d30f4d65e7eaab4f3dedf3afd1f"}, {"is_disabled": 0, "is_reserved": 0, "fusion_lat": 0.0, "lat": 38.9199465, "fusion_lon": 0.0, "rental_uris": {"ios": "https://dc.lft.to/lastmile_qr_scan", "android": "https://dc.lft.to/lastmile_qr_scan"}, "lon": -77.0416495, "bike_id": "b67104405eab55e42697d3822be8d528", "type": "electric_scooter", "name": "b67104405eab55e42697d3822be8d528"}, {"is_disabled": 0, "is_reserved": 0, "fusion_lat": 0.0, "lat": 38.90473583333333, "fusion_lon": 0.0, "rental_uris": {"ios": "https://dc.lft.to/lastmile_qr_scan", "android": "https://dc.lft.to/lastmile_qr_scan"}, "lon": -76.95048366666667, "bike_id": "853518c6d94bbf6526588fc72765831e", "type": "electric_scooter", "name": "853518c6d94bbf6526588fc72765831e"}, {"is_disabled": 0, "is_reserved": 0, "fusion_lat": 0.0, "lat": 38.904824, "fusion_lon": 0.0, "rental_uris": {"ios": "https://dc.lft.to/lastmile_qr_scan", "android": "https://dc.lft.to/lastmile_qr_scan"}, "lon": -77.0485725, "bike_id": "f8d5bbfb9046849320c4310d1adca2a7", "type": "electric_scooter", "name": "f8d5bbfb9046849320c4310d1adca2a7"}, {"is_disabled": 0, "is_reserved": 0, "fusion_lat": 0.0, "lat": 38.90907683333333, "fusion_lon": 0.0, "rental_uris": {"ios": "https://dc.lft.to/lastmile_qr_scan", "android": "https://dc.lft.to/lastmile_qr_scan"}, "lon": -77.0442945, "bike_id": "74a5044313b88ceaaef75d3e73b12ee0", "type": "electric_scooter", "name": "74a5044313b88ceaaef75d3e73b12ee0"}, {"is_disabled": 0, "is_reserved": 0, "fusion_lat": 0.0, "lat": 38.93086483333333, "fusion_lon": 0.0, "rental_uris": {"ios": "https://dc.lft.to/lastmile_qr_scan", "android": "https://dc.lft.to/lastmile_qr_scan"}, "lon": -77.02807966666667, "bike_id": "dc2fe882beb099549db636b878fccdf1", "type": "electric_scooter", "name": "dc2fe882beb099549db636b878fccdf1"}, {"is_disabled": 0, "is_reserved": 0, "fusion_lat": 0.0, "lat": 38.85529366666667, "fusion_lon": 0.0, "rental_uris": {"ios": "https://dc.lft.to/lastmile_qr_scan", "android": "https://dc.lft.to/lastmile_qr_scan"}, "lon": -76.9918045, "bike_id": "d0ecb1614d0bc48e9ea5e86ba78e05b3", "type": "electric_scooter", "name": "d0ecb1614d0bc48e9ea5e86ba78e05b3"}, {"is_disabled": 0, "is_reserved": 0, "fusion_lat": 0.0, "lat": 38.92603666666667, "fusion_lon": 0.0, "rental_uris": {"ios": "https://dc.lft.to/lastmile_qr_scan", "android": "https://dc.lft.to/lastmile_qr_scan"}, "lon": -77.02158383333334, "bike_id": "cd18727da2346a6092eca4298c508d35", "type": "electric_scooter", "name": "cd18727da2346a6092eca4298c508d35"}, {"is_disabled": 0, "is_reserved": 0, "fusion_lat": 0.0, "lat": 38.892234, "fusion_lon": 0.0, "rental_uris": {"ios": "https://dc.lft.to/lastmile_qr_scan", "android": "https://dc.lft.to/lastmile_qr_scan"}, "lon": -77.02783733333334, "bike_id": "ac66fefe74300c08c438913a2f230363", "type": "electric_scooter", "name": "ac66fefe74300c08c438913a2f230363"}, {"is_disabled": 0, "is_reserved": 0, "fusion_lat": 0.0, "lat": 38.893873, "fusion_lon": 0.0, "rental_uris": {"ios": "https://dc.lft.to/lastmile_qr_scan", "android": "https://dc.lft.to/lastmile_qr_scan"}, "lon": -77.04431716666667, "bike_id": "67ae2f10d682e8e7da614a34f843cc47", "type": "electric_scooter", "name": "67ae2f10d682e8e7da614a34f843cc47"}, {"is_disabled": 0, "is_reserved": 0, "fusion_lat": 0.0, "lat": 38.915574166666666, "fusion_lon": 0.0, "rental_uris": {"ios": "https://dc.lft.to/lastmile_qr_scan", "android": "https://dc.lft.to/lastmile_qr_scan"}, "lon": -77.041803, "bike_id": "e2280f9fee5e7fdf016192bb04a0c984", "type": "electric_scooter", "name": "e2280f9fee5e7fdf016192bb04a0c984"}, {"is_disabled": 0, "is_reserved": 0, "fusion_lat": 0.0, "lat": 38.90506533333333, "fusion_lon": 0.0, "rental_uris": {"ios": "https://dc.lft.to/lastmile_qr_scan", "android": "https://dc.lft.to/lastmile_qr_scan"}, "lon": -77.0657495, "bike_id": "eee20e0ef57a0ca7e475127a40ff2c6b", "type": "electric_scooter", "name": "eee20e0ef57a0ca7e475127a40ff2c6b"}, {"is_disabled": 0, "is_reserved": 0, "fusion_lat": 0.0, "lat": 38.92152433333333, "fusion_lon": 0.0, "rental_uris": {"ios": "https://dc.lft.to/lastmile_qr_scan", "android": "https://dc.lft.to/lastmile_qr_scan"}, "lon": -77.035095, "bike_id": "8fc605092a6c2de93c8791d7b37ffb5b", "type": "electric_scooter", "name": "8fc605092a6c2de93c8791d7b37ffb5b"}, {"is_disabled": 0, "is_reserved": 0, "fusion_lat": 0.0, "lat": 38.95779516666666, "fusion_lon": 0.0, "rental_uris": {"ios": "https://dc.lft.to/lastmile_qr_scan", "android": "https://dc.lft.to/lastmile_qr_scan"}, "lon": -77.02420916666667, "bike_id": "0b35d88f652e4d045628d0af5a2998f9", "type": "electric_scooter", "name": "0b35d88f652e4d045628d0af5a2998f9"}, {"is_disabled": 0, "is_reserved": 0, "fusion_lat": 0.0, "lat": 38.915212833333335, "fusion_lon": 0.0, "rental_uris": {"ios": "https://dc.lft.to/lastmile_qr_scan", "android": "https://dc.lft.to/lastmile_qr_scan"}, "lon": -77.01848466666667, "bike_id": "7f2a609996f98539e2a08e1383d654a2", "type": "electric_scooter", "name": "7f2a609996f98539e2a08e1383d654a2"}, {"is_disabled": 0, "is_reserved": 0, "fusion_lat": 0.0, "lat": 38.92974016666667, "fusion_lon": 0.0, "rental_uris": {"ios": "https://dc.lft.to/lastmile_qr_scan", "android": "https://dc.lft.to/lastmile_qr_scan"}, "lon": -77.0282045, "bike_id": "5a2fe192a5785bbd6a7658fb68a6975e", "type": "electric_scooter", "name": "5a2fe192a5785bbd6a7658fb68a6975e"}, {"is_disabled": 0, "is_reserved": 0, "fusion_lat": 0.0, "lat": 38.921711, "fusion_lon": 0.0, "rental_uris": {"ios": "https://dc.lft.to/lastmile_qr_scan", "android": "https://dc.lft.to/lastmile_qr_scan"}, "lon": -77.026824, "bike_id": "6e506705756e2975da4787dfa44693e8", "type": "electric_scooter", "name": "6e506705756e2975da4787dfa44693e8"}, {"is_disabled": 0, "is_reserved": 0, "fusion_lat": 0.0, "lat": 38.87647716666667, "fusion_lon": 0.0, "rental_uris": {"ios": "https://dc.lft.to/lastmile_qr_scan", "android": "https://dc.lft.to/lastmile_qr_scan"}, "lon": -77.00820683333333, "bike_id": "f63f08c02ad43dec279792839a64b3fd", "type": "electric_scooter", "name": "f63f08c02ad43dec279792839a64b3fd"}, {"is_disabled": 0, "is_reserved": 0, "fusion_lat": 0.0, "lat": 38.89251066666667, "fusion_lon": 0.0, "rental_uris": {"ios": "https://dc.lft.to/lastmile_qr_scan", "android": "https://dc.lft.to/lastmile_qr_scan"}, "lon": -76.92547083333334, "bike_id": "73d063700ee74dc9317bc45a5822b076", "type": "electric_scooter", "name": "73d063700ee74dc9317bc45a5822b076"}, {"is_disabled": 0, "is_reserved": 0, "fusion_lat": 0.0, "lat": 38.91927666666667, "fusion_lon": 0.0, "rental_uris": {"ios": "https://dc.lft.to/lastmile_qr_scan", "android": "https://dc.lft.to/lastmile_qr_scan"}, "lon": -77.01359716666667, "bike_id": "677fc1fc1e4c2bc6f896a1a24315250b", "type": "electric_scooter", "name": "677fc1fc1e4c2bc6f896a1a24315250b"}, {"is_disabled": 0, "is_reserved": 0, "fusion_lat": 0.0, "lat": 38.9083105, "fusion_lon": 0.0, "rental_uris": {"ios": "https://dc.lft.to/lastmile_qr_scan", "android": "https://dc.lft.to/lastmile_qr_scan"}, "lon": -77.03357166666666, "bike_id": "3fbb6ece122e108a087cb8abd3a1b37f", "type": "electric_scooter", "name": "3fbb6ece122e108a087cb8abd3a1b37f"}, {"is_disabled": 0, "is_reserved": 0, "fusion_lat": 0.0, "lat": 38.919139, "fusion_lon": 0.0, "rental_uris": {"ios": "https://dc.lft.to/lastmile_qr_scan", "android": "https://dc.lft.to/lastmile_qr_scan"}, "lon": -77.03223466666667, "bike_id": "61bd3d57d412cd42fb43bbf88ad65fec", "type": "electric_scooter", "name": "61bd3d57d412cd42fb43bbf88ad65fec"}, {"is_disabled": 0, "is_reserved": 0, "fusion_lat": 0.0, "lat": 38.91225033333333, "fusion_lon": 0.0, "rental_uris": {"ios": "https://dc.lft.to/lastmile_qr_scan", "android": "https://dc.lft.to/lastmile_qr_scan"}, "lon": -77.03642466666666, "bike_id": "8956f0ecdadbee72b8b2ed46b2d53937", "type": "electric_scooter", "name": "8956f0ecdadbee72b8b2ed46b2d53937"}, {"is_disabled": 0, "is_reserved": 0, "fusion_lat": 0.0, "lat": 38.894090166666665, "fusion_lon": 0.0, "rental_uris": {"ios": "https://dc.lft.to/lastmile_qr_scan", "android": "https://dc.lft.to/lastmile_qr_scan"}, "lon": -77.0336825, "bike_id": "0d1a4eb24f228494df32703c5b3aa41b", "type": "electric_scooter", "name": "0d1a4eb24f228494df32703c5b3aa41b"}, {"is_disabled": 0, "is_reserved": 0, "fusion_lat": 0.0, "lat": 38.918492, "fusion_lon": 0.0, "rental_uris": {"ios": "https://dc.lft.to/lastmile_qr_scan", "android": "https://dc.lft.to/lastmile_qr_scan"}, "lon": -76.96088216666666, "bike_id": "85bcec16a2d52b2806e5b35e01eb1529", "type": "electric_scooter", "name": "85bcec16a2d52b2806e5b35e01eb1529"}, {"is_disabled": 0, "is_reserved": 0, "fusion_lat": 0.0, "lat": 38.936593333333334, "fusion_lon": 0.0, "rental_uris": {"ios": "https://dc.lft.to/lastmile_qr_scan", "android": "https://dc.lft.to/lastmile_qr_scan"}, "lon": -77.03653433333334, "bike_id": "7bba58c2d3ce507b690695f81c9c7c9f", "type": "electric_scooter", "name": "7bba58c2d3ce507b690695f81c9c7c9f"}, {"is_disabled": 0, "is_reserved": 0, "fusion_lat": 0.0, "lat": 38.92340733333333, "fusion_lon": 0.0, "rental_uris": {"ios": "https://dc.lft.to/lastmile_qr_scan", "android": "https://dc.lft.to/lastmile_qr_scan"}, "lon": -77.03521283333333, "bike_id": "11a26a46ded0b40c5cfc7556c8ee257b", "type": "electric_scooter", "name": "11a26a46ded0b40c5cfc7556c8ee257b"}, {"is_disabled": 0, "is_reserved": 0, "fusion_lat": 0.0, "lat": 38.895327, "fusion_lon": 0.0, "rental_uris": {"ios": "https://dc.lft.to/lastmile_qr_scan", "android": "https://dc.lft.to/lastmile_qr_scan"}, "lon": -77.032114, "bike_id": "226c8e8f2fbcd7100d5207cefa62e2af", "type": "electric_scooter", "name": "226c8e8f2fbcd7100d5207cefa62e2af"}, {"is_disabled": 0, "is_reserved": 0, "fusion_lat": 0.0, "lat": 38.87893916666667, "fusion_lon": 0.0, "rental_uris": {"ios": "https://dc.lft.to/lastmile_qr_scan", "android": "https://dc.lft.to/lastmile_qr_scan"}, "lon": -76.93530766666666, "bike_id": "314943649942f82a6d300a18b66442a6", "type": "electric_scooter", "name": "314943649942f82a6d300a18b66442a6"}, {"is_disabled": 0, "is_reserved": 0, "fusion_lat": 0.0, "lat": 38.895033833333336, "fusion_lon": 0.0, "rental_uris": {"ios": "https://dc.lft.to/lastmile_qr_scan", "android": "https://dc.lft.to/lastmile_qr_scan"}, "lon": -77.0281905, "bike_id": "2651af0852d9f9cb7b9ee717493528e5", "type": "electric_scooter", "name": "2651af0852d9f9cb7b9ee717493528e5"}, {"is_disabled": 0, "is_reserved": 0, "fusion_lat": 0.0, "lat": 38.862156666666664, "fusion_lon": 0.0, "rental_uris": {"ios": "https://dc.lft.to/lastmile_qr_scan", "android": "https://dc.lft.to/lastmile_qr_scan"}, "lon": -76.99481333333334, "bike_id": "7eef5cf138596ab3895f644f8ad7a21e", "type": "electric_scooter", "name": "7eef5cf138596ab3895f644f8ad7a21e"}, {"is_disabled": 0, "is_reserved": 0, "fusion_lat": 0.0, "lat": 38.9497765, "fusion_lon": 0.0, "rental_uris": {"ios": "https://dc.lft.to/lastmile_qr_scan", "android": "https://dc.lft.to/lastmile_qr_scan"}, "lon": -77.024347, "bike_id": "8ae3d5a0e5e6d8441365618f2ebebdce", "type": "electric_scooter", "name": "8ae3d5a0e5e6d8441365618f2ebebdce"}, {"is_disabled": 0, "is_reserved": 0, "fusion_lat": 0.0, "lat": 38.91963033333333, "fusion_lon": 0.0, "rental_uris": {"ios": "https://dc.lft.to/lastmile_qr_scan", "android": "https://dc.lft.to/lastmile_qr_scan"}, "lon": -77.01909066666667, "bike_id": "eeccd1d61339298488c1140994fe2138", "type": "electric_scooter", "name": "eeccd1d61339298488c1140994fe2138"}, {"is_disabled": 0, "is_reserved": 0, "fusion_lat": 0.0, "lat": 38.92224316666667, "fusion_lon": 0.0, "rental_uris": {"ios": "https://dc.lft.to/lastmile_qr_scan", "android": "https://dc.lft.to/lastmile_qr_scan"}, "lon": -77.038922, "bike_id": "3f3587fdd795b8ee0eeaad36c5cf9876", "type": "electric_scooter", "name": "3f3587fdd795b8ee0eeaad36c5cf9876"}, {"is_disabled": 0, "is_reserved": 0, "fusion_lat": 0.0, "lat": 38.905036833333334, "fusion_lon": 0.0, "rental_uris": {"ios": "https://dc.lft.to/lastmile_qr_scan", "android": "https://dc.lft.to/lastmile_qr_scan"}, "lon": -77.0657325, "bike_id": "189c99d5d4ce500044f4790c97219331", "type": "electric_scooter", "name": "189c99d5d4ce500044f4790c97219331"}, {"is_disabled": 0, "is_reserved": 0, "fusion_lat": 0.0, "lat": 38.8951005, "fusion_lon": 0.0, "rental_uris": {"ios": "https://dc.lft.to/lastmile_qr_scan", "android": "https://dc.lft.to/lastmile_qr_scan"}, "lon": -77.02295266666667, "bike_id": "e0d3a41b26f6226bcdd3a1f066987297", "type": "electric_scooter", "name": "e0d3a41b26f6226bcdd3a1f066987297"}, {"is_disabled": 0, "is_reserved": 0, "fusion_lat": 0.0, "lat": 38.9275125, "fusion_lon": 0.0, "rental_uris": {"ios": "https://dc.lft.to/lastmile_qr_scan", "android": "https://dc.lft.to/lastmile_qr_scan"}, "lon": -77.029602, "bike_id": "3512a8ca592db9493ea1545242f03f59", "type": "electric_scooter", "name": "3512a8ca592db9493ea1545242f03f59"}, {"is_disabled": 0, "is_reserved": 0, "fusion_lat": 0.0, "lat": 38.90276266666667, "fusion_lon": 0.0, "rental_uris": {"ios": "https://dc.lft.to/lastmile_qr_scan", "android": "https://dc.lft.to/lastmile_qr_scan"}, "lon": -77.05200483333333, "bike_id": "993081bfcbe2bc2c4099c42786714f1f", "type": "electric_scooter", "name": "993081bfcbe2bc2c4099c42786714f1f"}, {"is_disabled": 0, "is_reserved": 0, "fusion_lat": 0.0, "lat": 38.95096683333333, "fusion_lon": 0.0, "rental_uris": {"ios": "https://dc.lft.to/lastmile_qr_scan", "android": "https://dc.lft.to/lastmile_qr_scan"}, "lon": -77.02961783333333, "bike_id": "23b1028313cca204ed0ad27df71e1c8c", "type": "electric_scooter", "name": "23b1028313cca204ed0ad27df71e1c8c"}, {"is_disabled": 0, "is_reserved": 0, "fusion_lat": 0.0, "lat": 38.89647033333333, "fusion_lon": 0.0, "rental_uris": {"ios": "https://dc.lft.to/lastmile_qr_scan", "android": "https://dc.lft.to/lastmile_qr_scan"}, "lon": -77.03215933333334, "bike_id": "9a70757262c0a4e3ba3a81e41ea0cae0", "type": "electric_scooter", "name": "9a70757262c0a4e3ba3a81e41ea0cae0"}, {"is_disabled": 0, "is_reserved": 0, "fusion_lat": 0.0, "lat": 38.87568566666667, "fusion_lon": 0.0, "rental_uris": {"ios": "https://dc.lft.to/lastmile_qr_scan", "android": "https://dc.lft.to/lastmile_qr_scan"}, "lon": -77.00597283333333, "bike_id": "7571e002e11a5f38ceaaabe809f51bf9", "type": "electric_scooter", "name": "7571e002e11a5f38ceaaabe809f51bf9"}, {"is_disabled": 0, "is_reserved": 0, "fusion_lat": 0.0, "lat": 38.94141316666666, "fusion_lon": 0.0, "rental_uris": {"ios": "https://dc.lft.to/lastmile_qr_scan", "android": "https://dc.lft.to/lastmile_qr_scan"}, "lon": -77.0232705, "bike_id": "d122ddc24e9eb33946f68e586612176d", "type": "electric_scooter", "name": "d122ddc24e9eb33946f68e586612176d"}, {"is_disabled": 0, "is_reserved": 0, "fusion_lat": 0.0, "lat": 38.923611666666666, "fusion_lon": 0.0, "rental_uris": {"ios": "https://dc.lft.to/lastmile_qr_scan", "android": "https://dc.lft.to/lastmile_qr_scan"}, "lon": -77.0205725, "bike_id": "bc7f0124b6da1ca216877acaf7193af1", "type": "electric_scooter", "name": "bc7f0124b6da1ca216877acaf7193af1"}, {"is_disabled": 0, "is_reserved": 0, "fusion_lat": 0.0, "lat": 38.872900333333334, "fusion_lon": 0.0, "rental_uris": {"ios": "https://dc.lft.to/lastmile_qr_scan", "android": "https://dc.lft.to/lastmile_qr_scan"}, "lon": -77.00986683333333, "bike_id": "0a657e16841eb7b54b582d4659ebb03d", "type": "electric_scooter", "name": "0a657e16841eb7b54b582d4659ebb03d"}, {"is_disabled": 0, "is_reserved": 0, "fusion_lat": 0.0, "lat": 38.824298166666665, "fusion_lon": 0.0, "rental_uris": {"ios": "https://dc.lft.to/lastmile_qr_scan", "android": "https://dc.lft.to/lastmile_qr_scan"}, "lon": -77.12041233333333, "bike_id": "cd0eedaad5f6e2d227aa14281c62d1c9", "type": "electric_bike", "name": "cd0eedaad5f6e2d227aa14281c62d1c9"}, {"is_disabled": 0, "is_reserved": 0, "fusion_lat": 0.0, "lat": 38.921751666666665, "fusion_lon": 0.0, "rental_uris": {"ios": "https://dc.lft.to/lastmile_qr_scan", "android": "https://dc.lft.to/lastmile_qr_scan"}, "lon": -77.042357, "bike_id": "fefba946dccc9ad58b1be4875dec9fa3", "type": "electric_scooter", "name": "fefba946dccc9ad58b1be4875dec9fa3"}, {"is_disabled": 0, "is_reserved": 0, "fusion_lat": 0.0, "lat": 38.86567566666667, "fusion_lon": 0.0, "rental_uris": {"ios": "https://dc.lft.to/lastmile_qr_scan", "android": "https://dc.lft.to/lastmile_qr_scan"}, "lon": -76.974725, "bike_id": "4a3ccf1bc423229b185bc8e281e8d8a0", "type": "electric_bike", "name": "4a3ccf1bc423229b185bc8e281e8d8a0"}, {"is_disabled": 0, "is_reserved": 0, "fusion_lat": 0.0, "lat": 38.90072583333333, "fusion_lon": 0.0, "rental_uris": {"ios": "https://dc.lft.to/lastmile_qr_scan", "android": "https://dc.lft.to/lastmile_qr_scan"}, "lon": -77.03821616666667, "bike_id": "be58c16df86ac57be5bd86a1ad6db73e", "type": "electric_scooter", "name": "be58c16df86ac57be5bd86a1ad6db73e"}, {"is_disabled": 0, "is_reserved": 0, "fusion_lat": 0.0, "lat": 38.89826016666667, "fusion_lon": 0.0, "rental_uris": {"ios": "https://dc.lft.to/lastmile_qr_scan", "android": "https://dc.lft.to/lastmile_qr_scan"}, "lon": -77.02633116666667, "bike_id": "6ad8ebbb8feb4a33ef757a25147831ed", "type": "electric_scooter", "name": "6ad8ebbb8feb4a33ef757a25147831ed"}, {"is_disabled": 0, "is_reserved": 0, "fusion_lat": 0.0, "lat": 38.85640333333333, "fusion_lon": 0.0, "rental_uris": {"ios": "https://dc.lft.to/lastmile_qr_scan", "android": "https://dc.lft.to/lastmile_qr_scan"}, "lon": -77.06833966666666, "bike_id": "7cc2c1b46bcfc61c58c105f8044f6ec0", "type": "electric_bike", "name": "7cc2c1b46bcfc61c58c105f8044f6ec0"}, {"is_disabled": 0, "is_reserved": 0, "fusion_lat": 0.0, "lat": 38.88221566666667, "fusion_lon": 0.0, "rental_uris": {"ios": "https://dc.lft.to/lastmile_qr_scan", "android": "https://dc.lft.to/lastmile_qr_scan"}, "lon": -76.99739133333334, "bike_id": "736e4377c0a24052490e4e6e92014e64", "type": "electric_scooter", "name": "736e4377c0a24052490e4e6e92014e64"}, {"is_disabled": 0, "is_reserved": 0, "fusion_lat": 0.0, "lat": 38.90092883333333, "fusion_lon": 0.0, "rental_uris": {"ios": "https://dc.lft.to/lastmile_qr_scan", "android": "https://dc.lft.to/lastmile_qr_scan"}, "lon": -77.05061566666667, "bike_id": "20c43e899199b5ee8aaba94f92ca4a9d", "type": "electric_scooter", "name": "20c43e899199b5ee8aaba94f92ca4a9d"}, {"is_disabled": 0, "is_reserved": 0, "fusion_lat": 0.0, "lat": 38.93150083333333, "fusion_lon": 0.0, "rental_uris": {"ios": "https://dc.lft.to/lastmile_qr_scan", "android": "https://dc.lft.to/lastmile_qr_scan"}, "lon": -77.07850066666667, "bike_id": "cf89f34668c5e67ac12810e8737ccacb", "type": "electric_scooter", "name": "cf89f34668c5e67ac12810e8737ccacb"}, {"is_disabled": 0, "is_reserved": 0, "fusion_lat": 0.0, "lat": 38.891727, "fusion_lon": 0.0, "rental_uris": {"ios": "https://dc.lft.to/lastmile_qr_scan", "android": "https://dc.lft.to/lastmile_qr_scan"}, "lon": -77.015634, "bike_id": "619fcbafba6472eea95a3db2bc045bc5", "type": "electric_scooter", "name": "619fcbafba6472eea95a3db2bc045bc5"}, {"is_disabled": 0, "is_reserved": 0, "fusion_lat": 0.0, "lat": 39.00382533333333, "fusion_lon": 0.0, "rental_uris": {"ios": "https://dc.lft.to/lastmile_qr_scan", "android": "https://dc.lft.to/lastmile_qr_scan"}, "lon": -77.0128445, "bike_id": "5dbd3863f2a01411e232507fb0822844", "type": "electric_bike", "name": "5dbd3863f2a01411e232507fb0822844"}, {"is_disabled": 0, "is_reserved": 0, "fusion_lat": 0.0, "lat": 38.953636833333334, "fusion_lon": 0.0, "rental_uris": {"ios": "https://dc.lft.to/lastmile_qr_scan", "android": "https://dc.lft.to/lastmile_qr_scan"}, "lon": -76.94297666666667, "bike_id": "9d81fbd8125a1c20e34e9704f302c184", "type": "electric_bike", "name": "9d81fbd8125a1c20e34e9704f302c184"}, {"is_disabled": 0, "is_reserved": 0, "fusion_lat": 0.0, "lat": 38.89441716666666, "fusion_lon": 0.0, "rental_uris": {"ios": "https://dc.lft.to/lastmile_qr_scan", "android": "https://dc.lft.to/lastmile_qr_scan"}, "lon": -76.979907, "bike_id": "35b31ba5e703fe6bb51610c1d52c45d6", "type": "electric_scooter", "name": "35b31ba5e703fe6bb51610c1d52c45d6"}, {"is_disabled": 0, "is_reserved": 0, "fusion_lat": 0.0, "lat": 38.93972933333333, "fusion_lon": 0.0, "rental_uris": {"ios": "https://dc.lft.to/lastmile_qr_scan", "android": "https://dc.lft.to/lastmile_qr_scan"}, "lon": -77.03428166666667, "bike_id": "a3beb2ff6d5be5b080a83a701c268d49", "type": "electric_scooter", "name": "a3beb2ff6d5be5b080a83a701c268d49"}, {"is_disabled": 0, "is_reserved": 0, "fusion_lat": 0.0, "lat": 38.90614566666667, "fusion_lon": 0.0, "rental_uris": {"ios": "https://dc.lft.to/lastmile_qr_scan", "android": "https://dc.lft.to/lastmile_qr_scan"}, "lon": -77.0418, "bike_id": "cad093893cd55d94ab5b9616fddf1e1d", "type": "electric_scooter", "name": "cad093893cd55d94ab5b9616fddf1e1d"}, {"is_disabled": 0, "is_reserved": 0, "fusion_lat": 0.0, "lat": 38.837711, "fusion_lon": 0.0, "rental_uris": {"ios": "https://dc.lft.to/lastmile_qr_scan", "android": "https://dc.lft.to/lastmile_qr_scan"}, "lon": -76.99857416666667, "bike_id": "748ca2cd6bfdc2e084297e4a65f3b5bb", "type": "electric_scooter", "name": "748ca2cd6bfdc2e084297e4a65f3b5bb"}, {"is_disabled": 0, "is_reserved": 0, "fusion_lat": 0.0, "lat": 38.9034345, "fusion_lon": 0.0, "rental_uris": {"ios": "https://dc.lft.to/lastmile_qr_scan", "android": "https://dc.lft.to/lastmile_qr_scan"}, "lon": -76.97574416666667, "bike_id": "f81341d763b290b18f8062ed98ecdb27", "type": "electric_scooter", "name": "f81341d763b290b18f8062ed98ecdb27"}, {"is_disabled": 0, "is_reserved": 0, "fusion_lat": 0.0, "lat": 38.9043925, "fusion_lon": 0.0, "rental_uris": {"ios": "https://dc.lft.to/lastmile_qr_scan", "android": "https://dc.lft.to/lastmile_qr_scan"}, "lon": -76.97233116666666, "bike_id": "82db4e176668bf52dc53de940e3a34b0", "type": "electric_bike", "name": "82db4e176668bf52dc53de940e3a34b0"}, {"is_disabled": 0, "is_reserved": 0, "fusion_lat": 0.0, "lat": 38.92658616666667, "fusion_lon": 0.0, "rental_uris": {"ios": "https://dc.lft.to/lastmile_qr_scan", "android": "https://dc.lft.to/lastmile_qr_scan"},