{"data": {"bikes": [{"is_disabled": 0, "is_reserved": 0, "fusion_lat": 0.0, "lat": 38.9019075, "fusion_lon": 0.0, "rental_uris": {"ios": "https://dc.lft.to/lastmile_qr_scan", "android": "https://dc.lft.to/lastmile_qr_scan"}, "lon": -76.9767465, "bike_id": "e5e86101fa98f0e8c451aa38b0eb755a", "type": "electric_scooter", "name": "e5e86101fa98f0e8c451aa38b0eb755a"}, {"is_disabled": 0, "is_reserved": 0, "fusion_lat": 0.0, "lat": 38.88715833333333, "fusion_lon": 0.0, "rental_uris": {"ios": "https://dc.lft.to/lastmile_qr_scan", "android": "https://dc.lft.to/lastmile_qr_scan"}, "lon": -76.98385333333333, "bike_id": "1dd0cd3a1af65701b9c722674d6a8b4d", "type": "electric_scooter", "name": "1dd0cd3a1af65701b9c722674d6a8b4d"}, {"is_disabled": 0, "is_reserved": 0, "fusion_lat": 0.0, "lat": 38.89977283333333, "fusion_lon": 0.0, "rental_uris": {"ios": "https://dc.lft.to/lastmile_qr_scan", "android": "https://dc.lft.to/lastmile_qr_scan"}, "lon": -77.015984, "bike_id": "25dfe32fb6c3ef17fa7c6974c2b2b969", "type": "electric_scooter", "name": "25dfe32fb6c3ef17fa7c6974c2b2b969"}, {"is_disabled": 0, "is_reserved": 0, "fusion_lat": 0.0, "lat": 38.93076666666666, "fusion_lon": 0.0, "rental_uris": {"ios": "https://dc.lft.to/lastmile_qr_scan", "android": "https://dc.lft.to/lastmile_qr_scan"}, "lon": -77.0776315, "bike_id": "2d103674f1f6fb6f858afe49b7b7fbf2", "type": "electric_scooter", "name": "2d103674f1f6fb6f858afe49b7b7fbf2"}, {"is_disabled": 0, "is_reserved": 0, "fusion_lat": 0.0, "lat": 38.92581933333334, "fusion_lon": 0.0, "rental_uris": {"ios": "https://dc.lft.to/lastmile_qr_scan", "android": "https://dc.lft.to/lastmile_qr_scan"}, "lon": -76.99494016666667, "bike_id": "0bf94955f4572a8cfc0c2d435a4ce90e", "type": "electric_scooter", "name": "0bf94955f4572a8cfc0c2d435a4ce90e"}, {"is_disabled": 0, "is_reserved": 0, "fusion_lat": 0.0, "lat": 39.00378283333333, "fusion_lon": 0.0, "rental_uris": {"ios": "https://dc.lft.to/lastmile_qr_scan", "android": "https://dc.lft.to/lastmile_qr_scan"}, "lon": -77.01284066666666, "bike_id": "48f1ef07138c7cecd2c4ccf510c49bb5", "type": "electric_bike", "name": "48f1ef07138c7cecd2c4ccf510c49bb5"}, {"is_disabled": 0, "is_reserved": 0, "fusion_lat": 0.0, "lat": 38.92903883333334, "fusion_lon": 0.0, "rental_uris": {"ios": "https://dc.lft.to/lastmile_qr_scan", "android": "https://dc.lft.to/lastmile_qr_scan"}, "lon": -77.03191816666667, "bike_id": "328dddd4a50c74a3dbc02e0ff619a63e", "type": "electric_scooter", "name": "328dddd4a50c74a3dbc02e0ff619a63e"}, {"is_disabled": 0, "is_reserved": 0, "fusion_lat": 0.0, "lat": 38.92042383333333, "fusion_lon": 0.0, "rental_uris": {"ios": "https://dc.lft.to/lastmile_qr_scan", "android": "https://dc.lft.to/lastmile_qr_scan"}, "lon": -76.9795545, "bike_id": "df654e36d4399dba3f22d376fad31d1e", "type": "electric_bike", "name": "df654e36d4399dba3f22d376fad31d1e"}, {"is_disabled": 0, "is_reserved": 0, "fusion_lat": 0.0, "lat": 38.939789, "fusion_lon": 0.0, "rental_uris": {"ios": "https://dc.lft.to/lastmile_qr_scan", "android": "https://dc.lft.to/lastmile_qr_scan"}, "lon": -77.03430016666667, "bike_id": "ce1db21107c28af12e5e537b24ad41fe", "type": "electric_scooter", "name": "ce1db21107c28af12e5e537b24ad41fe"}, {"is_disabled": 0, "is_reserved": 0, "fusion_lat": 0.0, "lat": 38.92072866666667, "fusion_lon": 0.0, "rental_uris": {"ios": "https://dc.lft.to/lastmile_qr_scan", "android": "https://dc.lft.to/lastmile_qr_scan"}, "lon": -77.023541, "bike_id": "387b25f9d2229734fdd21f94dc964cb3", "type": "electric_scooter", "name": "387b25f9d2229734fdd21f94dc964cb3"}, {"is_disabled": 0, "is_reserved": 0, "fusion_lat": 0.0, "lat": 38.892307833333334, "fusion_lon": 0.0, "rental_uris": {"ios": "https://dc.lft.to/lastmile_qr_scan", "android": "https://dc.lft.to/lastmile_qr_scan"}, "lon": -77.05004433333333, "bike_id": "c38377f40857c5901383b00ce44bd2c2", "type": "electric_scooter", "name": "c38377f40857c5901383b00ce44bd2c2"}, {"is_disabled": 0, "is_reserved": 0, "fusion_lat": 0.0, "lat": 38.913355, "fusion_lon": 0.0, "rental_uris": {"ios": "https://dc.lft.to/lastmile_qr_scan", "android": "https://dc.lft.to/lastmile_qr_scan"}, "lon": -77.04350316666667, "bike_id": "c71e6fa1f58f523ad3a0bc0fe36c9651", "type": "electric_scooter", "name": "c71e6fa1f58f523ad3a0bc0fe36c9651"}, {"is_disabled": 0, "is_reserved": 0, "fusion_lat": 0.0, "lat": 38.93064666666667, "fusion_lon": 0.0, "rental_uris": {"ios": "https://dc.lft.to/lastmile_qr_scan", "android": "https://dc.lft.to/lastmile_qr_scan"}, "lon": -76.9732865, "bike_id": "9433d96ee3deaeb20eee83d51b7d4dcc", "type": "electric_scooter", "name": "9433d96ee3deaeb20eee83d51b7d4dcc"}, {"is_disabled": 0, "is_reserved": 0, "fusion_lat": 0.0, "lat": 38.91640016666667, "fusion_lon": 0.0, "rental_uris": {"ios": "https://dc.lft.to/lastmile_qr_scan", "android": "https://dc.lft.to/lastmile_qr_scan"}, "lon": -77.03180816666666, "bike_id": "b9c7d7b8bcbee320ab191f88dcd443cd", "type": "electric_scooter", "name": "b9c7d7b8bcbee320ab191f88dcd443cd"}, {"is_disabled": 0, "is_reserved": 0, "fusion_lat": 0.0, "lat": 38.9563785, "fusion_lon": 0.0, "rental_uris": {"ios": "https://dc.lft.to/lastmile_qr_scan", "android": "https://dc.lft.to/lastmile_qr_scan"}, "lon": -77.0363305, "bike_id": "41f925746ac40bc32e6d9cfca9cd1f78", "type": "electric_scooter", "name": "41f925746ac40bc32e6d9cfca9cd1f78"}, {"is_disabled": 0, "is_reserved": 0, "fusion_lat": 0.0, "lat": 38.9273435, "fusion_lon": 0.0, "rental_uris": {"ios": "https://dc.lft.to/lastmile_qr_scan", "android": "https://dc.lft.to/lastmile_qr_scan"}, "lon": -77.02269533333333, "bike_id": "495b4d55a7e1e24fed1837ae6cd548af", "type": "electric_scooter", "name": "495b4d55a7e1e24fed1837ae6cd548af"}, {"is_disabled": 0, "is_reserved": 0, "fusion_lat": 0.0, "lat": 38.933501166666666, "fusion_lon": 0.0, "rental_uris": {"ios": "https://dc.lft.to/lastmile_qr_scan", "android": "https://dc.lft.to/lastmile_qr_scan"}, "lon": -77.0193815, "bike_id": "4bd9415537d60eda968d4a2caec2b964", "type": "electric_scooter", "name": "4bd9415537d60eda968d4a2caec2b964"}, {"is_disabled": 0, "is_reserved": 0, "fusion_lat": 0.0, "lat": 38.9259835, "fusion_lon": 0.0, "rental_uris": {"ios": "https://dc.lft.to/lastmile_qr_scan", "android": "https://dc.lft.to/lastmile_qr_scan"}, "lon": -77.0249665, "bike_id": "c241b32a464143ee7a272fa2253de16c", "type": "electric_scooter", "name": "c241b32a464143ee7a272fa2253de16c"}, {"is_disabled": 0, "is_reserved": 0, "fusion_lat": 0.0, "lat": 38.93241583333333, "fusion_lon": 0.0, "rental_uris": {"ios": "https://dc.lft.to/lastmile_qr_scan", "android": "https://dc.lft.to/lastmile_qr_scan"}, "lon": -77.020323, "bike_id": "89618fc4e41170a4006e9890c7462167", "type": "electric_scooter", "name": "89618fc4e41170a4006e9890c7462167"}, {"is_disabled": 0, "is_reserved": 0, "fusion_lat": 0.0, "lat": 38.917489, "fusion_lon": 0.0, "rental_uris": {"ios": "https://dc.lft.to/lastmile_qr_scan", "android": "https://dc.lft.to/lastmile_qr_scan"}, "lon": -77.02618733333334, "bike_id": "feaae4bf9ea2f747bde79c0cdac0078e", "type": "electric_scooter", "name": "feaae4bf9ea2f747bde79c0cdac0078e"}, {"is_disabled": 0, "is_reserved": 0, "fusion_lat": 0.0, "lat": 38.890873, "fusion_lon": 0.0, "rental_uris": {"ios": "https://dc.lft.to/lastmile_qr_scan", "android": "https://dc.lft.to/lastmile_qr_scan"}, "lon": -76.9546795, "bike_id": "cbb20c8c3de31056ad621980b9543794", "type": "electric_bike", "name": "cbb20c8c3de31056ad621980b9543794"}, {"is_disabled": 0, "is_reserved": 0, "fusion_lat": 0.0, "lat": 38.858017333333336, "fusion_lon": 0.0, "rental_uris": {"ios": "https://dc.lft.to/lastmile_qr_scan", "android": "https://dc.lft.to/lastmile_qr_scan"}, "lon": -76.98754516666666, "bike_id": "1b4c445a9ae6540e89c8bbae4e144eb0", "type": "electric_bike", "name": "1b4c445a9ae6540e89c8bbae4e144eb0"}, {"is_disabled": 0, "is_reserved": 0, "fusion_lat": 0.0, "lat": 38.902472333333336, "fusion_lon": 0.0, "rental_uris": {"ios": "https://dc.lft.to/lastmile_qr_scan", "android": "https://dc.lft.to/lastmile_qr_scan"}, "lon": -77.03459566666666, "bike_id": "ee60b2fce8fbfd4d15176ec37085d1dd", "type": "electric_scooter", "name": "ee60b2fce8fbfd4d15176ec37085d1dd"}, {"is_disabled": 0, "is_reserved": 0, "fusion_lat": 0.0, "lat": 38.926846166666664, "fusion_lon": 0.0, "rental_uris": {"ios": "https://dc.lft.to/lastmile_qr_scan", "android": "https://dc.lft.to/lastmile_qr_scan"}, "lon": -77.00857983333333, "bike_id": "13d77e37edb93aaf5a4895f3ebb7ecb9", "type": "electric_scooter", "name": "13d77e37edb93aaf5a4895f3ebb7ecb9"}, {"is_disabled": 0, "is_reserved": 0, "fusion_lat": 0.0, "lat": 39.026252666666664, "fusion_lon": 0.0, "rental_uris": {"ios": "https://dc.lft.to/lastmile_qr_scan", "android": "https://dc.lft.to/lastmile_qr_scan"}, "lon": -77.03876416666667, "bike_id": "25e89ec3ca77d768e5a149790c3b73e2", "type": "electric_bike", "name": "25e89ec3ca77d768e5a149790c3b73e2"}, {"is_disabled": 0, "is_reserved": 0, "fusion_lat": 0.0, "lat": 38.93005616666667, "fusion_lon": 0.0, "rental_uris": {"ios": "https://dc.lft.to/lastmile_qr_scan", "android": "https://dc.lft.to/lastmile_qr_scan"}, "lon": -77.03805366666667, "bike_id": "6a60cef4dc3065c75506f4a4fe8989fa", "type": "electric_scooter", "name": "6a60cef4dc3065c75506f4a4fe8989fa"}, {"is_disabled": 0, "is_reserved": 0, "fusion_lat": 0.0, "lat": 38.91423566666667, "fusion_lon": 0.0, "rental_uris": {"ios": "https://dc.lft.to/lastmile_qr_scan", "android": "https://dc.lft.to/lastmile_qr_scan"}, "lon": -77.033056, "bike_id": "6951e78ec84d2fe26f1b2dca1c8d92d9", "type": "electric_scooter", "name": "6951e78ec84d2fe26f1b2dca1c8d92d9"}, {"is_disabled": 0, "is_reserved": 0, "fusion_lat": 0.0, "lat": 38.91784766666667, "fusion_lon": 0.0, "rental_uris": {"ios": "https://dc.lft.to/lastmile_qr_scan", "android": "https://dc.lft.to/lastmile_qr_scan"}, "lon": -77.0321525, "bike_id": "18a878241c39e738e2b9e749aef2ec0e", "type": "electric_scooter", "name": "18a878241c39e738e2b9e749aef2ec0e"}, {"is_disabled": 0, "is_reserved": 0, "fusion_lat": 0.0, "lat": 38.893353833333336, "fusion_lon": 0.0, "rental_uris": {"ios": "https://dc.lft.to/lastmile_qr_scan", "android": "https://dc.lft.to/lastmile_qr_scan"}, "lon": -76.928897, "bike_id": "bee6208294e74224579502b7fc41bf51", "type": "electric_scooter", "name": "bee6208294e74224579502b7fc41bf51"}, {"is_disabled": 0, "is_reserved": 0, "fusion_lat": 0.0, "lat": 38.92465966666666, "fusion_lon": 0.0, "rental_uris": {"ios": "https://dc.lft.to/lastmile_qr_scan", "android": "https://dc.lft.to/lastmile_qr_scan"}, "lon": -77.0575615, "bike_id": "bb0155a5ef12077d11303d108b343dbd", "type": "electric_scooter", "name": "bb0155a5ef12077d11303d108b343dbd"}, {"is_disabled": 0, "is_reserved": 0, "fusion_lat": 0.0, "lat": 38.90355366666667, "fusion_lon": 0.0, "rental_uris": {"ios": "https://dc.lft.to/lastmile_qr_scan", "android": "https://dc.lft.to/lastmile_qr_scan"}, "lon": -77.0074245, "bike_id": "69aff3a221c168374d2804e537930109", "type": "electric_scooter", "name": "69aff3a221c168374d2804e537930109"}, {"is_disabled": 0, "is_reserved": 0, "fusion_lat": 0.0, "lat": 38.924214666666664, "fusion_lon": 0.0, "rental_uris": {"ios": "https://dc.lft.to/lastmile_qr_scan", "android": "https://dc.lft.to/lastmile_qr_scan"}, "lon": -77.02134016666666, "bike_id": "2dfe6e131f874c94c7a4867821821824", "type": "electric_scooter", "name": "2dfe6e131f874c94c7a4867821821824"}, {"is_disabled": 0, "is_reserved": 0, "fusion_lat": 0.0, "lat": 38.928641666666664, "fusion_lon": 0.0, "rental_uris": {"ios": "https://dc.lft.to/lastmile_qr_scan", "android": "https://dc.lft.to/lastmile_qr_scan"}, "lon": -77.03048516666667, "bike_id": "e619829626b68aaf6d7842721a0e545f", "type": "electric_scooter", "name": "e619829626b68aaf6d7842721a0e545f"}, {"is_disabled": 0, "is_reserved": 0, "fusion_lat": 0.0, "lat": 38.8980855, "fusion_lon": 0.0, "rental_uris": {"ios": "https://dc.lft.to/lastmile_qr_scan", "android": "https://dc.lft.to/lastmile_qr_scan"}, "lon": -76.971673, "bike_id": "306258926211be3d5ae65d69f5ed66f7", "type": "electric_scooter", "name": "306258926211be3d5ae65d69f5ed66f7"}, {"is_disabled": 0, "is_reserved": 0, "fusion_lat": 0.0, "lat": 38.90224083333333, "fusion_lon": 0.0, "rental_uris": {"ios": "https://dc.lft.to/lastmile_qr_scan", "android": "https://dc.lft.to/lastmile_qr_scan"}, "lon": -76.93174, "bike_id": "ca3a0abcad52063fe9fed54f77b024a9", "type": "electric_bike", "name": "ca3a0abcad52063fe9fed54f77b024a9"}, {"is_disabled": 0, "is_reserved": 0, "fusion_lat": 0.0, "lat": 38.920773833333335, "fusion_lon": 0.0, "rental_uris": {"ios": "https://dc.lft.to/lastmile_qr_scan", "android": "https://dc.lft.to/lastmile_qr_scan"}, "lon": -77.02448816666667, "bike_id": "f3850ee42952794e37047c31dff8ac6d", "type": "electric_scooter", "name": "f3850ee42952794e37047c31dff8ac6d"}, {"is_disabled": 0, "is_reserved": 0, "fusion_lat": 0.0, "lat": 38.928913, "fusion_lon": 0.0, "rental_uris": {"ios": "https://dc.lft.to/lastmile_qr_scan", "android": "https://dc.lft.to/lastmile_qr_scan"}, "lon": -77.01378683333333, "bike_id": "9d8d174eac6e45d02644b8a44f7bf349", "type": "electric_scooter", "name": "9d8d174eac6e45d02644b8a44f7bf349"}, {"is_disabled": 0, "is_reserved": 0, "fusion_lat": 0.0, "lat": 38.915690166666664, "fusion_lon": 0.0, "rental_uris": {"ios": "https://dc.lft.to/lastmile_qr_scan", "android": "https://dc.lft.to/lastmile_qr_scan"}, "lon": -77.031918, "bike_id": "39eb7f9b4acb4602bb37cac84b877125", "type": "electric_scooter", "name": "39eb7f9b4acb4602bb37cac84b877125"}, {"is_disabled": 0, "is_reserved": 0, "fusion_lat": 0.0, "lat": 38.9054145, "fusion_lon": 0.0, "rental_uris": {"ios": "https://dc.lft.to/lastmile_qr_scan", "android": "https://dc.lft.to/lastmile_qr_scan"}, "lon": -77.05910066666667, "bike_id": "78d6407a813145e52347290914b496b3", "type": "electric_bike", "name": "78d6407a813145e52347290914b496b3"}, {"is_disabled": 0, "is_reserved": 0, "fusion_lat": 0.0, "lat": 38.8764415, "fusion_lon": 0.0, "rental_uris": {"ios": "https://dc.lft.to/lastmile_qr_scan", "android": "https://dc.lft.to/lastmile_qr_scan"}, "lon": -76.99297616666666, "bike_id": "fe2c535c3bd300205e40a4b7ce2e9b61", "type": "electric_scooter", "name": "fe2c535c3bd300205e40a4b7ce2e9b61"}, {"is_disabled": 0, "is_reserved": 0, "fusion_lat": 0.0, "lat": 38.90646383333333, "fusion_lon": 0.0, "rental_uris": {"ios": "https://dc.lft.to/lastmile_qr_scan", "android": "https://dc.lft.to/lastmile_qr_scan"}, "lon": -77.06909333333333, "bike_id": "52dedf23c557da35433a986e75256e7d", "type": "electric_scooter", "name": "52dedf23c557da35433a986e75256e7d"}, {"is_disabled": 0, "is_reserved": 0, "fusion_lat": 0.0, "lat": 38.90571933333333, "fusion_lon": 0.0, "rental_uris": {"ios": "https://dc.lft.to/lastmile_qr_scan", "android": "https://dc.lft.to/lastmile_qr_scan"}, "lon": -77.03221383333333, "bike_id": "d19d4ea51f1e0fa39999711de0bcf220", "type": "electric_scooter", "name": "d19d4ea51f1e0fa39999711de0bcf220"}, {"is_disabled": 0, "is_reserved": 0, "fusion_lat": 0.0, "lat": 38.891333333333336, "fusion_lon": 0.0, "rental_uris": {"ios": "https://dc.lft.to/lastmile_qr_scan", "android": "https://dc.lft.to/lastmile_qr_scan"}, "lon": -76.999416, "bike_id": "e96860e8827b74c70f35eb423749d96a", "type": "electric_scooter", "name": "e96860e8827b74c70f35eb423749d96a"}, {"is_disabled": 0, "is_reserved": 0, "fusion_lat": 0.0, "lat": 38.864761666666666, "fusion_lon": 0.0, "rental_uris": {"ios": "https://dc.lft.to/lastmile_qr_scan", "android": "https://dc.lft.to/lastmile_qr_scan"}, "lon": -76.97758066666667, "bike_id": "f75233d7e9ef39df12921bb3c091280c", "type": "electric_scooter", "name": "f75233d7e9ef39df12921bb3c091280c"}, {"is_disabled": 0, "is_reserved": 0, "fusion_lat": 0.0, "lat": 38.95431966666666, "fusion_lon": 0.0, "rental_uris": {"ios": "https://dc.lft.to/lastmile_qr_scan", "android": "https://dc.lft.to/lastmile_qr_scan"}, "lon": -76.98795766666667, "bike_id": "ccc6f065fb7875fdc741b0482c732938", "type": "electric_scooter", "name": "ccc6f065fb7875fdc741b0482c732938"}, {"is_disabled": 0, "is_reserved": 0, "fusion_lat": 0.0, "lat": 38.91474733333333, "fusion_lon": 0.0, "rental_uris": {"ios": "https://dc.lft.to/lastmile_qr_scan", "android": "https://dc.lft.to/lastmile_qr_scan"}, "lon": -77.001978, "bike_id": "4d7512d3886139a521651e4f7b29e7b7", "type": "electric_scooter", "name": "4d7512d3886139a521651e4f7b29e7b7"}, {"is_disabled": 0, "is_reserved": 0, "fusion_lat": 0.0, "lat": 38.927516833333335, "fusion_lon": 0.0, "rental_uris": {"ios": "https://dc.lft.to/lastmile_qr_scan", "android": "https://dc.lft.to/lastmile_qr_scan"}, "lon": -77.032695, "bike_id": "6355b14a1250cbf39ebb252d0dea0363", "type": "electric_scooter", "name": "6355b14a1250cbf39ebb252d0dea0363"}, {"is_disabled": 0, "is_reserved": 0, "fusion_lat": 0.0, "lat": 38.911192, "fusion_lon": 0.0, "rental_uris": {"ios": "https://dc.lft.to/lastmile_qr_scan", "android": "https://dc.lft.to/lastmile_qr_scan"}, "lon": -77.0115965, "bike_id": "27de1ba0def3249effcefe42b1529b16", "type": "electric_scooter", "name": "27de1ba0def3249effcefe42b1529b16"}, {"is_disabled": 0, "is_reserved": 0, "fusion_lat": 0.0, "lat": 38.915470166666665, "fusion_lon": 0.0, "rental_uris": {"ios": "https://dc.lft.to/lastmile_qr_scan", "android": "https://dc.lft.to/lastmile_qr_scan"}, "lon": -77.00924116666667, "bike_id": "ab71e1de126635ebb9307c168181b1c0", "type": "electric_scooter", "name": "ab71e1de126635ebb9307c168181b1c0"}, {"is_disabled": 0, "is_reserved": 0, "fusion_lat": 0.0, "lat": 38.89255166666667, "fusion_lon": 0.0, "rental_uris": {"ios": "https://dc.lft.to/lastmile_qr_scan", "android": "https://dc.lft.to/lastmile_qr_scan"}, "lon": -77.03956633333334, "bike_id": "cd353d8042227cd82694c41ad9f40c92", "type": "electric_scooter", "name": "cd353d8042227cd82694c41ad9f40c92"}, {"is_disabled": 0, "is_reserved": 0, "fusion_lat": 0.0, "lat": 38.9285685, "fusion_lon": 0.0, "rental_uris": {"ios": "https://dc.lft.to/lastmile_qr_scan", "android": "https://dc.lft.to/lastmile_qr_scan"}, "lon": -77.01398733333333, "bike_id": "8a7a3288f737a5eaeac519f48a1056fc", "type": "electric_scooter", "name": "8a7a3288f737a5eaeac519f48a1056fc"}, {"is_disabled": 0, "is_reserved": 0, "fusion_lat": 0.0, "lat": 38.8961315, "fusion_lon": 0.0, "rental_uris": {"ios": "https://dc.lft.to/lastmile_qr_scan", "android": "https://dc.lft.to/lastmile_qr_scan"}, "lon": -76.9980595, "bike_id": "b54509e7df622118a767d2c39e5bbfe3", "type": "electric_scooter", "name": "b54509e7df622118a767d2c39e5bbfe3"}, {"is_disabled": 0, "is_reserved": 0, "fusion_lat": 0.0, "lat": 38.90571833333333, "fusion_lon": 0.0, "rental_uris": {"ios": "https://dc.lft.to/lastmile_qr_scan", "android": "https://dc.lft.to/lastmile_qr_scan"}, "lon": -77.0330705, "bike_id": "2784ad49de52a820a947444444cca469", "type": "electric_scooter", "name": "2784ad49de52a820a947444444cca469"}, {"is_disabled": 0, "is_reserved": 0, "fusion_lat": 0.0, "lat": 38.89221466666667, "fusion_lon": 0.0, "rental_uris": {"ios": "https://dc.lft.to/lastmile_qr_scan", "android": "https://dc.lft.to/lastmile_qr_scan"}, "lon": -77.03341633333334, "bike_id": "07f4afead824c82c9ed3a73de964cfb8", "type": "electric_scooter", "name": "07f4afead824c82c9ed3a73de964cfb8"}, {"is_disabled": 0, "is_reserved": 0, "fusion_lat": 0.0, "lat": 38.92151616666666, "fusion_lon": 0.0, "rental_uris": {"ios": "https://dc.lft.to/lastmile_qr_scan", "android": "https://dc.lft.to/lastmile_qr_scan"}, "lon": -77.03504033333333, "bike_id": "a13bdce3c4ff43cba8a85c4d40650e44", "type": "electric_scooter", "name": "a13bdce3c4ff43cba8a85c4d40650e44"}, {"is_disabled": 0, "is_reserved": 0, "fusion_lat": 0.0, "lat": 38.918877333333334, "fusion_lon": 0.0, "rental_uris": {"ios": "https://dc.lft.to/lastmile_qr_scan", "android": "https://dc.lft.to/lastmile_qr_scan"}, "lon": -77.04177166666666, "bike_id": "3e865eec7796017e8719a496d989b0fa", "type": "electric_scooter", "name": "3e865eec7796017e8719a496d989b0fa"}, {"is_disabled": 0, "is_reserved": 0, "fusion_lat": 0.0, "lat": 38.91489083333333, "fusion_lon": 0.0, "rental_uris": {"ios": "https://dc.lft.to/lastmile_qr_scan", "android": "https://dc.lft.to/lastmile_qr_scan"}, "lon": -77.04286633333334, "bike_id": "f43e185c5808cf9a995638b412e80bf6", "type": "electric_scooter", "name": "f43e185c5808cf9a995638b412e80bf6"}, {"is_disabled": 0, "is_reserved": 0, "fusion_lat": 0.0, "lat": 38.8276395, "fusion_lon": 0.0, "rental_uris": {"ios": "https://dc.lft.to/lastmile_qr_scan", "android": "https://dc.lft.to/lastmile_qr_scan"}, "lon": -77.05029516666667, "bike_id": "878fa3c9a34296670c95dbe1d9d379ab", "type": "electric_bike", "name": "878fa3c9a34296670c95dbe1d9d379ab"}, {"is_disabled": 0, "is_reserved": 0, "fusion_lat": 0.0, "lat": 38.92755783333333, "fusion_lon": 0.0, "rental_uris": {"ios": "https://dc.lft.to/lastmile_qr_scan", "android": "https://dc.lft.to/lastmile_qr_scan"}, "lon": -77.03275083333334, "bike_id": "f0f2c4172471d33123af7c919025e890", "type": "electric_scooter", "name": "f0f2c4172471d33123af7c919025e890"}, {"is_disabled": 0, "is_reserved": 0, "fusion_lat": 0.0, "lat": 38.8987575, "fusion_lon": 0.0, "rental_uris": {"ios": "https://dc.lft.to/lastmile_qr_scan", "android": "https://dc.lft.to/lastmile_qr_scan"}, "lon": -77.05005533333333, "bike_id": "754af34e6f032bae4b6e3e7b9e1efc5b", "type": "electric_scooter", "name": "754af34e6f032bae4b6e3e7b9e1efc5b"}, {"is_disabled": 0, "is_reserved": 0, "fusion_lat": 0.0, "lat": 38.94221966666667, "fusion_lon": 0.0, "rental_uris": {"ios": "https://dc.lft.to/lastmile_qr_scan", "android": "https://dc.lft.to/lastmile_qr_scan"}, "lon": -76.96129216666667, "bike_id": "3ed74e37d5e7f4c2c840f7b48e13c855", "type": "electric_bike", "name": "3ed74e37d5e7f4c2c840f7b48e13c855"}, {"is_disabled": 0, "is_reserved": 0, "fusion_lat": 0.0, "lat": 38.809807166666666, "fusion_lon": 0.0, "rental_uris": {"ios": "https://dc.lft.to/lastmile_qr_scan", "android": "https://dc.lft.to/lastmile_qr_scan"}, "lon": -77.0766205, "bike_id": "002f2e5f12c002dc8d48777274c34ed4", "type": "electric_bike", "name": "002f2e5f12c002dc8d48777274c34ed4"}, {"is_disabled": 0, "is_reserved": 0, "fusion_lat": 0.0, "lat": 38.90527, "fusion_lon": 0.0, "rental_uris": {"ios": "https://dc.lft.to/lastmile_qr_scan", "android": "https://dc.lft.to/lastmile_qr_scan"}, "lon": -77.06259783333333, "bike_id": "f20f36c190b1e49ae381386b5beae77c", "type": "electric_scooter", "name": "f20f36c190b1e49ae381386b5beae77c"}, {"is_disabled": 0, "is_reserved": 0, "fusion_lat": 0.0, "lat": 38.91774083333333, "fusion_lon": 0.0, "rental_uris": {"ios": "https://dc.lft.to/lastmile_qr_scan", "android": "https://dc.lft.to/lastmile_qr_scan"}, "lon": -77.0149675, "bike_id": "321c573efc1fd02fa2aca09107ac4d9d", "type": "electric_scooter", "name": "321c573efc1fd02fa2aca09107ac4d9d"}, {"is_disabled": 0, "is_reserved": 0, "fusion_lat": 0.0, "lat": 38.925376, "fusion_lon": 0.0, "rental_uris": {"ios": "https://dc.lft.to/lastmile_qr_scan", "android": "https://dc.lft.to/lastmile_qr_scan"}, "lon": -77.02562483333334, "bike_id": "5e63e46217fab8d3779ce9415e1f4f1d", "type": "electric_scooter", "name": "5e63e46217fab8d3779ce9415e1f4f1d"}, {"is_disabled": 0, "is_reserved": 0, "fusion_lat": 0.0, "lat": 38.8994765, "fusion_lon": 0.0, "rental_uris": {"ios": "https://dc.lft.to/lastmile_qr_scan", "android": "https://dc.lft.to/lastmile_qr_scan"}, "lon": -77.032209, "bike_id": "842a337853ddeb206931d97850fbe4e3", "type": "electric_scooter", "name": "842a337853ddeb206931d97850fbe4e3"}, {"is_disabled": 0, "is_reserved": 0, "fusion_lat": 0.0, "lat": 38.90974833333333, "fusion_lon": 0.0, "rental_uris": {"ios": "https://dc.lft.to/lastmile_qr_scan", "android": "https://dc.lft.to/lastmile_qr_scan"}, "lon": -77.0110565, "bike_id": "37cb226bf9cb7ce866e4dfb1981ee311", "type": "electric_scooter", "name": "37cb226bf9cb7ce866e4dfb1981ee311"}, {"is_disabled": 0, "is_reserved": 0, "fusion_lat": 0.0, "lat": 38.8052815, "fusion_lon": 0.0, "rental_uris": {"ios": "https://dc.lft.to/lastmile_qr_scan", "android": "https://dc.lft.to/lastmile_qr_scan"}, "lon": -77.0433775, "bike_id": "74f24f2a3fa2d78240a063f38aa717b9", "type": "electric_bike", "name": "74f24f2a3fa2d78240a063f38aa717b9"}, {"is_disabled": 0, "is_reserved": 0, "fusion_lat": 0.0, "lat": 38.864965, "fusion_lon": 0.0, "rental_uris": {"ios": "https://dc.lft.to/lastmile_qr_scan", "android": "https://dc.lft.to/lastmile_qr_scan"}, "lon": -76.96982483333333, "bike_id": "306b50612948825981e9d746bb20c858", "type": "electric_bike", "name": "306b50612948825981e9d746bb20c858"}, {"is_disabled": 0, "is_reserved": 0, "fusion_lat": 0.0, "lat": 38.895087833333335, "fusion_lon": 0.0, "rental_uris": {"ios": "https://dc.lft.to/lastmile_qr_scan", "android": "https://dc.lft.to/lastmile_qr_scan"}, "lon": -77.02294066666667, "bike_id": "58ee2bdccd886ca63204523b04459f67", "type": "electric_scooter", "name": "58ee2bdccd886ca63204523b04459f67"}, {"is_disabled": 0, "is_reserved": 0, "fusion_lat": 0.0, "lat": 38.91559633333333, "fusion_lon": 0.0, "rental_uris": {"ios": "https://dc.lft.to/lastmile_qr_scan", "android": "https://dc.lft.to/lastmile_qr_scan"}, "lon": -77.038148, "bike_id": "67e8f34b09dc6da944e4c65dbdccb349", "type": "electric_scooter", "name": "67e8f34b09dc6da944e4c65dbdccb349"}, {"is_disabled": 0, "is_reserved": 0, "fusion_lat": 0.0, "lat": 38.8974775, "fusion_lon": 0.0, "rental_uris": {"ios": "https://dc.lft.to/lastmile_qr_scan", "android": "https://dc.lft.to/lastmile_qr_scan"}, "lon": -77.01763583333333, "bike_id": "372be4ef7768ec38dcd8bd43741e3e6f", "type": "electric_scooter", "name": "372be4ef7768ec38dcd8bd43741e3e6f"}, {"is_disabled": 0, "is_reserved": 0, "fusion_lat": 0.0, "lat": 38.878987333333335, "fusion_lon": 0.0, "rental_uris": {"ios": "https://dc.lft.to/lastmile_qr_scan", "android": "https://dc.lft.to/lastmile_qr_scan"}, "lon": -76.93528283333333, "bike_id": "912e60eb671fb941cc34f8f8adbeb764", "type": "electric_scooter", "name": "912e60eb671fb941cc34f8f8adbeb764"}, {"is_disabled": 0, "is_reserved": 0, "fusion_lat": 0.0, "lat": 38.91478383333333, "fusion_lon": 0.0, "rental_uris": {"ios": "https://dc.lft.to/lastmile_qr_scan", "android": "https://dc.lft.to/lastmile_qr_scan"}, "lon": -77.03186866666667, "bike_id": "f3d523287e18d9665d3ba246e27fcc86", "type": "electric_scooter", "name": "f3d523287e18d9665d3ba246e27fcc86"}, {"is_disabled": 0, "is_reserved": 0, "fusion_lat": 0.0, "lat": 38.922278166666665, "fusion_lon": 0.0, "rental_uris": {"ios": "https://dc.lft.to/lastmile_qr_scan", "android": "https://dc.lft.to/lastmile_qr_scan"}, "lon": -77.03896166666667, "bike_id": "eff685d8500679e4cb513deb230a2bdf", "type": "electric_scooter", "name": "eff685d8500679e4cb513deb230a2bdf"}, {"is_disabled": 0, "is_reserved": 0, "fusion_lat": 0.0, "lat": 38.9360345, "fusion_lon": 0.0, "rental_uris": {"ios": "https://dc.lft.to/lastmile_qr_scan", "android": "https://dc.lft.to/lastmile_qr_scan"}, "lon": -77.05598216666667, "bike_id": "315b1de9e3ebc8ea0a51c5d4b7222ce9", "type": "electric_scooter", "name": "315b1de9e3ebc8ea0a51c5d4b7222ce9"}, {"is_disabled": 0, "is_reserved": 0, "fusion_lat": 0.0, "lat": 38.835854, "fusion_lon": 0.0, "rental_uris": {"ios": "https://dc.lft.to/lastmile_qr_scan", "android": "https://dc.lft.to/lastmile_qr_scan"}, "lon": -76.990174, "bike_id": "0ff31ae4bd895505de5330d8a879c9a4", "type": "electric_bike", "name": "0ff31ae4bd895505de5330d8a879c9a4"}, {"is_disabled": 0, "is_reserved": 0, "fusion_lat": 0.0, "lat": 38.8950215, "fusion_lon": 0.0, "rental_uris": {"ios": "https://dc.lft.to/lastmile_qr_scan", "android": "https://dc.lft.to/lastmile_qr_scan"}, "lon": -76.97415616666666, "bike_id": "30527bb2b5e9f4f9f369c398184a73c8", "type": "electric_scooter", "name": "30527bb2b5e9f4f9f369c398184a73c8"}, {"is_disabled": 0, "is_reserved": 0, "fusion_lat": 0.0, "lat": 38.850675833333334, "fusion_lon": 0.0, "rental_uris": {"ios": "https://dc.lft.to/lastmile_qr_scan", "android": "https://dc.lft.to/lastmile_qr_scan"}, "lon": -76.98172683333334, "bike_id": "fb438bddf5d33c47d4e0861678d1638f", "type": "electric_bike", "name": "fb438bddf5d33c47d4e0861678d1638f"}, {"is_disabled": 0, "is_reserved": 0, "fusion_lat": 0.0, "lat": 38.91747516666667, "fusion_lon": 0.0, "rental_uris": {"ios": "https://dc.lft.to/lastmile_qr_scan", "android": "https://dc.lft.to/lastmile_qr_scan"}, "lon": -77.01082216666667, "bike_id": "48bed16f3b1f48412a6f231004b2ff84", "type": "electric_scooter", "name": "48bed16f3b1f48412a6f231004b2ff84"}, {"is_disabled": 0, "is_reserved": 0, "fusion_lat": 0.0, "lat": 38.91197616666667, "fusion_lon": 0.0, "rental_uris": {"ios": "https://dc.lft.to/lastmile_qr_scan", "android": "https://dc.lft.to/lastmile_qr_scan"}, "lon": -77.04451433333334, "bike_id": "63d02c091b0ed7689673e24e7b8feb31", "type": "electric_scooter", "name": "63d02c091b0ed7689673e24e7b8feb31"}, {"is_disabled": 0, "is_reserved": 0, "fusion_lat": 0.0, "lat": 38.895169, "fusion_lon": 0.0, "rental_uris": {"ios": "https://dc.lft.to/lastmile_qr_scan", "android": "https://dc.lft.to/lastmile_qr_scan"}, "lon": -77.02296883333334, "bike_id": "d30b1a1169f42ce37c23fa9ce4907bb5", "type": "electric_scooter", "name": "d30b1a1169f42ce37c23fa9ce4907bb5"}, {"is_disabled": 0, "is_reserved": 0, "fusion_lat": 0.0, "lat": 38.92222616666667, "fusion_lon": 0.0, "rental_uris": {"ios": "https://dc.lft.to/lastmile_qr_scan", "android": "https://dc.lft.to/lastmile_qr_scan"}, "lon": -77.02035166666667, "bike_id": "0796325f657c0d0d5f427f02c7354116", "type": "electric_scooter", "name": "0796325f657c0d0d5f427f02c7354116"}, {"is_disabled": 0, "is_reserved": 0, "fusion_lat": 0.0, "lat": 38.907371166666664, "fusion_lon": 0.0, "rental_uris": {"ios": "https://dc.lft.to/lastmile_qr_scan", "android": "https://dc.lft.to/lastmile_qr_scan"}, "lon": -77.00496033333333, "bike_id": "17ec70aa8534e85afd22eeb8db6134cf", "type": "electric_scooter", "name": "17ec70aa8534e85afd22eeb8db6134cf"}, {"is_disabled": 0, "is_reserved": 0, "fusion_lat": 0.0, "lat": 38.915692666666665, "fusion_lon": 0.0, "rental_uris": {"ios": "https://dc.lft.to/lastmile_qr_scan", "android": "https://dc.lft.to/lastmile_qr_scan"}, "lon": -77.03633166666667, "bike_id": "ef5808b2aec99200f379463f5695e102", "type": "electric_scooter", "name": "ef5808b2aec99200f379463f5695e102"}, {"is_disabled": 0, "is_reserved": 0, "fusion_lat": 0.0, "lat": 38.943107, "fusion_lon": 0.0, "rental_uris": {"ios": "https://dc.lft.to/lastmile_qr_scan", "android": "https://dc.lft.to/lastmile_qr_scan"}, "lon": -77.018456, "bike_id": "f4255e66a49913b9c578497b379ce54e", "type": "electric_scooter", "name": "f4255e66a49913b9c578497b379ce54e"}, {"is_disabled": 0, "is_reserved": 0, "fusion_lat": 0.0, "lat": 38.89242433333333, "fusion_lon": 0.0, "rental_uris": {"ios": "https://dc.lft.to/lastmile_qr_scan", "android": "https://dc.lft.to/lastmile_qr_scan"}, "lon": -77.03956316666667, "bike_id": "2c2758fb5fbadeb53067945f91d81071", "type": "electric_scooter", "name": "2c2758fb5fbadeb53067945f91d81071"}, {"is_disabled": 0, "is_reserved": 0, "fusion_lat": 0.0, "lat": 38.89831483333333, "fusion_lon": 0.0, "rental_uris": {"ios": "https://dc.lft.to/lastmile_qr_scan", "android": "https://dc.lft.to/lastmile_qr_scan"}, "lon": -77.02848416666667, "bike_id": "ee3b5a4e1ed05a76b1bc125ab48807d9", "type": "electric_scooter", "name": "ee3b5a4e1ed05a76b1bc125ab48807d9"}, {"is_disabled": 0, "is_reserved": 0, "fusion_lat": 0.0, "lat": 38.934022666666664, "fusion_lon": 0.0, "rental_uris": {"ios": "https://dc.lft.to/lastmile_qr_scan", "android": "https://dc.lft.to/lastmile_qr_scan"}, "lon": -77.0261545, "bike_id": "595be3d095d9d0bc4e41f59ffffae425", "type": "electric_scooter", "name": "595be3d095d9d0bc4e41f59ffffae425"}, {"is_disabled": 0, "is_reserved": 0, "fusion_lat": 0.0, "lat": 38.896686, "fusion_lon": 0.0, "rental_uris": {"ios": "https://dc.lft.to/lastmile_qr_scan", "android": "https://dc.lft.to/lastmile_qr_scan"}, "lon": -76.9490565, "bike_id": "214f0a61ae870eff01e22346a1e22c35", "type": "electric_scooter", "name": "214f0a61ae870eff01e22346a1e22c35"}, {"is_disabled": 0, "is_reserved": 0, "fusion_lat": 0.0, "lat": 38.9036775, "fusion_lon": 0.0, "rental_uris": {"ios": "https://dc.lft.to/lastmile_qr_scan", "android": "https://dc.lft.to/lastmile_qr_scan"}, "lon": -77.016589, "bike_id": "bd925070e685237f9326d96ac7416ca0", "type": "electric_scooter", "name": "bd925070e685237f9326d96ac7416ca0"}, {"is_disabled": 0, "is_reserved": 0, "fusion_lat": 0.0, "lat": 38.90363833333333, "fusion_lon": 0.0, "rental_uris": {"ios": "https://dc.lft.to/lastmile_qr_scan", "android": "https://dc.lft.to/lastmile_qr_scan"}, "lon": -77.00339033333333, "bike_id": "ff6cd6756ddd722e4baafbf8af41f4e4", "type": "electric_scooter", "name": "ff6cd6756ddd722e4baafbf8af41f4e4"}, {"is_disabled": 0, "is_reserved": 0, "fusion_lat": 0.0, "lat": 38.82926333333333, "fusion_lon": 0.0, "rental_uris": {"ios": "https://dc.lft.to/lastmile_qr_scan", "android": "https://dc.lft.to/lastmile_qr_scan"}, "lon": -77.0687625, "bike_id": "e5142e4f7c47d0ef43ec9c8988ff1a05", "type": "electric_bike", "name": "e5142e4f7c47d0ef43ec9c8988ff1a05"}, {"is_disabled": 0, "is_reserved": 0, "fusion_lat": 0.0, "lat": 38.899196333333336, "fusion_lon": 0.0, "rental_uris": {"ios": "https://dc.lft.to/lastmile_qr_scan", "android": "https://dc.lft.to/lastmile_qr_scan"}, "lon": -76.9338375, "bike_id": "fc47126a387786d1b1355db5f9cff841", "type": "electric_scooter", "name": "fc47126a387786d1b1355db5f9cff841"}, {"is_disabled": 0, "is_reserved": 0, "fusion_lat": 0.0, "lat": 38.91269116666667, "fusion_lon": 0.0, "rental_uris": {"ios": "https://dc.lft.to/lastmile_qr_scan", "android": "https://dc.lft.to/lastmile_qr_scan"}, "lon": -77.01606566666666, "bike_id": "8eb474c9e86f480ab5eaaa7e4d5bc49d", "type": "electric_scooter", "name": "8eb474c9e86f480ab5eaaa7e4d5bc49d"}, {"is_disabled": 0, "is_reserved": 0, "fusion_lat": 0.0, "lat": 38.88045133333333, "fusion_lon": 0.0, "rental_uris": {"ios": "https://dc.lft.to/lastmile_qr_scan", "android": "https://dc.lft.to/lastmile_qr_scan"}, "lon": -76.92723983333333, "bike_id": "b0c19d1376b831c4008e71a20fb9bfb1", "type": "electric_scooter", "name": "b0c19d1376b831c4008e71a20fb9bfb1"}, {"is_disabled": 0, "is_reserved": 0, "fusion_lat": 0.0, "lat": 38.916769, "fusion_lon": 0.0, "rental_uris": {"ios": "https://dc.lft.to/lastmile_qr_scan", "android": "https://dc.lft.to/lastmile_qr_scan"}, "lon": -77.03186066666666, "bike_id": "557881cff944d14271d42f41fb3d9fcb", "type": "electric_scooter", "name": "557881cff944d14271d42f41fb3d9fcb"}, {"is_disabled": 0, "is_reserved": 0, "fusion_lat": 0.0, "lat": 38.92260916666667, "fusion_lon": 0.0, "rental_uris": {"ios": "https://dc.lft.to/lastmile_qr_scan", "android": "https://dc.lft.to/lastmile_qr_scan"}, "lon": -77.072723, "bike_id": "56fa64f72e7b7a3c54d70d8361327a46", "type": "electric_scooter", "name": "56fa64f72e7b7a3c54d70d8361327a46"}, {"is_disabled": 0, "is_reserved": 0, "fusion_lat": 0.0, "lat": 38.897480333333334, "fusion_lon": 0.0, "rental_uris": {"ios": "https://dc.lft.to/lastmile_qr_scan", "android": "https://dc.lft.to/lastmile_qr_scan"}, "lon": -77.02164433333333, "bike_id": "93a4dccde36793ca7483195ee1b133a1", "type": "electric_scooter", "name": "93a4dccde36793ca7483195ee1b133a1"}, {"is_disabled": 0, "is_reserved": 0, "fusion_lat": 0.0, "lat": 38.8961295, "fusion_lon": 0.0, "rental_uris": {"ios": "https://dc.lft.to/lastmile_qr_scan", "android": "https://dc.lft.to/lastmile_qr_scan"}, "lon": -77.00340416666667, "bike_id": "1f878dd51222cf0be4e583d0621fa509", "type": "electric_scooter", "name": "1f878dd51222cf0be4e583d0621fa509"}, {"is_disabled": 0, "is_reserved": 0, "fusion_lat": 0.0, "lat": 38.92765083333333, "fusion_lon": 0.0, "rental_uris": {"ios": "https://dc.lft.to/lastmile_qr_scan", "android": "https://dc.lft.to/lastmile_qr_scan"}, "lon": -77.029537, "bike_id": "537268d13b987514bd1cfd4ddab01318", "type": "electric_scooter", "name": "537268d13b987514bd1cfd4ddab01318"}, {"is_disabled": 0, "is_reserved": 0, "fusion_lat": 0.0, "lat": 38.9193435, "fusion_lon": 0.0, "rental_uris": {"ios": "https://dc.lft.to/lastmile_qr_scan", "android": "https://dc.lft.to/lastmile_qr_scan"}, "lon": -77.034246, "bike_id": "e2c57bf23be0ed2de5925473d6c4187f", "type": "electric_scooter", "name": "e2c57bf23be0ed2de5925473d6c4187f"}, {"is_disabled": 0, "is_reserved": 0, "fusion_lat": 0.0, "lat": 38.92876, "fusion_lon": 0.0, "rental_uris": {"ios": "https://dc.lft.to/lastmile_qr_scan", "android": "https://dc.lft.to/lastmile_qr_scan"}, "lon": -77.05655983333334, "bike_id": "ba2ad613bed67a150906f2829a9754c1", "type": "electric_scooter", "name": "ba2ad613bed67a150906f2829a9754c1"}, {"is_disabled": 0, "is_reserved": 0, "fusion_lat": 0.0, "lat": 38.920288666666664, "fusion_lon": 0.0, "rental_uris": {"ios": "https://dc.lft.to/lastmile_qr_scan", "android": "https://dc.lft.to/lastmile_qr_scan"}, "lon": -77.03161216666666, "bike_id": "6bbac118e2553fa62b91fd29aa710e2c", "type": "electric_scooter", "name": "6bbac118e2553fa62b91fd29aa710e2c"}, {"is_disabled": 0, "is_reserved": 0, "fusion_lat": 0.0, "lat": 38.9166645, "fusion_lon": 0.0, "rental_uris": {"ios": "https://dc.lft.to/lastmile_qr_scan", "android": "https://dc.lft.to/lastmile_qr_scan"}, "lon": -77.02401166666667, "bike_id": "e0d6155354fada9072bdc8f06ab7b444", "type": "electric_scooter", "name": "e0d6155354fada9072bdc8f06ab7b444"}, {"is_disabled": 0, "is_reserved": 0, "fusion_lat": 0.0, "lat": 38.9065465, "fusion_lon": 0.0, "rental_uris": {"ios": "https://dc.lft.to/lastmile_qr_scan", "android": "https://dc.lft.to/lastmile_qr_scan"}, "lon": -76.97942116666667, "bike_id": "974e4d9279c3cb62df207d3b67c33646", "type": "electric_scooter", "name": "974e4d9279c3cb62df207d3b67c33646"}, {"is_disabled": 0, "is_reserved": 0, "fusion_lat": 0.0, "lat": 38.91421316666667, "fusion_lon": 0.0, "rental_uris": {"ios": "https://dc.lft.to/lastmile_qr_scan", "android": "https://dc.lft.to/lastmile_qr_scan"}, "lon": -77.02118233333333, "bike_id": "8a0597c8706f5221b9dc71f62c941c92", "type": "electric_scooter", "name": "8a0597c8706f5221b9dc71f62c941c92"}, {"is_disabled": 0, "is_reserved": 0, "fusion_lat": 0.0, "lat": 38.9212515, "fusion_lon": 0.0, "rental_uris": {"ios": "https://dc.lft.to/lastmile_qr_scan", "android": "https://dc.lft.to/lastmile_qr_scan"}, "lon": -77.03663783333333, "bike_id": "060c9ac89008ed67394340ccd28203f8", "type": "electric_scooter", "name": "060c9ac89008ed67394340ccd28203f8"}, {"is_disabled": 0, "is_reserved": 0, "fusion_lat": 0.0, "lat": 38.91231783333333, "fusion_lon": 0.0, "rental_uris": {"ios": "https://dc.lft.to/lastmile_qr_scan", "android": "https://dc.lft.to/lastmile_qr_scan"}, "lon": -77.06410566666666, "bike_id": "01e1ca3bfa483ff58c2182282a26c37e", "type": "electric_scooter", "name": "01e1ca3bfa483ff58c2182282a26c37e"}, {"is_disabled": 0, "is_reserved": 0, "fusion_lat": 0.0, "lat": 38.9088055, "fusion_lon": 0.0, "rental_uris": {"ios": "https://dc.lft.to/lastmile_qr_scan", "android": "https://dc.lft.to/lastmile_qr_scan"}, "lon": -77.07433866666666, "bike_id": "a5e0e2fd633ddb1f53cf28f627ee7d18", "type": "electric_scooter", "name": "a5e0e2fd633ddb1f53cf28f627ee7d18"}, {"is_disabled": 0, "is_reserved": 0, "fusion_lat": 0.0, "lat": 38.935424166666664, "fusion_lon": 0.0, "rental_uris": {"ios": "https://dc.lft.to/lastmile_qr_scan", "android": "https://dc.lft.to/lastmile_qr_scan"}, "lon": -77.02356066666667, "bike_id": "36375fc168bdcec05075e06625a207a8", "type": "electric_scooter", "name": "36375fc168bdcec05075e06625a207a8"}, {"is_disabled": 0, "is_reserved": 0, "fusion_lat": 0.0, "lat": 38.91487516666667, "fusion_lon": 0.0, "rental_uris": {"ios": "https://dc.lft.to/lastmile_qr_scan", "android": "https://dc.lft.to/lastmile_qr_scan"}, "lon": -77.02178516666666, "bike_id": "c7403038803c0bf0d2ab9b0c479915fb", "type": "electric_scooter", "name": "c7403038803c0bf0d2ab9b0c479915fb"}, {"is_disabled": 0, "is_reserved": 0, "fusion_lat": 0.0, "lat": 38.92662516666667, "fusion_lon": 0.0, "rental_uris": {"ios": "https://dc.lft.to/lastmile_qr_scan", "android": "https://dc.lft.to/lastmile_qr_scan"}, "lon": -77.0519685, "bike_id": "7ef0c5fce370f77805c69f16a6b88f2d", "type": "electric_scooter", "name": "7ef0c5fce370f77805c69f16a6b88f2d"}, {"is_disabled": 0, "is_reserved": 0, "fusion_lat": 0.0, "lat": 38.905140333333335, "fusion_lon": 0.0, "rental_uris": {"ios": "https://dc.lft.to/lastmile_qr_scan", "android": "https://dc.lft.to/lastmile_qr_scan"}, "lon": -76.9521125, "bike_id": "5f7d4de62cbd28ba992c43f548f2af87", "type": "electric_scooter", "name": "5f7d4de62cbd28ba992c43f548f2af87"}, {"is_disabled": 0, "is_reserved": 0, "fusion_lat": 0.0, "lat": 38.89607616666667, "fusion_lon": 0.0, "rental_uris": {"ios": "https://dc.lft.to/lastmile_qr_scan", "android": "https://dc.lft.to/lastmile_qr_scan"}, "lon": -77.04505033333334, "bike_id": "c64cc1611ce6dcf4c3c6f545d52473ad", "type": "electric_scooter", "name": "c64cc1611ce6dcf4c3c6f545d52473ad"}, {"is_disabled": 0, "is_reserved": 0, "fusion_lat": 0.0, "lat": 38.89225416666667, "fusion_lon": 0.0, "rental_uris": {"ios": "https://dc.lft.to/lastmile_qr_scan", "android": "https://dc.lft.to/lastmile_qr_scan"}, "lon": -77.02773316666666, "bike_id": "72684a03a1420632d3c580dfc1b2fff1", "type": "electric_scooter", "name": "72684a03a1420632d3c580dfc1b2fff1"}, {"is_disabled": 0, "is_reserved": 0, "fusion_lat": 0.0, "lat": 38.86014566666667, "fusion_lon": 0.0, "rental_uris": {"ios": "https://dc.lft.to/lastmile_qr_scan", "android": "https://dc.lft.to/lastmile_qr_scan"}, "lon": -77.06528033333333, "bike_id": "d94cd622ca83b3eab879e644ddb43332", "type": "electric_bike", "name": "d94cd622ca83b3eab879e644ddb43332"}, {"is_disabled": 0, "is_reserved": 0, "fusion_lat": 0.0, "lat": 38.885461666666664, "fusion_lon": 0.0, "rental_uris": {"ios": "https://dc.lft.to/lastmile_qr_scan", "android": "https://dc.lft.to/lastmile_qr_scan"}, "lon": -76.95974283333334, "bike_id": "73bb4114ed842519df43ee7daadf9419", "type": "electric_scooter", "name": "73bb4114ed842519df43ee7daadf9419"}, {"is_disabled": 0, "is_reserved": 0, "fusion_lat": 0.0, "lat": 38.8830515, "fusion_lon": 0.0, "rental_uris": {"ios": "https://dc.lft.to/lastmile_qr_scan", "android": "https://dc.lft.to/lastmile_qr_scan"}, "lon": -77.00891333333334, "bike_id": "950441262a96e9f4c4031009678e2c7d", "type": "electric_scooter", "name": "950441262a96e9f4c4031009678e2c7d"}, {"is_disabled": 0, "is_reserved": 0, "fusion_lat": 0.0, "lat": 38.874733, "fusion_lon": 0.0, "rental_uris": {"ios": "https://dc.lft.to/lastmile_qr_scan", "android": "https://dc.lft.to/lastmile_qr_scan"}, "lon": -77.00931633333333, "bike_id": "d388a40d6d7a098617c56f2b2213a62a", "type": "electric_scooter", "name": "d388a40d6d7a098617c56f2b2213a62a"}, {"is_disabled": 0, "is_reserved": 0, "fusion_lat": 0.0, "lat": 38.918129666666665, "fusion_lon": 0.0, "rental_uris": {"ios": "https://dc.lft.to/lastmile_qr_scan", "android": "https://dc.lft.to/lastmile_qr_scan"}, "lon": -77.0249415, "bike_id": "c78ae43b116fdb693e9310ffc04d7d15", "type": "electric_scooter", "name": "c78ae43b116fdb693e9310ffc04d7d15"}, {"is_disabled": 0, "is_reserved": 0, "fusion_lat": 0.0, "lat": 38.89673966666667, "fusion_lon": 0.0, "rental_uris": {"ios": "https://dc.lft.to/lastmile_qr_scan", "android": "https://dc.lft.to/lastmile_qr_scan"}, "lon": -76.9320995, "bike_id": "348cc470d14a91ba3daa5ad4b2393b7e", "type": "electric_scooter", "name": "348cc470d14a91ba3daa5ad4b2393b7e"}, {"is_disabled": 0, "is_reserved": 0, "fusion_lat": 0.0, "lat": 38.89862733333333, "fusion_lon": 0.0, "rental_uris": {"ios": "https://dc.lft.to/lastmile_qr_scan", "android": "https://dc.lft.to/lastmile_qr_scan"}, "lon": -77.04877866666666, "bike_id": "eaffcfb2bd6582707a63711bb87e2a8e", "type": "electric_scooter", "name": "eaffcfb2bd6582707a63711bb87e2a8e"}, {"is_disabled": 0, "is_reserved": 0, "fusion_lat": 0.0, "lat": 38.877418666666664, "fusion_lon": 0.0, "rental_uris": {"ios": "https://dc.lft.to/lastmile_qr_scan", "android": "https://dc.lft.to/lastmile_qr_scan"}, "lon": -77.14873083333333, "bike_id": "fbb98927becfab72f50b8b52c66efabf", "type": "electric_bike", "name": "fbb98927becfab72f50b8b52c66efabf"}, {"is_disabled": 0, "is_reserved": 0, "fusion_lat": 0.0, "lat": 38.900368, "fusion_lon": 0.0, "rental_uris": {"ios": "https://dc.lft.to/lastmile_qr_scan", "android": "https://dc.lft.to/lastmile_qr_scan"}, "lon": -77.012162, "bike_id": "2b8d4cbe91be423603a7a2b1c318c60a", "type": "electric_scooter", "name": "2b8d4cbe91be423603a7a2b1c318c60a"}, {"is_disabled": 0, "is_reserved": 0, "fusion_lat": 0.0, "lat": 38.92195066666667, "fusion_lon": 0.0, "rental_uris": {"ios": "https://dc.lft.to/lastmile_qr_scan", "android": "https://dc.lft.to/lastmile_qr_scan"}, "lon": -76.99700733333333, "bike_id": "70c81b92e7b00e437e525c37f00f8d3b", "type": "electric_scooter", "name": "70c81b92e7b00e437e525c37f00f8d3b"}, {"is_disabled": 0, "is_reserved": 0, "fusion_lat": 0.0, "lat": 38.885380833333336, "fusion_lon": 0.0, "rental_uris": {"ios": "https://dc.lft.to/lastmile_qr_scan", "android": "https://dc.lft.to/lastmile_qr_scan"}, "lon": -76.99618633333333, "bike_id": "cd43374a56de783c25836a791bb33020", "type": "electric_scooter", "name": "cd43374a56de783c25836a791bb33020"}, {"is_disabled": 0, "is_reserved": 0, "fusion_lat": 0.0, "lat": 39.005389666666666, "fusion_lon": 0.0, "rental_uris": {"ios": "https://dc.lft.to/lastmile_qr_scan", "android": "https://dc.lft.to/lastmile_qr_scan"}, "lon": -77.1040145, "bike_id": "c2fd7f3b28d9895886a6b63d250a963c", "type": "electric_bike", "name": "c2fd7f3b28d9895886a6b63d250a963c"}, {"is_disabled": 0, "is_reserved": 0, "fusion_lat": 0.0, "lat": 38.881072, "fusion_lon": 0.0, "rental_uris": {"ios": "https://dc.lft.to/lastmile_qr_scan", "android": "https://dc.lft.to/lastmile_qr_scan"}, "lon": -77.01238783333334, "bike_id": "2394ce215dc7e43273292b5dc0a383e9", "type": "electric_scooter", "name": "2394ce215dc7e43273292b5dc0a383e9"}, {"is_disabled": 0, "is_reserved": 0, "fusion_lat": 0.0, "lat": 38.904713666666666, "fusion_lon": 0.0, "rental_uris": {"ios": "https://dc.lft.to/lastmile_qr_scan", "android": "https://dc.lft.to/lastmile_qr_scan"}, "lon": -77.066119, "bike_id": "c1a524c9bc267202a78e4dda2825ea8f", "type": "electric_bike", "name": "c1a524c9bc267202a78e4dda2825ea8f"}, {"is_disabled": 0, "is_reserved": 0, "fusion_lat": 0.0, "lat": 38.927807666666666, "fusion_lon": 0.0, "rental_uris": {"ios": "https://dc.lft.to/lastmile_qr_scan", "android": "https://dc.lft.to/lastmile_qr_scan"}, "lon": -77.052586, "bike_id": "3a801088f097a2ac36699dee22e4d3b4", "type": "electric_scooter", "name": "3a801088f097a2ac36699dee22e4d3b4"}, {"is_disabled": 0, "is_reserved": 0, "fusion_lat": 0.0, "lat": 38.934832666666665, "fusion_lon": 0.0, "rental_uris": {"ios": "https://dc.lft.to/lastmile_qr_scan", "android": "https://dc.lft.to/lastmile_qr_scan"}, "lon": -77.02415266666667, "bike_id": "3c404946dbf536e2543947bcde697254", "type": "electric_scooter", "name": "3c404946dbf536e2543947bcde697254"}, {"is_disabled": 0, "is_reserved": 0, "fusion_lat": 0.0, "lat": 38.878459, "fusion_lon": 0.0, "rental_uris": {"ios": "https://dc.lft.to/lastmile_qr_scan", "android": "https://dc.lft.to/lastmile_qr_scan"}, "lon": -76.98603583333333, "bike_id": "a1bd3a9079abedd4bb7b8bb2eb707c4c", "type": "electric_scooter", "name": "a1bd3a9079abedd4bb7b8bb2eb707c4c"}, {"is_disabled": 0, "is_reserved": 0, "fusion_lat": 0.0, "lat": 38.9821375, "fusion_lon": 0.0, "rental_uris": {"ios": "https://dc.lft.to/lastmile_qr_scan", "android": "https://dc.lft.to/lastmile_qr_scan"}, "lon": -76.9781675, "bike_id": "2c883ef58feef23eb6fed811ec23b54e", "type": "electric_bike", "name": "2c883ef58feef23eb6fed811ec23b54e"}, {"is_disabled": 0, "is_reserved": 0, "fusion_lat": 0.0, "lat": 38.93611083333333, "fusion_lon": 0.0, "rental_uris": {"ios": "https://dc.lft.to/lastmile_qr_scan", "android": "https://dc.lft.to/lastmile_qr_scan"}, "lon": -77.05591966666667, "bike_id": "03b6cea9bee9bfbd432c23a5e3dc95a0", "type": "electric_scooter", "name": "03b6cea9bee9bfbd432c23a5e3dc95a0"}, {"is_disabled": 0, "is_reserved": 0, "fusion_lat": 0.0, "lat": 38.95113416666667, "fusion_lon": 0.0, "rental_uris": {"ios": "https://dc.lft.to/lastmile_qr_scan", "android": "https://dc.lft.to/lastmile_qr_scan"}, "lon": -77.01887416666666, "bike_id": "9ed616cc3fe6689eef14c266da7ffdb6", "type": "electric_scooter", "name": "9ed616cc3fe6689eef14c266da7ffdb6"}, {"is_disabled": 0, "is_reserved": 0, "fusion_lat": 0.0, "lat": 38.92616016666667, "fusion_lon": 0.0, "rental_uris": {"ios": "https://dc.lft.to/lastmile_qr_scan", "android": "https://dc.lft.to/lastmile_qr_scan"}, "lon": -77.0065485, "bike_id": "142c9bfadb44ca485f0d951fe46f4edc", "type": "electric_scooter", "name": "142c9bfadb44ca485f0d951fe46f4edc"}, {"is_disabled": 0, "is_reserved": 0, "fusion_lat": 0.0, "lat": 38.92363266666667, "fusion_lon": 0.0, "rental_uris": {"ios": "https://dc.lft.to/lastmile_qr_scan", "android": "https://dc.lft.to/lastmile_qr_scan"}, "lon": -77.05233916666667, "bike_id": "288a2636c49ba6ae8f2865aed642d479", "type": "electric_scooter", "name": "288a2636c49ba6ae8f2865aed642d479"}, {"is_disabled": 0, "is_reserved": 0, "fusion_lat": 0.0, "lat": 38.8838485, "fusion_lon": 0.0, "rental_uris": {"ios": "https://dc.lft.to/lastmile_qr_scan", "android": "https://dc.lft.to/lastmile_qr_scan"}, "lon": -77.04609916666666, "bike_id": "305dd6d97fb9869a27c553a2fa8bc239", "type": "electric_scooter", "name": "305dd6d97fb9869a27c553a2fa8bc239"}, {"is_disabled": 0, "is_reserved": 0, "fusion_lat": 0.0, "lat": 38.921524, "fusion_lon": 0.0, "rental_uris": {"ios": "https://dc.lft.to/lastmile_qr_scan", "android": "https://dc.lft.to/lastmile_qr_scan"}, "lon": -77.03643566666666, "bike_id": "b559762682d38d859d7da598da4a55ab", "type": "electric_scooter", "name": "b559762682d38d859d7da598da4a55ab"}, {"is_disabled": 0, "is_reserved": 0, "fusion_lat": 0.0, "lat": 38.885718833333335, "fusion_lon": 0.0, "rental_uris": {"ios": "https://dc.lft.to/lastmile_qr_scan", "android": "https://dc.lft.to/lastmile_qr_scan"}, "lon": -77.02010766666666, "bike_id": "266e23b5e5d448e2e50ba4b2f070c639", "type": "electric_scooter", "name": "266e23b5e5d448e2e50ba4b2f070c639"}, {"is_disabled": 0, "is_reserved": 0, "fusion_lat": 0.0, "lat": 38.945942, "fusion_lon": 0.0, "rental_uris": {"ios": "https://dc.lft.to/lastmile_qr_scan", "android": "https://dc.lft.to/lastmile_qr_scan"}, "lon": -77.02036166666667, "bike_id": "3117a04f50ad6fc09ee48fdfea440481", "type": "electric_scooter", "name": "3117a04f50ad6fc09ee48fdfea440481"}, {"is_disabled": 0, "is_reserved": 0, "fusion_lat": 0.0, "lat": 38.910474666666666, "fusion_lon": 0.0, "rental_uris": {"ios": "https://dc.lft.to/lastmile_qr_scan", "android": "https://dc.lft.to/lastmile_qr_scan"}, "lon": -77.015092, "bike_id": "8b617383c445f0e4cbf5b9f8cdea284f", "type": "electric_scooter", "name": "8b617383c445f0e4cbf5b9f8cdea284f"}, {"is_disabled": 0, "is_reserved": 0, "fusion_lat": 0.0, "lat": 38.907866, "fusion_lon": 0.0, "rental_uris": {"ios": "https://dc.lft.to/lastmile_qr_scan", "android": "https://dc.lft.to/lastmile_qr_scan"}, "lon": -77.04513816666666, "bike_id": "55b807fd0b55b3bd2084fc20c735f3b8", "type": "electric_scooter", "name": "55b807fd0b55b3bd2084fc20c735f3b8"}, {"is_disabled": 0, "is_reserved": 0, "fusion_lat": 0.0, "lat": 38.906616166666666, "fusion_lon": 0.0, "rental_uris": {"ios": "https://dc.lft.to/lastmile_qr_scan", "android": "https://dc.lft.to/lastmile_qr_scan"}, "lon": -77.04561166666667, "bike_id": "147b651898d0ad05122e93a54b5f0946", "type": "electric_scooter", "name": "147b651898d0ad05122e93a54b5f0946"}, {"is_disabled": 0, "is_reserved": 0, "fusion_lat": 0.0, "lat": 38.842785666666664, "fusion_lon": 0.0, "rental_uris": {"ios": "https://dc.lft.to/lastmile_qr_scan", "android": "https://dc.lft.to/lastmile_qr_scan"}, "lon": -76.98840933333334, "bike_id": "21d22681df5d4ed96b92681a1e94ab51", "type": "electric_bike", "name": "21d22681df5d4ed96b92681a1e94ab51"}, {"is_disabled": 0, "is_reserved": 0, "fusion_lat": 0.0, "lat": 38.9238055, "fusion_lon": 0.0, "rental_uris": {"ios": "https://dc.lft.to/lastmile_qr_scan", "android": "https://dc.lft.to/lastmile_qr_scan"}, "lon": -77.040235, "bike_id": "3d4749fb056d7a2995d3f5081caf7b8a", "type": "electric_scooter", "name": "3d4749fb056d7a2995d3f5081caf7b8a"}, {"is_disabled": 0, "is_reserved": 0, "fusion_lat": 0.0, "lat": 38.94639866666667, "fusion_lon": 0.0, "rental_uris": {"ios": "https://dc.lft.to/lastmile_qr_scan", "android": "https://dc.lft.to/lastmile_qr_scan"}, "lon": -77.01844933333334, "bike_id": "c5ded40355e3a842f85520de0292d936", "type": "electric_scooter", "name": "c5ded40355e3a842f85520de0292d936"}, {"is_disabled": 0, "is_reserved": 0, "fusion_lat": 0.0, "lat": 38.93434333333333, "fusion_lon": 0.0, "rental_uris": {"ios": "https://dc.lft.to/lastmile_qr_scan", "android": "https://dc.lft.to/lastmile_qr_scan"}, "lon": -77.04312633333333, "bike_id": "caa53ee84469d1bb4e2216effd56b7a0", "type": "electric_scooter", "name": "caa53ee84469d1bb4e2216effd56b7a0"}, {"is_disabled": 0, "is_reserved": 0, "fusion_lat": 0.0, "lat": 38.80681833333333, "fusion_lon": 0.0, "rental_uris": {"ios": "https://dc.lft.to/lastmile_qr_scan", "android": "https://dc.lft.to/lastmile_qr_scan"}, "lon": -77.069161, "bike_id": "cf531f76772365c0dd12d04fab8f6682", "type": "electric_bike", "name": "cf531f76772365c0dd12d04fab8f6682"}, {"is_disabled": 0, "is_reserved": 0, "fusion_lat": 0.0, "lat": 38.917751333333335, "fusion_lon": 0.0, "rental_uris": {"ios": "https://dc.lft.to/lastmile_qr_scan", "android": "https://dc.lft.to/lastmile_qr_scan"}, "lon": -77.0234255, "bike_id": "0337f6de9eefffa1011e5089e999c09b", "type": "electric_scooter", "name": "0337f6de9eefffa1011e5089e999c09b"}, {"is_disabled": 0, "is_reserved": 0, "fusion_lat": 0.0, "lat": 38.903006833333336, "fusion_lon": 0.0, "rental_uris": {"ios": "https://dc.lft.to/lastmile_qr_scan", "android": "https://dc.lft.to/lastmile_qr_scan"}, "lon": -77.01206933333333, "bike_id": "20da9627af5412b78390500b46a9a42e", "type": "electric_scooter", "name": "20da9627af5412b78390500b46a9a42e"}, {"is_disabled": 0, "is_reserved": 0, "fusion_lat": 0.0, "lat": 38.95438816666667, "fusion_lon": 0.0, "rental_uris": {"ios": "https://dc.lft.to/lastmile_qr_scan", "android": "https://dc.lft.to/lastmile_qr_scan"}, "lon": -77.01852833333334, "bike_id": "b4f918f521681d7afa3404bac23cce49", "type": "electric_scooter", "name": "b4f918f521681d7afa3404bac23cce49"}, {"is_disabled": 0, "is_reserved": 0, "fusion_lat": 0.0, "lat": 38.983698833333335, "fusion_lon": 0.0, "rental_uris": {"ios": "https://dc.lft.to/lastmile_qr_scan", "android": "https://dc.lft.to/lastmile_qr_scan"}, "lon": -76.98850633333333, "bike_id": "ba80196b35220cb41cc5f61f01193dd0", "type": "electric_bike", "name": "ba80196b35220cb41cc5f61f01193dd0"}, {"is_disabled": 0, "is_reserved": 0, "fusion_lat": 0.0, "lat": 38.91120733333333, "fusion_lon": 0.0, "rental_uris": {"ios": "https://dc.lft.to/lastmile_qr_scan", "android": "https://dc.lft.to/lastmile_qr_scan"}, "lon": -77.03300333333334, "bike_id": "dc45b7d49ebc483e7054a456757f11aa", "type": "electric_scooter", "name": "dc45b7d49ebc483e7054a456757f11aa"}, {"is_disabled": 0, "is_reserved": 0, "fusion_lat": 0.0, "lat": 38.896153, "fusion_lon": 0.0, "rental_uris": {"ios": "https://dc.lft.to/lastmile_qr_scan", "android": "https://dc.lft.to/lastmile_qr_scan"}, "lon": -77.04683516666667, "bike_id": "8b2a12d04caa64ada03a303473e88ac7", "type": "electric_scooter", "name": "8b2a12d04caa64ada03a303473e88ac7"}, {"is_disabled": 0, "is_reserved": 0, "fusion_lat": 0.0, "lat": 38.89761716666667, "fusion_lon": 0.0, "rental_uris": {"ios": "https://dc.lft.to/lastmile_qr_scan", "android": "https://dc.lft.to/lastmile_qr_scan"}, "lon": -77.02028916666667, "bike_id": "5e2e5b78a5fbb9a776b04fd933fae8e4", "type": "electric_scooter", "name": "5e2e5b78a5fbb9a776b04fd933fae8e4"}, {"is_disabled": 0, "is_reserved": 0, "fusion_lat": 0.0, "lat": 38.91789833333333, "fusion_lon": 0.0, "rental_uris": {"ios": "https://dc.lft.to/lastmile_qr_scan", "android": "https://dc.lft.to/lastmile_qr_scan"}, "lon": -77.02357216666667, "bike_id": "74eaad9fc8433a1545a2b584d98b470c", "type": "electric_scooter", "name": "74eaad9fc8433a1545a2b584d98b470c"}, {"is_disabled": 0, "is_reserved": 0, "fusion_lat": 0.0, "lat": 38.842329666666664, "fusion_lon": 0.0, "rental_uris": {"ios": "https://dc.lft.to/lastmile_qr_scan", "android": "https://dc.lft.to/lastmile_qr_scan"}, "lon": -76.94891066666666, "bike_id": "92d2490d421739fa24dc6afc2f5ae348", "type": "electric_bike", "name": "92d2490d421739fa24dc6afc2f5ae348"}, {"is_disabled": 0, "is_reserved": 0, "fusion_lat": 0.0, "lat": 38.88774983333333, "fusion_lon": 0.0, "rental_uris": {"ios": "https://dc.lft.to/lastmile_qr_scan", "android": "https://dc.lft.to/lastmile_qr_scan"}, "lon": -76.93263816666666, "bike_id": "69e803cc4b35c0d1c92dc0bc5e8cdcbd", "type": "electric_scooter", "name": "69e803cc4b35c0d1c92dc0bc5e8cdcbd"}, {"is_disabled": 0, "is_reserved": 0, "fusion_lat": 0.0, "lat": 38.92157866666667, "fusion_lon": 0.0, "rental_uris": {"ios": "https://dc.lft.to/lastmile_qr_scan", "android": "https://dc.lft.to/lastmile_qr_scan"}, "lon": -77.0366825, "bike_id": "01f70d5980fb7460a57be008162552e9", "type": "electric_scooter", "name": "01f70d5980fb7460a57be008162552e9"}, {"is_disabled": 0, "is_reserved": 0, "fusion_lat": 0.0, "lat": 38.9207435, "fusion_lon": 0.0, "rental_uris": {"ios": "https://dc.lft.to/lastmile_qr_scan", "android": "https://dc.lft.to/lastmile_qr_scan"}, "lon": -77.02571683333333, "bike_id": "21e008e9eef78d56e4970c78c3e0163d", "type": "electric_scooter", "name": "21e008e9eef78d56e4970c78c3e0163d"}, {"is_disabled": 0, "is_reserved": 0, "fusion_lat": 0.0, "lat": 38.914638333333336, "fusion_lon": 0.0, "rental_uris": {"ios": "https://dc.lft.to/lastmile_qr_scan", "android": "https://dc.lft.to/lastmile_qr_scan"}, "lon": -77.0219045, "bike_id": "cce394bbc516b4e9298013d0fbf83258", "type": "electric_scooter", "name": "cce394bbc516b4e9298013d0fbf83258"}, {"is_disabled": 0, "is_reserved": 0, "fusion_lat": 0.0, "lat": 38.921627666666666, "fusion_lon": 0.0, "rental_uris": {"ios": "https://dc.lft.to/lastmile_qr_scan", "android": "https://dc.lft.to/lastmile_qr_scan"}, "lon": -77.03672016666667, "bike_id": "099bdeacd8b700da56ee25310e5e414f", "type": "electric_scooter", "name": "099bdeacd8b700da56ee25310e5e414f"}, {"is_disabled": 0, "is_reserved": 0, "fusion_lat": 0.0, "lat": 38.90840733333334, "fusion_lon": 0.0, "rental_uris": {"ios": "https://dc.lft.to/lastmile_qr_scan", "android": "https://dc.lft.to/lastmile_qr_scan"}, "lon": -77.02956933333333, "bike_id": "259a5980e936f17ecf51a51cbbcf60c1", "type": "electric_scooter", "name": "259a5980e936f17ecf51a51cbbcf60c1"}, {"is_disabled": 0, "is_reserved": 0, "fusion_lat": 0.0, "lat": 38.899286333333336, "fusion_lon": 0.0, "rental_uris": {"ios": "https://dc.lft.to/lastmile_qr_scan", "android": "https://dc.lft.to/lastmile_qr_scan"}, "lon": -77.00378616666667, "bike_id": "c108f48722ee605ea0d40ad25d45d635", "type": "electric_scooter", "name": "c108f48722ee605ea0d40ad25d45d635"}, {"is_disabled": 0, "is_reserved": 0, "fusion_lat": 0.0, "lat": 38.90549816666667, "fusion_lon": 0.0, "rental_uris": {"ios": "https://dc.lft.to/lastmile_qr_scan", "android": "https://dc.lft.to/lastmile_qr_scan"}, "lon": -77.021849, "bike_id": "b70e434d8f63ff740caee56001555e39", "type": "electric_scooter", "name": "b70e434d8f63ff740caee56001555e39"}, {"is_disabled": 0, "is_reserved": 0, "fusion_lat": 0.0, "lat": 38.902665666666664, "fusion_lon": 0.0, "rental_uris": {"ios": "https://dc.lft.to/lastmile_qr_scan", "android": "https://dc.lft.to/lastmile_qr_scan"}, "lon": -77.018449, "bike_id": "018d817fb5ab324cfbd0069c3c6d3b95", "type": "electric_scooter", "name": "018d817fb5ab324cfbd0069c3c6d3b95"}, {"is_disabled": 0, "is_reserved": 0, "fusion_lat": 0.0, "lat": 38.91676916666667, "fusion_lon": 0.0, "rental_uris": {"ios": "https://dc.lft.to/lastmile_qr_scan", "android": "https://dc.lft.to/lastmile_qr_scan"}, "lon": -77.03184666666667, "bike_id": "ec230d5f2577cac6c54b2c96151721fe", "type": "electric_scooter", "name": "ec230d5f2577cac6c54b2c96151721fe"}, {"is_disabled": 0, "is_reserved": 0, "fusion_lat": 0.0, "lat": 38.915593666666666, "fusion_lon": 0.0, "rental_uris": {"ios": "https://dc.lft.to/lastmile_qr_scan", "android": "https://dc.lft.to/lastmile_qr_scan"}, "lon": -77.05409883333333, "bike_id": "d9704076179c1bae35188415a075f1dd", "type": "electric_scooter", "name": "d9704076179c1bae35188415a075f1dd"}, {"is_disabled": 0, "is_reserved": 0, "fusion_lat": 0.0, "lat": 38.89241583333333, "fusion_lon": 0.0, "rental_uris": {"ios": "https://dc.lft.to/lastmile_qr_scan", "android": "https://dc.lft.to/lastmile_qr_scan"}, "lon": -77.033498, "bike_id": "af339b37a872d15171324adbe5172dfa", "type": "electric_scooter", "name": "af339b37a872d15171324adbe5172dfa"}, {"is_disabled": 0, "is_reserved": 0, "fusion_lat": 0.0, "lat": 38.9120935, "fusion_lon": 0.0, "rental_uris": {"ios": "https://dc.lft.to/lastmile_qr_scan", "android": "https://dc.lft.to/lastmile_qr_scan"}, "lon": -77.02097533333334, "bike_id": "10545ae450075cf9f26cbb30704162b7", "type": "electric_scooter", "name": "10545ae450075cf9f26cbb30704162b7"}, {"is_disabled": 0, "is_reserved": 0, "fusion_lat": 0.0, "lat": 38.8924975, "fusion_lon": 0.0, "rental_uris": {"ios": "https://dc.lft.to/lastmile_qr_scan", "android": "https://dc.lft.to/lastmile_qr_scan"}, "lon": -77.03350216666666, "bike_id": "a6f6a040746ff38d6b11e4fddacdef27", "type": "electric_scooter", "name": "a6f6a040746ff38d6b11e4fddacdef27"}, {"is_disabled": 0, "is_reserved": 0, "fusion_lat": 0.0, "lat": 38.918214166666665, "fusion_lon": 0.0, "rental_uris": {"ios": "https://dc.lft.to/lastmile_qr_scan", "android": "https://dc.lft.to/lastmile_qr_scan"}, "lon": -77.02527583333334, "bike_id": "285e20696080d16dbd43ad6111937464", "type": "electric_scooter", "name": "285e20696080d16dbd43ad6111937464"}, {"is_disabled": 0, "is_reserved": 0, "fusion_lat": 0.0, "lat": 38.93084533333333, "fusion_lon": 0.0, "rental_uris": {"ios": "https://dc.lft.to/lastmile_qr_scan", "android": "https://dc.lft.to/lastmile_qr_scan"}, "lon": -77.03197283333333, "bike_id": "edda56fd409de92d3f6241b11162d8e8", "type": "electric_scooter", "name": "edda56fd409de92d3f6241b11162d8e8"}, {"is_disabled": 0, "is_reserved": 0, "fusion_lat": 0.0, "lat": 38.93136, "fusion_lon": 0.0, "rental_uris": {"ios": "https://dc.lft.to/lastmile_qr_scan", "android": "https://dc.lft.to/lastmile_qr_scan"}, "lon": -77.02347916666666, "bike_id": "1eaba4cfff0fefb1f89c36b7dd99ad82", "type": "electric_scooter", "name": "1eaba4cfff0fefb1f89c36b7dd99ad82"}, {"is_disabled": 0, "is_reserved": 0, "fusion_lat": 0.0, "lat": 38.906257333333336, "fusion_lon": 0.0, "rental_uris": {"ios": "https://dc.lft.to/lastmile_qr_scan", "android": "https://dc.lft.to/lastmile_qr_scan"}, "lon": -77.07036, "bike_id": "c556d429f7549a77f855b8342f4a1d68", "type": "electric_scooter", "name": "c556d429f7549a77f855b8342f4a1d68"}, {"is_disabled": 0, "is_reserved": 0, "fusion_lat": 0.0, "lat": 38.8923035, "fusion_lon": 0.0, "rental_uris": {"ios": "https://dc.lft.to/lastmile_qr_scan", "android": "https://dc.lft.to/lastmile_qr_scan"}, "lon": -77.03339433333333, "bike_id": "a7cc2a3a5a0600d5512c4842425bc0e2", "type": "electric_scooter", "name": "a7cc2a3a5a0600d5512c4842425bc0e2"}, {"is_disabled": 0, "is_reserved": 0, "fusion_lat": 0.0, "lat": 38.91571016666666, "fusion_lon": 0.0, "rental_uris": {"ios": "https://dc.lft.to/lastmile_qr_scan", "android": "https://dc.lft.to/lastmile_qr_scan"}, "lon": -77.03183933333334, "bike_id": "f3509dbc8924795318d6ac9eaa7dee43", "type": "electric_scooter", "name": "f3509dbc8924795318d6ac9eaa7dee43"}, {"is_disabled": 0, "is_reserved": 0, "fusion_lat": 0.0, "lat": 38.91271166666667, "fusion_lon": 0.0, "rental_uris": {"ios": "https://dc.lft.to/lastmile_qr_scan", "android": "https://dc.lft.to/lastmile_qr_scan"}, "lon": -77.0303365, "bike_id": "d08729ec9b556515fbd170d2aa84e143", "type": "electric_scooter", "name": "d08729ec9b556515fbd170d2aa84e143"}, {"is_disabled": 0, "is_reserved": 0, "fusion_lat": 0.0, "lat": 38.900635, "fusion_lon": 0.0, "rental_uris": {"ios": "https://dc.lft.to/lastmile_qr_scan", "android": "https://dc.lft.to/lastmile_qr_scan"}, "lon": -77.006672, "bike_id": "3fb84a730683b7adaa686c54cad429d9", "type": "electric_scooter", "name": "3fb84a730683b7adaa686c54cad429d9"}, {"is_disabled": 0, "is_reserved": 0, "fusion_lat": 0.0, "lat": 38.90564233333333, "fusion_lon": 0.0, "rental_uris": {"ios": "https://dc.lft.to/lastmile_qr_scan", "android": "https://dc.lft.to/lastmile_qr_scan"}, "lon": -77.005938, "bike_id": "e5341aa35fc7e1ed7c481fa59ca5cc25", "type": "electric_scooter", "name": "e5341aa35fc7e1ed7c481fa59ca5cc25"}, {"is_disabled": 0, "is_reserved": 0, "fusion_lat": 0.0, "lat": 38.892381666666665, "fusion_lon": 0.0, "rental_uris": {"ios": "https://dc.lft.to/lastmile_qr_scan", "android": "https://dc.lft.to/lastmile_qr_scan"}, "lon": -77.02207866666667, "bike_id": "55945a9638af298aedc6ccb313b8f970", "type": "electric_scooter", "name": "55945a9638af298aedc6ccb313b8f970"}, {"is_disabled": 0, "is_reserved": 0, "fusion_lat": 0.0, "lat": 38.90012816666667, "fusion_lon": 0.0, "rental_uris": {"ios": "https://dc.lft.to/lastmile_qr_scan", "android": "https://dc.lft.to/lastmile_qr_scan"}, "lon": -77.0219085, "bike_id": "fb23c8119a302df6eb7b338dc7dd23bd", "type": "electric_scooter", "name": "fb23c8119a302df6eb7b338dc7dd23bd"}, {"is_disabled": 0, "is_reserved": 0, "fusion_lat": 0.0, "lat": 38.9178325, "fusion_lon": 0.0, "rental_uris": {"ios": "https://dc.lft.to/lastmile_qr_scan", "android": "https://dc.lft.to/lastmile_qr_scan"}, "lon": -77.023585, "bike_id": "1ef24f4e95b63448d529bebf14130a47", "type": "electric_scooter", "name": "1ef24f4e95b63448d529bebf14130a47"}, {"is_disabled": 0, "is_reserved": 0, "fusion_lat": 0.0, "lat": 38.898267833333335, "fusion_lon": 0.0, "rental_uris": {"ios": "https://dc.lft.to/lastmile_qr_scan", "android": "https://dc.lft.to/lastmile_qr_scan"}, "lon": -77.00213366666667, "bike_id": "7ed29b6789d41878823d674924c3e5c3", "type": "electric_scooter", "name": "7ed29b6789d41878823d674924c3e5c3"}, {"is_disabled": 0, "is_reserved": 0, "fusion_lat": 0.0, "lat": 38.892500166666665, "fusion_lon": 0.0, "rental_uris": {"ios": "https://dc.lft.to/lastmile_qr_scan", "android": "https://dc.lft.to/lastmile_qr_scan"}, "lon": -77.03958533333333, "bike_id": "e0befeff7da988f71ecd53e93f6b22a3", "type": "electric_scooter", "name": "e0befeff7da988f71ecd53e93f6b22a3"}, {"is_disabled": 0, "is_reserved": 0, "fusion_lat": 0.0, "lat": 38.924456166666666, "fusion_lon": 0.0, "rental_uris": {"ios": "https://dc.lft.to/lastmile_qr_scan", "android": "https://dc.lft.to/lastmile_qr_scan"}, "lon": -77.03412116666667, "bike_id": "e0b1a50e92ded27e113975764c1e7c3f", "type": "electric_scooter", "name": "e0b1a50e92ded27e113975764c1e7c3f"}, {"is_disabled": 0, "is_reserved": 0, "fusion_lat": 0.0, "lat": 38.942058833333334, "fusion_lon": 0.0, "rental_uris": {"ios": "https://dc.lft.to/lastmile_qr_scan", "android": "https://dc.lft.to/lastmile_qr_scan"}, "lon": -77.02564183333334, "bike_id": "42e4a8208ce970502d51deb3d8c1d5ec", "type": "electric_scooter", "name": "42e4a8208ce970502d51deb3d8c1d5ec"}, {"is_disabled": 0, "is_reserved": 0, "fusion_lat": 0.0, "lat": 38.92073516666667, "fusion_lon": 0.0, "rental_uris": {"ios": "https://dc.lft.to/lastmile_qr_scan", "android": "https://dc.lft.to/lastmile_qr_scan"}, "lon": -77.0256335, "bike_id": "fd3d4cb302728fb5b1f33d4e7bf9200f", "type": "electric_scooter", "name": "fd3d4cb302728fb5b1f33d4e7bf9200f"}, {"is_disabled": 0, "is_reserved": 0, "fusion_lat": 0.0, "lat": 38.92104116666667, "fusion_lon": 0.0, "rental_uris": {"ios": "https://dc.lft.to/lastmile_qr_scan", "android": "https://dc.lft.to/lastmile_qr_scan"}, "lon": -77.0176085, "bike_id": "ef818a537164d447a1455c37105e6cbc", "type": "electric_scooter", "name": "ef818a537164d447a1455c37105e6cbc"}, {"is_disabled": 0, "is_reserved": 0, "fusion_lat": 0.0, "lat": 38.871053, "fusion_lon": 0.0, "rental_uris": {"ios": "https://dc.lft.to/lastmile_qr_scan", "android": "https://dc.lft.to/lastmile_qr_scan"}, "lon": -77.0120575, "bike_id": "8b950233acbb7962a3577572e780c4a2", "type": "electric_scooter", "name": "8b950233acbb7962a3577572e780c4a2"}, {"is_disabled": 0, "is_reserved": 0, "fusion_lat": 0.0, "lat": 38.88490016666667, "fusion_lon": 0.0, "rental_uris": {"ios": "https://dc.lft.to/lastmile_qr_scan", "android": "https://dc.lft.to/lastmile_qr_scan"}, "lon": -77.0236335, "bike_id": "5120f4005b7a881e2fa95e5cbb208ebe", "type": "electric_scooter", "name": "5120f4005b7a881e2fa95e5cbb208ebe"}, {"is_disabled": 0, "is_reserved": 0, "fusion_lat": 0.0, "lat": 38.94854433333333, "fusion_lon": 0.0, "rental_uris": {"ios": "https://dc.lft.to/lastmile_qr_scan", "android": "https://dc.lft.to/lastmile_qr_scan"}, "lon": -77.02110633333334, "bike_id": "af27acb59c901f3044c2294003ad71b9", "type": "electric_scooter", "name": "af27acb59c901f3044c2294003ad71b9"}, {"is_disabled": 0, "is_reserved": 0, "fusion_lat": 0.0, "lat": 38.8942805, "fusion_lon": 0.0, "rental_uris": {"ios": "https://dc.lft.to/lastmile_qr_scan", "android": "https://dc.lft.to/lastmile_qr_scan"}, "lon": -77.05597566666667, "bike_id": "545e8ff98d5f0cc32f0d0422b313ece7", "type": "electric_scooter", "name": "545e8ff98d5f0cc32f0d0422b313ece7"}, {"is_disabled": 0, "is_reserved": 0, "fusion_lat": 0.0, "lat": 38.895114666666665, "fusion_lon": 0.0, "rental_uris": {"ios": "https://dc.lft.to/lastmile_qr_scan", "android": "https://dc.lft.to/lastmile_qr_scan"}, "lon": -77.02286033333333, "bike_id": "414a488b8f1766c8c77b267b5297bd94", "type": "electric_scooter", "name": "414a488b8f1766c8c77b267b5297bd94"}, {"is_disabled": 0, "is_reserved": 0, "fusion_lat": 0.0, "lat": 38.92072533333333, "fusion_lon": 0.0, "rental_uris": {"ios": "https://dc.lft.to/lastmile_qr_scan", "android": "https://dc.lft.to/lastmile_qr_scan"}, "lon": -77.02564116666667, "bike_id": "055dc506cca1940326bc2070645f3705", "type": "electric_scooter", "name": "055dc506cca1940326bc2070645f3705"}, {"is_disabled": 0, "is_reserved": 0, "fusion_lat": 0.0, "lat": 38.90122933333333, "fusion_lon": 0.0, "rental_uris": {"ios": "https://dc.lft.to/lastmile_qr_scan", "android": "https://dc.lft.to/lastmile_qr_scan"}, "lon": -77.03931916666667, "bike_id": "4abab824a394787ef1d19a305db6c470", "type": "electric_scooter", "name": "4abab824a394787ef1d19a305db6c470"}, {"is_disabled": 0, "is_reserved": 0, "fusion_lat": 0.0, "lat": 38.892225833333335, "fusion_lon": 0.0, "rental_uris": {"ios": "https://dc.lft.to/lastmile_qr_scan", "android": "https://dc.lft.to/lastmile_qr_scan"}, "lon": -77.027777, "bike_id": "a9309b7b8399a4524c6509ec066704c6", "type": "electric_scooter", "name": "a9309b7b8399a4524c6509ec066704c6"}, {"is_disabled": 0, "is_reserved": 0, "fusion_lat": 0.0, "lat": 38.89752816666667, "fusion_lon": 0.0, "rental_uris": {"ios": "https://dc.lft.to/lastmile_qr_scan", "android": "https://dc.lft.to/lastmile_qr_scan"}, "lon": -77.0216505, "bike_id": "d52554665afa625e5d04f3cdedfe867a", "type": "electric_scooter", "name": "d52554665afa625e5d04f3cdedfe867a"}, {"is_disabled": 0, "is_reserved": 0, "fusion_lat": 0.0, "lat": 38.897520166666666, "fusion_lon": 0.0, "rental_uris": {"ios": "https://dc.lft.to/lastmile_qr_scan", "android": "https://dc.lft.to/lastmile_qr_scan"}, "lon": -77.02176583333333, "bike_id": "18b83b0e5bbd573f56704a4c69884674", "type": "electric_scooter", "name": "18b83b0e5bbd573f56704a4c69884674"}, {"is_disabled": 0, "is_reserved": 0, "fusion_lat": 0.0, "lat": 38.90955, "fusion_lon": 0.0, "rental_uris": {"ios": "https://dc.lft.to/lastmile_qr_scan", "android": "https://dc.lft.to/lastmile_qr_scan"}, "lon": -77.04925833333333, "bike_id": "5ae57cd6529cdf92ab7f1e725f3c1f8c", "type": "electric_scooter", "name": "5ae57cd6529cdf92ab7f1e725f3c1f8c"}, {"is_disabled": 0, "is_reserved": 0, "fusion_lat": 0.0, "lat": 38.92435483333333, "fusion_lon": 0.0, "rental_uris": {"ios": "https://dc.lft.to/lastmile_qr_scan", "android": "https://dc.lft.to/lastmile_qr_scan"}, "lon": -77.01951533333333, "bike_id": "f6476b661ddb102733b1ab45b451142a", "type": "electric_scooter", "name": "f6476b661ddb102733b1ab45b451142a"}, {"is_disabled": 0, "is_reserved": 0, "fusion_lat": 0.0, "lat": 38.88871183333333, "fusion_lon": 0.0, "rental_uris": {"ios": "https://dc.lft.to/lastmile_qr_scan", "android": "https://dc.lft.to/lastmile_qr_scan"}, "lon": -77.00183183333333, "bike_id": "037222c1bb7482585634f3b635407ed0", "type": "electric_scooter", "name": "037222c1bb7482585634f3b635407ed0"}, {"is_disabled": 0, "is_reserved": 0, "fusion_lat": 0.0, "lat": 38.905037, "fusion_lon": 0.0, "rental_uris": {"ios": "https://dc.lft.to/lastmile_qr_scan", "android": "https://dc.lft.to/lastmile_qr_scan"}, "lon": -77.02945333333334, "bike_id": "4d23cac70900107f0b11a70565a5783f", "type": "electric_scooter", "name": "4d23cac70900107f0b11a70565a5783f"}, {"is_disabled": 0, "is_reserved": 0, "fusion_lat": 0.0, "lat": 38.899379, "fusion_lon": 0.0, "rental_uris": {"ios": "https://dc.lft.to/lastmile_qr_scan", "android": "https://dc.lft.to/lastmile_qr_scan"}, "lon": -76.937611, "bike_id": "4d2017e9924cf7c678bc2396ad5c082a", "type": "electric_scooter", "name": "4d2017e9924cf7c678bc2396ad5c082a"}, {"is_disabled": 0, "is_reserved": 0, "fusion_lat": 0.0, "lat": 38.917479666666665, "fusion_lon": 0.0, "rental_uris": {"ios": "https://dc.lft.to/lastmile_qr_scan", "android": "https://dc.lft.to/lastmile_qr_scan"}, "lon": -77.01083433333334, "bike_id": "54181d3d327c463583b4425327680373", "type": "electric_scooter", "name": "54181d3d327c463583b4425327680373"}, {"is_disabled": 0, "is_reserved": 0, "fusion_lat": 0.0, "lat": 38.876388166666665, "fusion_lon": 0.0, "rental_uris": {"ios": "https://dc.lft.to/lastmile_qr_scan", "android": "https://dc.lft.to/lastmile_qr_scan"}, "lon": -77.00207833333333, "bike_id": "ea072da274060559335437b4df6b3185", "type": "electric_scooter", "name": "ea072da274060559335437b4df6b3185"}, {"is_disabled": 0, "is_reserved": 0, "fusion_lat": 0.0, "lat": 38.92831733333333, "fusion_lon": 0.0, "rental_uris": {"ios": "https://dc.lft.to/lastmile_qr_scan", "android": "https://dc.lft.to/lastmile_qr_scan"}, "lon": -77.0597755, "bike_id": "cc1cd67a46b5ffff86e1f7a9eec37028", "type": "electric_bike", "name": "cc1cd67a46b5ffff86e1f7a9eec37028"}, {"is_disabled": 0, "is_reserved": 0, "fusion_lat": 0.0, "lat": 38.9181295, "fusion_lon": 0.0, "rental_uris": {"ios": "https://dc.lft.to/lastmile_qr_scan", "android": "https://dc.lft.to/lastmile_qr_scan"}, "lon": -77.000139, "bike_id": "2c9d90a4a2ba2a59c06d0d55e834e040", "type": "electric_scooter", "name": "2c9d90a4a2ba2a59c06d0d55e834e040"}, {"is_disabled": 0, "is_reserved": 0, "fusion_lat": 0.0, "lat": 38.911813333333335, "fusion_lon": 0.0, "rental_uris": {"ios": "https://dc.lft.to/lastmile_qr_scan", "android": "https://dc.lft.to/lastmile_qr_scan"}, "lon": -77.012112, "bike_id": "33811e0549dea887ecd139fef46e4ddf", "type": "electric_scooter", "name": "33811e0549dea887ecd139fef46e4ddf"}, {"is_disabled": 0, "is_reserved": 0, "fusion_lat": 0.0, "lat": 38.88849166666667, "fusion_lon": 0.0, "rental_uris": {"ios": "https://dc.lft.to/lastmile_qr_scan", "android": "https://dc.lft.to/lastmile_qr_scan"}, "lon": -77.04903066666667, "bike_id": "a90358a1b9065d25f86a8cb336143b44", "type": "electric_scooter", "name": "a90358a1b9065d25f86a8cb336143b44"}, {"is_disabled": 0, "is_reserved": 0, "fusion_lat": 0.0, "lat": 38.88975516666667, "fusion_lon": 0.0, "rental_uris": {"ios": "https://dc.lft.to/lastmile_qr_scan", "android": "https://dc.lft.to/lastmile_qr_scan"}, "lon": -76.9817885, "bike_id": "42e477c63dc4b9acffb2f0a77b171566", "type": "electric_scooter", "name": "42e477c63dc4b9acffb2f0a77b171566"}, {"is_disabled": 0, "is_reserved": 0, "fusion_lat": 0.0, "lat": 38.892388833333335, "fusion_lon": 0.0, "rental_uris": {"ios": "https://dc.lft.to/lastmile_qr_scan", "android": "https://dc.lft.to/lastmile_qr_scan"}, "lon": -77.02207083333333, "bike_id": "beb1c7d4d4e53bd9a17594336b0cf7c1", "type": "electric_scooter", "name": "beb1c7d4d4e53bd9a17594336b0cf7c1"}, {"is_disabled": 0, "is_reserved": 0, "fusion_lat": 0.0, "lat": 38.902838, "fusion_lon": 0.0, "rental_uris": {"ios": "https://dc.lft.to/lastmile_qr_scan", "android": "https://dc.lft.to/lastmile_qr_scan"}, "lon": -77.02272783333333, "bike_id": "8b29fe9e9e5ca4ae7956a4fa64ac011e", "type": "electric_scooter", "name": "8b29fe9e9e5ca4ae7956a4fa64ac011e"}, {"is_disabled": 0, "is_reserved": 0, "fusion_lat": 0.0, "lat": 38.913390166666666, "fusion_lon": 0.0, "rental_uris": {"ios": "https://dc.lft.to/lastmile_qr_scan", "android": "https://dc.lft.to/lastmile_qr_scan"}, "lon": -77.01657383333334, "bike_id": "2c7d4a2e3c267aa537549caa13a92abe", "type": "electric_scooter", "name": "2c7d4a2e3c267aa537549caa13a92abe"}, {"is_disabled": 0, "is_reserved": 0, "fusion_lat": 0.0, "lat": 38.9194365, "fusion_lon": 0.0, "rental_uris": {"ios": "https://dc.lft.to/lastmile_qr_scan", "android": "https://dc.lft.to/lastmile_qr_scan"}, "lon": -77.04493783333334, "bike_id": "cde97c9bfeb5e6f5e71928125e94daeb", "type": "electric_scooter", "name": "cde97c9bfeb5e6f5e71928125e94daeb"}, {"is_disabled": 0, "is_reserved": 0, "fusion_lat": 0.0, "lat": 38.930675666666666, "fusion_lon": 0.0, "rental_uris": {"ios": "https://dc.lft.to/lastmile_qr_scan", "android": "https://dc.lft.to/lastmile_qr_scan"}, "lon": -77.0403095, "bike_id": "969b632102cffd21618fd163732c20ff", "type": "electric_scooter", "name": "969b632102cffd21618fd163732c20ff"}, {"is_disabled": 0, "is_reserved": 0, "fusion_lat": 0.0, "lat": 38.925545166666666, "fusion_lon": 0.0, "rental_uris": {"ios": "https://dc.lft.to/lastmile_qr_scan", "android": "https://dc.lft.to/lastmile_qr_scan"}, "lon": -77.00321683333334, "bike_id": "ae06e98afdcedffd32a496ff0caf8957", "type": "electric_scooter", "name": "ae06e98afdcedffd32a496ff0caf8957"}, {"is_disabled": 0, "is_reserved": 0, "fusion_lat": 0.0, "lat": 38.87786, "fusion_lon": 0.0, "rental_uris": {"ios": "https://dc.lft.to/lastmile_qr_scan", "android": "https://dc.lft.to/lastmile_qr_scan"}, "lon": -77.00134383333334, "bike_id": "ffbb3e58e0778f4b5cfbf4389c4716fe", "type": "electric_scooter", "name": "ffbb3e58e0778f4b5cfbf4389c4716fe"}, {"is_disabled": 0, "is_reserved": 0, "fusion_lat": 0.0, "lat": 38.93663033333333, "fusion_lon": 0.0, "rental_uris": {"ios": "https://dc.lft.to/lastmile_qr_scan", "android": "https://dc.lft.to/lastmile_qr_scan"}, "lon": -77.0660825, "bike_id": "147008fffd00c63290926b3ecda36e2a", "type": "electric_scooter", "name": "147008fffd00c63290926b3ecda36e2a"}, {"is_disabled": 0, "is_reserved": 0, "fusion_lat": 0.0, "lat": 38.91638616666667, "fusion_lon": 0.0, "rental_uris": {"ios": "https://dc.lft.to/lastmile_qr_scan", "android": "https://dc.lft.to/lastmile_qr_scan"}, "lon": -77.00851433333334, "bike_id": "e3301d9a9ef700c539589ad371cca29d", "type": "electric_scooter", "name": "e3301d9a9ef700c539589ad371cca29d"}, {"is_disabled": 0, "is_reserved": 0, "fusion_lat": 0.0, "lat": 38.9312605, "fusion_lon": 0.0, "rental_uris": {"ios": "https://dc.lft.to/lastmile_qr_scan", "android": "https://dc.lft.to/lastmile_qr_scan"}, "lon": -77.02071433333333, "bike_id": "bd154999a2b73c2f5917647935b11113", "type": "electric_scooter", "name": "bd154999a2b73c2f5917647935b11113"}, {"is_disabled": 0, "is_reserved": 0, "fusion_lat": 0.0, "lat": 38.8468155, "fusion_lon": 0.0, "rental_uris": {"ios": "https://dc.lft.to/lastmile_qr_scan", "android": "https://dc.lft.to/lastmile_qr_scan"}, "lon": -77.13935083333334, "bike_id": "1f0e68e45cb8b70c5db3392a1ef7f1dd", "type": "electric_bike", "name": "1f0e68e45cb8b70c5db3392a1ef7f1dd"}, {"is_disabled": 0, "is_reserved": 0, "fusion_lat": 0.0, "lat": 38.89287866666667, "fusion_lon": 0.0, "rental_uris": {"ios": "https://dc.lft.to/lastmile_qr_scan", "android": "https://dc.lft.to/lastmile_qr_scan"}, "lon": -77.04197133333334, "bike_id": "baac7813d9efa3e6b1d07ed15f938aa9", "type": "electric_scooter", "name": "baac7813d9efa3e6b1d07ed15f938aa9"}, {"is_disabled": 0, "is_reserved": 0, "fusion_lat": 0.0, "lat": 38.879356666666666, "fusion_lon": 0.0, "rental_uris": {"ios": "https://dc.lft.to/lastmile_qr_scan", "android": "https://dc.lft.to/lastmile_qr_scan"}, "lon": -77.005372, "bike_id": "5f8e82b505253bc50c8ec64d0fd5eac8", "type": "electric_scooter", "name": "5f8e82b505253bc50c8ec64d0fd5eac8"}, {"is_disabled": 0, "is_reserved": 0, "fusion_lat": 0.0, "lat": 38.915622, "fusion_lon": 0.0, "rental_uris": {"ios": "https://dc.lft.to/lastmile_qr_scan", "android": "https://dc.lft.to/lastmile_qr_scan"}, "lon": -77.05103383333334, "bike_id": "ab0c6fbad658b8288e2ebe770da4a06b", "type": "electric_scooter", "name": "ab0c6fbad658b8288e2ebe770da4a06b"}, {"is_disabled": 0, "is_reserved": 0, "fusion_lat": 0.0, "lat": 38.91609716666667, "fusion_lon": 0.0, "rental_uris": {"ios": "https://dc.lft.to/lastmile_qr_scan", "android": "https://dc.lft.to/lastmile_qr_scan"}, "lon": -77.04345216666667, "bike_id": "245f90da2379fc420dd32fc777c4bdb0", "type": "electric_scooter", "name": "245f90da2379fc420dd32fc777c4bdb0"}, {"is_disabled": 0, "is_reserved": 0, "fusion_lat": 0.0, "lat": 38.9230925, "fusion_lon": 0.0, "rental_uris": {"ios": "https://dc.lft.to/lastmile_qr_scan", "android": "https://dc.lft.to/lastmile_qr_scan"}, "lon": -77.0340235, "bike_id": "2e5e1370b8eea0afb1253fca8885866d", "type": "electric_scooter", "name": "2e5e1370b8eea0afb1253fca8885866d"}, {"is_disabled": 0, "is_reserved": 0, "fusion_lat": 0.0, "lat": 38.912303333333334, "fusion_lon": 0.0, "rental_uris": {"ios": "https://dc.lft.to/lastmile_qr_scan", "android": "https://dc.lft.to/lastmile_qr_scan"}, "lon": -76.94016883333333, "bike_id": "610cca76a624e70b2d7af9e2d4a441a7", "type": "electric_bike", "name": "610cca76a624e70b2d7af9e2d4a441a7"}, {"is_disabled": 0, "is_reserved": 0, "fusion_lat": 0.0, "lat": 38.89853033333333, "fusion_lon": 0.0, "rental_uris": {"ios": "https://dc.lft.to/lastmile_qr_scan", "android": "https://dc.lft.to/lastmile_qr_scan"}, "lon": -77.00217666666667, "bike_id": "3bae81e57c4c0abb266a0f6e9464545a", "type": "electric_scooter", "name": "3bae81e57c4c0abb266a0f6e9464545a"}, {"is_disabled": 0, "is_reserved": 0, "fusion_lat": 0.0, "lat": 38.97447483333333, "fusion_lon": 0.0, "rental_uris": {"ios": "https://dc.lft.to/lastmile_qr_scan", "android": "https://dc.lft.to/lastmile_qr_scan"}, "lon": -77.09616633333333, "bike_id": "0985ee6f4a5a89a989e6ccdf92ca0adb", "type": "electric_bike", "name": "0985ee6f4a5a89a989e6ccdf92ca0adb"}, {"is_disabled": 0, "is_reserved": 0, "fusion_lat": 0.0, "lat": 38.91710366666667, "fusion_lon": 0.0, "rental_uris": {"ios": "https://dc.lft.to/lastmile_qr_scan", "android": "https://dc.lft.to/lastmile_qr_scan"}, "lon": -77.04146233333333, "bike_id": "9958c4cdd33da96b106e6448fda1a970", "type": "electric_scooter", "name": "9958c4cdd33da96b106e6448fda1a970"}, {"is_disabled": 0, "is_reserved": 0, "fusion_lat": 0.0, "lat": 38.876523, "fusion_lon": 0.0, "rental_uris": {"ios": "https://dc.lft.to/lastmile_qr_scan", "android": "https://dc.lft.to/lastmile_qr_scan"}, "lon": -77.0088465, "bike_id": "829e47de00d7823f306575e03f1a79ae", "type": "electric_scooter", "name": "829e47de00d7823f306575e03f1a79ae"}, {"is_disabled": 0, "is_reserved": 0, "fusion_lat": 0.0, "lat": 38.908463, "fusion_lon": 0.0, "rental_uris": {"ios": "https://dc.lft.to/lastmile_qr_scan", "android": "https://dc.lft.to/lastmile_qr_scan"}, "lon": -77.05812666666667, "bike_id": "bc68f250a5aba0077ca895e9801359c5", "type": "electric_scooter", "name": "bc68f250a5aba0077ca895e9801359c5"}, {"is_disabled": 0, "is_reserved": 0, "fusion_lat": 0.0, "lat": 38.91961333333333, "fusion_lon": 0.0, "rental_uris": {"ios": "https://dc.lft.to/lastmile_qr_scan", "android": "https://dc.lft.to/lastmile_qr_scan"}, "lon": -77.07874583333333, "bike_id": "462a15e90f96aba40697684d273bd2ed", "type": "electric_scooter", "name": "462a15e90f96aba40697684d273bd2ed"}, {"is_disabled": 0, "is_reserved": 0, "fusion_lat": 0.0, "lat": 38.97349966666667, "fusion_lon": 0.0, "rental_uris": {"ios": "https://dc.lft.to/lastmile_qr_scan", "android": "https://dc.lft.to/lastmile_qr_scan"}, "lon": -77.0179525, "bike_id": "ad3994ef96eb1023ff42f00dcd4d7df4", "type": "electric_bike", "name": "ad3994ef96eb1023ff42f00dcd4d7df4"}, {"is_disabled": 0, "is_reserved": 0, "fusion_lat": 0.0, "lat": 38.921153833333335, "fusion_lon": 0.0, "rental_uris": {"ios": "https://dc.lft.to/lastmile_qr_scan", "android": "https://dc.lft.to/lastmile_qr_scan"}, "lon": -77.03192933333334, "bike_id": "ed52db56b66e76cdfcda3bfaf2636135", "type": "electric_scooter", "name": "ed52db56b66e76cdfcda3bfaf2636135"}, {"is_disabled": 0, "is_reserved": 0, "fusion_lat": 0.0, "lat": 38.902530166666665, "fusion_lon": 0.0, "rental_uris": {"ios": "https://dc.lft.to/lastmile_qr_scan", "android": "https://dc.lft.to/lastmile_qr_scan"}, "lon": -77.06266666666667, "bike_id": "fe8b08dde8a81d3f6cdc6ed286eeba15", "type": "electric_scooter", "name": "fe8b08dde8a81d3f6cdc6ed286eeba15"}, {"is_disabled": 0, "is_reserved": 0, "fusion_lat": 0.0, "lat": 38.84862583333334, "fusion_lon": 0.0, "rental_uris": {"ios": "https://dc.lft.to/lastmile_qr_scan", "android": "https://dc.lft.to/lastmile_qr_scan"}, "lon": -77.06828966666667, "bike_id": "5e7fb2dc8521d01ec2d2bc56fd1c5227", "type": "electric_bike", "name": "5e7fb2dc8521d01ec2d2bc56fd1c5227"}, {"is_disabled": 0, "is_reserved": 0, "fusion_lat": 0.0, "lat": 38.92433183333333, "fusion_lon": 0.0, "rental_uris": {"ios": "https://dc.lft.to/lastmile_qr_scan", "android": "https://dc.lft.to/lastmile_qr_scan"}, "lon": -77.04249883333334, "bike_id": "3fbc55a08e5a94ca2918c89fae16f90d", "type": "electric_scooter", "name": "3fbc55a08e5a94ca2918c89fae16f90d"}, {"is_disabled": 0, "is_reserved": 0, "fusion_lat": 0.0, "lat": 38.878891, "fusion_lon": 0.0, "rental_uris": {"ios": "https://dc.lft.to/lastmile_qr_scan", "android": "https://dc.lft.to/lastmile_qr_scan"}, "lon": -77.0232035, "bike_id": "4c4ecaca9300e5a1a71da3d875a87344", "type": "electric_scooter", "name": "4c4ecaca9300e5a1a71da3d875a87344"}, {"is_disabled": 0, "is_reserved": 0, "fusion_lat": 0.0, "lat": 38.879285, "fusion_lon": 0.0, "rental_uris": {"ios": "https://dc.lft.to/lastmile_qr_scan", "android": "https://dc.lft.to/lastmile_qr_scan"}, "lon": -77.00758216666667, "bike_id": "0fece494bb67ea39ae3d0a5bd809f876", "type": "electric_scooter", "name": "0fece494bb67ea39ae3d0a5bd809f876"}, {"is_disabled": 0, "is_reserved": 0, "fusion_lat": 0.0, "lat": 38.878786166666664, "fusion_lon": 0.0, "rental_uris": {"ios": "https://dc.lft.to/lastmile_qr_scan", "android": "https://dc.lft.to/lastmile_qr_scan"}, "lon": -77.0075035, "bike_id": "f96d9a758a78dcb2ece997cd5c48b067", "type": "electric_scooter", "name": "f96d9a758a78dcb2ece997cd5c48b067"}, {"is_disabled": 0, "is_reserved": 0, "fusion_lat": 0.0, "lat": 38.89749916666667, "fusion_lon": 0.0, "rental_uris": {"ios": "https://dc.lft.to/lastmile_qr_scan", "android": "https://dc.lft.to/lastmile_qr_scan"}, "lon": -77.04642783333334, "bike_id": "c16a7328298f133195e3cc065d0a55ce", "type": "electric_scooter", "name": "c16a7328298f133195e3cc065d0a55ce"}, {"is_disabled": 0, "is_reserved": 0, "fusion_lat": 0.0, "lat": 38.8941325, "fusion_lon": 0.0, "rental_uris": {"ios": "https://dc.lft.to/lastmile_qr_scan", "android": "https://dc.lft.to/lastmile_qr_scan"}, "lon": -77.02172183333333, "bike_id": "71f71bac5819f2f6d2c41d2c80a1aff6", "type": "electric_scooter", "name": "71f71bac5819f2f6d2c41d2c80a1aff6"}, {"is_disabled": 0, "is_reserved": 0, "fusion_lat": 0.0, "lat": 38.9127875, "fusion_lon": 0.0, "rental_uris": {"ios": "https://dc.lft.to/lastmile_qr_scan", "android": "https://dc.lft.to/lastmile_qr_scan"}, "lon": -77.0226, "bike_id": "ea7ff67372e133cb157c90f00e78e729", "type": "electric_scooter", "name": "ea7ff67372e133cb157c90f00e78e729"}, {"is_disabled": 0, "is_reserved": 0, "fusion_lat": 0.0, "lat": 38.944966, "fusion_lon": 0.0, "rental_uris": {"ios": "https://dc.lft.to/lastmile_qr_scan", "android": "https://dc.lft.to/lastmile_qr_scan"}, "lon": -77.00736016666667, "bike_id": "818d8febc03c45eabd0d7268859daf11", "type": "electric_bike", "name": "818d8febc03c45eabd0d7268859daf11"}, {"is_disabled": 0, "is_reserved": 0, "fusion_lat": 0.0, "lat": 38.8052795, "fusion_lon": 0.0, "rental_uris": {"ios": "https://dc.lft.to/lastmile_qr_scan", "android": "https://dc.lft.to/lastmile_qr_scan"}, "lon": -77.04335283333333, "bike_id": "1402cbcd6d1199ee81f274d3f1d52ee4", "type": "electric_bike", "name": "1402cbcd6d1199ee81f274d3f1d52ee4"}, {"is_disabled": 0, "is_reserved": 0, "fusion_lat": 0.0, "lat": 38.90850233333333, "fusion_lon": 0.0, "rental_uris": {"ios": "https://dc.lft.to/lastmile_qr_scan", "android": "https://dc.lft.to/lastmile_qr_scan"}, "lon": -76.93446066666667, "bike_id": "70a1b643d75529d2577e1a8f7ffdc206", "type": "electric_scooter", "name": "70a1b643d75529d2577e1a8f7ffdc206"}, {"is_disabled": 0, "is_reserved": 0, "fusion_lat": 0.0, "lat": 38.9205115, "fusion_lon": 0.0, "rental_uris": {"ios": "https://dc.lft.to/lastmile_qr_scan", "android": "https://dc.lft.to/lastmile_qr_scan"}, "lon": -77.02575466666667, "bike_id": "aa773105c5aa332aab1c20487c54fa9f", "type": "electric_scooter", "name": "aa773105c5aa332aab1c20487c54fa9f"}, {"is_disabled": 0, "is_reserved": 0, "fusion_lat": 0.0, "lat": 38.96801133333334, "fusion_lon": 0.0, "rental_uris": {"ios": "https://dc.lft.to/lastmile_qr_scan", "android": "https://dc.lft.to/lastmile_qr_scan"}, "lon": -77.0243215, "bike_id": "d752c7d0e5c51cdf9f4628a3412fb4cc", "type": "electric_scooter", "name": "d752c7d0e5c51cdf9f4628a3412fb4cc"}, {"is_disabled": 0, "is_reserved": 0, "fusion_lat": 0.0, "lat": 38.900361333333336, "fusion_lon": 0.0, "rental_uris": {"ios": "https://dc.lft.to/lastmile_qr_scan", "android": "https://dc.lft.to/lastmile_qr_scan"}, "lon": -76.98807566666666, "bike_id": "2a2aa0dee38b8464f9709936e7f04e6d", "type": "electric_scooter", "name": "2a2aa0dee38b8464f9709936e7f04e6d"}, {"is_disabled": 0, "is_reserved": 0, "fusion_lat": 0.0, "lat": 38.90167566666667, "fusion_lon": 0.0, "rental_uris": {"ios": "https://dc.lft.to/lastmile_qr_scan", "android": "https://dc.lft.to/lastmile_qr_scan"}, "lon": -77.024786, "bike_id": "c0767b49690908bce0f1cd1ecad522de", "type": "electric_scooter", "name": "c0767b49690908bce0f1cd1ecad522de"}, {"is_disabled": 0, "is_reserved": 0, "fusion_lat": 0.0, "lat": 38.911271, "fusion_lon": 0.0, "rental_uris": {"ios": "https://dc.lft.to/lastmile_qr_scan", "android": "https://dc.lft.to/lastmile_qr_scan"}, "lon": -76.997474, "bike_id": "4aa36246ae5d32a3d2d3e05d8ac2295a", "type": "electric_scooter", "name": "4aa36246ae5d32a3d2d3e05d8ac2295a"}, {"is_disabled": 0, "is_reserved": 0, "fusion_lat": 0.0, "lat": 38.90506766666667, "fusion_lon": 0.0, "rental_uris": {"ios": "https://dc.lft.to/lastmile_qr_scan", "android": "https://dc.lft.to/lastmile_qr_scan"}, "lon": -77.0610935, "bike_id": "fbfb34b41c2d00d068d05909df1f0a92", "type": "electric_scooter", "name": "fbfb34b41c2d00d068d05909df1f0a92"}, {"is_disabled": 0, "is_reserved": 0, "fusion_lat": 0.0, "lat": 38.96784316666667, "fusion_lon": 0.0, "rental_uris": {"ios": "https://dc.lft.to/lastmile_qr_scan", "android": "https://dc.lft.to/lastmile_qr_scan"}, "lon": -76.9965305, "bike_id": "3569618f9668e592904cbba7e6a55b9a", "type": "electric_bike", "name": "3569618f9668e592904cbba7e6a55b9a"}, {"is_disabled": 0, "is_reserved": 0, "fusion_lat": 0.0, "lat": 38.910803333333334, "fusion_lon": 0.0, "rental_uris": {"ios": "https://dc.lft.to/lastmile_qr_scan", "android": "https://dc.lft.to/lastmile_qr_scan"}, "lon": -77.021914, "bike_id": "a6a08ee2c3db28fcab696d301be6fe58", "type": "electric_scooter", "name": "a6a08ee2c3db28fcab696d301be6fe58"}, {"is_disabled": 0, "is_reserved": 0, "fusion_lat": 0.0, "lat": 38.9055035, "fusion_lon": 0.0, "rental_uris": {"ios": "https://dc.lft.to/lastmile_qr_scan", "android": "https://dc.lft.to/lastmile_qr_scan"}, "lon": -77.02182416666666, "bike_id": "c670430016b713a3e74fb9dad0b20991", "type": "electric_scooter", "name": "c670430016b713a3e74fb9dad0b20991"}, {"is_disabled": 0, "is_reserved": 0, "fusion_lat": 0.0, "lat": 38.93485866666666, "fusion_lon": 0.0, "rental_uris": {"ios": "https://dc.lft.to/lastmile_qr_scan", "android": "https://dc.lft.to/lastmile_qr_scan"}, "lon": -77.036051, "bike_id": "18eb1587b773a18277f1ca943f02116f", "type": "electric_scooter", "name": "18eb1587b773a18277f1ca943f02116f"}, {"is_disabled": 0, "is_reserved": 0, "fusion_lat": 0.0, "lat": 38.897816666666664, "fusion_lon": 0.0, "rental_uris": {"ios": "https://dc.lft.to/lastmile_qr_scan", "android": "https://dc.lft.to/lastmile_qr_scan"}, "lon": -77.007297, "bike_id": "c71b4b0fa2f7aacc77e00e23f42a5167", "type": "electric_scooter", "name": "c71b4b0fa2f7aacc77e00e23f42a5167"}, {"is_disabled": 0, "is_reserved": 0, "fusion_lat": 0.0, "lat": 38.929033, "fusion_lon": 0.0, "rental_uris": {"ios": "https://dc.lft.to/lastmile_qr_scan", "android": "https://dc.lft.to/lastmile_qr_scan"}, "lon": -77.03257966666666, "bike_id": "7938f109fe4e3e73e7d98ce745b2deba", "type": "electric_scooter", "name": "7938f109fe4e3e73e7d98ce745b2deba"}, {"is_disabled": 0, "is_reserved": 0, "fusion_lat": 0.0, "lat": 38.897031, "fusion_lon": 0.0, "rental_uris": {"ios": "https://dc.lft.to/lastmile_qr_scan", "android": "https://dc.lft.to/lastmile_qr_scan"}, "lon": -77.04346916666667, "bike_id": "a861382909f391cea1acd3024b450c64", "type": "electric_scooter", "name": "a861382909f391cea1acd3024b450c64"}, {"is_disabled": 0, "is_reserved": 0, "fusion_lat": 0.0, "lat": 38.95790483333333, "fusion_lon": 0.0, "rental_uris": {"ios": "https://dc.lft.to/lastmile_qr_scan", "android": "https://dc.lft.to/lastmile_qr_scan"}, "lon": -77.02458933333334, "bike_id": "ddb27bcbc355154fab8509aafbba6339", "type": "electric_scooter", "name": "ddb27bcbc355154fab8509aafbba6339"}, {"is_disabled": 0, "is_reserved": 0, "fusion_lat": 0.0, "lat": 38.906416666666665, "fusion_lon": 0.0, "rental_uris": {"ios": "https://dc.lft.to/lastmile_qr_scan", "android": "https://dc.lft.to/lastmile_qr_scan"}, "lon": -77.06900683333333, "bike_id": "0d6f4529bf705a09f536336ce03e258b", "type": "electric_scooter", "name": "0d6f4529bf705a09f536336ce03e258b"}, {"is_disabled": 0, "is_reserved": 0, "fusion_lat": 0.0, "lat": 38.894267666666664, "fusion_lon": 0.0, "rental_uris": {"ios": "https://dc.lft.to/lastmile_qr_scan", "android": "https://dc.lft.to/lastmile_qr_scan"}, "lon": -77.05596666666666, "bike_id": "15b09798db35e9e0a7394358ec94b160", "type": "electric_scooter", "name": "15b09798db35e9e0a7394358ec94b160"}, {"is_disabled": 0, "is_reserved": 0, "fusion_lat": 0.0, "lat": 38.88416466666666, "fusion_lon": 0.0, "rental_uris": {"ios": "https://dc.lft.to/lastmile_qr_scan", "android": "https://dc.lft.to/lastmile_qr_scan"}, "lon": -76.995272, "bike_id": "056734a8c62807e7fc86e7f00d6cd5b7", "type": "electric_bike", "name": "056734a8c62807e7fc86e7f00d6cd5b7"}, {"is_disabled": 0, "is_reserved": 0, "fusion_lat": 0.0, "lat": 38.95242616666667, "fusion_lon": 0.0, "rental_uris": {"ios": "https://dc.lft.to/lastmile_qr_scan", "android": "https://dc.lft.to/lastmile_qr_scan"}, "lon": -76.97953633333333, "bike_id": "5c218ab6c7b4287af83fe17dc5e18e66", "type": "electric_bike", "name": "5c218ab6c7b4287af83fe17dc5e18e66"}, {"is_disabled": 0, "is_reserved": 0, "fusion_lat": 0.0, "lat": 38.89616983333333, "fusion_lon": 0.0, "rental_uris": {"ios": "https://dc.lft.to/lastmile_qr_scan", "android": "https://dc.lft.to/lastmile_qr_scan"}, "lon": -77.03176133333334, "bike_id": "1c3edcdb56e78ef6c6c8c526d96ff461", "type": "electric_scooter", "name": "1c3edcdb56e78ef6c6c8c526d96ff461"}, {"is_disabled": 0, "is_reserved": 0, "fusion_lat": 0.0, "lat": 38.91125533333334, "fusion_lon": 0.0, "rental_uris": {"ios": "https://dc.lft.to/lastmile_qr_scan", "android": "https://dc.lft.to/lastmile_qr_scan"}, "lon": -77.01116633333334, "bike_id": "3feaeea877efb0adfe0caa4a76f75458", "type": "electric_scooter", "name": "3feaeea877efb0adfe0caa4a76f75458"}, {"is_disabled": 0, "is_reserved": 0, "fusion_lat": 0.0, "lat": 38.84656583333334, "fusion_lon": 0.0, "rental_uris": {"ios": "https://dc.lft.to/lastmile_qr_scan", "android": "https://dc.lft.to/lastmile_qr_scan"}, "lon": -77.00368733333333, "bike_id": "b7806a038ab92adf1759cf3d1dff3b69", "type": "electric_scooter", "name": "b7806a038ab92adf1759cf3d1dff3b69"}, {"is_disabled": 0, "is_reserved": 0, "fusion_lat": 0.0, "lat": 38.91777583333333, "fusion_lon": 0.0, "rental_uris": {"ios": "https://dc.lft.to/lastmile_qr_scan", "android": "https://dc.lft.to/lastmile_qr_scan"}, "lon": -77.02693366666666, "bike_id": "edd06bf5829bbe574201c8806cbca75d", "type": "electric_scooter", "name": "edd06bf5829bbe574201c8806cbca75d"}, {"is_disabled": 0, "is_reserved": 0, "fusion_lat": 0.0, "lat": 38.910602833333336, "fusion_lon": 0.0, "rental_uris": {"ios": "https://dc.lft.to/lastmile_qr_scan", "android": "https://dc.lft.to/lastmile_qr_scan"}, "lon": -77.02186683333333, "bike_id": "745a52b479cb7402880e52749e910225", "type": "electric_scooter", "name": "745a52b479cb7402880e52749e910225"}, {"is_disabled": 0, "is_reserved": 0, "fusion_lat": 0.0, "lat": 38.900460333333335, "fusion_lon": 0.0, "rental_uris": {"ios": "https://dc.lft.to/lastmile_qr_scan", "android": "https://dc.lft.to/lastmile_qr_scan"}, "lon": -77.01767566666666, "bike_id": "8452a383d4743b6ab9074ec0d769bb2b", "type": "electric_scooter", "name": "8452a383d4743b6ab9074ec0d769bb2b"}, {"is_disabled": 0, "is_reserved": 0, "fusion_lat": 0.0, "lat": 38.846272666666664, "fusion_lon": 0.0, "rental_uris": {"ios": "https://dc.lft.to/lastmile_qr_scan", "android": "https://dc.lft.to/lastmile_qr_scan"}, "lon": -76.97840616666667, "bike_id": "68a01c14b1bad09c750f39a5c271f9e4", "type": "electric_bike", "name": "68a01c14b1bad09c750f39a5c271f9e4"}, {"is_disabled": 0, "is_reserved": 0, "fusion_lat": 0.0, "lat": 38.9193435, "fusion_lon": 0.0, "rental_uris": {"ios": "https://dc.lft.to/lastmile_qr_scan", "android": "https://dc.lft.to/lastmile_qr_scan"}, "lon": -77.044917, "bike_id": "35a9c3ed15e455b042eb1f0709e8fdd8", "type": "electric_scooter", "name": "35a9c3ed15e455b042eb1f0709e8fdd8"}, {"is_disabled": 0, "is_reserved": 0, "fusion_lat": 0.0, "lat": 38.89904083333333, "fusion_lon": 0.0, "rental_uris": {"ios": "https://dc.lft.to/lastmile_qr_scan", "android": "https://dc.lft.to/lastmile_qr_scan"}, "lon": -77.01976, "bike_id": "34e2cab38129ca6d87de7e94c576a797", "type": "electric_scooter", "name": "34e2cab38129ca6d87de7e94c576a797"}, {"is_disabled": 0, "is_reserved": 0, "fusion_lat": 0.0, "lat": 38.919567666666666, "fusion_lon": 0.0, "rental_uris": {"ios": "https://dc.lft.to/lastmile_qr_scan", "android": "https://dc.lft.to/lastmile_qr_scan"}, "lon": -77.018829, "bike_id": "697f6b847e9453fc8119352260333474", "type": "electric_scooter", "name": "697f6b847e9453fc8119352260333474"}, {"is_disabled": 0, "is_reserved": 0, "fusion_lat": 0.0, "lat": 38.88713933333333, "fusion_lon": 0.0, "rental_uris": {"ios": "https://dc.lft.to/lastmile_qr_scan", "android": "https://dc.lft.to/lastmile_qr_scan"}, "lon": -76.9833845, "bike_id": "2af412ea206f1c7e523a8f0ae2067a26", "type": "electric_scooter", "name": "2af412ea206f1c7e523a8f0ae2067a26"}, {"is_disabled": 0, "is_reserved": 0, "fusion_lat": 0.0, "lat": 38.88029566666667, "fusion_lon": 0.0, "rental_uris": {"ios": "https://dc.lft.to/lastmile_qr_scan", "android": "https://dc.lft.to/lastmile_qr_scan"}, "lon": -76.9432525, "bike_id": "1aeecd23c854a0b0df7e79502375d2d5", "type": "electric_scooter", "name": "1aeecd23c854a0b0df7e79502375d2d5"}, {"is_disabled": 0, "is_reserved": 0, "fusion_lat": 0.0, "lat": 38.9065685, "fusion_lon": 0.0, "rental_uris": {"ios": "https://dc.lft.to/lastmile_qr_scan", "android": "https://dc.lft.to/lastmile_qr_scan"}, "lon": -77.01175783333333, "bike_id": "beb948a37ebc1a7eddc68879e740444f", "type": "electric_scooter", "name": "beb948a37ebc1a7eddc68879e740444f"}, {"is_disabled": 0, "is_reserved": 0, "fusion_lat": 0.0, "lat": 38.8040915, "fusion_lon": 0.0, "rental_uris": {"ios": "https://dc.lft.to/lastmile_qr_scan", "android": "https://dc.lft.to/lastmile_qr_scan"}, "lon": -77.11330883333333, "bike_id": "e90eab46c9b7bc59d2bc1e195fe2d161", "type": "electric_bike", "name": "e90eab46c9b7bc59d2bc1e195fe2d161"},