{"data": {"bikes": [{"is_reserved": 0, "is_disabled": 0, "fusion_lon": 0.0, "lat": 38.91864916666667, "name": "80a7e2d58def39514cf804ef22ee9f82", "bike_id": "80a7e2d58def39514cf804ef22ee9f82", "lon": -77.04839316666667, "fusion_lat": 0.0, "rental_uris": {"android": "https://dc.lft.to/lastmile_qr_scan", "ios": "https://dc.lft.to/lastmile_qr_scan"}, "type": "electric_scooter"}, {"is_reserved": 0, "is_disabled": 0, "fusion_lon": 0.0, "lat": 38.81938816666667, "name": "376a6e787f44031278eb0314d6732e68", "bike_id": "376a6e787f44031278eb0314d6732e68", "lon": -77.00205366666667, "fusion_lat": 0.0, "rental_uris": {"android": "https://dc.lft.to/lastmile_qr_scan", "ios": "https://dc.lft.to/lastmile_qr_scan"}, "type": "electric_bike"}, {"is_reserved": 0, "is_disabled": 0, "fusion_lon": 0.0, "lat": 38.902218833333336, "name": "cfdb6089c7805579c3c1990b4bed2960", "bike_id": "cfdb6089c7805579c3c1990b4bed2960", "lon": -76.93177216666666, "fusion_lat": 0.0, "rental_uris": {"android": "https://dc.lft.to/lastmile_qr_scan", "ios": "https://dc.lft.to/lastmile_qr_scan"}, "type": "electric_bike"}, {"is_reserved": 0, "is_disabled": 0, "fusion_lon": 0.0, "lat": 38.91799616666667, "name": "7b4705cf1e4c86b09e43285c5a619e5d", "bike_id": "7b4705cf1e4c86b09e43285c5a619e5d", "lon": -77.027238, "fusion_lat": 0.0, "rental_uris": {"android": "https://dc.lft.to/lastmile_qr_scan", "ios": "https://dc.lft.to/lastmile_qr_scan"}, "type": "electric_scooter"}, {"is_reserved": 0, "is_disabled": 0, "fusion_lon": 0.0, "lat": 38.933792833333335, "name": "181080f73601a54331b586c7709358d6", "bike_id": "181080f73601a54331b586c7709358d6", "lon": -77.032156, "fusion_lat": 0.0, "rental_uris": {"android": "https://dc.lft.to/lastmile_qr_scan", "ios": "https://dc.lft.to/lastmile_qr_scan"}, "type": "electric_scooter"}, {"is_reserved": 0, "is_disabled": 0, "fusion_lon": 0.0, "lat": 38.96995666666667, "name": "d8c7cf7b7d9f1f293794d621595b2168", "bike_id": "d8c7cf7b7d9f1f293794d621595b2168", "lon": -77.03112566666667, "fusion_lat": 0.0, "rental_uris": {"android": "https://dc.lft.to/lastmile_qr_scan", "ios": "https://dc.lft.to/lastmile_qr_scan"}, "type": "electric_scooter"}, {"is_reserved": 0, "is_disabled": 0, "fusion_lon": 0.0, "lat": 38.9244785, "name": "d4a658764c4f98051f0fbbab4af8c55c", "bike_id": "d4a658764c4f98051f0fbbab4af8c55c", "lon": -77.02156633333334, "fusion_lat": 0.0, "rental_uris": {"android": "https://dc.lft.to/lastmile_qr_scan", "ios": "https://dc.lft.to/lastmile_qr_scan"}, "type": "electric_scooter"}, {"is_reserved": 0, "is_disabled": 0, "fusion_lon": 0.0, "lat": 38.90481033333333, "name": "85ab83b5a7227cc2996e2d5da8a24bcd", "bike_id": "85ab83b5a7227cc2996e2d5da8a24bcd", "lon": -77.00127133333334, "fusion_lat": 0.0, "rental_uris": {"android": "https://dc.lft.to/lastmile_qr_scan", "ios": "https://dc.lft.to/lastmile_qr_scan"}, "type": "electric_scooter"}, {"is_reserved": 0, "is_disabled": 0, "fusion_lon": 0.0, "lat": 38.917717333333336, "name": "393624848eea269944e07833e1b32c47", "bike_id": "393624848eea269944e07833e1b32c47", "lon": -77.02303433333333, "fusion_lat": 0.0, "rental_uris": {"android": "https://dc.lft.to/lastmile_qr_scan", "ios": "https://dc.lft.to/lastmile_qr_scan"}, "type": "electric_scooter"}, {"is_reserved": 0, "is_disabled": 0, "fusion_lon": 0.0, "lat": 38.902356, "name": "f99151b233ea08de03048f3fbf60c36c", "bike_id": "f99151b233ea08de03048f3fbf60c36c", "lon": -77.00203216666667, "fusion_lat": 0.0, "rental_uris": {"android": "https://dc.lft.to/lastmile_qr_scan", "ios": "https://dc.lft.to/lastmile_qr_scan"}, "type": "electric_scooter"}, {"is_reserved": 0, "is_disabled": 0, "fusion_lon": 0.0, "lat": 38.925536, "name": "605db32927cb96be6a37d7773f042a57", "bike_id": "605db32927cb96be6a37d7773f042a57", "lon": -77.02154666666667, "fusion_lat": 0.0, "rental_uris": {"android": "https://dc.lft.to/lastmile_qr_scan", "ios": "https://dc.lft.to/lastmile_qr_scan"}, "type": "electric_scooter"}, {"is_reserved": 0, "is_disabled": 0, "fusion_lon": 0.0, "lat": 38.94453033333333, "name": "27e90e093f694105db8ba14210e4c14c", "bike_id": "27e90e093f694105db8ba14210e4c14c", "lon": -77.0635315, "fusion_lat": 0.0, "rental_uris": {"android": "https://dc.lft.to/lastmile_qr_scan", "ios": "https://dc.lft.to/lastmile_qr_scan"}, "type": "electric_scooter"}, {"is_reserved": 0, "is_disabled": 0, "fusion_lon": 0.0, "lat": 38.94414366666667, "name": "9b4fbd7a51be3e60c24237779c0c0fdc", "bike_id": "9b4fbd7a51be3e60c24237779c0c0fdc", "lon": -77.06330416666667, "fusion_lat": 0.0, "rental_uris": {"android": "https://dc.lft.to/lastmile_qr_scan", "ios": "https://dc.lft.to/lastmile_qr_scan"}, "type": "electric_scooter"}, {"is_reserved": 0, "is_disabled": 0, "fusion_lon": 0.0, "lat": 38.896085166666666, "name": "3dc34259a70dc13374a78228e02d1bd3", "bike_id": "3dc34259a70dc13374a78228e02d1bd3", "lon": -77.04651716666666, "fusion_lat": 0.0, "rental_uris": {"android": "https://dc.lft.to/lastmile_qr_scan", "ios": "https://dc.lft.to/lastmile_qr_scan"}, "type": "electric_scooter"}, {"is_reserved": 0, "is_disabled": 0, "fusion_lon": 0.0, "lat": 38.91294383333333, "name": "f11712363b04802a2e2f069bf4557fd9", "bike_id": "f11712363b04802a2e2f069bf4557fd9", "lon": -76.98543433333333, "fusion_lat": 0.0, "rental_uris": {"android": "https://dc.lft.to/lastmile_qr_scan", "ios": "https://dc.lft.to/lastmile_qr_scan"}, "type": "electric_scooter"}, {"is_reserved": 0, "is_disabled": 0, "fusion_lon": 0.0, "lat": 38.878842, "name": "c8030e2c4ee24c5b3d0d187a1624b128", "bike_id": "c8030e2c4ee24c5b3d0d187a1624b128", "lon": -77.00054583333333, "fusion_lat": 0.0, "rental_uris": {"android": "https://dc.lft.to/lastmile_qr_scan", "ios": "https://dc.lft.to/lastmile_qr_scan"}, "type": "electric_scooter"}, {"is_reserved": 0, "is_disabled": 0, "fusion_lon": 0.0, "lat": 38.91173833333333, "name": "b7cae8393b7d37c4e3fe690edd772eb4", "bike_id": "b7cae8393b7d37c4e3fe690edd772eb4", "lon": -77.02962333333333, "fusion_lat": 0.0, "rental_uris": {"android": "https://dc.lft.to/lastmile_qr_scan", "ios": "https://dc.lft.to/lastmile_qr_scan"}, "type": "electric_scooter"}, {"is_reserved": 0, "is_disabled": 0, "fusion_lon": 0.0, "lat": 38.95184916666667, "name": "243f090c181ed85d5d7c6b344c7834cd", "bike_id": "243f090c181ed85d5d7c6b344c7834cd", "lon": -77.02619183333333, "fusion_lat": 0.0, "rental_uris": {"android": "https://dc.lft.to/lastmile_qr_scan", "ios": "https://dc.lft.to/lastmile_qr_scan"}, "type": "electric_scooter"}, {"is_reserved": 0, "is_disabled": 0, "fusion_lon": 0.0, "lat": 38.9319025, "name": "5432d5583b3e64fb9d81128ac633bfa8", "bike_id": "5432d5583b3e64fb9d81128ac633bfa8", "lon": -77.02834216666666, "fusion_lat": 0.0, "rental_uris": {"android": "https://dc.lft.to/lastmile_qr_scan", "ios": "https://dc.lft.to/lastmile_qr_scan"}, "type": "electric_scooter"}, {"is_reserved": 0, "is_disabled": 0, "fusion_lon": 0.0, "lat": 38.926426, "name": "7261d2ce6d868fad27930e2946b283b5", "bike_id": "7261d2ce6d868fad27930e2946b283b5", "lon": -77.02508416666667, "fusion_lat": 0.0, "rental_uris": {"android": "https://dc.lft.to/lastmile_qr_scan", "ios": "https://dc.lft.to/lastmile_qr_scan"}, "type": "electric_scooter"}, {"is_reserved": 0, "is_disabled": 0, "fusion_lon": 0.0, "lat": 38.900145, "name": "b8cf27d8ddb95c0490d5343c8b6dfec1", "bike_id": "b8cf27d8ddb95c0490d5343c8b6dfec1", "lon": -76.99541416666666, "fusion_lat": 0.0, "rental_uris": {"android": "https://dc.lft.to/lastmile_qr_scan", "ios": "https://dc.lft.to/lastmile_qr_scan"}, "type": "electric_scooter"}, {"is_reserved": 0, "is_disabled": 0, "fusion_lon": 0.0, "lat": 38.89221783333333, "name": "bf373081a7278a74c2077aeda6f624f2", "bike_id": "bf373081a7278a74c2077aeda6f624f2", "lon": -77.03134966666667, "fusion_lat": 0.0, "rental_uris": {"android": "https://dc.lft.to/lastmile_qr_scan", "ios": "https://dc.lft.to/lastmile_qr_scan"}, "type": "electric_scooter"}, {"is_reserved": 0, "is_disabled": 0, "fusion_lon": 0.0, "lat": 38.93241016666666, "name": "b3e472490b1c8359a6a71875a9741a7c", "bike_id": "b3e472490b1c8359a6a71875a9741a7c", "lon": -77.0328315, "fusion_lat": 0.0, "rental_uris": {"android": "https://dc.lft.to/lastmile_qr_scan", "ios": "https://dc.lft.to/lastmile_qr_scan"}, "type": "electric_scooter"}, {"is_reserved": 0, "is_disabled": 0, "fusion_lon": 0.0, "lat": 38.911902, "name": "49266c3802b46e84c232bad45d8beafc", "bike_id": "49266c3802b46e84c232bad45d8beafc", "lon": -77.03838016666667, "fusion_lat": 0.0, "rental_uris": {"android": "https://dc.lft.to/lastmile_qr_scan", "ios": "https://dc.lft.to/lastmile_qr_scan"}, "type": "electric_scooter"}, {"is_reserved": 0, "is_disabled": 0, "fusion_lon": 0.0, "lat": 38.926973333333336, "name": "a4bad1a9b10c130b85785eb17ed240ff", "bike_id": "a4bad1a9b10c130b85785eb17ed240ff", "lon": -77.0207075, "fusion_lat": 0.0, "rental_uris": {"android": "https://dc.lft.to/lastmile_qr_scan", "ios": "https://dc.lft.to/lastmile_qr_scan"}, "type": "electric_scooter"}, {"is_reserved": 0, "is_disabled": 0, "fusion_lon": 0.0, "lat": 38.9223935, "name": "8cd354fa05b442f3659aaecc157fd961", "bike_id": "8cd354fa05b442f3659aaecc157fd961", "lon": -77.02136783333333, "fusion_lat": 0.0, "rental_uris": {"android": "https://dc.lft.to/lastmile_qr_scan", "ios": "https://dc.lft.to/lastmile_qr_scan"}, "type": "electric_scooter"}, {"is_reserved": 0, "is_disabled": 0, "fusion_lon": 0.0, "lat": 38.9231695, "name": "dbe80729ff43bcfb64c3b547cf5fe6c0", "bike_id": "dbe80729ff43bcfb64c3b547cf5fe6c0", "lon": -77.01950283333333, "fusion_lat": 0.0, "rental_uris": {"android": "https://dc.lft.to/lastmile_qr_scan", "ios": "https://dc.lft.to/lastmile_qr_scan"}, "type": "electric_scooter"}, {"is_reserved": 0, "is_disabled": 0, "fusion_lon": 0.0, "lat": 38.90409866666667, "name": "6a4649622c70e78ad06fc489660dbe82", "bike_id": "6a4649622c70e78ad06fc489660dbe82", "lon": -77.02587133333333, "fusion_lat": 0.0, "rental_uris": {"android": "https://dc.lft.to/lastmile_qr_scan", "ios": "https://dc.lft.to/lastmile_qr_scan"}, "type": "electric_scooter"}, {"is_reserved": 0, "is_disabled": 0, "fusion_lon": 0.0, "lat": 38.94976416666667, "name": "2a2fabe5029a84854ef87afd67defcd0", "bike_id": "2a2fabe5029a84854ef87afd67defcd0", "lon": -77.02455466666666, "fusion_lat": 0.0, "rental_uris": {"android": "https://dc.lft.to/lastmile_qr_scan", "ios": "https://dc.lft.to/lastmile_qr_scan"}, "type": "electric_scooter"}, {"is_reserved": 0, "is_disabled": 0, "fusion_lon": 0.0, "lat": 38.936972833333336, "name": "19af432a28fcc8c7e33f894669df2770", "bike_id": "19af432a28fcc8c7e33f894669df2770", "lon": -77.05613483333333, "fusion_lat": 0.0, "rental_uris": {"android": "https://dc.lft.to/lastmile_qr_scan", "ios": "https://dc.lft.to/lastmile_qr_scan"}, "type": "electric_scooter"}, {"is_reserved": 0, "is_disabled": 0, "fusion_lon": 0.0, "lat": 38.95108483333333, "name": "f142222ea0df5ca4b612a777081bb36f", "bike_id": "f142222ea0df5ca4b612a777081bb36f", "lon": -77.08862883333333, "fusion_lat": 0.0, "rental_uris": {"android": "https://dc.lft.to/lastmile_qr_scan", "ios": "https://dc.lft.to/lastmile_qr_scan"}, "type": "electric_bike"}, {"is_reserved": 0, "is_disabled": 0, "fusion_lon": 0.0, "lat": 38.91915316666667, "name": "e7c877af32a48a0c5153b1ad991f00c8", "bike_id": "e7c877af32a48a0c5153b1ad991f00c8", "lon": -77.02617616666667, "fusion_lat": 0.0, "rental_uris": {"android": "https://dc.lft.to/lastmile_qr_scan", "ios": "https://dc.lft.to/lastmile_qr_scan"}, "type": "electric_scooter"}, {"is_reserved": 0, "is_disabled": 0, "fusion_lon": 0.0, "lat": 38.894915833333336, "name": "76108ea5eeb172df2361fdb222656af4", "bike_id": "76108ea5eeb172df2361fdb222656af4", "lon": -76.94891516666667, "fusion_lat": 0.0, "rental_uris": {"android": "https://dc.lft.to/lastmile_qr_scan", "ios": "https://dc.lft.to/lastmile_qr_scan"}, "type": "electric_scooter"}, {"is_reserved": 0, "is_disabled": 0, "fusion_lon": 0.0, "lat": 38.89716266666667, "name": "7997b1a7937501fc4c2692a0e1fc57c1", "bike_id": "7997b1a7937501fc4c2692a0e1fc57c1", "lon": -77.00798216666666, "fusion_lat": 0.0, "rental_uris": {"android": "https://dc.lft.to/lastmile_qr_scan", "ios": "https://dc.lft.to/lastmile_qr_scan"}, "type": "electric_scooter"}, {"is_reserved": 0, "is_disabled": 0, "fusion_lon": 0.0, "lat": 38.934634333333335, "name": "5c1a78b88b241b90161feb2005a88075", "bike_id": "5c1a78b88b241b90161feb2005a88075", "lon": -77.058079, "fusion_lat": 0.0, "rental_uris": {"android": "https://dc.lft.to/lastmile_qr_scan", "ios": "https://dc.lft.to/lastmile_qr_scan"}, "type": "electric_scooter"}, {"is_reserved": 0, "is_disabled": 0, "fusion_lon": 0.0, "lat": 38.9247135, "name": "e1bbd49277f084d2092a42df831b8c03", "bike_id": "e1bbd49277f084d2092a42df831b8c03", "lon": -77.03004983333334, "fusion_lat": 0.0, "rental_uris": {"android": "https://dc.lft.to/lastmile_qr_scan", "ios": "https://dc.lft.to/lastmile_qr_scan"}, "type": "electric_scooter"}, {"is_reserved": 0, "is_disabled": 0, "fusion_lon": 0.0, "lat": 38.9285845, "name": "e0818ae3e9b542d1939d594d9ca32765", "bike_id": "e0818ae3e9b542d1939d594d9ca32765", "lon": -76.9900695, "fusion_lat": 0.0, "rental_uris": {"android": "https://dc.lft.to/lastmile_qr_scan", "ios": "https://dc.lft.to/lastmile_qr_scan"}, "type": "electric_bike"}, {"is_reserved": 0, "is_disabled": 0, "fusion_lon": 0.0, "lat": 38.90084916666667, "name": "44caf10ee1c1960810b6feba16ff0225", "bike_id": "44caf10ee1c1960810b6feba16ff0225", "lon": -77.01771883333333, "fusion_lat": 0.0, "rental_uris": {"android": "https://dc.lft.to/lastmile_qr_scan", "ios": "https://dc.lft.to/lastmile_qr_scan"}, "type": "electric_scooter"}, {"is_reserved": 0, "is_disabled": 0, "fusion_lon": 0.0, "lat": 38.95731933333333, "name": "a21c199aa025b7f30ddfd310dd74b5c7", "bike_id": "a21c199aa025b7f30ddfd310dd74b5c7", "lon": -77.02406816666667, "fusion_lat": 0.0, "rental_uris": {"android": "https://dc.lft.to/lastmile_qr_scan", "ios": "https://dc.lft.to/lastmile_qr_scan"}, "type": "electric_scooter"}, {"is_reserved": 0, "is_disabled": 0, "fusion_lon": 0.0, "lat": 38.90958066666666, "name": "86e0b3c9c43c80bab37f4a5bfeec1b1f", "bike_id": "86e0b3c9c43c80bab37f4a5bfeec1b1f", "lon": -77.02275116666667, "fusion_lat": 0.0, "rental_uris": {"android": "https://dc.lft.to/lastmile_qr_scan", "ios": "https://dc.lft.to/lastmile_qr_scan"}, "type": "electric_scooter"}, {"is_reserved": 0, "is_disabled": 0, "fusion_lon": 0.0, "lat": 38.906857, "name": "6564a6a734605582c4ff63cba366fb7d", "bike_id": "6564a6a734605582c4ff63cba366fb7d", "lon": -77.0269605, "fusion_lat": 0.0, "rental_uris": {"android": "https://dc.lft.to/lastmile_qr_scan", "ios": "https://dc.lft.to/lastmile_qr_scan"}, "type": "electric_scooter"}, {"is_reserved": 0, "is_disabled": 0, "fusion_lon": 0.0, "lat": 38.92316066666667, "name": "2615fbdfac7e104535a098d570fc72a9", "bike_id": "2615fbdfac7e104535a098d570fc72a9", "lon": -77.029014, "fusion_lat": 0.0, "rental_uris": {"android": "https://dc.lft.to/lastmile_qr_scan", "ios": "https://dc.lft.to/lastmile_qr_scan"}, "type": "electric_scooter"}, {"is_reserved": 0, "is_disabled": 0, "fusion_lon": 0.0, "lat": 38.914002833333335, "name": "6a18db319fa59919ad3572a24a59d129", "bike_id": "6a18db319fa59919ad3572a24a59d129", "lon": -77.01822516666667, "fusion_lat": 0.0, "rental_uris": {"android": "https://dc.lft.to/lastmile_qr_scan", "ios": "https://dc.lft.to/lastmile_qr_scan"}, "type": "electric_scooter"}, {"is_reserved": 0, "is_disabled": 0, "fusion_lon": 0.0, "lat": 38.882206, "name": "ae8d7950eb20f7d87924c9898492f229", "bike_id": "ae8d7950eb20f7d87924c9898492f229", "lon": -76.93926416666666, "fusion_lat": 0.0, "rental_uris": {"android": "https://dc.lft.to/lastmile_qr_scan", "ios": "https://dc.lft.to/lastmile_qr_scan"}, "type": "electric_scooter"}, {"is_reserved": 0, "is_disabled": 0, "fusion_lon": 0.0, "lat": 38.883824833333335, "name": "384e97dd55cf7a73c1a1ff84e1917be1", "bike_id": "384e97dd55cf7a73c1a1ff84e1917be1", "lon": -77.00887033333333, "fusion_lat": 0.0, "rental_uris": {"android": "https://dc.lft.to/lastmile_qr_scan", "ios": "https://dc.lft.to/lastmile_qr_scan"}, "type": "electric_scooter"}, {"is_reserved": 0, "is_disabled": 0, "fusion_lon": 0.0, "lat": 38.941976, "name": "4e60605201f276de52a078c58966e54e", "bike_id": "4e60605201f276de52a078c58966e54e", "lon": -77.02855616666666, "fusion_lat": 0.0, "rental_uris": {"android": "https://dc.lft.to/lastmile_qr_scan", "ios": "https://dc.lft.to/lastmile_qr_scan"}, "type": "electric_scooter"}, {"is_reserved": 0, "is_disabled": 0, "fusion_lon": 0.0, "lat": 39.0390925, "name": "ee92b2a79f8095594c1993d9f8919555", "bike_id": "ee92b2a79f8095594c1993d9f8919555", "lon": -77.050429, "fusion_lat": 0.0, "rental_uris": {"android": "https://dc.lft.to/lastmile_qr_scan", "ios": "https://dc.lft.to/lastmile_qr_scan"}, "type": "electric_bike"}, {"is_reserved": 0, "is_disabled": 0, "fusion_lon": 0.0, "lat": 38.927716833333335, "name": "4286ee46ec41ed8903e564650114ede1", "bike_id": "4286ee46ec41ed8903e564650114ede1", "lon": -77.02919766666666, "fusion_lat": 0.0, "rental_uris": {"android": "https://dc.lft.to/lastmile_qr_scan", "ios": "https://dc.lft.to/lastmile_qr_scan"}, "type": "electric_scooter"}, {"is_reserved": 0, "is_disabled": 0, "fusion_lon": 0.0, "lat": 38.892223, "name": "2ff6287d4e1e21f527a587134c5956b8", "bike_id": "2ff6287d4e1e21f527a587134c5956b8", "lon": -77.04869166666667, "fusion_lat": 0.0, "rental_uris": {"android": "https://dc.lft.to/lastmile_qr_scan", "ios": "https://dc.lft.to/lastmile_qr_scan"}, "type": "electric_scooter"}, {"is_reserved": 0, "is_disabled": 0, "fusion_lon": 0.0, "lat": 38.92567783333333, "name": "7a2a194ffea1caf5f9c41c3a4fd9b287", "bike_id": "7a2a194ffea1caf5f9c41c3a4fd9b287", "lon": -77.0378825, "fusion_lat": 0.0, "rental_uris": {"android": "https://dc.lft.to/lastmile_qr_scan", "ios": "https://dc.lft.to/lastmile_qr_scan"}, "type": "electric_scooter"}, {"is_reserved": 0, "is_disabled": 0, "fusion_lon": 0.0, "lat": 38.91981166666667, "name": "e2497d9256de82a0d5c2a30f690e9e56", "bike_id": "e2497d9256de82a0d5c2a30f690e9e56", "lon": -77.02359366666667, "fusion_lat": 0.0, "rental_uris": {"android": "https://dc.lft.to/lastmile_qr_scan", "ios": "https://dc.lft.to/lastmile_qr_scan"}, "type": "electric_scooter"}, {"is_reserved": 0, "is_disabled": 0, "fusion_lon": 0.0, "lat": 38.920975, "name": "c31e4d57cf8de25cd4fdbad77c817b49", "bike_id": "c31e4d57cf8de25cd4fdbad77c817b49", "lon": -77.02514816666667, "fusion_lat": 0.0, "rental_uris": {"android": "https://dc.lft.to/lastmile_qr_scan", "ios": "https://dc.lft.to/lastmile_qr_scan"}, "type": "electric_scooter"}, {"is_reserved": 0, "is_disabled": 0, "fusion_lon": 0.0, "lat": 38.926802, "name": "99809684f9607057119ce514ee1f9f15", "bike_id": "99809684f9607057119ce514ee1f9f15", "lon": -77.02747866666667, "fusion_lat": 0.0, "rental_uris": {"android": "https://dc.lft.to/lastmile_qr_scan", "ios": "https://dc.lft.to/lastmile_qr_scan"}, "type": "electric_scooter"}, {"is_reserved": 0, "is_disabled": 0, "fusion_lon": 0.0, "lat": 38.9273475, "name": "2f85c9fe0fdf121a28135d294e30d3b9", "bike_id": "2f85c9fe0fdf121a28135d294e30d3b9", "lon": -77.03240233333334, "fusion_lat": 0.0, "rental_uris": {"android": "https://dc.lft.to/lastmile_qr_scan", "ios": "https://dc.lft.to/lastmile_qr_scan"}, "type": "electric_scooter"}, {"is_reserved": 0, "is_disabled": 0, "fusion_lon": 0.0, "lat": 38.89953966666667, "name": "e5be178a5487a433f42fe18118c99579", "bike_id": "e5be178a5487a433f42fe18118c99579", "lon": -77.04124966666667, "fusion_lat": 0.0, "rental_uris": {"android": "https://dc.lft.to/lastmile_qr_scan", "ios": "https://dc.lft.to/lastmile_qr_scan"}, "type": "electric_scooter"}, {"is_reserved": 0, "is_disabled": 0, "fusion_lon": 0.0, "lat": 38.918505833333334, "name": "890a7f497ffebe66bea471ed3d0a525d", "bike_id": "890a7f497ffebe66bea471ed3d0a525d", "lon": -77.04594133333333, "fusion_lat": 0.0, "rental_uris": {"android": "https://dc.lft.to/lastmile_qr_scan", "ios": "https://dc.lft.to/lastmile_qr_scan"}, "type": "electric_scooter"}, {"is_reserved": 0, "is_disabled": 0, "fusion_lon": 0.0, "lat": 38.89935333333333, "name": "380ddcf9e3c26f6d83f18c6ba2a9ecba", "bike_id": "380ddcf9e3c26f6d83f18c6ba2a9ecba", "lon": -76.9973135, "fusion_lat": 0.0, "rental_uris": {"android": "https://dc.lft.to/lastmile_qr_scan", "ios": "https://dc.lft.to/lastmile_qr_scan"}, "type": "electric_scooter"}, {"is_reserved": 0, "is_disabled": 0, "fusion_lon": 0.0, "lat": 38.90164516666667, "name": "a328bec35dd7868c7abf94548a5dc7f1", "bike_id": "a328bec35dd7868c7abf94548a5dc7f1", "lon": -76.98079783333333, "fusion_lat": 0.0, "rental_uris": {"android": "https://dc.lft.to/lastmile_qr_scan", "ios": "https://dc.lft.to/lastmile_qr_scan"}, "type": "electric_scooter"}, {"is_reserved": 0, "is_disabled": 0, "fusion_lon": 0.0, "lat": 38.896409, "name": "d614f0a871b6b36c5b35c11fb61a4390", "bike_id": "d614f0a871b6b36c5b35c11fb61a4390", "lon": -77.04333633333333, "fusion_lat": 0.0, "rental_uris": {"android": "https://dc.lft.to/lastmile_qr_scan", "ios": "https://dc.lft.to/lastmile_qr_scan"}, "type": "electric_scooter"}, {"is_reserved": 0, "is_disabled": 0, "fusion_lon": 0.0, "lat": 38.897055, "name": "7a7d2c08a7d5c00f4f749fee801a27a5", "bike_id": "7a7d2c08a7d5c00f4f749fee801a27a5", "lon": -76.94745266666666, "fusion_lat": 0.0, "rental_uris": {"android": "https://dc.lft.to/lastmile_qr_scan", "ios": "https://dc.lft.to/lastmile_qr_scan"}, "type": "electric_bike"}, {"is_reserved": 0, "is_disabled": 0, "fusion_lon": 0.0, "lat": 38.890104, "name": "ed80a6ea6382d317fcca67d5796619c0", "bike_id": "ed80a6ea6382d317fcca67d5796619c0", "lon": -76.93739783333334, "fusion_lat": 0.0, "rental_uris": {"android": "https://dc.lft.to/lastmile_qr_scan", "ios": "https://dc.lft.to/lastmile_qr_scan"}, "type": "electric_scooter"}, {"is_reserved": 0, "is_disabled": 0, "fusion_lon": 0.0, "lat": 38.9191665, "name": "889ad595bbf60928a2e53b8cf69ad112", "bike_id": "889ad595bbf60928a2e53b8cf69ad112", "lon": -77.03175283333333, "fusion_lat": 0.0, "rental_uris": {"android": "https://dc.lft.to/lastmile_qr_scan", "ios": "https://dc.lft.to/lastmile_qr_scan"}, "type": "electric_scooter"}, {"is_reserved": 0, "is_disabled": 0, "fusion_lon": 0.0, "lat": 38.90445883333334, "name": "39aa4189556f64e6d2f9078a8c45fda7", "bike_id": "39aa4189556f64e6d2f9078a8c45fda7", "lon": -77.05153366666667, "fusion_lat": 0.0, "rental_uris": {"android": "https://dc.lft.to/lastmile_qr_scan", "ios": "https://dc.lft.to/lastmile_qr_scan"}, "type": "electric_scooter"}, {"is_reserved": 0, "is_disabled": 0, "fusion_lon": 0.0, "lat": 38.88265633333334, "name": "0ce9b2452fe7ebad2d89604df5dd3cfe", "bike_id": "0ce9b2452fe7ebad2d89604df5dd3cfe", "lon": -76.99017583333334, "fusion_lat": 0.0, "rental_uris": {"android": "https://dc.lft.to/lastmile_qr_scan", "ios": "https://dc.lft.to/lastmile_qr_scan"}, "type": "electric_scooter"}, {"is_reserved": 0, "is_disabled": 0, "fusion_lon": 0.0, "lat": 38.928618166666666, "name": "eb3b55c3d7d2334cabe87e48541be2ed", "bike_id": "eb3b55c3d7d2334cabe87e48541be2ed", "lon": -77.054342, "fusion_lat": 0.0, "rental_uris": {"android": "https://dc.lft.to/lastmile_qr_scan", "ios": "https://dc.lft.to/lastmile_qr_scan"}, "type": "electric_scooter"}, {"is_reserved": 0, "is_disabled": 0, "fusion_lon": 0.0, "lat": 38.890111833333336, "name": "aeca4351b042235f51361205bd63c8d9", "bike_id": "aeca4351b042235f51361205bd63c8d9", "lon": -76.9374615, "fusion_lat": 0.0, "rental_uris": {"android": "https://dc.lft.to/lastmile_qr_scan", "ios": "https://dc.lft.to/lastmile_qr_scan"}, "type": "electric_scooter"}, {"is_reserved": 0, "is_disabled": 0, "fusion_lon": 0.0, "lat": 38.89876733333333, "name": "53ae186059e57dae72a8baa31c81cab5", "bike_id": "53ae186059e57dae72a8baa31c81cab5", "lon": -76.9318505, "fusion_lat": 0.0, "rental_uris": {"android": "https://dc.lft.to/lastmile_qr_scan", "ios": "https://dc.lft.to/lastmile_qr_scan"}, "type": "electric_bike"}, {"is_reserved": 0, "is_disabled": 0, "fusion_lon": 0.0, "lat": 38.87944366666667, "name": "d6af3f303d1617d668801c4f3beaaa42", "bike_id": "d6af3f303d1617d668801c4f3beaaa42", "lon": -77.00367416666667, "fusion_lat": 0.0, "rental_uris": {"android": "https://dc.lft.to/lastmile_qr_scan", "ios": "https://dc.lft.to/lastmile_qr_scan"}, "type": "electric_scooter"}, {"is_reserved": 0, "is_disabled": 0, "fusion_lon": 0.0, "lat": 38.9244355, "name": "bafe18b3be6f74828b357b363b8cade8", "bike_id": "bafe18b3be6f74828b357b363b8cade8", "lon": -76.96838183333334, "fusion_lat": 0.0, "rental_uris": {"android": "https://dc.lft.to/lastmile_qr_scan", "ios": "https://dc.lft.to/lastmile_qr_scan"}, "type": "electric_bike"}, {"is_reserved": 0, "is_disabled": 0, "fusion_lon": 0.0, "lat": 38.902362, "name": "583fe3afc9f4ffa75990bc0db317fc64", "bike_id": "583fe3afc9f4ffa75990bc0db317fc64", "lon": -77.00201, "fusion_lat": 0.0, "rental_uris": {"android": "https://dc.lft.to/lastmile_qr_scan", "ios": "https://dc.lft.to/lastmile_qr_scan"}, "type": "electric_scooter"}, {"is_reserved": 0, "is_disabled": 0, "fusion_lon": 0.0, "lat": 38.89910116666667, "name": "760812f088bad2431ede20ec0a1de43e", "bike_id": "760812f088bad2431ede20ec0a1de43e", "lon": -76.9338365, "fusion_lat": 0.0, "rental_uris": {"android": "https://dc.lft.to/lastmile_qr_scan", "ios": "https://dc.lft.to/lastmile_qr_scan"}, "type": "electric_scooter"}, {"is_reserved": 0, "is_disabled": 0, "fusion_lon": 0.0, "lat": 38.9385445, "name": "32fc0ccdfaf0f64f4e3ea60c6387a598", "bike_id": "32fc0ccdfaf0f64f4e3ea60c6387a598", "lon": -77.0252635, "fusion_lat": 0.0, "rental_uris": {"android": "https://dc.lft.to/lastmile_qr_scan", "ios": "https://dc.lft.to/lastmile_qr_scan"}, "type": "electric_scooter"}, {"is_reserved": 0, "is_disabled": 0, "fusion_lon": 0.0, "lat": 38.942031166666666, "name": "b2ace8d5abba063252e65939a258e4c8", "bike_id": "b2ace8d5abba063252e65939a258e4c8", "lon": -77.01833483333333, "fusion_lat": 0.0, "rental_uris": {"android": "https://dc.lft.to/lastmile_qr_scan", "ios": "https://dc.lft.to/lastmile_qr_scan"}, "type": "electric_scooter"}, {"is_reserved": 0, "is_disabled": 0, "fusion_lon": 0.0, "lat": 38.884108499999996, "name": "282f444e0327e61cd21065691d016da0", "bike_id": "282f444e0327e61cd21065691d016da0", "lon": -77.025616, "fusion_lat": 0.0, "rental_uris": {"android": "https://dc.lft.to/lastmile_qr_scan", "ios": "https://dc.lft.to/lastmile_qr_scan"}, "type": "electric_scooter"}, {"is_reserved": 0, "is_disabled": 0, "fusion_lon": 0.0, "lat": 38.92675233333333, "name": "e7b513b0d3b26a38429b2441abbe3858", "bike_id": "e7b513b0d3b26a38429b2441abbe3858", "lon": -77.02583466666667, "fusion_lat": 0.0, "rental_uris": {"android": "https://dc.lft.to/lastmile_qr_scan", "ios": "https://dc.lft.to/lastmile_qr_scan"}, "type": "electric_scooter"}, {"is_reserved": 0, "is_disabled": 0, "fusion_lon": 0.0, "lat": 38.922369333333336, "name": "4b05b624e77aba98882c09b38b3db03d", "bike_id": "4b05b624e77aba98882c09b38b3db03d", "lon": -77.03661033333333, "fusion_lat": 0.0, "rental_uris": {"android": "https://dc.lft.to/lastmile_qr_scan", "ios": "https://dc.lft.to/lastmile_qr_scan"}, "type": "electric_scooter"}, {"is_reserved": 0, "is_disabled": 0, "fusion_lon": 0.0, "lat": 38.86217366666666, "name": "5c51bb18a274beecf4377fa8cd38f2f0", "bike_id": "5c51bb18a274beecf4377fa8cd38f2f0", "lon": -76.99484733333334, "fusion_lat": 0.0, "rental_uris": {"android": "https://dc.lft.to/lastmile_qr_scan", "ios": "https://dc.lft.to/lastmile_qr_scan"}, "type": "electric_scooter"}, {"is_reserved": 0, "is_disabled": 0, "fusion_lon": 0.0, "lat": 38.928242, "name": "56edb8c5b68f25486e50c3e466bfec1e", "bike_id": "56edb8c5b68f25486e50c3e466bfec1e", "lon": -77.02301033333333, "fusion_lat": 0.0, "rental_uris": {"android": "https://dc.lft.to/lastmile_qr_scan", "ios": "https://dc.lft.to/lastmile_qr_scan"}, "type": "electric_scooter"}, {"is_reserved": 0, "is_disabled": 0, "fusion_lon": 0.0, "lat": 38.901157833333336, "name": "5c4ad25ec5ffb73a9e37f012abe049ec", "bike_id": "5c4ad25ec5ffb73a9e37f012abe049ec", "lon": -77.0319325, "fusion_lat": 0.0, "rental_uris": {"android": "https://dc.lft.to/lastmile_qr_scan", "ios": "https://dc.lft.to/lastmile_qr_scan"}, "type": "electric_scooter"}, {"is_reserved": 0, "is_disabled": 0, "fusion_lon": 0.0, "lat": 38.917598, "name": "1b4858e2b0a4794e8a9c71fdd8f04aa4", "bike_id": "1b4858e2b0a4794e8a9c71fdd8f04aa4", "lon": -77.03909966666667, "fusion_lat": 0.0, "rental_uris": {"android": "https://dc.lft.to/lastmile_qr_scan", "ios": "https://dc.lft.to/lastmile_qr_scan"}, "type": "electric_scooter"}, {"is_reserved": 0, "is_disabled": 0, "fusion_lon": 0.0, "lat": 38.85708866666667, "name": "42d9c2c035f40cd5d3c4bc0148ceb8b8", "bike_id": "42d9c2c035f40cd5d3c4bc0148ceb8b8", "lon": -76.9812845, "fusion_lat": 0.0, "rental_uris": {"android": "https://dc.lft.to/lastmile_qr_scan", "ios": "https://dc.lft.to/lastmile_qr_scan"}, "type": "electric_scooter"}, {"is_reserved": 0, "is_disabled": 0, "fusion_lon": 0.0, "lat": 38.92134433333333, "name": "011b851cf2c46fb8c1d38398b9d4c85b", "bike_id": "011b851cf2c46fb8c1d38398b9d4c85b", "lon": -77.01801533333334, "fusion_lat": 0.0, "rental_uris": {"android": "https://dc.lft.to/lastmile_qr_scan", "ios": "https://dc.lft.to/lastmile_qr_scan"}, "type": "electric_scooter"}, {"is_reserved": 0, "is_disabled": 0, "fusion_lon": 0.0, "lat": 38.9163415, "name": "597d796728655ef0789990ba207c7a37", "bike_id": "597d796728655ef0789990ba207c7a37", "lon": -77.046214, "fusion_lat": 0.0, "rental_uris": {"android": "https://dc.lft.to/lastmile_qr_scan", "ios": "https://dc.lft.to/lastmile_qr_scan"}, "type": "electric_scooter"}, {"is_reserved": 0, "is_disabled": 0, "fusion_lon": 0.0, "lat": 38.880498333333335, "name": "a00e9a69654630d18895c2e587393868", "bike_id": "a00e9a69654630d18895c2e587393868", "lon": -76.92718, "fusion_lat": 0.0, "rental_uris": {"android": "https://dc.lft.to/lastmile_qr_scan", "ios": "https://dc.lft.to/lastmile_qr_scan"}, "type": "electric_scooter"}, {"is_reserved": 0, "is_disabled": 0, "fusion_lon": 0.0, "lat": 38.93460183333333, "name": "2f6075419ad875c3d408bc1653bb7287", "bike_id": "2f6075419ad875c3d408bc1653bb7287", "lon": -77.0349975, "fusion_lat": 0.0, "rental_uris": {"android": "https://dc.lft.to/lastmile_qr_scan", "ios": "https://dc.lft.to/lastmile_qr_scan"}, "type": "electric_scooter"}, {"is_reserved": 0, "is_disabled": 0, "fusion_lon": 0.0, "lat": 38.900847, "name": "26f5b0416e258f0abee7e2aa3009406d", "bike_id": "26f5b0416e258f0abee7e2aa3009406d", "lon": -77.0129625, "fusion_lat": 0.0, "rental_uris": {"android": "https://dc.lft.to/lastmile_qr_scan", "ios": "https://dc.lft.to/lastmile_qr_scan"}, "type": "electric_scooter"}, {"is_reserved": 0, "is_disabled": 0, "fusion_lon": 0.0, "lat": 38.89234066666667, "name": "76b76081517605cae99f37dc1025a6cc", "bike_id": "76b76081517605cae99f37dc1025a6cc", "lon": -77.031981, "fusion_lat": 0.0, "rental_uris": {"android": "https://dc.lft.to/lastmile_qr_scan", "ios": "https://dc.lft.to/lastmile_qr_scan"}, "type": "electric_scooter"}, {"is_reserved": 0, "is_disabled": 0, "fusion_lon": 0.0, "lat": 38.900256, "name": "9a072a2701a013de8d1ac19ae6940e07", "bike_id": "9a072a2701a013de8d1ac19ae6940e07", "lon": -77.00204683333334, "fusion_lat": 0.0, "rental_uris": {"android": "https://dc.lft.to/lastmile_qr_scan", "ios": "https://dc.lft.to/lastmile_qr_scan"}, "type": "electric_scooter"}, {"is_reserved": 0, "is_disabled": 0, "fusion_lon": 0.0, "lat": 38.903976166666666, "name": "7c6999e300648ce1182a36728597923d", "bike_id": "7c6999e300648ce1182a36728597923d", "lon": -77.018541, "fusion_lat": 0.0, "rental_uris": {"android": "https://dc.lft.to/lastmile_qr_scan", "ios": "https://dc.lft.to/lastmile_qr_scan"}, "type": "electric_scooter"}, {"is_reserved": 0, "is_disabled": 0, "fusion_lon": 0.0, "lat": 38.88079833333333, "name": "4da431b1e0ded8e8375c3c870dfc92f9", "bike_id": "4da431b1e0ded8e8375c3c870dfc92f9", "lon": -77.01184916666666, "fusion_lat": 0.0, "rental_uris": {"android": "https://dc.lft.to/lastmile_qr_scan", "ios": "https://dc.lft.to/lastmile_qr_scan"}, "type": "electric_scooter"}, {"is_reserved": 0, "is_disabled": 0, "fusion_lon": 0.0, "lat": 38.883724, "name": "41f6ba6efc766dbfdd1b45044a09422d", "bike_id": "41f6ba6efc766dbfdd1b45044a09422d", "lon": -77.020043, "fusion_lat": 0.0, "rental_uris": {"android": "https://dc.lft.to/lastmile_qr_scan", "ios": "https://dc.lft.to/lastmile_qr_scan"}, "type": "electric_scooter"}, {"is_reserved": 0, "is_disabled": 0, "fusion_lon": 0.0, "lat": 38.906037, "name": "4b7ae909c5493f2a815df2ebe0883fde", "bike_id": "4b7ae909c5493f2a815df2ebe0883fde", "lon": -77.1288815, "fusion_lat": 0.0, "rental_uris": {"android": "https://dc.lft.to/lastmile_qr_scan", "ios": "https://dc.lft.to/lastmile_qr_scan"}, "type": "electric_bike"}, {"is_reserved": 0, "is_disabled": 0, "fusion_lon": 0.0, "lat": 38.917430333333336, "name": "385481d57d2ecd1c7317e13a04c3aadb", "bike_id": "385481d57d2ecd1c7317e13a04c3aadb", "lon": -77.01708983333333, "fusion_lat": 0.0, "rental_uris": {"android": "https://dc.lft.to/lastmile_qr_scan", "ios": "https://dc.lft.to/lastmile_qr_scan"}, "type": "electric_scooter"}, {"is_reserved": 0, "is_disabled": 0, "fusion_lon": 0.0, "lat": 38.9187245, "name": "85944ddc48130c130451ab324c235710", "bike_id": "85944ddc48130c130451ab324c235710", "lon": -77.04254533333334, "fusion_lat": 0.0, "rental_uris": {"android": "https://dc.lft.to/lastmile_qr_scan", "ios": "https://dc.lft.to/lastmile_qr_scan"}, "type": "electric_scooter"}, {"is_reserved": 0, "is_disabled": 0, "fusion_lon": 0.0, "lat": 38.9050735, "name": "717c9cb4f2ed9e5610c9dbe31b85d253", "bike_id": "717c9cb4f2ed9e5610c9dbe31b85d253", "lon": -77.02721683333333, "fusion_lat": 0.0, "rental_uris": {"android": "https://dc.lft.to/lastmile_qr_scan", "ios": "https://dc.lft.to/lastmile_qr_scan"}, "type": "electric_scooter"}, {"is_reserved": 0, "is_disabled": 0, "fusion_lon": 0.0, "lat": 38.922542666666665, "name": "37a42ceb2c96b019f2c5cffb8f13ea6b", "bike_id": "37a42ceb2c96b019f2c5cffb8f13ea6b", "lon": -77.03064383333333, "fusion_lat": 0.0, "rental_uris": {"android": "https://dc.lft.to/lastmile_qr_scan", "ios": "https://dc.lft.to/lastmile_qr_scan"}, "type": "electric_scooter"}, {"is_reserved": 0, "is_disabled": 0, "fusion_lon": 0.0, "lat": 38.8960445, "name": "2c1c280bde2619f9b85f06ade8a7419f", "bike_id": "2c1c280bde2619f9b85f06ade8a7419f", "lon": -77.045181, "fusion_lat": 0.0, "rental_uris": {"android": "https://dc.lft.to/lastmile_qr_scan", "ios": "https://dc.lft.to/lastmile_qr_scan"}, "type": "electric_scooter"}, {"is_reserved": 0, "is_disabled": 0, "fusion_lon": 0.0, "lat": 38.919450166666664, "name": "7eb28158cd2b5856326aa90d5f4a0ceb", "bike_id": "7eb28158cd2b5856326aa90d5f4a0ceb", "lon": -77.017944, "fusion_lat": 0.0, "rental_uris": {"android": "https://dc.lft.to/lastmile_qr_scan", "ios": "https://dc.lft.to/lastmile_qr_scan"}, "type": "electric_scooter"}, {"is_reserved": 0, "is_disabled": 0, "fusion_lon": 0.0, "lat": 38.905575166666665, "name": "f8a44f4b6f9787fac8ef16f83c9a88cd", "bike_id": "f8a44f4b6f9787fac8ef16f83c9a88cd", "lon": -77.02183933333333, "fusion_lat": 0.0, "rental_uris": {"android": "https://dc.lft.to/lastmile_qr_scan", "ios": "https://dc.lft.to/lastmile_qr_scan"}, "type": "electric_scooter"}, {"is_reserved": 0, "is_disabled": 0, "fusion_lon": 0.0, "lat": 38.90354716666667, "name": "c520b679267807f257900581e29d82f3", "bike_id": "c520b679267807f257900581e29d82f3", "lon": -77.01947266666667, "fusion_lat": 0.0, "rental_uris": {"android": "https://dc.lft.to/lastmile_qr_scan", "ios": "https://dc.lft.to/lastmile_qr_scan"}, "type": "electric_scooter"}, {"is_reserved": 0, "is_disabled": 0, "fusion_lon": 0.0, "lat": 38.916381666666666, "name": "1d651272a38b61ab89f6b59e3fe296a2", "bike_id": "1d651272a38b61ab89f6b59e3fe296a2", "lon": -77.0320995, "fusion_lat": 0.0, "rental_uris": {"android": "https://dc.lft.to/lastmile_qr_scan", "ios": "https://dc.lft.to/lastmile_qr_scan"}, "type": "electric_scooter"}, {"is_reserved": 0, "is_disabled": 0, "fusion_lon": 0.0, "lat": 38.914077166666665, "name": "ee34ee04a25ae44cf99366fb1f1b7546", "bike_id": "ee34ee04a25ae44cf99366fb1f1b7546", "lon": -77.020628, "fusion_lat": 0.0, "rental_uris": {"android": "https://dc.lft.to/lastmile_qr_scan", "ios": "https://dc.lft.to/lastmile_qr_scan"}, "type": "electric_scooter"}, {"is_reserved": 0, "is_disabled": 0, "fusion_lon": 0.0, "lat": 38.902615833333336, "name": "8c7ce4f17f5900f8e3bf888fca8a4b6b", "bike_id": "8c7ce4f17f5900f8e3bf888fca8a4b6b", "lon": -77.02805083333334, "fusion_lat": 0.0, "rental_uris": {"android": "https://dc.lft.to/lastmile_qr_scan", "ios": "https://dc.lft.to/lastmile_qr_scan"}, "type": "electric_scooter"}, {"is_reserved": 0, "is_disabled": 0, "fusion_lon": 0.0, "lat": 38.934345, "name": "3a32acb04f189c87f6991fb2b528cdec", "bike_id": "3a32acb04f189c87f6991fb2b528cdec", "lon": -77.03442133333333, "fusion_lat": 0.0, "rental_uris": {"android": "https://dc.lft.to/lastmile_qr_scan", "ios": "https://dc.lft.to/lastmile_qr_scan"}, "type": "electric_scooter"}, {"is_reserved": 0, "is_disabled": 0, "fusion_lon": 0.0, "lat": 38.944517166666664, "name": "a0d05e03625378a75c27ae7f4695c6fa", "bike_id": "a0d05e03625378a75c27ae7f4695c6fa", "lon": -77.06356883333333, "fusion_lat": 0.0, "rental_uris": {"android": "https://dc.lft.to/lastmile_qr_scan", "ios": "https://dc.lft.to/lastmile_qr_scan"}, "type": "electric_scooter"}, {"is_reserved": 0, "is_disabled": 0, "fusion_lon": 0.0, "lat": 38.91013733333333, "name": "4f8012cbe8cebdad85d6b0be97c9a212", "bike_id": "4f8012cbe8cebdad85d6b0be97c9a212", "lon": -77.021951, "fusion_lat": 0.0, "rental_uris": {"android": "https://dc.lft.to/lastmile_qr_scan", "ios": "https://dc.lft.to/lastmile_qr_scan"}, "type": "electric_scooter"}, {"is_reserved": 0, "is_disabled": 0, "fusion_lon": 0.0, "lat": 38.910033166666665, "name": "d9dbb14250ae68e8cf7ac9a79be12bc6", "bike_id": "d9dbb14250ae68e8cf7ac9a79be12bc6", "lon": -77.021015, "fusion_lat": 0.0, "rental_uris": {"android": "https://dc.lft.to/lastmile_qr_scan", "ios": "https://dc.lft.to/lastmile_qr_scan"}, "type": "electric_scooter"}, {"is_reserved": 0, "is_disabled": 0, "fusion_lon": 0.0, "lat": 38.919511, "name": "28ca945445cebb3f96d3cca4b46b0e70", "bike_id": "28ca945445cebb3f96d3cca4b46b0e70", "lon": -77.07982366666667, "fusion_lat": 0.0, "rental_uris": {"android": "https://dc.lft.to/lastmile_qr_scan", "ios": "https://dc.lft.to/lastmile_qr_scan"}, "type": "electric_scooter"}, {"is_reserved": 0, "is_disabled": 0, "fusion_lon": 0.0, "lat": 38.9020235, "name": "abaff5090d433b6900dba7898a2fb3d3", "bike_id": "abaff5090d433b6900dba7898a2fb3d3", "lon": -77.05903066666667, "fusion_lat": 0.0, "rental_uris": {"android": "https://dc.lft.to/lastmile_qr_scan", "ios": "https://dc.lft.to/lastmile_qr_scan"}, "type": "electric_scooter"}, {"is_reserved": 0, "is_disabled": 0, "fusion_lon": 0.0, "lat": 39.084940333333336, "name": "ac945b6ea587b4c314ccf57aee5f07f2", "bike_id": "ac945b6ea587b4c314ccf57aee5f07f2", "lon": -76.95047516666666, "fusion_lat": 0.0, "rental_uris": {"android": "https://dc.lft.to/lastmile_qr_scan", "ios": "https://dc.lft.to/lastmile_qr_scan"}, "type": "electric_bike"}, {"is_reserved": 0, "is_disabled": 0, "fusion_lon": 0.0, "lat": 38.9198255, "name": "9f25793dd5ea41158eacd43ac04f86ba", "bike_id": "9f25793dd5ea41158eacd43ac04f86ba", "lon": -77.03254133333333, "fusion_lat": 0.0, "rental_uris": {"android": "https://dc.lft.to/lastmile_qr_scan", "ios": "https://dc.lft.to/lastmile_qr_scan"}, "type": "electric_scooter"}, {"is_reserved": 0, "is_disabled": 0, "fusion_lon": 0.0, "lat": 38.8813785, "name": "0e681827922e114cbcd71d38d6921f25", "bike_id": "0e681827922e114cbcd71d38d6921f25", "lon": -77.017683, "fusion_lat": 0.0, "rental_uris": {"android": "https://dc.lft.to/lastmile_qr_scan", "ios": "https://dc.lft.to/lastmile_qr_scan"}, "type": "electric_scooter"}, {"is_reserved": 0, "is_disabled": 0, "fusion_lon": 0.0, "lat": 38.98963716666667, "name": "e58b0f0ece8c7ab61a179bf5f2b463b9", "bike_id": "e58b0f0ece8c7ab61a179bf5f2b463b9", "lon": -77.0989635, "fusion_lat": 0.0, "rental_uris": {"android": "https://dc.lft.to/lastmile_qr_scan", "ios": "https://dc.lft.to/lastmile_qr_scan"}, "type": "electric_bike"}, {"is_reserved": 0, "is_disabled": 0, "fusion_lon": 0.0, "lat": 38.91571583333333, "name": "d165ed07c82423dc972c5ee360d0523f", "bike_id": "d165ed07c82423dc972c5ee360d0523f", "lon": -77.04634816666666, "fusion_lat": 0.0, "rental_uris": {"android": "https://dc.lft.to/lastmile_qr_scan", "ios": "https://dc.lft.to/lastmile_qr_scan"}, "type": "electric_scooter"}, {"is_reserved": 0, "is_disabled": 0, "fusion_lon": 0.0, "lat": 38.920354333333336, "name": "c71cb042352510b1750b515728e83740", "bike_id": "c71cb042352510b1750b515728e83740", "lon": -77.04803716666666, "fusion_lat": 0.0, "rental_uris": {"android": "https://dc.lft.to/lastmile_qr_scan", "ios": "https://dc.lft.to/lastmile_qr_scan"}, "type": "electric_scooter"}, {"is_reserved": 0, "is_disabled": 0, "fusion_lon": 0.0, "lat": 38.93499083333333, "name": "63cb3b170b2c70068132ed5ae6d6a542", "bike_id": "63cb3b170b2c70068132ed5ae6d6a542", "lon": -77.03639666666666, "fusion_lat": 0.0, "rental_uris": {"android": "https://dc.lft.to/lastmile_qr_scan", "ios": "https://dc.lft.to/lastmile_qr_scan"}, "type": "electric_scooter"}, {"is_reserved": 0, "is_disabled": 0, "fusion_lon": 0.0, "lat": 38.8928945, "name": "445f96c2e24e6d1e7a504ea9a27b779b", "bike_id": "445f96c2e24e6d1e7a504ea9a27b779b", "lon": -76.97618816666666, "fusion_lat": 0.0, "rental_uris": {"android": "https://dc.lft.to/lastmile_qr_scan", "ios": "https://dc.lft.to/lastmile_qr_scan"}, "type": "electric_bike"}, {"is_reserved": 0, "is_disabled": 0, "fusion_lon": 0.0, "lat": 38.934935, "name": "1c043895e5b7266296489500d8ac7db9", "bike_id": "1c043895e5b7266296489500d8ac7db9", "lon": -76.98196166666666, "fusion_lat": 0.0, "rental_uris": {"android": "https://dc.lft.to/lastmile_qr_scan", "ios": "https://dc.lft.to/lastmile_qr_scan"}, "type": "electric_scooter"}, {"is_reserved": 0, "is_disabled": 0, "fusion_lon": 0.0, "lat": 38.8939015, "name": "c3b970bba49bfb64b2ffc0dba6e43950", "bike_id": "c3b970bba49bfb64b2ffc0dba6e43950", "lon": -77.0465395, "fusion_lat": 0.0, "rental_uris": {"android": "https://dc.lft.to/lastmile_qr_scan", "ios": "https://dc.lft.to/lastmile_qr_scan"}, "type": "electric_scooter"}, {"is_reserved": 0, "is_disabled": 0, "fusion_lon": 0.0, "lat": 38.932726333333335, "name": "ba641cfca429be1c626cc8b754db5970", "bike_id": "ba641cfca429be1c626cc8b754db5970", "lon": -76.99616516666667, "fusion_lat": 0.0, "rental_uris": {"android": "https://dc.lft.to/lastmile_qr_scan", "ios": "https://dc.lft.to/lastmile_qr_scan"}, "type": "electric_scooter"}, {"is_reserved": 0, "is_disabled": 0, "fusion_lon": 0.0, "lat": 38.883795166666665, "name": "6a5ab8f4453f45f14ced906d2e19c4df", "bike_id": "6a5ab8f4453f45f14ced906d2e19c4df", "lon": -77.01973466666666, "fusion_lat": 0.0, "rental_uris": {"android": "https://dc.lft.to/lastmile_qr_scan", "ios": "https://dc.lft.to/lastmile_qr_scan"}, "type": "electric_scooter"}, {"is_reserved": 0, "is_disabled": 0, "fusion_lon": 0.0, "lat": 38.86628116666667, "name": "aa2cb96a936a439347fc7b80346f36c8", "bike_id": "aa2cb96a936a439347fc7b80346f36c8", "lon": -76.98714266666667, "fusion_lat": 0.0, "rental_uris": {"android": "https://dc.lft.to/lastmile_qr_scan", "ios": "https://dc.lft.to/lastmile_qr_scan"}, "type": "electric_scooter"}, {"is_reserved": 0, "is_disabled": 0, "fusion_lon": 0.0, "lat": 38.91932833333333, "name": "3459aba15f355996426ea55729397997", "bike_id": "3459aba15f355996426ea55729397997", "lon": -77.03476416666666, "fusion_lat": 0.0, "rental_uris": {"android": "https://dc.lft.to/lastmile_qr_scan", "ios": "https://dc.lft.to/lastmile_qr_scan"}, "type": "electric_scooter"}, {"is_reserved": 0, "is_disabled": 0, "fusion_lon": 0.0, "lat": 38.918038833333334, "name": "88ccda4da121177ece618acc33a16306", "bike_id": "88ccda4da121177ece618acc33a16306", "lon": -77.02486733333333, "fusion_lat": 0.0, "rental_uris": {"android": "https://dc.lft.to/lastmile_qr_scan", "ios": "https://dc.lft.to/lastmile_qr_scan"}, "type": "electric_scooter"}, {"is_reserved": 0, "is_disabled": 0, "fusion_lon": 0.0, "lat": 38.906611833333336, "name": "eaa531a48a251d86da2580831d208e6f", "bike_id": "eaa531a48a251d86da2580831d208e6f", "lon": -77.02710183333333, "fusion_lat": 0.0, "rental_uris": {"android": "https://dc.lft.to/lastmile_qr_scan", "ios": "https://dc.lft.to/lastmile_qr_scan"}, "type": "electric_scooter"}, {"is_reserved": 0, "is_disabled": 0, "fusion_lon": 0.0, "lat": 38.92318983333333, "name": "4633fa970930a36f0aa829abcc7125f8", "bike_id": "4633fa970930a36f0aa829abcc7125f8", "lon": -77.0195425, "fusion_lat": 0.0, "rental_uris": {"android": "https://dc.lft.to/lastmile_qr_scan", "ios": "https://dc.lft.to/lastmile_qr_scan"}, "type": "electric_scooter"}, {"is_reserved": 0, "is_disabled": 0, "fusion_lon": 0.0, "lat": 38.902618, "name": "b096abcb04b3865cf4fc59b26d5268c4", "bike_id": "b096abcb04b3865cf4fc59b26d5268c4", "lon": -77.01756733333333, "fusion_lat": 0.0, "rental_uris": {"android": "https://dc.lft.to/lastmile_qr_scan", "ios": "https://dc.lft.to/lastmile_qr_scan"}, "type": "electric_scooter"}, {"is_reserved": 0, "is_disabled": 0, "fusion_lon": 0.0, "lat": 38.94261983333333, "name": "7b070230b98b7fc391e306441f8b5d5a", "bike_id": "7b070230b98b7fc391e306441f8b5d5a", "lon": -77.02844466666667, "fusion_lat": 0.0, "rental_uris": {"android": "https://dc.lft.to/lastmile_qr_scan", "ios": "https://dc.lft.to/lastmile_qr_scan"}, "type": "electric_scooter"}, {"is_reserved": 0, "is_disabled": 0, "fusion_lon": 0.0, "lat": 38.9152995, "name": "80dfe89c63d3f21c7e84ec1c142d5577", "bike_id": "80dfe89c63d3f21c7e84ec1c142d5577", "lon": -77.0443825, "fusion_lat": 0.0, "rental_uris": {"android": "https://dc.lft.to/lastmile_qr_scan", "ios": "https://dc.lft.to/lastmile_qr_scan"}, "type": "electric_scooter"}, {"is_reserved": 0, "is_disabled": 0, "fusion_lon": 0.0, "lat": 38.951155166666666, "name": "067f32fe663606ed0a718ed7252a37c1", "bike_id": "067f32fe663606ed0a718ed7252a37c1", "lon": -77.015689, "fusion_lat": 0.0, "rental_uris": {"android": "https://dc.lft.to/lastmile_qr_scan", "ios": "https://dc.lft.to/lastmile_qr_scan"}, "type": "electric_scooter"}, {"is_reserved": 0, "is_disabled": 0, "fusion_lon": 0.0, "lat": 38.92993366666666, "name": "48fa2bae9615d446d8ad3eb1df5361d9", "bike_id": "48fa2bae9615d446d8ad3eb1df5361d9", "lon": -77.03779816666666, "fusion_lat": 0.0, "rental_uris": {"android": "https://dc.lft.to/lastmile_qr_scan", "ios": "https://dc.lft.to/lastmile_qr_scan"}, "type": "electric_scooter"}, {"is_reserved": 0, "is_disabled": 0, "fusion_lon": 0.0, "lat": 38.913648, "name": "f23c39e357b264a59eac7aa1aef02c96", "bike_id": "f23c39e357b264a59eac7aa1aef02c96", "lon": -77.01994216666667, "fusion_lat": 0.0, "rental_uris": {"android": "https://dc.lft.to/lastmile_qr_scan", "ios": "https://dc.lft.to/lastmile_qr_scan"}, "type": "electric_scooter"}, {"is_reserved": 0, "is_disabled": 0, "fusion_lon": 0.0, "lat": 38.9171935, "name": "83c022c3dda82de5e83f0a0015587637", "bike_id": "83c022c3dda82de5e83f0a0015587637", "lon": -77.031823, "fusion_lat": 0.0, "rental_uris": {"android": "https://dc.lft.to/lastmile_qr_scan", "ios": "https://dc.lft.to/lastmile_qr_scan"}, "type": "electric_scooter"}, {"is_reserved": 0, "is_disabled": 0, "fusion_lon": 0.0, "lat": 38.884584, "name": "7811d61c39e5b63255c8eec32acd67ce", "bike_id": "7811d61c39e5b63255c8eec32acd67ce", "lon": -77.00060366666666, "fusion_lat": 0.0, "rental_uris": {"android": "https://dc.lft.to/lastmile_qr_scan", "ios": "https://dc.lft.to/lastmile_qr_scan"}, "type": "electric_scooter"}, {"is_reserved": 0, "is_disabled": 0, "fusion_lon": 0.0, "lat": 38.916464833333336, "name": "a035a0779272ab25f829ac544a635e14", "bike_id": "a035a0779272ab25f829ac544a635e14", "lon": -77.032203, "fusion_lat": 0.0, "rental_uris": {"android": "https://dc.lft.to/lastmile_qr_scan", "ios": "https://dc.lft.to/lastmile_qr_scan"}, "type": "electric_scooter"}, {"is_reserved": 0, "is_disabled": 0, "fusion_lon": 0.0, "lat": 38.9043, "name": "d99524fc760e45a1ed74fdce09490bf9", "bike_id": "d99524fc760e45a1ed74fdce09490bf9", "lon": -77.0435715, "fusion_lat": 0.0, "rental_uris": {"android": "https://dc.lft.to/lastmile_qr_scan", "ios": "https://dc.lft.to/lastmile_qr_scan"}, "type": "electric_scooter"}, {"is_reserved": 0, "is_disabled": 0, "fusion_lon": 0.0, "lat": 38.84704883333333, "name": "abf85cfcef5689b9e44cb88dcaaa1bd3", "bike_id": "abf85cfcef5689b9e44cb88dcaaa1bd3", "lon": -76.9961895, "fusion_lat": 0.0, "rental_uris": {"android": "https://dc.lft.to/lastmile_qr_scan", "ios": "https://dc.lft.to/lastmile_qr_scan"}, "type": "electric_scooter"}, {"is_reserved": 0, "is_disabled": 0, "fusion_lon": 0.0, "lat": 38.924106, "name": "adffe8edf5871684cc733388a2f002cc", "bike_id": "adffe8edf5871684cc733388a2f002cc", "lon": -77.02710516666667, "fusion_lat": 0.0, "rental_uris": {"android": "https://dc.lft.to/lastmile_qr_scan", "ios": "https://dc.lft.to/lastmile_qr_scan"}, "type": "electric_scooter"}, {"is_reserved": 0, "is_disabled": 0, "fusion_lon": 0.0, "lat": 38.8982625, "name": "ccfee5f299f99af53b865c8d574af804", "bike_id": "ccfee5f299f99af53b865c8d574af804", "lon": -77.02937883333334, "fusion_lat": 0.0, "rental_uris": {"android": "https://dc.lft.to/lastmile_qr_scan", "ios": "https://dc.lft.to/lastmile_qr_scan"}, "type": "electric_scooter"}, {"is_reserved": 0, "is_disabled": 0, "fusion_lon": 0.0, "lat": 38.87541133333333, "name": "ec4ec81fb68a1864de9d98e15e2d1a81", "bike_id": "ec4ec81fb68a1864de9d98e15e2d1a81", "lon": -77.00578666666667, "fusion_lat": 0.0, "rental_uris": {"android": "https://dc.lft.to/lastmile_qr_scan", "ios": "https://dc.lft.to/lastmile_qr_scan"}, "type": "electric_scooter"}, {"is_reserved": 0, "is_disabled": 0, "fusion_lon": 0.0, "lat": 38.901193166666665, "name": "27d0a47e43585e3e0816d69fb4b3f275", "bike_id": "27d0a47e43585e3e0816d69fb4b3f275", "lon": -77.05000816666667, "fusion_lat": 0.0, "rental_uris": {"android": "https://dc.lft.to/lastmile_qr_scan", "ios": "https://dc.lft.to/lastmile_qr_scan"}, "type": "electric_scooter"}, {"is_reserved": 0, "is_disabled": 0, "fusion_lon": 0.0, "lat": 38.90787233333333, "name": "e4acdf407a19538bedf870265583e34b", "bike_id": "e4acdf407a19538bedf870265583e34b", "lon": -77.02187783333333, "fusion_lat": 0.0, "rental_uris": {"android": "https://dc.lft.to/lastmile_qr_scan", "ios": "https://dc.lft.to/lastmile_qr_scan"}, "type": "electric_scooter"}, {"is_reserved": 0, "is_disabled": 0, "fusion_lon": 0.0, "lat": 38.90488583333333, "name": "587bd1d2e83aa68768b0bb6250320689", "bike_id": "587bd1d2e83aa68768b0bb6250320689", "lon": -77.0296615, "fusion_lat": 0.0, "rental_uris": {"android": "https://dc.lft.to/lastmile_qr_scan", "ios": "https://dc.lft.to/lastmile_qr_scan"}, "type": "electric_scooter"}, {"is_reserved": 0, "is_disabled": 0, "fusion_lon": 0.0, "lat": 38.922428833333335, "name": "25c87fc3dbd47dfff82e8ca1ebeb19f7", "bike_id": "25c87fc3dbd47dfff82e8ca1ebeb19f7", "lon": -77.04358233333333, "fusion_lat": 0.0, "rental_uris": {"android": "https://dc.lft.to/lastmile_qr_scan", "ios": "https://dc.lft.to/lastmile_qr_scan"}, "type": "electric_scooter"}, {"is_reserved": 0, "is_disabled": 0, "fusion_lon": 0.0, "lat": 38.92227116666667, "name": "8ef44934fbe59f47d2988ad92d9a1a06", "bike_id": "8ef44934fbe59f47d2988ad92d9a1a06", "lon": -77.0430775, "fusion_lat": 0.0, "rental_uris": {"android": "https://dc.lft.to/lastmile_qr_scan", "ios": "https://dc.lft.to/lastmile_qr_scan"}, "type": "electric_scooter"}, {"is_reserved": 0, "is_disabled": 0, "fusion_lon": 0.0, "lat": 38.92571233333334, "name": "aa599805c547812547c486a706ab7348", "bike_id": "aa599805c547812547c486a706ab7348", "lon": -77.03749666666667, "fusion_lat": 0.0, "rental_uris": {"android": "https://dc.lft.to/lastmile_qr_scan", "ios": "https://dc.lft.to/lastmile_qr_scan"}, "type": "electric_scooter"}, {"is_reserved": 0, "is_disabled": 0, "fusion_lon": 0.0, "lat": 38.93704233333333, "name": "4464c2486ec73a8d393105a08690d912", "bike_id": "4464c2486ec73a8d393105a08690d912", "lon": -77.0328125, "fusion_lat": 0.0, "rental_uris": {"android": "https://dc.lft.to/lastmile_qr_scan", "ios": "https://dc.lft.to/lastmile_qr_scan"}, "type": "electric_scooter"}, {"is_reserved": 0, "is_disabled": 0, "fusion_lon": 0.0, "lat": 38.89679683333333, "name": "ac2314738e550ddeaec49b6bca31ad1c", "bike_id": "ac2314738e550ddeaec49b6bca31ad1c", "lon": -77.043406, "fusion_lat": 0.0, "rental_uris": {"android": "https://dc.lft.to/lastmile_qr_scan", "ios": "https://dc.lft.to/lastmile_qr_scan"}, "type": "electric_scooter"}, {"is_reserved": 0, "is_disabled": 0, "fusion_lon": 0.0, "lat": 38.8985075, "name": "390b93a2f9f67ba04044642200c22f0f", "bike_id": "390b93a2f9f67ba04044642200c22f0f", "lon": -76.9903235, "fusion_lat": 0.0, "rental_uris": {"android": "https://dc.lft.to/lastmile_qr_scan", "ios": "https://dc.lft.to/lastmile_qr_scan"}, "type": "electric_scooter"}, {"is_reserved": 0, "is_disabled": 0, "fusion_lon": 0.0, "lat": 38.9293115, "name": "bbfd1f6f7c45ccc244077ef8775431d4", "bike_id": "bbfd1f6f7c45ccc244077ef8775431d4", "lon": -76.99819066666667, "fusion_lat": 0.0, "rental_uris": {"android": "https://dc.lft.to/lastmile_qr_scan", "ios": "https://dc.lft.to/lastmile_qr_scan"}, "type": "electric_scooter"}, {"is_reserved": 0, "is_disabled": 0, "fusion_lon": 0.0, "lat": 38.9206735, "name": "af7c3e7c64bf396ab7ab3e46c31968bc", "bike_id": "af7c3e7c64bf396ab7ab3e46c31968bc", "lon": -77.03791966666667, "fusion_lat": 0.0, "rental_uris": {"android": "https://dc.lft.to/lastmile_qr_scan", "ios": "https://dc.lft.to/lastmile_qr_scan"}, "type": "electric_scooter"}, {"is_reserved": 0, "is_disabled": 0, "fusion_lon": 0.0, "lat": 38.932409166666666, "name": "7288aa69fda3b19e091809303e6f32a6", "bike_id": "7288aa69fda3b19e091809303e6f32a6", "lon": -77.02953266666667, "fusion_lat": 0.0, "rental_uris": {"android": "https://dc.lft.to/lastmile_qr_scan", "ios": "https://dc.lft.to/lastmile_qr_scan"}, "type": "electric_scooter"}, {"is_reserved": 0, "is_disabled": 0, "fusion_lon": 0.0, "lat": 38.917843500000004, "name": "b692e46ac3d31eb9ba941b27aaa9e4d4", "bike_id": "b692e46ac3d31eb9ba941b27aaa9e4d4", "lon": -77.036362, "fusion_lat": 0.0, "rental_uris": {"android": "https://dc.lft.to/lastmile_qr_scan", "ios": "https://dc.lft.to/lastmile_qr_scan"}, "type": "electric_scooter"}, {"is_reserved": 0, "is_disabled": 0, "fusion_lon": 0.0, "lat": 38.90958066666666, "name": "51e43fb8ddf4a6cddb90e854e0cda64f", "bike_id": "51e43fb8ddf4a6cddb90e854e0cda64f", "lon": -77.04609966666666, "fusion_lat": 0.0, "rental_uris": {"android": "https://dc.lft.to/lastmile_qr_scan", "ios": "https://dc.lft.to/lastmile_qr_scan"}, "type": "electric_scooter"}, {"is_reserved": 0, "is_disabled": 0, "fusion_lon": 0.0, "lat": 38.89189866666667, "name": "a6a8872c30dbbaee3d0503a7bcee99c1", "bike_id": "a6a8872c30dbbaee3d0503a7bcee99c1", "lon": -76.99850633333334, "fusion_lat": 0.0, "rental_uris": {"android": "https://dc.lft.to/lastmile_qr_scan", "ios": "https://dc.lft.to/lastmile_qr_scan"}, "type": "electric_scooter"}, {"is_reserved": 0, "is_disabled": 0, "fusion_lon": 0.0, "lat": 38.9006565, "name": "d44089aae945dfd70206749737ecd5eb", "bike_id": "d44089aae945dfd70206749737ecd5eb", "lon": -76.927453, "fusion_lat": 0.0, "rental_uris": {"android": "https://dc.lft.to/lastmile_qr_scan", "ios": "https://dc.lft.to/lastmile_qr_scan"}, "type": "electric_scooter"}, {"is_reserved": 0, "is_disabled": 0, "fusion_lon": 0.0, "lat": 38.90685083333334, "name": "c53409432e6a999be227732fae6098f6", "bike_id": "c53409432e6a999be227732fae6098f6", "lon": -77.026963, "fusion_lat": 0.0, "rental_uris": {"android": "https://dc.lft.to/lastmile_qr_scan", "ios": "https://dc.lft.to/lastmile_qr_scan"}, "type": "electric_scooter"}, {"is_reserved": 0, "is_disabled": 0, "fusion_lon": 0.0, "lat": 38.9153875, "name": "53b1a509c53e99421cd6c41df348b5cb", "bike_id": "53b1a509c53e99421cd6c41df348b5cb", "lon": -77.03641266666666, "fusion_lat": 0.0, "rental_uris": {"android": "https://dc.lft.to/lastmile_qr_scan", "ios": "https://dc.lft.to/lastmile_qr_scan"}, "type": "electric_scooter"}, {"is_reserved": 0, "is_disabled": 0, "fusion_lon": 0.0, "lat": 38.815891, "name": "587994ccb13b1c94dc1c51e8681608d1", "bike_id": "587994ccb13b1c94dc1c51e8681608d1", "lon": -77.04941083333334, "fusion_lat": 0.0, "rental_uris": {"android": "https://dc.lft.to/lastmile_qr_scan", "ios": "https://dc.lft.to/lastmile_qr_scan"}, "type": "electric_bike"}, {"is_reserved": 0, "is_disabled": 0, "fusion_lon": 0.0, "lat": 38.878642166666666, "name": "b83e07a42beedf768c1b290b6da689a2", "bike_id": "b83e07a42beedf768c1b290b6da689a2", "lon": -76.9916235, "fusion_lat": 0.0, "rental_uris": {"android": "https://dc.lft.to/lastmile_qr_scan", "ios": "https://dc.lft.to/lastmile_qr_scan"}, "type": "electric_scooter"}, {"is_reserved": 0, "is_disabled": 0, "fusion_lon": 0.0, "lat": 38.88123783333333, "name": "69a96c060f88918624dd9c1de41d3409", "bike_id": "69a96c060f88918624dd9c1de41d3409", "lon": -76.992966, "fusion_lat": 0.0, "rental_uris": {"android": "https://dc.lft.to/lastmile_qr_scan", "ios": "https://dc.lft.to/lastmile_qr_scan"}, "type": "electric_scooter"}, {"is_reserved": 0, "is_disabled": 0, "fusion_lon": 0.0, "lat": 38.94038283333333, "name": "750815236fe8cf5beb7754e7d2071f7c", "bike_id": "750815236fe8cf5beb7754e7d2071f7c", "lon": -77.0756795, "fusion_lat": 0.0, "rental_uris": {"android": "https://dc.lft.to/lastmile_qr_scan", "ios": "https://dc.lft.to/lastmile_qr_scan"}, "type": "electric_scooter"}, {"is_reserved": 0, "is_disabled": 0, "fusion_lon": 0.0, "lat": 38.91821266666667, "name": "e0fc530e7116cd3246618930e6e608a1", "bike_id": "e0fc530e7116cd3246618930e6e608a1", "lon": -77.0476485, "fusion_lat": 0.0, "rental_uris": {"android": "https://dc.lft.to/lastmile_qr_scan", "ios": "https://dc.lft.to/lastmile_qr_scan"}, "type": "electric_scooter"}, {"is_reserved": 0, "is_disabled": 0, "fusion_lon": 0.0, "lat": 38.928334, "name": "5409648a925ebdb9c99e39a702ca8dbc", "bike_id": "5409648a925ebdb9c99e39a702ca8dbc", "lon": -76.9958545, "fusion_lat": 0.0, "rental_uris": {"android": "https://dc.lft.to/lastmile_qr_scan", "ios": "https://dc.lft.to/lastmile_qr_scan"}, "type": "electric_scooter"}, {"is_reserved": 0, "is_disabled": 0, "fusion_lon": 0.0, "lat": 38.923399, "name": "b159e533d7e83b7b4204222f1f848bfd", "bike_id": "b159e533d7e83b7b4204222f1f848bfd", "lon": -77.035379, "fusion_lat": 0.0, "rental_uris": {"android": "https://dc.lft.to/lastmile_qr_scan", "ios": "https://dc.lft.to/lastmile_qr_scan"}, "type": "electric_scooter"}, {"is_reserved": 0, "is_disabled": 0, "fusion_lon": 0.0, "lat": 38.9386005, "name": "24d8cdc1a44e2c79529a743f137bc8a7", "bike_id": "24d8cdc1a44e2c79529a743f137bc8a7", "lon": -77.02522333333333, "fusion_lat": 0.0, "rental_uris": {"android": "https://dc.lft.to/lastmile_qr_scan", "ios": "https://dc.lft.to/lastmile_qr_scan"}, "type": "electric_scooter"}, {"is_reserved": 0, "is_disabled": 0, "fusion_lon": 0.0, "lat": 38.932467833333334, "name": "d027620d82b9663a290f3a7c5b7ba7da", "bike_id": "d027620d82b9663a290f3a7c5b7ba7da", "lon": -77.03277383333334, "fusion_lat": 0.0, "rental_uris": {"android": "https://dc.lft.to/lastmile_qr_scan", "ios": "https://dc.lft.to/lastmile_qr_scan"}, "type": "electric_scooter"}, {"is_reserved": 0, "is_disabled": 0, "fusion_lon": 0.0, "lat": 38.914092833333335, "name": "cfbfae1816d24ab4a37f93f3d01c7884", "bike_id": "cfbfae1816d24ab4a37f93f3d01c7884", "lon": -77.03265783333333, "fusion_lat": 0.0, "rental_uris": {"android": "https://dc.lft.to/lastmile_qr_scan", "ios": "https://dc.lft.to/lastmile_qr_scan"}, "type": "electric_scooter"}, {"is_reserved": 0, "is_disabled": 0, "fusion_lon": 0.0, "lat": 38.91540966666667, "name": "e8d26fb716283dd9bed1ff765cf926db", "bike_id": "e8d26fb716283dd9bed1ff765cf926db", "lon": -77.03644583333333, "fusion_lat": 0.0, "rental_uris": {"android": "https://dc.lft.to/lastmile_qr_scan", "ios": "https://dc.lft.to/lastmile_qr_scan"}, "type": "electric_scooter"}, {"is_reserved": 0, "is_disabled": 0, "fusion_lon": 0.0, "lat": 38.928943333333336, "name": "da47cd58ad10d5944a62e60aeedde79e", "bike_id": "da47cd58ad10d5944a62e60aeedde79e", "lon": -76.98432566666666, "fusion_lat": 0.0, "rental_uris": {"android": "https://dc.lft.to/lastmile_qr_scan", "ios": "https://dc.lft.to/lastmile_qr_scan"}, "type": "electric_scooter"}, {"is_reserved": 0, "is_disabled": 0, "fusion_lon": 0.0, "lat": 38.960917, "name": "0206a935d732fd582d15cd924e3d81e4", "bike_id": "0206a935d732fd582d15cd924e3d81e4", "lon": -77.06757966666666, "fusion_lat": 0.0, "rental_uris": {"android": "https://dc.lft.to/lastmile_qr_scan", "ios": "https://dc.lft.to/lastmile_qr_scan"}, "type": "electric_scooter"}, {"is_reserved": 0, "is_disabled": 0, "fusion_lon": 0.0, "lat": 38.92957216666667, "name": "6536c1d3138acd418ec0ad60bb157c12", "bike_id": "6536c1d3138acd418ec0ad60bb157c12", "lon": -77.01147783333333, "fusion_lat": 0.0, "rental_uris": {"android": "https://dc.lft.to/lastmile_qr_scan", "ios": "https://dc.lft.to/lastmile_qr_scan"}, "type": "electric_scooter"}, {"is_reserved": 0, "is_disabled": 0, "fusion_lon": 0.0, "lat": 38.9432195, "name": "da9e10a59b7e5171a52c4428d190de37", "bike_id": "da9e10a59b7e5171a52c4428d190de37", "lon": -77.01315466666667, "fusion_lat": 0.0, "rental_uris": {"android": "https://dc.lft.to/lastmile_qr_scan", "ios": "https://dc.lft.to/lastmile_qr_scan"}, "type": "electric_scooter"}, {"is_reserved": 0, "is_disabled": 0, "fusion_lon": 0.0, "lat": 38.90123533333333, "name": "7c57dd29effc1961255cc8254d7bc6b4", "bike_id": "7c57dd29effc1961255cc8254d7bc6b4", "lon": -77.03184616666667, "fusion_lat": 0.0, "rental_uris": {"android": "https://dc.lft.to/lastmile_qr_scan", "ios": "https://dc.lft.to/lastmile_qr_scan"}, "type": "electric_scooter"}, {"is_reserved": 0, "is_disabled": 0, "fusion_lon": 0.0, "lat": 38.89739183333333, "name": "37cc490769174e2dd7bff3988b44755c", "bike_id": "37cc490769174e2dd7bff3988b44755c", "lon": -77.00931616666666, "fusion_lat": 0.0, "rental_uris": {"android": "https://dc.lft.to/lastmile_qr_scan", "ios": "https://dc.lft.to/lastmile_qr_scan"}, "type": "electric_scooter"}, {"is_reserved": 0, "is_disabled": 0, "fusion_lon": 0.0, "lat": 38.909614, "name": "953f9ca183b90e55c9a2b12491dee249", "bike_id": "953f9ca183b90e55c9a2b12491dee249", "lon": -77.02310883333334, "fusion_lat": 0.0, "rental_uris": {"android": "https://dc.lft.to/lastmile_qr_scan", "ios": "https://dc.lft.to/lastmile_qr_scan"}, "type": "electric_scooter"}, {"is_reserved": 0, "is_disabled": 0, "fusion_lon": 0.0, "lat": 38.91774216666666, "name": "62da37c0700516b76f77c15beea4a6f8", "bike_id": "62da37c0700516b76f77c15beea4a6f8", "lon": -77.02302983333334, "fusion_lat": 0.0, "rental_uris": {"android": "https://dc.lft.to/lastmile_qr_scan", "ios": "https://dc.lft.to/lastmile_qr_scan"}, "type": "electric_scooter"}, {"is_reserved": 0, "is_disabled": 0, "fusion_lon": 0.0, "lat": 38.91326733333333, "name": "311fb9c9a2f081f913112d2bbf4ca97e", "bike_id": "311fb9c9a2f081f913112d2bbf4ca97e", "lon": -77.015188, "fusion_lat": 0.0, "rental_uris": {"android": "https://dc.lft.to/lastmile_qr_scan", "ios": "https://dc.lft.to/lastmile_qr_scan"}, "type": "electric_scooter"}, {"is_reserved": 0, "is_disabled": 0, "fusion_lon": 0.0, "lat": 38.90150083333333, "name": "97bf88a6de62bbb7c7d92d74e8fa5755", "bike_id": "97bf88a6de62bbb7c7d92d74e8fa5755", "lon": -76.97425366666667, "fusion_lat": 0.0, "rental_uris": {"android": "https://dc.lft.to/lastmile_qr_scan", "ios": "https://dc.lft.to/lastmile_qr_scan"}, "type": "electric_scooter"}, {"is_reserved": 0, "is_disabled": 0, "fusion_lon": 0.0, "lat": 38.93248333333333, "name": "4c009780454eb5d4c56d124231fe4613", "bike_id": "4c009780454eb5d4c56d124231fe4613", "lon": -77.0328435, "fusion_lat": 0.0, "rental_uris": {"android": "https://dc.lft.to/lastmile_qr_scan", "ios": "https://dc.lft.to/lastmile_qr_scan"}, "type": "electric_scooter"}, {"is_reserved": 0, "is_disabled": 0, "fusion_lon": 0.0, "lat": 38.9465555, "name": "81139524096fcf52bf639cb2b3c72d01", "bike_id": "81139524096fcf52bf639cb2b3c72d01", "lon": -77.02250666666667, "fusion_lat": 0.0, "rental_uris": {"android": "https://dc.lft.to/lastmile_qr_scan", "ios": "https://dc.lft.to/lastmile_qr_scan"}, "type": "electric_scooter"}, {"is_reserved": 0, "is_disabled": 0, "fusion_lon": 0.0, "lat": 38.9307855, "name": "bc04d5e5a9f224d61f0e850cb3965c3f", "bike_id": "bc04d5e5a9f224d61f0e850cb3965c3f", "lon": -77.023415, "fusion_lat": 0.0, "rental_uris": {"android": "https://dc.lft.to/lastmile_qr_scan", "ios": "https://dc.lft.to/lastmile_qr_scan"}, "type": "electric_scooter"}, {"is_reserved": 0, "is_disabled": 0, "fusion_lon": 0.0, "lat": 38.913295166666664, "name": "15fc789ba3147abf3e620ea42e834090", "bike_id": "15fc789ba3147abf3e620ea42e834090", "lon": -77.03680983333334, "fusion_lat": 0.0, "rental_uris": {"android": "https://dc.lft.to/lastmile_qr_scan", "ios": "https://dc.lft.to/lastmile_qr_scan"}, "type": "electric_scooter"}, {"is_reserved": 0, "is_disabled": 0, "fusion_lon": 0.0, "lat": 38.909692666666665, "name": "59d9fdcf4739fdca6cdcc1db2b887ab2", "bike_id": "59d9fdcf4739fdca6cdcc1db2b887ab2", "lon": -77.04521566666666, "fusion_lat": 0.0, "rental_uris": {"android": "https://dc.lft.to/lastmile_qr_scan", "ios": "https://dc.lft.to/lastmile_qr_scan"}, "type": "electric_scooter"}, {"is_reserved": 0, "is_disabled": 0, "fusion_lon": 0.0, "lat": 38.91860533333333, "name": "00ef95d0ad222c99d95fd867ab7113eb", "bike_id": "00ef95d0ad222c99d95fd867ab7113eb", "lon": -76.9608825, "fusion_lat": 0.0, "rental_uris": {"android": "https://dc.lft.to/lastmile_qr_scan", "ios": "https://dc.lft.to/lastmile_qr_scan"}, "type": "electric_bike"}, {"is_reserved": 0, "is_disabled": 0, "fusion_lon": 0.0, "lat": 38.896048, "name": "5d7a54f74fa3c08c047b36c53f50bd61", "bike_id": "5d7a54f74fa3c08c047b36c53f50bd61", "lon": -77.0442925, "fusion_lat": 0.0, "rental_uris": {"android": "https://dc.lft.to/lastmile_qr_scan", "ios": "https://dc.lft.to/lastmile_qr_scan"}, "type": "electric_scooter"}, {"is_reserved": 0, "is_disabled": 0, "fusion_lon": 0.0, "lat": 38.897410666666666, "name": "e78d8b5b2f4f94cdbcfc18376169fa8d", "bike_id": "e78d8b5b2f4f94cdbcfc18376169fa8d", "lon": -77.02502, "fusion_lat": 0.0, "rental_uris": {"android": "https://dc.lft.to/lastmile_qr_scan", "ios": "https://dc.lft.to/lastmile_qr_scan"}, "type": "electric_scooter"}, {"is_reserved": 0, "is_disabled": 0, "fusion_lon": 0.0, "lat": 38.923616833333334, "name": "68cf27a5b88212d94e960a12cf700e4c", "bike_id": "68cf27a5b88212d94e960a12cf700e4c", "lon": -77.05033233333333, "fusion_lat": 0.0, "rental_uris": {"android": "https://dc.lft.to/lastmile_qr_scan", "ios": "https://dc.lft.to/lastmile_qr_scan"}, "type": "electric_scooter"}, {"is_reserved": 0, "is_disabled": 0, "fusion_lon": 0.0, "lat": 38.92212633333333, "name": "8b7187dcb2c2296e57a69349d2541e99", "bike_id": "8b7187dcb2c2296e57a69349d2541e99", "lon": -77.0426665, "fusion_lat": 0.0, "rental_uris": {"android": "https://dc.lft.to/lastmile_qr_scan", "ios": "https://dc.lft.to/lastmile_qr_scan"}, "type": "electric_scooter"}, {"is_reserved": 0, "is_disabled": 0, "fusion_lon": 0.0, "lat": 38.922403333333335, "name": "60a60f3c533617bc751ab41a66273782", "bike_id": "60a60f3c533617bc751ab41a66273782", "lon": -77.0366495, "fusion_lat": 0.0, "rental_uris": {"android": "https://dc.lft.to/lastmile_qr_scan", "ios": "https://dc.lft.to/lastmile_qr_scan"}, "type": "electric_scooter"}, {"is_reserved": 0, "is_disabled": 0, "fusion_lon": 0.0, "lat": 38.90261183333333, "name": "4caab68bdde40114a658c9f37e9d7343", "bike_id": "4caab68bdde40114a658c9f37e9d7343", "lon": -76.998481, "fusion_lat": 0.0, "rental_uris": {"android": "https://dc.lft.to/lastmile_qr_scan", "ios": "https://dc.lft.to/lastmile_qr_scan"}, "type": "electric_scooter"}, {"is_reserved": 0, "is_disabled": 0, "fusion_lon": 0.0, "lat": 38.89965316666667, "name": "7947312def84f461274f2333c7c1972a", "bike_id": "7947312def84f461274f2333c7c1972a", "lon": -77.0418985, "fusion_lat": 0.0, "rental_uris": {"android": "https://dc.lft.to/lastmile_qr_scan", "ios": "https://dc.lft.to/lastmile_qr_scan"}, "type": "electric_scooter"}, {"is_reserved": 0, "is_disabled": 0, "fusion_lon": 0.0, "lat": 38.89908066666667, "name": "7314a565308e8361b2f9080ab7ff5edd", "bike_id": "7314a565308e8361b2f9080ab7ff5edd", "lon": -76.98828016666667, "fusion_lat": 0.0, "rental_uris": {"android": "https://dc.lft.to/lastmile_qr_scan", "ios": "https://dc.lft.to/lastmile_qr_scan"}, "type": "electric_scooter"}, {"is_reserved": 0, "is_disabled": 0, "fusion_lon": 0.0, "lat": 38.905755666666664, "name": "f6e4bcf9499ed2b911d9c01b4e47f10d", "bike_id": "f6e4bcf9499ed2b911d9c01b4e47f10d", "lon": -77.00560566666667, "fusion_lat": 0.0, "rental_uris": {"android": "https://dc.lft.to/lastmile_qr_scan", "ios": "https://dc.lft.to/lastmile_qr_scan"}, "type": "electric_scooter"}, {"is_reserved": 0, "is_disabled": 0, "fusion_lon": 0.0, "lat": 38.92621716666667, "name": "ce0a297812461371d3fef1eeb9352c12", "bike_id": "ce0a297812461371d3fef1eeb9352c12", "lon": -77.07307366666667, "fusion_lat": 0.0, "rental_uris": {"android": "https://dc.lft.to/lastmile_qr_scan", "ios": "https://dc.lft.to/lastmile_qr_scan"}, "type": "electric_scooter"}, {"is_reserved": 0, "is_disabled": 0, "fusion_lon": 0.0, "lat": 38.91971083333333, "name": "034d62bf8e28a66db20781108fd9b108", "bike_id": "034d62bf8e28a66db20781108fd9b108", "lon": -77.02763833333333, "fusion_lat": 0.0, "rental_uris": {"android": "https://dc.lft.to/lastmile_qr_scan", "ios": "https://dc.lft.to/lastmile_qr_scan"}, "type": "electric_scooter"}, {"is_reserved": 0, "is_disabled": 0, "fusion_lon": 0.0, "lat": 38.916967166666666, "name": "e292b79ef5e51ce5aa10a7851a1e37d6", "bike_id": "e292b79ef5e51ce5aa10a7851a1e37d6", "lon": -77.03638133333334, "fusion_lat": 0.0, "rental_uris": {"android": "https://dc.lft.to/lastmile_qr_scan", "ios": "https://dc.lft.to/lastmile_qr_scan"}, "type": "electric_scooter"}, {"is_reserved": 0, "is_disabled": 0, "fusion_lon": 0.0, "lat": 38.926064333333336, "name": "c743cefecc954b06f66849a9ebbdbae6", "bike_id": "c743cefecc954b06f66849a9ebbdbae6", "lon": -77.05704216666666, "fusion_lat": 0.0, "rental_uris": {"android": "https://dc.lft.to/lastmile_qr_scan", "ios": "https://dc.lft.to/lastmile_qr_scan"}, "type": "electric_scooter"}, {"is_reserved": 0, "is_disabled": 0, "fusion_lon": 0.0, "lat": 38.920950500000004, "name": "eea08080f93e598495034bfc6411e829", "bike_id": "eea08080f93e598495034bfc6411e829", "lon": -77.03653483333333, "fusion_lat": 0.0, "rental_uris": {"android": "https://dc.lft.to/lastmile_qr_scan", "ios": "https://dc.lft.to/lastmile_qr_scan"}, "type": "electric_scooter"}, {"is_reserved": 0, "is_disabled": 0, "fusion_lon": 0.0, "lat": 38.8877265, "name": "e1a01d6a15b51da60884b60dc6e3b463", "bike_id": "e1a01d6a15b51da60884b60dc6e3b463", "lon": -76.93262816666666, "fusion_lat": 0.0, "rental_uris": {"android": "https://dc.lft.to/lastmile_qr_scan", "ios": "https://dc.lft.to/lastmile_qr_scan"}, "type": "electric_scooter"}, {"is_reserved": 0, "is_disabled": 0, "fusion_lon": 0.0, "lat": 38.88490016666667, "name": "9b35dfef3b0206c108cb7c44e9e6ae95", "bike_id": "9b35dfef3b0206c108cb7c44e9e6ae95", "lon": -77.0158845, "fusion_lat": 0.0, "rental_uris": {"android": "https://dc.lft.to/lastmile_qr_scan", "ios": "https://dc.lft.to/lastmile_qr_scan"}, "type": "electric_scooter"}, {"is_reserved": 0, "is_disabled": 0, "fusion_lon": 0.0, "lat": 38.90021433333333, "name": "bf03b4cbb9a7ca327d0d54071eb62a42", "bike_id": "bf03b4cbb9a7ca327d0d54071eb62a42", "lon": -77.01186, "fusion_lat": 0.0, "rental_uris": {"android": "https://dc.lft.to/lastmile_qr_scan", "ios": "https://dc.lft.to/lastmile_qr_scan"}, "type": "electric_scooter"}, {"is_reserved": 0, "is_disabled": 0, "fusion_lon": 0.0, "lat": 38.892486, "name": "b71040fafa33a7e50beb0eea84a858b9", "bike_id": "b71040fafa33a7e50beb0eea84a858b9", "lon": -76.98546466666667, "fusion_lat": 0.0, "rental_uris": {"android": "https://dc.lft.to/lastmile_qr_scan", "ios": "https://dc.lft.to/lastmile_qr_scan"}, "type": "electric_bike"}, {"is_reserved": 0, "is_disabled": 0, "fusion_lon": 0.0, "lat": 38.930977666666664, "name": "1c9b0803034992fa17f9cd95c007d3d3", "bike_id": "1c9b0803034992fa17f9cd95c007d3d3", "lon": -77.02665, "fusion_lat": 0.0, "rental_uris": {"android": "https://dc.lft.to/lastmile_qr_scan", "ios": "https://dc.lft.to/lastmile_qr_scan"}, "type": "electric_scooter"}, {"is_reserved": 0, "is_disabled": 0, "fusion_lon": 0.0, "lat": 38.92109816666667, "name": "1f159edac707ab628ad4fcd7140bf2a9", "bike_id": "1f159edac707ab628ad4fcd7140bf2a9", "lon": -77.02914116666666, "fusion_lat": 0.0, "rental_uris": {"android": "https://dc.lft.to/lastmile_qr_scan", "ios": "https://dc.lft.to/lastmile_qr_scan"}, "type": "electric_bike"}, {"is_reserved": 0, "is_disabled": 0, "fusion_lon": 0.0, "lat": 38.92474466666667, "name": "40869e3932fdf8b032142cee367e17aa", "bike_id": "40869e3932fdf8b032142cee367e17aa", "lon": -77.0222075, "fusion_lat": 0.0, "rental_uris": {"android": "https://dc.lft.to/lastmile_qr_scan", "ios": "https://dc.lft.to/lastmile_qr_scan"}, "type": "electric_scooter"}, {"is_reserved": 0, "is_disabled": 0, "fusion_lon": 0.0, "lat": 38.9369735, "name": "ce33a6bb0c315024eac904917118724e", "bike_id": "ce33a6bb0c315024eac904917118724e", "lon": -77.0559795, "fusion_lat": 0.0, "rental_uris": {"android": "https://dc.lft.to/lastmile_qr_scan", "ios": "https://dc.lft.to/lastmile_qr_scan"}, "type": "electric_scooter"}, {"is_reserved": 0, "is_disabled": 0, "fusion_lon": 0.0, "lat": 38.92237383333333, "name": "474379718a63a71c16dd944ca1de1957", "bike_id": "474379718a63a71c16dd944ca1de1957", "lon": -77.03145016666667, "fusion_lat": 0.0, "rental_uris": {"android": "https://dc.lft.to/lastmile_qr_scan", "ios": "https://dc.lft.to/lastmile_qr_scan"}, "type": "electric_scooter"}, {"is_reserved": 0, "is_disabled": 0, "fusion_lon": 0.0, "lat": 38.9275705, "name": "d0fe359844fcb0c5cade830c71ecb97a", "bike_id": "d0fe359844fcb0c5cade830c71ecb97a", "lon": -77.03213116666667, "fusion_lat": 0.0, "rental_uris": {"android": "https://dc.lft.to/lastmile_qr_scan", "ios": "https://dc.lft.to/lastmile_qr_scan"}, "type": "electric_scooter"}, {"is_reserved": 0, "is_disabled": 0, "fusion_lon": 0.0, "lat": 38.9414145, "name": "47c39af5284eb98cb66b583fedba0e41", "bike_id": "47c39af5284eb98cb66b583fedba0e41", "lon": -77.02324116666666, "fusion_lat": 0.0, "rental_uris": {"android": "https://dc.lft.to/lastmile_qr_scan", "ios": "https://dc.lft.to/lastmile_qr_scan"}, "type": "electric_scooter"}, {"is_reserved": 0, "is_disabled": 0, "fusion_lon": 0.0, "lat": 38.92475233333333, "name": "6326a761e1cd22ff9c5fdc24e3a219d0", "bike_id": "6326a761e1cd22ff9c5fdc24e3a219d0", "lon": -77.03941816666666, "fusion_lat": 0.0, "rental_uris": {"android": "https://dc.lft.to/lastmile_qr_scan", "ios": "https://dc.lft.to/lastmile_qr_scan"}, "type": "electric_scooter"}, {"is_reserved": 0, "is_disabled": 0, "fusion_lon": 0.0, "lat": 38.91284733333333, "name": "994867905d095c92ed8b1df5a1abc055", "bike_id": "994867905d095c92ed8b1df5a1abc055", "lon": -77.02298833333333, "fusion_lat": 0.0, "rental_uris": {"android": "https://dc.lft.to/lastmile_qr_scan", "ios": "https://dc.lft.to/lastmile_qr_scan"}, "type": "electric_scooter"}, {"is_reserved": 0, "is_disabled": 0, "fusion_lon": 0.0, "lat": 38.92237133333333, "name": "db89b680f44452fdedadcf3d6834b5e9", "bike_id": "db89b680f44452fdedadcf3d6834b5e9", "lon": -77.03464416666667, "fusion_lat": 0.0, "rental_uris": {"android": "https://dc.lft.to/lastmile_qr_scan", "ios": "https://dc.lft.to/lastmile_qr_scan"}, "type": "electric_scooter"}, {"is_reserved": 0, "is_disabled": 0, "fusion_lon": 0.0, "lat": 38.913231333333336, "name": "fee89882b002f4373ed345a9d7bea7ba", "bike_id": "fee89882b002f4373ed345a9d7bea7ba", "lon": -77.0318735, "fusion_lat": 0.0, "rental_uris": {"android": "https://dc.lft.to/lastmile_qr_scan", "ios": "https://dc.lft.to/lastmile_qr_scan"}, "type": "electric_scooter"}, {"is_reserved": 0, "is_disabled": 0, "fusion_lon": 0.0, "lat": 38.91366133333333, "name": "e107a8f7ea803d3aab8f98bd5ffbc892", "bike_id": "e107a8f7ea803d3aab8f98bd5ffbc892", "lon": -77.04567316666666, "fusion_lat": 0.0, "rental_uris": {"android": "https://dc.lft.to/lastmile_qr_scan", "ios": "https://dc.lft.to/lastmile_qr_scan"}, "type": "electric_scooter"}, {"is_reserved": 0, "is_disabled": 0, "fusion_lon": 0.0, "lat": 38.93720033333334, "name": "7a359e3292b0dfd903b5b3fffbaf0544", "bike_id": "7a359e3292b0dfd903b5b3fffbaf0544", "lon": -77.03289283333334, "fusion_lat": 0.0, "rental_uris": {"android": "https://dc.lft.to/lastmile_qr_scan", "ios": "https://dc.lft.to/lastmile_qr_scan"}, "type": "electric_scooter"}, {"is_reserved": 0, "is_disabled": 0, "fusion_lon": 0.0, "lat": 38.935280666666664, "name": "3ef263d8b9284b550c32b24642eef91a", "bike_id": "3ef263d8b9284b550c32b24642eef91a", "lon": -77.07301733333334, "fusion_lat": 0.0, "rental_uris": {"android": "https://dc.lft.to/lastmile_qr_scan", "ios": "https://dc.lft.to/lastmile_qr_scan"}, "type": "electric_scooter"}, {"is_reserved": 0, "is_disabled": 0, "fusion_lon": 0.0, "lat": 38.90915616666667, "name": "a7fd27baee5bd2edb31f8e9ea61b6c63", "bike_id": "a7fd27baee5bd2edb31f8e9ea61b6c63", "lon": -77.0727765, "fusion_lat": 0.0, "rental_uris": {"android": "https://dc.lft.to/lastmile_qr_scan", "ios": "https://dc.lft.to/lastmile_qr_scan"}, "type": "electric_scooter"}, {"is_reserved": 0, "is_disabled": 0, "fusion_lon": 0.0, "lat": 38.901286166666665, "name": "fe07b05604dbeb0bb7e3105f56c13dd1", "bike_id": "fe07b05604dbeb0bb7e3105f56c13dd1", "lon": -77.04991533333333, "fusion_lat": 0.0, "rental_uris": {"android": "https://dc.lft.to/lastmile_qr_scan", "ios": "https://dc.lft.to/lastmile_qr_scan"}, "type": "electric_scooter"}, {"is_reserved": 0, "is_disabled": 0, "fusion_lon": 0.0, "lat": 38.899621, "name": "becd4fd2f780806f52b2d9579a825620", "bike_id": "becd4fd2f780806f52b2d9579a825620", "lon": -77.04194916666667, "fusion_lat": 0.0, "rental_uris": {"android": "https://dc.lft.to/lastmile_qr_scan", "ios": "https://dc.lft.to/lastmile_qr_scan"}, "type": "electric_scooter"}, {"is_reserved": 0, "is_disabled": 0, "fusion_lon": 0.0, "lat": 38.924253666666665, "name": "cce4a047283bed276bae7e82edef8da4", "bike_id": "cce4a047283bed276bae7e82edef8da4", "lon": -77.05179266666667, "fusion_lat": 0.0, "rental_uris": {"android": "https://dc.lft.to/lastmile_qr_scan", "ios": "https://dc.lft.to/lastmile_qr_scan"}, "type": "electric_scooter"}, {"is_reserved": 0, "is_disabled": 0, "fusion_lon": 0.0, "lat": 38.912323, "name": "69518ad7ebd8762d87d3d9a7f2d225c8", "bike_id": "69518ad7ebd8762d87d3d9a7f2d225c8", "lon": -77.0658935, "fusion_lat": 0.0, "rental_uris": {"android": "https://dc.lft.to/lastmile_qr_scan", "ios": "https://dc.lft.to/lastmile_qr_scan"}, "type": "electric_scooter"}, {"is_reserved": 0, "is_disabled": 0, "fusion_lon": 0.0, "lat": 38.9155335, "name": "69ae6675be9639bede5a4d5fa1ef45bc", "bike_id": "69ae6675be9639bede5a4d5fa1ef45bc", "lon": -77.04882666666667, "fusion_lat": 0.0, "rental_uris": {"android": "https://dc.lft.to/lastmile_qr_scan", "ios": "https://dc.lft.to/lastmile_qr_scan"}, "type": "electric_scooter"}, {"is_reserved": 0, "is_disabled": 0, "fusion_lon": 0.0, "lat": 38.93326366666667, "name": "15c6181ed0db62846fd32a0b6763df68", "bike_id": "15c6181ed0db62846fd32a0b6763df68", "lon": -77.02926866666667, "fusion_lat": 0.0, "rental_uris": {"android": "https://dc.lft.to/lastmile_qr_scan", "ios": "https://dc.lft.to/lastmile_qr_scan"}, "type": "electric_scooter"}, {"is_reserved": 0, "is_disabled": 0, "fusion_lon": 0.0, "lat": 38.89618733333333, "name": "307904eb5a40839a6d84c8d7a5c04826", "bike_id": "307904eb5a40839a6d84c8d7a5c04826", "lon": -77.04056283333334, "fusion_lat": 0.0, "rental_uris": {"android": "https://dc.lft.to/lastmile_qr_scan", "ios": "https://dc.lft.to/lastmile_qr_scan"}, "type": "electric_scooter"}, {"is_reserved": 0, "is_disabled": 0, "fusion_lon": 0.0, "lat": 38.9097715, "name": "3e27bc3bb242ea7f87f56713a32ba357", "bike_id": "3e27bc3bb242ea7f87f56713a32ba357", "lon": -76.98465416666667, "fusion_lat": 0.0, "rental_uris": {"android": "https://dc.lft.to/lastmile_qr_scan", "ios": "https://dc.lft.to/lastmile_qr_scan"}, "type": "electric_scooter"}, {"is_reserved": 0, "is_disabled": 0, "fusion_lon": 0.0, "lat": 38.945034166666666, "name": "1f98c2d2f377acf90f49435e730ac1a7", "bike_id": "1f98c2d2f377acf90f49435e730ac1a7", "lon": -77.00668116666667, "fusion_lat": 0.0, "rental_uris": {"android": "https://dc.lft.to/lastmile_qr_scan", "ios": "https://dc.lft.to/lastmile_qr_scan"}, "type": "electric_bike"}, {"is_reserved": 0, "is_disabled": 0, "fusion_lon": 0.0, "lat": 38.944997, "name": "de6557bc841e93533c2b6d5d69c12148", "bike_id": "de6557bc841e93533c2b6d5d69c12148", "lon": -77.03425683333333, "fusion_lat": 0.0, "rental_uris": {"android": "https://dc.lft.to/lastmile_qr_scan", "ios": "https://dc.lft.to/lastmile_qr_scan"}, "type": "electric_scooter"}, {"is_reserved": 0, "is_disabled": 0, "fusion_lon": 0.0, "lat": 38.906628166666664, "name": "6acb9b9a8bb2aad5103e89e463b0df91", "bike_id": "6acb9b9a8bb2aad5103e89e463b0df91", "lon": -77.042959, "fusion_lat": 0.0, "rental_uris": {"android": "https://dc.lft.to/lastmile_qr_scan", "ios": "https://dc.lft.to/lastmile_qr_scan"}, "type": "electric_scooter"}, {"is_reserved": 0, "is_disabled": 0, "fusion_lon": 0.0, "lat": 38.918040833333336, "name": "7992eef2eff160979d2bae7c11bcada6", "bike_id": "7992eef2eff160979d2bae7c11bcada6", "lon": -77.04023533333333, "fusion_lat": 0.0, "rental_uris": {"android": "https://dc.lft.to/lastmile_qr_scan", "ios": "https://dc.lft.to/lastmile_qr_scan"}, "type": "electric_scooter"}, {"is_reserved": 0, "is_disabled": 0, "fusion_lon": 0.0, "lat": 38.958952833333335, "name": "47bdc8dab8599b43b99cc856b290d12a", "bike_id": "47bdc8dab8599b43b99cc856b290d12a", "lon": -77.000211, "fusion_lat": 0.0, "rental_uris": {"android": "https://dc.lft.to/lastmile_qr_scan", "ios": "https://dc.lft.to/lastmile_qr_scan"}, "type": "electric_scooter"}, {"is_reserved": 0, "is_disabled": 0, "fusion_lon": 0.0, "lat": 38.914054666666665, "name": "fe76cfb0d44cc1c89b9819888c2b67f2", "bike_id": "fe76cfb0d44cc1c89b9819888c2b67f2", "lon": -77.01826633333333, "fusion_lat": 0.0, "rental_uris": {"android": "https://dc.lft.to/lastmile_qr_scan", "ios": "https://dc.lft.to/lastmile_qr_scan"}, "type": "electric_scooter"}, {"is_reserved": 0, "is_disabled": 0, "fusion_lon": 0.0, "lat": 38.90185433333333, "name": "e2c9f93ce5470e52f1a91d5242616257", "bike_id": "e2c9f93ce5470e52f1a91d5242616257", "lon": -77.0523575, "fusion_lat": 0.0, "rental_uris": {"android": "https://dc.lft.to/lastmile_qr_scan", "ios": "https://dc.lft.to/lastmile_qr_scan"}, "type": "electric_scooter"}, {"is_reserved": 0, "is_disabled": 0, "fusion_lon": 0.0, "lat": 38.936317, "name": "1797db9f76e213562483c70723129a64", "bike_id": "1797db9f76e213562483c70723129a64", "lon": -77.06415133333333, "fusion_lat": 0.0, "rental_uris": {"android": "https://dc.lft.to/lastmile_qr_scan", "ios": "https://dc.lft.to/lastmile_qr_scan"}, "type": "electric_scooter"}, {"is_reserved": 0, "is_disabled": 0, "fusion_lon": 0.0, "lat": 38.9132745, "name": "884a701716204eb9d1aa66e9d5a85455", "bike_id": "884a701716204eb9d1aa66e9d5a85455", "lon": -77.0318585, "fusion_lat": 0.0, "rental_uris": {"android": "https://dc.lft.to/lastmile_qr_scan", "ios": "https://dc.lft.to/lastmile_qr_scan"}, "type": "electric_scooter"}, {"is_reserved": 0, "is_disabled": 0, "fusion_lon": 0.0, "lat": 38.899566666666665, "name": "63e1e37c3477a9708ee39a58df2a1d90", "bike_id": "63e1e37c3477a9708ee39a58df2a1d90", "lon": -77.04507433333333, "fusion_lat": 0.0, "rental_uris": {"android": "https://dc.lft.to/lastmile_qr_scan", "ios": "https://dc.lft.to/lastmile_qr_scan"}, "type": "electric_scooter"}, {"is_reserved": 0, "is_disabled": 0, "fusion_lon": 0.0, "lat": 38.92764833333333, "name": "44c3f8224550e0e826337759d67b4cfe", "bike_id": "44c3f8224550e0e826337759d67b4cfe", "lon": -77.02788733333334, "fusion_lat": 0.0, "rental_uris": {"android": "https://dc.lft.to/lastmile_qr_scan", "ios": "https://dc.lft.to/lastmile_qr_scan"}, "type": "electric_scooter"}, {"is_reserved": 0, "is_disabled": 0, "fusion_lon": 0.0, "lat": 38.9506375, "name": "cfccf3e06d42012858018d9d296b637c", "bike_id": "cfccf3e06d42012858018d9d296b637c", "lon": -77.06633216666667, "fusion_lat": 0.0, "rental_uris": {"android": "https://dc.lft.to/lastmile_qr_scan", "ios": "https://dc.lft.to/lastmile_qr_scan"}, "type": "electric_bike"}, {"is_reserved": 0, "is_disabled": 0, "fusion_lon": 0.0, "lat": 38.92362966666666, "name": "30894ce381af505117df61314ae8ddcf", "bike_id": "30894ce381af505117df61314ae8ddcf", "lon": -77.01906066666666, "fusion_lat": 0.0, "rental_uris": {"android": "https://dc.lft.to/lastmile_qr_scan", "ios": "https://dc.lft.to/lastmile_qr_scan"}, "type": "electric_scooter"}, {"is_reserved": 0, "is_disabled": 0, "fusion_lon": 0.0, "lat": 38.9261335, "name": "2e9c7da5f7f46cfb52a664b552cfff70", "bike_id": "2e9c7da5f7f46cfb52a664b552cfff70", "lon": -77.02161883333333, "fusion_lat": 0.0, "rental_uris": {"android": "https://dc.lft.to/lastmile_qr_scan", "ios": "https://dc.lft.to/lastmile_qr_scan"}, "type": "electric_scooter"}, {"is_reserved": 0, "is_disabled": 0, "fusion_lon": 0.0, "lat": 38.90032683333333, "name": "26e04466043693d79dee0c59cb94c7c8", "bike_id": "26e04466043693d79dee0c59cb94c7c8", "lon": -77.01184366666666, "fusion_lat": 0.0, "rental_uris": {"android": "https://dc.lft.to/lastmile_qr_scan", "ios": "https://dc.lft.to/lastmile_qr_scan"}, "type": "electric_scooter"}, {"is_reserved": 0, "is_disabled": 0, "fusion_lon": 0.0, "lat": 38.92635766666667, "name": "f92735582c314d77594824e2578967a7", "bike_id": "f92735582c314d77594824e2578967a7", "lon": -77.01332033333334, "fusion_lat": 0.0, "rental_uris": {"android": "https://dc.lft.to/lastmile_qr_scan", "ios": "https://dc.lft.to/lastmile_qr_scan"}, "type": "electric_scooter"}, {"is_reserved": 0, "is_disabled": 0, "fusion_lon": 0.0, "lat": 38.91597483333334, "name": "90067fcecee97f3a689a45ebac4d7b8a", "bike_id": "90067fcecee97f3a689a45ebac4d7b8a", "lon": -77.0465775, "fusion_lat": 0.0, "rental_uris": {"android": "https://dc.lft.to/lastmile_qr_scan", "ios": "https://dc.lft.to/lastmile_qr_scan"}, "type": "electric_scooter"}, {"is_reserved": 0, "is_disabled": 0, "fusion_lon": 0.0, "lat": 38.9078475, "name": "cf9fe2b25939e9fe6fc26bc634b5042e", "bike_id": "cf9fe2b25939e9fe6fc26bc634b5042e", "lon": -76.99716599999999, "fusion_lat": 0.0, "rental_uris": {"android": "https://dc.lft.to/lastmile_qr_scan", "ios": "https://dc.lft.to/lastmile_qr_scan"}, "type": "electric_scooter"}, {"is_reserved": 0, "is_disabled": 0, "fusion_lon": 0.0, "lat": 38.898387, "name": "726e841af674fd4c08e201edd1ca3e6c", "bike_id": "726e841af674fd4c08e201edd1ca3e6c", "lon": -77.02279416666667, "fusion_lat": 0.0, "rental_uris": {"android": "https://dc.lft.to/lastmile_qr_scan", "ios": "https://dc.lft.to/lastmile_qr_scan"}, "type": "electric_scooter"}, {"is_reserved": 0, "is_disabled": 0, "fusion_lon": 0.0, "lat": 38.92247233333333, "name": "f0e25e874f343df5e9ac56a082032ef3", "bike_id": "f0e25e874f343df5e9ac56a082032ef3", "lon": -77.03529883333333, "fusion_lat": 0.0, "rental_uris": {"android": "https://dc.lft.to/lastmile_qr_scan", "ios": "https://dc.lft.to/lastmile_qr_scan"}, "type": "electric_scooter"}, {"is_reserved": 0, "is_disabled": 0, "fusion_lon": 0.0, "lat": 38.8973335, "name": "5055553556402098dcf47b4044e91061", "bike_id": "5055553556402098dcf47b4044e91061", "lon": -77.03189216666667, "fusion_lat": 0.0, "rental_uris": {"android": "https://dc.lft.to/lastmile_qr_scan", "ios": "https://dc.lft.to/lastmile_qr_scan"}, "type": "electric_scooter"}, {"is_reserved": 0, "is_disabled": 0, "fusion_lon": 0.0, "lat": 38.9185565, "name": "5e328ceeb0b002a14af98b2b9b10d0bd", "bike_id": "5e328ceeb0b002a14af98b2b9b10d0bd", "lon": -77.03225216666667, "fusion_lat": 0.0, "rental_uris": {"android": "https://dc.lft.to/lastmile_qr_scan", "ios": "https://dc.lft.to/lastmile_qr_scan"}, "type": "electric_scooter"}, {"is_reserved": 0, "is_disabled": 0, "fusion_lon": 0.0, "lat": 38.92228216666667, "name": "173f923a0519b2c16a036139bcf5b3e4", "bike_id": "173f923a0519b2c16a036139bcf5b3e4", "lon": -77.02115666666667, "fusion_lat": 0.0, "rental_uris": {"android": "https://dc.lft.to/lastmile_qr_scan", "ios": "https://dc.lft.to/lastmile_qr_scan"}, "type": "electric_scooter"}, {"is_reserved": 0, "is_disabled": 0, "fusion_lon": 0.0, "lat": 38.902393000000004, "name": "9fe2dfed450df3775648ab068d015d79", "bike_id": "9fe2dfed450df3775648ab068d015d79", "lon": -77.00198066666667, "fusion_lat": 0.0, "rental_uris": {"android": "https://dc.lft.to/lastmile_qr_scan", "ios": "https://dc.lft.to/lastmile_qr_scan"}, "type": "electric_scooter"}, {"is_reserved": 0, "is_disabled": 0, "fusion_lon": 0.0, "lat": 38.9206535, "name": "393be047b0640636b07105afd5bfd407", "bike_id": "393be047b0640636b07105afd5bfd407", "lon": -77.03468983333333, "fusion_lat": 0.0, "rental_uris": {"android": "https://dc.lft.to/lastmile_qr_scan", "ios": "https://dc.lft.to/lastmile_qr_scan"}, "type": "electric_scooter"}, {"is_reserved": 0, "is_disabled": 0, "fusion_lon": 0.0, "lat": 38.93866516666667, "name": "2bf734501f03bc2e41a31cc52757a3e3", "bike_id": "2bf734501f03bc2e41a31cc52757a3e3", "lon": -77.03043683333334, "fusion_lat": 0.0, "rental_uris": {"android": "https://dc.lft.to/lastmile_qr_scan", "ios": "https://dc.lft.to/lastmile_qr_scan"}, "type": "electric_scooter"}, {"is_reserved": 0, "is_disabled": 0, "fusion_lon": 0.0, "lat": 38.909079166666665, "name": "657bbaad3cc14248788427e90fc7f6a1", "bike_id": "657bbaad3cc14248788427e90fc7f6a1", "lon": -77.07283716666667, "fusion_lat": 0.0, "rental_uris": {"android": "https://dc.lft.to/lastmile_qr_scan", "ios": "https://dc.lft.to/lastmile_qr_scan"}, "type": "electric_scooter"}, {"is_reserved": 0, "is_disabled": 0, "fusion_lon": 0.0, "lat": 38.87669433333333, "name": "e8b6e47d67ea1914bf10daa6b33dda71", "bike_id": "e8b6e47d67ea1914bf10daa6b33dda71", "lon": -77.004153, "fusion_lat": 0.0, "rental_uris": {"android": "https://dc.lft.to/lastmile_qr_scan", "ios": "https://dc.lft.to/lastmile_qr_scan"}, "type": "electric_scooter"}, {"is_reserved": 0, "is_disabled": 0, "fusion_lon": 0.0, "lat": 38.882817833333334, "name": "ee95fc563887f2725e7f17a8c76cc519", "bike_id": "ee95fc563887f2725e7f17a8c76cc519", "lon": -76.932445, "fusion_lat": 0.0, "rental_uris": {"android": "https://dc.lft.to/lastmile_qr_scan", "ios": "https://dc.lft.to/lastmile_qr_scan"}, "type": "electric_bike"}, {"is_reserved": 0, "is_disabled": 0, "fusion_lon": 0.0, "lat": 38.914497833333336, "name": "069df1bc4de3af836e6e7b4addce0720", "bike_id": "069df1bc4de3af836e6e7b4addce0720", "lon": -76.97278616666667, "fusion_lat": 0.0, "rental_uris": {"android": "https://dc.lft.to/lastmile_qr_scan", "ios": "https://dc.lft.to/lastmile_qr_scan"}, "type": "electric_bike"}, {"is_reserved": 0, "is_disabled": 0, "fusion_lon": 0.0, "lat": 38.84703316666667, "name": "a1183eccc45d943b394357578367962e", "bike_id": "a1183eccc45d943b394357578367962e", "lon": -76.99613016666666, "fusion_lat": 0.0, "rental_uris": {"android": "https://dc.lft.to/lastmile_qr_scan", "ios": "https://dc.lft.to/lastmile_qr_scan"}, "type": "electric_bike"}, {"is_reserved": 0, "is_disabled": 0, "fusion_lon": 0.0, "lat": 38.92455283333334, "name": "25d3e3c27f8f44bdc779c11543e95233", "bike_id": "25d3e3c27f8f44bdc779c11543e95233", "lon": -77.03285966666667, "fusion_lat": 0.0, "rental_uris": {"android": "https://dc.lft.to/lastmile_qr_scan", "ios": "https://dc.lft.to/lastmile_qr_scan"}, "type": "electric_scooter"}, {"is_reserved": 0, "is_disabled": 0, "fusion_lon": 0.0, "lat": 38.92248566666667, "name": "483d94d4992aff1132ccb511916b6ffc", "bike_id": "483d94d4992aff1132ccb511916b6ffc", "lon": -77.03065133333334, "fusion_lat": 0.0, "rental_uris": {"android": "https://dc.lft.to/lastmile_qr_scan", "ios": "https://dc.lft.to/lastmile_qr_scan"}, "type": "electric_scooter"}, {"is_reserved": 0, "is_disabled": 0, "fusion_lon": 0.0, "lat": 38.90114483333333, "name": "7c60338284f521d4c5c181b3266fcd6f", "bike_id": "7c60338284f521d4c5c181b3266fcd6f", "lon": -77.02191966666666, "fusion_lat": 0.0, "rental_uris": {"android": "https://dc.lft.to/lastmile_qr_scan", "ios": "https://dc.lft.to/lastmile_qr_scan"}, "type": "electric_scooter"}, {"is_reserved": 0, "is_disabled": 0, "fusion_lon": 0.0, "lat": 38.8315925, "name": "0f9b5159a35455626306e44a090cdd41", "bike_id": "0f9b5159a35455626306e44a090cdd41", "lon": -76.99572733333333, "fusion_lat": 0.0, "rental_uris": {"android": "https://dc.lft.to/lastmile_qr_scan", "ios": "https://dc.lft.to/lastmile_qr_scan"}, "type": "electric_bike"}, {"is_reserved": 0, "is_disabled": 0, "fusion_lon": 0.0, "lat": 38.92366, "name": "053a0d30ca303c276725479c5df7c7d5", "bike_id": "053a0d30ca303c276725479c5df7c7d5", "lon": -77.01955916666667, "fusion_lat": 0.0, "rental_uris": {"android": "https://dc.lft.to/lastmile_qr_scan", "ios": "https://dc.lft.to/lastmile_qr_scan"}, "type": "electric_scooter"}, {"is_reserved": 0, "is_disabled": 0, "fusion_lon": 0.0, "lat": 38.91270883333333, "name": "db76ea6340b2f3576f5aba7e091bb56d", "bike_id": "db76ea6340b2f3576f5aba7e091bb56d", "lon": -77.03184916666666, "fusion_lat": 0.0, "rental_uris": {"android": "https://dc.lft.to/lastmile_qr_scan", "ios": "https://dc.lft.to/lastmile_qr_scan"}, "type": "electric_scooter"}, {"is_reserved": 0, "is_disabled": 0, "fusion_lon": 0.0, "lat": 38.925987, "name": "eeaad98e5468fabd7bf0ee5c56afce29", "bike_id": "eeaad98e5468fabd7bf0ee5c56afce29", "lon": -77.02154166666666, "fusion_lat": 0.0, "rental_uris": {"android": "https://dc.lft.to/lastmile_qr_scan", "ios": "https://dc.lft.to/lastmile_qr_scan"}, "type": "electric_scooter"}, {"is_reserved": 0, "is_disabled": 0, "fusion_lon": 0.0, "lat": 38.91682316666667, "name": "6a0b00fe2449e2fede4c4ed6e56b0353", "bike_id": "6a0b00fe2449e2fede4c4ed6e56b0353", "lon": -77.02949383333333, "fusion_lat": 0.0, "rental_uris": {"android": "https://dc.lft.to/lastmile_qr_scan", "ios": "https://dc.lft.to/lastmile_qr_scan"}, "type": "electric_scooter"}, {"is_reserved": 0, "is_disabled": 0, "fusion_lon": 0.0, "lat": 38.928222, "name": "f83fd185d41d0c4b664d6f1c42d7dcbb", "bike_id": "f83fd185d41d0c4b664d6f1c42d7dcbb", "lon": -77.02235683333333, "fusion_lat": 0.0, "rental_uris": {"android": "https://dc.lft.to/lastmile_qr_scan", "ios": "https://dc.lft.to/lastmile_qr_scan"}, "type": "electric_scooter"}, {"is_reserved": 0, "is_disabled": 0, "fusion_lon": 0.0, "lat": 38.87198216666667, "name": "08fbd4a5311711bb4b3fe74ccdf7a7bb", "bike_id": "08fbd4a5311711bb4b3fe74ccdf7a7bb", "lon": -77.00574983333334, "fusion_lat": 0.0, "rental_uris": {"android": "https://dc.lft.to/lastmile_qr_scan", "ios": "https://dc.lft.to/lastmile_qr_scan"}, "type": "electric_scooter"}, {"is_reserved": 0, "is_disabled": 0, "fusion_lon": 0.0, "lat": 38.904778, "name": "86b27fa0d5ccff83fab34c315d47fa67", "bike_id": "86b27fa0d5ccff83fab34c315d47fa67", "lon": -77.02718166666666, "fusion_lat": 0.0, "rental_uris": {"android": "https://dc.lft.to/lastmile_qr_scan", "ios": "https://dc.lft.to/lastmile_qr_scan"}, "type": "electric_scooter"}, {"is_reserved": 0, "is_disabled": 0, "fusion_lon": 0.0, "lat": 38.913639333333336, "name": "130f3b8c062e8bc810e6e886f0851aec", "bike_id": "130f3b8c062e8bc810e6e886f0851aec", "lon": -77.09189916666666, "fusion_lat": 0.0, "rental_uris": {"android": "https://dc.lft.to/lastmile_qr_scan", "ios": "https://dc.lft.to/lastmile_qr_scan"}, "type": "electric_scooter"}, {"is_reserved": 0, "is_disabled": 0, "fusion_lon": 0.0, "lat": 38.922550333333334, "name": "a58e4a02670d3fdbc15681c0a919c334", "bike_id": "a58e4a02670d3fdbc15681c0a919c334", "lon": -77.04249016666667, "fusion_lat": 0.0, "rental_uris": {"android": "https://dc.lft.to/lastmile_qr_scan", "ios": "https://dc.lft.to/lastmile_qr_scan"}, "type": "electric_scooter"}, {"is_reserved": 0, "is_disabled": 0, "fusion_lon": 0.0, "lat": 38.89980833333333, "name": "1f6093f9e8404eae40df247444122b39", "bike_id": "1f6093f9e8404eae40df247444122b39", "lon": -77.041921, "fusion_lat": 0.0, "rental_uris": {"android": "https://dc.lft.to/lastmile_qr_scan", "ios": "https://dc.lft.to/lastmile_qr_scan"}, "type": "electric_scooter"}, {"is_reserved": 0, "is_disabled": 0, "fusion_lon": 0.0, "lat": 38.930050666666666, "name": "fb489e8fc0cd6a3fa3d8589ded6758b5", "bike_id": "fb489e8fc0cd6a3fa3d8589ded6758b5", "lon": -77.01452583333334, "fusion_lat": 0.0, "rental_uris": {"android": "https://dc.lft.to/lastmile_qr_scan", "ios": "https://dc.lft.to/lastmile_qr_scan"}, "type": "electric_scooter"}, {"is_reserved": 0, "is_disabled": 0, "fusion_lon": 0.0, "lat": 38.917005333333336, "name": "26a08d5be784f345a838ee302f521a4d", "bike_id": "26a08d5be784f345a838ee302f521a4d", "lon": -77.038018, "fusion_lat": 0.0, "rental_uris": {"android": "https://dc.lft.to/lastmile_qr_scan", "ios": "https://dc.lft.to/lastmile_qr_scan"}, "type": "electric_scooter"}, {"is_reserved": 0, "is_disabled": 0, "fusion_lon": 0.0, "lat": 38.887899166666664, "name": "2052ab5a613a67451b52de1c29447089", "bike_id": "2052ab5a613a67451b52de1c29447089", "lon": -77.01594433333334, "fusion_lat": 0.0, "rental_uris": {"android": "https://dc.lft.to/lastmile_qr_scan", "ios": "https://dc.lft.to/lastmile_qr_scan"}, "type": "electric_scooter"}, {"is_reserved": 0, "is_disabled": 0, "fusion_lon": 0.0, "lat": 38.95352883333334, "name": "43710abbc0128d49c399ad8250b54451", "bike_id": "43710abbc0128d49c399ad8250b54451", "lon": -76.980911, "fusion_lat": 0.0, "rental_uris": {"android": "https://dc.lft.to/lastmile_qr_scan", "ios": "https://dc.lft.to/lastmile_qr_scan"}, "type": "electric_bike"}, {"is_reserved": 0, "is_disabled": 0, "fusion_lon": 0.0, "lat": 38.89851816666667, "name": "65062aea201debead26d777696261108", "bike_id": "65062aea201debead26d777696261108", "lon": -76.9318735, "fusion_lat": 0.0, "rental_uris": {"android": "https://dc.lft.to/lastmile_qr_scan", "ios": "https://dc.lft.to/lastmile_qr_scan"}, "type": "electric_bike"}, {"is_reserved": 0, "is_disabled": 0, "fusion_lon": 0.0, "lat": 38.9230605, "name": "891ccaa65db494d59e84d1c577743e6e", "bike_id": "891ccaa65db494d59e84d1c577743e6e", "lon": -77.03111033333333, "fusion_lat": 0.0, "rental_uris": {"android": "https://dc.lft.to/lastmile_qr_scan", "ios": "https://dc.lft.to/lastmile_qr_scan"}, "type": "electric_scooter"}, {"is_reserved": 0, "is_disabled": 0, "fusion_lon": 0.0, "lat": 38.8887175, "name": "59e21368a98bad170ec1a6f043e13217", "bike_id": "59e21368a98bad170ec1a6f043e13217", "lon": -76.98674533333333, "fusion_lat": 0.0, "rental_uris": {"android": "https://dc.lft.to/lastmile_qr_scan", "ios": "https://dc.lft.to/lastmile_qr_scan"}, "type": "electric_scooter"}, {"is_reserved": 0, "is_disabled": 0, "fusion_lon": 0.0, "lat": 38.916039166666664, "name": "2baf8793c7eb787d1f1b7f9eb8cd3568", "bike_id": "2baf8793c7eb787d1f1b7f9eb8cd3568", "lon": -77.03211333333333, "fusion_lat": 0.0, "rental_uris": {"android": "https://dc.lft.to/lastmile_qr_scan", "ios": "https://dc.lft.to/lastmile_qr_scan"}, "type": "electric_scooter"}, {"is_reserved": 0, "is_disabled": 0, "fusion_lon": 0.0, "lat": 38.93312016666667, "name": "d4986175585e87d7737d0570285d312d", "bike_id": "d4986175585e87d7737d0570285d312d", "lon": -77.03078566666667, "fusion_lat": 0.0, "rental_uris": {"android": "https://dc.lft.to/lastmile_qr_scan", "ios": "https://dc.lft.to/lastmile_qr_scan"}, "type": "electric_scooter"}, {"is_reserved": 0, "is_disabled": 0, "fusion_lon": 0.0, "lat": 38.90148416666667, "name": "a8c6dd9718699042d5028b3aad780806", "bike_id": "a8c6dd9718699042d5028b3aad780806", "lon": -77.02481283333333, "fusion_lat": 0.0, "rental_uris": {"android": "https://dc.lft.to/lastmile_qr_scan", "ios": "https://dc.lft.to/lastmile_qr_scan"}, "type": "electric_scooter"}, {"is_reserved": 0, "is_disabled": 0, "fusion_lon": 0.0, "lat": 38.902689, "name": "cef2957ab39e0f0d3527f4a749607dad", "bike_id": "cef2957ab39e0f0d3527f4a749607dad", "lon": -77.060106, "fusion_lat": 0.0, "rental_uris": {"android": "https://dc.lft.to/lastmile_qr_scan", "ios": "https://dc.lft.to/lastmile_qr_scan"}, "type": "electric_scooter"},