{"data": {"bikes": [{"name": "fa196c0f95640271e32ca1ff9fee6e36", "type": "electric_scooter", "lat": 38.90555033333333, "is_reserved": 0, "lon": -77.03999933333333, "fusion_lon": 0.0, "is_disabled": 0, "fusion_lat": 0.0, "bike_id": "fa196c0f95640271e32ca1ff9fee6e36", "rental_uris": {"ios": "https://dc.lft.to/lastmile_qr_scan", "android": "https://dc.lft.to/lastmile_qr_scan"}}, {"name": "97329d969a249f7122a5f180d1b70f12", "type": "electric_scooter", "lat": 38.90575166666667, "is_reserved": 0, "lon": -77.04037083333333, "fusion_lon": 0.0, "is_disabled": 0, "fusion_lat": 0.0, "bike_id": "97329d969a249f7122a5f180d1b70f12", "rental_uris": {"ios": "https://dc.lft.to/lastmile_qr_scan", "android": "https://dc.lft.to/lastmile_qr_scan"}}, {"name": "e59a813929d1b5f394a108ac9a69e44f", "type": "electric_scooter", "lat": 38.928711166666666, "is_reserved": 0, "lon": -77.034198, "fusion_lon": 0.0, "is_disabled": 0, "fusion_lat": 0.0, "bike_id": "e59a813929d1b5f394a108ac9a69e44f", "rental_uris": {"ios": "https://dc.lft.to/lastmile_qr_scan", "android": "https://dc.lft.to/lastmile_qr_scan"}}, {"name": "a9dd2fe8d732e3160ceb2b626dc9682f", "type": "electric_scooter", "lat": 38.901315333333336, "is_reserved": 0, "lon": -77.04998683333334, "fusion_lon": 0.0, "is_disabled": 0, "fusion_lat": 0.0, "bike_id": "a9dd2fe8d732e3160ceb2b626dc9682f", "rental_uris": {"ios": "https://dc.lft.to/lastmile_qr_scan", "android": "https://dc.lft.to/lastmile_qr_scan"}}, {"name": "305991d89d3200776f150b228cf2bf6b", "type": "electric_scooter", "lat": 38.901596, "is_reserved": 0, "lon": -76.97513166666667, "fusion_lon": 0.0, "is_disabled": 0, "fusion_lat": 0.0, "bike_id": "305991d89d3200776f150b228cf2bf6b", "rental_uris": {"ios": "https://dc.lft.to/lastmile_qr_scan", "android": "https://dc.lft.to/lastmile_qr_scan"}}, {"name": "4da34e1c87fe7eccd582fc2ba89dfb0d", "type": "electric_scooter", "lat": 38.90506883333333, "is_reserved": 0, "lon": -77.05113466666667, "fusion_lon": 0.0, "is_disabled": 0, "fusion_lat": 0.0, "bike_id": "4da34e1c87fe7eccd582fc2ba89dfb0d", "rental_uris": {"ios": "https://dc.lft.to/lastmile_qr_scan", "android": "https://dc.lft.to/lastmile_qr_scan"}}, {"name": "d065713c9a40b27327fab0934524bafb", "type": "electric_scooter", "lat": 38.8971825, "is_reserved": 0, "lon": -77.02635616666667, "fusion_lon": 0.0, "is_disabled": 0, "fusion_lat": 0.0, "bike_id": "d065713c9a40b27327fab0934524bafb", "rental_uris": {"ios": "https://dc.lft.to/lastmile_qr_scan", "android": "https://dc.lft.to/lastmile_qr_scan"}}, {"name": "cc7547dcb6d5afce8bcea18f418e7a5e", "type": "electric_scooter", "lat": 38.933346666666665, "is_reserved": 0, "lon": -77.03282166666666, "fusion_lon": 0.0, "is_disabled": 0, "fusion_lat": 0.0, "bike_id": "cc7547dcb6d5afce8bcea18f418e7a5e", "rental_uris": {"ios": "https://dc.lft.to/lastmile_qr_scan", "android": "https://dc.lft.to/lastmile_qr_scan"}}, {"name": "221b0f47b31a9d49d6bcc39bc4e68868", "type": "electric_bike", "lat": 38.902963, "is_reserved": 0, "lon": -76.94442983333333, "fusion_lon": 0.0, "is_disabled": 0, "fusion_lat": 0.0, "bike_id": "221b0f47b31a9d49d6bcc39bc4e68868", "rental_uris": {"ios": "https://dc.lft.to/lastmile_qr_scan", "android": "https://dc.lft.to/lastmile_qr_scan"}}, {"name": "57c0b379cc733ff0fc1169fdd1ef0d49", "type": "electric_bike", "lat": 38.83803316666667, "is_reserved": 0, "lon": -76.99836316666666, "fusion_lon": 0.0, "is_disabled": 0, "fusion_lat": 0.0, "bike_id": "57c0b379cc733ff0fc1169fdd1ef0d49", "rental_uris": {"ios": "https://dc.lft.to/lastmile_qr_scan", "android": "https://dc.lft.to/lastmile_qr_scan"}}, {"name": "71a158c7ce47caa96274bf6e9aa4c9ce", "type": "electric_scooter", "lat": 38.932338666666666, "is_reserved": 0, "lon": -77.038245, "fusion_lon": 0.0, "is_disabled": 0, "fusion_lat": 0.0, "bike_id": "71a158c7ce47caa96274bf6e9aa4c9ce", "rental_uris": {"ios": "https://dc.lft.to/lastmile_qr_scan", "android": "https://dc.lft.to/lastmile_qr_scan"}}, {"name": "793bde6895918c335eeb4c9e29fd8e40", "type": "electric_scooter", "lat": 38.9006565, "is_reserved": 0, "lon": -76.98711533333334, "fusion_lon": 0.0, "is_disabled": 0, "fusion_lat": 0.0, "bike_id": "793bde6895918c335eeb4c9e29fd8e40", "rental_uris": {"ios": "https://dc.lft.to/lastmile_qr_scan", "android": "https://dc.lft.to/lastmile_qr_scan"}}, {"name": "23aaac5c85fe396380da24a732492150", "type": "electric_scooter", "lat": 38.884903333333334, "is_reserved": 0, "lon": -77.0070815, "fusion_lon": 0.0, "is_disabled": 0, "fusion_lat": 0.0, "bike_id": "23aaac5c85fe396380da24a732492150", "rental_uris": {"ios": "https://dc.lft.to/lastmile_qr_scan", "android": "https://dc.lft.to/lastmile_qr_scan"}}, {"name": "01e70e80fcf52419bce9f9c5bf0b5862", "type": "electric_scooter", "lat": 38.9031985, "is_reserved": 0, "lon": -77.03200133333333, "fusion_lon": 0.0, "is_disabled": 0, "fusion_lat": 0.0, "bike_id": "01e70e80fcf52419bce9f9c5bf0b5862", "rental_uris": {"ios": "https://dc.lft.to/lastmile_qr_scan", "android": "https://dc.lft.to/lastmile_qr_scan"}}, {"name": "9ad2ccfffe807fdf7c694e5dbad9d786", "type": "electric_scooter", "lat": 38.907286166666665, "is_reserved": 0, "lon": -77.04034183333333, "fusion_lon": 0.0, "is_disabled": 0, "fusion_lat": 0.0, "bike_id": "9ad2ccfffe807fdf7c694e5dbad9d786", "rental_uris": {"ios": "https://dc.lft.to/lastmile_qr_scan", "android": "https://dc.lft.to/lastmile_qr_scan"}}, {"name": "54964115b85f82f3f5210f3e44d36a44", "type": "electric_scooter", "lat": 38.936134833333334, "is_reserved": 0, "lon": -77.022502, "fusion_lon": 0.0, "is_disabled": 0, "fusion_lat": 0.0, "bike_id": "54964115b85f82f3f5210f3e44d36a44", "rental_uris": {"ios": "https://dc.lft.to/lastmile_qr_scan", "android": "https://dc.lft.to/lastmile_qr_scan"}}, {"name": "d64d639693dc7367ae34b41469de9ed7", "type": "electric_scooter", "lat": 38.88535666666667, "is_reserved": 0, "lon": -77.0057995, "fusion_lon": 0.0, "is_disabled": 0, "fusion_lat": 0.0, "bike_id": "d64d639693dc7367ae34b41469de9ed7", "rental_uris": {"ios": "https://dc.lft.to/lastmile_qr_scan", "android": "https://dc.lft.to/lastmile_qr_scan"}}, {"name": "6dacd55dc21b4ff5feb7a706adc13643", "type": "electric_scooter", "lat": 38.896100833333335, "is_reserved": 0, "lon": -77.045595, "fusion_lon": 0.0, "is_disabled": 0, "fusion_lat": 0.0, "bike_id": "6dacd55dc21b4ff5feb7a706adc13643", "rental_uris": {"ios": "https://dc.lft.to/lastmile_qr_scan", "android": "https://dc.lft.to/lastmile_qr_scan"}}, {"name": "ef31cf0b41082737c4e43d20346c87dd", "type": "electric_bike", "lat": 38.81037383333334, "is_reserved": 0, "lon": -77.08496083333333, "fusion_lon": 0.0, "is_disabled": 0, "fusion_lat": 0.0, "bike_id": "ef31cf0b41082737c4e43d20346c87dd", "rental_uris": {"ios": "https://dc.lft.to/lastmile_qr_scan", "android": "https://dc.lft.to/lastmile_qr_scan"}}, {"name": "ffdd7313365f0cc89e0fd0fbb786dc07", "type": "electric_scooter", "lat": 38.86240166666666, "is_reserved": 0, "lon": -76.994952, "fusion_lon": 0.0, "is_disabled": 0, "fusion_lat": 0.0, "bike_id": "ffdd7313365f0cc89e0fd0fbb786dc07", "rental_uris": {"ios": "https://dc.lft.to/lastmile_qr_scan", "android": "https://dc.lft.to/lastmile_qr_scan"}}, {"name": "791edf3e2ab16a85757dd7676147ccbe", "type": "electric_scooter", "lat": 38.92270533333333, "is_reserved": 0, "lon": -77.01825016666666, "fusion_lon": 0.0, "is_disabled": 0, "fusion_lat": 0.0, "bike_id": "791edf3e2ab16a85757dd7676147ccbe", "rental_uris": {"ios": "https://dc.lft.to/lastmile_qr_scan", "android": "https://dc.lft.to/lastmile_qr_scan"}}, {"name": "b80a8cf39518258a88b959c8516d6e23", "type": "electric_scooter", "lat": 38.87013183333333, "is_reserved": 0, "lon": -77.0122365, "fusion_lon": 0.0, "is_disabled": 0, "fusion_lat": 0.0, "bike_id": "b80a8cf39518258a88b959c8516d6e23", "rental_uris": {"ios": "https://dc.lft.to/lastmile_qr_scan", "android": "https://dc.lft.to/lastmile_qr_scan"}}, {"name": "4d27dbdfa6adb00e9e83fca733f2dac4", "type": "electric_scooter", "lat": 38.944632, "is_reserved": 0, "lon": -77.006557, "fusion_lon": 0.0, "is_disabled": 0, "fusion_lat": 0.0, "bike_id": "4d27dbdfa6adb00e9e83fca733f2dac4", "rental_uris": {"ios": "https://dc.lft.to/lastmile_qr_scan", "android": "https://dc.lft.to/lastmile_qr_scan"}}, {"name": "b24c54407e4328afa58888433159d77e", "type": "electric_scooter", "lat": 38.865656666666666, "is_reserved": 0, "lon": -76.98550033333333, "fusion_lon": 0.0, "is_disabled": 0, "fusion_lat": 0.0, "bike_id": "b24c54407e4328afa58888433159d77e", "rental_uris": {"ios": "https://dc.lft.to/lastmile_qr_scan", "android": "https://dc.lft.to/lastmile_qr_scan"}}, {"name": "9455b8f00313ff87a2b351222773b01e", "type": "electric_scooter", "lat": 38.90807866666667, "is_reserved": 0, "lon": -77.0367055, "fusion_lon": 0.0, "is_disabled": 0, "fusion_lat": 0.0, "bike_id": "9455b8f00313ff87a2b351222773b01e", "rental_uris": {"ios": "https://dc.lft.to/lastmile_qr_scan", "android": "https://dc.lft.to/lastmile_qr_scan"}}, {"name": "ea79a120f385484324d52d4d4785388d", "type": "electric_bike", "lat": 38.869870166666665, "is_reserved": 0, "lon": -76.95987833333334, "fusion_lon": 0.0, "is_disabled": 0, "fusion_lat": 0.0, "bike_id": "ea79a120f385484324d52d4d4785388d", "rental_uris": {"ios": "https://dc.lft.to/lastmile_qr_scan", "android": "https://dc.lft.to/lastmile_qr_scan"}}, {"name": "e032ee0b426035d69e734df043dbe56f", "type": "electric_bike", "lat": 38.98506283333333, "is_reserved": 0, "lon": -76.98200833333334, "fusion_lon": 0.0, "is_disabled": 0, "fusion_lat": 0.0, "bike_id": "e032ee0b426035d69e734df043dbe56f", "rental_uris": {"ios": "https://dc.lft.to/lastmile_qr_scan", "android": "https://dc.lft.to/lastmile_qr_scan"}}, {"name": "e47aa0817ad7106653a63b1e4e2d6f2e", "type": "electric_scooter", "lat": 38.90962116666667, "is_reserved": 0, "lon": -77.04653683333333, "fusion_lon": 0.0, "is_disabled": 0, "fusion_lat": 0.0, "bike_id": "e47aa0817ad7106653a63b1e4e2d6f2e", "rental_uris": {"ios": "https://dc.lft.to/lastmile_qr_scan", "android": "https://dc.lft.to/lastmile_qr_scan"}}, {"name": "7710cf7977e9cb4c1eabdad7886edf69", "type": "electric_scooter", "lat": 38.95922733333333, "is_reserved": 0, "lon": -77.033263, "fusion_lon": 0.0, "is_disabled": 0, "fusion_lat": 0.0, "bike_id": "7710cf7977e9cb4c1eabdad7886edf69", "rental_uris": {"ios": "https://dc.lft.to/lastmile_qr_scan", "android": "https://dc.lft.to/lastmile_qr_scan"}}, {"name": "2823e695d51ef13f2438748b13982d61", "type": "electric_scooter", "lat": 38.90350166666666, "is_reserved": 0, "lon": -77.03831483333333, "fusion_lon": 0.0, "is_disabled": 0, "fusion_lat": 0.0, "bike_id": "2823e695d51ef13f2438748b13982d61", "rental_uris": {"ios": "https://dc.lft.to/lastmile_qr_scan", "android": "https://dc.lft.to/lastmile_qr_scan"}}, {"name": "9c7e3f8370ad9b8b9f9d413d53903dc5", "type": "electric_scooter", "lat": 38.9053825, "is_reserved": 0, "lon": -77.027016, "fusion_lon": 0.0, "is_disabled": 0, "fusion_lat": 0.0, "bike_id": "9c7e3f8370ad9b8b9f9d413d53903dc5", "rental_uris": {"ios": "https://dc.lft.to/lastmile_qr_scan", "android": "https://dc.lft.to/lastmile_qr_scan"}}, {"name": "c7a604d993d67ba6ea81074aaee14c51", "type": "electric_scooter", "lat": 38.912455333333334, "is_reserved": 0, "lon": -77.04876416666667, "fusion_lon": 0.0, "is_disabled": 0, "fusion_lat": 0.0, "bike_id": "c7a604d993d67ba6ea81074aaee14c51", "rental_uris": {"ios": "https://dc.lft.to/lastmile_qr_scan", "android": "https://dc.lft.to/lastmile_qr_scan"}}, {"name": "c45c375b52456935c2cb036d146d19f7", "type": "electric_scooter", "lat": 38.92438333333333, "is_reserved": 0, "lon": -77.04252966666667, "fusion_lon": 0.0, "is_disabled": 0, "fusion_lat": 0.0, "bike_id": "c45c375b52456935c2cb036d146d19f7", "rental_uris": {"ios": "https://dc.lft.to/lastmile_qr_scan", "android": "https://dc.lft.to/lastmile_qr_scan"}}, {"name": "e8db766125835afe5c1123868daf69b2", "type": "electric_scooter", "lat": 38.920143, "is_reserved": 0, "lon": -77.03778733333333, "fusion_lon": 0.0, "is_disabled": 0, "fusion_lat": 0.0, "bike_id": "e8db766125835afe5c1123868daf69b2", "rental_uris": {"ios": "https://dc.lft.to/lastmile_qr_scan", "android": "https://dc.lft.to/lastmile_qr_scan"}}, {"name": "5a7a4a8271cd02fe9bba854077eff2cf", "type": "electric_scooter", "lat": 38.902821833333334, "is_reserved": 0, "lon": -77.0383655, "fusion_lon": 0.0, "is_disabled": 0, "fusion_lat": 0.0, "bike_id": "5a7a4a8271cd02fe9bba854077eff2cf", "rental_uris": {"ios": "https://dc.lft.to/lastmile_qr_scan", "android": "https://dc.lft.to/lastmile_qr_scan"}}, {"name": "36b617fdff2f4b4ca22bb8ccb22c9490", "type": "electric_scooter", "lat": 38.8696055, "is_reserved": 0, "lon": -77.01375116666667, "fusion_lon": 0.0, "is_disabled": 0, "fusion_lat": 0.0, "bike_id": "36b617fdff2f4b4ca22bb8ccb22c9490", "rental_uris": {"ios": "https://dc.lft.to/lastmile_qr_scan", "android": "https://dc.lft.to/lastmile_qr_scan"}}, {"name": "fe8f319890e75100c8fff928a7516a94", "type": "electric_scooter", "lat": 38.909696833333335, "is_reserved": 0, "lon": -77.03123616666667, "fusion_lon": 0.0, "is_disabled": 0, "fusion_lat": 0.0, "bike_id": "fe8f319890e75100c8fff928a7516a94", "rental_uris": {"ios": "https://dc.lft.to/lastmile_qr_scan", "android": "https://dc.lft.to/lastmile_qr_scan"}}, {"name": "1f18ae4066b705227bce04dad4f759b9", "type": "electric_scooter", "lat": 38.897200166666664, "is_reserved": 0, "lon": -77.02705516666667, "fusion_lon": 0.0, "is_disabled": 0, "fusion_lat": 0.0, "bike_id": "1f18ae4066b705227bce04dad4f759b9", "rental_uris": {"ios": "https://dc.lft.to/lastmile_qr_scan", "android": "https://dc.lft.to/lastmile_qr_scan"}}, {"name": "e376b9c04cd569ba451530ee625bba0c", "type": "electric_bike", "lat": 38.959321, "is_reserved": 0, "lon": -76.9254, "fusion_lon": 0.0, "is_disabled": 0, "fusion_lat": 0.0, "bike_id": "e376b9c04cd569ba451530ee625bba0c", "rental_uris": {"ios": "https://dc.lft.to/lastmile_qr_scan", "android": "https://dc.lft.to/lastmile_qr_scan"}}, {"name": "a19e447e98ca63f9c0a2e4815a65c5f5", "type": "electric_scooter", "lat": 38.97495466666667, "is_reserved": 0, "lon": -77.01690166666667, "fusion_lon": 0.0, "is_disabled": 0, "fusion_lat": 0.0, "bike_id": "a19e447e98ca63f9c0a2e4815a65c5f5", "rental_uris": {"ios": "https://dc.lft.to/lastmile_qr_scan", "android": "https://dc.lft.to/lastmile_qr_scan"}}, {"name": "f188cdd6c2e7d819cd2f5a6a91fb8f0f", "type": "electric_scooter", "lat": 38.8966405, "is_reserved": 0, "lon": -77.02951533333334, "fusion_lon": 0.0, "is_disabled": 0, "fusion_lat": 0.0, "bike_id": "f188cdd6c2e7d819cd2f5a6a91fb8f0f", "rental_uris": {"ios": "https://dc.lft.to/lastmile_qr_scan", "android": "https://dc.lft.to/lastmile_qr_scan"}}, {"name": "02eed850f265606b70d8b6d52b0f6789", "type": "electric_scooter", "lat": 38.866588166666666, "is_reserved": 0, "lon": -76.9888395, "fusion_lon": 0.0, "is_disabled": 0, "fusion_lat": 0.0, "bike_id": "02eed850f265606b70d8b6d52b0f6789", "rental_uris": {"ios": "https://dc.lft.to/lastmile_qr_scan", "android": "https://dc.lft.to/lastmile_qr_scan"}}, {"name": "ad9a980526a0236bec4daef6e11eaa0b", "type": "electric_scooter", "lat": 38.921648833333336, "is_reserved": 0, "lon": -76.994063, "fusion_lon": 0.0, "is_disabled": 0, "fusion_lat": 0.0, "bike_id": "ad9a980526a0236bec4daef6e11eaa0b", "rental_uris": {"ios": "https://dc.lft.to/lastmile_qr_scan", "android": "https://dc.lft.to/lastmile_qr_scan"}}, {"name": "d0611bd3c2a8739c26bae5852a6d1995", "type": "electric_scooter", "lat": 38.90678466666667, "is_reserved": 0, "lon": -77.00039966666667, "fusion_lon": 0.0, "is_disabled": 0, "fusion_lat": 0.0, "bike_id": "d0611bd3c2a8739c26bae5852a6d1995", "rental_uris": {"ios": "https://dc.lft.to/lastmile_qr_scan", "android": "https://dc.lft.to/lastmile_qr_scan"}}, {"name": "ce36a496dce74a998a245fbf2ba0cece", "type": "electric_scooter", "lat": 38.8864245, "is_reserved": 0, "lon": -77.02137583333334, "fusion_lon": 0.0, "is_disabled": 0, "fusion_lat": 0.0, "bike_id": "ce36a496dce74a998a245fbf2ba0cece", "rental_uris": {"ios": "https://dc.lft.to/lastmile_qr_scan", "android": "https://dc.lft.to/lastmile_qr_scan"}}, {"name": "4b5be9fba1d3186607cc1de4ac821da1", "type": "electric_scooter", "lat": 38.9004225, "is_reserved": 0, "lon": -77.00196216666667, "fusion_lon": 0.0, "is_disabled": 0, "fusion_lat": 0.0, "bike_id": "4b5be9fba1d3186607cc1de4ac821da1", "rental_uris": {"ios": "https://dc.lft.to/lastmile_qr_scan", "android": "https://dc.lft.to/lastmile_qr_scan"}}, {"name": "35c2209bed85a6c26f470aa2a88b8eb2", "type": "electric_scooter", "lat": 38.90341083333333, "is_reserved": 0, "lon": -77.03824733333333, "fusion_lon": 0.0, "is_disabled": 0, "fusion_lat": 0.0, "bike_id": "35c2209bed85a6c26f470aa2a88b8eb2", "rental_uris": {"ios": "https://dc.lft.to/lastmile_qr_scan", "android": "https://dc.lft.to/lastmile_qr_scan"}}, {"name": "fb60c6d3f76ef742575ca920b4963b68", "type": "electric_scooter", "lat": 38.915724, "is_reserved": 0, "lon": -77.04683733333333, "fusion_lon": 0.0, "is_disabled": 0, "fusion_lat": 0.0, "bike_id": "fb60c6d3f76ef742575ca920b4963b68", "rental_uris": {"ios": "https://dc.lft.to/lastmile_qr_scan", "android": "https://dc.lft.to/lastmile_qr_scan"}}, {"name": "1443f63895cedb9b34c874d4360a5427", "type": "electric_bike", "lat": 38.9021665, "is_reserved": 0, "lon": -77.04358316666666, "fusion_lon": 0.0, "is_disabled": 0, "fusion_lat": 0.0, "bike_id": "1443f63895cedb9b34c874d4360a5427", "rental_uris": {"ios": "https://dc.lft.to/lastmile_qr_scan", "android": "https://dc.lft.to/lastmile_qr_scan"}}, {"name": "44ded79ff0a80544f92841f24a684a93", "type": "electric_bike", "lat": 38.87484033333333, "is_reserved": 0, "lon": -77.00234516666667, "fusion_lon": 0.0, "is_disabled": 0, "fusion_lat": 0.0, "bike_id": "44ded79ff0a80544f92841f24a684a93", "rental_uris": {"ios": "https://dc.lft.to/lastmile_qr_scan", "android": "https://dc.lft.to/lastmile_qr_scan"}}, {"name": "f76264566f2d011f26ee3c78ec0334d8", "type": "electric_scooter", "lat": 38.91991933333333, "is_reserved": 0, "lon": -77.03195333333333, "fusion_lon": 0.0, "is_disabled": 0, "fusion_lat": 0.0, "bike_id": "f76264566f2d011f26ee3c78ec0334d8", "rental_uris": {"ios": "https://dc.lft.to/lastmile_qr_scan", "android": "https://dc.lft.to/lastmile_qr_scan"}}, {"name": "e527d2177855adb6017e250fdeb1c1ee", "type": "electric_bike", "lat": 38.919591833333335, "is_reserved": 0, "lon": -76.97266666666667, "fusion_lon": 0.0, "is_disabled": 0, "fusion_lat": 0.0, "bike_id": "e527d2177855adb6017e250fdeb1c1ee", "rental_uris": {"ios": "https://dc.lft.to/lastmile_qr_scan", "android": "https://dc.lft.to/lastmile_qr_scan"}}, {"name": "638f9afdfc9185494274124c370528df", "type": "electric_scooter", "lat": 38.900512666666664, "is_reserved": 0, "lon": -77.0257905, "fusion_lon": 0.0, "is_disabled": 0, "fusion_lat": 0.0, "bike_id": "638f9afdfc9185494274124c370528df", "rental_uris": {"ios": "https://dc.lft.to/lastmile_qr_scan", "android": "https://dc.lft.to/lastmile_qr_scan"}}, {"name": "b259c4a8aa119b2c3ba82e5c69ab8ca2", "type": "electric_scooter", "lat": 38.94947883333333, "is_reserved": 0, "lon": -77.01619016666666, "fusion_lon": 0.0, "is_disabled": 0, "fusion_lat": 0.0, "bike_id": "b259c4a8aa119b2c3ba82e5c69ab8ca2", "rental_uris": {"ios": "https://dc.lft.to/lastmile_qr_scan", "android": "https://dc.lft.to/lastmile_qr_scan"}}, {"name": "b49b82049ba732427a6c7ac340e4e1f2", "type": "electric_scooter", "lat": 38.8987805, "is_reserved": 0, "lon": -76.93159633333333, "fusion_lon": 0.0, "is_disabled": 0, "fusion_lat": 0.0, "bike_id": "b49b82049ba732427a6c7ac340e4e1f2", "rental_uris": {"ios": "https://dc.lft.to/lastmile_qr_scan", "android": "https://dc.lft.to/lastmile_qr_scan"}}, {"name": "0419cc9fcc556b193ea11b63aa4121a6", "type": "electric_scooter", "lat": 38.90663266666667, "is_reserved": 0, "lon": -77.0386215, "fusion_lon": 0.0, "is_disabled": 0, "fusion_lat": 0.0, "bike_id": "0419cc9fcc556b193ea11b63aa4121a6", "rental_uris": {"ios": "https://dc.lft.to/lastmile_qr_scan", "android": "https://dc.lft.to/lastmile_qr_scan"}}, {"name": "46e6e31e34b251d556afe48959937802", "type": "electric_scooter", "lat": 38.862113, "is_reserved": 0, "lon": -76.99474066666667, "fusion_lon": 0.0, "is_disabled": 0, "fusion_lat": 0.0, "bike_id": "46e6e31e34b251d556afe48959937802", "rental_uris": {"ios": "https://dc.lft.to/lastmile_qr_scan", "android": "https://dc.lft.to/lastmile_qr_scan"}}, {"name": "5a1cd3bd7703294f42afd9e2fa33095f", "type": "electric_scooter", "lat": 38.896104, "is_reserved": 0, "lon": -77.04508083333333, "fusion_lon": 0.0, "is_disabled": 0, "fusion_lat": 0.0, "bike_id": "5a1cd3bd7703294f42afd9e2fa33095f", "rental_uris": {"ios": "https://dc.lft.to/lastmile_qr_scan", "android": "https://dc.lft.to/lastmile_qr_scan"}}, {"name": "159756ac1cf4014b4c48c18dc7780ca9", "type": "electric_scooter", "lat": 38.896831166666665, "is_reserved": 0, "lon": -76.9962725, "fusion_lon": 0.0, "is_disabled": 0, "fusion_lat": 0.0, "bike_id": "159756ac1cf4014b4c48c18dc7780ca9", "rental_uris": {"ios": "https://dc.lft.to/lastmile_qr_scan", "android": "https://dc.lft.to/lastmile_qr_scan"}}, {"name": "f6218dd2f82c8e64c825d83c9195b5fe", "type": "electric_scooter", "lat": 38.89103083333333, "is_reserved": 0, "lon": -76.9870645, "fusion_lon": 0.0, "is_disabled": 0, "fusion_lat": 0.0, "bike_id": "f6218dd2f82c8e64c825d83c9195b5fe", "rental_uris": {"ios": "https://dc.lft.to/lastmile_qr_scan", "android": "https://dc.lft.to/lastmile_qr_scan"}}, {"name": "5bdca0187b3e346c4f16ca768e7f35d1", "type": "electric_scooter", "lat": 38.915743166666665, "is_reserved": 0, "lon": -77.04609416666666, "fusion_lon": 0.0, "is_disabled": 0, "fusion_lat": 0.0, "bike_id": "5bdca0187b3e346c4f16ca768e7f35d1", "rental_uris": {"ios": "https://dc.lft.to/lastmile_qr_scan", "android": "https://dc.lft.to/lastmile_qr_scan"}}, {"name": "f3fb824985b8c97e2cd18813db0af82f", "type": "electric_scooter", "lat": 38.902902833333336, "is_reserved": 0, "lon": -77.036449, "fusion_lon": 0.0, "is_disabled": 0, "fusion_lat": 0.0, "bike_id": "f3fb824985b8c97e2cd18813db0af82f", "rental_uris": {"ios": "https://dc.lft.to/lastmile_qr_scan", "android": "https://dc.lft.to/lastmile_qr_scan"}}, {"name": "26578247a5d371cf0681eedc7df308b8", "type": "electric_scooter", "lat": 38.8747155, "is_reserved": 0, "lon": -77.018712, "fusion_lon": 0.0, "is_disabled": 0, "fusion_lat": 0.0, "bike_id": "26578247a5d371cf0681eedc7df308b8", "rental_uris": {"ios": "https://dc.lft.to/lastmile_qr_scan", "android": "https://dc.lft.to/lastmile_qr_scan"}}, {"name": "025cc8fd77ab0e88561418aadb2afa51", "type": "electric_scooter", "lat": 38.904855, "is_reserved": 0, "lon": -76.9843225, "fusion_lon": 0.0, "is_disabled": 0, "fusion_lat": 0.0, "bike_id": "025cc8fd77ab0e88561418aadb2afa51", "rental_uris": {"ios": "https://dc.lft.to/lastmile_qr_scan", "android": "https://dc.lft.to/lastmile_qr_scan"}}, {"name": "69015390dc494b264602ae23bf3eab3d", "type": "electric_scooter", "lat": 38.9180455, "is_reserved": 0, "lon": -77.03560783333333, "fusion_lon": 0.0, "is_disabled": 0, "fusion_lat": 0.0, "bike_id": "69015390dc494b264602ae23bf3eab3d", "rental_uris": {"ios": "https://dc.lft.to/lastmile_qr_scan", "android": "https://dc.lft.to/lastmile_qr_scan"}}, {"name": "7232aaf5fd439209ae664f9767fc59e8", "type": "electric_bike", "lat": 38.87091, "is_reserved": 0, "lon": -77.0120715, "fusion_lon": 0.0, "is_disabled": 0, "fusion_lat": 0.0, "bike_id": "7232aaf5fd439209ae664f9767fc59e8", "rental_uris": {"ios": "https://dc.lft.to/lastmile_qr_scan", "android": "https://dc.lft.to/lastmile_qr_scan"}}, {"name": "f93707f962af475ce6af3e1ee4a5eba8", "type": "electric_scooter", "lat": 38.899089000000004, "is_reserved": 0, "lon": -77.03925816666667, "fusion_lon": 0.0, "is_disabled": 0, "fusion_lat": 0.0, "bike_id": "f93707f962af475ce6af3e1ee4a5eba8", "rental_uris": {"ios": "https://dc.lft.to/lastmile_qr_scan", "android": "https://dc.lft.to/lastmile_qr_scan"}}, {"name": "2142416a2c6cddbb0ab5dde38a06d56b", "type": "electric_scooter", "lat": 38.898586, "is_reserved": 0, "lon": -77.04368466666666, "fusion_lon": 0.0, "is_disabled": 0, "fusion_lat": 0.0, "bike_id": "2142416a2c6cddbb0ab5dde38a06d56b", "rental_uris": {"ios": "https://dc.lft.to/lastmile_qr_scan", "android": "https://dc.lft.to/lastmile_qr_scan"}}, {"name": "d05ad13f8e6cbc3f79fec668ff820df5", "type": "electric_scooter", "lat": 38.90144883333333, "is_reserved": 0, "lon": -77.04319066666666, "fusion_lon": 0.0, "is_disabled": 0, "fusion_lat": 0.0, "bike_id": "d05ad13f8e6cbc3f79fec668ff820df5", "rental_uris": {"ios": "https://dc.lft.to/lastmile_qr_scan", "android": "https://dc.lft.to/lastmile_qr_scan"}}, {"name": "39eb8d7ff35120f31e5a9e0678de2253", "type": "electric_scooter", "lat": 38.90938966666667, "is_reserved": 0, "lon": -77.02182566666667, "fusion_lon": 0.0, "is_disabled": 0, "fusion_lat": 0.0, "bike_id": "39eb8d7ff35120f31e5a9e0678de2253", "rental_uris": {"ios": "https://dc.lft.to/lastmile_qr_scan", "android": "https://dc.lft.to/lastmile_qr_scan"}}, {"name": "2628f9ec3d31e71353e429ce7826573d", "type": "electric_bike", "lat": 38.895626666666665, "is_reserved": 0, "lon": -77.12736233333334, "fusion_lon": 0.0, "is_disabled": 0, "fusion_lat": 0.0, "bike_id": "2628f9ec3d31e71353e429ce7826573d", "rental_uris": {"ios": "https://dc.lft.to/lastmile_qr_scan", "android": "https://dc.lft.to/lastmile_qr_scan"}}, {"name": "6154bb8785fb431df499c19ca12e3278", "type": "electric_scooter", "lat": 38.902401, "is_reserved": 0, "lon": -77.03634216666667, "fusion_lon": 0.0, "is_disabled": 0, "fusion_lat": 0.0, "bike_id": "6154bb8785fb431df499c19ca12e3278", "rental_uris": {"ios": "https://dc.lft.to/lastmile_qr_scan", "android": "https://dc.lft.to/lastmile_qr_scan"}}, {"name": "3549642f9b9075c0be76472cca3ddfaa", "type": "electric_scooter", "lat": 38.92750316666667, "is_reserved": 0, "lon": -77.02486766666667, "fusion_lon": 0.0, "is_disabled": 0, "fusion_lat": 0.0, "bike_id": "3549642f9b9075c0be76472cca3ddfaa", "rental_uris": {"ios": "https://dc.lft.to/lastmile_qr_scan", "android": "https://dc.lft.to/lastmile_qr_scan"}}, {"name": "d8b50b889cd0f3afa6e3ebca227b713a", "type": "electric_scooter", "lat": 38.9080035, "is_reserved": 0, "lon": -77.04815616666667, "fusion_lon": 0.0, "is_disabled": 0, "fusion_lat": 0.0, "bike_id": "d8b50b889cd0f3afa6e3ebca227b713a", "rental_uris": {"ios": "https://dc.lft.to/lastmile_qr_scan", "android": "https://dc.lft.to/lastmile_qr_scan"}}, {"name": "0dfb639b341cefbbdc04784bb7dcd759", "type": "electric_scooter", "lat": 38.916775333333334, "is_reserved": 0, "lon": -77.0368925, "fusion_lon": 0.0, "is_disabled": 0, "fusion_lat": 0.0, "bike_id": "0dfb639b341cefbbdc04784bb7dcd759", "rental_uris": {"ios": "https://dc.lft.to/lastmile_qr_scan", "android": "https://dc.lft.to/lastmile_qr_scan"}}, {"name": "a99f1a21faf18a83fbc0fccf2c1bf897", "type": "electric_scooter", "lat": 38.9028065, "is_reserved": 0, "lon": -77.03947116666667, "fusion_lon": 0.0, "is_disabled": 0, "fusion_lat": 0.0, "bike_id": "a99f1a21faf18a83fbc0fccf2c1bf897", "rental_uris": {"ios": "https://dc.lft.to/lastmile_qr_scan", "android": "https://dc.lft.to/lastmile_qr_scan"}}, {"name": "e097328481a826d23bc035cc0b936a7c", "type": "electric_scooter", "lat": 38.89554566666666, "is_reserved": 0, "lon": -77.04160483333334, "fusion_lon": 0.0, "is_disabled": 0, "fusion_lat": 0.0, "bike_id": "e097328481a826d23bc035cc0b936a7c", "rental_uris": {"ios": "https://dc.lft.to/lastmile_qr_scan", "android": "https://dc.lft.to/lastmile_qr_scan"}}, {"name": "392a04c6101ed0d697f779ecccbe7cee", "type": "electric_bike", "lat": 38.872286833333334, "is_reserved": 0, "lon": -77.01176733333334, "fusion_lon": 0.0, "is_disabled": 0, "fusion_lat": 0.0, "bike_id": "392a04c6101ed0d697f779ecccbe7cee", "rental_uris": {"ios": "https://dc.lft.to/lastmile_qr_scan", "android": "https://dc.lft.to/lastmile_qr_scan"}}, {"name": "19ca4244b36d49c0580d5534ff2b3a4e", "type": "electric_scooter", "lat": 38.9226555, "is_reserved": 0, "lon": -77.04139383333333, "fusion_lon": 0.0, "is_disabled": 0, "fusion_lat": 0.0, "bike_id": "19ca4244b36d49c0580d5534ff2b3a4e", "rental_uris": {"ios": "https://dc.lft.to/lastmile_qr_scan", "android": "https://dc.lft.to/lastmile_qr_scan"}}, {"name": "1826e98706e08d1ea7a5cf55a67ead5c", "type": "electric_scooter", "lat": 38.93953883333333, "is_reserved": 0, "lon": -77.03265933333333, "fusion_lon": 0.0, "is_disabled": 0, "fusion_lat": 0.0, "bike_id": "1826e98706e08d1ea7a5cf55a67ead5c", "rental_uris": {"ios": "https://dc.lft.to/lastmile_qr_scan", "android": "https://dc.lft.to/lastmile_qr_scan"}}, {"name": "d5a1c18744d7f4b009de8e6914a4a534", "type": "electric_scooter", "lat": 38.88986966666667, "is_reserved": 0, "lon": -77.00335983333333, "fusion_lon": 0.0, "is_disabled": 0, "fusion_lat": 0.0, "bike_id": "d5a1c18744d7f4b009de8e6914a4a534", "rental_uris": {"ios": "https://dc.lft.to/lastmile_qr_scan", "android": "https://dc.lft.to/lastmile_qr_scan"}}, {"name": "265260b1f7c78ca4cfdf90acb37ccabb", "type": "electric_scooter", "lat": 38.952797833333335, "is_reserved": 0, "lon": -77.00791633333333, "fusion_lon": 0.0, "is_disabled": 0, "fusion_lat": 0.0, "bike_id": "265260b1f7c78ca4cfdf90acb37ccabb", "rental_uris": {"ios": "https://dc.lft.to/lastmile_qr_scan", "android": "https://dc.lft.to/lastmile_qr_scan"}}, {"name": "6816e3907c433d3605e9b0547c0fd446", "type": "electric_scooter", "lat": 38.920493666666665, "is_reserved": 0, "lon": -76.9982175, "fusion_lon": 0.0, "is_disabled": 0, "fusion_lat": 0.0, "bike_id": "6816e3907c433d3605e9b0547c0fd446", "rental_uris": {"ios": "https://dc.lft.to/lastmile_qr_scan", "android": "https://dc.lft.to/lastmile_qr_scan"}}, {"name": "35a1a5fa190f4ae85172b147d615d0fe", "type": "electric_scooter", "lat": 38.9180685, "is_reserved": 0, "lon": -77.03436716666667, "fusion_lon": 0.0, "is_disabled": 0, "fusion_lat": 0.0, "bike_id": "35a1a5fa190f4ae85172b147d615d0fe", "rental_uris": {"ios": "https://dc.lft.to/lastmile_qr_scan", "android": "https://dc.lft.to/lastmile_qr_scan"}}, {"name": "43ad6606b52bc0062e653ef33b66b174", "type": "electric_bike", "lat": 38.87306366666667, "is_reserved": 0, "lon": -77.01098683333333, "fusion_lon": 0.0, "is_disabled": 0, "fusion_lat": 0.0, "bike_id": "43ad6606b52bc0062e653ef33b66b174", "rental_uris": {"ios": "https://dc.lft.to/lastmile_qr_scan", "android": "https://dc.lft.to/lastmile_qr_scan"}}, {"name": "e8d55c9273a88542cae5ecc21d0a5668", "type": "electric_bike", "lat": 38.99063183333333, "is_reserved": 0, "lon": -77.10032216666667, "fusion_lon": 0.0, "is_disabled": 0, "fusion_lat": 0.0, "bike_id": "e8d55c9273a88542cae5ecc21d0a5668", "rental_uris": {"ios": "https://dc.lft.to/lastmile_qr_scan", "android": "https://dc.lft.to/lastmile_qr_scan"}}, {"name": "6f6a8dc582c0a1f643304ea6618985f1", "type": "electric_scooter", "lat": 38.9294985, "is_reserved": 0, "lon": -77.03469233333334, "fusion_lon": 0.0, "is_disabled": 0, "fusion_lat": 0.0, "bike_id": "6f6a8dc582c0a1f643304ea6618985f1", "rental_uris": {"ios": "https://dc.lft.to/lastmile_qr_scan", "android": "https://dc.lft.to/lastmile_qr_scan"}}, {"name": "d3d24a6ff4794e6133b1a28921c93049", "type": "electric_scooter", "lat": 38.853207166666664, "is_reserved": 0, "lon": -76.980031, "fusion_lon": 0.0, "is_disabled": 0, "fusion_lat": 0.0, "bike_id": "d3d24a6ff4794e6133b1a28921c93049", "rental_uris": {"ios": "https://dc.lft.to/lastmile_qr_scan", "android": "https://dc.lft.to/lastmile_qr_scan"}}, {"name": "a653cced6a61829707ffea08e0c234a3", "type": "electric_scooter", "lat": 38.906409333333336, "is_reserved": 0, "lon": -77.02505183333334, "fusion_lon": 0.0, "is_disabled": 0, "fusion_lat": 0.0, "bike_id": "a653cced6a61829707ffea08e0c234a3", "rental_uris": {"ios": "https://dc.lft.to/lastmile_qr_scan", "android": "https://dc.lft.to/lastmile_qr_scan"}}, {"name": "8c0284dc77dfd1050739c8ca2c47155d", "type": "electric_scooter", "lat": 38.901984, "is_reserved": 0, "lon": -77.04661583333333, "fusion_lon": 0.0, "is_disabled": 0, "fusion_lat": 0.0, "bike_id": "8c0284dc77dfd1050739c8ca2c47155d", "rental_uris": {"ios": "https://dc.lft.to/lastmile_qr_scan", "android": "https://dc.lft.to/lastmile_qr_scan"}}, {"name": "61d5e26dccb206898186103eba99d574", "type": "electric_scooter", "lat": 38.878357666666666, "is_reserved": 0, "lon": -77.02279633333333, "fusion_lon": 0.0, "is_disabled": 0, "fusion_lat": 0.0, "bike_id": "61d5e26dccb206898186103eba99d574", "rental_uris": {"ios": "https://dc.lft.to/lastmile_qr_scan", "android": "https://dc.lft.to/lastmile_qr_scan"}}, {"name": "4c91c891f818de84e5af66d1e0b7761f", "type": "electric_scooter", "lat": 38.90523066666667, "is_reserved": 0, "lon": -77.06161266666666, "fusion_lon": 0.0, "is_disabled": 0, "fusion_lat": 0.0, "bike_id": "4c91c891f818de84e5af66d1e0b7761f", "rental_uris": {"ios": "https://dc.lft.to/lastmile_qr_scan", "android": "https://dc.lft.to/lastmile_qr_scan"}}, {"name": "12212c96d6a266d7f4da7a11c50c8afc", "type": "electric_scooter", "lat": 38.91673383333333, "is_reserved": 0, "lon": -77.03636633333333, "fusion_lon": 0.0, "is_disabled": 0, "fusion_lat": 0.0, "bike_id": "12212c96d6a266d7f4da7a11c50c8afc", "rental_uris": {"ios": "https://dc.lft.to/lastmile_qr_scan", "android": "https://dc.lft.to/lastmile_qr_scan"}}, {"name": "9e61a7f14adaa283b4aa6884b96ffbb1", "type": "electric_scooter", "lat": 38.907699666666666, "is_reserved": 0, "lon": -77.043486, "fusion_lon": 0.0, "is_disabled": 0, "fusion_lat": 0.0, "bike_id": "9e61a7f14adaa283b4aa6884b96ffbb1", "rental_uris": {"ios": "https://dc.lft.to/lastmile_qr_scan", "android": "https://dc.lft.to/lastmile_qr_scan"}}, {"name": "99d34f62e10f70230c4ca44f91c79f96", "type": "electric_scooter", "lat": 38.93606483333333, "is_reserved": 0, "lon": -77.05865883333334, "fusion_lon": 0.0, "is_disabled": 0, "fusion_lat": 0.0, "bike_id": "99d34f62e10f70230c4ca44f91c79f96", "rental_uris": {"ios": "https://dc.lft.to/lastmile_qr_scan", "android": "https://dc.lft.to/lastmile_qr_scan"}}, {"name": "66863d2ce5c12fdb509e7f6adafb7038", "type": "electric_scooter", "lat": 38.88405183333333, "is_reserved": 0, "lon": -77.01523416666667, "fusion_lon": 0.0, "is_disabled": 0, "fusion_lat": 0.0, "bike_id": "66863d2ce5c12fdb509e7f6adafb7038", "rental_uris": {"ios": "https://dc.lft.to/lastmile_qr_scan", "android": "https://dc.lft.to/lastmile_qr_scan"}}, {"name": "cd3ddf30f8d4b60a48fddc772fd66012", "type": "electric_scooter", "lat": 38.918006166666665, "is_reserved": 0, "lon": -77.03446783333334, "fusion_lon": 0.0, "is_disabled": 0, "fusion_lat": 0.0, "bike_id": "cd3ddf30f8d4b60a48fddc772fd66012", "rental_uris": {"ios": "https://dc.lft.to/lastmile_qr_scan", "android": "https://dc.lft.to/lastmile_qr_scan"}}, {"name": "14432dc5e6a534459c9340b715c6765d", "type": "electric_bike", "lat": 38.9909065, "is_reserved": 0, "lon": -76.8749725, "fusion_lon": 0.0, "is_disabled": 0, "fusion_lat": 0.0, "bike_id": "14432dc5e6a534459c9340b715c6765d", "rental_uris": {"ios": "https://dc.lft.to/lastmile_qr_scan", "android": "https://dc.lft.to/lastmile_qr_scan"}}, {"name": "8712468961ddde0c8f75852fbedd15ce", "type": "electric_scooter", "lat": 38.900011666666664, "is_reserved": 0, "lon": -77.0402585, "fusion_lon": 0.0, "is_disabled": 0, "fusion_lat": 0.0, "bike_id": "8712468961ddde0c8f75852fbedd15ce", "rental_uris": {"ios": "https://dc.lft.to/lastmile_qr_scan", "android": "https://dc.lft.to/lastmile_qr_scan"}}, {"name": "0c02349bd0185bae4072d25cb37763c8", "type": "electric_scooter", "lat": 38.901394833333335, "is_reserved": 0, "lon": -77.04386816666667, "fusion_lon": 0.0, "is_disabled": 0, "fusion_lat": 0.0, "bike_id": "0c02349bd0185bae4072d25cb37763c8", "rental_uris": {"ios": "https://dc.lft.to/lastmile_qr_scan", "android": "https://dc.lft.to/lastmile_qr_scan"}}, {"name": "598898f1c006765f76258f6a16977636", "type": "electric_bike", "lat": 38.828757, "is_reserved": 0, "lon": -77.112207, "fusion_lon": 0.0, "is_disabled": 0, "fusion_lat": 0.0, "bike_id": "598898f1c006765f76258f6a16977636", "rental_uris": {"ios": "https://dc.lft.to/lastmile_qr_scan", "android": "https://dc.lft.to/lastmile_qr_scan"}}, {"name": "dedd30f4c9736fb581574cfb07e5ebe9", "type": "electric_scooter", "lat": 38.9055965, "is_reserved": 0, "lon": -77.03472583333334, "fusion_lon": 0.0, "is_disabled": 0, "fusion_lat": 0.0, "bike_id": "dedd30f4c9736fb581574cfb07e5ebe9", "rental_uris": {"ios": "https://dc.lft.to/lastmile_qr_scan", "android": "https://dc.lft.to/lastmile_qr_scan"}}, {"name": "a14aa6843b4a7ae85b65e9e25a66b682", "type": "electric_scooter", "lat": 38.91010283333333, "is_reserved": 0, "lon": -76.99398266666667, "fusion_lon": 0.0, "is_disabled": 0, "fusion_lat": 0.0, "bike_id": "a14aa6843b4a7ae85b65e9e25a66b682", "rental_uris": {"ios": "https://dc.lft.to/lastmile_qr_scan", "android": "https://dc.lft.to/lastmile_qr_scan"}}, {"name": "c048bf3d4844af554a8468c8894b19c7", "type": "electric_scooter", "lat": 38.88335, "is_reserved": 0, "lon": -77.01764516666667, "fusion_lon": 0.0, "is_disabled": 0, "fusion_lat": 0.0, "bike_id": "c048bf3d4844af554a8468c8894b19c7", "rental_uris": {"ios": "https://dc.lft.to/lastmile_qr_scan", "android": "https://dc.lft.to/lastmile_qr_scan"}}, {"name": "369166b340dad95df3e671216e8e8a38", "type": "electric_scooter", "lat": 38.917053, "is_reserved": 0, "lon": -77.0311045, "fusion_lon": 0.0, "is_disabled": 0, "fusion_lat": 0.0, "bike_id": "369166b340dad95df3e671216e8e8a38", "rental_uris": {"ios": "https://dc.lft.to/lastmile_qr_scan", "android": "https://dc.lft.to/lastmile_qr_scan"}}, {"name": "c8356ade46a862fe14935c95c1ff51c9", "type": "electric_scooter", "lat": 38.9036865, "is_reserved": 0, "lon": -77.031822, "fusion_lon": 0.0, "is_disabled": 0, "fusion_lat": 0.0, "bike_id": "c8356ade46a862fe14935c95c1ff51c9", "rental_uris": {"ios": "https://dc.lft.to/lastmile_qr_scan", "android": "https://dc.lft.to/lastmile_qr_scan"}}, {"name": "13ddc4afa6e0207e7c3153fd57d9b6cb", "type": "electric_scooter", "lat": 38.8967705, "is_reserved": 0, "lon": -77.02960816666666, "fusion_lon": 0.0, "is_disabled": 0, "fusion_lat": 0.0, "bike_id": "13ddc4afa6e0207e7c3153fd57d9b6cb", "rental_uris": {"ios": "https://dc.lft.to/lastmile_qr_scan", "android": "https://dc.lft.to/lastmile_qr_scan"}}, {"name": "db9e210fc315a738666ed43d6882d3cc", "type": "electric_scooter", "lat": 38.898095833333336, "is_reserved": 0, "lon": -77.0294615, "fusion_lon": 0.0, "is_disabled": 0, "fusion_lat": 0.0, "bike_id": "db9e210fc315a738666ed43d6882d3cc", "rental_uris": {"ios": "https://dc.lft.to/lastmile_qr_scan", "android": "https://dc.lft.to/lastmile_qr_scan"}}, {"name": "8bf0d7ee9113ce00b87c4c784683573a", "type": "electric_scooter", "lat": 38.94439333333333, "is_reserved": 0, "lon": -77.06352766666667, "fusion_lon": 0.0, "is_disabled": 0, "fusion_lat": 0.0, "bike_id": "8bf0d7ee9113ce00b87c4c784683573a", "rental_uris": {"ios": "https://dc.lft.to/lastmile_qr_scan", "android": "https://dc.lft.to/lastmile_qr_scan"}}, {"name": "abaed7616c819764684e84efd3efda88", "type": "electric_scooter", "lat": 38.925785166666664, "is_reserved": 0, "lon": -77.03916083333333, "fusion_lon": 0.0, "is_disabled": 0, "fusion_lat": 0.0, "bike_id": "abaed7616c819764684e84efd3efda88", "rental_uris": {"ios": "https://dc.lft.to/lastmile_qr_scan", "android": "https://dc.lft.to/lastmile_qr_scan"}}, {"name": "dd475200ed81a62ba1fd3cb8d5545419", "type": "electric_scooter", "lat": 38.924514, "is_reserved": 0, "lon": -77.00211833333333, "fusion_lon": 0.0, "is_disabled": 0, "fusion_lat": 0.0, "bike_id": "dd475200ed81a62ba1fd3cb8d5545419", "rental_uris": {"ios": "https://dc.lft.to/lastmile_qr_scan", "android": "https://dc.lft.to/lastmile_qr_scan"}}, {"name": "2664689977c894fbb084fdc4f5f393b5", "type": "electric_bike", "lat": 38.855358, "is_reserved": 0, "lon": -77.11329133333334, "fusion_lon": 0.0, "is_disabled": 0, "fusion_lat": 0.0, "bike_id": "2664689977c894fbb084fdc4f5f393b5", "rental_uris": {"ios": "https://dc.lft.to/lastmile_qr_scan", "android": "https://dc.lft.to/lastmile_qr_scan"}}, {"name": "c36e5dff6771981d53be76879fdcd09d", "type": "electric_scooter", "lat": 38.91632083333333, "is_reserved": 0, "lon": -77.03164833333334, "fusion_lon": 0.0, "is_disabled": 0, "fusion_lat": 0.0, "bike_id": "c36e5dff6771981d53be76879fdcd09d", "rental_uris": {"ios": "https://dc.lft.to/lastmile_qr_scan", "android": "https://dc.lft.to/lastmile_qr_scan"}}, {"name": "e0f19b535f8ee5b8c0c128b3de380ad7", "type": "electric_scooter", "lat": 38.91188733333333, "is_reserved": 0, "lon": -76.99616933333333, "fusion_lon": 0.0, "is_disabled": 0, "fusion_lat": 0.0, "bike_id": "e0f19b535f8ee5b8c0c128b3de380ad7", "rental_uris": {"ios": "https://dc.lft.to/lastmile_qr_scan", "android": "https://dc.lft.to/lastmile_qr_scan"}}, {"name": "15663bff9ba2065009f7da5dc9b29e16", "type": "electric_scooter", "lat": 38.912833, "is_reserved": 0, "lon": -77.03841583333333, "fusion_lon": 0.0, "is_disabled": 0, "fusion_lat": 0.0, "bike_id": "15663bff9ba2065009f7da5dc9b29e16", "rental_uris": {"ios": "https://dc.lft.to/lastmile_qr_scan", "android": "https://dc.lft.to/lastmile_qr_scan"}}, {"name": "f47b3ed5d0e43052f5510a48eb9934c6", "type": "electric_scooter", "lat": 38.91946266666667, "is_reserved": 0, "lon": -77.01358133333333, "fusion_lon": 0.0, "is_disabled": 0, "fusion_lat": 0.0, "bike_id": "f47b3ed5d0e43052f5510a48eb9934c6", "rental_uris": {"ios": "https://dc.lft.to/lastmile_qr_scan", "android": "https://dc.lft.to/lastmile_qr_scan"}}, {"name": "9421f51f65ee2496d46c962f1b188cc7", "type": "electric_scooter", "lat": 38.91740433333333, "is_reserved": 0, "lon": -77.00752683333333, "fusion_lon": 0.0, "is_disabled": 0, "fusion_lat": 0.0, "bike_id": "9421f51f65ee2496d46c962f1b188cc7", "rental_uris": {"ios": "https://dc.lft.to/lastmile_qr_scan", "android": "https://dc.lft.to/lastmile_qr_scan"}}, {"name": "4dcd309718406cab23e474dc6491f28a", "type": "electric_scooter", "lat": 38.90741966666667, "is_reserved": 0, "lon": -77.00104583333334, "fusion_lon": 0.0, "is_disabled": 0, "fusion_lat": 0.0, "bike_id": "4dcd309718406cab23e474dc6491f28a", "rental_uris": {"ios": "https://dc.lft.to/lastmile_qr_scan", "android": "https://dc.lft.to/lastmile_qr_scan"}}, {"name": "4a955d247fa1b3efaf93aa7cbef4c352", "type": "electric_scooter", "lat": 38.8841125, "is_reserved": 0, "lon": -76.976027, "fusion_lon": 0.0, "is_disabled": 0, "fusion_lat": 0.0, "bike_id": "4a955d247fa1b3efaf93aa7cbef4c352", "rental_uris": {"ios": "https://dc.lft.to/lastmile_qr_scan", "android": "https://dc.lft.to/lastmile_qr_scan"}}, {"name": "d05f8e6d95b65b3f78e4bb024e6a9acb", "type": "electric_scooter", "lat": 38.920102666666665, "is_reserved": 0, "lon": -77.03889, "fusion_lon": 0.0, "is_disabled": 0, "fusion_lat": 0.0, "bike_id": "d05f8e6d95b65b3f78e4bb024e6a9acb", "rental_uris": {"ios": "https://dc.lft.to/lastmile_qr_scan", "android": "https://dc.lft.to/lastmile_qr_scan"}}, {"name": "5a42c5fc75a7fe5989150fb30f2891f9", "type": "electric_scooter", "lat": 38.89680383333334, "is_reserved": 0, "lon": -76.99620233333333, "fusion_lon": 0.0, "is_disabled": 0, "fusion_lat": 0.0, "bike_id": "5a42c5fc75a7fe5989150fb30f2891f9", "rental_uris": {"ios": "https://dc.lft.to/lastmile_qr_scan", "android": "https://dc.lft.to/lastmile_qr_scan"}}, {"name": "59fc64668b75fb561a9f7e6aa7542145", "type": "electric_scooter", "lat": 38.903294833333334, "is_reserved": 0, "lon": -77.03837383333334, "fusion_lon": 0.0, "is_disabled": 0, "fusion_lat": 0.0, "bike_id": "59fc64668b75fb561a9f7e6aa7542145", "rental_uris": {"ios": "https://dc.lft.to/lastmile_qr_scan", "android": "https://dc.lft.to/lastmile_qr_scan"}}, {"name": "21b412d689015b98a85f367aafdff9c2", "type": "electric_scooter", "lat": 38.897271333333336, "is_reserved": 0, "lon": -77.01316933333334, "fusion_lon": 0.0, "is_disabled": 0, "fusion_lat": 0.0, "bike_id": "21b412d689015b98a85f367aafdff9c2", "rental_uris": {"ios": "https://dc.lft.to/lastmile_qr_scan", "android": "https://dc.lft.to/lastmile_qr_scan"}}, {"name": "0daeeda6b282486cc084826f0f6d2c84", "type": "electric_scooter", "lat": 38.9274155, "is_reserved": 0, "lon": -77.0120405, "fusion_lon": 0.0, "is_disabled": 0, "fusion_lat": 0.0, "bike_id": "0daeeda6b282486cc084826f0f6d2c84", "rental_uris": {"ios": "https://dc.lft.to/lastmile_qr_scan", "android": "https://dc.lft.to/lastmile_qr_scan"}}, {"name": "c101d81cb7ea4d30bfb551d14b240091", "type": "electric_scooter", "lat": 38.913413166666665, "is_reserved": 0, "lon": -77.03127483333333, "fusion_lon": 0.0, "is_disabled": 0, "fusion_lat": 0.0, "bike_id": "c101d81cb7ea4d30bfb551d14b240091", "rental_uris": {"ios": "https://dc.lft.to/lastmile_qr_scan", "android": "https://dc.lft.to/lastmile_qr_scan"}}, {"name": "2aca939e0a8c5fa2c0f79f30d61d92d7", "type": "electric_scooter", "lat": 38.90367966666667, "is_reserved": 0, "lon": -77.01903416666667, "fusion_lon": 0.0, "is_disabled": 0, "fusion_lat": 0.0, "bike_id": "2aca939e0a8c5fa2c0f79f30d61d92d7", "rental_uris": {"ios": "https://dc.lft.to/lastmile_qr_scan", "android": "https://dc.lft.to/lastmile_qr_scan"}}, {"name": "d914c2c055711a630d7a0587eb2f71db", "type": "electric_scooter", "lat": 38.94053983333333, "is_reserved": 0, "lon": -77.09271, "fusion_lon": 0.0, "is_disabled": 0, "fusion_lat": 0.0, "bike_id": "d914c2c055711a630d7a0587eb2f71db", "rental_uris": {"ios": "https://dc.lft.to/lastmile_qr_scan", "android": "https://dc.lft.to/lastmile_qr_scan"}}, {"name": "db59f9fd958c9f94b6407096343b6b45", "type": "electric_scooter", "lat": 38.866966833333336, "is_reserved": 0, "lon": -76.9871325, "fusion_lon": 0.0, "is_disabled": 0, "fusion_lat": 0.0, "bike_id": "db59f9fd958c9f94b6407096343b6b45", "rental_uris": {"ios": "https://dc.lft.to/lastmile_qr_scan", "android": "https://dc.lft.to/lastmile_qr_scan"}}, {"name": "9fc406a24af4e44cca07eadda1eac93f", "type": "electric_scooter", "lat": 38.97422316666667, "is_reserved": 0, "lon": -77.015226, "fusion_lon": 0.0, "is_disabled": 0, "fusion_lat": 0.0, "bike_id": "9fc406a24af4e44cca07eadda1eac93f", "rental_uris": {"ios": "https://dc.lft.to/lastmile_qr_scan", "android": "https://dc.lft.to/lastmile_qr_scan"}}, {"name": "66dd9f725df409d5adb841ea2f7cb87a", "type": "electric_scooter", "lat": 38.91888466666666, "is_reserved": 0, "lon": -77.023941, "fusion_lon": 0.0, "is_disabled": 0, "fusion_lat": 0.0, "bike_id": "66dd9f725df409d5adb841ea2f7cb87a", "rental_uris": {"ios": "https://dc.lft.to/lastmile_qr_scan", "android": "https://dc.lft.to/lastmile_qr_scan"}}, {"name": "6364d2963fbdae4634bb867729af0d6f", "type": "electric_scooter", "lat": 38.842952833333335, "is_reserved": 0, "lon": -76.9995265, "fusion_lon": 0.0, "is_disabled": 0, "fusion_lat": 0.0, "bike_id": "6364d2963fbdae4634bb867729af0d6f", "rental_uris": {"ios": "https://dc.lft.to/lastmile_qr_scan", "android": "https://dc.lft.to/lastmile_qr_scan"}}, {"name": "9c7e25d9e070e6af597a8b93d38dcd07", "type": "electric_scooter", "lat": 38.884952166666665, "is_reserved": 0, "lon": -77.00728633333334, "fusion_lon": 0.0, "is_disabled": 0, "fusion_lat": 0.0, "bike_id": "9c7e25d9e070e6af597a8b93d38dcd07", "rental_uris": {"ios": "https://dc.lft.to/lastmile_qr_scan", "android": "https://dc.lft.to/lastmile_qr_scan"}}, {"name": "8306e11db1a08604effc38651669d324", "type": "electric_scooter", "lat": 38.908579833333334, "is_reserved": 0, "lon": -77.027319, "fusion_lon": 0.0, "is_disabled": 0, "fusion_lat": 0.0, "bike_id": "8306e11db1a08604effc38651669d324", "rental_uris": {"ios": "https://dc.lft.to/lastmile_qr_scan", "android": "https://dc.lft.to/lastmile_qr_scan"}}, {"name": "dd105ee832a8df76cd3d8f1312a3ca62", "type": "electric_scooter", "lat": 38.89896683333333, "is_reserved": 0, "lon": -77.03278233333333, "fusion_lon": 0.0, "is_disabled": 0, "fusion_lat": 0.0, "bike_id": "dd105ee832a8df76cd3d8f1312a3ca62", "rental_uris": {"ios": "https://dc.lft.to/lastmile_qr_scan", "android": "https://dc.lft.to/lastmile_qr_scan"}}, {"name": "a5523961b21e1e6c369eb152c838b8e0", "type": "electric_scooter", "lat": 38.8801775, "is_reserved": 0, "lon": -76.9313295, "fusion_lon": 0.0, "is_disabled": 0, "fusion_lat": 0.0, "bike_id": "a5523961b21e1e6c369eb152c838b8e0", "rental_uris": {"ios": "https://dc.lft.to/lastmile_qr_scan", "android": "https://dc.lft.to/lastmile_qr_scan"}}, {"name": "0459acdf2e9c2617ef53b3b66ad1bd1d", "type": "electric_scooter", "lat": 38.89738333333333, "is_reserved": 0, "lon": -76.947227, "fusion_lon": 0.0, "is_disabled": 0, "fusion_lat": 0.0, "bike_id": "0459acdf2e9c2617ef53b3b66ad1bd1d", "rental_uris": {"ios": "https://dc.lft.to/lastmile_qr_scan", "android": "https://dc.lft.to/lastmile_qr_scan"}}, {"name": "8c3dd7f3fbba48fc56ae1ccd6120aee9", "type": "electric_scooter", "lat": 38.900551166666666, "is_reserved": 0, "lon": -77.03180366666666, "fusion_lon": 0.0, "is_disabled": 0, "fusion_lat": 0.0, "bike_id": "8c3dd7f3fbba48fc56ae1ccd6120aee9", "rental_uris": {"ios": "https://dc.lft.to/lastmile_qr_scan", "android": "https://dc.lft.to/lastmile_qr_scan"}}, {"name": "f191795f0a5e5e5b2c1b0c51fa08b09a", "type": "electric_scooter", "lat": 38.89976033333333, "is_reserved": 0, "lon": -77.0553695, "fusion_lon": 0.0, "is_disabled": 0, "fusion_lat": 0.0, "bike_id": "f191795f0a5e5e5b2c1b0c51fa08b09a", "rental_uris": {"ios": "https://dc.lft.to/lastmile_qr_scan", "android": "https://dc.lft.to/lastmile_qr_scan"}}, {"name": "7e7bbdb185c994f8c6bf5c0d158f5316", "type": "electric_scooter", "lat": 38.895001666666666, "is_reserved": 0, "lon": -77.02409616666667, "fusion_lon": 0.0, "is_disabled": 0, "fusion_lat": 0.0, "bike_id": "7e7bbdb185c994f8c6bf5c0d158f5316", "rental_uris": {"ios": "https://dc.lft.to/lastmile_qr_scan", "android": "https://dc.lft.to/lastmile_qr_scan"}}, {"name": "0bbdbc239b89996631f6fc33d3597880", "type": "electric_scooter", "lat": 38.92799133333333, "is_reserved": 0, "lon": -77.05359783333333, "fusion_lon": 0.0, "is_disabled": 0, "fusion_lat": 0.0, "bike_id": "0bbdbc239b89996631f6fc33d3597880", "rental_uris": {"ios": "https://dc.lft.to/lastmile_qr_scan", "android": "https://dc.lft.to/lastmile_qr_scan"}}, {"name": "1f81c9735af994911e268d61687bc43f", "type": "electric_scooter", "lat": 38.900079833333336, "is_reserved": 0, "lon": -77.0321525, "fusion_lon": 0.0, "is_disabled": 0, "fusion_lat": 0.0, "bike_id": "1f81c9735af994911e268d61687bc43f", "rental_uris": {"ios": "https://dc.lft.to/lastmile_qr_scan", "android": "https://dc.lft.to/lastmile_qr_scan"}}, {"name": "2dd1225ef9a76d21fa97eb9ac1d443a4", "type": "electric_scooter", "lat": 38.91981116666667, "is_reserved": 0, "lon": -77.0221, "fusion_lon": 0.0, "is_disabled": 0, "fusion_lat": 0.0, "bike_id": "2dd1225ef9a76d21fa97eb9ac1d443a4", "rental_uris": {"ios": "https://dc.lft.to/lastmile_qr_scan", "android": "https://dc.lft.to/lastmile_qr_scan"}}, {"name": "5fbc6f0ed8e96af656fb2a59fe8e2038", "type": "electric_scooter", "lat": 38.9188325, "is_reserved": 0, "lon": -77.04312116666667, "fusion_lon": 0.0, "is_disabled": 0, "fusion_lat": 0.0, "bike_id": "5fbc6f0ed8e96af656fb2a59fe8e2038", "rental_uris": {"ios": "https://dc.lft.to/lastmile_qr_scan", "android": "https://dc.lft.to/lastmile_qr_scan"}}, {"name": "573d384883efcb0af35a8a20530f1a60", "type": "electric_bike", "lat": 38.827308, "is_reserved": 0, "lon": -77.00864016666667, "fusion_lon": 0.0, "is_disabled": 0, "fusion_lat": 0.0, "bike_id": "573d384883efcb0af35a8a20530f1a60", "rental_uris": {"ios": "https://dc.lft.to/lastmile_qr_scan", "android": "https://dc.lft.to/lastmile_qr_scan"}}, {"name": "94a7c6d8aa0cf26ecb5d9362c79a45da", "type": "electric_scooter", "lat": 38.905767, "is_reserved": 0, "lon": -77.04024166666666, "fusion_lon": 0.0, "is_disabled": 0, "fusion_lat": 0.0, "bike_id": "94a7c6d8aa0cf26ecb5d9362c79a45da", "rental_uris": {"ios": "https://dc.lft.to/lastmile_qr_scan", "android": "https://dc.lft.to/lastmile_qr_scan"}}, {"name": "2c8a92be18b2ad02f19a682f28868265", "type": "electric_scooter", "lat": 38.90382616666667, "is_reserved": 0, "lon": -77.04207033333333, "fusion_lon": 0.0, "is_disabled": 0, "fusion_lat": 0.0, "bike_id": "2c8a92be18b2ad02f19a682f28868265", "rental_uris": {"ios": "https://dc.lft.to/lastmile_qr_scan", "android": "https://dc.lft.to/lastmile_qr_scan"}}, {"name": "5c913032c6221d8653e925e5358d8c6c", "type": "electric_bike", "lat": 38.8670275, "is_reserved": 0, "lon": -76.98972316666666, "fusion_lon": 0.0, "is_disabled": 0, "fusion_lat": 0.0, "bike_id": "5c913032c6221d8653e925e5358d8c6c", "rental_uris": {"ios": "https://dc.lft.to/lastmile_qr_scan", "android": "https://dc.lft.to/lastmile_qr_scan"}}, {"name": "04d1a941e9ba11f1a771364d94341a11", "type": "electric_scooter", "lat": 38.92985983333333, "is_reserved": 0, "lon": -77.02488216666667, "fusion_lon": 0.0, "is_disabled": 0, "fusion_lat": 0.0, "bike_id": "04d1a941e9ba11f1a771364d94341a11", "rental_uris": {"ios": "https://dc.lft.to/lastmile_qr_scan", "android": "https://dc.lft.to/lastmile_qr_scan"}}, {"name": "f0e81918ddefbabe61c2bed0c84064bd", "type": "electric_scooter", "lat": 38.8951035, "is_reserved": 0, "lon": -77.00339483333333, "fusion_lon": 0.0, "is_disabled": 0, "fusion_lat": 0.0, "bike_id": "f0e81918ddefbabe61c2bed0c84064bd", "rental_uris": {"ios": "https://dc.lft.to/lastmile_qr_scan", "android": "https://dc.lft.to/lastmile_qr_scan"}}, {"name": "927d054c5b289af977708af8205c0f84", "type": "electric_scooter", "lat": 38.921513166666664, "is_reserved": 0, "lon": -77.03530466666666, "fusion_lon": 0.0, "is_disabled": 0, "fusion_lat": 0.0, "bike_id": "927d054c5b289af977708af8205c0f84", "rental_uris": {"ios": "https://dc.lft.to/lastmile_qr_scan", "android": "https://dc.lft.to/lastmile_qr_scan"}}, {"name": "b47f029921abbcbf3ee68e99720fab19", "type": "electric_scooter", "lat": 38.91201, "is_reserved": 0, "lon": -77.07313033333334, "fusion_lon": 0.0, "is_disabled": 0, "fusion_lat": 0.0, "bike_id": "b47f029921abbcbf3ee68e99720fab19", "rental_uris": {"ios": "https://dc.lft.to/lastmile_qr_scan", "android": "https://dc.lft.to/lastmile_qr_scan"}}, {"name": "4f7d83747c28d369f9caa9cc2bacfe58", "type": "electric_scooter", "lat": 38.91332383333334, "is_reserved": 0, "lon": -77.04351716666666, "fusion_lon": 0.0, "is_disabled": 0, "fusion_lat": 0.0, "bike_id": "4f7d83747c28d369f9caa9cc2bacfe58", "rental_uris": {"ios": "https://dc.lft.to/lastmile_qr_scan", "android": "https://dc.lft.to/lastmile_qr_scan"}}, {"name": "83ef4398a68fafa98b150233acc8ed15", "type": "electric_scooter", "lat": 38.91389916666667, "is_reserved": 0, "lon": -77.04576983333334, "fusion_lon": 0.0, "is_disabled": 0, "fusion_lat": 0.0, "bike_id": "83ef4398a68fafa98b150233acc8ed15", "rental_uris": {"ios": "https://dc.lft.to/lastmile_qr_scan", "android": "https://dc.lft.to/lastmile_qr_scan"}}, {"name": "4c095e751696e1217a357b73f1be619b", "type": "electric_bike", "lat": 38.95953166666666, "is_reserved": 0, "lon": -77.10092083333333, "fusion_lon": 0.0, "is_disabled": 0, "fusion_lat": 0.0, "bike_id": "4c095e751696e1217a357b73f1be619b", "rental_uris": {"ios": "https://dc.lft.to/lastmile_qr_scan", "android": "https://dc.lft.to/lastmile_qr_scan"}}, {"name": "4abac9eca178e7c2b501a5d53a4d1127", "type": "electric_scooter", "lat": 38.884963166666665, "is_reserved": 0, "lon": -77.00727216666667, "fusion_lon": 0.0, "is_disabled": 0, "fusion_lat": 0.0, "bike_id": "4abac9eca178e7c2b501a5d53a4d1127", "rental_uris": {"ios": "https://dc.lft.to/lastmile_qr_scan", "android": "https://dc.lft.to/lastmile_qr_scan"}}, {"name": "f2db39ceec94d3e6b2b05846789bfeb9", "type": "electric_bike", "lat": 38.935834666666665, "is_reserved": 0, "lon": -77.05844316666666, "fusion_lon": 0.0, "is_disabled": 0, "fusion_lat": 0.0, "bike_id": "f2db39ceec94d3e6b2b05846789bfeb9", "rental_uris": {"ios": "https://dc.lft.to/lastmile_qr_scan", "android": "https://dc.lft.to/lastmile_qr_scan"}}, {"name": "def55d92c45d4f80fa73ceccaa790b07", "type": "electric_scooter", "lat": 38.90266333333334, "is_reserved": 0, "lon": -77.02982133333333, "fusion_lon": 0.0, "is_disabled": 0, "fusion_lat": 0.0, "bike_id": "def55d92c45d4f80fa73ceccaa790b07", "rental_uris": {"ios": "https://dc.lft.to/lastmile_qr_scan", "android": "https://dc.lft.to/lastmile_qr_scan"}}, {"name": "d4038feff88dd588282d6fb16b5d992c", "type": "electric_scooter", "lat": 38.932019333333336, "is_reserved": 0, "lon": -77.027404, "fusion_lon": 0.0, "is_disabled": 0, "fusion_lat": 0.0, "bike_id": "d4038feff88dd588282d6fb16b5d992c", "rental_uris": {"ios": "https://dc.lft.to/lastmile_qr_scan", "android": "https://dc.lft.to/lastmile_qr_scan"}}, {"name": "5de31d81ecb531deb283cd533c7fc5ea", "type": "electric_scooter", "lat": 38.906575333333336, "is_reserved": 0, "lon": -77.009005, "fusion_lon": 0.0, "is_disabled": 0, "fusion_lat": 0.0, "bike_id": "5de31d81ecb531deb283cd533c7fc5ea", "rental_uris": {"ios": "https://dc.lft.to/lastmile_qr_scan", "android": "https://dc.lft.to/lastmile_qr_scan"}}, {"name": "915922ba803747b18d7f7ceaf112d89b", "type": "electric_scooter", "lat": 38.9026965, "is_reserved": 0, "lon": -77.05955566666667, "fusion_lon": 0.0, "is_disabled": 0, "fusion_lat": 0.0, "bike_id": "915922ba803747b18d7f7ceaf112d89b", "rental_uris": {"ios": "https://dc.lft.to/lastmile_qr_scan", "android": "https://dc.lft.to/lastmile_qr_scan"}}, {"name": "f5b42f982b7ee206965739da6d88e6d0", "type": "electric_scooter", "lat": 38.8972125, "is_reserved": 0, "lon": -77.0271695, "fusion_lon": 0.0, "is_disabled": 0, "fusion_lat": 0.0, "bike_id": "f5b42f982b7ee206965739da6d88e6d0", "rental_uris": {"ios": "https://dc.lft.to/lastmile_qr_scan", "android": "https://dc.lft.to/lastmile_qr_scan"}}, {"name": "ca563de9a2cbd88eeebd44beabe2901e", "type": "electric_scooter", "lat": 38.91199683333333, "is_reserved": 0, "lon": -77.0609705, "fusion_lon": 0.0, "is_disabled": 0, "fusion_lat": 0.0, "bike_id": "ca563de9a2cbd88eeebd44beabe2901e", "rental_uris": {"ios": "https://dc.lft.to/lastmile_qr_scan", "android": "https://dc.lft.to/lastmile_qr_scan"}}, {"name": "c137673454c480e8e6990fdbfe075862", "type": "electric_scooter", "lat": 38.903013, "is_reserved": 0, "lon": -76.99856866666667, "fusion_lon": 0.0, "is_disabled": 0, "fusion_lat": 0.0, "bike_id": "c137673454c480e8e6990fdbfe075862", "rental_uris": {"ios": "https://dc.lft.to/lastmile_qr_scan", "android": "https://dc.lft.to/lastmile_qr_scan"}}, {"name": "48ad0ff910c7c2997405d45ba79dc897", "type": "electric_scooter", "lat": 38.919151166666666, "is_reserved": 0, "lon": -77.01347516666667, "fusion_lon": 0.0, "is_disabled": 0, "fusion_lat": 0.0, "bike_id": "48ad0ff910c7c2997405d45ba79dc897", "rental_uris": {"ios": "https://dc.lft.to/lastmile_qr_scan", "android": "https://dc.lft.to/lastmile_qr_scan"}}, {"name": "e6bf612a81ac9d99635124b3daa95fe6", "type": "electric_scooter", "lat": 38.856158666666666, "is_reserved": 0, "lon": -76.98023466666666, "fusion_lon": 0.0, "is_disabled": 0, "fusion_lat": 0.0, "bike_id": "e6bf612a81ac9d99635124b3daa95fe6", "rental_uris": {"ios": "https://dc.lft.to/lastmile_qr_scan", "android": "https://dc.lft.to/lastmile_qr_scan"}}, {"name": "765967f2fd700de9c6d33e6f277386c5", "type": "electric_scooter", "lat": 38.876275166666666, "is_reserved": 0, "lon": -76.96524983333333, "fusion_lon": 0.0, "is_disabled": 0, "fusion_lat": 0.0, "bike_id": "765967f2fd700de9c6d33e6f277386c5", "rental_uris": {"ios": "https://dc.lft.to/lastmile_qr_scan", "android": "https://dc.lft.to/lastmile_qr_scan"}}, {"name": "f20272cdf9f58c241c5c936efce162b2", "type": "electric_scooter", "lat": 38.8429765, "is_reserved": 0, "lon": -76.999494, "fusion_lon": 0.0, "is_disabled": 0, "fusion_lat": 0.0, "bike_id": "f20272cdf9f58c241c5c936efce162b2", "rental_uris": {"ios": "https://dc.lft.to/lastmile_qr_scan", "android": "https://dc.lft.to/lastmile_qr_scan"}}, {"name": "f147569eb596de6d9f27bbd37731fc37", "type": "electric_scooter", "lat": 38.9171055, "is_reserved": 0, "lon": -77.03679433333333, "fusion_lon": 0.0, "is_disabled": 0, "fusion_lat": 0.0, "bike_id": "f147569eb596de6d9f27bbd37731fc37", "rental_uris": {"ios": "https://dc.lft.to/lastmile_qr_scan", "android": "https://dc.lft.to/lastmile_qr_scan"}}, {"name": "03eb30ff939be62f6834218ba80b5f12", "type": "electric_scooter", "lat": 38.8958555, "is_reserved": 0, "lon": -76.93719466666667, "fusion_lon": 0.0, "is_disabled": 0, "fusion_lat": 0.0, "bike_id": "03eb30ff939be62f6834218ba80b5f12", "rental_uris": {"ios": "https://dc.lft.to/lastmile_qr_scan", "android": "https://dc.lft.to/lastmile_qr_scan"}}, {"name": "cbe8b5af53d85702e9ba0fd856d88f8a", "type": "electric_scooter", "lat": 38.912750833333334, "is_reserved": 0, "lon": -77.07285833333333, "fusion_lon": 0.0, "is_disabled": 0, "fusion_lat": 0.0, "bike_id": "cbe8b5af53d85702e9ba0fd856d88f8a", "rental_uris": {"ios": "https://dc.lft.to/lastmile_qr_scan", "android": "https://dc.lft.to/lastmile_qr_scan"}}, {"name": "c972348adca9fa147cc970f297896de2", "type": "electric_scooter", "lat": 38.904487833333334, "is_reserved": 0, "lon": -76.996212, "fusion_lon": 0.0, "is_disabled": 0, "fusion_lat": 0.0, "bike_id": "c972348adca9fa147cc970f297896de2", "rental_uris": {"ios": "https://dc.lft.to/lastmile_qr_scan", "android": "https://dc.lft.to/lastmile_qr_scan"}}, {"name": "2150222438c26171bdf20d73a4cae98a", "type": "electric_scooter", "lat": 38.915691, "is_reserved": 0, "lon": -77.0318385, "fusion_lon": 0.0, "is_disabled": 0, "fusion_lat": 0.0, "bike_id": "2150222438c26171bdf20d73a4cae98a", "rental_uris": {"ios": "https://dc.lft.to/lastmile_qr_scan", "android": "https://dc.lft.to/lastmile_qr_scan"}}, {"name": "9797df33fd469347ca600dc86aee9eb2", "type": "electric_scooter", "lat": 38.89485966666667, "is_reserved": 0, "lon": -77.02145, "fusion_lon": 0.0, "is_disabled": 0, "fusion_lat": 0.0, "bike_id": "9797df33fd469347ca600dc86aee9eb2", "rental_uris": {"ios": "https://dc.lft.to/lastmile_qr_scan", "android": "https://dc.lft.to/lastmile_qr_scan"}}, {"name": "b750ff4d895073ba24f03211c6336de3", "type": "electric_scooter", "lat": 38.878316166666664, "is_reserved": 0, "lon": -76.99042716666666, "fusion_lon": 0.0, "is_disabled": 0, "fusion_lat": 0.0, "bike_id": "b750ff4d895073ba24f03211c6336de3", "rental_uris": {"ios": "https://dc.lft.to/lastmile_qr_scan", "android": "https://dc.lft.to/lastmile_qr_scan"}}, {"name": "5a218f4bcca0387b0de9cbfd011db2b3", "type": "electric_bike", "lat": 38.8742065, "is_reserved": 0, "lon": -77.08571633333334, "fusion_lon": 0.0, "is_disabled": 0, "fusion_lat": 0.0, "bike_id": "5a218f4bcca0387b0de9cbfd011db2b3", "rental_uris": {"ios": "https://dc.lft.to/lastmile_qr_scan", "android": "https://dc.lft.to/lastmile_qr_scan"}}, {"name": "9414ec1dffbd217b65c1d60c1146ebd2", "type": "electric_scooter", "lat": 38.928670833333335, "is_reserved": 0, "lon": -77.0327785, "fusion_lon": 0.0, "is_disabled": 0, "fusion_lat": 0.0, "bike_id": "9414ec1dffbd217b65c1d60c1146ebd2", "rental_uris": {"ios": "https://dc.lft.to/lastmile_qr_scan", "android": "https://dc.lft.to/lastmile_qr_scan"}}, {"name": "a20c55c398ff74de922f18f1bf10d61a", "type": "electric_bike", "lat": 38.91167183333334, "is_reserved": 0, "lon": -77.0027045, "fusion_lon": 0.0, "is_disabled": 0, "fusion_lat": 0.0, "bike_id": "a20c55c398ff74de922f18f1bf10d61a", "rental_uris": {"ios": "https://dc.lft.to/lastmile_qr_scan", "android": "https://dc.lft.to/lastmile_qr_scan"}}, {"name": "51754498c370780e695b6b43f575aafb", "type": "electric_scooter", "lat": 38.882817833333334, "is_reserved": 0, "lon": -76.97907683333334, "fusion_lon": 0.0, "is_disabled": 0, "fusion_lat": 0.0, "bike_id": "51754498c370780e695b6b43f575aafb", "rental_uris": {"ios": "https://dc.lft.to/lastmile_qr_scan", "android": "https://dc.lft.to/lastmile_qr_scan"}}, {"name": "65d8cade94c0c9561f996abcaddfe09d", "type": "electric_scooter", "lat": 38.8442745, "is_reserved": 0, "lon": -76.99781033333333, "fusion_lon": 0.0, "is_disabled": 0, "fusion_lat": 0.0, "bike_id": "65d8cade94c0c9561f996abcaddfe09d", "rental_uris": {"ios": "https://dc.lft.to/lastmile_qr_scan", "android": "https://dc.lft.to/lastmile_qr_scan"}}, {"name": "2bcb038cb277bd74232aa4dcd64c3a21", "type": "electric_scooter", "lat": 38.88610516666667, "is_reserved": 0, "lon": -77.00573316666667, "fusion_lon": 0.0, "is_disabled": 0, "fusion_lat": 0.0, "bike_id": "2bcb038cb277bd74232aa4dcd64c3a21", "rental_uris": {"ios": "https://dc.lft.to/lastmile_qr_scan", "android": "https://dc.lft.to/lastmile_qr_scan"}}, {"name": "bde13c54174d05705220d34a8244acb0", "type": "electric_scooter", "lat": 38.895275166666664, "is_reserved": 0, "lon": -76.949304, "fusion_lon": 0.0, "is_disabled": 0, "fusion_lat": 0.0, "bike_id": "bde13c54174d05705220d34a8244acb0", "rental_uris": {"ios": "https://dc.lft.to/lastmile_qr_scan", "android": "https://dc.lft.to/lastmile_qr_scan"}}, {"name": "f4c6ddb849a317a6374dc80fa0d28e14", "type": "electric_bike", "lat": 39.0265635, "is_reserved": 0, "lon": -77.12522833333334, "fusion_lon": 0.0, "is_disabled": 0, "fusion_lat": 0.0, "bike_id": "f4c6ddb849a317a6374dc80fa0d28e14", "rental_uris": {"ios": "https://dc.lft.to/lastmile_qr_scan", "android": "https://dc.lft.to/lastmile_qr_scan"}}, {"name": "e712101e68a4bf13061b6f1add444683", "type": "electric_scooter", "lat": 38.92908533333333, "is_reserved": 0, "lon": -77.02163783333333, "fusion_lon": 0.0, "is_disabled": 0, "fusion_lat": 0.0, "bike_id": "e712101e68a4bf13061b6f1add444683", "rental_uris": {"ios": "https://dc.lft.to/lastmile_qr_scan", "android": "https://dc.lft.to/lastmile_qr_scan"}}, {"name": "c70c4c41f395d6887b507af9d7f950cd", "type": "electric_scooter", "lat": 38.93148733333334, "is_reserved": 0, "lon": -77.04363116666667, "fusion_lon": 0.0, "is_disabled": 0, "fusion_lat": 0.0, "bike_id": "c70c4c41f395d6887b507af9d7f950cd", "rental_uris": {"ios": "https://dc.lft.to/lastmile_qr_scan", "android": "https://dc.lft.to/lastmile_qr_scan"}}, {"name": "93039c9c8ee54f4736d52b9b46eae24b", "type": "electric_scooter", "lat": 38.89222216666667, "is_reserved": 0, "lon": -77.04863283333333, "fusion_lon": 0.0, "is_disabled": 0, "fusion_lat": 0.0, "bike_id": "93039c9c8ee54f4736d52b9b46eae24b", "rental_uris": {"ios": "https://dc.lft.to/lastmile_qr_scan", "android": "https://dc.lft.to/lastmile_qr_scan"}}, {"name": "c3c9836942926e4bb22d91869f688eef", "type": "electric_scooter", "lat": 38.910376, "is_reserved": 0, "lon": -77.0442555, "fusion_lon": 0.0, "is_disabled": 0, "fusion_lat": 0.0, "bike_id": "c3c9836942926e4bb22d91869f688eef", "rental_uris": {"ios": "https://dc.lft.to/lastmile_qr_scan", "android": "https://dc.lft.to/lastmile_qr_scan"}}, {"name": "9ae69b7d80123edb8b6f17701cf40df1", "type": "electric_scooter", "lat": 38.93497983333334, "is_reserved": 0, "lon": -77.0284325, "fusion_lon": 0.0, "is_disabled": 0, "fusion_lat": 0.0, "bike_id": "9ae69b7d80123edb8b6f17701cf40df1", "rental_uris": {"ios": "https://dc.lft.to/lastmile_qr_scan", "android": "https://dc.lft.to/lastmile_qr_scan"}}, {"name": "a5251ef45dd95a319ab28299e8b79e7f", "type": "electric_bike", "lat": 38.85434766666667, "is_reserved": 0, "lon": -76.90981966666666, "fusion_lon": 0.0, "is_disabled": 0, "fusion_lat": 0.0, "bike_id": "a5251ef45dd95a319ab28299e8b79e7f", "rental_uris": {"ios": "https://dc.lft.to/lastmile_qr_scan", "android": "https://dc.lft.to/lastmile_qr_scan"}}, {"name": "832f7775e821197e6491ddf9ea564c22", "type": "electric_bike", "lat": 38.81051083333333, "is_reserved": 0, "lon": -77.08510883333334, "fusion_lon": 0.0, "is_disabled": 0, "fusion_lat": 0.0, "bike_id": "832f7775e821197e6491ddf9ea564c22", "rental_uris": {"ios": "https://dc.lft.to/lastmile_qr_scan", "android": "https://dc.lft.to/lastmile_qr_scan"}}, {"name": "fce5ccb99830698206a7844631ed40d6", "type": "electric_scooter", "lat": 38.9195, "is_reserved": 0, "lon": -77.02486116666667, "fusion_lon": 0.0, "is_disabled": 0, "fusion_lat": 0.0, "bike_id": "fce5ccb99830698206a7844631ed40d6", "rental_uris": {"ios": "https://dc.lft.to/lastmile_qr_scan", "android": "https://dc.lft.to/lastmile_qr_scan"}}, {"name": "aad05adf574415fbb806e729d2717e17", "type": "electric_scooter", "lat": 38.900173, "is_reserved": 0, "lon": -76.98706883333334, "fusion_lon": 0.0, "is_disabled": 0, "fusion_lat": 0.0, "bike_id": "aad05adf574415fbb806e729d2717e17", "rental_uris": {"ios": "https://dc.lft.to/lastmile_qr_scan", "android": "https://dc.lft.to/lastmile_qr_scan"}}, {"name": "0a4d0440e326768780da99e180426716", "type": "electric_scooter", "lat": 38.903236, "is_reserved": 0, "lon": -77.03327383333334, "fusion_lon": 0.0, "is_disabled": 0, "fusion_lat": 0.0, "bike_id": "0a4d0440e326768780da99e180426716", "rental_uris": {"ios": "https://dc.lft.to/lastmile_qr_scan", "android": "https://dc.lft.to/lastmile_qr_scan"}}, {"name": "a3388155a73caee3d24aedc2beefb5b1", "type": "electric_scooter", "lat": 38.911848, "is_reserved": 0, "lon": -77.04536333333333, "fusion_lon": 0.0, "is_disabled": 0, "fusion_lat": 0.0, "bike_id": "a3388155a73caee3d24aedc2beefb5b1", "rental_uris": {"ios": "https://dc.lft.to/lastmile_qr_scan", "android": "https://dc.lft.to/lastmile_qr_scan"}}, {"name": "c2b44401588091df37e168d19b398850", "type": "electric_scooter", "lat": 38.956557333333336, "is_reserved": 0, "lon": -77.0329325, "fusion_lon": 0.0, "is_disabled": 0, "fusion_lat": 0.0, "bike_id": "c2b44401588091df37e168d19b398850", "rental_uris": {"ios": "https://dc.lft.to/lastmile_qr_scan", "android": "https://dc.lft.to/lastmile_qr_scan"}}, {"name": "fe5506c3fa6e41dd2c9daf338e0377ea", "type": "electric_bike", "lat": 38.90525216666666, "is_reserved": 0, "lon": -77.06784516666667, "fusion_lon": 0.0, "is_disabled": 0, "fusion_lat": 0.0, "bike_id": "fe5506c3fa6e41dd2c9daf338e0377ea", "rental_uris": {"ios": "https://dc.lft.to/lastmile_qr_scan", "android": "https://dc.lft.to/lastmile_qr_scan"}}, {"name": "238a88514112c9916fcab09f8c0b9cab", "type": "electric_scooter", "lat": 38.88488533333334, "is_reserved": 0, "lon": -77.00725633333333, "fusion_lon": 0.0, "is_disabled": 0, "fusion_lat": 0.0, "bike_id": "238a88514112c9916fcab09f8c0b9cab", "rental_uris": {"ios": "https://dc.lft.to/lastmile_qr_scan", "android": "https://dc.lft.to/lastmile_qr_scan"}}, {"name": "e0327268ba7f30f951822ef18d752b62", "type": "electric_bike", "lat": 38.827877, "is_reserved": 0, "lon": -77.009188, "fusion_lon": 0.0, "is_disabled": 0, "fusion_lat": 0.0, "bike_id": "e0327268ba7f30f951822ef18d752b62", "rental_uris": {"ios": "https://dc.lft.to/lastmile_qr_scan", "android": "https://dc.lft.to/lastmile_qr_scan"}}, {"name": "c65b33ed8ac5c9ccb075d3e75eae724e", "type": "electric_scooter", "lat": 38.906566166666664, "is_reserved": 0, "lon": -77.04334, "fusion_lon": 0.0, "is_disabled": 0, "fusion_lat": 0.0, "bike_id": "c65b33ed8ac5c9ccb075d3e75eae724e", "rental_uris": {"ios": "https://dc.lft.to/lastmile_qr_scan", "android": "https://dc.lft.to/lastmile_qr_scan"}}, {"name": "e8f06ceaea6dcdc0fc9db8c31e00ae2c", "type": "electric_bike", "lat": 39.00381316666667, "is_reserved": 0, "lon": -77.01292766666667, "fusion_lon": 0.0, "is_disabled": 0, "fusion_lat": 0.0, "bike_id": "e8f06ceaea6dcdc0fc9db8c31e00ae2c", "rental_uris": {"ios": "https://dc.lft.to/lastmile_qr_scan", "android": "https://dc.lft.to/lastmile_qr_scan"}}, {"name": "e4cefa1aaef55e10a6f775bd05df10ef", "type": "electric_scooter", "lat": 38.9006905, "is_reserved": 0, "lon": -77.00755733333334, "fusion_lon": 0.0, "is_disabled": 0, "fusion_lat": 0.0, "bike_id": "e4cefa1aaef55e10a6f775bd05df10ef", "rental_uris": {"ios": "https://dc.lft.to/lastmile_qr_scan", "android": "https://dc.lft.to/lastmile_qr_scan"}}, {"name": "95123c183afac49482d1c2083d8609f3", "type": "electric_scooter", "lat": 38.916866166666665, "is_reserved": 0, "lon": -77.029564, "fusion_lon": 0.0, "is_disabled": 0, "fusion_lat": 0.0, "bike_id": "95123c183afac49482d1c2083d8609f3", "rental_uris": {"ios": "https://dc.lft.to/lastmile_qr_scan", "android": "https://dc.lft.to/lastmile_qr_scan"}}, {"name": "d8befd6d5196c5751442da6d9318d199", "type": "electric_scooter", "lat": 38.905879166666665, "is_reserved": 0, "lon": -77.06520433333333, "fusion_lon": 0.0, "is_disabled": 0, "fusion_lat": 0.0, "bike_id": "d8befd6d5196c5751442da6d9318d199", "rental_uris": {"ios": "https://dc.lft.to/lastmile_qr_scan", "android": "https://dc.lft.to/lastmile_qr_scan"}}, {"name": "a648aabadeeb7e6111b9f0141eb5f226", "type": "electric_scooter", "lat": 38.927466333333335, "is_reserved": 0, "lon": -77.0326835, "fusion_lon": 0.0, "is_disabled": 0, "fusion_lat": 0.0, "bike_id": "a648aabadeeb7e6111b9f0141eb5f226", "rental_uris": {"ios": "https://dc.lft.to/lastmile_qr_scan", "android": "https://dc.lft.to/lastmile_qr_scan"}}, {"name": "9df6b2ce44a3135600cbdca7939c6524", "type": "electric_scooter", "lat": 38.92633083333333, "is_reserved": 0, "lon": -77.035113, "fusion_lon": 0.0, "is_disabled": 0, "fusion_lat": 0.0, "bike_id": "9df6b2ce44a3135600cbdca7939c6524", "rental_uris": {"ios": "https://dc.lft.to/lastmile_qr_scan", "android": "https://dc.lft.to/lastmile_qr_scan"}}, {"name": "15abe13f1e0200bf53f28e6fc72038c5", "type": "electric_scooter", "lat": 38.92329866666667, "is_reserved": 0, "lon": -77.04390933333333, "fusion_lon": 0.0, "is_disabled": 0, "fusion_lat": 0.0, "bike_id": "15abe13f1e0200bf53f28e6fc72038c5", "rental_uris": {"ios": "https://dc.lft.to/lastmile_qr_scan", "android": "https://dc.lft.to/lastmile_qr_scan"}}, {"name": "980db69e778219c0a99b8c946f8729ab", "type": "electric_scooter", "lat": 38.902736, "is_reserved": 0, "lon": -77.01773416666667, "fusion_lon": 0.0, "is_disabled": 0, "fusion_lat": 0.0, "bike_id": "980db69e778219c0a99b8c946f8729ab", "rental_uris": {"ios": "https://dc.lft.to/lastmile_qr_scan", "android": "https://dc.lft.to/lastmile_qr_scan"}}, {"name": "6dc6211ef3c854887f054db4eb5565a5", "type": "electric_bike", "lat": 38.95781616666667, "is_reserved": 0, "lon": -77.02755383333333, "fusion_lon": 0.0, "is_disabled": 0, "fusion_lat": 0.0, "bike_id": "6dc6211ef3c854887f054db4eb5565a5", "rental_uris": {"ios": "https://dc.lft.to/lastmile_qr_scan", "android": "https://dc.lft.to/lastmile_qr_scan"}}, {"name": "1e19b6e30dccd3cf43e39f12007fd5e5", "type": "electric_scooter", "lat": 38.923505666666664, "is_reserved": 0, "lon": -77.019041, "fusion_lon": 0.0, "is_disabled": 0, "fusion_lat": 0.0, "bike_id": "1e19b6e30dccd3cf43e39f12007fd5e5", "rental_uris": {"ios": "https://dc.lft.to/lastmile_qr_scan", "android": "https://dc.lft.to/lastmile_qr_scan"}}, {"name": "95e0a011bae9a647201fc2d46abb8a23", "type": "electric_scooter", "lat": 38.92051166666667, "is_reserved": 0, "lon": -77.02973933333334, "fusion_lon": 0.0, "is_disabled": 0, "fusion_lat": 0.0, "bike_id": "95e0a011bae9a647201fc2d46abb8a23", "rental_uris": {"ios": "https://dc.lft.to/lastmile_qr_scan", "android": "https://dc.lft.to/lastmile_qr_scan"}}, {"name": "4d81e1fa4315d4af44868337b796ebc8", "type": "electric_scooter", "lat": 38.905888, "is_reserved": 0, "lon": -77.06518083333333, "fusion_lon": 0.0, "is_disabled": 0, "fusion_lat": 0.0, "bike_id": "4d81e1fa4315d4af44868337b796ebc8", "rental_uris": {"ios": "https://dc.lft.to/lastmile_qr_scan", "android": "https://dc.lft.to/lastmile_qr_scan"}}, {"name": "3f3fe8d04c9c707191c8eebaf9403d82", "type": "electric_scooter", "lat": 38.9036895, "is_reserved": 0, "lon": -77.04336883333333, "fusion_lon": 0.0, "is_disabled": 0, "fusion_lat": 0.0, "bike_id": "3f3fe8d04c9c707191c8eebaf9403d82", "rental_uris": {"ios": "https://dc.lft.to/lastmile_qr_scan", "android": "https://dc.lft.to/lastmile_qr_scan"}}, {"name": "aef9bd42036bc1bc3f8b525e0743d9f8", "type": "electric_scooter", "lat": 38.920629, "is_reserved": 0, "lon": -76.97807733333333, "fusion_lon": 0.0, "is_disabled": 0, "fusion_lat": 0.0, "bike_id": "aef9bd42036bc1bc3f8b525e0743d9f8", "rental_uris": {"ios": "https://dc.lft.to/lastmile_qr_scan", "android": "https://dc.lft.to/lastmile_qr_scan"}}, {"name": "52517bea516e7226337d61d55ca30067", "type": "electric_bike", "lat": 38.941559, "is_reserved": 0, "lon": -77.00200066666666, "fusion_lon": 0.0, "is_disabled": 0, "fusion_lat": 0.0, "bike_id": "52517bea516e7226337d61d55ca30067", "rental_uris": {"ios": "https://dc.lft.to/lastmile_qr_scan", "android": "https://dc.lft.to/lastmile_qr_scan"}}, {"name": "c51b616d465bf4cc822e91e8ab3a5aac", "type": "electric_scooter", "lat": 38.907599833333336, "is_reserved": 0, "lon": -77.00026133333333, "fusion_lon": 0.0, "is_disabled": 0, "fusion_lat": 0.0, "bike_id": "c51b616d465bf4cc822e91e8ab3a5aac", "rental_uris": {"ios": "https://dc.lft.to/lastmile_qr_scan", "android": "https://dc.lft.to/lastmile_qr_scan"}}, {"name": "ae9905520e8c26993ecf98d4131d91a1", "type": "electric_scooter", "lat": 38.905111166666664, "is_reserved": 0, "lon": -77.06385833333333, "fusion_lon": 0.0, "is_disabled": 0, "fusion_lat": 0.0, "bike_id": "ae9905520e8c26993ecf98d4131d91a1", "rental_uris": {"ios": "https://dc.lft.to/lastmile_qr_scan", "android": "https://dc.lft.to/lastmile_qr_scan"}}, {"name": "f0d8230ad7e3ca33475fbf75b4db1bf7", "type": "electric_scooter", "lat": 38.91972483333333, "is_reserved": 0, "lon": -77.0010705, "fusion_lon": 0.0, "is_disabled": 0, "fusion_lat": 0.0, "bike_id": "f0d8230ad7e3ca33475fbf75b4db1bf7", "rental_uris": {"ios": "https://dc.lft.to/lastmile_qr_scan", "android": "https://dc.lft.to/lastmile_qr_scan"}}, {"name": "c44b8146935e24f707b620cc8be41529", "type": "electric_scooter", "lat": 38.89662033333333, "is_reserved": 0, "lon": -77.02952516666667, "fusion_lon": 0.0, "is_disabled": 0, "fusion_lat": 0.0, "bike_id": "c44b8146935e24f707b620cc8be41529", "rental_uris": {"ios": "https://dc.lft.to/lastmile_qr_scan", "android": "https://dc.lft.to/lastmile_qr_scan"}}, {"name": "36817eb5524fe7c97850aea8565f843f", "type": "electric_scooter", "lat": 38.93377566666667, "is_reserved": 0, "lon": -77.034646, "fusion_lon": 0.0, "is_disabled": 0, "fusion_lat": 0.0, "bike_id": "36817eb5524fe7c97850aea8565f843f", "rental_uris": {"ios": "https://dc.lft.to/lastmile_qr_scan", "android": "https://dc.lft.to/lastmile_qr_scan"}}, {"name": "148d246c8c5d6976986dce495d84a736", "type": "electric_scooter", "lat": 38.92849483333333, "is_reserved": 0, "lon": -77.03732783333334, "fusion_lon": 0.0, "is_disabled": 0, "fusion_lat": 0.0, "bike_id": "148d246c8c5d6976986dce495d84a736", "rental_uris": {"ios": "https://dc.lft.to/lastmile_qr_scan", "android": "https://dc.lft.to/lastmile_qr_scan"}}, {"name": "ca1cf5c8e2abc8d5f296caec84f481f9", "type": "electric_scooter", "lat": 38.88497433333333, "is_reserved": 0, "lon": -77.00898066666667, "fusion_lon": 0.0, "is_disabled": 0, "fusion_lat": 0.0, "bike_id": "ca1cf5c8e2abc8d5f296caec84f481f9", "rental_uris": {"ios": "https://dc.lft.to/lastmile_qr_scan", "android": "https://dc.lft.to/lastmile_qr_scan"}}, {"name": "5d753b3e4c59cca8e99524ecd96dcf9b", "type": "electric_scooter", "lat": 38.89461883333333, "is_reserved": 0, "lon": -77.03056366666667, "fusion_lon": 0.0, "is_disabled": 0, "fusion_lat": 0.0, "bike_id": "5d753b3e4c59cca8e99524ecd96dcf9b", "rental_uris": {"ios": "https://dc.lft.to/lastmile_qr_scan", "android": "https://dc.lft.to/lastmile_qr_scan"}}, {"name": "d986bb5abd63217790532738e01f0dcc", "type": "electric_bike", "lat": 38.94834783333334, "is_reserved": 0, "lon": -77.03904966666667, "fusion_lon": 0.0, "is_disabled": 0, "fusion_lat": 0.0, "bike_id": "d986bb5abd63217790532738e01f0dcc", "rental_uris": {"ios": "https://dc.lft.to/lastmile_qr_scan", "android": "https://dc.lft.to/lastmile_qr_scan"}}, {"name": "d10082dee6fdf0de7445219d651cc084", "type": "electric_scooter", "lat": 38.9121875, "is_reserved": 0, "lon": -77.0759945, "fusion_lon": 0.0, "is_disabled": 0, "fusion_lat": 0.0, "bike_id": "d10082dee6fdf0de7445219d651cc084", "rental_uris": {"ios": "https://dc.lft.to/lastmile_qr_scan", "android": "https://dc.lft.to/lastmile_qr_scan"}}, {"name": "61df159d66473c93dc5352ea88412ac2", "type": "electric_scooter", "lat": 38.905950833333335, "is_reserved": 0, "lon": -77.04040583333334, "fusion_lon": 0.0, "is_disabled": 0, "fusion_lat": 0.0, "bike_id": "61df159d66473c93dc5352ea88412ac2", "rental_uris": {"ios": "https://dc.lft.to/lastmile_qr_scan", "android": "https://dc.lft.to/lastmile_qr_scan"}}, {"name": "8db1ec02ea73b9476260316e4bad057e", "type": "electric_scooter", "lat": 38.93901, "is_reserved": 0, "lon": -77.07725833333333, "fusion_lon": 0.0, "is_disabled": 0, "fusion_lat": 0.0, "bike_id": "8db1ec02ea73b9476260316e4bad057e", "rental_uris": {"ios": "https://dc.lft.to/lastmile_qr_scan", "android": "https://dc.lft.to/lastmile_qr_scan"}}, {"name": "fc6448ed325c58a28adfce1f13e7c303", "type": "electric_scooter", "lat": 38.910954833333335, "is_reserved": 0, "lon": -77.0467415, "fusion_lon": 0.0, "is_disabled": 0, "fusion_lat": 0.0, "bike_id": "fc6448ed325c58a28adfce1f13e7c303", "rental_uris": {"ios": "https://dc.lft.to/lastmile_qr_scan", "android": "https://dc.lft.to/lastmile_qr_scan"}}, {"name": "9cbbed9324044f62e1d95199e13d13d4", "type": "electric_bike", "lat": 38.89192116666667, "is_reserved": 0, "lon": -77.12259916666666, "fusion_lon": 0.0, "is_disabled": 0, "fusion_lat": 0.0, "bike_id": "9cbbed9324044f62e1d95199e13d13d4", "rental_uris": {"ios": "https://dc.lft.to/lastmile_qr_scan", "android": "https://dc.lft.to/lastmile_qr_scan"}}, {"name": "a978775d5c32ba3249b4f7eb11e13e33", "type": "electric_scooter", "lat": 38.93427783333333, "is_reserved": 0, "lon": -77.03413383333333, "fusion_lon": 0.0, "is_disabled": 0, "fusion_lat": 0.0, "bike_id": "a978775d5c32ba3249b4f7eb11e13e33", "rental_uris": {"ios": "https://dc.lft.to/lastmile_qr_scan", "android": "https://dc.lft.to/lastmile_qr_scan"}}, {"name": "54149e3b9579d83282f62215c449147c", "type": "electric_scooter", "lat": 38.908311833333336, "is_reserved": 0, "lon": -76.99702783333333, "fusion_lon": 0.0, "is_disabled": 0, "fusion_lat": 0.0, "bike_id": "54149e3b9579d83282f62215c449147c", "rental_uris": {"ios": "https://dc.lft.to/lastmile_qr_scan", "android": "https://dc.lft.to/lastmile_qr_scan"}}, {"name": "b44dc4158cbe9d5559d8da95551e417c", "type": "electric_bike", "lat": 38.8193775, "is_reserved": 0, "lon": -77.00224133333333, "fusion_lon": 0.0, "is_disabled": 0, "fusion_lat": 0.0, "bike_id": "b44dc4158cbe9d5559d8da95551e417c", "rental_uris": {"ios": "https://dc.lft.to/lastmile_qr_scan", "android": "https://dc.lft.to/lastmile_qr_scan"}}, {"name": "cacacc582c7452042962988c93bc2e17", "type": "electric_bike", "lat": 38.95550933333333, "is_reserved": 0, "lon": -76.93545233333333, "fusion_lon": 0.0, "is_disabled": 0, "fusion_lat": 0.0, "bike_id": "cacacc582c7452042962988c93bc2e17", "rental_uris": {"ios": "https://dc.lft.to/lastmile_qr_scan", "android": "https://dc.lft.to/lastmile_qr_scan"}}, {"name": "73c55721c5ade4520807f07717e62703", "type": "electric_scooter", "lat": 38.924399, "is_reserved": 0, "lon": -77.03408416666667, "fusion_lon": 0.0, "is_disabled": 0, "fusion_lat": 0.0, "bike_id": "73c55721c5ade4520807f07717e62703", "rental_uris": {"ios": "https://dc.lft.to/lastmile_qr_scan", "android": "https://dc.lft.to/lastmile_qr_scan"}}, {"name": "2d38c661a1c5f1a62741c2e0d6de5a7d", "type": "electric_scooter", "lat": 38.898209333333334, "is_reserved": 0, "lon": -77.0334125, "fusion_lon": 0.0, "is_disabled": 0, "fusion_lat": 0.0, "bike_id": "2d38c661a1c5f1a62741c2e0d6de5a7d", "rental_uris": {"ios": "https://dc.lft.to/lastmile_qr_scan", "android": "https://dc.lft.to/lastmile_qr_scan"}}, {"name": "c69ad916a92a58368a75fdbf8e4b2900", "type": "electric_scooter", "lat": 38.94272816666667, "is_reserved": 0, "lon": -77.02505333333333, "fusion_lon": 0.0, "is_disabled": 0, "fusion_lat": 0.0, "bike_id": "c69ad916a92a58368a75fdbf8e4b2900", "rental_uris": {"ios": "https://dc.lft.to/lastmile_qr_scan", "android": "https://dc.lft.to/lastmile_qr_scan"}}, {"name": "1ae9ca6cd02511c1dce1dd7f07ccecb2", "type": "electric_scooter", "lat": 38.91573116666667, "is_reserved": 0, "lon": -77.0318235, "fusion_lon": 0.0, "is_disabled": 0, "fusion_lat": 0.0, "bike_id": "1ae9ca6cd02511c1dce1dd7f07ccecb2", "rental_uris": {"ios": "https://dc.lft.to/lastmile_qr_scan", "android": "https://dc.lft.to/lastmile_qr_scan"}}, {"name": "8831e8712c836b65de0bb073fc3f4fc7", "type": "electric_scooter", "lat": 38.88043483333333, "is_reserved": 0, "lon": -76.92722416666666, "fusion_lon": 0.0, "is_disabled": 0, "fusion_lat": 0.0, "bike_id": "8831e8712c836b65de0bb073fc3f4fc7", "rental_uris": {"ios": "https://dc.lft.to/lastmile_qr_scan", "android": "https://dc.lft.to/lastmile_qr_scan"}}, {"name": "9904a33b574d61bb398d2a5541a35bce", "type": "electric_scooter", "lat": 38.897291, "is_reserved": 0, "lon": -77.04935933333333, "fusion_lon": 0.0, "is_disabled": 0, "fusion_lat": 0.0, "bike_id": "9904a33b574d61bb398d2a5541a35bce", "rental_uris": {"ios": "https://dc.lft.to/lastmile_qr_scan", "android": "https://dc.lft.to/lastmile_qr_scan"}}, {"name": "da37e02c68cc367d3b2554745f99577a", "type": "electric_scooter", "lat": 38.9067455, "is_reserved": 0, "lon": -76.97808683333334, "fusion_lon": 0.0, "is_disabled": 0, "fusion_lat": 0.0, "bike_id": "da37e02c68cc367d3b2554745f99577a", "rental_uris": {"ios": "https://dc.lft.to/lastmile_qr_scan", "android": "https://dc.lft.to/lastmile_qr_scan"}}, {"name": "ae415d6fd9daf53402a97bdeb46cf053", "type": "electric_bike", "lat": 38.92463383333333, "is_reserved": 0, "lon": -77.20841766666666, "fusion_lon": 0.0, "is_disabled": 0, "fusion_lat": 0.0, "bike_id": "ae415d6fd9daf53402a97bdeb46cf053", "rental_uris": {"ios": "https://dc.lft.to/lastmile_qr_scan", "android": "https://dc.lft.to/lastmile_qr_scan"}}, {"name": "65d5924e304341e47dc65bfb891f75b9", "type": "electric_scooter", "lat": 38.911092333333336, "is_reserved": 0, "lon": -77.04927866666667, "fusion_lon": 0.0, "is_disabled": 0, "fusion_lat": 0.0, "bike_id": "65d5924e304341e47dc65bfb891f75b9", "rental_uris": {"ios": "https://dc.lft.to/lastmile_qr_scan", "android": "https://dc.lft.to/lastmile_qr_scan"}}, {"name": "68bac15d16a1617b5dcbe12b8a418973", "type": "electric_scooter", "lat": 38.92745333333333, "is_reserved": 0, "lon": -77.053997, "fusion_lon": 0.0, "is_disabled": 0, "fusion_lat": 0.0, "bike_id": "68bac15d16a1617b5dcbe12b8a418973", "rental_uris": {"ios": "https://dc.lft.to/lastmile_qr_scan", "android": "https://dc.lft.to/lastmile_qr_scan"}}, {"name": "50fbbc0c9f73d079bfeda6ee34821e18", "type": "electric_scooter", "lat": 38.90280583333333, "is_reserved": 0, "lon": -77.0383725, "fusion_lon": 0.0, "is_disabled": 0, "fusion_lat": 0.0, "bike_id": "50fbbc0c9f73d079bfeda6ee34821e18", "rental_uris": {"ios": "https://dc.lft.to/lastmile_qr_scan", "android": "https://dc.lft.to/lastmile_qr_scan"}}, {"name": "7b908bd13c84f5a7d63b0905dd11ca7a", "type": "electric_scooter", "lat": 38.93513766666667, "is_reserved": 0, "lon": -77.032935, "fusion_lon": 0.0, "is_disabled": 0, "fusion_lat": 0.0, "bike_id": "7b908bd13c84f5a7d63b0905dd11ca7a", "rental_uris": {"ios": "https://dc.lft.to/lastmile_qr_scan", "android": "https://dc.lft.to/lastmile_qr_scan"}}, {"name": "e983f3cf34689f5f97b3a3fbeef5913a", "type": "electric_scooter", "lat": 38.92424183333333, "is_reserved": 0, "lon": -77.01945483333333, "fusion_lon": 0.0, "is_disabled": 0, "fusion_lat": 0.0, "bike_id": "e983f3cf34689f5f97b3a3fbeef5913a", "rental_uris": {"ios": "https://dc.lft.to/lastmile_qr_scan", "android": "https://dc.lft.to/lastmile_qr_scan"}}, {"name": "dbbbfc91709711d7d55d8a91f8e5dd21", "type": "electric_bike", "lat": 38.85247583333334, "is_reserved": 0, "lon": -77.11429033333333, "fusion_lon": 0.0, "is_disabled": 0, "fusion_lat": 0.0, "bike_id": "dbbbfc91709711d7d55d8a91f8e5dd21", "rental_uris": {"ios": "https://dc.lft.to/lastmile_qr_scan", "android": "https://dc.lft.to/lastmile_qr_scan"}}, {"name": "1f9fe0ff67c5136afd2662ff9ecde011", "type": "electric_scooter", "lat": 38.97514016666667, "is_reserved": 0, "lon": -77.01746533333333, "fusion_lon": 0.0, "is_disabled": 0, "fusion_lat": 0.0, "bike_id": "1f9fe0ff67c5136afd2662ff9ecde011", "rental_uris": {"ios": "https://dc.lft.to/lastmile_qr_scan", "android": "https://dc.lft.to/lastmile_qr_scan"}}, {"name": "29ff0b8cd4526f599b37390a30f7ffc2", "type": "electric_scooter", "lat": 38.84293383333333, "is_reserved": 0, "lon": -76.999481, "fusion_lon": 0.0, "is_disabled": 0, "fusion_lat": 0.0, "bike_id": "29ff0b8cd4526f599b37390a30f7ffc2", "rental_uris": {"ios": "https://dc.lft.to/lastmile_qr_scan", "android": "https://dc.lft.to/lastmile_qr_scan"}}, {"name": "3152fe21bed2c2f826b22c5490f410d7", "type": "electric_scooter", "lat": 38.89943933333333, "is_reserved": 0, "lon": -77.0297625, "fusion_lon": 0.0, "is_disabled": 0, "fusion_lat": 0.0, "bike_id": "3152fe21bed2c2f826b22c5490f410d7", "rental_uris": {"ios": "https://dc.lft.to/lastmile_qr_scan", "android": "https://dc.lft.to/lastmile_qr_scan"}}, {"name": "6132f4f6951457a3cc1115a14d40ca68", "type": "electric_scooter", "lat": 38.9052465, "is_reserved": 0, "lon": -77.0638225, "fusion_lon": 0.0, "is_disabled": 0, "fusion_lat": 0.0, "bike_id": "6132f4f6951457a3cc1115a14d40ca68", "rental_uris": {"ios": "https://dc.lft.to/lastmile_qr_scan", "android": "https://dc.lft.to/lastmile_qr_scan"}}, {"name": "e8ec160b11bc2975b06d48435b98100d", "type": "electric_scooter", "lat": 38.90278766666667, "is_reserved": 0, "lon": -77.03447216666666, "fusion_lon": 0.0, "is_disabled": 0, "fusion_lat": 0.0, "bike_id": "e8ec160b11bc2975b06d48435b98100d", "rental_uris": {"ios": "https://dc.lft.to/lastmile_qr_scan", "android": "https://dc.lft.to/lastmile_qr_scan"}}, {"name": "111dc8336d7b974b936f630616cd39e7", "type": "electric_scooter", "lat": 38.901208833333335, "is_reserved": 0, "lon": -77.05000483333333, "fusion_lon": 0.0, "is_disabled": 0, "fusion_lat": 0.0, "bike_id": "111dc8336d7b974b936f630616cd39e7", "rental_uris": {"ios": "https://dc.lft.to/lastmile_qr_scan", "android": "https://dc.lft.to/lastmile_qr_scan"}}, {"name": "11fd6ad546362069a02c5f0735334c43", "type": "electric_scooter", "lat": 38.884012166666665, "is_reserved": 0, "lon": -77.01967066666667, "fusion_lon": 0.0, "is_disabled": 0, "fusion_lat": 0.0, "bike_id": "11fd6ad546362069a02c5f0735334c43", "rental_uris": {"ios": "https://dc.lft.to/lastmile_qr_scan", "android": "https://dc.lft.to/lastmile_qr_scan"}}, {"name": "993017ce47e3d56000443aa0e3843319", "type": "electric_scooter", "lat": 38.905109333333336, "is_reserved": 0, "lon": -77.0483075, "fusion_lon": 0.0, "is_disabled": 0, "fusion_lat": 0.0, "bike_id": "993017ce47e3d56000443aa0e3843319", "rental_uris": {"ios": "https://dc.lft.to/lastmile_qr_scan", "android": "https://dc.lft.to/lastmile_qr_scan"}}, {"name": "b66ff3fe717fbfc1e163c8bbaac8571e", "type": "electric_scooter", "lat": 38.901971, "is_reserved": 0, "lon": -77.02202316666667, "fusion_lon": 0.0, "is_disabled": 0, "fusion_lat": 0.0, "bike_id": "b66ff3fe717fbfc1e163c8bbaac8571e", "rental_uris": {"ios": "https://dc.lft.to/lastmile_qr_scan", "android": "https://dc.lft.to/lastmile_qr_scan"}}, {"name": "b12c9a300f41738c2a8d39ad8918bb54", "type": "electric_scooter", "lat": 38.912032333333336, "is_reserved": 0, "lon": -77.02968966666667, "fusion_lon": 0.0, "is_disabled": 0, "fusion_lat": 0.0, "bike_id": "b12c9a300f41738c2a8d39ad8918bb54", "rental_uris": {"ios": "https://dc.lft.to/lastmile_qr_scan", "android": "https://dc.lft.to/lastmile_qr_scan"}}, {"name": "c4430af39619007ce61230f0669a1c0d", "type": "electric_scooter", "lat": 38.886751333333336, "is_reserved": 0, "lon": -77.0138175, "fusion_lon": 0.0, "is_disabled": 0, "fusion_lat": 0.0, "bike_id": "c4430af39619007ce61230f0669a1c0d", "rental_uris": {"ios": "https://dc.lft.to/lastmile_qr_scan", "android": "https://dc.lft.to/lastmile_qr_scan"}}, {"name": "46ebe8cff4f55d635e362e971ac0312b", "type": "electric_bike", "lat": 38.884781333333336, "is_reserved": 0, "lon": -77.02107666666667, "fusion_lon": 0.0, "is_disabled": 0, "fusion_lat": 0.0, "bike_id": "46ebe8cff4f55d635e362e971ac0312b", "rental_uris": {"ios": "https://dc.lft.to/lastmile_qr_scan", "android": "https://dc.lft.to/lastmile_qr_scan"}}, {"name": "7dbe18f44e610e3a429a7f7a59183884", "type": "electric_scooter", "lat": 38.92249533333333, "is_reserved": 0, "lon": -77.0307675, "fusion_lon": 0.0, "is_disabled": 0, "fusion_lat": 0.0, "bike_id": "7dbe18f44e610e3a429a7f7a59183884", "rental_uris": {"ios": "https://dc.lft.to/lastmile_qr_scan", "android": "https://dc.lft.to/lastmile_qr_scan"}}, {"name": "4a5e6ca929903a0fea43770f7124dcdc", "type": "electric_scooter", "lat": 38.9192165, "is_reserved": 0, "lon": -77.03207583333334, "fusion_lon": 0.0, "is_disabled": 0, "fusion_lat": 0.0, "bike_id": "4a5e6ca929903a0fea43770f7124dcdc", "rental_uris": {"ios": "https://dc.lft.to/lastmile_qr_scan", "android": "https://dc.lft.to/lastmile_qr_scan"}}, {"name": "19275b8009038b27ce3d6335c8f26236", "type": "electric_scooter", "lat": 38.915159833333334, "is_reserved": 0, "lon": -77.04602783333333, "fusion_lon": 0.0, "is_disabled": 0, "fusion_lat": 0.0, "bike_id": "19275b8009038b27ce3d6335c8f26236", "rental_uris": {"ios": "https://dc.lft.to/lastmile_qr_scan", "android": "https://dc.lft.to/lastmile_qr_scan"}}, {"name": "e2d65b1166d7ec83ea3f44eb13f0caec", "type": "electric_scooter", "lat": 38.8755415, "is_reserved": 0, "lon": -76.96492333333333, "fusion_lon": 0.0, "is_disabled": 0, "fusion_lat": 0.0, "bike_id": "e2d65b1166d7ec83ea3f44eb13f0caec", "rental_uris": {"ios": "https://dc.lft.to/lastmile_qr_scan", "android": "https://dc.lft.to/lastmile_qr_scan"}}, {"name": "593e198697918a629980588b4aed9da0", "type": "electric_scooter", "lat": 38.902724, "is_reserved": 0, "lon": -77.03652683333334, "fusion_lon": 0.0, "is_disabled": 0, "fusion_lat": 0.0, "bike_id": "593e198697918a629980588b4aed9da0", "rental_uris": {"ios": "https://dc.lft.to/lastmile_qr_scan", "android": "https://dc.lft.to/lastmile_qr_scan"}}, {"name": "b8f59d3a792d97ce80b7454a5497fc5f", "type": "electric_scooter", "lat": 38.917052166666664, "is_reserved": 0, "lon": -77.031219, "fusion_lon": 0.0, "is_disabled": 0, "fusion_lat": 0.0, "bike_id": "b8f59d3a792d97ce80b7454a5497fc5f", "rental_uris": {"ios": "https://dc.lft.to/lastmile_qr_scan", "android": "https://dc.lft.to/lastmile_qr_scan"}}, {"name": "380e0b82b81598eedfb83b7614de3f88", "type": "electric_scooter", "lat": 38.899517333333336, "is_reserved": 0, "lon": -76.97550466666667, "fusion_lon": 0.0, "is_disabled": 0, "fusion_lat": 0.0, "bike_id": "380e0b82b81598eedfb83b7614de3f88", "rental_uris": {"ios": "https://dc.lft.to/lastmile_qr_scan", "android": "https://dc.lft.to/lastmile_qr_scan"}}, {"name": "6d00fb9da4836edd33c19636edbbaad6", "type": "electric_scooter", "lat": 38.9306875, "is_reserved": 0, "lon": -77.0412655, "fusion_lon": 0.0, "is_disabled": 0, "fusion_lat": 0.0, "bike_id": "6d00fb9da4836edd33c19636edbbaad6", "rental_uris": {"ios": "https://dc.lft.to/lastmile_qr_scan", "android": "https://dc.lft.to/lastmile_qr_scan"}}, {"name": "1f569edc804ff39bf924fd4888c2d6e7", "type": "electric_scooter", "lat": 38.921634166666664, "is_reserved": 0, "lon": -76.99400666666666, "fusion_lon": 0.0, "is_disabled": 0, "fusion_lat": 0.0, "bike_id": "1f569edc804ff39bf924fd4888c2d6e7", "rental_uris": {"ios": "https://dc.lft.to/lastmile_qr_scan", "android": "https://dc.lft.to/lastmile_qr_scan"}}, {"name": "7d44578ea6e5fabc8a84bd2dfed9f16c", "type": "electric_scooter", "lat": 38.91266, "is_reserved": 0, "lon": -77.00368116666667, "fusion_lon": 0.0, "is_disabled": 0, "fusion_lat": 0.0, "bike_id": "7d44578ea6e5fabc8a84bd2dfed9f16c", "rental_uris": {"ios": "https://dc.lft.to/lastmile_qr_scan", "android": "https://dc.lft.to/lastmile_qr_scan"}}, {"name": "06c32a82a3bff415bb4e5ca75ddbaf0d", "type": "electric_scooter", "lat": 38.89482533333333, "is_reserved": 0, "lon": -76.948724, "fusion_lon": 0.0, "is_disabled": 0, "fusion_lat": 0.0, "bike_id": "06c32a82a3bff415bb4e5ca75ddbaf0d", "rental_uris": {"ios": "https://dc.lft.to/lastmile_qr_scan", "android": "https://dc.lft.to/lastmile_qr_scan"}}, {"name": "a7fea69fbaaa9c73cb704c232cc7c38d", "type": "electric_scooter", "lat": 38.892204666666665, "is_reserved": 0, "lon": -77.04370733333333, "fusion_lon": 0.0, "is_disabled": 0, "fusion_lat": 0.0, "bike_id": "a7fea69fbaaa9c73cb704c232cc7c38d", "rental_uris": {"ios": "https://dc.lft.to/lastmile_qr_scan", "android": "https://dc.lft.to/lastmile_qr_scan"}}, {"name": "f24a24df179185e9839d79ac994438c9", "type": "electric_scooter", "lat": 38.90004883333334, "is_reserved": 0, "lon": -77.05239316666666, "fusion_lon": 0.0, "is_disabled": 0, "fusion_lat": 0.0, "bike_id": "f24a24df179185e9839d79ac994438c9", "rental_uris": {"ios": "https://dc.lft.to/lastmile_qr_scan", "android": "https://dc.lft.to/lastmile_qr_scan"}}, {"name": "cd2820ebfe74232988fbddabaec22b9d", "type": "electric_scooter", "lat": 38.914165833333335, "is_reserved": 0, "lon": -77.03209916666667, "fusion_lon": 0.0, "is_disabled": 0, "fusion_lat": 0.0, "bike_id": "cd2820ebfe74232988fbddabaec22b9d", "rental_uris": {"ios": "https://dc.lft.to/lastmile_qr_scan", "android": "https://dc.lft.to/lastmile_qr_scan"}}, {"name": "133dd8888889a396f351d0869e61c3e0", "type": "electric_scooter", "lat": 38.895264166666664, "is_reserved": 0, "lon": -77.04848283333334, "fusion_lon": 0.0, "is_disabled": 0, "fusion_lat": 0.0, "bike_id": "133dd8888889a396f351d0869e61c3e0", "rental_uris": {"ios": "https://dc.lft.to/lastmile_qr_scan", "android": "https://dc.lft.to/lastmile_qr_scan"}}, {"name": "fce9aa1cd629205440d17677e75372db", "type": "electric_scooter", "lat": 38.902415500000004, "is_reserved": 0, "lon": -77.02647133333333, "fusion_lon": 0.0, "is_disabled": 0, "fusion_lat": 0.0, "bike_id": "fce9aa1cd629205440d17677e75372db", "rental_uris": {"ios": "https://dc.lft.to/lastmile_qr_scan", "android": "https://dc.lft.to/lastmile_qr_scan"}}, {"name": "dbb62006281f781087b2dc07f577f7e3", "type": "electric_scooter", "lat": 38.902672833333334, "is_reserved": 0, "lon": -77.03437966666667, "fusion_lon": 0.0, "is_disabled": 0, "fusion_lat": 0.0, "bike_id": "dbb62006281f781087b2dc07f577f7e3", "rental_uris": {"ios": "https://dc.lft.to/lastmile_qr_scan", "android": "https://dc.lft.to/lastmile_qr_scan"}}, {"name": "2c92ddd279ce8b4e654d44ec45d29cce", "type": "electric_scooter", "lat": 38.90439283333333, "is_reserved": 0, "lon": -76.98484066666667, "fusion_lon": 0.0, "is_disabled": 0, "fusion_lat": 0.0, "bike_id": "2c92ddd279ce8b4e654d44ec45d29cce", "rental_uris": {"ios": "https://dc.lft.to/lastmile_qr_scan", "android": "https://dc.lft.to/lastmile_qr_scan"}}, {"name": "87f467d787da738f5784ae10b3165a69", "type": "electric_scooter", "lat": 38.90363466666667, "is_reserved": 0, "lon": -77.01786433333334, "fusion_lon": 0.0, "is_disabled": 0, "fusion_lat": 0.0, "bike_id": "87f467d787da738f5784ae10b3165a69", "rental_uris": {"ios": "https://dc.lft.to/lastmile_qr_scan", "android": "https://dc.lft.to/lastmile_qr_scan"}}, {"name": "2ee7ee79ee1d4ff72619678adc8b0896", "type": "electric_scooter", "lat": 38.90387, "is_reserved": 0, "lon": -77.042068, "fusion_lon": 0.0, "is_disabled": 0, "fusion_lat": 0.0, "bike_id": "2ee7ee79ee1d4ff72619678adc8b0896", "rental_uris": {"ios": "https://dc.lft.to/lastmile_qr_scan", "android": "https://dc.lft.to/lastmile_qr_scan"}}, {"name": "3c8a6417505cfbceefdc323b930b7f43", "type": "electric_scooter", "lat": 38.90725416666667, "is_reserved": 0, "lon": -77.03550533333333, "fusion_lon": 0.0, "is_disabled": 0, "fusion_lat": 0.0, "bike_id": "3c8a6417505cfbceefdc323b930b7f43", "rental_uris": {"ios": "https://dc.lft.to/lastmile_qr_scan", "android": "https://dc.lft.to/lastmile_qr_scan"}}, {"name": "2a36cde454a239ac4e1fb8fdaf1526b3", "type": "electric_scooter", "lat": 38.885495666666664, "is_reserved": 0, "lon": -77.02950616666666, "fusion_lon": 0.0, "is_disabled": 0, "fusion_lat": 0.0, "bike_id": "2a36cde454a239ac4e1fb8fdaf1526b3", "rental_uris": {"ios": "https://dc.lft.to/lastmile_qr_scan", "android": "https://dc.lft.to/lastmile_qr_scan"}}, {"name": "1225dc158c19a4126ed0808afb069657", "type": "electric_scooter", "lat": 38.90412966666667, "is_reserved": 0, "lon": -76.9733, "fusion_lon": 0.0, "is_disabled": 0, "fusion_lat": 0.0, "bike_id": "1225dc158c19a4126ed0808afb069657", "rental_uris": {"ios": "https://dc.lft.to/lastmile_qr_scan", "android": "https://dc.lft.to/lastmile_qr_scan"}}, {"name": "c9747272ee5249bee9260607d3725cdb", "type": "electric_scooter", "lat": 38.9176255, "is_reserved": 0, "lon": -77.02485833333333, "fusion_lon": 0.0, "is_disabled": 0, "fusion_lat": 0.0, "bike_id": "c9747272ee5249bee9260607d3725cdb", "rental_uris": {"ios": "https://dc.lft.to/lastmile_qr_scan", "android": "https://dc.lft.to/lastmile_qr_scan"}}, {"name": "4f0ec246dc19f4649b1b2339ca3bd64f", "type": "electric_scooter", "lat": 38.9201795, "is_reserved": 0, "lon": -77.03862916666667, "fusion_lon": 0.0, "is_disabled": 0, "fusion_lat": 0.0, "bike_id": "4f0ec246dc19f4649b1b2339ca3bd64f", "rental_uris": {"ios": "https://dc.lft.to/lastmile_qr_scan", "android": "https://dc.lft.to/lastmile_qr_scan"}},