{"data": {"bikes": [{"bike_id": "4aa0dd7ee7147a867ee0e44f2071145d", "fusion_lon": 0.0, "type": "electric_scooter", "name": "4aa0dd7ee7147a867ee0e44f2071145d", "rental_uris": {"android": "https://dc.lft.to/lastmile_qr_scan", "ios": "https://dc.lft.to/lastmile_qr_scan"}, "fusion_lat": 0.0, "lat": 38.94643283333333, "is_disabled": 0, "lon": -77.03036116666667, "is_reserved": 0}, {"bike_id": "fc4137f969932fb32ef20059ebb6bc76", "fusion_lon": 0.0, "type": "electric_scooter", "name": "fc4137f969932fb32ef20059ebb6bc76", "rental_uris": {"android": "https://dc.lft.to/lastmile_qr_scan", "ios": "https://dc.lft.to/lastmile_qr_scan"}, "fusion_lat": 0.0, "lat": 38.897037833333336, "is_disabled": 0, "lon": -77.02311883333333, "is_reserved": 0}, {"bike_id": "605600b292e31fcc1874dd0aecfa1a27", "fusion_lon": 0.0, "type": "electric_scooter", "name": "605600b292e31fcc1874dd0aecfa1a27", "rental_uris": {"android": "https://dc.lft.to/lastmile_qr_scan", "ios": "https://dc.lft.to/lastmile_qr_scan"}, "fusion_lat": 0.0, "lat": 38.9035745, "is_disabled": 0, "lon": -77.02007233333333, "is_reserved": 0}, {"bike_id": "ba354e8d4782e16476e27db761c6596b", "fusion_lon": 0.0, "type": "electric_scooter", "name": "ba354e8d4782e16476e27db761c6596b", "rental_uris": {"android": "https://dc.lft.to/lastmile_qr_scan", "ios": "https://dc.lft.to/lastmile_qr_scan"}, "fusion_lat": 0.0, "lat": 38.89220433333333, "is_disabled": 0, "lon": -77.03229166666667, "is_reserved": 0}, {"bike_id": "b8938b026ab8575f4af2c0c66a64ad65", "fusion_lon": 0.0, "type": "electric_scooter", "name": "b8938b026ab8575f4af2c0c66a64ad65", "rental_uris": {"android": "https://dc.lft.to/lastmile_qr_scan", "ios": "https://dc.lft.to/lastmile_qr_scan"}, "fusion_lat": 0.0, "lat": 38.91688966666667, "is_disabled": 0, "lon": -77.03500983333333, "is_reserved": 0}, {"bike_id": "be0c14042a2b3d8be09f5e3980108abd", "fusion_lon": 0.0, "type": "electric_bike", "name": "be0c14042a2b3d8be09f5e3980108abd", "rental_uris": {"android": "https://dc.lft.to/lastmile_qr_scan", "ios": "https://dc.lft.to/lastmile_qr_scan"}, "fusion_lat": 0.0, "lat": 38.86616183333334, "is_disabled": 0, "lon": -76.94579683333333, "is_reserved": 0}, {"bike_id": "e1995e1f0dd1020fc8c8cc088b8b339c", "fusion_lon": 0.0, "type": "electric_scooter", "name": "e1995e1f0dd1020fc8c8cc088b8b339c", "rental_uris": {"android": "https://dc.lft.to/lastmile_qr_scan", "ios": "https://dc.lft.to/lastmile_qr_scan"}, "fusion_lat": 0.0, "lat": 38.904391, "is_disabled": 0, "lon": -77.06111666666666, "is_reserved": 0}, {"bike_id": "65b62c32697ff793489809e3b2116fb9", "fusion_lon": 0.0, "type": "electric_scooter", "name": "65b62c32697ff793489809e3b2116fb9", "rental_uris": {"android": "https://dc.lft.to/lastmile_qr_scan", "ios": "https://dc.lft.to/lastmile_qr_scan"}, "fusion_lat": 0.0, "lat": 38.9384875, "is_disabled": 0, "lon": -77.02495733333333, "is_reserved": 0}, {"bike_id": "8594070d6654091731a998aa72059717", "fusion_lon": 0.0, "type": "electric_scooter", "name": "8594070d6654091731a998aa72059717", "rental_uris": {"android": "https://dc.lft.to/lastmile_qr_scan", "ios": "https://dc.lft.to/lastmile_qr_scan"}, "fusion_lat": 0.0, "lat": 38.92901833333333, "is_disabled": 0, "lon": -77.03761133333333, "is_reserved": 0}, {"bike_id": "32d51c086b9bac99d6f3d65eace105db", "fusion_lon": 0.0, "type": "electric_scooter", "name": "32d51c086b9bac99d6f3d65eace105db", "rental_uris": {"android": "https://dc.lft.to/lastmile_qr_scan", "ios": "https://dc.lft.to/lastmile_qr_scan"}, "fusion_lat": 0.0, "lat": 38.9169905, "is_disabled": 0, "lon": -77.03861683333334, "is_reserved": 0}, {"bike_id": "93b1c6d0a7c1a0bf3ff669d4b9c9de71", "fusion_lon": 0.0, "type": "electric_scooter", "name": "93b1c6d0a7c1a0bf3ff669d4b9c9de71", "rental_uris": {"android": "https://dc.lft.to/lastmile_qr_scan", "ios": "https://dc.lft.to/lastmile_qr_scan"}, "fusion_lat": 0.0, "lat": 38.9187825, "is_disabled": 0, "lon": -77.04189966666667, "is_reserved": 0}, {"bike_id": "b64224105788bd872829b1d7c0b48ba3", "fusion_lon": 0.0, "type": "electric_scooter", "name": "b64224105788bd872829b1d7c0b48ba3", "rental_uris": {"android": "https://dc.lft.to/lastmile_qr_scan", "ios": "https://dc.lft.to/lastmile_qr_scan"}, "fusion_lat": 0.0, "lat": 38.87685716666667, "is_disabled": 0, "lon": -77.016173, "is_reserved": 0}, {"bike_id": "e6746b74fba1b6b0d471cf5aaa732745", "fusion_lon": 0.0, "type": "electric_scooter", "name": "e6746b74fba1b6b0d471cf5aaa732745", "rental_uris": {"android": "https://dc.lft.to/lastmile_qr_scan", "ios": "https://dc.lft.to/lastmile_qr_scan"}, "fusion_lat": 0.0, "lat": 38.90401166666667, "is_disabled": 0, "lon": -77.0014175, "is_reserved": 0}, {"bike_id": "daeadd7c2244e9f92deea3f808298d91", "fusion_lon": 0.0, "type": "electric_scooter", "name": "daeadd7c2244e9f92deea3f808298d91", "rental_uris": {"android": "https://dc.lft.to/lastmile_qr_scan", "ios": "https://dc.lft.to/lastmile_qr_scan"}, "fusion_lat": 0.0, "lat": 38.909384, "is_disabled": 0, "lon": -77.04485833333334, "is_reserved": 0}, {"bike_id": "4dae2b383cd9a3ef31579a90c1856b74", "fusion_lon": 0.0, "type": "electric_scooter", "name": "4dae2b383cd9a3ef31579a90c1856b74", "rental_uris": {"android": "https://dc.lft.to/lastmile_qr_scan", "ios": "https://dc.lft.to/lastmile_qr_scan"}, "fusion_lat": 0.0, "lat": 38.929854666666664, "is_disabled": 0, "lon": -77.02348833333333, "is_reserved": 0}, {"bike_id": "c2666011a34a1cbb6f7ab2679d967b33", "fusion_lon": 0.0, "type": "electric_bike", "name": "c2666011a34a1cbb6f7ab2679d967b33", "rental_uris": {"android": "https://dc.lft.to/lastmile_qr_scan", "ios": "https://dc.lft.to/lastmile_qr_scan"}, "fusion_lat": 0.0, "lat": 38.936691333333336, "is_disabled": 0, "lon": -76.95208383333333, "is_reserved": 0}, {"bike_id": "ad1fa898998690a9aea69f5d3e3b4193", "fusion_lon": 0.0, "type": "electric_bike", "name": "ad1fa898998690a9aea69f5d3e3b4193", "rental_uris": {"android": "https://dc.lft.to/lastmile_qr_scan", "ios": "https://dc.lft.to/lastmile_qr_scan"}, "fusion_lat": 0.0, "lat": 38.87547766666667, "is_disabled": 0, "lon": -76.96487383333333, "is_reserved": 0}, {"bike_id": "5a208add3d5bea2dcab2ad664bd091a6", "fusion_lon": 0.0, "type": "electric_bike", "name": "5a208add3d5bea2dcab2ad664bd091a6", "rental_uris": {"android": "https://dc.lft.to/lastmile_qr_scan", "ios": "https://dc.lft.to/lastmile_qr_scan"}, "fusion_lat": 0.0, "lat": 38.89810583333333, "is_disabled": 0, "lon": -76.99038716666666, "is_reserved": 0}, {"bike_id": "3ff4ff93f73ea261a383f518daea5048", "fusion_lon": 0.0, "type": "electric_scooter", "name": "3ff4ff93f73ea261a383f518daea5048", "rental_uris": {"android": "https://dc.lft.to/lastmile_qr_scan", "ios": "https://dc.lft.to/lastmile_qr_scan"}, "fusion_lat": 0.0, "lat": 38.910937, "is_disabled": 0, "lon": -77.00149183333333, "is_reserved": 0}, {"bike_id": "3db2440c0456f55605e74cb67dbfffcf", "fusion_lon": 0.0, "type": "electric_scooter", "name": "3db2440c0456f55605e74cb67dbfffcf", "rental_uris": {"android": "https://dc.lft.to/lastmile_qr_scan", "ios": "https://dc.lft.to/lastmile_qr_scan"}, "fusion_lat": 0.0, "lat": 38.92866683333333, "is_disabled": 0, "lon": -77.01394083333334, "is_reserved": 0}, {"bike_id": "7d6942186486d8e5eeba8e83a799297f", "fusion_lon": 0.0, "type": "electric_scooter", "name": "7d6942186486d8e5eeba8e83a799297f", "rental_uris": {"android": "https://dc.lft.to/lastmile_qr_scan", "ios": "https://dc.lft.to/lastmile_qr_scan"}, "fusion_lat": 0.0, "lat": 38.8961125, "is_disabled": 0, "lon": -76.99940283333333, "is_reserved": 0}, {"bike_id": "9062c5590339e63ecc1594605969b04d", "fusion_lon": 0.0, "type": "electric_scooter", "name": "9062c5590339e63ecc1594605969b04d", "rental_uris": {"android": "https://dc.lft.to/lastmile_qr_scan", "ios": "https://dc.lft.to/lastmile_qr_scan"}, "fusion_lat": 0.0, "lat": 38.895227166666665, "is_disabled": 0, "lon": -76.94899383333333, "is_reserved": 0}, {"bike_id": "d02c355f8774cbf325756d54fc603ad4", "fusion_lon": 0.0, "type": "electric_scooter", "name": "d02c355f8774cbf325756d54fc603ad4", "rental_uris": {"android": "https://dc.lft.to/lastmile_qr_scan", "ios": "https://dc.lft.to/lastmile_qr_scan"}, "fusion_lat": 0.0, "lat": 38.952876333333336, "is_disabled": 0, "lon": -77.06990433333333, "is_reserved": 0}, {"bike_id": "7f63a63437da80e415073eb7d9890844", "fusion_lon": 0.0, "type": "electric_scooter", "name": "7f63a63437da80e415073eb7d9890844", "rental_uris": {"android": "https://dc.lft.to/lastmile_qr_scan", "ios": "https://dc.lft.to/lastmile_qr_scan"}, "fusion_lat": 0.0, "lat": 38.9056905, "is_disabled": 0, "lon": -77.030772, "is_reserved": 0}, {"bike_id": "a1d1ff67b8739fd8eb568aad10a8e0e8", "fusion_lon": 0.0, "type": "electric_scooter", "name": "a1d1ff67b8739fd8eb568aad10a8e0e8", "rental_uris": {"android": "https://dc.lft.to/lastmile_qr_scan", "ios": "https://dc.lft.to/lastmile_qr_scan"}, "fusion_lat": 0.0, "lat": 38.94946983333333, "is_disabled": 0, "lon": -76.9958085, "is_reserved": 0}, {"bike_id": "4a9cf3452fbad2f8db730ba0090c8ba0", "fusion_lon": 0.0, "type": "electric_scooter", "name": "4a9cf3452fbad2f8db730ba0090c8ba0", "rental_uris": {"android": "https://dc.lft.to/lastmile_qr_scan", "ios": "https://dc.lft.to/lastmile_qr_scan"}, "fusion_lat": 0.0, "lat": 38.919224166666666, "is_disabled": 0, "lon": -77.03419933333333, "is_reserved": 0}, {"bike_id": "c47e2ac11f1304af778eb4119f87ba34", "fusion_lon": 0.0, "type": "electric_scooter", "name": "c47e2ac11f1304af778eb4119f87ba34", "rental_uris": {"android": "https://dc.lft.to/lastmile_qr_scan", "ios": "https://dc.lft.to/lastmile_qr_scan"}, "fusion_lat": 0.0, "lat": 38.89873133333333, "is_disabled": 0, "lon": -76.9318565, "is_reserved": 0}, {"bike_id": "a223fb21b734b5198c3442f5f61bed36", "fusion_lon": 0.0, "type": "electric_scooter", "name": "a223fb21b734b5198c3442f5f61bed36", "rental_uris": {"android": "https://dc.lft.to/lastmile_qr_scan", "ios": "https://dc.lft.to/lastmile_qr_scan"}, "fusion_lat": 0.0, "lat": 38.923405833333334, "is_disabled": 0, "lon": -77.035602, "is_reserved": 0}, {"bike_id": "f5d035b598b2d8f67b07f8edff43dd71", "fusion_lon": 0.0, "type": "electric_scooter", "name": "f5d035b598b2d8f67b07f8edff43dd71", "rental_uris": {"android": "https://dc.lft.to/lastmile_qr_scan", "ios": "https://dc.lft.to/lastmile_qr_scan"}, "fusion_lat": 0.0, "lat": 38.900909666666664, "is_disabled": 0, "lon": -76.99501683333334, "is_reserved": 0}, {"bike_id": "26c75f3a96453bafba6afaa7c52358f2", "fusion_lon": 0.0, "type": "electric_bike", "name": "26c75f3a96453bafba6afaa7c52358f2", "rental_uris": {"android": "https://dc.lft.to/lastmile_qr_scan", "ios": "https://dc.lft.to/lastmile_qr_scan"}, "fusion_lat": 0.0, "lat": 38.869736833333334, "is_disabled": 0, "lon": -77.132315, "is_reserved": 0}, {"bike_id": "c0dc63c7b74a4c152f60c7ac994b27f6", "fusion_lon": 0.0, "type": "electric_scooter", "name": "c0dc63c7b74a4c152f60c7ac994b27f6", "rental_uris": {"android": "https://dc.lft.to/lastmile_qr_scan", "ios": "https://dc.lft.to/lastmile_qr_scan"}, "fusion_lat": 0.0, "lat": 38.898151666666664, "is_disabled": 0, "lon": -77.02814416666666, "is_reserved": 0}, {"bike_id": "dd979cb8ac8ff7b844f5eef2dfbbbaa9", "fusion_lon": 0.0, "type": "electric_scooter", "name": "dd979cb8ac8ff7b844f5eef2dfbbbaa9", "rental_uris": {"android": "https://dc.lft.to/lastmile_qr_scan", "ios": "https://dc.lft.to/lastmile_qr_scan"}, "fusion_lat": 0.0, "lat": 38.9180745, "is_disabled": 0, "lon": -77.034438, "is_reserved": 0}, {"bike_id": "3a10939a7bd30a2b1985f7f6ba9379ca", "fusion_lon": 0.0, "type": "electric_scooter", "name": "3a10939a7bd30a2b1985f7f6ba9379ca", "rental_uris": {"android": "https://dc.lft.to/lastmile_qr_scan", "ios": "https://dc.lft.to/lastmile_qr_scan"}, "fusion_lat": 0.0, "lat": 38.88385516666666, "is_disabled": 0, "lon": -76.9854025, "is_reserved": 0}, {"bike_id": "2cefdf758b314b290776a1031aa499da", "fusion_lon": 0.0, "type": "electric_scooter", "name": "2cefdf758b314b290776a1031aa499da", "rental_uris": {"android": "https://dc.lft.to/lastmile_qr_scan", "ios": "https://dc.lft.to/lastmile_qr_scan"}, "fusion_lat": 0.0, "lat": 38.8748475, "is_disabled": 0, "lon": -77.0018285, "is_reserved": 0}, {"bike_id": "6385243c67586aadd8c0f33d6f4de5de", "fusion_lon": 0.0, "type": "electric_scooter", "name": "6385243c67586aadd8c0f33d6f4de5de", "rental_uris": {"android": "https://dc.lft.to/lastmile_qr_scan", "ios": "https://dc.lft.to/lastmile_qr_scan"}, "fusion_lat": 0.0, "lat": 38.9180645, "is_disabled": 0, "lon": -77.03440133333334, "is_reserved": 0}, {"bike_id": "3f1bed590b42b32c2e3c9238ad3a00dd", "fusion_lon": 0.0, "type": "electric_scooter", "name": "3f1bed590b42b32c2e3c9238ad3a00dd", "rental_uris": {"android": "https://dc.lft.to/lastmile_qr_scan", "ios": "https://dc.lft.to/lastmile_qr_scan"}, "fusion_lat": 0.0, "lat": 38.92140233333333, "is_disabled": 0, "lon": -77.04138616666667, "is_reserved": 0}, {"bike_id": "0721bb64005c3824d01bcdc29d8bad01", "fusion_lon": 0.0, "type": "electric_bike", "name": "0721bb64005c3824d01bcdc29d8bad01", "rental_uris": {"android": "https://dc.lft.to/lastmile_qr_scan", "ios": "https://dc.lft.to/lastmile_qr_scan"}, "fusion_lat": 0.0, "lat": 38.904241999999996, "is_disabled": 0, "lon": -77.02643133333333, "is_reserved": 0}, {"bike_id": "7e2c92416918e99cdf366fd9faf3a50e", "fusion_lon": 0.0, "type": "electric_scooter", "name": "7e2c92416918e99cdf366fd9faf3a50e", "rental_uris": {"android": "https://dc.lft.to/lastmile_qr_scan", "ios": "https://dc.lft.to/lastmile_qr_scan"}, "fusion_lat": 0.0, "lat": 38.89788433333333, "is_disabled": 0, "lon": -77.00750683333334, "is_reserved": 0}, {"bike_id": "a0a7eb6f7b9a558f5f17d827a58a190d", "fusion_lon": 0.0, "type": "electric_scooter", "name": "a0a7eb6f7b9a558f5f17d827a58a190d", "rental_uris": {"android": "https://dc.lft.to/lastmile_qr_scan", "ios": "https://dc.lft.to/lastmile_qr_scan"}, "fusion_lat": 0.0, "lat": 38.91187633333333, "is_disabled": 0, "lon": -77.01889483333333, "is_reserved": 0}, {"bike_id": "0fa1d18d67a3cc52cd2a92b04881d03b", "fusion_lon": 0.0, "type": "electric_scooter", "name": "0fa1d18d67a3cc52cd2a92b04881d03b", "rental_uris": {"android": "https://dc.lft.to/lastmile_qr_scan", "ios": "https://dc.lft.to/lastmile_qr_scan"}, "fusion_lat": 0.0, "lat": 38.90095566666667, "is_disabled": 0, "lon": -77.039191, "is_reserved": 0}, {"bike_id": "f2f1b9fec8039fd1f518a3282938a6f2", "fusion_lon": 0.0, "type": "electric_scooter", "name": "f2f1b9fec8039fd1f518a3282938a6f2", "rental_uris": {"android": "https://dc.lft.to/lastmile_qr_scan", "ios": "https://dc.lft.to/lastmile_qr_scan"}, "fusion_lat": 0.0, "lat": 38.947768833333335, "is_disabled": 0, "lon": -77.06755133333333, "is_reserved": 0}, {"bike_id": "9098c5324dcf0951cbfec857598fab14", "fusion_lon": 0.0, "type": "electric_scooter", "name": "9098c5324dcf0951cbfec857598fab14", "rental_uris": {"android": "https://dc.lft.to/lastmile_qr_scan", "ios": "https://dc.lft.to/lastmile_qr_scan"}, "fusion_lat": 0.0, "lat": 38.9223405, "is_disabled": 0, "lon": -77.04257333333334, "is_reserved": 0}, {"bike_id": "24826de1a6ee0262201f705b24f42b54", "fusion_lon": 0.0, "type": "electric_scooter", "name": "24826de1a6ee0262201f705b24f42b54", "rental_uris": {"android": "https://dc.lft.to/lastmile_qr_scan", "ios": "https://dc.lft.to/lastmile_qr_scan"}, "fusion_lat": 0.0, "lat": 38.919238666666665, "is_disabled": 0, "lon": -77.02478316666667, "is_reserved": 0}, {"bike_id": "a9eef0f85362c77d1447e5c5669ec72c", "fusion_lon": 0.0, "type": "electric_scooter", "name": "a9eef0f85362c77d1447e5c5669ec72c", "rental_uris": {"android": "https://dc.lft.to/lastmile_qr_scan", "ios": "https://dc.lft.to/lastmile_qr_scan"}, "fusion_lat": 0.0, "lat": 38.859702166666665, "is_disabled": 0, "lon": -76.98419716666666, "is_reserved": 0}, {"bike_id": "69f13c812849b5c429d04a073a58cb6a", "fusion_lon": 0.0, "type": "electric_bike", "name": "69f13c812849b5c429d04a073a58cb6a", "rental_uris": {"android": "https://dc.lft.to/lastmile_qr_scan", "ios": "https://dc.lft.to/lastmile_qr_scan"}, "fusion_lat": 0.0, "lat": 38.9284895, "is_disabled": 0, "lon": -77.10514683333334, "is_reserved": 0}, {"bike_id": "3c15aefca1ef901af18ebb5900300f51", "fusion_lon": 0.0, "type": "electric_scooter", "name": "3c15aefca1ef901af18ebb5900300f51", "rental_uris": {"android": "https://dc.lft.to/lastmile_qr_scan", "ios": "https://dc.lft.to/lastmile_qr_scan"}, "fusion_lat": 0.0, "lat": 38.90772366666667, "is_disabled": 0, "lon": -77.04501233333333, "is_reserved": 0}, {"bike_id": "6815a7af8c0435dcd1afe3723461822f", "fusion_lon": 0.0, "type": "electric_bike", "name": "6815a7af8c0435dcd1afe3723461822f", "rental_uris": {"android": "https://dc.lft.to/lastmile_qr_scan", "ios": "https://dc.lft.to/lastmile_qr_scan"}, "fusion_lat": 0.0, "lat": 38.9186365, "is_disabled": 0, "lon": -76.99951133333333, "is_reserved": 0}, {"bike_id": "cb17d5843121be1d790d0b2c19fb2d1b", "fusion_lon": 0.0, "type": "electric_scooter", "name": "cb17d5843121be1d790d0b2c19fb2d1b", "rental_uris": {"android": "https://dc.lft.to/lastmile_qr_scan", "ios": "https://dc.lft.to/lastmile_qr_scan"}, "fusion_lat": 0.0, "lat": 38.942901166666665, "is_disabled": 0, "lon": -77.02763816666666, "is_reserved": 0}, {"bike_id": "a3e6b872ff8f36a9388e68f4c8094769", "fusion_lon": 0.0, "type": "electric_bike", "name": "a3e6b872ff8f36a9388e68f4c8094769", "rental_uris": {"android": "https://dc.lft.to/lastmile_qr_scan", "ios": "https://dc.lft.to/lastmile_qr_scan"}, "fusion_lat": 0.0, "lat": 38.84905466666667, "is_disabled": 0, "lon": -77.10123316666666, "is_reserved": 0}, {"bike_id": "c627e76f50978c613a96ac135107bc6b", "fusion_lon": 0.0, "type": "electric_scooter", "name": "c627e76f50978c613a96ac135107bc6b", "rental_uris": {"android": "https://dc.lft.to/lastmile_qr_scan", "ios": "https://dc.lft.to/lastmile_qr_scan"}, "fusion_lat": 0.0, "lat": 38.899317, "is_disabled": 0, "lon": -77.05528433333333, "is_reserved": 0}, {"bike_id": "09750848c9fb9370f84c07220b89f61f", "fusion_lon": 0.0, "type": "electric_scooter", "name": "09750848c9fb9370f84c07220b89f61f", "rental_uris": {"android": "https://dc.lft.to/lastmile_qr_scan", "ios": "https://dc.lft.to/lastmile_qr_scan"}, "fusion_lat": 0.0, "lat": 38.917781833333336, "is_disabled": 0, "lon": -77.04251833333333, "is_reserved": 0}, {"bike_id": "58dbad4cc9c12903809f915f941af5d2", "fusion_lon": 0.0, "type": "electric_scooter", "name": "58dbad4cc9c12903809f915f941af5d2", "rental_uris": {"android": "https://dc.lft.to/lastmile_qr_scan", "ios": "https://dc.lft.to/lastmile_qr_scan"}, "fusion_lat": 0.0, "lat": 38.8885795, "is_disabled": 0, "lon": -76.99602733333333, "is_reserved": 0}, {"bike_id": "a0e641cbbf6115d83783c38c61a8faae", "fusion_lon": 0.0, "type": "electric_bike", "name": "a0e641cbbf6115d83783c38c61a8faae", "rental_uris": {"android": "https://dc.lft.to/lastmile_qr_scan", "ios": "https://dc.lft.to/lastmile_qr_scan"}, "fusion_lat": 0.0, "lat": 38.982181833333335, "is_disabled": 0, "lon": -77.02649866666667, "is_reserved": 0}, {"bike_id": "dba8658ba406c80b91dcdc8aa532ff89", "fusion_lon": 0.0, "type": "electric_scooter", "name": "dba8658ba406c80b91dcdc8aa532ff89", "rental_uris": {"android": "https://dc.lft.to/lastmile_qr_scan", "ios": "https://dc.lft.to/lastmile_qr_scan"}, "fusion_lat": 0.0, "lat": 38.923557333333335, "is_disabled": 0, "lon": -77.04406633333333, "is_reserved": 0}, {"bike_id": "b69ed4e39759544f263eef584e59edcb", "fusion_lon": 0.0, "type": "electric_scooter", "name": "b69ed4e39759544f263eef584e59edcb", "rental_uris": {"android": "https://dc.lft.to/lastmile_qr_scan", "ios": "https://dc.lft.to/lastmile_qr_scan"}, "fusion_lat": 0.0, "lat": 38.862179166666664, "is_disabled": 0, "lon": -76.99498433333333, "is_reserved": 0}, {"bike_id": "10ad92b6315535b0742a0eaeb970e9c1", "fusion_lon": 0.0, "type": "electric_scooter", "name": "10ad92b6315535b0742a0eaeb970e9c1", "rental_uris": {"android": "https://dc.lft.to/lastmile_qr_scan", "ios": "https://dc.lft.to/lastmile_qr_scan"}, "fusion_lat": 0.0, "lat": 38.9036235, "is_disabled": 0, "lon": -77.04495, "is_reserved": 0}, {"bike_id": "fc5ca7ad43353640f37e1942d126a512", "fusion_lon": 0.0, "type": "electric_scooter", "name": "fc5ca7ad43353640f37e1942d126a512", "rental_uris": {"android": "https://dc.lft.to/lastmile_qr_scan", "ios": "https://dc.lft.to/lastmile_qr_scan"}, "fusion_lat": 0.0, "lat": 38.96222366666667, "is_disabled": 0, "lon": -77.02979, "is_reserved": 0}, {"bike_id": "d9028eec3b6c815f9dc02d7f1fd8766f", "fusion_lon": 0.0, "type": "electric_scooter", "name": "d9028eec3b6c815f9dc02d7f1fd8766f", "rental_uris": {"android": "https://dc.lft.to/lastmile_qr_scan", "ios": "https://dc.lft.to/lastmile_qr_scan"}, "fusion_lat": 0.0, "lat": 38.87662266666667, "is_disabled": 0, "lon": -77.00583733333333, "is_reserved": 0}, {"bike_id": "e85567200e526a4ad379414e97b72788", "fusion_lon": 0.0, "type": "electric_bike", "name": "e85567200e526a4ad379414e97b72788", "rental_uris": {"android": "https://dc.lft.to/lastmile_qr_scan", "ios": "https://dc.lft.to/lastmile_qr_scan"}, "fusion_lat": 0.0, "lat": 38.85212633333333, "is_disabled": 0, "lon": -77.101309, "is_reserved": 0}, {"bike_id": "9a2b676d3a9fc8b9b59439514881c33c", "fusion_lon": 0.0, "type": "electric_scooter", "name": "9a2b676d3a9fc8b9b59439514881c33c", "rental_uris": {"android": "https://dc.lft.to/lastmile_qr_scan", "ios": "https://dc.lft.to/lastmile_qr_scan"}, "fusion_lat": 0.0, "lat": 38.90532433333333, "is_disabled": 0, "lon": -77.06170083333333, "is_reserved": 0}, {"bike_id": "a6ff6b505d94b89868ab7147b3862102", "fusion_lon": 0.0, "type": "electric_scooter", "name": "a6ff6b505d94b89868ab7147b3862102", "rental_uris": {"android": "https://dc.lft.to/lastmile_qr_scan", "ios": "https://dc.lft.to/lastmile_qr_scan"}, "fusion_lat": 0.0, "lat": 38.9033875, "is_disabled": 0, "lon": -77.03499466666666, "is_reserved": 0}, {"bike_id": "3bfb70942a0035eb8e74d1bc0800e9cd", "fusion_lon": 0.0, "type": "electric_scooter", "name": "3bfb70942a0035eb8e74d1bc0800e9cd", "rental_uris": {"android": "https://dc.lft.to/lastmile_qr_scan", "ios": "https://dc.lft.to/lastmile_qr_scan"}, "fusion_lat": 0.0, "lat": 38.90403083333333, "is_disabled": 0, "lon": -77.001429, "is_reserved": 0}, {"bike_id": "c9d92ae38703f947695e8c848bab70e3", "fusion_lon": 0.0, "type": "electric_scooter", "name": "c9d92ae38703f947695e8c848bab70e3", "rental_uris": {"android": "https://dc.lft.to/lastmile_qr_scan", "ios": "https://dc.lft.to/lastmile_qr_scan"}, "fusion_lat": 0.0, "lat": 38.90463583333333, "is_disabled": 0, "lon": -77.03854933333334, "is_reserved": 0}, {"bike_id": "bb7c27842a47de7f7f2c9b834be7961d", "fusion_lon": 0.0, "type": "electric_scooter", "name": "bb7c27842a47de7f7f2c9b834be7961d", "rental_uris": {"android": "https://dc.lft.to/lastmile_qr_scan", "ios": "https://dc.lft.to/lastmile_qr_scan"}, "fusion_lat": 0.0, "lat": 38.936833, "is_disabled": 0, "lon": -77.03288216666667, "is_reserved": 0}, {"bike_id": "bbb20136e9b4811be8bb08522cbcf620", "fusion_lon": 0.0, "type": "electric_scooter", "name": "bbb20136e9b4811be8bb08522cbcf620", "rental_uris": {"android": "https://dc.lft.to/lastmile_qr_scan", "ios": "https://dc.lft.to/lastmile_qr_scan"}, "fusion_lat": 0.0, "lat": 38.956269666666664, "is_disabled": 0, "lon": -77.02995816666666, "is_reserved": 0}, {"bike_id": "73da3c46bda7bf6d176bb9111b392d4c", "fusion_lon": 0.0, "type": "electric_scooter", "name": "73da3c46bda7bf6d176bb9111b392d4c", "rental_uris": {"android": "https://dc.lft.to/lastmile_qr_scan", "ios": "https://dc.lft.to/lastmile_qr_scan"}, "fusion_lat": 0.0, "lat": 38.902349666666666, "is_disabled": 0, "lon": -77.00204883333333, "is_reserved": 0}, {"bike_id": "f18ce9406199b5194cdb897ac1ab1a8a", "fusion_lon": 0.0, "type": "electric_scooter", "name": "f18ce9406199b5194cdb897ac1ab1a8a", "rental_uris": {"android": "https://dc.lft.to/lastmile_qr_scan", "ios": "https://dc.lft.to/lastmile_qr_scan"}, "fusion_lat": 0.0, "lat": 38.916096333333336, "is_disabled": 0, "lon": -77.02305566666666, "is_reserved": 0}, {"bike_id": "9fb5de216a6fdf7a31637488fddf074c", "fusion_lon": 0.0, "type": "electric_bike", "name": "9fb5de216a6fdf7a31637488fddf074c", "rental_uris": {"android": "https://dc.lft.to/lastmile_qr_scan", "ios": "https://dc.lft.to/lastmile_qr_scan"}, "fusion_lat": 0.0, "lat": 38.84104283333333, "is_disabled": 0, "lon": -77.08948166666667, "is_reserved": 0}, {"bike_id": "92b15d5fe3e09f28ac2e842f230a09fe", "fusion_lon": 0.0, "type": "electric_bike", "name": "92b15d5fe3e09f28ac2e842f230a09fe", "rental_uris": {"android": "https://dc.lft.to/lastmile_qr_scan", "ios": "https://dc.lft.to/lastmile_qr_scan"}, "fusion_lat": 0.0, "lat": 38.812324, "is_disabled": 0, "lon": -77.04082066666666, "is_reserved": 0}, {"bike_id": "268dd0c6e2dc11694244c925e24f418f", "fusion_lon": 0.0, "type": "electric_scooter", "name": "268dd0c6e2dc11694244c925e24f418f", "rental_uris": {"android": "https://dc.lft.to/lastmile_qr_scan", "ios": "https://dc.lft.to/lastmile_qr_scan"}, "fusion_lat": 0.0, "lat": 38.9035435, "is_disabled": 0, "lon": -77.03218266666667, "is_reserved": 0}, {"bike_id": "f9b61153008a62cd132fef68a5abd1dc", "fusion_lon": 0.0, "type": "electric_scooter", "name": "f9b61153008a62cd132fef68a5abd1dc", "rental_uris": {"android": "https://dc.lft.to/lastmile_qr_scan", "ios": "https://dc.lft.to/lastmile_qr_scan"}, "fusion_lat": 0.0, "lat": 38.916221666666665, "is_disabled": 0, "lon": -77.02605333333334, "is_reserved": 0}, {"bike_id": "5fa407a30fca6ece99d6b47ba1f49090", "fusion_lon": 0.0, "type": "electric_bike", "name": "5fa407a30fca6ece99d6b47ba1f49090", "rental_uris": {"android": "https://dc.lft.to/lastmile_qr_scan", "ios": "https://dc.lft.to/lastmile_qr_scan"}, "fusion_lat": 0.0, "lat": 38.92405433333333, "is_disabled": 0, "lon": -77.05048316666667, "is_reserved": 0}, {"bike_id": "5a249e5cfb0a0e9fb42194a74cde2a4b", "fusion_lon": 0.0, "type": "electric_scooter", "name": "5a249e5cfb0a0e9fb42194a74cde2a4b", "rental_uris": {"android": "https://dc.lft.to/lastmile_qr_scan", "ios": "https://dc.lft.to/lastmile_qr_scan"}, "fusion_lat": 0.0, "lat": 38.887300833333335, "is_disabled": 0, "lon": -77.02626516666666, "is_reserved": 0}, {"bike_id": "927f014a8a1159d5d37450ec3ab49817", "fusion_lon": 0.0, "type": "electric_scooter", "name": "927f014a8a1159d5d37450ec3ab49817", "rental_uris": {"android": "https://dc.lft.to/lastmile_qr_scan", "ios": "https://dc.lft.to/lastmile_qr_scan"}, "fusion_lat": 0.0, "lat": 38.917234, "is_disabled": 0, "lon": -77.01908833333333, "is_reserved": 0}, {"bike_id": "3c20773c98f7bd42d17b3413ed3655a6", "fusion_lon": 0.0, "type": "electric_scooter", "name": "3c20773c98f7bd42d17b3413ed3655a6", "rental_uris": {"android": "https://dc.lft.to/lastmile_qr_scan", "ios": "https://dc.lft.to/lastmile_qr_scan"}, "fusion_lat": 0.0, "lat": 38.88681283333333, "is_disabled": 0, "lon": -76.9524195, "is_reserved": 0}, {"bike_id": "4229bec99eb3df42f08b71d6936cc3aa", "fusion_lon": 0.0, "type": "electric_scooter", "name": "4229bec99eb3df42f08b71d6936cc3aa", "rental_uris": {"android": "https://dc.lft.to/lastmile_qr_scan", "ios": "https://dc.lft.to/lastmile_qr_scan"}, "fusion_lat": 0.0, "lat": 38.956507, "is_disabled": 0, "lon": -77.03301033333334, "is_reserved": 0}, {"bike_id": "d54f0164eadf35f246a09098b5ae34cb", "fusion_lon": 0.0, "type": "electric_bike", "name": "d54f0164eadf35f246a09098b5ae34cb", "rental_uris": {"android": "https://dc.lft.to/lastmile_qr_scan", "ios": "https://dc.lft.to/lastmile_qr_scan"}, "fusion_lat": 0.0, "lat": 38.87234083333333, "is_disabled": 0, "lon": -76.9320625, "is_reserved": 0}, {"bike_id": "cfb109061841f2bc8ea987bdb91264af", "fusion_lon": 0.0, "type": "electric_scooter", "name": "cfb109061841f2bc8ea987bdb91264af", "rental_uris": {"android": "https://dc.lft.to/lastmile_qr_scan", "ios": "https://dc.lft.to/lastmile_qr_scan"}, "fusion_lat": 0.0, "lat": 38.9198155, "is_disabled": 0, "lon": -77.03313616666667, "is_reserved": 0}, {"bike_id": "079d4ae37de426e0741649df355ea662", "fusion_lon": 0.0, "type": "electric_scooter", "name": "079d4ae37de426e0741649df355ea662", "rental_uris": {"android": "https://dc.lft.to/lastmile_qr_scan", "ios": "https://dc.lft.to/lastmile_qr_scan"}, "fusion_lat": 0.0, "lat": 38.95001083333333, "is_disabled": 0, "lon": -77.02715183333333, "is_reserved": 0}, {"bike_id": "c7d5c2afde34d4347f8f5e12e55b70f8", "fusion_lon": 0.0, "type": "electric_scooter", "name": "c7d5c2afde34d4347f8f5e12e55b70f8", "rental_uris": {"android": "https://dc.lft.to/lastmile_qr_scan", "ios": "https://dc.lft.to/lastmile_qr_scan"}, "fusion_lat": 0.0, "lat": 38.92497133333333, "is_disabled": 0, "lon": -77.02257666666667, "is_reserved": 0}, {"bike_id": "ed3ff5c516e77de59ae9277b7405c55a", "fusion_lon": 0.0, "type": "electric_scooter", "name": "ed3ff5c516e77de59ae9277b7405c55a", "rental_uris": {"android": "https://dc.lft.to/lastmile_qr_scan", "ios": "https://dc.lft.to/lastmile_qr_scan"}, "fusion_lat": 0.0, "lat": 38.934108, "is_disabled": 0, "lon": -77.032843, "is_reserved": 0}, {"bike_id": "70f08e32a9a766b0d119682783806b2f", "fusion_lon": 0.0, "type": "electric_scooter", "name": "70f08e32a9a766b0d119682783806b2f", "rental_uris": {"android": "https://dc.lft.to/lastmile_qr_scan", "ios": "https://dc.lft.to/lastmile_qr_scan"}, "fusion_lat": 0.0, "lat": 38.902207833333335, "is_disabled": 0, "lon": -77.05150583333334, "is_reserved": 0}, {"bike_id": "246dfd1747fe871b41c2a08ff408fbee", "fusion_lon": 0.0, "type": "electric_bike", "name": "246dfd1747fe871b41c2a08ff408fbee", "rental_uris": {"android": "https://dc.lft.to/lastmile_qr_scan", "ios": "https://dc.lft.to/lastmile_qr_scan"}, "fusion_lat": 0.0, "lat": 38.988209, "is_disabled": 0, "lon": -76.98762683333334, "is_reserved": 0}, {"bike_id": "339a612ef253ab972bb75995958b469b", "fusion_lon": 0.0, "type": "electric_scooter", "name": "339a612ef253ab972bb75995958b469b", "rental_uris": {"android": "https://dc.lft.to/lastmile_qr_scan", "ios": "https://dc.lft.to/lastmile_qr_scan"}, "fusion_lat": 0.0, "lat": 38.844225333333334, "is_disabled": 0, "lon": -76.99784133333333, "is_reserved": 0}, {"bike_id": "660a7be114c776cb31840e1fbe6c8dad", "fusion_lon": 0.0, "type": "electric_scooter", "name": "660a7be114c776cb31840e1fbe6c8dad", "rental_uris": {"android": "https://dc.lft.to/lastmile_qr_scan", "ios": "https://dc.lft.to/lastmile_qr_scan"}, "fusion_lat": 0.0, "lat": 38.91770133333333, "is_disabled": 0, "lon": -77.02300816666667, "is_reserved": 0}, {"bike_id": "ac6e4f5eb3255909cbc74c8fdaa38b3d", "fusion_lon": 0.0, "type": "electric_scooter", "name": "ac6e4f5eb3255909cbc74c8fdaa38b3d", "rental_uris": {"android": "https://dc.lft.to/lastmile_qr_scan", "ios": "https://dc.lft.to/lastmile_qr_scan"}, "fusion_lat": 0.0, "lat": 38.90183283333333, "is_disabled": 0, "lon": -76.9347055, "is_reserved": 0}, {"bike_id": "bc28c07da5b45785e0342703c224d8f4", "fusion_lon": 0.0, "type": "electric_scooter", "name": "bc28c07da5b45785e0342703c224d8f4", "rental_uris": {"android": "https://dc.lft.to/lastmile_qr_scan", "ios": "https://dc.lft.to/lastmile_qr_scan"}, "fusion_lat": 0.0, "lat": 38.8955795, "is_disabled": 0, "lon": -77.02163983333334, "is_reserved": 0}, {"bike_id": "52f6063de0d425e395c497269a871428", "fusion_lon": 0.0, "type": "electric_bike", "name": "52f6063de0d425e395c497269a871428", "rental_uris": {"android": "https://dc.lft.to/lastmile_qr_scan", "ios": "https://dc.lft.to/lastmile_qr_scan"}, "fusion_lat": 0.0, "lat": 38.95406633333333, "is_disabled": 0, "lon": -76.94293233333333, "is_reserved": 0}, {"bike_id": "8f2fa9fd24e0bbd0620fb52370617709", "fusion_lon": 0.0, "type": "electric_scooter", "name": "8f2fa9fd24e0bbd0620fb52370617709", "rental_uris": {"android": "https://dc.lft.to/lastmile_qr_scan", "ios": "https://dc.lft.to/lastmile_qr_scan"}, "fusion_lat": 0.0, "lat": 38.9241345, "is_disabled": 0, "lon": -77.019414, "is_reserved": 0}, {"bike_id": "253b19327567bd18887bb1163ba93b0f", "fusion_lon": 0.0, "type": "electric_scooter", "name": "253b19327567bd18887bb1163ba93b0f", "rental_uris": {"android": "https://dc.lft.to/lastmile_qr_scan", "ios": "https://dc.lft.to/lastmile_qr_scan"}, "fusion_lat": 0.0, "lat": 38.84617516666667, "is_disabled": 0, "lon": -76.99632566666666, "is_reserved": 0}, {"bike_id": "e337c2a696de3d154e07c3fd20e37cee", "fusion_lon": 0.0, "type": "electric_scooter", "name": "e337c2a696de3d154e07c3fd20e37cee", "rental_uris": {"android": "https://dc.lft.to/lastmile_qr_scan", "ios": "https://dc.lft.to/lastmile_qr_scan"}, "fusion_lat": 0.0, "lat": 38.89746133333333, "is_disabled": 0, "lon": -77.028747, "is_reserved": 0}, {"bike_id": "a98d7411ac8b324dd71080f2247811a7", "fusion_lon": 0.0, "type": "electric_scooter", "name": "a98d7411ac8b324dd71080f2247811a7", "rental_uris": {"android": "https://dc.lft.to/lastmile_qr_scan", "ios": "https://dc.lft.to/lastmile_qr_scan"}, "fusion_lat": 0.0, "lat": 38.924169, "is_disabled": 0, "lon": -77.0201545, "is_reserved": 0}, {"bike_id": "db2a8234b558d6b008f55cfb6a1411a9", "fusion_lon": 0.0, "type": "electric_scooter", "name": "db2a8234b558d6b008f55cfb6a1411a9", "rental_uris": {"android": "https://dc.lft.to/lastmile_qr_scan", "ios": "https://dc.lft.to/lastmile_qr_scan"}, "fusion_lat": 0.0, "lat": 38.91396683333333, "is_disabled": 0, "lon": -77.04182083333333, "is_reserved": 0}, {"bike_id": "7a0842ffe9b0a43e60b1e68d6c814053", "fusion_lon": 0.0, "type": "electric_scooter", "name": "7a0842ffe9b0a43e60b1e68d6c814053", "rental_uris": {"android": "https://dc.lft.to/lastmile_qr_scan", "ios": "https://dc.lft.to/lastmile_qr_scan"}, "fusion_lat": 0.0, "lat": 38.95521433333333, "is_disabled": 0, "lon": -77.00745333333333, "is_reserved": 0}, {"bike_id": "465edeb132eeaf0558c45de7632bdb7d", "fusion_lon": 0.0, "type": "electric_scooter", "name": "465edeb132eeaf0558c45de7632bdb7d", "rental_uris": {"android": "https://dc.lft.to/lastmile_qr_scan", "ios": "https://dc.lft.to/lastmile_qr_scan"}, "fusion_lat": 0.0, "lat": 38.928938333333335, "is_disabled": 0, "lon": -77.03274666666667, "is_reserved": 0}, {"bike_id": "d3bce84cb744db2e5e2662a1a4c42cd6", "fusion_lon": 0.0, "type": "electric_scooter", "name": "d3bce84cb744db2e5e2662a1a4c42cd6", "rental_uris": {"android": "https://dc.lft.to/lastmile_qr_scan", "ios": "https://dc.lft.to/lastmile_qr_scan"}, "fusion_lat": 0.0, "lat": 38.92873783333334, "is_disabled": 0, "lon": -77.02818016666667, "is_reserved": 0}, {"bike_id": "6301f891c6f3c12eeb3654a762c41b93", "fusion_lon": 0.0, "type": "electric_scooter", "name": "6301f891c6f3c12eeb3654a762c41b93", "rental_uris": {"android": "https://dc.lft.to/lastmile_qr_scan", "ios": "https://dc.lft.to/lastmile_qr_scan"}, "fusion_lat": 0.0, "lat": 38.94993016666667, "is_disabled": 0, "lon": -77.01856983333333, "is_reserved": 0}, {"bike_id": "db486d8176f470271aa3b01be9951040", "fusion_lon": 0.0, "type": "electric_scooter", "name": "db486d8176f470271aa3b01be9951040", "rental_uris": {"android": "https://dc.lft.to/lastmile_qr_scan", "ios": "https://dc.lft.to/lastmile_qr_scan"}, "fusion_lat": 0.0, "lat": 38.952029333333336, "is_disabled": 0, "lon": -77.06803483333333, "is_reserved": 0}, {"bike_id": "4751595d58777cbacc6004a0f16edcd9", "fusion_lon": 0.0, "type": "electric_scooter", "name": "4751595d58777cbacc6004a0f16edcd9", "rental_uris": {"android": "https://dc.lft.to/lastmile_qr_scan", "ios": "https://dc.lft.to/lastmile_qr_scan"}, "fusion_lat": 0.0, "lat": 38.92624283333333, "is_disabled": 0, "lon": -77.04222266666666, "is_reserved": 0}, {"bike_id": "69ee4ff9b2aac584d4e7f18d6eaeeb8c", "fusion_lon": 0.0, "type": "electric_scooter", "name": "69ee4ff9b2aac584d4e7f18d6eaeeb8c", "rental_uris": {"android": "https://dc.lft.to/lastmile_qr_scan", "ios": "https://dc.lft.to/lastmile_qr_scan"}, "fusion_lat": 0.0, "lat": 38.90400366666667, "is_disabled": 0, "lon": -77.01654783333333, "is_reserved": 0}, {"bike_id": "83c720dfacdc661d071eb788ba4514af", "fusion_lon": 0.0, "type": "electric_scooter", "name": "83c720dfacdc661d071eb788ba4514af", "rental_uris": {"android": "https://dc.lft.to/lastmile_qr_scan", "ios": "https://dc.lft.to/lastmile_qr_scan"}, "fusion_lat": 0.0, "lat": 38.90497883333333, "is_disabled": 0, "lon": -77.0404295, "is_reserved": 0}, {"bike_id": "067fac2b74adb61e065f4467950d1856", "fusion_lon": 0.0, "type": "electric_bike", "name": "067fac2b74adb61e065f4467950d1856", "rental_uris": {"android": "https://dc.lft.to/lastmile_qr_scan", "ios": "https://dc.lft.to/lastmile_qr_scan"}, "fusion_lat": 0.0, "lat": 38.85218116666667, "is_disabled": 0, "lon": -77.12963383333333, "is_reserved": 0}, {"bike_id": "4f14bca6d5477be54b167b6dd8c1c096", "fusion_lon": 0.0, "type": "electric_scooter", "name": "4f14bca6d5477be54b167b6dd8c1c096", "rental_uris": {"android": "https://dc.lft.to/lastmile_qr_scan", "ios": "https://dc.lft.to/lastmile_qr_scan"}, "fusion_lat": 0.0, "lat": 38.89480483333333, "is_disabled": 0, "lon": -76.99520383333333, "is_reserved": 0}, {"bike_id": "e7f3185eeb143333b15ca2e4dd1dceca", "fusion_lon": 0.0, "type": "electric_scooter", "name": "e7f3185eeb143333b15ca2e4dd1dceca", "rental_uris": {"android": "https://dc.lft.to/lastmile_qr_scan", "ios": "https://dc.lft.to/lastmile_qr_scan"}, "fusion_lat": 0.0, "lat": 38.913263666666666, "is_disabled": 0, "lon": -77.0454415, "is_reserved": 0}, {"bike_id": "cb2c55117b4a153e745e5574e4440acf", "fusion_lon": 0.0, "type": "electric_scooter", "name": "cb2c55117b4a153e745e5574e4440acf", "rental_uris": {"android": "https://dc.lft.to/lastmile_qr_scan", "ios": "https://dc.lft.to/lastmile_qr_scan"}, "fusion_lat": 0.0, "lat": 38.915433, "is_disabled": 0, "lon": -77.0345875, "is_reserved": 0}, {"bike_id": "bccb395b5669adc37ec25871fe935db9", "fusion_lon": 0.0, "type": "electric_scooter", "name": "bccb395b5669adc37ec25871fe935db9", "rental_uris": {"android": "https://dc.lft.to/lastmile_qr_scan", "ios": "https://dc.lft.to/lastmile_qr_scan"}, "fusion_lat": 0.0, "lat": 38.917562, "is_disabled": 0, "lon": -77.02496016666667, "is_reserved": 0}, {"bike_id": "599adbcddcff3bdafb84de052cb1b619", "fusion_lon": 0.0, "type": "electric_scooter", "name": "599adbcddcff3bdafb84de052cb1b619", "rental_uris": {"android": "https://dc.lft.to/lastmile_qr_scan", "ios": "https://dc.lft.to/lastmile_qr_scan"}, "fusion_lat": 0.0, "lat": 38.9248055, "is_disabled": 0, "lon": -77.02796133333334, "is_reserved": 0}, {"bike_id": "44d10e38d67a5d7ea53d47bc04a6df5c", "fusion_lon": 0.0, "type": "electric_bike", "name": "44d10e38d67a5d7ea53d47bc04a6df5c", "rental_uris": {"android": "https://dc.lft.to/lastmile_qr_scan", "ios": "https://dc.lft.to/lastmile_qr_scan"}, "fusion_lat": 0.0, "lat": 38.909727, "is_disabled": 0, "lon": -77.03218483333333, "is_reserved": 0}, {"bike_id": "99ef8db19a3b76cbd1bb1e5b12305846", "fusion_lon": 0.0, "type": "electric_scooter", "name": "99ef8db19a3b76cbd1bb1e5b12305846", "rental_uris": {"android": "https://dc.lft.to/lastmile_qr_scan", "ios": "https://dc.lft.to/lastmile_qr_scan"}, "fusion_lat": 0.0, "lat": 38.90569416666666, "is_disabled": 0, "lon": -77.00594833333334, "is_reserved": 0}, {"bike_id": "dfd074d8c05f6e3467bdd60b566dde98", "fusion_lon": 0.0, "type": "electric_scooter", "name": "dfd074d8c05f6e3467bdd60b566dde98", "rental_uris": {"android": "https://dc.lft.to/lastmile_qr_scan", "ios": "https://dc.lft.to/lastmile_qr_scan"}, "fusion_lat": 0.0, "lat": 38.91424766666667, "is_disabled": 0, "lon": -77.02818566666667, "is_reserved": 0}, {"bike_id": "e138fd7ee7cf2c83011ec7e52133b8b3", "fusion_lon": 0.0, "type": "electric_bike", "name": "e138fd7ee7cf2c83011ec7e52133b8b3", "rental_uris": {"android": "https://dc.lft.to/lastmile_qr_scan", "ios": "https://dc.lft.to/lastmile_qr_scan"}, "fusion_lat": 0.0, "lat": 38.865923333333335, "is_disabled": 0, "lon": -76.93231716666666, "is_reserved": 0}, {"bike_id": "4c3383a16140581c7208287e9443b86f", "fusion_lon": 0.0, "type": "electric_scooter", "name": "4c3383a16140581c7208287e9443b86f", "rental_uris": {"android": "https://dc.lft.to/lastmile_qr_scan", "ios": "https://dc.lft.to/lastmile_qr_scan"}, "fusion_lat": 0.0, "lat": 38.955657333333335, "is_disabled": 0, "lon": -77.00636983333334, "is_reserved": 0}, {"bike_id": "fdd8d61be4787fac1ecf1d725f9569aa", "fusion_lon": 0.0, "type": "electric_scooter", "name": "fdd8d61be4787fac1ecf1d725f9569aa", "rental_uris": {"android": "https://dc.lft.to/lastmile_qr_scan", "ios": "https://dc.lft.to/lastmile_qr_scan"}, "fusion_lat": 0.0, "lat": 38.94130783333333, "is_disabled": 0, "lon": -77.09210866666666, "is_reserved": 0}, {"bike_id": "a2f561501cfbff409f934adf1718d6c4", "fusion_lon": 0.0, "type": "electric_scooter", "name": "a2f561501cfbff409f934adf1718d6c4", "rental_uris": {"android": "https://dc.lft.to/lastmile_qr_scan", "ios": "https://dc.lft.to/lastmile_qr_scan"}, "fusion_lat": 0.0, "lat": 38.9005655, "is_disabled": 0, "lon": -77.00211166666666, "is_reserved": 0}, {"bike_id": "c272e90f4615d5028451e15123f89ee4", "fusion_lon": 0.0, "type": "electric_scooter", "name": "c272e90f4615d5028451e15123f89ee4", "rental_uris": {"android": "https://dc.lft.to/lastmile_qr_scan", "ios": "https://dc.lft.to/lastmile_qr_scan"}, "fusion_lat": 0.0, "lat": 38.87778733333333, "is_disabled": 0, "lon": -76.99512133333333, "is_reserved": 0}, {"bike_id": "c5d37d23b4820349712b6b0749433c17", "fusion_lon": 0.0, "type": "electric_scooter", "name": "c5d37d23b4820349712b6b0749433c17", "rental_uris": {"android": "https://dc.lft.to/lastmile_qr_scan", "ios": "https://dc.lft.to/lastmile_qr_scan"}, "fusion_lat": 0.0, "lat": 38.924227333333334, "is_disabled": 0, "lon": -77.03631016666667, "is_reserved": 0}, {"bike_id": "070e604fe172456e333867f7a235ced4", "fusion_lon": 0.0, "type": "electric_scooter", "name": "070e604fe172456e333867f7a235ced4", "rental_uris": {"android": "https://dc.lft.to/lastmile_qr_scan", "ios": "https://dc.lft.to/lastmile_qr_scan"}, "fusion_lat": 0.0, "lat": 38.957581, "is_disabled": 0, "lon": -77.01594133333333, "is_reserved": 0}, {"bike_id": "e20bc561ea4b5e8a0d218ce9e2cfa76f", "fusion_lon": 0.0, "type": "electric_scooter", "name": "e20bc561ea4b5e8a0d218ce9e2cfa76f", "rental_uris": {"android": "https://dc.lft.to/lastmile_qr_scan", "ios": "https://dc.lft.to/lastmile_qr_scan"}, "fusion_lat": 0.0, "lat": 38.927096166666665, "is_disabled": 0, "lon": -77.0239525, "is_reserved": 0}, {"bike_id": "d09d0d457041613483c56d3ce2f6f7f6", "fusion_lon": 0.0, "type": "electric_scooter", "name": "d09d0d457041613483c56d3ce2f6f7f6", "rental_uris": {"android": "https://dc.lft.to/lastmile_qr_scan", "ios": "https://dc.lft.to/lastmile_qr_scan"}, "fusion_lat": 0.0, "lat": 38.920940333333334, "is_disabled": 0, "lon": -77.04374166666666, "is_reserved": 0}, {"bike_id": "aacbdaf94cbfbd3299d876fb404e56f7", "fusion_lon": 0.0, "type": "electric_scooter", "name": "aacbdaf94cbfbd3299d876fb404e56f7", "rental_uris": {"android": "https://dc.lft.to/lastmile_qr_scan", "ios": "https://dc.lft.to/lastmile_qr_scan"}, "fusion_lat": 0.0, "lat": 38.89129833333333, "is_disabled": 0, "lon": -76.95187333333334, "is_reserved": 0}, {"bike_id": "d1a24ce23ae29edbe00c1e0ae8267829", "fusion_lon": 0.0, "type": "electric_scooter", "name": "d1a24ce23ae29edbe00c1e0ae8267829", "rental_uris": {"android": "https://dc.lft.to/lastmile_qr_scan", "ios": "https://dc.lft.to/lastmile_qr_scan"}, "fusion_lat": 0.0, "lat": 38.9385785, "is_disabled": 0, "lon": -77.02462983333334, "is_reserved": 0}, {"bike_id": "7afb9dd1bc02c2c13ee4e65df8b4b8f3", "fusion_lon": 0.0, "type": "electric_scooter", "name": "7afb9dd1bc02c2c13ee4e65df8b4b8f3", "rental_uris": {"android": "https://dc.lft.to/lastmile_qr_scan", "ios": "https://dc.lft.to/lastmile_qr_scan"}, "fusion_lat": 0.0, "lat": 38.89007566666667, "is_disabled": 0, "lon": -76.93736183333333, "is_reserved": 0}, {"bike_id": "05d543009e8f91bb1d6e43912fb4c0fa", "fusion_lon": 0.0, "type": "electric_scooter", "name": "05d543009e8f91bb1d6e43912fb4c0fa", "rental_uris": {"android": "https://dc.lft.to/lastmile_qr_scan", "ios": "https://dc.lft.to/lastmile_qr_scan"}, "fusion_lat": 0.0, "lat": 38.916714166666665, "is_disabled": 0, "lon": -77.03210083333333, "is_reserved": 0}, {"bike_id": "5876e7739ae81b29347208d6f608adba", "fusion_lon": 0.0, "type": "electric_scooter", "name": "5876e7739ae81b29347208d6f608adba", "rental_uris": {"android": "https://dc.lft.to/lastmile_qr_scan", "ios": "https://dc.lft.to/lastmile_qr_scan"}, "fusion_lat": 0.0, "lat": 38.894812, "is_disabled": 0, "lon": -76.99518083333334, "is_reserved": 0}, {"bike_id": "7789b2b628b06fd80a37a9c1ca45b21e", "fusion_lon": 0.0, "type": "electric_scooter", "name": "7789b2b628b06fd80a37a9c1ca45b21e", "rental_uris": {"android": "https://dc.lft.to/lastmile_qr_scan", "ios": "https://dc.lft.to/lastmile_qr_scan"}, "fusion_lat": 0.0, "lat": 38.9233785, "is_disabled": 0, "lon": -77.03559866666667, "is_reserved": 0}, {"bike_id": "22a620f26905674b6f684c171b93801d", "fusion_lon": 0.0, "type": "electric_scooter", "name": "22a620f26905674b6f684c171b93801d", "rental_uris": {"android": "https://dc.lft.to/lastmile_qr_scan", "ios": "https://dc.lft.to/lastmile_qr_scan"}, "fusion_lat": 0.0, "lat": 38.917758666666664, "is_disabled": 0, "lon": -77.0146115, "is_reserved": 0}, {"bike_id": "3d16c5165b7021f84b25414123d84bdc", "fusion_lon": 0.0, "type": "electric_scooter", "name": "3d16c5165b7021f84b25414123d84bdc", "rental_uris": {"android": "https://dc.lft.to/lastmile_qr_scan", "ios": "https://dc.lft.to/lastmile_qr_scan"}, "fusion_lat": 0.0, "lat": 38.857577166666665, "is_disabled": 0, "lon": -76.99324233333333, "is_reserved": 0}, {"bike_id": "a908df2cd5270658436299e4ff8f9315", "fusion_lon": 0.0, "type": "electric_scooter", "name": "a908df2cd5270658436299e4ff8f9315", "rental_uris": {"android": "https://dc.lft.to/lastmile_qr_scan", "ios": "https://dc.lft.to/lastmile_qr_scan"}, "fusion_lat": 0.0, "lat": 38.918182, "is_disabled": 0, "lon": -77.04005666666667, "is_reserved": 0}, {"bike_id": "cf6707c452fcee28bd5c03e129345941", "fusion_lon": 0.0, "type": "electric_scooter", "name": "cf6707c452fcee28bd5c03e129345941", "rental_uris": {"android": "https://dc.lft.to/lastmile_qr_scan", "ios": "https://dc.lft.to/lastmile_qr_scan"}, "fusion_lat": 0.0, "lat": 38.89883866666667, "is_disabled": 0, "lon": -76.93178, "is_reserved": 0}, {"bike_id": "0db15c3f98d79ef636dc934c09001191", "fusion_lon": 0.0, "type": "electric_bike", "name": "0db15c3f98d79ef636dc934c09001191", "rental_uris": {"android": "https://dc.lft.to/lastmile_qr_scan", "ios": "https://dc.lft.to/lastmile_qr_scan"}, "fusion_lat": 0.0, "lat": 38.89953916666666, "is_disabled": 0, "lon": -76.986783, "is_reserved": 0}, {"bike_id": "df06dc9ed1363585bb3ce6682ba7ae60", "fusion_lon": 0.0, "type": "electric_scooter", "name": "df06dc9ed1363585bb3ce6682ba7ae60", "rental_uris": {"android": "https://dc.lft.to/lastmile_qr_scan", "ios": "https://dc.lft.to/lastmile_qr_scan"}, "fusion_lat": 0.0, "lat": 38.894823, "is_disabled": 0, "lon": -76.94848083333333, "is_reserved": 0}, {"bike_id": "a6e1ca83d825a1760b9d1dc0e42790f1", "fusion_lon": 0.0, "type": "electric_scooter", "name": "a6e1ca83d825a1760b9d1dc0e42790f1", "rental_uris": {"android": "https://dc.lft.to/lastmile_qr_scan", "ios": "https://dc.lft.to/lastmile_qr_scan"}, "fusion_lat": 0.0, "lat": 38.926244, "is_disabled": 0, "lon": -77.0530425, "is_reserved": 0}, {"bike_id": "9552fa9fc983f9d054fd2caabbe3f2af", "fusion_lon": 0.0, "type": "electric_scooter", "name": "9552fa9fc983f9d054fd2caabbe3f2af", "rental_uris": {"android": "https://dc.lft.to/lastmile_qr_scan", "ios": "https://dc.lft.to/lastmile_qr_scan"}, "fusion_lat": 0.0, "lat": 38.902557, "is_disabled": 0, "lon": -77.034644, "is_reserved": 0}, {"bike_id": "1d33b63c85a159aa11ab85b187b9531c", "fusion_lon": 0.0, "type": "electric_scooter", "name": "1d33b63c85a159aa11ab85b187b9531c", "rental_uris": {"android": "https://dc.lft.to/lastmile_qr_scan", "ios": "https://dc.lft.to/lastmile_qr_scan"}, "fusion_lat": 0.0, "lat": 38.88503033333333, "is_disabled": 0, "lon": -77.03361383333333, "is_reserved": 0}, {"bike_id": "06b793970db0caeb0f37696085605a28", "fusion_lon": 0.0, "type": "electric_scooter", "name": "06b793970db0caeb0f37696085605a28", "rental_uris": {"android": "https://dc.lft.to/lastmile_qr_scan", "ios": "https://dc.lft.to/lastmile_qr_scan"}, "fusion_lat": 0.0, "lat": 38.92156266666667, "is_disabled": 0, "lon": -77.03388116666666, "is_reserved": 0}, {"bike_id": "ca6c1fbd73a64ad76e32e34efcd9a8f9", "fusion_lon": 0.0, "type": "electric_scooter", "name": "ca6c1fbd73a64ad76e32e34efcd9a8f9", "rental_uris": {"android": "https://dc.lft.to/lastmile_qr_scan", "ios": "https://dc.lft.to/lastmile_qr_scan"}, "fusion_lat": 0.0, "lat": 38.944141333333334, "is_disabled": 0, "lon": -77.05526583333334, "is_reserved": 0}, {"bike_id": "dd903b6af2e27f61d2e79aa133864fbc", "fusion_lon": 0.0, "type": "electric_scooter", "name": "dd903b6af2e27f61d2e79aa133864fbc", "rental_uris": {"android": "https://dc.lft.to/lastmile_qr_scan", "ios": "https://dc.lft.to/lastmile_qr_scan"}, "fusion_lat": 0.0, "lat": 38.921223166666664, "is_disabled": 0, "lon": -77.04580966666667, "is_reserved": 0}, {"bike_id": "c0df6ab026eef96d4dd9fd4d74e6f8cf", "fusion_lon": 0.0, "type": "electric_scooter", "name": "c0df6ab026eef96d4dd9fd4d74e6f8cf", "rental_uris": {"android": "https://dc.lft.to/lastmile_qr_scan", "ios": "https://dc.lft.to/lastmile_qr_scan"}, "fusion_lat": 0.0, "lat": 38.882988833333336, "is_disabled": 0, "lon": -76.94858, "is_reserved": 0}, {"bike_id": "065b20446cf3fff7e6149a9ff4311399", "fusion_lon": 0.0, "type": "electric_scooter", "name": "065b20446cf3fff7e6149a9ff4311399", "rental_uris": {"android": "https://dc.lft.to/lastmile_qr_scan", "ios": "https://dc.lft.to/lastmile_qr_scan"}, "fusion_lat": 0.0, "lat": 38.8802195, "is_disabled": 0, "lon": -77.0123165, "is_reserved": 0}, {"bike_id": "0f089e0cdfc1a1838fd39b4c61a69a36", "fusion_lon": 0.0, "type": "electric_scooter", "name": "0f089e0cdfc1a1838fd39b4c61a69a36", "rental_uris": {"android": "https://dc.lft.to/lastmile_qr_scan", "ios": "https://dc.lft.to/lastmile_qr_scan"}, "fusion_lat": 0.0, "lat": 38.927421333333335, "is_disabled": 0, "lon": -77.0330085, "is_reserved": 0}, {"bike_id": "6180be1544d50fa65417430ce8c24cd5", "fusion_lon": 0.0, "type": "electric_scooter", "name": "6180be1544d50fa65417430ce8c24cd5", "rental_uris": {"android": "https://dc.lft.to/lastmile_qr_scan", "ios": "https://dc.lft.to/lastmile_qr_scan"}, "fusion_lat": 0.0, "lat": 38.8754725, "is_disabled": 0, "lon": -76.96491733333333, "is_reserved": 0}, {"bike_id": "9eccd76ae9be0a8e9eda71dfb7e92751", "fusion_lon": 0.0, "type": "electric_scooter", "name": "9eccd76ae9be0a8e9eda71dfb7e92751", "rental_uris": {"android": "https://dc.lft.to/lastmile_qr_scan", "ios": "https://dc.lft.to/lastmile_qr_scan"}, "fusion_lat": 0.0, "lat": 38.903621666666666, "is_disabled": 0, "lon": -77.01921883333333, "is_reserved": 0}, {"bike_id": "414999efc89ab140f0b079bc09c7e32b", "fusion_lon": 0.0, "type": "electric_scooter", "name": "414999efc89ab140f0b079bc09c7e32b", "rental_uris": {"android": "https://dc.lft.to/lastmile_qr_scan", "ios": "https://dc.lft.to/lastmile_qr_scan"}, "fusion_lat": 0.0, "lat": 38.93097983333333, "is_disabled": 0, "lon": -77.03840816666667, "is_reserved": 0}, {"bike_id": "e04fbb2b00b82a292f8293f42b5e72d9", "fusion_lon": 0.0, "type": "electric_scooter", "name": "e04fbb2b00b82a292f8293f42b5e72d9", "rental_uris": {"android": "https://dc.lft.to/lastmile_qr_scan", "ios": "https://dc.lft.to/lastmile_qr_scan"}, "fusion_lat": 0.0, "lat": 38.85582616666667, "is_disabled": 0, "lon": -76.98563516666667, "is_reserved": 0}, {"bike_id": "7f7125a693851df3310cc52d8b3b840b", "fusion_lon": 0.0, "type": "electric_scooter", "name": "7f7125a693851df3310cc52d8b3b840b", "rental_uris": {"android": "https://dc.lft.to/lastmile_qr_scan", "ios": "https://dc.lft.to/lastmile_qr_scan"}, "fusion_lat": 0.0, "lat": 38.93879116666667, "is_disabled": 0, "lon": -77.02483833333334, "is_reserved": 0}, {"bike_id": "cb78ae1229cec7519ae1b6bd1285d179", "fusion_lon": 0.0, "type": "electric_scooter", "name": "cb78ae1229cec7519ae1b6bd1285d179", "rental_uris": {"android": "https://dc.lft.to/lastmile_qr_scan", "ios": "https://dc.lft.to/lastmile_qr_scan"}, "fusion_lat": 0.0, "lat": 38.94323683333333, "is_disabled": 0, "lon": -77.0736675, "is_reserved": 0}, {"bike_id": "603b8c33d2d47676126c6d85413e650e", "fusion_lon": 0.0, "type": "electric_scooter", "name": "603b8c33d2d47676126c6d85413e650e", "rental_uris": {"android": "https://dc.lft.to/lastmile_qr_scan", "ios": "https://dc.lft.to/lastmile_qr_scan"}, "fusion_lat": 0.0, "lat": 38.934748666666664, "is_disabled": 0, "lon": -77.0728025, "is_reserved": 0}, {"bike_id": "b456fcbf3e8be7857f01aa540f3ac9da", "fusion_lon": 0.0, "type": "electric_bike", "name": "b456fcbf3e8be7857f01aa540f3ac9da", "rental_uris": {"android": "https://dc.lft.to/lastmile_qr_scan", "ios": "https://dc.lft.to/lastmile_qr_scan"}, "fusion_lat": 0.0, "lat": 38.8272545, "is_disabled": 0, "lon": -77.00870766666667, "is_reserved": 0}, {"bike_id": "b270ab94ef6590367ddb307e900dc0df", "fusion_lon": 0.0, "type": "electric_scooter", "name": "b270ab94ef6590367ddb307e900dc0df", "rental_uris": {"android": "https://dc.lft.to/lastmile_qr_scan", "ios": "https://dc.lft.to/lastmile_qr_scan"}, "fusion_lat": 0.0, "lat": 38.90900833333333, "is_disabled": 0, "lon": -77.03478766666667, "is_reserved": 0}, {"bike_id": "67825b85fa9b826688efae83be31fac2", "fusion_lon": 0.0, "type": "electric_scooter", "name": "67825b85fa9b826688efae83be31fac2", "rental_uris": {"android": "https://dc.lft.to/lastmile_qr_scan", "ios": "https://dc.lft.to/lastmile_qr_scan"}, "fusion_lat": 0.0, "lat": 38.89849383333333, "is_disabled": 0, "lon": -77.03321283333334, "is_reserved": 0}, {"bike_id": "01933abdb7afa0594b5834570444a5f7", "fusion_lon": 0.0, "type": "electric_scooter", "name": "01933abdb7afa0594b5834570444a5f7", "rental_uris": {"android": "https://dc.lft.to/lastmile_qr_scan", "ios": "https://dc.lft.to/lastmile_qr_scan"}, "fusion_lat": 0.0, "lat": 38.908249, "is_disabled": 0, "lon": -77.03676016666667, "is_reserved": 0}, {"bike_id": "ea20333e94e6fbadcca73838ab918207", "fusion_lon": 0.0, "type": "electric_scooter", "name": "ea20333e94e6fbadcca73838ab918207", "rental_uris": {"android": "https://dc.lft.to/lastmile_qr_scan", "ios": "https://dc.lft.to/lastmile_qr_scan"}, "fusion_lat": 0.0, "lat": 38.90016116666666, "is_disabled": 0, "lon": -77.04029583333333, "is_reserved": 0}, {"bike_id": "3ed0dc01a19e61ee6f07fe1988b104a0", "fusion_lon": 0.0, "type": "electric_scooter", "name": "3ed0dc01a19e61ee6f07fe1988b104a0", "rental_uris": {"android": "https://dc.lft.to/lastmile_qr_scan", "ios": "https://dc.lft.to/lastmile_qr_scan"}, "fusion_lat": 0.0, "lat": 38.928637333333334, "is_disabled": 0, "lon": -76.990328, "is_reserved": 0}, {"bike_id": "8e520b8a422f770c46a2f60b0fde9bea", "fusion_lon": 0.0, "type": "electric_scooter", "name": "8e520b8a422f770c46a2f60b0fde9bea", "rental_uris": {"android": "https://dc.lft.to/lastmile_qr_scan", "ios": "https://dc.lft.to/lastmile_qr_scan"}, "fusion_lat": 0.0, "lat": 38.897243333333336, "is_disabled": 0, "lon": -77.05563783333334, "is_reserved": 0}, {"bike_id": "3db16173ad45d4f57cf6513acdff5bbf", "fusion_lon": 0.0, "type": "electric_scooter", "name": "3db16173ad45d4f57cf6513acdff5bbf", "rental_uris": {"android": "https://dc.lft.to/lastmile_qr_scan", "ios": "https://dc.lft.to/lastmile_qr_scan"}, "fusion_lat": 0.0, "lat": 38.917091666666664, "is_disabled": 0, "lon": -77.03866216666667, "is_reserved": 0}, {"bike_id": "a6bf45052c21c9d69b365d551b070489", "fusion_lon": 0.0, "type": "electric_scooter", "name": "a6bf45052c21c9d69b365d551b070489", "rental_uris": {"android": "https://dc.lft.to/lastmile_qr_scan", "ios": "https://dc.lft.to/lastmile_qr_scan"}, "fusion_lat": 0.0, "lat": 38.909487, "is_disabled": 0, "lon": -77.032061, "is_reserved": 0}, {"bike_id": "909e2f0c1caeed6cbbe2a3bca75bd5ba", "fusion_lon": 0.0, "type": "electric_scooter", "name": "909e2f0c1caeed6cbbe2a3bca75bd5ba", "rental_uris": {"android": "https://dc.lft.to/lastmile_qr_scan", "ios": "https://dc.lft.to/lastmile_qr_scan"}, "fusion_lat": 0.0, "lat": 38.9114075, "is_disabled": 0, "lon": -77.02810166666667, "is_reserved": 0}, {"bike_id": "51327a64c8e17f0c48b0d17a8f991bb2", "fusion_lon": 0.0, "type": "electric_bike", "name": "51327a64c8e17f0c48b0d17a8f991bb2", "rental_uris": {"android": "https://dc.lft.to/lastmile_qr_scan", "ios": "https://dc.lft.to/lastmile_qr_scan"}, "fusion_lat": 0.0, "lat": 38.85054616666667, "is_disabled": 0, "lon": -76.97335316666667, "is_reserved": 0}, {"bike_id": "0c517fa8cfe26dbb5cb896fc5093f993", "fusion_lon": 0.0, "type": "electric_scooter", "name": "0c517fa8cfe26dbb5cb896fc5093f993", "rental_uris": {"android": "https://dc.lft.to/lastmile_qr_scan", "ios": "https://dc.lft.to/lastmile_qr_scan"}, "fusion_lat": 0.0, "lat": 38.893856, "is_disabled": 0, "lon": -77.02329266666666, "is_reserved": 0}, {"bike_id": "596f3be058b48bb4a04652f1ef1220d6", "fusion_lon": 0.0, "type": "electric_scooter", "name": "596f3be058b48bb4a04652f1ef1220d6", "rental_uris": {"android": "https://dc.lft.to/lastmile_qr_scan", "ios": "https://dc.lft.to/lastmile_qr_scan"}, "fusion_lat": 0.0, "lat": 38.928795, "is_disabled": 0, "lon": -77.027092, "is_reserved": 0}, {"bike_id": "b5f388988d46d81acdc27a2e62ec0a24", "fusion_lon": 0.0, "type": "electric_scooter", "name": "b5f388988d46d81acdc27a2e62ec0a24", "rental_uris": {"android": "https://dc.lft.to/lastmile_qr_scan", "ios": "https://dc.lft.to/lastmile_qr_scan"}, "fusion_lat": 0.0, "lat": 38.918415, "is_disabled": 0, "lon": -77.03216883333333, "is_reserved": 0}, {"bike_id": "1fe878d664a9967d4af106363d149858", "fusion_lon": 0.0, "type": "electric_scooter", "name": "1fe878d664a9967d4af106363d149858", "rental_uris": {"android": "https://dc.lft.to/lastmile_qr_scan", "ios": "https://dc.lft.to/lastmile_qr_scan"}, "fusion_lat": 0.0, "lat": 38.9187385, "is_disabled": 0, "lon": -77.03764483333333, "is_reserved": 0}, {"bike_id": "dc5aeb1d5b8839da9f326a46ea7ecf87", "fusion_lon": 0.0, "type": "electric_scooter", "name": "dc5aeb1d5b8839da9f326a46ea7ecf87", "rental_uris": {"android": "https://dc.lft.to/lastmile_qr_scan", "ios": "https://dc.lft.to/lastmile_qr_scan"}, "fusion_lat": 0.0, "lat": 38.910037833333334, "is_disabled": 0, "lon": -77.05277816666667, "is_reserved": 0}, {"bike_id": "7c368c4b991ba8a5fdf0d66e2cfe0a4b", "fusion_lon": 0.0, "type": "electric_scooter", "name": "7c368c4b991ba8a5fdf0d66e2cfe0a4b", "rental_uris": {"android": "https://dc.lft.to/lastmile_qr_scan", "ios": "https://dc.lft.to/lastmile_qr_scan"}, "fusion_lat": 0.0, "lat": 38.905938, "is_disabled": 0, "lon": -77.07014633333333, "is_reserved": 0}, {"bike_id": "0efae5ea856f167a409d68385c8c9b01", "fusion_lon": 0.0, "type": "electric_scooter", "name": "0efae5ea856f167a409d68385c8c9b01", "rental_uris": {"android": "https://dc.lft.to/lastmile_qr_scan", "ios": "https://dc.lft.to/lastmile_qr_scan"}, "fusion_lat": 0.0, "lat": 38.90369666666667, "is_disabled": 0, "lon": -77.03330666666666, "is_reserved": 0}, {"bike_id": "5a0ada2a42a162d755cb173fceccb3b3", "fusion_lon": 0.0, "type": "electric_scooter", "name": "5a0ada2a42a162d755cb173fceccb3b3", "rental_uris": {"android": "https://dc.lft.to/lastmile_qr_scan", "ios": "https://dc.lft.to/lastmile_qr_scan"}, "fusion_lat": 0.0, "lat": 38.91498516666667, "is_disabled": 0, "lon": -77.01382166666667, "is_reserved": 0}, {"bike_id": "af939a180de2780afae63a0b7dc02714", "fusion_lon": 0.0, "type": "electric_scooter", "name": "af939a180de2780afae63a0b7dc02714", "rental_uris": {"android": "https://dc.lft.to/lastmile_qr_scan", "ios": "https://dc.lft.to/lastmile_qr_scan"}, "fusion_lat": 0.0, "lat": 38.91162933333333, "is_disabled": 0, "lon": -77.03190966666666, "is_reserved": 0}, {"bike_id": "e84e181f41d056c5045b19b06da72b9d", "fusion_lon": 0.0, "type": "electric_scooter", "name": "e84e181f41d056c5045b19b06da72b9d", "rental_uris": {"android": "https://dc.lft.to/lastmile_qr_scan", "ios": "https://dc.lft.to/lastmile_qr_scan"}, "fusion_lat": 0.0, "lat": 38.885024, "is_disabled": 0, "lon": -77.00570833333333, "is_reserved": 0}, {"bike_id": "ead98b3caf9f3e45bd2b42ff1fc59141", "fusion_lon": 0.0, "type": "electric_scooter", "name": "ead98b3caf9f3e45bd2b42ff1fc59141", "rental_uris": {"android": "https://dc.lft.to/lastmile_qr_scan", "ios": "https://dc.lft.to/lastmile_qr_scan"}, "fusion_lat": 0.0, "lat": 38.930585666666666, "is_disabled": 0, "lon": -77.04188916666666, "is_reserved": 0}, {"bike_id": "297521baff484d7069d0c6881646213f", "fusion_lon": 0.0, "type": "electric_scooter", "name": "297521baff484d7069d0c6881646213f", "rental_uris": {"android": "https://dc.lft.to/lastmile_qr_scan", "ios": "https://dc.lft.to/lastmile_qr_scan"}, "fusion_lat": 0.0, "lat": 38.9056455, "is_disabled": 0, "lon": -77.02502866666667, "is_reserved": 0}, {"bike_id": "0d9bf97275c1cfba76a2cd6ff65e6468", "fusion_lon": 0.0, "type": "electric_scooter", "name": "0d9bf97275c1cfba76a2cd6ff65e6468", "rental_uris": {"android": "https://dc.lft.to/lastmile_qr_scan", "ios": "https://dc.lft.to/lastmile_qr_scan"}, "fusion_lat": 0.0, "lat": 38.907356166666666, "is_disabled": 0, "lon": -77.02198516666667, "is_reserved": 0}, {"bike_id": "3dc17ff90e0e8c11e68f949916b643bf", "fusion_lon": 0.0, "type": "electric_bike", "name": "3dc17ff90e0e8c11e68f949916b643bf", "rental_uris": {"android": "https://dc.lft.to/lastmile_qr_scan", "ios": "https://dc.lft.to/lastmile_qr_scan"}, "fusion_lat": 0.0, "lat": 38.85427216666667, "is_disabled": 0, "lon": -76.90966916666666, "is_reserved": 0}, {"bike_id": "4fdf94ad53f32f15e531b0acbb467c99", "fusion_lon": 0.0, "type": "electric_scooter", "name": "4fdf94ad53f32f15e531b0acbb467c99", "rental_uris": {"android": "https://dc.lft.to/lastmile_qr_scan", "ios": "https://dc.lft.to/lastmile_qr_scan"}, "fusion_lat": 0.0, "lat": 38.90957616666667, "is_disabled": 0, "lon": -77.02390233333334, "is_reserved": 0}, {"bike_id": "8b0ac2f886a5419383173a310173ea16", "fusion_lon": 0.0, "type": "electric_scooter", "name": "8b0ac2f886a5419383173a310173ea16", "rental_uris": {"android": "https://dc.lft.to/lastmile_qr_scan", "ios": "https://dc.lft.to/lastmile_qr_scan"}, "fusion_lat": 0.0, "lat": 38.898855, "is_disabled": 0, "lon": -76.97856833333333, "is_reserved": 0}, {"bike_id": "405b13afa31a6abcd751d79ca33ffab9", "fusion_lon": 0.0, "type": "electric_bike", "name": "405b13afa31a6abcd751d79ca33ffab9", "rental_uris": {"android": "https://dc.lft.to/lastmile_qr_scan", "ios": "https://dc.lft.to/lastmile_qr_scan"}, "fusion_lat": 0.0, "lat": 38.999610833333335, "is_disabled": 0, "lon": -77.0512355, "is_reserved": 0}, {"bike_id": "76953b83a533b99884a31cefdbbd7a8a", "fusion_lon": 0.0, "type": "electric_scooter", "name": "76953b83a533b99884a31cefdbbd7a8a", "rental_uris": {"android": "https://dc.lft.to/lastmile_qr_scan", "ios": "https://dc.lft.to/lastmile_qr_scan"}, "fusion_lat": 0.0, "lat": 38.91422166666667, "is_disabled": 0, "lon": -77.031897, "is_reserved": 0}, {"bike_id": "ae034665335e601057e26443afc62ff6", "fusion_lon": 0.0, "type": "electric_scooter", "name": "ae034665335e601057e26443afc62ff6", "rental_uris": {"android": "https://dc.lft.to/lastmile_qr_scan", "ios": "https://dc.lft.to/lastmile_qr_scan"}, "fusion_lat": 0.0, "lat": 38.876483, "is_disabled": 0, "lon": -77.003558, "is_reserved": 0}, {"bike_id": "574d9ecb331cc5b668f81e754cf8985a", "fusion_lon": 0.0, "type": "electric_bike", "name": "574d9ecb331cc5b668f81e754cf8985a", "rental_uris": {"android": "https://dc.lft.to/lastmile_qr_scan", "ios": "https://dc.lft.to/lastmile_qr_scan"}, "fusion_lat": 0.0, "lat": 38.868348, "is_disabled": 0, "lon": -76.96703016666666, "is_reserved": 0}, {"bike_id": "e173dfff842ff9740afabe6cb6e89665", "fusion_lon": 0.0, "type": "electric_scooter", "name": "e173dfff842ff9740afabe6cb6e89665", "rental_uris": {"android": "https://dc.lft.to/lastmile_qr_scan", "ios": "https://dc.lft.to/lastmile_qr_scan"}, "fusion_lat": 0.0, "lat": 38.91783016666667, "is_disabled": 0, "lon": -76.97335133333333, "is_reserved": 0}, {"bike_id": "6603eb4bb3c5ecfd35d0c96ff84d7006", "fusion_lon": 0.0, "type": "electric_bike", "name": "6603eb4bb3c5ecfd35d0c96ff84d7006", "rental_uris": {"android": "https://dc.lft.to/lastmile_qr_scan", "ios": "https://dc.lft.to/lastmile_qr_scan"}, "fusion_lat": 0.0, "lat": 39.11510233333333, "is_disabled": 0, "lon": -77.19549383333333, "is_reserved": 0}, {"bike_id": "c2cd90f078346139f1a22d4c196f8b05", "fusion_lon": 0.0, "type": "electric_bike", "name": "c2cd90f078346139f1a22d4c196f8b05", "rental_uris": {"android": "https://dc.lft.to/lastmile_qr_scan", "ios": "https://dc.lft.to/lastmile_qr_scan"}, "fusion_lat": 0.0, "lat": 38.841175666666665, "is_disabled": 0, "lon": -77.09021716666666, "is_reserved": 0}, {"bike_id": "140db6af365cceca24c5744e883338c4", "fusion_lon": 0.0, "type": "electric_scooter", "name": "140db6af365cceca24c5744e883338c4", "rental_uris": {"android": "https://dc.lft.to/lastmile_qr_scan", "ios": "https://dc.lft.to/lastmile_qr_scan"}, "fusion_lat": 0.0, "lat": 38.90501833333333, "is_disabled": 0, "lon": -77.06665633333333, "is_reserved": 0}, {"bike_id": "3e7e47efc422a11d43e96075137aee61", "fusion_lon": 0.0, "type": "electric_bike", "name": "3e7e47efc422a11d43e96075137aee61", "rental_uris": {"android": "https://dc.lft.to/lastmile_qr_scan", "ios": "https://dc.lft.to/lastmile_qr_scan"}, "fusion_lat": 0.0, "lat": 39.09460116666666, "is_disabled": 0, "lon": -77.14990933333333, "is_reserved": 0}, {"bike_id": "0fb0d64d09fd0f6989fc0772d07f4479", "fusion_lon": 0.0, "type": "electric_scooter", "name": "0fb0d64d09fd0f6989fc0772d07f4479", "rental_uris": {"android": "https://dc.lft.to/lastmile_qr_scan", "ios": "https://dc.lft.to/lastmile_qr_scan"}, "fusion_lat": 0.0, "lat": 38.88125483333334, "is_disabled": 0, "lon": -77.02706916666666, "is_reserved": 0}, {"bike_id": "8f3ae14e97f9d4c129b9793400a0895c", "fusion_lon": 0.0, "type": "electric_scooter", "name": "8f3ae14e97f9d4c129b9793400a0895c", "rental_uris": {"android": "https://dc.lft.to/lastmile_qr_scan", "ios": "https://dc.lft.to/lastmile_qr_scan"}, "fusion_lat": 0.0, "lat": 38.91043883333333, "is_disabled": 0, "lon": -77.02817816666666, "is_reserved": 0}, {"bike_id": "9e75eb5754572def70148d053d0b8289", "fusion_lon": 0.0, "type": "electric_scooter", "name": "9e75eb5754572def70148d053d0b8289", "rental_uris": {"android": "https://dc.lft.to/lastmile_qr_scan", "ios": "https://dc.lft.to/lastmile_qr_scan"}, "fusion_lat": 0.0, "lat": 38.9109525, "is_disabled": 0, "lon": -77.07354716666667, "is_reserved": 0}, {"bike_id": "434fbf7f2ed5915bac9aec58c790a686", "fusion_lon": 0.0, "type": "electric_scooter", "name": "434fbf7f2ed5915bac9aec58c790a686", "rental_uris": {"android": "https://dc.lft.to/lastmile_qr_scan", "ios": "https://dc.lft.to/lastmile_qr_scan"}, "fusion_lat": 0.0, "lat": 38.92738383333333, "is_disabled": 0, "lon": -77.0333425, "is_reserved": 0}, {"bike_id": "a43ab0dbf192a6bc04a62a004595da7a", "fusion_lon": 0.0, "type": "electric_bike", "name": "a43ab0dbf192a6bc04a62a004595da7a", "rental_uris": {"android": "https://dc.lft.to/lastmile_qr_scan", "ios": "https://dc.lft.to/lastmile_qr_scan"}, "fusion_lat": 0.0, "lat": 38.87525983333333, "is_disabled": 0, "lon": -77.19913133333333, "is_reserved": 0}, {"bike_id": "5f524258335236bf1b2e93e448e5c68e", "fusion_lon": 0.0, "type": "electric_scooter", "name": "5f524258335236bf1b2e93e448e5c68e", "rental_uris": {"android": "https://dc.lft.to/lastmile_qr_scan", "ios": "https://dc.lft.to/lastmile_qr_scan"}, "fusion_lat": 0.0, "lat": 38.8915975, "is_disabled": 0, "lon": -77.00346816666666, "is_reserved": 0}, {"bike_id": "0bdc99a063535c405bcd3a9506a8d6a5", "fusion_lon": 0.0, "type": "electric_scooter", "name": "0bdc99a063535c405bcd3a9506a8d6a5", "rental_uris": {"android": "https://dc.lft.to/lastmile_qr_scan", "ios": "https://dc.lft.to/lastmile_qr_scan"}, "fusion_lat": 0.0, "lat": 38.9479, "is_disabled": 0, "lon": -77.03637016666667, "is_reserved": 0}, {"bike_id": "c43729d9eecc525409db1e0421934320", "fusion_lon": 0.0, "type": "electric_scooter", "name": "c43729d9eecc525409db1e0421934320", "rental_uris": {"android": "https://dc.lft.to/lastmile_qr_scan", "ios": "https://dc.lft.to/lastmile_qr_scan"}, "fusion_lat": 0.0, "lat": 38.95135116666667, "is_disabled": 0, "lon": -77.02729366666667, "is_reserved": 0}, {"bike_id": "56391553dfc3d7473d9b5822a99c3197", "fusion_lon": 0.0, "type": "electric_bike", "name": "56391553dfc3d7473d9b5822a99c3197", "rental_uris": {"android": "https://dc.lft.to/lastmile_qr_scan", "ios": "https://dc.lft.to/lastmile_qr_scan"}, "fusion_lat": 0.0, "lat": 38.96019066666667, "is_disabled": 0, "lon": -77.02006683333333, "is_reserved": 0}, {"bike_id": "0f6723a63eade298bcd7e06d2af4c30f", "fusion_lon": 0.0, "type": "electric_scooter", "name": "0f6723a63eade298bcd7e06d2af4c30f", "rental_uris": {"android": "https://dc.lft.to/lastmile_qr_scan", "ios": "https://dc.lft.to/lastmile_qr_scan"}, "fusion_lat": 0.0, "lat": 38.902598833333336, "is_disabled": 0, "lon": -77.03460033333333, "is_reserved": 0}, {"bike_id": "ff9dbd8a5033f87199b140e79d4e16f5", "fusion_lon": 0.0, "type": "electric_bike", "name": "ff9dbd8a5033f87199b140e79d4e16f5", "rental_uris": {"android": "https://dc.lft.to/lastmile_qr_scan", "ios": "https://dc.lft.to/lastmile_qr_scan"}, "fusion_lat": 0.0, "lat": 38.949983, "is_disabled": 0, "lon": -77.35310966666667, "is_reserved": 0}, {"bike_id": "53cec2c8becee8fa8f2448d2ed784d16", "fusion_lon": 0.0, "type": "electric_scooter", "name": "53cec2c8becee8fa8f2448d2ed784d16", "rental_uris": {"android": "https://dc.lft.to/lastmile_qr_scan", "ios": "https://dc.lft.to/lastmile_qr_scan"}, "fusion_lat": 0.0, "lat": 38.89612266666666, "is_disabled": 0, "lon": -77.00930433333333, "is_reserved": 0}, {"bike_id": "da280717e05f0dbef21c62fb6b2998f7", "fusion_lon": 0.0, "type": "electric_scooter", "name": "da280717e05f0dbef21c62fb6b2998f7", "rental_uris": {"android": "https://dc.lft.to/lastmile_qr_scan", "ios": "https://dc.lft.to/lastmile_qr_scan"}, "fusion_lat": 0.0, "lat": 38.92309866666667, "is_disabled": 0, "lon": -77.05442983333333, "is_reserved": 0}, {"bike_id": "1de7b92387f975c94d97ddaa1fccd234", "fusion_lon": 0.0, "type": "electric_scooter", "name": "1de7b92387f975c94d97ddaa1fccd234", "rental_uris": {"android": "https://dc.lft.to/lastmile_qr_scan", "ios": "https://dc.lft.to/lastmile_qr_scan"}, "fusion_lat": 0.0, "lat": 38.881436666666666, "is_disabled": 0, "lon": -76.99509183333333, "is_reserved": 0}, {"bike_id": "7a9a8807355987dfdc2632549749622f", "fusion_lon": 0.0, "type": "electric_scooter", "name": "7a9a8807355987dfdc2632549749622f", "rental_uris": {"android": "https://dc.lft.to/lastmile_qr_scan", "ios": "https://dc.lft.to/lastmile_qr_scan"}, "fusion_lat": 0.0, "lat": 38.9004795, "is_disabled": 0, "lon": -77.000765, "is_reserved": 0}, {"bike_id": "44f1347f5e0c9a48b8504d8485a97d65", "fusion_lon": 0.0, "type": "electric_scooter", "name": "44f1347f5e0c9a48b8504d8485a97d65", "rental_uris": {"android": "https://dc.lft.to/lastmile_qr_scan", "ios": "https://dc.lft.to/lastmile_qr_scan"}, "fusion_lat": 0.0, "lat": 38.900239666666664, "is_disabled": 0, "lon": -76.99462983333333, "is_reserved": 0}, {"bike_id": "906c319232c2ae7eb9938be1279522b0", "fusion_lon": 0.0, "type": "electric_scooter", "name": "906c319232c2ae7eb9938be1279522b0", "rental_uris": {"android": "https://dc.lft.to/lastmile_qr_scan", "ios": "https://dc.lft.to/lastmile_qr_scan"}, "fusion_lat": 0.0, "lat": 38.91254166666667, "is_disabled": 0, "lon": -77.037699, "is_reserved": 0}, {"bike_id": "101f1427157b4819c457094e898b7896", "fusion_lon": 0.0, "type": "electric_scooter", "name": "101f1427157b4819c457094e898b7896", "rental_uris": {"android": "https://dc.lft.to/lastmile_qr_scan", "ios": "https://dc.lft.to/lastmile_qr_scan"}, "fusion_lat": 0.0, "lat": 38.867143, "is_disabled": 0, "lon": -76.98728216666666, "is_reserved": 0}, {"bike_id": "b6086d8a80f3229b192f0c8b99275f72", "fusion_lon": 0.0, "type": "electric_scooter", "name": "b6086d8a80f3229b192f0c8b99275f72", "rental_uris": {"android": "https://dc.lft.to/lastmile_qr_scan", "ios": "https://dc.lft.to/lastmile_qr_scan"}, "fusion_lat": 0.0, "lat": 38.874432666666664, "is_disabled": 0, "lon": -77.00927316666667, "is_reserved": 0}, {"bike_id": "a20342016ea5c5c240475f8bf5fa4028", "fusion_lon": 0.0, "type": "electric_scooter", "name": "a20342016ea5c5c240475f8bf5fa4028", "rental_uris": {"android": "https://dc.lft.to/lastmile_qr_scan", "ios": "https://dc.lft.to/lastmile_qr_scan"}, "fusion_lat": 0.0, "lat": 38.91169583333333, "is_disabled": 0, "lon": -77.03848233333333, "is_reserved": 0}, {"bike_id": "82aea108068828ed92d1ad0b7dd12464", "fusion_lon": 0.0, "type": "electric_scooter", "name": "82aea108068828ed92d1ad0b7dd12464", "rental_uris": {"android": "https://dc.lft.to/lastmile_qr_scan", "ios": "https://dc.lft.to/lastmile_qr_scan"}, "fusion_lat": 0.0, "lat": 38.894351, "is_disabled": 0, "lon": -76.94992983333333, "is_reserved": 0}, {"bike_id": "f37be50ac60a46351db46963b2aff453", "fusion_lon": 0.0, "type": "electric_scooter", "name": "f37be50ac60a46351db46963b2aff453", "rental_uris": {"android": "https://dc.lft.to/lastmile_qr_scan", "ios": "https://dc.lft.to/lastmile_qr_scan"}, "fusion_lat": 0.0, "lat": 38.9175615, "is_disabled": 0, "lon": -77.04163366666667, "is_reserved": 0}, {"bike_id": "7e2fc4ad9401643ea1b9b3e1ed788e14", "fusion_lon": 0.0, "type": "electric_scooter", "name": "7e2fc4ad9401643ea1b9b3e1ed788e14", "rental_uris": {"android": "https://dc.lft.to/lastmile_qr_scan", "ios": "https://dc.lft.to/lastmile_qr_scan"}, "fusion_lat": 0.0, "lat": 38.921774666666664, "is_disabled": 0, "lon": -77.04352883333334, "is_reserved": 0}, {"bike_id": "d21d8658e013d722e2cc1620a4bab301", "fusion_lon": 0.0, "type": "electric_scooter", "name": "d21d8658e013d722e2cc1620a4bab301", "rental_uris": {"android": "https://dc.lft.to/lastmile_qr_scan", "ios": "https://dc.lft.to/lastmile_qr_scan"}, "fusion_lat": 0.0, "lat": 38.89011766666667, "is_disabled": 0, "lon": -76.93736933333334, "is_reserved": 0}, {"bike_id": "73cd0608c985f88457fb00802072cf1e", "fusion_lon": 0.0, "type": "electric_scooter", "name": "73cd0608c985f88457fb00802072cf1e", "rental_uris": {"android": "https://dc.lft.to/lastmile_qr_scan", "ios": "https://dc.lft.to/lastmile_qr_scan"}, "fusion_lat": 0.0, "lat": 38.90974283333333, "is_disabled": 0, "lon": -77.03193116666667, "is_reserved": 0}, {"bike_id": "681831dcd994f9309b3d2ba26e7b492f", "fusion_lon": 0.0, "type": "electric_scooter", "name": "681831dcd994f9309b3d2ba26e7b492f", "rental_uris": {"android": "https://dc.lft.to/lastmile_qr_scan", "ios": "https://dc.lft.to/lastmile_qr_scan"}, "fusion_lat": 0.0, "lat": 38.920122166666665, "is_disabled": 0, "lon": -76.97892816666666, "is_reserved": 0}, {"bike_id": "c0ccbacb9b90f4cdb4037feb15d47458", "fusion_lon": 0.0, "type": "electric_scooter", "name": "c0ccbacb9b90f4cdb4037feb15d47458", "rental_uris": {"android": "https://dc.lft.to/lastmile_qr_scan", "ios": "https://dc.lft.to/lastmile_qr_scan"}, "fusion_lat": 0.0, "lat": 38.933712166666666, "is_disabled": 0, "lon": -77.05737683333334, "is_reserved": 0}, {"bike_id": "47e6209392b288bb447a769014329fb7", "fusion_lon": 0.0, "type": "electric_scooter", "name": "47e6209392b288bb447a769014329fb7", "rental_uris": {"android": "https://dc.lft.to/lastmile_qr_scan", "ios": "https://dc.lft.to/lastmile_qr_scan"}, "fusion_lat": 0.0, "lat": 38.915641, "is_disabled": 0, "lon": -77.005949, "is_reserved": 0}, {"bike_id": "f6e7f9ece9fbbb14e582248d22046999", "fusion_lon": 0.0, "type": "electric_scooter", "name": "f6e7f9ece9fbbb14e582248d22046999", "rental_uris": {"android": "https://dc.lft.to/lastmile_qr_scan", "ios": "https://dc.lft.to/lastmile_qr_scan"}, "fusion_lat": 0.0, "lat": 38.92217133333333, "is_disabled": 0, "lon": -77.043378, "is_reserved": 0}, {"bike_id": "44571e97656dcd12be959239db1277a8", "fusion_lon": 0.0, "type": "electric_scooter", "name": "44571e97656dcd12be959239db1277a8", "rental_uris": {"android": "https://dc.lft.to/lastmile_qr_scan", "ios": "https://dc.lft.to/lastmile_qr_scan"}, "fusion_lat": 0.0, "lat": 38.93664233333333, "is_disabled": 0, "lon": -77.03645666666667, "is_reserved": 0}, {"bike_id": "22105adb632d36d036a60cf94041c98f", "fusion_lon": 0.0, "type": "electric_scooter", "name": "22105adb632d36d036a60cf94041c98f", "rental_uris": {"android": "https://dc.lft.to/lastmile_qr_scan", "ios": "https://dc.lft.to/lastmile_qr_scan"}, "fusion_lat": 0.0, "lat": 38.8900505, "is_disabled": 0, "lon": -76.93835766666666, "is_reserved": 0}, {"bike_id": "76d1eba20ef2b99c5dee61eeb7baad5b", "fusion_lon": 0.0, "type": "electric_scooter", "name": "76d1eba20ef2b99c5dee61eeb7baad5b", "rental_uris": {"android": "https://dc.lft.to/lastmile_qr_scan", "ios": "https://dc.lft.to/lastmile_qr_scan"}, "fusion_lat": 0.0, "lat": 38.9328375, "is_disabled": 0, "lon": -77.03640016666667, "is_reserved": 0}, {"bike_id": "3c596216a11d99fc5eb600fa2ca337d9", "fusion_lon": 0.0, "type": "electric_scooter", "name": "3c596216a11d99fc5eb600fa2ca337d9", "rental_uris": {"android": "https://dc.lft.to/lastmile_qr_scan", "ios": "https://dc.lft.to/lastmile_qr_scan"}, "fusion_lat": 0.0, "lat": 38.90442983333333, "is_disabled": 0, "lon": -77.019983, "is_reserved": 0}, {"bike_id": "d426cd428116738b75af007b7d34e6a9", "fusion_lon": 0.0, "type": "electric_scooter", "name": "d426cd428116738b75af007b7d34e6a9", "rental_uris": {"android": "https://dc.lft.to/lastmile_qr_scan", "ios": "https://dc.lft.to/lastmile_qr_scan"}, "fusion_lat": 0.0, "lat": 38.962032666666666, "is_disabled": 0, "lon": -77.02349183333334, "is_reserved": 0}, {"bike_id": "eab876483cc63552e7b14f5791ada022", "fusion_lon": 0.0, "type": "electric_bike", "name": "eab876483cc63552e7b14f5791ada022", "rental_uris": {"android": "https://dc.lft.to/lastmile_qr_scan", "ios": "https://dc.lft.to/lastmile_qr_scan"}, "fusion_lat": 0.0, "lat": 39.02414233333333, "is_disabled": 0, "lon": -77.1250535, "is_reserved": 0}, {"bike_id": "2c44f4cddeb009cf684aba6a69b4f17a", "fusion_lon": 0.0, "type": "electric_scooter", "name": "2c44f4cddeb009cf684aba6a69b4f17a", "rental_uris": {"android": "https://dc.lft.to/lastmile_qr_scan", "ios": "https://dc.lft.to/lastmile_qr_scan"}, "fusion_lat": 0.0, "lat": 38.8995285, "is_disabled": 0, "lon": -77.024942, "is_reserved": 0}, {"bike_id": "77a9a79d0e2d19ee97162d830965de05", "fusion_lon": 0.0, "type": "electric_scooter", "name": "77a9a79d0e2d19ee97162d830965de05", "rental_uris": {"android": "https://dc.lft.to/lastmile_qr_scan", "ios": "https://dc.lft.to/lastmile_qr_scan"}, "fusion_lat": 0.0, "lat": 38.904003, "is_disabled": 0, "lon": -77.04357816666666, "is_reserved": 0}, {"bike_id": "ef686c1558a640779a22115af9657a19", "fusion_lon": 0.0, "type": "electric_scooter", "name": "ef686c1558a640779a22115af9657a19", "rental_uris": {"android": "https://dc.lft.to/lastmile_qr_scan", "ios": "https://dc.lft.to/lastmile_qr_scan"}, "fusion_lat": 0.0, "lat": 38.9128865, "is_disabled": 0, "lon": -77.00923816666666, "is_reserved": 0}, {"bike_id": "de75da786ad75d5f20a21c4e8ff18464", "fusion_lon": 0.0, "type": "electric_scooter", "name": "de75da786ad75d5f20a21c4e8ff18464", "rental_uris": {"android": "https://dc.lft.to/lastmile_qr_scan", "ios": "https://dc.lft.to/lastmile_qr_scan"}, "fusion_lat": 0.0, "lat": 38.90345416666667, "is_disabled": 0, "lon": -77.03543866666666, "is_reserved": 0}, {"bike_id": "85a9fc14b384a3cf483c0e43a9b937e3", "fusion_lon": 0.0, "type": "electric_scooter", "name": "85a9fc14b384a3cf483c0e43a9b937e3", "rental_uris": {"android": "https://dc.lft.to/lastmile_qr_scan", "ios": "https://dc.lft.to/lastmile_qr_scan"}, "fusion_lat": 0.0, "lat": 38.939328333333336, "is_disabled": 0, "lon": -77.0604445, "is_reserved": 0}, {"bike_id": "9c43db3940c8d9ca88faff9b7f4f1132", "fusion_lon": 0.0, "type": "electric_scooter", "name": "9c43db3940c8d9ca88faff9b7f4f1132", "rental_uris": {"android": "https://dc.lft.to/lastmile_qr_scan", "ios": "https://dc.lft.to/lastmile_qr_scan"}, "fusion_lat": 0.0, "lat": 38.90483366666667, "is_disabled": 0, "lon": -77.00731866666666, "is_reserved": 0}, {"bike_id": "047d502a315749032fe0eaf377bcdcd9", "fusion_lon": 0.0, "type": "electric_scooter", "name": "047d502a315749032fe0eaf377bcdcd9", "rental_uris": {"android": "https://dc.lft.to/lastmile_qr_scan", "ios": "https://dc.lft.to/lastmile_qr_scan"}, "fusion_lat": 0.0, "lat": 38.9078805, "is_disabled": 0, "lon": -76.9412675, "is_reserved": 0}, {"bike_id": "e12cd861bbfb49c5fed9504133067f0a", "fusion_lon": 0.0, "type": "electric_scooter", "name": "e12cd861bbfb49c5fed9504133067f0a", "rental_uris": {"android": "https://dc.lft.to/lastmile_qr_scan", "ios": "https://dc.lft.to/lastmile_qr_scan"}, "fusion_lat": 0.0, "lat": 38.88442116666667, "is_disabled": 0, "lon": -76.99622716666667, "is_reserved": 0}, {"bike_id": "0fdb967ccae3413f661273064f4150b8", "fusion_lon": 0.0, "type": "electric_scooter", "name": "0fdb967ccae3413f661273064f4150b8", "rental_uris": {"android": "https://dc.lft.to/lastmile_qr_scan", "ios": "https://dc.lft.to/lastmile_qr_scan"}, "fusion_lat": 0.0, "lat": 38.8922585, "is_disabled": 0, "lon": -77.028352, "is_reserved": 0}, {"bike_id": "0d522a1b331d25979c3e46e18300207a", "fusion_lon": 0.0, "type": "electric_scooter", "name": "0d522a1b331d25979c3e46e18300207a", "rental_uris": {"android": "https://dc.lft.to/lastmile_qr_scan", "ios": "https://dc.lft.to/lastmile_qr_scan"}, "fusion_lat": 0.0, "lat": 38.9170295, "is_disabled": 0, "lon": -77.02957133333334, "is_reserved": 0}, {"bike_id": "b4ea01217b28c74fa671acefc82bd5ed", "fusion_lon": 0.0, "type": "electric_scooter", "name": "b4ea01217b28c74fa671acefc82bd5ed", "rental_uris": {"android": "https://dc.lft.to/lastmile_qr_scan", "ios": "https://dc.lft.to/lastmile_qr_scan"}, "fusion_lat": 0.0, "lat": 38.904424666666664, "is_disabled": 0, "lon": -77.05154716666667, "is_reserved": 0}, {"bike_id": "8da64fb2807f9cdf19bd93f182949c6c", "fusion_lon": 0.0, "type": "electric_scooter", "name": "8da64fb2807f9cdf19bd93f182949c6c", "rental_uris": {"android": "https://dc.lft.to/lastmile_qr_scan", "ios": "https://dc.lft.to/lastmile_qr_scan"}, "fusion_lat": 0.0, "lat": 38.92905983333333, "is_disabled": 0, "lon": -77.06382033333334, "is_reserved": 0}, {"bike_id": "c0f57474cf7ae9dc8e6782f9fabc498e", "fusion_lon": 0.0, "type": "electric_scooter", "name": "c0f57474cf7ae9dc8e6782f9fabc498e", "rental_uris": {"android": "https://dc.lft.to/lastmile_qr_scan", "ios": "https://dc.lft.to/lastmile_qr_scan"}, "fusion_lat": 0.0, "lat": 38.926125166666665, "is_disabled": 0, "lon": -77.02164583333334, "is_reserved": 0}, {"bike_id": "407f7404750252cbffeb491a80d3547c", "fusion_lon": 0.0, "type": "electric_scooter", "name": "407f7404750252cbffeb491a80d3547c", "rental_uris": {"android": "https://dc.lft.to/lastmile_qr_scan", "ios": "https://dc.lft.to/lastmile_qr_scan"}, "fusion_lat": 0.0, "lat": 38.905737333333335, "is_disabled": 0, "lon": -77.062724, "is_reserved": 0}, {"bike_id": "9e520003d2143d81735f765c20c0b95b", "fusion_lon": 0.0, "type": "electric_scooter", "name": "9e520003d2143d81735f765c20c0b95b", "rental_uris": {"android": "https://dc.lft.to/lastmile_qr_scan", "ios": "https://dc.lft.to/lastmile_qr_scan"}, "fusion_lat": 0.0, "lat": 38.93054733333334, "is_disabled": 0, "lon": -77.028062, "is_reserved": 0}, {"bike_id": "a562861924213b6498839c8c3c8026d9", "fusion_lon": 0.0, "type": "electric_scooter", "name": "a562861924213b6498839c8c3c8026d9", "rental_uris": {"android": "https://dc.lft.to/lastmile_qr_scan", "ios": "https://dc.lft.to/lastmile_qr_scan"}, "fusion_lat": 0.0, "lat": 38.913962, "is_disabled": 0, "lon": -77.04183483333334, "is_reserved": 0}, {"bike_id": "e8e8fdaba6408e94d0fb568eb5678ad2", "fusion_lon": 0.0, "type": "electric_scooter", "name": "e8e8fdaba6408e94d0fb568eb5678ad2", "rental_uris": {"android": "https://dc.lft.to/lastmile_qr_scan", "ios": "https://dc.lft.to/lastmile_qr_scan"}, "fusion_lat": 0.0, "lat": 38.916797833333334, "is_disabled": 0, "lon": -77.03194566666667, "is_reserved": 0}, {"bike_id": "a0407068c8867321e8496eebe99200f0", "fusion_lon": 0.0, "type": "electric_scooter", "name": "a0407068c8867321e8496eebe99200f0", "rental_uris": {"android": "https://dc.lft.to/lastmile_qr_scan", "ios": "https://dc.lft.to/lastmile_qr_scan"}, "fusion_lat": 0.0, "lat": 38.903436, "is_disabled": 0, "lon": -76.9885455, "is_reserved": 0}, {"bike_id": "fb14bf2e7863a202fdaea8d5f827c596", "fusion_lon": 0.0, "type": "electric_scooter", "name": "fb14bf2e7863a202fdaea8d5f827c596", "rental_uris": {"android": "https://dc.lft.to/lastmile_qr_scan", "ios": "https://dc.lft.to/lastmile_qr_scan"}, "fusion_lat": 0.0, "lat": 38.916317166666666, "is_disabled": 0, "lon": -77.039858, "is_reserved": 0}, {"bike_id": "c6d52de08b5e5d44bcd8be3ca3aee194", "fusion_lon": 0.0, "type": "electric_scooter", "name": "c6d52de08b5e5d44bcd8be3ca3aee194", "rental_uris": {"android": "https://dc.lft.to/lastmile_qr_scan", "ios": "https://dc.lft.to/lastmile_qr_scan"}, "fusion_lat": 0.0, "lat": 38.89604583333333, "is_disabled": 0, "lon": -76.97824866666667, "is_reserved": 0}, {"bike_id": "cb51ef1dc2e04d2a42f1b02ee784c803", "fusion_lon": 0.0, "type": "electric_scooter", "name": "cb51ef1dc2e04d2a42f1b02ee784c803", "rental_uris": {"android": "https://dc.lft.to/lastmile_qr_scan", "ios": "https://dc.lft.to/lastmile_qr_scan"}, "fusion_lat": 0.0, "lat": 38.8921505, "is_disabled": 0, "lon": -77.02781383333334, "is_reserved": 0}, {"bike_id": "22250023f63be5ed2189d362eb8f5281", "fusion_lon": 0.0, "type": "electric_scooter", "name": "22250023f63be5ed2189d362eb8f5281", "rental_uris": {"android": "https://dc.lft.to/lastmile_qr_scan", "ios": "https://dc.lft.to/lastmile_qr_scan"}, "fusion_lat": 0.0, "lat": 38.921494833333334, "is_disabled": 0, "lon": -77.03868116666666, "is_reserved": 0}, {"bike_id": "b79d527578bb010d16af92581adf5d64", "fusion_lon": 0.0, "type": "electric_scooter", "name": "b79d527578bb010d16af92581adf5d64", "rental_uris": {"android": "https://dc.lft.to/lastmile_qr_scan", "ios": "https://dc.lft.to/lastmile_qr_scan"}, "fusion_lat": 0.0, "lat": 38.92030283333333, "is_disabled": 0, "lon": -76.97023883333334, "is_reserved": 0}, {"bike_id": "c69c106bbe2b2cc326916bd47f212126", "fusion_lon": 0.0, "type": "electric_bike", "name": "c69c106bbe2b2cc326916bd47f212126", "rental_uris": {"android": "https://dc.lft.to/lastmile_qr_scan", "ios": "https://dc.lft.to/lastmile_qr_scan"}, "fusion_lat": 0.0, "lat": 38.89632, "is_disabled": 0, "lon": -76.94783416666667, "is_reserved": 0}, {"bike_id": "0b500af18d512212e83cbe6e7efd229d", "fusion_lon": 0.0, "type": "electric_scooter", "name": "0b500af18d512212e83cbe6e7efd229d", "rental_uris": {"android": "https://dc.lft.to/lastmile_qr_scan", "ios": "https://dc.lft.to/lastmile_qr_scan"}, "fusion_lat": 0.0, "lat": 38.8981435, "is_disabled": 0, "lon": -77.033331, "is_reserved": 0}, {"bike_id": "6b203a81765d0758f9fbe9b25b1517bf", "fusion_lon": 0.0, "type": "electric_scooter", "name": "6b203a81765d0758f9fbe9b25b1517bf", "rental_uris": {"android": "https://dc.lft.to/lastmile_qr_scan", "ios": "https://dc.lft.to/lastmile_qr_scan"}, "fusion_lat": 0.0, "lat": 38.84277733333333, "is_disabled": 0, "lon": -76.990807, "is_reserved": 0}, {"bike_id": "95ab20d3ca0685c02e5748aabe20ed6b", "fusion_lon": 0.0, "type": "electric_scooter", "name": "95ab20d3ca0685c02e5748aabe20ed6b", "rental_uris": {"android": "https://dc.lft.to/lastmile_qr_scan", "ios": "https://dc.lft.to/lastmile_qr_scan"}, "fusion_lat": 0.0, "lat": 38.903997333333336, "is_disabled": 0, "lon": -77.05122866666666, "is_reserved": 0}, {"bike_id": "11e9e3182cfa30cd454f81a807969639", "fusion_lon": 0.0, "type": "electric_scooter", "name": "11e9e3182cfa30cd454f81a807969639", "rental_uris": {"android": "https://dc.lft.to/lastmile_qr_scan", "ios": "https://dc.lft.to/lastmile_qr_scan"}, "fusion_lat": 0.0, "lat": 38.892439, "is_disabled": 0, "lon": -77.031962, "is_reserved": 0}, {"bike_id": "ffc24e7894e6086adaf308e777e754d1", "fusion_lon": 0.0, "type": "electric_scooter", "name": "ffc24e7894e6086adaf308e777e754d1", "rental_uris": {"android": "https://dc.lft.to/lastmile_qr_scan", "ios": "https://dc.lft.to/lastmile_qr_scan"}, "fusion_lat": 0.0, "lat": 38.900067, "is_disabled": 0, "lon": -77.04502333333333, "is_reserved": 0}, {"bike_id": "64dbe003d21454775e5bc322249c3f57", "fusion_lon": 0.0, "type": "electric_scooter", "name": "64dbe003d21454775e5bc322249c3f57", "rental_uris": {"android": "https://dc.lft.to/lastmile_qr_scan", "ios": "https://dc.lft.to/lastmile_qr_scan"}, "fusion_lat": 0.0, "lat": 38.90697316666667, "is_disabled": 0, "lon": -76.98702433333334, "is_reserved": 0}, {"bike_id": "a57c9afcfa6d183f948a2a552ac067ec", "fusion_lon": 0.0, "type": "electric_scooter", "name": "a57c9afcfa6d183f948a2a552ac067ec", "rental_uris": {"android": "https://dc.lft.to/lastmile_qr_scan", "ios": "https://dc.lft.to/lastmile_qr_scan"}, "fusion_lat": 0.0, "lat": 38.908599, "is_disabled": 0, "lon": -76.9994825, "is_reserved": 0}, {"bike_id": "11e8dbbd803c59df777e9a8902f4373a", "fusion_lon": 0.0, "type": "electric_scooter", "name": "11e8dbbd803c59df777e9a8902f4373a", "rental_uris": {"android": "https://dc.lft.to/lastmile_qr_scan", "ios": "https://dc.lft.to/lastmile_qr_scan"}, "fusion_lat": 0.0, "lat": 38.88739366666667, "is_disabled": 0, "lon": -77.02825066666666, "is_reserved": 0}, {"bike_id": "b5799482156436e2fd2346ceccdf43d6", "fusion_lon": 0.0, "type": "electric_scooter", "name": "b5799482156436e2fd2346ceccdf43d6", "rental_uris": {"android": "https://dc.lft.to/lastmile_qr_scan", "ios": "https://dc.lft.to/lastmile_qr_scan"}, "fusion_lat": 0.0, "lat": 38.935545833333336, "is_disabled": 0, "lon": -77.03467066666667, "is_reserved": 0}, {"bike_id": "2b01c3b058422d7fa9f1c04b52c5f976", "fusion_lon": 0.0, "type": "electric_scooter", "name": "2b01c3b058422d7fa9f1c04b52c5f976", "rental_uris": {"android": "https://dc.lft.to/lastmile_qr_scan", "ios": "https://dc.lft.to/lastmile_qr_scan"}, "fusion_lat": 0.0, "lat": 38.89476233333333, "is_disabled": 0, "lon": -77.04541416666666, "is_reserved": 0}, {"bike_id": "cb64e18da1b2b873d0ec8384935258f0", "fusion_lon": 0.0, "type": "electric_scooter", "name": "cb64e18da1b2b873d0ec8384935258f0", "rental_uris": {"android": "https://dc.lft.to/lastmile_qr_scan", "ios": "https://dc.lft.to/lastmile_qr_scan"}, "fusion_lat": 0.0, "lat": 38.93741883333333, "is_disabled": 0, "lon": -77.03505383333334, "is_reserved": 0}, {"bike_id": "011efa6361bbcf037cd501d648218b8e", "fusion_lon": 0.0, "type": "electric_scooter", "name": "011efa6361bbcf037cd501d648218b8e", "rental_uris": {"android": "https://dc.lft.to/lastmile_qr_scan", "ios": "https://dc.lft.to/lastmile_qr_scan"}, "fusion_lat": 0.0, "lat": 38.973751, "is_disabled": 0, "lon": -77.03124633333333, "is_reserved": 0}, {"bike_id": "5ac8a1eb9ba76a8cde662bb1e926cc9e", "fusion_lon": 0.0, "type": "electric_scooter", "name": "5ac8a1eb9ba76a8cde662bb1e926cc9e", "rental_uris": {"android": "https://dc.lft.to/lastmile_qr_scan", "ios": "https://dc.lft.to/lastmile_qr_scan"}, "fusion_lat": 0.0, "lat": 38.89300133333333, "is_disabled": 0, "lon": -77.0465925, "is_reserved": 0}, {"bike_id": "c88f0720befcd369afe76c6cdc36cb17", "fusion_lon": 0.0, "type": "electric_scooter", "name": "c88f0720befcd369afe76c6cdc36cb17", "rental_uris": {"android": "https://dc.lft.to/lastmile_qr_scan", "ios": "https://dc.lft.to/lastmile_qr_scan"}, "fusion_lat": 0.0, "lat": 38.93757883333333, "is_disabled": 0, "lon": -77.032836, "is_reserved": 0}, {"bike_id": "da30100eed055b2ece3ee3e65dbab208", "fusion_lon": 0.0, "type": "electric_bike", "name": "da30100eed055b2ece3ee3e65dbab208", "rental_uris": {"android": "https://dc.lft.to/lastmile_qr_scan", "ios": "https://dc.lft.to/lastmile_qr_scan"}, "fusion_lat": 0.0, "lat": 38.967581, "is_disabled": 0, "lon": -77.09164866666667, "is_reserved": 0}, {"bike_id": "62340a8530c74d774a7a69af72069ede", "fusion_lon": 0.0, "type": "electric_bike", "name": "62340a8530c74d774a7a69af72069ede", "rental_uris": {"android": "https://dc.lft.to/lastmile_qr_scan", "ios": "https://dc.lft.to/lastmile_qr_scan"}, "fusion_lat": 0.0, "lat": 38.956228833333334, "is_disabled": 0, "lon": -77.03623566666667, "is_reserved": 0}, {"bike_id": "d6e0b7a7ab3a35a72561d903b4fdc867", "fusion_lon": 0.0, "type": "electric_scooter", "name": "d6e0b7a7ab3a35a72561d903b4fdc867", "rental_uris": {"android": "https://dc.lft.to/lastmile_qr_scan", "ios": "https://dc.lft.to/lastmile_qr_scan"}, "fusion_lat": 0.0, "lat": 38.910252, "is_disabled": 0, "lon": -77.033748, "is_reserved": 0}, {"bike_id": "2034ae4b8e59a1fe83e54b2e2bdf39d1", "fusion_lon": 0.0, "type": "electric_scooter", "name": "2034ae4b8e59a1fe83e54b2e2bdf39d1", "rental_uris": {"android": "https://dc.lft.to/lastmile_qr_scan", "ios": "https://dc.lft.to/lastmile_qr_scan"}, "fusion_lat": 0.0, "lat": 38.87700266666667, "is_disabled": 0, "lon": -77.01734483333334, "is_reserved": 0}, {"bike_id": "dd2218600ad108274a4b8cd1c647b9da", "fusion_lon": 0.0, "type": "electric_bike", "name": "dd2218600ad108274a4b8cd1c647b9da", "rental_uris": {"android": "https://dc.lft.to/lastmile_qr_scan", "ios": "https://dc.lft.to/lastmile_qr_scan"}, "fusion_lat": 0.0, "lat": 38.91616333333333, "is_disabled": 0, "lon": -77.03290066666666, "is_reserved": 0}, {"bike_id": "dc2e38315f15d0e0275f60eb3e10ebbb", "fusion_lon": 0.0, "type": "electric_scooter", "name": "dc2e38315f15d0e0275f60eb3e10ebbb", "rental_uris": {"android": "https://dc.lft.to/lastmile_qr_scan", "ios": "https://dc.lft.to/lastmile_qr_scan"}, "fusion_lat": 0.0, "lat": 38.855265833333334, "is_disabled": 0, "lon": -76.9692015, "is_reserved": 0}, {"bike_id": "eb8d680ffa09669068b65d49dec7b95d", "fusion_lon": 0.0, "type": "electric_scooter", "name": "eb8d680ffa09669068b65d49dec7b95d", "rental_uris": {"android": "https://dc.lft.to/lastmile_qr_scan", "ios": "https://dc.lft.to/lastmile_qr_scan"}, "fusion_lat": 0.0, "lat": 38.9117205, "is_disabled": 0, "lon": -77.03842216666666, "is_reserved": 0}, {"bike_id": "6126edf1ec81c04c492b03ea25ffb06a", "fusion_lon": 0.0, "type": "electric_scooter", "name": "6126edf1ec81c04c492b03ea25ffb06a", "rental_uris": {"android": "https://dc.lft.to/lastmile_qr_scan", "ios": "https://dc.lft.to/lastmile_qr_scan"}, "fusion_lat": 0.0, "lat": 38.93040966666667, "is_disabled": 0, "lon": -77.03291066666667, "is_reserved": 0}, {"bike_id": "e1b8d759a5e2daa69eb4bb3a2d599212", "fusion_lon": 0.0, "type": "electric_scooter", "name": "e1b8d759a5e2daa69eb4bb3a2d599212", "rental_uris": {"android": "https://dc.lft.to/lastmile_qr_scan", "ios": "https://dc.lft.to/lastmile_qr_scan"}, "fusion_lat": 0.0, "lat": 38.91634716666667, "is_disabled": 0, "lon": -77.03216133333333, "is_reserved": 0}, {"bike_id": "0d58dac85aa069976547d86f6ca3d207", "fusion_lon": 0.0, "type": "electric_scooter", "name": "0d58dac85aa069976547d86f6ca3d207", "rental_uris": {"android": "https://dc.lft.to/lastmile_qr_scan", "ios": "https://dc.lft.to/lastmile_qr_scan"}, "fusion_lat": 0.0, "lat": 38.912519, "is_disabled": 0, "lon": -77.03273116666666, "is_reserved": 0}, {"bike_id": "134dc5d9bd12677604e69bd9c86c22bc", "fusion_lon": 0.0, "type": "electric_scooter", "name": "134dc5d9bd12677604e69bd9c86c22bc", "rental_uris": {"android": "https://dc.lft.to/lastmile_qr_scan", "ios": "https://dc.lft.to/lastmile_qr_scan"}, "fusion_lat": 0.0, "lat": 38.92167383333334, "is_disabled": 0, "lon": -77.0411545, "is_reserved": 0}, {"bike_id": "e5a2e2c3c64ab926203cb05d146b7ed1", "fusion_lon": 0.0, "type": "electric_scooter", "name": "e5a2e2c3c64ab926203cb05d146b7ed1", "rental_uris": {"android": "https://dc.lft.to/lastmile_qr_scan", "ios": "https://dc.lft.to/lastmile_qr_scan"}, "fusion_lat": 0.0, "lat": 38.903547, "is_disabled": 0, "lon": -77.03433566666666, "is_reserved": 0}, {"bike_id": "1150d32519a867a3980f46b2fcf1ef26", "fusion_lon": 0.0, "type": "electric_scooter", "name": "1150d32519a867a3980f46b2fcf1ef26", "rental_uris": {"android": "https://dc.lft.to/lastmile_qr_scan", "ios": "https://dc.lft.to/lastmile_qr_scan"}, "fusion_lat": 0.0, "lat": 38.922668, "is_disabled": 0, "lon": -76.99757116666666, "is_reserved": 0}, {"bike_id": "c63e9e39d6bea8cdb87ced5fb3927db3", "fusion_lon": 0.0, "type": "electric_scooter", "name": "c63e9e39d6bea8cdb87ced5fb3927db3", "rental_uris": {"android": "https://dc.lft.to/lastmile_qr_scan", "ios": "https://dc.lft.to/lastmile_qr_scan"}, "fusion_lat": 0.0, "lat": 38.900109666666665, "is_disabled": 0, "lon": -77.04497333333333, "is_reserved": 0}, {"bike_id": "08c0bfeff911d7acf46bf7d91f8d6924", "fusion_lon": 0.0, "type": "electric_bike", "name": "08c0bfeff911d7acf46bf7d91f8d6924", "rental_uris": {"android": "https://dc.lft.to/lastmile_qr_scan", "ios": "https://dc.lft.to/lastmile_qr_scan"}, "fusion_lat": 0.0, "lat": 38.852458666666664, "is_disabled": 0, "lon": -77.11430083333333, "is_reserved": 0}, {"bike_id": "7fe8baec3c225db114543f9541ca547f", "fusion_lon": 0.0, "type": "electric_scooter", "name": "7fe8baec3c225db114543f9541ca547f", "rental_uris": {"android": "https://dc.lft.to/lastmile_qr_scan", "ios": "https://dc.lft.to/lastmile_qr_scan"}, "fusion_lat": 0.0, "lat": 38.864800833333334, "is_disabled": 0, "lon": -76.9837095, "is_reserved": 0}, {"bike_id": "a10f8c4a735265ed7e59266e5fc2fb90", "fusion_lon": 0.0, "type": "electric_scooter", "name": "a10f8c4a735265ed7e59266e5fc2fb90", "rental_uris": {"android": "https://dc.lft.to/lastmile_qr_scan", "ios": "https://dc.lft.to/lastmile_qr_scan"}, "fusion_lat": 0.0, "lat": 38.920378666666664, "is_disabled": 0, "lon": -77.03709166666667, "is_reserved": 0}, {"bike_id": "3cac8784066d3eaf95cefdbc0ab955ef", "fusion_lon": 0.0, "type": "electric_scooter", "name": "3cac8784066d3eaf95cefdbc0ab955ef", "rental_uris": {"android": "https://dc.lft.to/lastmile_qr_scan", "ios": "https://dc.lft.to/lastmile_qr_scan"}, "fusion_lat": 0.0, "lat": 38.918421, "is_disabled": 0, "lon": -77.03543283333333, "is_reserved": 0}, {"bike_id": "bccf50e902bbbb3f30c19daf730b96ab", "fusion_lon": 0.0, "type": "electric_scooter", "name": "bccf50e902bbbb3f30c19daf730b96ab", "rental_uris": {"android": "https://dc.lft.to/lastmile_qr_scan", "ios": "https://dc.lft.to/lastmile_qr_scan"}, "fusion_lat": 0.0, "lat": 38.923707, "is_disabled": 0, "lon": -77.04041266666667, "is_reserved": 0}, {"bike_id": "41cbc2542e00bdea873b5f89e0dd7d23", "fusion_lon": 0.0, "type": "electric_scooter", "name": "41cbc2542e00bdea873b5f89e0dd7d23", "rental_uris": {"android": "https://dc.lft.to/lastmile_qr_scan", "ios": "https://dc.lft.to/lastmile_qr_scan"}, "fusion_lat": 0.0, "lat": 38.897430666666665, "is_disabled": 0, "lon": -77.02200366666666, "is_reserved": 0}, {"bike_id": "c77d2551011ae1f029bb039a93c5ad59", "fusion_lon": 0.0, "type": "electric_bike", "name": "c77d2551011ae1f029bb039a93c5ad59", "rental_uris": {"android": "https://dc.lft.to/lastmile_qr_scan", "ios": "https://dc.lft.to/lastmile_qr_scan"}, "fusion_lat": 0.0, "lat": 38.83607133333334, "is_disabled": 0, "lon": -77.00375533333333, "is_reserved": 0}, {"bike_id": "43611d1ae4f22040d3b0a8f498dc567c", "fusion_lon": 0.0, "type": "electric_bike", "name": "43611d1ae4f22040d3b0a8f498dc567c", "rental_uris": {"android": "https://dc.lft.to/lastmile_qr_scan", "ios": "https://dc.lft.to/lastmile_qr_scan"}, "fusion_lat": 0.0, "lat": 38.84096366666667, "is_disabled": 0, "lon": -77.08940666666666, "is_reserved": 0}, {"bike_id": "f824db3f23569c41b3a37eca04c32564", "fusion_lon": 0.0, "type": "electric_scooter", "name": "f824db3f23569c41b3a37eca04c32564", "rental_uris": {"android": "https://dc.lft.to/lastmile_qr_scan", "ios": "https://dc.lft.to/lastmile_qr_scan"}, "fusion_lat": 0.0, "lat": 38.8962665, "is_disabled": 0, "lon": -76.947697, "is_reserved": 0}, {"bike_id": "0f83ac31d8fcbfef727f1c213dc6c359", "fusion_lon": 0.0, "type": "electric_scooter", "name": "0f83ac31d8fcbfef727f1c213dc6c359", "rental_uris": {"android": "https://dc.lft.to/lastmile_qr_scan", "ios": "https://dc.lft.to/lastmile_qr_scan"}, "fusion_lat": 0.0, "lat": 38.89339, "is_disabled": 0, "lon": -77.01167533333333, "is_reserved": 0}, {"bike_id": "8c34c1bc753e18fdfb0f18cb114c64d4", "fusion_lon": 0.0, "type": "electric_scooter", "name": "8c34c1bc753e18fdfb0f18cb114c64d4", "rental_uris": {"android": "https://dc.lft.to/lastmile_qr_scan", "ios": "https://dc.lft.to/lastmile_qr_scan"}, "fusion_lat": 0.0, "lat": 38.89992633333333, "is_disabled": 0, "lon": -77.0014225, "is_reserved": 0}, {"bike_id": "7c7ff37dce82baf5390e4ab7cbe46131", "fusion_lon": 0.0, "type": "electric_scooter", "name": "7c7ff37dce82baf5390e4ab7cbe46131", "rental_uris": {"android": "https://dc.lft.to/lastmile_qr_scan", "ios": "https://dc.lft.to/lastmile_qr_scan"}, "fusion_lat": 0.0, "lat": 38.8442495, "is_disabled": 0, "lon": -76.99785183333333, "is_reserved": 0},