{"data": {"bikes": [{"type": "electric_scooter", "name": "3c8147fe0a68b7789a560650b94c800d", "rental_uris": {"ios": "https://dc.lft.to/lastmile_qr_scan", "android": "https://dc.lft.to/lastmile_qr_scan"}, "fusion_lon": 0.0, "lat": 38.922794, "is_disabled": 0, "bike_id": "3c8147fe0a68b7789a560650b94c800d", "fusion_lat": 0.0, "is_reserved": 0, "lon": -77.029534}, {"type": "electric_scooter", "name": "35d062f88bbb9fcef43b70d4b81dd209", "rental_uris": {"ios": "https://dc.lft.to/lastmile_qr_scan", "android": "https://dc.lft.to/lastmile_qr_scan"}, "fusion_lon": 0.0, "lat": 38.898761666666665, "is_disabled": 0, "bike_id": "35d062f88bbb9fcef43b70d4b81dd209", "fusion_lat": 0.0, "is_reserved": 0, "lon": -76.9318365}, {"type": "electric_scooter", "name": "cab509c9851bf27274238f763a6c1eb1", "rental_uris": {"ios": "https://dc.lft.to/lastmile_qr_scan", "android": "https://dc.lft.to/lastmile_qr_scan"}, "fusion_lon": 0.0, "lat": 38.91714133333333, "is_disabled": 0, "bike_id": "cab509c9851bf27274238f763a6c1eb1", "fusion_lat": 0.0, "is_reserved": 0, "lon": -77.0366265}, {"type": "electric_scooter", "name": "66d7af3cd0bd59db8ec7e1e53c15427b", "rental_uris": {"ios": "https://dc.lft.to/lastmile_qr_scan", "android": "https://dc.lft.to/lastmile_qr_scan"}, "fusion_lon": 0.0, "lat": 38.90205316666667, "is_disabled": 0, "bike_id": "66d7af3cd0bd59db8ec7e1e53c15427b", "fusion_lat": 0.0, "is_reserved": 0, "lon": -77.02371416666666}, {"type": "electric_scooter", "name": "987d9cfd44270959eca1a7bc2041a569", "rental_uris": {"ios": "https://dc.lft.to/lastmile_qr_scan", "android": "https://dc.lft.to/lastmile_qr_scan"}, "fusion_lon": 0.0, "lat": 38.92485083333333, "is_disabled": 0, "bike_id": "987d9cfd44270959eca1a7bc2041a569", "fusion_lat": 0.0, "is_reserved": 0, "lon": -77.02657083333334}, {"type": "electric_scooter", "name": "1261325ce7172aec7508b01114ebb468", "rental_uris": {"ios": "https://dc.lft.to/lastmile_qr_scan", "android": "https://dc.lft.to/lastmile_qr_scan"}, "fusion_lon": 0.0, "lat": 38.925636833333336, "is_disabled": 0, "bike_id": "1261325ce7172aec7508b01114ebb468", "fusion_lat": 0.0, "is_reserved": 0, "lon": -77.02709066666667}, {"type": "electric_scooter", "name": "3f24b329a11abb3cbdee31cb4a8f47ca", "rental_uris": {"ios": "https://dc.lft.to/lastmile_qr_scan", "android": "https://dc.lft.to/lastmile_qr_scan"}, "fusion_lon": 0.0, "lat": 38.8850395, "is_disabled": 0, "bike_id": "3f24b329a11abb3cbdee31cb4a8f47ca", "fusion_lat": 0.0, "is_reserved": 0, "lon": -77.0069935}, {"type": "electric_bike", "name": "89af97ec114029ecaefb19703b5e0678", "rental_uris": {"ios": "https://dc.lft.to/lastmile_qr_scan", "android": "https://dc.lft.to/lastmile_qr_scan"}, "fusion_lon": 0.0, "lat": 38.89272183333333, "is_disabled": 0, "bike_id": "89af97ec114029ecaefb19703b5e0678", "fusion_lat": 0.0, "is_reserved": 0, "lon": -76.95108683333333}, {"type": "electric_scooter", "name": "5a666d249bd083a86b7fdc13db073397", "rental_uris": {"ios": "https://dc.lft.to/lastmile_qr_scan", "android": "https://dc.lft.to/lastmile_qr_scan"}, "fusion_lon": 0.0, "lat": 38.865576833333336, "is_disabled": 0, "bike_id": "5a666d249bd083a86b7fdc13db073397", "fusion_lat": 0.0, "is_reserved": 0, "lon": -76.98350633333334}, {"type": "electric_scooter", "name": "55b2ed3f633375a19f9eb80738355f69", "rental_uris": {"ios": "https://dc.lft.to/lastmile_qr_scan", "android": "https://dc.lft.to/lastmile_qr_scan"}, "fusion_lon": 0.0, "lat": 38.897979166666666, "is_disabled": 0, "bike_id": "55b2ed3f633375a19f9eb80738355f69", "fusion_lat": 0.0, "is_reserved": 0, "lon": -77.01067633333334}, {"type": "electric_bike", "name": "039197f258d5dec09e6a769c5a53604c", "rental_uris": {"ios": "https://dc.lft.to/lastmile_qr_scan", "android": "https://dc.lft.to/lastmile_qr_scan"}, "fusion_lon": 0.0, "lat": 38.99420416666667, "is_disabled": 0, "bike_id": "039197f258d5dec09e6a769c5a53604c", "fusion_lat": 0.0, "is_reserved": 0, "lon": -77.07692433333334}, {"type": "electric_bike", "name": "2aa0ef739d1d330f6c81094761044417", "rental_uris": {"ios": "https://dc.lft.to/lastmile_qr_scan", "android": "https://dc.lft.to/lastmile_qr_scan"}, "fusion_lon": 0.0, "lat": 39.036083, "is_disabled": 0, "bike_id": "2aa0ef739d1d330f6c81094761044417", "fusion_lat": 0.0, "is_reserved": 0, "lon": -77.05545083333334}, {"type": "electric_scooter", "name": "b6f88988ba1ccac4717bad1b55a78b0c", "rental_uris": {"ios": "https://dc.lft.to/lastmile_qr_scan", "android": "https://dc.lft.to/lastmile_qr_scan"}, "fusion_lon": 0.0, "lat": 38.91667066666667, "is_disabled": 0, "bike_id": "b6f88988ba1ccac4717bad1b55a78b0c", "fusion_lat": 0.0, "is_reserved": 0, "lon": -77.03454466666666}, {"type": "electric_scooter", "name": "e194f429b9c7431c5efd6d5866eb74f4", "rental_uris": {"ios": "https://dc.lft.to/lastmile_qr_scan", "android": "https://dc.lft.to/lastmile_qr_scan"}, "fusion_lon": 0.0, "lat": 38.92960266666667, "is_disabled": 0, "bike_id": "e194f429b9c7431c5efd6d5866eb74f4", "fusion_lat": 0.0, "is_reserved": 0, "lon": -77.03183683333333}, {"type": "electric_bike", "name": "f084afb8704b2b62e406bbd80879068e", "rental_uris": {"ios": "https://dc.lft.to/lastmile_qr_scan", "android": "https://dc.lft.to/lastmile_qr_scan"}, "fusion_lon": 0.0, "lat": 38.951690166666666, "is_disabled": 0, "bike_id": "f084afb8704b2b62e406bbd80879068e", "fusion_lat": 0.0, "is_reserved": 0, "lon": -77.03163116666667}, {"type": "electric_scooter", "name": "7f9bb82e537ebe63706b66d0fe491c76", "rental_uris": {"ios": "https://dc.lft.to/lastmile_qr_scan", "android": "https://dc.lft.to/lastmile_qr_scan"}, "fusion_lon": 0.0, "lat": 38.924377166666666, "is_disabled": 0, "bike_id": "7f9bb82e537ebe63706b66d0fe491c76", "fusion_lat": 0.0, "is_reserved": 0, "lon": -77.03370583333333}, {"type": "electric_scooter", "name": "72725c6e8e73c0309a50c16840cb4a74", "rental_uris": {"ios": "https://dc.lft.to/lastmile_qr_scan", "android": "https://dc.lft.to/lastmile_qr_scan"}, "fusion_lon": 0.0, "lat": 38.91431566666667, "is_disabled": 0, "bike_id": "72725c6e8e73c0309a50c16840cb4a74", "fusion_lat": 0.0, "is_reserved": 0, "lon": -77.02197133333334}, {"type": "electric_scooter", "name": "6f484ce3ad77bfc5b7210322676e6785", "rental_uris": {"ios": "https://dc.lft.to/lastmile_qr_scan", "android": "https://dc.lft.to/lastmile_qr_scan"}, "fusion_lon": 0.0, "lat": 38.9191145, "is_disabled": 0, "bike_id": "6f484ce3ad77bfc5b7210322676e6785", "fusion_lat": 0.0, "is_reserved": 0, "lon": -77.0317855}, {"type": "electric_scooter", "name": "8a08fe3fec9cc0347aa3e5ddfb87d464", "rental_uris": {"ios": "https://dc.lft.to/lastmile_qr_scan", "android": "https://dc.lft.to/lastmile_qr_scan"}, "fusion_lon": 0.0, "lat": 38.92824483333333, "is_disabled": 0, "bike_id": "8a08fe3fec9cc0347aa3e5ddfb87d464", "fusion_lat": 0.0, "is_reserved": 0, "lon": -77.05965633333334}, {"type": "electric_scooter", "name": "ac101cd11ee6e518a262bdce2005fef6", "rental_uris": {"ios": "https://dc.lft.to/lastmile_qr_scan", "android": "https://dc.lft.to/lastmile_qr_scan"}, "fusion_lon": 0.0, "lat": 38.8998915, "is_disabled": 0, "bike_id": "ac101cd11ee6e518a262bdce2005fef6", "fusion_lat": 0.0, "is_reserved": 0, "lon": -76.984359}, {"type": "electric_scooter", "name": "70b0e05e2e43b20c514aa8e09ddc27de", "rental_uris": {"ios": "https://dc.lft.to/lastmile_qr_scan", "android": "https://dc.lft.to/lastmile_qr_scan"}, "fusion_lon": 0.0, "lat": 38.92371933333333, "is_disabled": 0, "bike_id": "70b0e05e2e43b20c514aa8e09ddc27de", "fusion_lat": 0.0, "is_reserved": 0, "lon": -77.03129683333333}, {"type": "electric_scooter", "name": "cb3f14ff7e86f2548ba89e43a900500f", "rental_uris": {"ios": "https://dc.lft.to/lastmile_qr_scan", "android": "https://dc.lft.to/lastmile_qr_scan"}, "fusion_lon": 0.0, "lat": 38.915335666666664, "is_disabled": 0, "bike_id": "cb3f14ff7e86f2548ba89e43a900500f", "fusion_lat": 0.0, "is_reserved": 0, "lon": -77.01222083333333}, {"type": "electric_scooter", "name": "cdd967fd3fb567a775ef3aafa9b13f2e", "rental_uris": {"ios": "https://dc.lft.to/lastmile_qr_scan", "android": "https://dc.lft.to/lastmile_qr_scan"}, "fusion_lon": 0.0, "lat": 38.93407283333333, "is_disabled": 0, "bike_id": "cdd967fd3fb567a775ef3aafa9b13f2e", "fusion_lat": 0.0, "is_reserved": 0, "lon": -77.02036383333333}, {"type": "electric_scooter", "name": "f1d945c76eb71f5d833f48bd980cb695", "rental_uris": {"ios": "https://dc.lft.to/lastmile_qr_scan", "android": "https://dc.lft.to/lastmile_qr_scan"}, "fusion_lon": 0.0, "lat": 38.877151833333336, "is_disabled": 0, "bike_id": "f1d945c76eb71f5d833f48bd980cb695", "fusion_lat": 0.0, "is_reserved": 0, "lon": -77.0040705}, {"type": "electric_bike", "name": "033f833f8e0a59d1ec6833401acbab29", "rental_uris": {"ios": "https://dc.lft.to/lastmile_qr_scan", "android": "https://dc.lft.to/lastmile_qr_scan"}, "fusion_lon": 0.0, "lat": 38.90031, "is_disabled": 0, "bike_id": "033f833f8e0a59d1ec6833401acbab29", "fusion_lat": 0.0, "is_reserved": 0, "lon": -76.9722085}, {"type": "electric_scooter", "name": "26b3f8e4f6626fb193ae0dc5e2d014d8", "rental_uris": {"ios": "https://dc.lft.to/lastmile_qr_scan", "android": "https://dc.lft.to/lastmile_qr_scan"}, "fusion_lon": 0.0, "lat": 38.91400816666667, "is_disabled": 0, "bike_id": "26b3f8e4f6626fb193ae0dc5e2d014d8", "fusion_lat": 0.0, "is_reserved": 0, "lon": -77.04167916666667}, {"type": "electric_scooter", "name": "4243ac797d062d9234192b1990d411df", "rental_uris": {"ios": "https://dc.lft.to/lastmile_qr_scan", "android": "https://dc.lft.to/lastmile_qr_scan"}, "fusion_lon": 0.0, "lat": 38.9058, "is_disabled": 0, "bike_id": "4243ac797d062d9234192b1990d411df", "fusion_lat": 0.0, "is_reserved": 0, "lon": -77.04363766666667}, {"type": "electric_bike", "name": "9542966f30e883ac6996d72f6f4ef1f4", "rental_uris": {"ios": "https://dc.lft.to/lastmile_qr_scan", "android": "https://dc.lft.to/lastmile_qr_scan"}, "fusion_lon": 0.0, "lat": 38.8315775, "is_disabled": 0, "bike_id": "9542966f30e883ac6996d72f6f4ef1f4", "fusion_lat": 0.0, "is_reserved": 0, "lon": -76.995425}, {"type": "electric_scooter", "name": "e458781d9f5e40fdb09dbdeec2801518", "rental_uris": {"ios": "https://dc.lft.to/lastmile_qr_scan", "android": "https://dc.lft.to/lastmile_qr_scan"}, "fusion_lon": 0.0, "lat": 38.92256833333333, "is_disabled": 0, "bike_id": "e458781d9f5e40fdb09dbdeec2801518", "fusion_lat": 0.0, "is_reserved": 0, "lon": -77.00915516666667}, {"type": "electric_scooter", "name": "28105f03cf4e3c448448ee57db9a0917", "rental_uris": {"ios": "https://dc.lft.to/lastmile_qr_scan", "android": "https://dc.lft.to/lastmile_qr_scan"}, "fusion_lon": 0.0, "lat": 38.924611, "is_disabled": 0, "bike_id": "28105f03cf4e3c448448ee57db9a0917", "fusion_lat": 0.0, "is_reserved": 0, "lon": -77.03822}, {"type": "electric_bike", "name": "5c794ab818d91cf3bf9ee6f47108c03e", "rental_uris": {"ios": "https://dc.lft.to/lastmile_qr_scan", "android": "https://dc.lft.to/lastmile_qr_scan"}, "fusion_lon": 0.0, "lat": 38.892252666666664, "is_disabled": 0, "bike_id": "5c794ab818d91cf3bf9ee6f47108c03e", "fusion_lat": 0.0, "is_reserved": 0, "lon": -77.01383933333334}, {"type": "electric_scooter", "name": "ef2797049d3d445cf0b2a29c3fdc3159", "rental_uris": {"ios": "https://dc.lft.to/lastmile_qr_scan", "android": "https://dc.lft.to/lastmile_qr_scan"}, "fusion_lon": 0.0, "lat": 38.89221216666667, "is_disabled": 0, "bike_id": "ef2797049d3d445cf0b2a29c3fdc3159", "fusion_lat": 0.0, "is_reserved": 0, "lon": -77.04192766666667}, {"type": "electric_scooter", "name": "7b85c3504821963414613c2b4c220ae7", "rental_uris": {"ios": "https://dc.lft.to/lastmile_qr_scan", "android": "https://dc.lft.to/lastmile_qr_scan"}, "fusion_lon": 0.0, "lat": 38.909649333333334, "is_disabled": 0, "bike_id": "7b85c3504821963414613c2b4c220ae7", "fusion_lat": 0.0, "is_reserved": 0, "lon": -77.04530883333334}, {"type": "electric_scooter", "name": "d6d10698f43546531819dbe0d680a4ef", "rental_uris": {"ios": "https://dc.lft.to/lastmile_qr_scan", "android": "https://dc.lft.to/lastmile_qr_scan"}, "fusion_lon": 0.0, "lat": 38.902583, "is_disabled": 0, "bike_id": "d6d10698f43546531819dbe0d680a4ef", "fusion_lat": 0.0, "is_reserved": 0, "lon": -77.01836333333334}, {"type": "electric_scooter", "name": "04570329d37ab8729bce225e14f930b3", "rental_uris": {"ios": "https://dc.lft.to/lastmile_qr_scan", "android": "https://dc.lft.to/lastmile_qr_scan"}, "fusion_lon": 0.0, "lat": 38.95493833333333, "is_disabled": 0, "bike_id": "04570329d37ab8729bce225e14f930b3", "fusion_lat": 0.0, "is_reserved": 0, "lon": -77.0172165}, {"type": "electric_bike", "name": "2cf7c65e7b32b3990efc52355cd82bbf", "rental_uris": {"ios": "https://dc.lft.to/lastmile_qr_scan", "android": "https://dc.lft.to/lastmile_qr_scan"}, "fusion_lon": 0.0, "lat": 38.908604, "is_disabled": 0, "bike_id": "2cf7c65e7b32b3990efc52355cd82bbf", "fusion_lat": 0.0, "is_reserved": 0, "lon": -76.999395}, {"type": "electric_scooter", "name": "1e6531196f8998ccebb0497a18594e42", "rental_uris": {"ios": "https://dc.lft.to/lastmile_qr_scan", "android": "https://dc.lft.to/lastmile_qr_scan"}, "fusion_lon": 0.0, "lat": 38.90522683333333, "is_disabled": 0, "bike_id": "1e6531196f8998ccebb0497a18594e42", "fusion_lat": 0.0, "is_reserved": 0, "lon": -77.04164066666667}, {"type": "electric_scooter", "name": "f519d0dfe73361485607be2be710aee6", "rental_uris": {"ios": "https://dc.lft.to/lastmile_qr_scan", "android": "https://dc.lft.to/lastmile_qr_scan"}, "fusion_lon": 0.0, "lat": 38.91626016666667, "is_disabled": 0, "bike_id": "f519d0dfe73361485607be2be710aee6", "fusion_lat": 0.0, "is_reserved": 0, "lon": -77.040046}, {"type": "electric_scooter", "name": "c39b9a031669f9b5f6154df8dbf161a9", "rental_uris": {"ios": "https://dc.lft.to/lastmile_qr_scan", "android": "https://dc.lft.to/lastmile_qr_scan"}, "fusion_lon": 0.0, "lat": 38.927892, "is_disabled": 0, "bike_id": "c39b9a031669f9b5f6154df8dbf161a9", "fusion_lat": 0.0, "is_reserved": 0, "lon": -77.03149066666667}, {"type": "electric_bike", "name": "af8b99643949a9d7c27ba4171a862a0b", "rental_uris": {"ios": "https://dc.lft.to/lastmile_qr_scan", "android": "https://dc.lft.to/lastmile_qr_scan"}, "fusion_lon": 0.0, "lat": 38.9211255, "is_disabled": 0, "bike_id": "af8b99643949a9d7c27ba4171a862a0b", "fusion_lat": 0.0, "is_reserved": 0, "lon": -77.06327866666666}, {"type": "electric_scooter", "name": "ac8573f1424c64f971bb54e4abf87ccb", "rental_uris": {"ios": "https://dc.lft.to/lastmile_qr_scan", "android": "https://dc.lft.to/lastmile_qr_scan"}, "fusion_lon": 0.0, "lat": 38.92852766666667, "is_disabled": 0, "bike_id": "ac8573f1424c64f971bb54e4abf87ccb", "fusion_lat": 0.0, "is_reserved": 0, "lon": -77.01414683333333}, {"type": "electric_bike", "name": "43a1a5a02abb4125415a6af6100e01bc", "rental_uris": {"ios": "https://dc.lft.to/lastmile_qr_scan", "android": "https://dc.lft.to/lastmile_qr_scan"}, "fusion_lon": 0.0, "lat": 38.864607666666664, "is_disabled": 0, "bike_id": "43a1a5a02abb4125415a6af6100e01bc", "fusion_lat": 0.0, "is_reserved": 0, "lon": -76.94533116666666}, {"type": "electric_scooter", "name": "0a6d24fe79ca77e019ae737a172a3c3f", "rental_uris": {"ios": "https://dc.lft.to/lastmile_qr_scan", "android": "https://dc.lft.to/lastmile_qr_scan"}, "fusion_lon": 0.0, "lat": 38.8987065, "is_disabled": 0, "bike_id": "0a6d24fe79ca77e019ae737a172a3c3f", "fusion_lat": 0.0, "is_reserved": 0, "lon": -77.020346}, {"type": "electric_scooter", "name": "9c7e0ab72990403ce5d6382184b06b8a", "rental_uris": {"ios": "https://dc.lft.to/lastmile_qr_scan", "android": "https://dc.lft.to/lastmile_qr_scan"}, "fusion_lon": 0.0, "lat": 38.856026166666666, "is_disabled": 0, "bike_id": "9c7e0ab72990403ce5d6382184b06b8a", "fusion_lat": 0.0, "is_reserved": 0, "lon": -76.97267466666666}, {"type": "electric_scooter", "name": "7c93c4cee3d6d0ef5fd7885ef4af2dbf", "rental_uris": {"ios": "https://dc.lft.to/lastmile_qr_scan", "android": "https://dc.lft.to/lastmile_qr_scan"}, "fusion_lon": 0.0, "lat": 38.88137233333333, "is_disabled": 0, "bike_id": "7c93c4cee3d6d0ef5fd7885ef4af2dbf", "fusion_lat": 0.0, "is_reserved": 0, "lon": -77.027061}, {"type": "electric_scooter", "name": "ebf8e798c9c84f56a5d66455deb88488", "rental_uris": {"ios": "https://dc.lft.to/lastmile_qr_scan", "android": "https://dc.lft.to/lastmile_qr_scan"}, "fusion_lon": 0.0, "lat": 38.922684, "is_disabled": 0, "bike_id": "ebf8e798c9c84f56a5d66455deb88488", "fusion_lat": 0.0, "is_reserved": 0, "lon": -77.03266166666667}, {"type": "electric_scooter", "name": "8b237914741ac89f2a7bb2af7300bfaf", "rental_uris": {"ios": "https://dc.lft.to/lastmile_qr_scan", "android": "https://dc.lft.to/lastmile_qr_scan"}, "fusion_lon": 0.0, "lat": 38.909778333333335, "is_disabled": 0, "bike_id": "8b237914741ac89f2a7bb2af7300bfaf", "fusion_lat": 0.0, "is_reserved": 0, "lon": -77.034418}, {"type": "electric_scooter", "name": "df4a36c72e1af186fe781711c39dccf4", "rental_uris": {"ios": "https://dc.lft.to/lastmile_qr_scan", "android": "https://dc.lft.to/lastmile_qr_scan"}, "fusion_lon": 0.0, "lat": 38.90128333333333, "is_disabled": 0, "bike_id": "df4a36c72e1af186fe781711c39dccf4", "fusion_lat": 0.0, "is_reserved": 0, "lon": -77.04617483333334}, {"type": "electric_scooter", "name": "dacfbe16141dcc24446f23f4ed5f8a64", "rental_uris": {"ios": "https://dc.lft.to/lastmile_qr_scan", "android": "https://dc.lft.to/lastmile_qr_scan"}, "fusion_lon": 0.0, "lat": 38.8923945, "is_disabled": 0, "bike_id": "dacfbe16141dcc24446f23f4ed5f8a64", "fusion_lat": 0.0, "is_reserved": 0, "lon": -77.04871916666667}, {"type": "electric_scooter", "name": "db9c789e6da4bf853f7cc3c1b6e14052", "rental_uris": {"ios": "https://dc.lft.to/lastmile_qr_scan", "android": "https://dc.lft.to/lastmile_qr_scan"}, "fusion_lon": 0.0, "lat": 38.90213133333334, "is_disabled": 0, "bike_id": "db9c789e6da4bf853f7cc3c1b6e14052", "fusion_lat": 0.0, "is_reserved": 0, "lon": -77.04748516666666}, {"type": "electric_scooter", "name": "54b28cfe4991a6dfe145e266c7179dd2", "rental_uris": {"ios": "https://dc.lft.to/lastmile_qr_scan", "android": "https://dc.lft.to/lastmile_qr_scan"}, "fusion_lon": 0.0, "lat": 38.901354166666664, "is_disabled": 0, "bike_id": "54b28cfe4991a6dfe145e266c7179dd2", "fusion_lat": 0.0, "is_reserved": 0, "lon": -77.03473283333334}, {"type": "electric_scooter", "name": "cea7ae46754f3705df494062a3f949e5", "rental_uris": {"ios": "https://dc.lft.to/lastmile_qr_scan", "android": "https://dc.lft.to/lastmile_qr_scan"}, "fusion_lon": 0.0, "lat": 38.909799, "is_disabled": 0, "bike_id": "cea7ae46754f3705df494062a3f949e5", "fusion_lat": 0.0, "is_reserved": 0, "lon": -77.0343595}, {"type": "electric_scooter", "name": "fff80a5c64723b6f956d9a63fe18b080", "rental_uris": {"ios": "https://dc.lft.to/lastmile_qr_scan", "android": "https://dc.lft.to/lastmile_qr_scan"}, "fusion_lon": 0.0, "lat": 38.90053366666667, "is_disabled": 0, "bike_id": "fff80a5c64723b6f956d9a63fe18b080", "fusion_lat": 0.0, "is_reserved": 0, "lon": -77.00068033333334}, {"type": "electric_scooter", "name": "129254f1fcb2872b23f2db0186e9ea08", "rental_uris": {"ios": "https://dc.lft.to/lastmile_qr_scan", "android": "https://dc.lft.to/lastmile_qr_scan"}, "fusion_lon": 0.0, "lat": 38.903615, "is_disabled": 0, "bike_id": "129254f1fcb2872b23f2db0186e9ea08", "fusion_lat": 0.0, "is_reserved": 0, "lon": -77.03199633333334}, {"type": "electric_scooter", "name": "a57302d309a0e99f3615b0e031885273", "rental_uris": {"ios": "https://dc.lft.to/lastmile_qr_scan", "android": "https://dc.lft.to/lastmile_qr_scan"}, "fusion_lon": 0.0, "lat": 38.901399166666664, "is_disabled": 0, "bike_id": "a57302d309a0e99f3615b0e031885273", "fusion_lat": 0.0, "is_reserved": 0, "lon": -77.06073483333333}, {"type": "electric_scooter", "name": "d88faa58fb09f0435493c111b23602ea", "rental_uris": {"ios": "https://dc.lft.to/lastmile_qr_scan", "android": "https://dc.lft.to/lastmile_qr_scan"}, "fusion_lon": 0.0, "lat": 38.905571333333334, "is_disabled": 0, "bike_id": "d88faa58fb09f0435493c111b23602ea", "fusion_lat": 0.0, "is_reserved": 0, "lon": -77.003953}, {"type": "electric_scooter", "name": "e80e4de5c45ac33efbee5934ac10b7cc", "rental_uris": {"ios": "https://dc.lft.to/lastmile_qr_scan", "android": "https://dc.lft.to/lastmile_qr_scan"}, "fusion_lon": 0.0, "lat": 38.911105, "is_disabled": 0, "bike_id": "e80e4de5c45ac33efbee5934ac10b7cc", "fusion_lat": 0.0, "is_reserved": 0, "lon": -77.0383035}, {"type": "electric_scooter", "name": "2bb92629d588d675b7c04dca2335c856", "rental_uris": {"ios": "https://dc.lft.to/lastmile_qr_scan", "android": "https://dc.lft.to/lastmile_qr_scan"}, "fusion_lon": 0.0, "lat": 38.91309183333333, "is_disabled": 0, "bike_id": "2bb92629d588d675b7c04dca2335c856", "fusion_lat": 0.0, "is_reserved": 0, "lon": -77.03180916666666}, {"type": "electric_scooter", "name": "8449552e89ab079c39481917843a12a8", "rental_uris": {"ios": "https://dc.lft.to/lastmile_qr_scan", "android": "https://dc.lft.to/lastmile_qr_scan"}, "fusion_lon": 0.0, "lat": 38.90263, "is_disabled": 0, "bike_id": "8449552e89ab079c39481917843a12a8", "fusion_lat": 0.0, "is_reserved": 0, "lon": -77.05320433333333}, {"type": "electric_bike", "name": "013ee8bab4b655573c5b4e178af4c52e", "rental_uris": {"ios": "https://dc.lft.to/lastmile_qr_scan", "android": "https://dc.lft.to/lastmile_qr_scan"}, "fusion_lon": 0.0, "lat": 38.8840575, "is_disabled": 0, "bike_id": "013ee8bab4b655573c5b4e178af4c52e", "fusion_lat": 0.0, "is_reserved": 0, "lon": -76.95411966666667}, {"type": "electric_scooter", "name": "5b63a70b96a12e4f615768b2588d7638", "rental_uris": {"ios": "https://dc.lft.to/lastmile_qr_scan", "android": "https://dc.lft.to/lastmile_qr_scan"}, "fusion_lon": 0.0, "lat": 38.91450716666667, "is_disabled": 0, "bike_id": "5b63a70b96a12e4f615768b2588d7638", "fusion_lat": 0.0, "is_reserved": 0, "lon": -77.0461555}, {"type": "electric_scooter", "name": "1a1837a6880763513a961243747b7a79", "rental_uris": {"ios": "https://dc.lft.to/lastmile_qr_scan", "android": "https://dc.lft.to/lastmile_qr_scan"}, "fusion_lon": 0.0, "lat": 38.908502166666665, "is_disabled": 0, "bike_id": "1a1837a6880763513a961243747b7a79", "fusion_lat": 0.0, "is_reserved": 0, "lon": -76.99803766666666}, {"type": "electric_scooter", "name": "bc479923977b4ac14a595c595818b574", "rental_uris": {"ios": "https://dc.lft.to/lastmile_qr_scan", "android": "https://dc.lft.to/lastmile_qr_scan"}, "fusion_lon": 0.0, "lat": 38.8874175, "is_disabled": 0, "bike_id": "bc479923977b4ac14a595c595818b574", "fusion_lat": 0.0, "is_reserved": 0, "lon": -77.02121166666667}, {"type": "electric_scooter", "name": "1dee24a7715acb41ed728180e185d6cb", "rental_uris": {"ios": "https://dc.lft.to/lastmile_qr_scan", "android": "https://dc.lft.to/lastmile_qr_scan"}, "fusion_lon": 0.0, "lat": 38.90667933333334, "is_disabled": 0, "bike_id": "1dee24a7715acb41ed728180e185d6cb", "fusion_lat": 0.0, "is_reserved": 0, "lon": -77.07185016666666}, {"type": "electric_scooter", "name": "a2be3d6426f8a2b1944f65168eb9d579", "rental_uris": {"ios": "https://dc.lft.to/lastmile_qr_scan", "android": "https://dc.lft.to/lastmile_qr_scan"}, "fusion_lon": 0.0, "lat": 38.9111645, "is_disabled": 0, "bike_id": "a2be3d6426f8a2b1944f65168eb9d579", "fusion_lat": 0.0, "is_reserved": 0, "lon": -77.006037}, {"type": "electric_scooter", "name": "98e05e14f210bc26f7195a3776c9334d", "rental_uris": {"ios": "https://dc.lft.to/lastmile_qr_scan", "android": "https://dc.lft.to/lastmile_qr_scan"}, "fusion_lon": 0.0, "lat": 38.9170835, "is_disabled": 0, "bike_id": "98e05e14f210bc26f7195a3776c9334d", "fusion_lat": 0.0, "is_reserved": 0, "lon": -77.00884233333333}, {"type": "electric_scooter", "name": "43ff4f8f0b99734ab20be6b8e47aee79", "rental_uris": {"ios": "https://dc.lft.to/lastmile_qr_scan", "android": "https://dc.lft.to/lastmile_qr_scan"}, "fusion_lon": 0.0, "lat": 38.918276666666664, "is_disabled": 0, "bike_id": "43ff4f8f0b99734ab20be6b8e47aee79", "fusion_lat": 0.0, "is_reserved": 0, "lon": -77.04172516666667}, {"type": "electric_scooter", "name": "945d3e3a53cd030112b84339efe250ec", "rental_uris": {"ios": "https://dc.lft.to/lastmile_qr_scan", "android": "https://dc.lft.to/lastmile_qr_scan"}, "fusion_lon": 0.0, "lat": 38.877902666666664, "is_disabled": 0, "bike_id": "945d3e3a53cd030112b84339efe250ec", "fusion_lat": 0.0, "is_reserved": 0, "lon": -77.001219}, {"type": "electric_scooter", "name": "35063efbd24f6887a3c78bab798808c5", "rental_uris": {"ios": "https://dc.lft.to/lastmile_qr_scan", "android": "https://dc.lft.to/lastmile_qr_scan"}, "fusion_lon": 0.0, "lat": 38.91397, "is_disabled": 0, "bike_id": "35063efbd24f6887a3c78bab798808c5", "fusion_lat": 0.0, "is_reserved": 0, "lon": -77.038527}, {"type": "electric_scooter", "name": "dd96a6a025dba75bc88ac38ce73aceb3", "rental_uris": {"ios": "https://dc.lft.to/lastmile_qr_scan", "android": "https://dc.lft.to/lastmile_qr_scan"}, "fusion_lon": 0.0, "lat": 38.900038, "is_disabled": 0, "bike_id": "dd96a6a025dba75bc88ac38ce73aceb3", "fusion_lat": 0.0, "is_reserved": 0, "lon": -77.0197575}, {"type": "electric_bike", "name": "6b1139319d2767d98980753c03b6a414", "rental_uris": {"ios": "https://dc.lft.to/lastmile_qr_scan", "android": "https://dc.lft.to/lastmile_qr_scan"}, "fusion_lon": 0.0, "lat": 38.8198575, "is_disabled": 0, "bike_id": "6b1139319d2767d98980753c03b6a414", "fusion_lat": 0.0, "is_reserved": 0, "lon": -76.99806883333333}, {"type": "electric_scooter", "name": "5a22a9c91ecedef97d0d788d697af4d5", "rental_uris": {"ios": "https://dc.lft.to/lastmile_qr_scan", "android": "https://dc.lft.to/lastmile_qr_scan"}, "fusion_lon": 0.0, "lat": 38.873693333333335, "is_disabled": 0, "bike_id": "5a22a9c91ecedef97d0d788d697af4d5", "fusion_lat": 0.0, "is_reserved": 0, "lon": -77.00576116666667}, {"type": "electric_scooter", "name": "7f52d8a77e0151f5fab6cac8327a5293", "rental_uris": {"ios": "https://dc.lft.to/lastmile_qr_scan", "android": "https://dc.lft.to/lastmile_qr_scan"}, "fusion_lon": 0.0, "lat": 38.923478333333335, "is_disabled": 0, "bike_id": "7f52d8a77e0151f5fab6cac8327a5293", "fusion_lat": 0.0, "is_reserved": 0, "lon": -77.03219033333333}, {"type": "electric_scooter", "name": "f49fea631737d8a0d82b0bdf3ee2b058", "rental_uris": {"ios": "https://dc.lft.to/lastmile_qr_scan", "android": "https://dc.lft.to/lastmile_qr_scan"}, "fusion_lon": 0.0, "lat": 38.90713183333333, "is_disabled": 0, "bike_id": "f49fea631737d8a0d82b0bdf3ee2b058", "fusion_lat": 0.0, "is_reserved": 0, "lon": -77.02956966666666}, {"type": "electric_scooter", "name": "463d8d80a1c4136f26aba029509febee", "rental_uris": {"ios": "https://dc.lft.to/lastmile_qr_scan", "android": "https://dc.lft.to/lastmile_qr_scan"}, "fusion_lon": 0.0, "lat": 38.866260833333335, "is_disabled": 0, "bike_id": "463d8d80a1c4136f26aba029509febee", "fusion_lat": 0.0, "is_reserved": 0, "lon": -76.9871025}, {"type": "electric_bike", "name": "8c1774d1309c61546481275f03cee392", "rental_uris": {"ios": "https://dc.lft.to/lastmile_qr_scan", "android": "https://dc.lft.to/lastmile_qr_scan"}, "fusion_lon": 0.0, "lat": 38.89042666666667, "is_disabled": 0, "bike_id": "8c1774d1309c61546481275f03cee392", "fusion_lat": 0.0, "is_reserved": 0, "lon": -77.18395483333333}, {"type": "electric_scooter", "name": "b98d82f49b8fb6a990ca7477983564d7", "rental_uris": {"ios": "https://dc.lft.to/lastmile_qr_scan", "android": "https://dc.lft.to/lastmile_qr_scan"}, "fusion_lon": 0.0, "lat": 38.910351, "is_disabled": 0, "bike_id": "b98d82f49b8fb6a990ca7477983564d7", "fusion_lat": 0.0, "is_reserved": 0, "lon": -77.07570816666667}, {"type": "electric_scooter", "name": "c9fc2d384c064746c95aa1f659c43860", "rental_uris": {"ios": "https://dc.lft.to/lastmile_qr_scan", "android": "https://dc.lft.to/lastmile_qr_scan"}, "fusion_lon": 0.0, "lat": 38.912660833333334, "is_disabled": 0, "bike_id": "c9fc2d384c064746c95aa1f659c43860", "fusion_lat": 0.0, "is_reserved": 0, "lon": -77.01294133333333}, {"type": "electric_scooter", "name": "fb5417a4b5f4ae3c02cbdd41ec428622", "rental_uris": {"ios": "https://dc.lft.to/lastmile_qr_scan", "android": "https://dc.lft.to/lastmile_qr_scan"}, "fusion_lon": 0.0, "lat": 38.91851333333334, "is_disabled": 0, "bike_id": "fb5417a4b5f4ae3c02cbdd41ec428622", "fusion_lat": 0.0, "is_reserved": 0, "lon": -77.00204283333333}, {"type": "electric_scooter", "name": "be8621e76a128b57510650a5b3ee186c", "rental_uris": {"ios": "https://dc.lft.to/lastmile_qr_scan", "android": "https://dc.lft.to/lastmile_qr_scan"}, "fusion_lon": 0.0, "lat": 38.920990833333335, "is_disabled": 0, "bike_id": "be8621e76a128b57510650a5b3ee186c", "fusion_lat": 0.0, "is_reserved": 0, "lon": -77.02524616666666}, {"type": "electric_scooter", "name": "e2070439ea5925fd987c807e747dcf68", "rental_uris": {"ios": "https://dc.lft.to/lastmile_qr_scan", "android": "https://dc.lft.to/lastmile_qr_scan"}, "fusion_lon": 0.0, "lat": 38.8861575, "is_disabled": 0, "bike_id": "e2070439ea5925fd987c807e747dcf68", "fusion_lat": 0.0, "is_reserved": 0, "lon": -77.01251}, {"type": "electric_scooter", "name": "59f1b8165dbf0164e9b1323c4f4aea0a", "rental_uris": {"ios": "https://dc.lft.to/lastmile_qr_scan", "android": "https://dc.lft.to/lastmile_qr_scan"}, "fusion_lon": 0.0, "lat": 38.8831195, "is_disabled": 0, "bike_id": "59f1b8165dbf0164e9b1323c4f4aea0a", "fusion_lat": 0.0, "is_reserved": 0, "lon": -77.017508}, {"type": "electric_bike", "name": "7495f4e85b140fb653ec23a710c1bfdb", "rental_uris": {"ios": "https://dc.lft.to/lastmile_qr_scan", "android": "https://dc.lft.to/lastmile_qr_scan"}, "fusion_lon": 0.0, "lat": 38.88499616666667, "is_disabled": 0, "bike_id": "7495f4e85b140fb653ec23a710c1bfdb", "fusion_lat": 0.0, "is_reserved": 0, "lon": -76.95664066666667}, {"type": "electric_scooter", "name": "e33ae55ac9be0a3a22470fc88d6f9b95", "rental_uris": {"ios": "https://dc.lft.to/lastmile_qr_scan", "android": "https://dc.lft.to/lastmile_qr_scan"}, "fusion_lon": 0.0, "lat": 38.90724016666667, "is_disabled": 0, "bike_id": "e33ae55ac9be0a3a22470fc88d6f9b95", "fusion_lat": 0.0, "is_reserved": 0, "lon": -77.00754083333334}, {"type": "electric_scooter", "name": "fbc6213c57e7aab190d0e33019d2ff01", "rental_uris": {"ios": "https://dc.lft.to/lastmile_qr_scan", "android": "https://dc.lft.to/lastmile_qr_scan"}, "fusion_lon": 0.0, "lat": 38.90567883333333, "is_disabled": 0, "bike_id": "fbc6213c57e7aab190d0e33019d2ff01", "fusion_lat": 0.0, "is_reserved": 0, "lon": -77.026536}, {"type": "electric_scooter", "name": "86e8b5e7a16bb0384e387f0e9559b3bc", "rental_uris": {"ios": "https://dc.lft.to/lastmile_qr_scan", "android": "https://dc.lft.to/lastmile_qr_scan"}, "fusion_lon": 0.0, "lat": 38.92314433333333, "is_disabled": 0, "bike_id": "86e8b5e7a16bb0384e387f0e9559b3bc", "fusion_lat": 0.0, "is_reserved": 0, "lon": -77.0289495}, {"type": "electric_scooter", "name": "457f79957b3c4e123eb17dc8fe83a7f7", "rental_uris": {"ios": "https://dc.lft.to/lastmile_qr_scan", "android": "https://dc.lft.to/lastmile_qr_scan"}, "fusion_lon": 0.0, "lat": 38.9057615, "is_disabled": 0, "bike_id": "457f79957b3c4e123eb17dc8fe83a7f7", "fusion_lat": 0.0, "is_reserved": 0, "lon": -77.04360133333333}, {"type": "electric_scooter", "name": "d331061bac44b930e3cd7f3559137989", "rental_uris": {"ios": "https://dc.lft.to/lastmile_qr_scan", "android": "https://dc.lft.to/lastmile_qr_scan"}, "fusion_lon": 0.0, "lat": 38.8946715, "is_disabled": 0, "bike_id": "d331061bac44b930e3cd7f3559137989", "fusion_lat": 0.0, "is_reserved": 0, "lon": -77.016572}, {"type": "electric_scooter", "name": "8bbc3fcd1ca22263f7a61b83199a092a", "rental_uris": {"ios": "https://dc.lft.to/lastmile_qr_scan", "android": "https://dc.lft.to/lastmile_qr_scan"}, "fusion_lon": 0.0, "lat": 38.907757333333336, "is_disabled": 0, "bike_id": "8bbc3fcd1ca22263f7a61b83199a092a", "fusion_lat": 0.0, "is_reserved": 0, "lon": -77.07163333333334}, {"type": "electric_scooter", "name": "13ca0de017d46772c844f6ae34677678", "rental_uris": {"ios": "https://dc.lft.to/lastmile_qr_scan", "android": "https://dc.lft.to/lastmile_qr_scan"}, "fusion_lon": 0.0, "lat": 38.887476, "is_disabled": 0, "bike_id": "13ca0de017d46772c844f6ae34677678", "fusion_lat": 0.0, "is_reserved": 0, "lon": -76.97314416666667}, {"type": "electric_scooter", "name": "2820e18d18ab55e2a452e194a925ca09", "rental_uris": {"ios": "https://dc.lft.to/lastmile_qr_scan", "android": "https://dc.lft.to/lastmile_qr_scan"}, "fusion_lon": 0.0, "lat": 38.90068316666667, "is_disabled": 0, "bike_id": "2820e18d18ab55e2a452e194a925ca09", "fusion_lat": 0.0, "is_reserved": 0, "lon": -77.05420733333334}, {"type": "electric_scooter", "name": "2fc1f5fac675a095aab9354b3d9b6a42", "rental_uris": {"ios": "https://dc.lft.to/lastmile_qr_scan", "android": "https://dc.lft.to/lastmile_qr_scan"}, "fusion_lon": 0.0, "lat": 38.8814535, "is_disabled": 0, "bike_id": "2fc1f5fac675a095aab9354b3d9b6a42", "fusion_lat": 0.0, "is_reserved": 0, "lon": -77.02738816666667}, {"type": "electric_scooter", "name": "5d7d64fea79cd6abb0597f9b0ec1b7a0", "rental_uris": {"ios": "https://dc.lft.to/lastmile_qr_scan", "android": "https://dc.lft.to/lastmile_qr_scan"}, "fusion_lon": 0.0, "lat": 38.902316166666665, "is_disabled": 0, "bike_id": "5d7d64fea79cd6abb0597f9b0ec1b7a0", "fusion_lat": 0.0, "is_reserved": 0, "lon": -77.03769416666667}, {"type": "electric_scooter", "name": "e0210de72f66b2e5d1c924d6c0558b2d", "rental_uris": {"ios": "https://dc.lft.to/lastmile_qr_scan", "android": "https://dc.lft.to/lastmile_qr_scan"}, "fusion_lon": 0.0, "lat": 38.90591416666667, "is_disabled": 0, "bike_id": "e0210de72f66b2e5d1c924d6c0558b2d", "fusion_lat": 0.0, "is_reserved": 0, "lon": -77.00305516666667}, {"type": "electric_scooter", "name": "9a8ae2a07c55f1338e4338e1cad841ca", "rental_uris": {"ios": "https://dc.lft.to/lastmile_qr_scan", "android": "https://dc.lft.to/lastmile_qr_scan"}, "fusion_lon": 0.0, "lat": 38.8987635, "is_disabled": 0, "bike_id": "9a8ae2a07c55f1338e4338e1cad841ca", "fusion_lat": 0.0, "is_reserved": 0, "lon": -77.02711366666666}, {"type": "electric_scooter", "name": "7f715f889f1c46da989791affd957825", "rental_uris": {"ios": "https://dc.lft.to/lastmile_qr_scan", "android": "https://dc.lft.to/lastmile_qr_scan"}, "fusion_lon": 0.0, "lat": 38.897008666666665, "is_disabled": 0, "bike_id": "7f715f889f1c46da989791affd957825", "fusion_lat": 0.0, "is_reserved": 0, "lon": -77.016273}, {"type": "electric_scooter", "name": "631c19a417357055660af8fa6479fdab", "rental_uris": {"ios": "https://dc.lft.to/lastmile_qr_scan", "android": "https://dc.lft.to/lastmile_qr_scan"}, "fusion_lon": 0.0, "lat": 38.90534866666667, "is_disabled": 0, "bike_id": "631c19a417357055660af8fa6479fdab", "fusion_lat": 0.0, "is_reserved": 0, "lon": -77.0270805}, {"type": "electric_scooter", "name": "c124c11047e9d89ff19ae31fc7684a3b", "rental_uris": {"ios": "https://dc.lft.to/lastmile_qr_scan", "android": "https://dc.lft.to/lastmile_qr_scan"}, "fusion_lon": 0.0, "lat": 38.888063333333335, "is_disabled": 0, "bike_id": "c124c11047e9d89ff19ae31fc7684a3b", "fusion_lat": 0.0, "is_reserved": 0, "lon": -76.9835775}, {"type": "electric_scooter", "name": "c61bf91d35e2a4a95ca7434e3c21d68e", "rental_uris": {"ios": "https://dc.lft.to/lastmile_qr_scan", "android": "https://dc.lft.to/lastmile_qr_scan"}, "fusion_lon": 0.0, "lat": 38.897144, "is_disabled": 0, "bike_id": "c61bf91d35e2a4a95ca7434e3c21d68e", "fusion_lat": 0.0, "is_reserved": 0, "lon": -77.02756566666666}, {"type": "electric_scooter", "name": "9ac41f137fb3eb245bc4e66e2f843086", "rental_uris": {"ios": "https://dc.lft.to/lastmile_qr_scan", "android": "https://dc.lft.to/lastmile_qr_scan"}, "fusion_lon": 0.0, "lat": 38.920457, "is_disabled": 0, "bike_id": "9ac41f137fb3eb245bc4e66e2f843086", "fusion_lat": 0.0, "is_reserved": 0, "lon": -77.01671383333333}, {"type": "electric_scooter", "name": "458f487f7eca9377d1a5dffc2187ee75", "rental_uris": {"ios": "https://dc.lft.to/lastmile_qr_scan", "android": "https://dc.lft.to/lastmile_qr_scan"}, "fusion_lon": 0.0, "lat": 38.87546866666667, "is_disabled": 0, "bike_id": "458f487f7eca9377d1a5dffc2187ee75", "fusion_lat": 0.0, "is_reserved": 0, "lon": -77.0053375}, {"type": "electric_bike", "name": "21f9e921c889257572800785aba5703b", "rental_uris": {"ios": "https://dc.lft.to/lastmile_qr_scan", "android": "https://dc.lft.to/lastmile_qr_scan"}, "fusion_lon": 0.0, "lat": 38.8565205, "is_disabled": 0, "bike_id": "21f9e921c889257572800785aba5703b", "fusion_lat": 0.0, "is_reserved": 0, "lon": -77.085258}, {"type": "electric_scooter", "name": "bf7e1b440672cfa8df658b32718193ee", "rental_uris": {"ios": "https://dc.lft.to/lastmile_qr_scan", "android": "https://dc.lft.to/lastmile_qr_scan"}, "fusion_lon": 0.0, "lat": 38.90709916666667, "is_disabled": 0, "bike_id": "bf7e1b440672cfa8df658b32718193ee", "fusion_lat": 0.0, "is_reserved": 0, "lon": -77.00583483333334}, {"type": "electric_scooter", "name": "14a12032a551d4d37787b0d88db5b1f7", "rental_uris": {"ios": "https://dc.lft.to/lastmile_qr_scan", "android": "https://dc.lft.to/lastmile_qr_scan"}, "fusion_lon": 0.0, "lat": 38.88256766666667, "is_disabled": 0, "bike_id": "14a12032a551d4d37787b0d88db5b1f7", "fusion_lat": 0.0, "is_reserved": 0, "lon": -76.92669833333333}, {"type": "electric_scooter", "name": "98581a46175e08853570f6bc16d4e122", "rental_uris": {"ios": "https://dc.lft.to/lastmile_qr_scan", "android": "https://dc.lft.to/lastmile_qr_scan"}, "fusion_lon": 0.0, "lat": 38.91533833333333, "is_disabled": 0, "bike_id": "98581a46175e08853570f6bc16d4e122", "fusion_lat": 0.0, "is_reserved": 0, "lon": -77.01221466666667}, {"type": "electric_scooter", "name": "7d529e12a54ba055f3cf317038d0f21d", "rental_uris": {"ios": "https://dc.lft.to/lastmile_qr_scan", "android": "https://dc.lft.to/lastmile_qr_scan"}, "fusion_lon": 0.0, "lat": 38.89226433333333, "is_disabled": 0, "bike_id": "7d529e12a54ba055f3cf317038d0f21d", "fusion_lat": 0.0, "is_reserved": 0, "lon": -77.03955083333334}, {"type": "electric_scooter", "name": "96ebc5f1b020cddea16eeaa60b38ac17", "rental_uris": {"ios": "https://dc.lft.to/lastmile_qr_scan", "android": "https://dc.lft.to/lastmile_qr_scan"}, "fusion_lon": 0.0, "lat": 38.92371166666667, "is_disabled": 0, "bike_id": "96ebc5f1b020cddea16eeaa60b38ac17", "fusion_lat": 0.0, "is_reserved": 0, "lon": -77.05028333333334}, {"type": "electric_scooter", "name": "e3b8c396216a462621999c85584c6094", "rental_uris": {"ios": "https://dc.lft.to/lastmile_qr_scan", "android": "https://dc.lft.to/lastmile_qr_scan"}, "fusion_lon": 0.0, "lat": 38.93435933333333, "is_disabled": 0, "bike_id": "e3b8c396216a462621999c85584c6094", "fusion_lat": 0.0, "is_reserved": 0, "lon": -77.03453116666667}, {"type": "electric_bike", "name": "941cba1d2da1f54a0f1e71ec905078cb", "rental_uris": {"ios": "https://dc.lft.to/lastmile_qr_scan", "android": "https://dc.lft.to/lastmile_qr_scan"}, "fusion_lon": 0.0, "lat": 38.9482245, "is_disabled": 0, "bike_id": "941cba1d2da1f54a0f1e71ec905078cb", "fusion_lat": 0.0, "is_reserved": 0, "lon": -77.02974583333334}, {"type": "electric_scooter", "name": "d1e78184f04cca284b5eda90ce95669a", "rental_uris": {"ios": "https://dc.lft.to/lastmile_qr_scan", "android": "https://dc.lft.to/lastmile_qr_scan"}, "fusion_lon": 0.0, "lat": 38.91911783333333, "is_disabled": 0, "bike_id": "d1e78184f04cca284b5eda90ce95669a", "fusion_lat": 0.0, "is_reserved": 0, "lon": -77.04467966666667}, {"type": "electric_scooter", "name": "f061fcd58d11bd3febb0456683d2e707", "rental_uris": {"ios": "https://dc.lft.to/lastmile_qr_scan", "android": "https://dc.lft.to/lastmile_qr_scan"}, "fusion_lon": 0.0, "lat": 38.897077, "is_disabled": 0, "bike_id": "f061fcd58d11bd3febb0456683d2e707", "fusion_lat": 0.0, "is_reserved": 0, "lon": -77.0228945}, {"type": "electric_scooter", "name": "4c840c5abb829466fd6f2540090ce2a3", "rental_uris": {"ios": "https://dc.lft.to/lastmile_qr_scan", "android": "https://dc.lft.to/lastmile_qr_scan"}, "fusion_lon": 0.0, "lat": 38.89926233333333, "is_disabled": 0, "bike_id": "4c840c5abb829466fd6f2540090ce2a3", "fusion_lat": 0.0, "is_reserved": 0, "lon": -76.98536566666667}, {"type": "electric_scooter", "name": "7093e4ba9282ab2a588f643b5b26d02a", "rental_uris": {"ios": "https://dc.lft.to/lastmile_qr_scan", "android": "https://dc.lft.to/lastmile_qr_scan"}, "fusion_lon": 0.0, "lat": 38.928634, "is_disabled": 0, "bike_id": "7093e4ba9282ab2a588f643b5b26d02a", "fusion_lat": 0.0, "is_reserved": 0, "lon": -77.03414283333333}, {"type": "electric_scooter", "name": "23413a71a45f0018ebc1a6ce0d9c80df", "rental_uris": {"ios": "https://dc.lft.to/lastmile_qr_scan", "android": "https://dc.lft.to/lastmile_qr_scan"}, "fusion_lon": 0.0, "lat": 38.855768, "is_disabled": 0, "bike_id": "23413a71a45f0018ebc1a6ce0d9c80df", "fusion_lat": 0.0, "is_reserved": 0, "lon": -76.96650933333333}, {"type": "electric_scooter", "name": "257899597f625abe72e44a581feefe17", "rental_uris": {"ios": "https://dc.lft.to/lastmile_qr_scan", "android": "https://dc.lft.to/lastmile_qr_scan"}, "fusion_lon": 0.0, "lat": 38.900322833333334, "is_disabled": 0, "bike_id": "257899597f625abe72e44a581feefe17", "fusion_lat": 0.0, "is_reserved": 0, "lon": -77.00679216666667}, {"type": "electric_scooter", "name": "40ace5c487f71c25d2e13ea8a88167fa", "rental_uris": {"ios": "https://dc.lft.to/lastmile_qr_scan", "android": "https://dc.lft.to/lastmile_qr_scan"}, "fusion_lon": 0.0, "lat": 38.88763016666667, "is_disabled": 0, "bike_id": "40ace5c487f71c25d2e13ea8a88167fa", "fusion_lat": 0.0, "is_reserved": 0, "lon": -76.97748666666666}, {"type": "electric_scooter", "name": "0922bf32122e5d3f6de0f3113402fa72", "rental_uris": {"ios": "https://dc.lft.to/lastmile_qr_scan", "android": "https://dc.lft.to/lastmile_qr_scan"}, "fusion_lon": 0.0, "lat": 38.89362666666667, "is_disabled": 0, "bike_id": "0922bf32122e5d3f6de0f3113402fa72", "fusion_lat": 0.0, "is_reserved": 0, "lon": -76.92591133333333}, {"type": "electric_bike", "name": "074e069c96a3bd885c106d4598473058", "rental_uris": {"ios": "https://dc.lft.to/lastmile_qr_scan", "android": "https://dc.lft.to/lastmile_qr_scan"}, "fusion_lon": 0.0, "lat": 38.86514566666666, "is_disabled": 0, "bike_id": "074e069c96a3bd885c106d4598473058", "fusion_lat": 0.0, "is_reserved": 0, "lon": -77.1293625}, {"type": "electric_scooter", "name": "501eda027c8ee16085d039ec75fcc585", "rental_uris": {"ios": "https://dc.lft.to/lastmile_qr_scan", "android": "https://dc.lft.to/lastmile_qr_scan"}, "fusion_lon": 0.0, "lat": 38.900312, "is_disabled": 0, "bike_id": "501eda027c8ee16085d039ec75fcc585", "fusion_lat": 0.0, "is_reserved": 0, "lon": -77.013114}, {"type": "electric_scooter", "name": "62b60313a81d80fccabe7befaac28829", "rental_uris": {"ios": "https://dc.lft.to/lastmile_qr_scan", "android": "https://dc.lft.to/lastmile_qr_scan"}, "fusion_lon": 0.0, "lat": 38.9231055, "is_disabled": 0, "bike_id": "62b60313a81d80fccabe7befaac28829", "fusion_lat": 0.0, "is_reserved": 0, "lon": -77.04108016666666}, {"type": "electric_scooter", "name": "742165fb102e59fde5137da74193523a", "rental_uris": {"ios": "https://dc.lft.to/lastmile_qr_scan", "android": "https://dc.lft.to/lastmile_qr_scan"}, "fusion_lon": 0.0, "lat": 38.91489766666667, "is_disabled": 0, "bike_id": "742165fb102e59fde5137da74193523a", "fusion_lat": 0.0, "is_reserved": 0, "lon": -77.04835666666666}, {"type": "electric_bike", "name": "ede4fa697d790e4710aee241387f1ac6", "rental_uris": {"ios": "https://dc.lft.to/lastmile_qr_scan", "android": "https://dc.lft.to/lastmile_qr_scan"}, "fusion_lon": 0.0, "lat": 38.82454516666667, "is_disabled": 0, "bike_id": "ede4fa697d790e4710aee241387f1ac6", "fusion_lat": 0.0, "is_reserved": 0, "lon": -77.00790216666667}, {"type": "electric_scooter", "name": "7bf54cfd5c36ddfd25ced6887e0e89cd", "rental_uris": {"ios": "https://dc.lft.to/lastmile_qr_scan", "android": "https://dc.lft.to/lastmile_qr_scan"}, "fusion_lon": 0.0, "lat": 38.91260333333334, "is_disabled": 0, "bike_id": "7bf54cfd5c36ddfd25ced6887e0e89cd", "fusion_lat": 0.0, "is_reserved": 0, "lon": -77.0484135}, {"type": "electric_scooter", "name": "b2e9979a5346813ffe43dcc5a3762526", "rental_uris": {"ios": "https://dc.lft.to/lastmile_qr_scan", "android": "https://dc.lft.to/lastmile_qr_scan"}, "fusion_lon": 0.0, "lat": 38.89582866666667, "is_disabled": 0, "bike_id": "b2e9979a5346813ffe43dcc5a3762526", "fusion_lat": 0.0, "is_reserved": 0, "lon": -77.02581183333334}, {"type": "electric_scooter", "name": "cfc361255af71ba92bc9136d0b0cc95c", "rental_uris": {"ios": "https://dc.lft.to/lastmile_qr_scan", "android": "https://dc.lft.to/lastmile_qr_scan"}, "fusion_lon": 0.0, "lat": 38.920738166666666, "is_disabled": 0, "bike_id": "cfc361255af71ba92bc9136d0b0cc95c", "fusion_lat": 0.0, "is_reserved": 0, "lon": -77.03494116666667}, {"type": "electric_scooter", "name": "661c721d125443a2b0eb57ad09fab78a", "rental_uris": {"ios": "https://dc.lft.to/lastmile_qr_scan", "android": "https://dc.lft.to/lastmile_qr_scan"}, "fusion_lon": 0.0, "lat": 38.91005783333333, "is_disabled": 0, "bike_id": "661c721d125443a2b0eb57ad09fab78a", "fusion_lat": 0.0, "is_reserved": 0, "lon": -76.994079}, {"type": "electric_scooter", "name": "7c68ad0dcf57bd14f63a6cb35518e787", "rental_uris": {"ios": "https://dc.lft.to/lastmile_qr_scan", "android": "https://dc.lft.to/lastmile_qr_scan"}, "fusion_lon": 0.0, "lat": 38.9491125, "is_disabled": 0, "bike_id": "7c68ad0dcf57bd14f63a6cb35518e787", "fusion_lat": 0.0, "is_reserved": 0, "lon": -77.0662365}, {"type": "electric_scooter", "name": "28360810868ef21965cef8a856d792ea", "rental_uris": {"ios": "https://dc.lft.to/lastmile_qr_scan", "android": "https://dc.lft.to/lastmile_qr_scan"}, "fusion_lon": 0.0, "lat": 38.90973066666667, "is_disabled": 0, "bike_id": "28360810868ef21965cef8a856d792ea", "fusion_lat": 0.0, "is_reserved": 0, "lon": -77.03377983333333}, {"type": "electric_scooter", "name": "ebcfe5e6612c0acdcb7a6abd71d4cf70", "rental_uris": {"ios": "https://dc.lft.to/lastmile_qr_scan", "android": "https://dc.lft.to/lastmile_qr_scan"}, "fusion_lon": 0.0, "lat": 38.909516833333335, "is_disabled": 0, "bike_id": "ebcfe5e6612c0acdcb7a6abd71d4cf70", "fusion_lat": 0.0, "is_reserved": 0, "lon": -76.98540916666667}, {"type": "electric_scooter", "name": "483da5527343fa068480e90ebebdb239", "rental_uris": {"ios": "https://dc.lft.to/lastmile_qr_scan", "android": "https://dc.lft.to/lastmile_qr_scan"}, "fusion_lon": 0.0, "lat": 38.923618, "is_disabled": 0, "bike_id": "483da5527343fa068480e90ebebdb239", "fusion_lat": 0.0, "is_reserved": 0, "lon": -77.05048966666666}, {"type": "electric_bike", "name": "9d0bd57fa895b4b75dea18b050cae8e4", "rental_uris": {"ios": "https://dc.lft.to/lastmile_qr_scan", "android": "https://dc.lft.to/lastmile_qr_scan"}, "fusion_lon": 0.0, "lat": 38.936773333333335, "is_disabled": 0, "bike_id": "9d0bd57fa895b4b75dea18b050cae8e4", "fusion_lat": 0.0, "is_reserved": 0, "lon": -77.023891}, {"type": "electric_scooter", "name": "3a6a3606bad5f64320c9ab66ab7ebf39", "rental_uris": {"ios": "https://dc.lft.to/lastmile_qr_scan", "android": "https://dc.lft.to/lastmile_qr_scan"}, "fusion_lon": 0.0, "lat": 38.916922666666665, "is_disabled": 0, "bike_id": "3a6a3606bad5f64320c9ab66ab7ebf39", "fusion_lat": 0.0, "is_reserved": 0, "lon": -77.04213333333334}, {"type": "electric_scooter", "name": "740a376db3df925fd31e1754dd9eb63e", "rental_uris": {"ios": "https://dc.lft.to/lastmile_qr_scan", "android": "https://dc.lft.to/lastmile_qr_scan"}, "fusion_lon": 0.0, "lat": 38.893251166666666, "is_disabled": 0, "bike_id": "740a376db3df925fd31e1754dd9eb63e", "fusion_lat": 0.0, "is_reserved": 0, "lon": -77.02257916666667}, {"type": "electric_scooter", "name": "5a272761ac1b2824dc6cff5537cd8a20", "rental_uris": {"ios": "https://dc.lft.to/lastmile_qr_scan", "android": "https://dc.lft.to/lastmile_qr_scan"}, "fusion_lon": 0.0, "lat": 38.917091166666665, "is_disabled": 0, "bike_id": "5a272761ac1b2824dc6cff5537cd8a20", "fusion_lat": 0.0, "is_reserved": 0, "lon": -77.03454033333334}, {"type": "electric_scooter", "name": "4f0d3d9958bcb25ca3e577448da51bd1", "rental_uris": {"ios": "https://dc.lft.to/lastmile_qr_scan", "android": "https://dc.lft.to/lastmile_qr_scan"}, "fusion_lon": 0.0, "lat": 38.905827, "is_disabled": 0, "bike_id": "4f0d3d9958bcb25ca3e577448da51bd1", "fusion_lat": 0.0, "is_reserved": 0, "lon": -77.0344775}, {"type": "electric_scooter", "name": "c5395235c1c7a819fb5de5ae73a64ad3", "rental_uris": {"ios": "https://dc.lft.to/lastmile_qr_scan", "android": "https://dc.lft.to/lastmile_qr_scan"}, "fusion_lon": 0.0, "lat": 38.864550333333334, "is_disabled": 0, "bike_id": "c5395235c1c7a819fb5de5ae73a64ad3", "fusion_lat": 0.0, "is_reserved": 0, "lon": -77.0126185}, {"type": "electric_scooter", "name": "8104f76e71731ff3fbe259131f1b719f", "rental_uris": {"ios": "https://dc.lft.to/lastmile_qr_scan", "android": "https://dc.lft.to/lastmile_qr_scan"}, "fusion_lon": 0.0, "lat": 38.91176933333333, "is_disabled": 0, "bike_id": "8104f76e71731ff3fbe259131f1b719f", "fusion_lat": 0.0, "is_reserved": 0, "lon": -77.0608675}, {"type": "electric_scooter", "name": "3bd3700dcc6f74448be3a6f21e41bbb0", "rental_uris": {"ios": "https://dc.lft.to/lastmile_qr_scan", "android": "https://dc.lft.to/lastmile_qr_scan"}, "fusion_lon": 0.0, "lat": 38.88521516666667, "is_disabled": 0, "bike_id": "3bd3700dcc6f74448be3a6f21e41bbb0", "fusion_lat": 0.0, "is_reserved": 0, "lon": -77.01507783333334}, {"type": "electric_scooter", "name": "e33f66a36a9fc65ce0790f2977e023c7", "rental_uris": {"ios": "https://dc.lft.to/lastmile_qr_scan", "android": "https://dc.lft.to/lastmile_qr_scan"}, "fusion_lon": 0.0, "lat": 38.9277, "is_disabled": 0, "bike_id": "e33f66a36a9fc65ce0790f2977e023c7", "fusion_lat": 0.0, "is_reserved": 0, "lon": -77.02674016666667}, {"type": "electric_scooter", "name": "60030e8e2bb950484d673dc49e605e4c", "rental_uris": {"ios": "https://dc.lft.to/lastmile_qr_scan", "android": "https://dc.lft.to/lastmile_qr_scan"}, "fusion_lon": 0.0, "lat": 38.91697333333333, "is_disabled": 0, "bike_id": "60030e8e2bb950484d673dc49e605e4c", "fusion_lat": 0.0, "is_reserved": 0, "lon": -77.030372}, {"type": "electric_scooter", "name": "ebe87e63a64a1ee80c2fb95d2d04ff11", "rental_uris": {"ios": "https://dc.lft.to/lastmile_qr_scan", "android": "https://dc.lft.to/lastmile_qr_scan"}, "fusion_lon": 0.0, "lat": 38.92150916666667, "is_disabled": 0, "bike_id": "ebe87e63a64a1ee80c2fb95d2d04ff11", "fusion_lat": 0.0, "is_reserved": 0, "lon": -77.033783}, {"type": "electric_scooter", "name": "86037cb3191cfb3163292595c83599e6", "rental_uris": {"ios": "https://dc.lft.to/lastmile_qr_scan", "android": "https://dc.lft.to/lastmile_qr_scan"}, "fusion_lon": 0.0, "lat": 38.90129616666667, "is_disabled": 0, "bike_id": "86037cb3191cfb3163292595c83599e6", "fusion_lat": 0.0, "is_reserved": 0, "lon": -77.03561133333334}, {"type": "electric_scooter", "name": "b5c2ac822f25da882dcbcfb395c0d339", "rental_uris": {"ios": "https://dc.lft.to/lastmile_qr_scan", "android": "https://dc.lft.to/lastmile_qr_scan"}, "fusion_lon": 0.0, "lat": 38.91335433333333, "is_disabled": 0, "bike_id": "b5c2ac822f25da882dcbcfb395c0d339", "fusion_lat": 0.0, "is_reserved": 0, "lon": -77.031702}, {"type": "electric_scooter", "name": "422d56e0ea764861dc539ed43901a06c", "rental_uris": {"ios": "https://dc.lft.to/lastmile_qr_scan", "android": "https://dc.lft.to/lastmile_qr_scan"}, "fusion_lon": 0.0, "lat": 38.90630733333333, "is_disabled": 0, "bike_id": "422d56e0ea764861dc539ed43901a06c", "fusion_lat": 0.0, "is_reserved": 0, "lon": -77.03556483333334}, {"type": "electric_scooter", "name": "31ce6c42ef4ccd41638fac76b9f3d754", "rental_uris": {"ios": "https://dc.lft.to/lastmile_qr_scan", "android": "https://dc.lft.to/lastmile_qr_scan"}, "fusion_lon": 0.0, "lat": 38.944626166666666, "is_disabled": 0, "bike_id": "31ce6c42ef4ccd41638fac76b9f3d754", "fusion_lat": 0.0, "is_reserved": 0, "lon": -77.00656583333334}, {"type": "electric_scooter", "name": "1cd9c95ebc79a0a22a41cbfe50ffe8af", "rental_uris": {"ios": "https://dc.lft.to/lastmile_qr_scan", "android": "https://dc.lft.to/lastmile_qr_scan"}, "fusion_lon": 0.0, "lat": 38.9027625, "is_disabled": 0, "bike_id": "1cd9c95ebc79a0a22a41cbfe50ffe8af", "fusion_lat": 0.0, "is_reserved": 0, "lon": -77.0384045}, {"type": "electric_scooter", "name": "00b721fcfcfee8516c296be02228a50d", "rental_uris": {"ios": "https://dc.lft.to/lastmile_qr_scan", "android": "https://dc.lft.to/lastmile_qr_scan"}, "fusion_lon": 0.0, "lat": 38.93321816666667, "is_disabled": 0, "bike_id": "00b721fcfcfee8516c296be02228a50d", "fusion_lat": 0.0, "is_reserved": 0, "lon": -77.02855883333334}, {"type": "electric_scooter", "name": "66f64178e1b9923170af5f1cec90da6f", "rental_uris": {"ios": "https://dc.lft.to/lastmile_qr_scan", "android": "https://dc.lft.to/lastmile_qr_scan"}, "fusion_lon": 0.0, "lat": 38.906671333333335, "is_disabled": 0, "bike_id": "66f64178e1b9923170af5f1cec90da6f", "fusion_lat": 0.0, "is_reserved": 0, "lon": -77.02702716666667}, {"type": "electric_scooter", "name": "a4d1fc4f66fab8ce7814f72978a4c4b9", "rental_uris": {"ios": "https://dc.lft.to/lastmile_qr_scan", "android": "https://dc.lft.to/lastmile_qr_scan"}, "fusion_lon": 0.0, "lat": 38.9221925, "is_disabled": 0, "bike_id": "a4d1fc4f66fab8ce7814f72978a4c4b9", "fusion_lat": 0.0, "is_reserved": 0, "lon": -77.0221125}, {"type": "electric_scooter", "name": "eb48b7f1f46838d0c388960f451471aa", "rental_uris": {"ios": "https://dc.lft.to/lastmile_qr_scan", "android": "https://dc.lft.to/lastmile_qr_scan"}, "fusion_lon": 0.0, "lat": 38.875812833333335, "is_disabled": 0, "bike_id": "eb48b7f1f46838d0c388960f451471aa", "fusion_lat": 0.0, "is_reserved": 0, "lon": -77.00415766666667}, {"type": "electric_scooter", "name": "36b908a6e4eae162c6cea42af98b2a83", "rental_uris": {"ios": "https://dc.lft.to/lastmile_qr_scan", "android": "https://dc.lft.to/lastmile_qr_scan"}, "fusion_lon": 0.0, "lat": 38.90642233333333, "is_disabled": 0, "bike_id": "36b908a6e4eae162c6cea42af98b2a83", "fusion_lat": 0.0, "is_reserved": 0, "lon": -77.03465933333334}, {"type": "electric_scooter", "name": "d84f2f0a9a19f69a577fba610c94cf51", "rental_uris": {"ios": "https://dc.lft.to/lastmile_qr_scan", "android": "https://dc.lft.to/lastmile_qr_scan"}, "fusion_lon": 0.0, "lat": 38.914262666666666, "is_disabled": 0, "bike_id": "d84f2f0a9a19f69a577fba610c94cf51", "fusion_lat": 0.0, "is_reserved": 0, "lon": -77.03182066666666}, {"type": "electric_scooter", "name": "7abb7498822c1f6e2a70913931e40596", "rental_uris": {"ios": "https://dc.lft.to/lastmile_qr_scan", "android": "https://dc.lft.to/lastmile_qr_scan"}, "fusion_lon": 0.0, "lat": 38.91488533333333, "is_disabled": 0, "bike_id": "7abb7498822c1f6e2a70913931e40596", "fusion_lat": 0.0, "is_reserved": 0, "lon": -77.04160783333333}, {"type": "electric_scooter", "name": "8330597fe2278dcce31e60d704d9612c", "rental_uris": {"ios": "https://dc.lft.to/lastmile_qr_scan", "android": "https://dc.lft.to/lastmile_qr_scan"}, "fusion_lon": 0.0, "lat": 38.9168245, "is_disabled": 0, "bike_id": "8330597fe2278dcce31e60d704d9612c", "fusion_lat": 0.0, "is_reserved": 0, "lon": -77.04140933333333}, {"type": "electric_scooter", "name": "f42cbf56ea9acc4fad86b22add8c3c96", "rental_uris": {"ios": "https://dc.lft.to/lastmile_qr_scan", "android": "https://dc.lft.to/lastmile_qr_scan"}, "fusion_lon": 0.0, "lat": 38.89289733333333, "is_disabled": 0, "bike_id": "f42cbf56ea9acc4fad86b22add8c3c96", "fusion_lat": 0.0, "is_reserved": 0, "lon": -76.94976733333333}, {"type": "electric_scooter", "name": "744ea1b0352fa0166bf1628909a1c287", "rental_uris": {"ios": "https://dc.lft.to/lastmile_qr_scan", "android": "https://dc.lft.to/lastmile_qr_scan"}, "fusion_lon": 0.0, "lat": 38.9052185, "is_disabled": 0, "bike_id": "744ea1b0352fa0166bf1628909a1c287", "fusion_lat": 0.0, "is_reserved": 0, "lon": -77.04153833333334}, {"type": "electric_scooter", "name": "7bd81dfe4f4b5606eb6053b3689312f0", "rental_uris": {"ios": "https://dc.lft.to/lastmile_qr_scan", "android": "https://dc.lft.to/lastmile_qr_scan"}, "fusion_lon": 0.0, "lat": 38.864443, "is_disabled": 0, "bike_id": "7bd81dfe4f4b5606eb6053b3689312f0", "fusion_lat": 0.0, "is_reserved": 0, "lon": -76.97994633333333}, {"type": "electric_scooter", "name": "cf253d52889eba1bf649967ac4d2d26f", "rental_uris": {"ios": "https://dc.lft.to/lastmile_qr_scan", "android": "https://dc.lft.to/lastmile_qr_scan"}, "fusion_lon": 0.0, "lat": 38.93514116666667, "is_disabled": 0, "bike_id": "cf253d52889eba1bf649967ac4d2d26f", "fusion_lat": 0.0, "is_reserved": 0, "lon": -77.03286383333334}, {"type": "electric_scooter", "name": "6e5ace08d24c3379f2cbe2a1d4cb8273", "rental_uris": {"ios": "https://dc.lft.to/lastmile_qr_scan", "android": "https://dc.lft.to/lastmile_qr_scan"}, "fusion_lon": 0.0, "lat": 38.880977666666666, "is_disabled": 0, "bike_id": "6e5ace08d24c3379f2cbe2a1d4cb8273", "fusion_lat": 0.0, "is_reserved": 0, "lon": -77.00869366666667}, {"type": "electric_scooter", "name": "c09e7ddd4348eeea9c9d4984f76836ee", "rental_uris": {"ios": "https://dc.lft.to/lastmile_qr_scan", "android": "https://dc.lft.to/lastmile_qr_scan"}, "fusion_lon": 0.0, "lat": 38.9026135, "is_disabled": 0, "bike_id": "c09e7ddd4348eeea9c9d4984f76836ee", "fusion_lat": 0.0, "is_reserved": 0, "lon": -77.03352416666667}, {"type": "electric_scooter", "name": "b329661f69c9eebe5dbc9f2d095cfab5", "rental_uris": {"ios": "https://dc.lft.to/lastmile_qr_scan", "android": "https://dc.lft.to/lastmile_qr_scan"}, "fusion_lon": 0.0, "lat": 38.904855833333336, "is_disabled": 0, "bike_id": "b329661f69c9eebe5dbc9f2d095cfab5", "fusion_lat": 0.0, "is_reserved": 0, "lon": -77.04343333333334}, {"type": "electric_scooter", "name": "4cd16151b05d373fff6c8e32964a06d8", "rental_uris": {"ios": "https://dc.lft.to/lastmile_qr_scan", "android": "https://dc.lft.to/lastmile_qr_scan"}, "fusion_lon": 0.0, "lat": 38.90966566666667, "is_disabled": 0, "bike_id": "4cd16151b05d373fff6c8e32964a06d8", "fusion_lat": 0.0, "is_reserved": 0, "lon": -77.03289166666667}, {"type": "electric_scooter", "name": "e21892161599469ca79cbebc075b15ad", "rental_uris": {"ios": "https://dc.lft.to/lastmile_qr_scan", "android": "https://dc.lft.to/lastmile_qr_scan"}, "fusion_lon": 0.0, "lat": 38.920778, "is_disabled": 0, "bike_id": "e21892161599469ca79cbebc075b15ad", "fusion_lat": 0.0, "is_reserved": 0, "lon": -77.018207}, {"type": "electric_scooter", "name": "8ca9d355d233e1a62356ccb1775db80e", "rental_uris": {"ios": "https://dc.lft.to/lastmile_qr_scan", "android": "https://dc.lft.to/lastmile_qr_scan"}, "fusion_lon": 0.0, "lat": 38.9047685, "is_disabled": 0, "bike_id": "8ca9d355d233e1a62356ccb1775db80e", "fusion_lat": 0.0, "is_reserved": 0, "lon": -77.04350766666667}, {"type": "electric_scooter", "name": "a1132d0e208772a2c48c6f2eccc60d78", "rental_uris": {"ios": "https://dc.lft.to/lastmile_qr_scan", "android": "https://dc.lft.to/lastmile_qr_scan"}, "fusion_lon": 0.0, "lat": 38.847258833333335, "is_disabled": 0, "bike_id": "a1132d0e208772a2c48c6f2eccc60d78", "fusion_lat": 0.0, "is_reserved": 0, "lon": -76.9824765}, {"type": "electric_scooter", "name": "ceb81127ed5f9ad66de34448e431c054", "rental_uris": {"ios": "https://dc.lft.to/lastmile_qr_scan", "android": "https://dc.lft.to/lastmile_qr_scan"}, "fusion_lon": 0.0, "lat": 38.91886783333333, "is_disabled": 0, "bike_id": "ceb81127ed5f9ad66de34448e431c054", "fusion_lat": 0.0, "is_reserved": 0, "lon": -77.041294}, {"type": "electric_scooter", "name": "a6c58ebecd7f25defa69aee52a3abb1a", "rental_uris": {"ios": "https://dc.lft.to/lastmile_qr_scan", "android": "https://dc.lft.to/lastmile_qr_scan"}, "fusion_lon": 0.0, "lat": 38.92848883333333, "is_disabled": 0, "bike_id": "a6c58ebecd7f25defa69aee52a3abb1a", "fusion_lat": 0.0, "is_reserved": 0, "lon": -76.9959905}, {"type": "electric_scooter", "name": "69795078593fc36020fcd2fe247b374a", "rental_uris": {"ios": "https://dc.lft.to/lastmile_qr_scan", "android": "https://dc.lft.to/lastmile_qr_scan"}, "fusion_lon": 0.0, "lat": 38.91103616666667, "is_disabled": 0, "bike_id": "69795078593fc36020fcd2fe247b374a", "fusion_lat": 0.0, "is_reserved": 0, "lon": -77.0271835}, {"type": "electric_scooter", "name": "54d8066c2681ed695d437d00f2e34ab2", "rental_uris": {"ios": "https://dc.lft.to/lastmile_qr_scan", "android": "https://dc.lft.to/lastmile_qr_scan"}, "fusion_lon": 0.0, "lat": 38.90274516666667, "is_disabled": 0, "bike_id": "54d8066c2681ed695d437d00f2e34ab2", "fusion_lat": 0.0, "is_reserved": 0, "lon": -77.0383655}, {"type": "electric_scooter", "name": "52f2d8fe30b2f71f8334be3fc9f5458f", "rental_uris": {"ios": "https://dc.lft.to/lastmile_qr_scan", "android": "https://dc.lft.to/lastmile_qr_scan"}, "fusion_lon": 0.0, "lat": 38.919785833333336, "is_disabled": 0, "bike_id": "52f2d8fe30b2f71f8334be3fc9f5458f", "fusion_lat": 0.0, "is_reserved": 0, "lon": -77.02368216666666}, {"type": "electric_bike", "name": "329d4dd3a414a5ceca18330da2646f29", "rental_uris": {"ios": "https://dc.lft.to/lastmile_qr_scan", "android": "https://dc.lft.to/lastmile_qr_scan"}, "fusion_lon": 0.0, "lat": 38.85767533333333, "is_disabled": 0, "bike_id": "329d4dd3a414a5ceca18330da2646f29", "fusion_lat": 0.0, "is_reserved": 0, "lon": -76.98752433333334}, {"type": "electric_scooter", "name": "1796425b31566ee4d93dbd6737c8e21e", "rental_uris": {"ios": "https://dc.lft.to/lastmile_qr_scan", "android": "https://dc.lft.to/lastmile_qr_scan"}, "fusion_lon": 0.0, "lat": 38.85796366666667, "is_disabled": 0, "bike_id": "1796425b31566ee4d93dbd6737c8e21e", "fusion_lat": 0.0, "is_reserved": 0, "lon": -76.98910516666666}, {"type": "electric_scooter", "name": "1d6b09744b43084973790e2536423455", "rental_uris": {"ios": "https://dc.lft.to/lastmile_qr_scan", "android": "https://dc.lft.to/lastmile_qr_scan"}, "fusion_lon": 0.0, "lat": 38.916918333333335, "is_disabled": 0, "bike_id": "1d6b09744b43084973790e2536423455", "fusion_lat": 0.0, "is_reserved": 0, "lon": -77.03139083333333}, {"type": "electric_scooter", "name": "75b97797f523afb83667ae4ad3d84e32", "rental_uris": {"ios": "https://dc.lft.to/lastmile_qr_scan", "android": "https://dc.lft.to/lastmile_qr_scan"}, "fusion_lon": 0.0, "lat": 38.879895, "is_disabled": 0, "bike_id": "75b97797f523afb83667ae4ad3d84e32", "fusion_lat": 0.0, "is_reserved": 0, "lon": -77.02398816666667}, {"type": "electric_scooter", "name": "ce37fb5c4bcd36fdf089768a5eefb148", "rental_uris": {"ios": "https://dc.lft.to/lastmile_qr_scan", "android": "https://dc.lft.to/lastmile_qr_scan"}, "fusion_lon": 0.0, "lat": 38.9287715, "is_disabled": 0, "bike_id": "ce37fb5c4bcd36fdf089768a5eefb148", "fusion_lat": 0.0, "is_reserved": 0, "lon": -77.013625}, {"type": "electric_scooter", "name": "8acda8ee488d906cafa4aa203ad752ec", "rental_uris": {"ios": "https://dc.lft.to/lastmile_qr_scan", "android": "https://dc.lft.to/lastmile_qr_scan"}, "fusion_lon": 0.0, "lat": 38.939546, "is_disabled": 0, "bike_id": "8acda8ee488d906cafa4aa203ad752ec", "fusion_lat": 0.0, "is_reserved": 0, "lon": -77.08596233333333}, {"type": "electric_scooter", "name": "f2c8783664b85bcb918620506c326fad", "rental_uris": {"ios": "https://dc.lft.to/lastmile_qr_scan", "android": "https://dc.lft.to/lastmile_qr_scan"}, "fusion_lon": 0.0, "lat": 38.924990666666666, "is_disabled": 0, "bike_id": "f2c8783664b85bcb918620506c326fad", "fusion_lat": 0.0, "is_reserved": 0, "lon": -77.02148533333333}, {"type": "electric_bike", "name": "99dfc8db79a2c389f23e26f38a9cb5ee", "rental_uris": {"ios": "https://dc.lft.to/lastmile_qr_scan", "android": "https://dc.lft.to/lastmile_qr_scan"}, "fusion_lon": 0.0, "lat": 38.79856633333333, "is_disabled": 0, "bike_id": "99dfc8db79a2c389f23e26f38a9cb5ee", "fusion_lat": 0.0, "is_reserved": 0, "lon": -77.0630795}, {"type": "electric_bike", "name": "c6aaea1b85993bdaccba712f5ebbef8c", "rental_uris": {"ios": "https://dc.lft.to/lastmile_qr_scan", "android": "https://dc.lft.to/lastmile_qr_scan"}, "fusion_lon": 0.0, "lat": 38.944306166666664, "is_disabled": 0, "bike_id": "c6aaea1b85993bdaccba712f5ebbef8c", "fusion_lat": 0.0, "is_reserved": 0, "lon": -77.02602433333334}, {"type": "electric_scooter", "name": "4bec2a1b1ead6e866c386d2db0c0edd4", "rental_uris": {"ios": "https://dc.lft.to/lastmile_qr_scan", "android": "https://dc.lft.to/lastmile_qr_scan"}, "fusion_lon": 0.0, "lat": 38.902805666666666, "is_disabled": 0, "bike_id": "4bec2a1b1ead6e866c386d2db0c0edd4", "fusion_lat": 0.0, "is_reserved": 0, "lon": -77.03370966666667}, {"type": "electric_scooter", "name": "83a8e801cdcfbd79cad86fcff07a0a59", "rental_uris": {"ios": "https://dc.lft.to/lastmile_qr_scan", "android": "https://dc.lft.to/lastmile_qr_scan"}, "fusion_lon": 0.0, "lat": 38.90689033333334, "is_disabled": 0, "bike_id": "83a8e801cdcfbd79cad86fcff07a0a59", "fusion_lat": 0.0, "is_reserved": 0, "lon": -77.03590666666666}, {"type": "electric_scooter", "name": "be612d039d48bf9954b493be1113badd", "rental_uris": {"ios": "https://dc.lft.to/lastmile_qr_scan", "android": "https://dc.lft.to/lastmile_qr_scan"}, "fusion_lon": 0.0, "lat": 38.905044333333336, "is_disabled": 0, "bike_id": "be612d039d48bf9954b493be1113badd", "fusion_lat": 0.0, "is_reserved": 0, "lon": -77.001051}, {"type": "electric_scooter", "name": "969c779c7a029af0222ee101c6302d7c", "rental_uris": {"ios": "https://dc.lft.to/lastmile_qr_scan", "android": "https://dc.lft.to/lastmile_qr_scan"}, "fusion_lon": 0.0, "lat": 38.887341666666664, "is_disabled": 0, "bike_id": "969c779c7a029af0222ee101c6302d7c", "fusion_lat": 0.0, "is_reserved": 0, "lon": -77.028266}, {"type": "electric_scooter", "name": "fdfe9f028f0a3ff689d68cd5cc66b982", "rental_uris": {"ios": "https://dc.lft.to/lastmile_qr_scan", "android": "https://dc.lft.to/lastmile_qr_scan"}, "fusion_lon": 0.0, "lat": 38.9107275, "is_disabled": 0, "bike_id": "fdfe9f028f0a3ff689d68cd5cc66b982", "fusion_lat": 0.0, "is_reserved": 0, "lon": -77.03026033333333}, {"type": "electric_scooter", "name": "61f92e98fad4d52be5d34368399a970a", "rental_uris": {"ios": "https://dc.lft.to/lastmile_qr_scan", "android": "https://dc.lft.to/lastmile_qr_scan"}, "fusion_lon": 0.0, "lat": 38.935894833333336, "is_disabled": 0, "bike_id": "61f92e98fad4d52be5d34368399a970a", "fusion_lat": 0.0, "is_reserved": 0, "lon": -77.02855933333333}, {"type": "electric_scooter", "name": "6857d6063cd77e948fdd8b33e3d0712c", "rental_uris": {"ios": "https://dc.lft.to/lastmile_qr_scan", "android": "https://dc.lft.to/lastmile_qr_scan"}, "fusion_lon": 0.0, "lat": 38.947561666666665, "is_disabled": 0, "bike_id": "6857d6063cd77e948fdd8b33e3d0712c", "fusion_lat": 0.0, "is_reserved": 0, "lon": -77.00720633333333}, {"type": "electric_scooter", "name": "a4995ba6c07985b76ab482990a85b78b", "rental_uris": {"ios": "https://dc.lft.to/lastmile_qr_scan", "android": "https://dc.lft.to/lastmile_qr_scan"}, "fusion_lon": 0.0, "lat": 38.9234775, "is_disabled": 0, "bike_id": "a4995ba6c07985b76ab482990a85b78b", "fusion_lat": 0.0, "is_reserved": 0, "lon": -77.05118783333333}, {"type": "electric_scooter", "name": "98653c8acd3177f82d535229abac44b6", "rental_uris": {"ios": "https://dc.lft.to/lastmile_qr_scan", "android": "https://dc.lft.to/lastmile_qr_scan"}, "fusion_lon": 0.0, "lat": 38.901238666666664, "is_disabled": 0, "bike_id": "98653c8acd3177f82d535229abac44b6", "fusion_lat": 0.0, "is_reserved": 0, "lon": -77.04439266666667}, {"type": "electric_scooter", "name": "a33332dae8a3f62826bc8bcbb5ee7484", "rental_uris": {"ios": "https://dc.lft.to/lastmile_qr_scan", "android": "https://dc.lft.to/lastmile_qr_scan"}, "fusion_lon": 0.0, "lat": 38.89531083333333, "is_disabled": 0, "bike_id": "a33332dae8a3f62826bc8bcbb5ee7484", "fusion_lat": 0.0, "is_reserved": 0, "lon": -76.94890683333334}, {"type": "electric_scooter", "name": "8467a4febf4b6c3283e461bc3b4dca3a", "rental_uris": {"ios": "https://dc.lft.to/lastmile_qr_scan", "android": "https://dc.lft.to/lastmile_qr_scan"}, "fusion_lon": 0.0, "lat": 38.89749783333333, "is_disabled": 0, "bike_id": "8467a4febf4b6c3283e461bc3b4dca3a", "fusion_lat": 0.0, "is_reserved": 0, "lon": -77.03022566666667}, {"type": "electric_scooter", "name": "39507cca29fa18a1863386d704da1176", "rental_uris": {"ios": "https://dc.lft.to/lastmile_qr_scan", "android": "https://dc.lft.to/lastmile_qr_scan"}, "fusion_lon": 0.0, "lat": 38.902021166666664, "is_disabled": 0, "bike_id": "39507cca29fa18a1863386d704da1176", "fusion_lat": 0.0, "is_reserved": 0, "lon": -77.027265}, {"type": "electric_scooter", "name": "96e22ea3b27a5891a4b74d3e17b5aace", "rental_uris": {"ios": "https://dc.lft.to/lastmile_qr_scan", "android": "https://dc.lft.to/lastmile_qr_scan"}, "fusion_lon": 0.0, "lat": 38.909682833333335, "is_disabled": 0, "bike_id": "96e22ea3b27a5891a4b74d3e17b5aace", "fusion_lat": 0.0, "is_reserved": 0, "lon": -77.0194115}, {"type": "electric_scooter", "name": "3b884877d8e83683539243869aac5791", "rental_uris": {"ios": "https://dc.lft.to/lastmile_qr_scan", "android": "https://dc.lft.to/lastmile_qr_scan"}, "fusion_lon": 0.0, "lat": 38.92939783333333, "is_disabled": 0, "bike_id": "3b884877d8e83683539243869aac5791", "fusion_lat": 0.0, "is_reserved": 0, "lon": -77.03267466666667}, {"type": "electric_scooter", "name": "29d7e693a27dea75f5fe76a6489eb07a", "rental_uris": {"ios": "https://dc.lft.to/lastmile_qr_scan", "android": "https://dc.lft.to/lastmile_qr_scan"}, "fusion_lon": 0.0, "lat": 38.929808666666666, "is_disabled": 0, "bike_id": "29d7e693a27dea75f5fe76a6489eb07a", "fusion_lat": 0.0, "is_reserved": 0, "lon": -77.01050566666666}, {"type": "electric_scooter", "name": "d02107b93188be0dbdc962d661ad1121", "rental_uris": {"ios": "https://dc.lft.to/lastmile_qr_scan", "android": "https://dc.lft.to/lastmile_qr_scan"}, "fusion_lon": 0.0, "lat": 38.91935466666666, "is_disabled": 0, "bike_id": "d02107b93188be0dbdc962d661ad1121", "fusion_lat": 0.0, "is_reserved": 0, "lon": -77.02360883333333}, {"type": "electric_scooter", "name": "4b711510bb17deb2d7b77d60f19eebee", "rental_uris": {"ios": "https://dc.lft.to/lastmile_qr_scan", "android": "https://dc.lft.to/lastmile_qr_scan"}, "fusion_lon": 0.0, "lat": 38.95938566666667, "is_disabled": 0, "bike_id": "4b711510bb17deb2d7b77d60f19eebee", "fusion_lat": 0.0, "is_reserved": 0, "lon": -77.0311815}, {"type": "electric_bike", "name": "68a033a72d3650f8ce48b81c7acec834", "rental_uris": {"ios": "https://dc.lft.to/lastmile_qr_scan", "android": "https://dc.lft.to/lastmile_qr_scan"}, "fusion_lon": 0.0, "lat": 38.845075333333334, "is_disabled": 0, "bike_id": "68a033a72d3650f8ce48b81c7acec834", "fusion_lat": 0.0, "is_reserved": 0, "lon": -76.99349783333334}, {"type": "electric_scooter", "name": "2680f1819e203dec224d2ada42624434", "rental_uris": {"ios": "https://dc.lft.to/lastmile_qr_scan", "android": "https://dc.lft.to/lastmile_qr_scan"}, "fusion_lon": 0.0, "lat": 38.9182755, "is_disabled": 0, "bike_id": "2680f1819e203dec224d2ada42624434", "fusion_lat": 0.0, "is_reserved": 0, "lon": -77.041668}, {"type": "electric_scooter", "name": "2465da94fba2e3144f8b6d3780c52ace", "rental_uris": {"ios": "https://dc.lft.to/lastmile_qr_scan", "android": "https://dc.lft.to/lastmile_qr_scan"}, "fusion_lon": 0.0, "lat": 38.933848833333336, "is_disabled": 0, "bike_id": "2465da94fba2e3144f8b6d3780c52ace", "fusion_lat": 0.0, "is_reserved": 0, "lon": -77.02673866666666}, {"type": "electric_scooter", "name": "8c44b0a1b267719288bb0d986de5236b", "rental_uris": {"ios": "https://dc.lft.to/lastmile_qr_scan", "android": "https://dc.lft.to/lastmile_qr_scan"}, "fusion_lon": 0.0, "lat": 38.8617955, "is_disabled": 0, "bike_id": "8c44b0a1b267719288bb0d986de5236b", "fusion_lat": 0.0, "is_reserved": 0, "lon": -76.969117}, {"type": "electric_scooter", "name": "e56f7f055c15c801bb87ff523f81d251", "rental_uris": {"ios": "https://dc.lft.to/lastmile_qr_scan", "android": "https://dc.lft.to/lastmile_qr_scan"}, "fusion_lon": 0.0, "lat": 38.92728183333333, "is_disabled": 0, "bike_id": "e56f7f055c15c801bb87ff523f81d251", "fusion_lat": 0.0, "is_reserved": 0, "lon": -77.02303966666666}, {"type": "electric_scooter", "name": "45e24249626bb3c7b219e095ab7d11ee", "rental_uris": {"ios": "https://dc.lft.to/lastmile_qr_scan", "android": "https://dc.lft.to/lastmile_qr_scan"}, "fusion_lon": 0.0, "lat": 38.916989666666666, "is_disabled": 0, "bike_id": "45e24249626bb3c7b219e095ab7d11ee", "fusion_lat": 0.0, "is_reserved": 0, "lon": -77.031182}, {"type": "electric_scooter", "name": "b6a8d1adca3bdbc892e2d7b9b2da0090", "rental_uris": {"ios": "https://dc.lft.to/lastmile_qr_scan", "android": "https://dc.lft.to/lastmile_qr_scan"}, "fusion_lon": 0.0, "lat": 38.89385883333333, "is_disabled": 0, "bike_id": "b6a8d1adca3bdbc892e2d7b9b2da0090", "fusion_lat": 0.0, "is_reserved": 0, "lon": -76.92303116666666}, {"type": "electric_scooter", "name": "94c67e543690138a6e37fe249a2e27e1", "rental_uris": {"ios": "https://dc.lft.to/lastmile_qr_scan", "android": "https://dc.lft.to/lastmile_qr_scan"}, "fusion_lon": 0.0, "lat": 38.936047333333335, "is_disabled": 0, "bike_id": "94c67e543690138a6e37fe249a2e27e1", "fusion_lat": 0.0, "is_reserved": 0, "lon": -77.05859283333334}, {"type": "electric_scooter", "name": "0ae14b531735cd08c2cbe0dcdf3ebf66", "rental_uris": {"ios": "https://dc.lft.to/lastmile_qr_scan", "android": "https://dc.lft.to/lastmile_qr_scan"}, "fusion_lon": 0.0, "lat": 38.89865133333333, "is_disabled": 0, "bike_id": "0ae14b531735cd08c2cbe0dcdf3ebf66", "fusion_lat": 0.0, "is_reserved": 0, "lon": -76.946427}, {"type": "electric_scooter", "name": "7f2647c47612d215ec1dfa03fe25bd0a", "rental_uris": {"ios": "https://dc.lft.to/lastmile_qr_scan", "android": "https://dc.lft.to/lastmile_qr_scan"}, "fusion_lon": 0.0, "lat": 38.90265266666667, "is_disabled": 0, "bike_id": "7f2647c47612d215ec1dfa03fe25bd0a", "fusion_lat": 0.0, "is_reserved": 0, "lon": -77.03346916666666}, {"type": "electric_scooter", "name": "96ea512a7abd7c51d401d5e8b73a817b", "rental_uris": {"ios": "https://dc.lft.to/lastmile_qr_scan", "android": "https://dc.lft.to/lastmile_qr_scan"}, "fusion_lon": 0.0, "lat": 38.90196316666667, "is_disabled": 0, "bike_id": "96ea512a7abd7c51d401d5e8b73a817b", "fusion_lat": 0.0, "is_reserved": 0, "lon": -77.0237355}, {"type": "electric_scooter", "name": "92d32b74491f022f37a990766ee91387", "rental_uris": {"ios": "https://dc.lft.to/lastmile_qr_scan", "android": "https://dc.lft.to/lastmile_qr_scan"}, "fusion_lon": 0.0, "lat": 38.898787, "is_disabled": 0, "bike_id": "92d32b74491f022f37a990766ee91387", "fusion_lat": 0.0, "is_reserved": 0, "lon": -77.028332}, {"type": "electric_scooter", "name": "26b467b9a71cb862bb0a6391cd657609", "rental_uris": {"ios": "https://dc.lft.to/lastmile_qr_scan", "android": "https://dc.lft.to/lastmile_qr_scan"}, "fusion_lon": 0.0, "lat": 38.90863183333333, "is_disabled": 0, "bike_id": "26b467b9a71cb862bb0a6391cd657609", "fusion_lat": 0.0, "is_reserved": 0, "lon": -76.99791966666666}, {"type": "electric_scooter", "name": "26aeb3230187829c20e4d3ff35eaaf3b", "rental_uris": {"ios": "https://dc.lft.to/lastmile_qr_scan", "android": "https://dc.lft.to/lastmile_qr_scan"}, "fusion_lon": 0.0, "lat": 38.907844, "is_disabled": 0, "bike_id": "26aeb3230187829c20e4d3ff35eaaf3b", "fusion_lat": 0.0, "is_reserved": 0, "lon": -77.072484}, {"type": "electric_scooter", "name": "b8d63c68dc199c8781c0cc97eb2929db", "rental_uris": {"ios": "https://dc.lft.to/lastmile_qr_scan", "android": "https://dc.lft.to/lastmile_qr_scan"}, "fusion_lon": 0.0, "lat": 38.94950866666667, "is_disabled": 0, "bike_id": "b8d63c68dc199c8781c0cc97eb2929db", "fusion_lat": 0.0, "is_reserved": 0, "lon": -77.02314033333333}, {"type": "electric_scooter", "name": "17d4b5e5b637b28e7f3a72e49e4c1b7d", "rental_uris": {"ios": "https://dc.lft.to/lastmile_qr_scan", "android": "https://dc.lft.to/lastmile_qr_scan"}, "fusion_lon": 0.0, "lat": 38.9105325, "is_disabled": 0, "bike_id": "17d4b5e5b637b28e7f3a72e49e4c1b7d", "fusion_lat": 0.0, "is_reserved": 0, "lon": -77.05286533333333}, {"type": "electric_scooter", "name": "79035a3fe62cb8c4deb0ee31a25d9ba0", "rental_uris": {"ios": "https://dc.lft.to/lastmile_qr_scan", "android": "https://dc.lft.to/lastmile_qr_scan"}, "fusion_lon": 0.0, "lat": 38.9051475, "is_disabled": 0, "bike_id": "79035a3fe62cb8c4deb0ee31a25d9ba0", "fusion_lat": 0.0, "is_reserved": 0, "lon": -77.04152666666667}, {"type": "electric_bike", "name": "aaaacf29010ff1c865bbe8284c272e86", "rental_uris": {"ios": "https://dc.lft.to/lastmile_qr_scan", "android": "https://dc.lft.to/lastmile_qr_scan"}, "fusion_lon": 0.0, "lat": 39.056365166666666, "is_disabled": 0, "bike_id": "aaaacf29010ff1c865bbe8284c272e86", "fusion_lat": 0.0, "is_reserved": 0, "lon": -77.125247}, {"type": "electric_scooter", "name": "8e0e11481d460232de5e58586e06b9ed", "rental_uris": {"ios": "https://dc.lft.to/lastmile_qr_scan", "android": "https://dc.lft.to/lastmile_qr_scan"}, "fusion_lon": 0.0, "lat": 38.91637266666667, "is_disabled": 0, "bike_id": "8e0e11481d460232de5e58586e06b9ed", "fusion_lat": 0.0, "is_reserved": 0, "lon": -77.0478365}, {"type": "electric_scooter", "name": "72d852868c38be75b291aa611c2ab103", "rental_uris": {"ios": "https://dc.lft.to/lastmile_qr_scan", "android": "https://dc.lft.to/lastmile_qr_scan"}, "fusion_lon": 0.0, "lat": 38.898875, "is_disabled": 0, "bike_id": "72d852868c38be75b291aa611c2ab103", "fusion_lat": 0.0, "is_reserved": 0, "lon": -77.0327845}, {"type": "electric_scooter", "name": "1efc8f863f163cdcc63598bfcb96db8f", "rental_uris": {"ios": "https://dc.lft.to/lastmile_qr_scan", "android": "https://dc.lft.to/lastmile_qr_scan"}, "fusion_lon": 0.0, "lat": 38.91117, "is_disabled": 0, "bike_id": "1efc8f863f163cdcc63598bfcb96db8f", "fusion_lat": 0.0, "is_reserved": 0, "lon": -77.02203316666667}, {"type": "electric_scooter", "name": "36fe7132cc0f7bb8ce5c7344db6f0362", "rental_uris": {"ios": "https://dc.lft.to/lastmile_qr_scan", "android": "https://dc.lft.to/lastmile_qr_scan"}, "fusion_lon": 0.0, "lat": 38.895117666666664, "is_disabled": 0, "bike_id": "36fe7132cc0f7bb8ce5c7344db6f0362", "fusion_lat": 0.0, "is_reserved": 0, "lon": -77.02195583333334}, {"type": "electric_scooter", "name": "e3b639e5296e0e285cabfd93b614ee04", "rental_uris": {"ios": "https://dc.lft.to/lastmile_qr_scan", "android": "https://dc.lft.to/lastmile_qr_scan"}, "fusion_lon": 0.0, "lat": 38.921225, "is_disabled": 0, "bike_id": "e3b639e5296e0e285cabfd93b614ee04", "fusion_lat": 0.0, "is_reserved": 0, "lon": -77.04384183333333}, {"type": "electric_scooter", "name": "6ce851b04310fb0a96820173e53fd726", "rental_uris": {"ios": "https://dc.lft.to/lastmile_qr_scan", "android": "https://dc.lft.to/lastmile_qr_scan"}, "fusion_lon": 0.0, "lat": 38.884592166666664, "is_disabled": 0, "bike_id": "6ce851b04310fb0a96820173e53fd726", "fusion_lat": 0.0, "is_reserved": 0, "lon": -76.94980583333333}, {"type": "electric_scooter", "name": "0969a56e87bbb6721eaa51e4f49a31f0", "rental_uris": {"ios": "https://dc.lft.to/lastmile_qr_scan", "android": "https://dc.lft.to/lastmile_qr_scan"}, "fusion_lon": 0.0, "lat": 38.93677, "is_disabled": 0, "bike_id": "0969a56e87bbb6721eaa51e4f49a31f0", "fusion_lat": 0.0, "is_reserved": 0, "lon": -77.035921}, {"type": "electric_scooter", "name": "84afd89b44e9aef4b43f07b166c91475", "rental_uris": {"ios": "https://dc.lft.to/lastmile_qr_scan", "android": "https://dc.lft.to/lastmile_qr_scan"}, "fusion_lon": 0.0, "lat": 38.88326, "is_disabled": 0, "bike_id": "84afd89b44e9aef4b43f07b166c91475", "fusion_lat": 0.0, "is_reserved": 0, "lon": -77.01763583333333}, {"type": "electric_scooter", "name": "bf7c475bfc13e529c151f3b71d24feb0", "rental_uris": {"ios": "https://dc.lft.to/lastmile_qr_scan", "android": "https://dc.lft.to/lastmile_qr_scan"}, "fusion_lon": 0.0, "lat": 38.90220083333333, "is_disabled": 0, "bike_id": "bf7c475bfc13e529c151f3b71d24feb0", "fusion_lat": 0.0, "is_reserved": 0, "lon": -77.04566533333333}, {"type": "electric_scooter", "name": "8d3dbffd3bf72de79ceb1515eb4a31f2", "rental_uris": {"ios": "https://dc.lft.to/lastmile_qr_scan", "android": "https://dc.lft.to/lastmile_qr_scan"}, "fusion_lon": 0.0, "lat": 38.920435499999996, "is_disabled": 0, "bike_id": "8d3dbffd3bf72de79ceb1515eb4a31f2", "fusion_lat": 0.0, "is_reserved": 0, "lon": -77.016769}, {"type": "electric_scooter", "name": "b3407a5dcc6bf43a1ad6563a91f43e46", "rental_uris": {"ios": "https://dc.lft.to/lastmile_qr_scan", "android": "https://dc.lft.to/lastmile_qr_scan"}, "fusion_lon": 0.0, "lat": 38.91707816666667, "is_disabled": 0, "bike_id": "b3407a5dcc6bf43a1ad6563a91f43e46", "fusion_lat": 0.0, "is_reserved": 0, "lon": -77.03468766666667}, {"type": "electric_scooter", "name": "0ac2b37ce904a41275a4d0daba72f8ad", "rental_uris": {"ios": "https://dc.lft.to/lastmile_qr_scan", "android": "https://dc.lft.to/lastmile_qr_scan"}, "fusion_lon": 0.0, "lat": 38.909439166666665, "is_disabled": 0, "bike_id": "0ac2b37ce904a41275a4d0daba72f8ad", "fusion_lat": 0.0, "is_reserved": 0, "lon": -77.0282175}, {"type": "electric_scooter", "name": "22724f56f88203b8f05c15d06e902515", "rental_uris": {"ios": "https://dc.lft.to/lastmile_qr_scan", "android": "https://dc.lft.to/lastmile_qr_scan"}, "fusion_lon": 0.0, "lat": 38.855498, "is_disabled": 0, "bike_id": "22724f56f88203b8f05c15d06e902515", "fusion_lat": 0.0, "is_reserved": 0, "lon": -76.987535}, {"type": "electric_scooter", "name": "c0afefcedfe85b66b7b3894ce6100823", "rental_uris": {"ios": "https://dc.lft.to/lastmile_qr_scan", "android": "https://dc.lft.to/lastmile_qr_scan"}, "fusion_lon": 0.0, "lat": 38.922975, "is_disabled": 0, "bike_id": "c0afefcedfe85b66b7b3894ce6100823", "fusion_lat": 0.0, "is_reserved": 0, "lon": -77.04268533333334}, {"type": "electric_scooter", "name": "51a6cca89ec870c8247c3389cd4854c9", "rental_uris": {"ios": "https://dc.lft.to/lastmile_qr_scan", "android": "https://dc.lft.to/lastmile_qr_scan"}, "fusion_lon": 0.0, "lat": 38.9061725, "is_disabled": 0, "bike_id": "51a6cca89ec870c8247c3389cd4854c9", "fusion_lat": 0.0, "is_reserved": 0, "lon": -77.00367866666667}, {"type": "electric_scooter", "name": "5d9c84656b4d801d02b5504415a60cc5", "rental_uris": {"ios": "https://dc.lft.to/lastmile_qr_scan", "android": "https://dc.lft.to/lastmile_qr_scan"}, "fusion_lon": 0.0, "lat": 38.92241883333333, "is_disabled": 0, "bike_id": "5d9c84656b4d801d02b5504415a60cc5", "fusion_lat": 0.0, "is_reserved": 0, "lon": -77.02096266666666}, {"type": "electric_scooter", "name": "688966646f9e0594c14707e25ea0fe82", "rental_uris": {"ios": "https://dc.lft.to/lastmile_qr_scan", "android": "https://dc.lft.to/lastmile_qr_scan"}, "fusion_lon": 0.0, "lat": 38.90111983333333, "is_disabled": 0, "bike_id": "688966646f9e0594c14707e25ea0fe82", "fusion_lat": 0.0, "is_reserved": 0, "lon": -77.04483416666666}, {"type": "electric_scooter", "name": "4b98872d2ed47b7a8b1afff0aaa963ba", "rental_uris": {"ios": "https://dc.lft.to/lastmile_qr_scan", "android": "https://dc.lft.to/lastmile_qr_scan"}, "fusion_lon": 0.0, "lat": 38.925059833333336, "is_disabled": 0, "bike_id": "4b98872d2ed47b7a8b1afff0aaa963ba", "fusion_lat": 0.0, "is_reserved": 0, "lon": -77.0022875}, {"type": "electric_scooter", "name": "f46687feb773a103023fa7fdd9044d9c", "rental_uris": {"ios": "https://dc.lft.to/lastmile_qr_scan", "android": "https://dc.lft.to/lastmile_qr_scan"}, "fusion_lon": 0.0, "lat": 38.8971465, "is_disabled": 0, "bike_id": "f46687feb773a103023fa7fdd9044d9c", "fusion_lat": 0.0, "is_reserved": 0, "lon": -77.04331733333333}, {"type": "electric_bike", "name": "095ad7265c94e281d23ed9c0efcd248e", "rental_uris": {"ios": "https://dc.lft.to/lastmile_qr_scan", "android": "https://dc.lft.to/lastmile_qr_scan"}, "fusion_lon": 0.0, "lat": 38.8408535, "is_disabled": 0, "bike_id": "095ad7265c94e281d23ed9c0efcd248e", "fusion_lat": 0.0, "is_reserved": 0, "lon": -76.97026316666667}, {"type": "electric_scooter", "name": "04af65a9b5dce95b351a5a446f13d988", "rental_uris": {"ios": "https://dc.lft.to/lastmile_qr_scan", "android": "https://dc.lft.to/lastmile_qr_scan"}, "fusion_lon": 0.0, "lat": 38.91982216666667, "is_disabled": 0, "bike_id": "04af65a9b5dce95b351a5a446f13d988", "fusion_lat": 0.0, "is_reserved": 0, "lon": -76.97307233333333}, {"type": "electric_scooter", "name": "1fb77d8269b21d2b501df0372924eacf", "rental_uris": {"ios": "https://dc.lft.to/lastmile_qr_scan", "android": "https://dc.lft.to/lastmile_qr_scan"}, "fusion_lon": 0.0, "lat": 38.89743883333333, "is_disabled": 0, "bike_id": "1fb77d8269b21d2b501df0372924eacf", "fusion_lat": 0.0, "is_reserved": 0, "lon": -77.00916066666667}, {"type": "electric_bike", "name": "714f51f5207029ab3cf215df511ede30", "rental_uris": {"ios": "https://dc.lft.to/lastmile_qr_scan", "android": "https://dc.lft.to/lastmile_qr_scan"}, "fusion_lon": 0.0, "lat": 38.883573166666665, "is_disabled": 0, "bike_id": "714f51f5207029ab3cf215df511ede30", "fusion_lat": 0.0, "is_reserved": 0, "lon": -76.98212216666667}, {"type": "electric_scooter", "name": "50c4690a4a542b3e229a054b49be8190", "rental_uris": {"ios": "https://dc.lft.to/lastmile_qr_scan", "android": "https://dc.lft.to/lastmile_qr_scan"}, "fusion_lon": 0.0, "lat": 38.8973195, "is_disabled": 0, "bike_id": "50c4690a4a542b3e229a054b49be8190", "fusion_lat": 0.0, "is_reserved": 0, "lon": -77.045903}, {"type": "electric_scooter", "name": "4a253dee825869cfed7a290dbd53f0db", "rental_uris": {"ios": "https://dc.lft.to/lastmile_qr_scan", "android": "https://dc.lft.to/lastmile_qr_scan"}, "fusion_lon": 0.0, "lat": 38.92313466666667, "is_disabled": 0, "bike_id": "4a253dee825869cfed7a290dbd53f0db", "fusion_lat": 0.0, "is_reserved": 0, "lon": -77.039052}, {"type": "electric_bike", "name": "7f42a32026191c97673b151dedb814e4", "rental_uris": {"ios": "https://dc.lft.to/lastmile_qr_scan", "android": "https://dc.lft.to/lastmile_qr_scan"}, "fusion_lon": 0.0, "lat": 38.942300833333334, "is_disabled": 0, "bike_id": "7f42a32026191c97673b151dedb814e4", "fusion_lat": 0.0, "is_reserved": 0, "lon": -76.96584266666666}, {"type": "electric_scooter", "name": "246f49380b0ad07d00802e86718b6724", "rental_uris": {"ios": "https://dc.lft.to/lastmile_qr_scan", "android": "https://dc.lft.to/lastmile_qr_scan"}, "fusion_lon": 0.0, "lat": 38.929522, "is_disabled": 0, "bike_id": "246f49380b0ad07d00802e86718b6724", "fusion_lat": 0.0, "is_reserved": 0, "lon": -77.0440395}, {"type": "electric_scooter", "name": "29db2ae19415a6242b872d37351e1393", "rental_uris": {"ios": "https://dc.lft.to/lastmile_qr_scan", "android": "https://dc.lft.to/lastmile_qr_scan"}, "fusion_lon": 0.0, "lat": 38.920478833333334, "is_disabled": 0, "bike_id": "29db2ae19415a6242b872d37351e1393", "fusion_lat": 0.0, "is_reserved": 0, "lon": -77.0257435}, {"type": "electric_scooter", "name": "165ec608285ad0aaaa6c842854424e2f", "rental_uris": {"ios": "https://dc.lft.to/lastmile_qr_scan", "android": "https://dc.lft.to/lastmile_qr_scan"}, "fusion_lon": 0.0, "lat": 38.941752666666666, "is_disabled": 0, "bike_id": "165ec608285ad0aaaa6c842854424e2f", "fusion_lat": 0.0, "is_reserved": 0, "lon": -77.0314555}, {"type": "electric_scooter", "name": "a6b88a76271c8925fab300c6e53cd32e", "rental_uris": {"ios": "https://dc.lft.to/lastmile_qr_scan", "android": "https://dc.lft.to/lastmile_qr_scan"}, "fusion_lon": 0.0, "lat": 38.905506, "is_disabled": 0, "bike_id": "a6b88a76271c8925fab300c6e53cd32e", "fusion_lat": 0.0, "is_reserved": 0, "lon": -77.02220466666667}, {"type": "electric_scooter", "name": "3d2e678fbde8238cc6cfb4d0039d79ba", "rental_uris": {"ios": "https://dc.lft.to/lastmile_qr_scan", "android": "https://dc.lft.to/lastmile_qr_scan"}, "fusion_lon": 0.0, "lat": 38.902512333333334, "is_disabled": 0, "bike_id": "3d2e678fbde8238cc6cfb4d0039d79ba", "fusion_lat": 0.0, "is_reserved": 0, "lon": -77.03343833333334}, {"type": "electric_scooter", "name": "2cfa91735e6debbc9eaf865de2869851", "rental_uris": {"ios": "https://dc.lft.to/lastmile_qr_scan", "android": "https://dc.lft.to/lastmile_qr_scan"}, "fusion_lon": 0.0, "lat": 38.89585683333333, "is_disabled": 0, "bike_id": "2cfa91735e6debbc9eaf865de2869851", "fusion_lat": 0.0, "is_reserved": 0, "lon": -77.02308183333334}, {"type": "electric_scooter", "name": "9159c89c56b264aad153886c0515d3f0", "rental_uris": {"ios": "https://dc.lft.to/lastmile_qr_scan", "android": "https://dc.lft.to/lastmile_qr_scan"}, "fusion_lon": 0.0, "lat": 38.8989365, "is_disabled": 0, "bike_id": "9159c89c56b264aad153886c0515d3f0", "fusion_lat": 0.0, "is_reserved": 0, "lon": -77.002221}, {"type": "electric_scooter", "name": "150ffee5682452b714cdc19428324b3a", "rental_uris": {"ios": "https://dc.lft.to/lastmile_qr_scan", "android": "https://dc.lft.to/lastmile_qr_scan"}, "fusion_lon": 0.0, "lat": 38.917767833333336, "is_disabled": 0, "bike_id": "150ffee5682452b714cdc19428324b3a", "fusion_lat": 0.0, "is_reserved": 0, "lon": -77.02215}, {"type": "electric_scooter", "name": "431021c1970b34846b2a5fecacf54641", "rental_uris": {"ios": "https://dc.lft.to/lastmile_qr_scan", "android": "https://dc.lft.to/lastmile_qr_scan"}, "fusion_lon": 0.0, "lat": 38.92414466666666, "is_disabled": 0, "bike_id": "431021c1970b34846b2a5fecacf54641", "fusion_lat": 0.0, "is_reserved": 0, "lon": -77.02035266666667}, {"type": "electric_scooter", "name": "996c9e46ebafeca90d54c714636ac154", "rental_uris": {"ios": "https://dc.lft.to/lastmile_qr_scan", "android": "https://dc.lft.to/lastmile_qr_scan"}, "fusion_lon": 0.0, "lat": 38.876420333333336, "is_disabled": 0, "bike_id": "996c9e46ebafeca90d54c714636ac154", "fusion_lat": 0.0, "is_reserved": 0, "lon": -77.00913433333334}, {"type": "electric_scooter", "name": "694f4c14db9d3b97867ef1f1cc30be60", "rental_uris": {"ios": "https://dc.lft.to/lastmile_qr_scan", "android": "https://dc.lft.to/lastmile_qr_scan"}, "fusion_lon": 0.0, "lat": 38.9026995, "is_disabled": 0, "bike_id": "694f4c14db9d3b97867ef1f1cc30be60", "fusion_lat": 0.0, "is_reserved": 0, "lon": -77.05315133333333}, {"type": "electric_scooter", "name": "86c1027a1e189a6e6402172f5b0d4a1f", "rental_uris": {"ios": "https://dc.lft.to/lastmile_qr_scan", "android": "https://dc.lft.to/lastmile_qr_scan"}, "fusion_lon": 0.0, "lat": 38.915896333333336, "is_disabled": 0, "bike_id": "86c1027a1e189a6e6402172f5b0d4a1f", "fusion_lat": 0.0, "is_reserved": 0, "lon": -77.045945}, {"type": "electric_scooter", "name": "765da7e6cb7c54a084983b69840d684b", "rental_uris": {"ios": "https://dc.lft.to/lastmile_qr_scan", "android": "https://dc.lft.to/lastmile_qr_scan"}, "fusion_lon": 0.0, "lat": 38.906319833333335, "is_disabled": 0, "bike_id": "765da7e6cb7c54a084983b69840d684b", "fusion_lat": 0.0, "is_reserved": 0, "lon": -77.04165566666667}, {"type": "electric_scooter", "name": "3a1bb7fa14025b4dfcfc33eca5ccb436", "rental_uris": {"ios": "https://dc.lft.to/lastmile_qr_scan", "android": "https://dc.lft.to/lastmile_qr_scan"}, "fusion_lon": 0.0, "lat": 38.887638833333334, "is_disabled": 0, "bike_id": "3a1bb7fa14025b4dfcfc33eca5ccb436", "fusion_lat": 0.0, "is_reserved": 0, "lon": -76.97746483333333}, {"type": "electric_scooter", "name": "bdfd3bcbcd36f2488b9310938f465ca6", "rental_uris": {"ios": "https://dc.lft.to/lastmile_qr_scan", "android": "https://dc.lft.to/lastmile_qr_scan"}, "fusion_lon": 0.0, "lat": 38.88655983333334, "is_disabled": 0, "bike_id": "bdfd3bcbcd36f2488b9310938f465ca6", "fusion_lat": 0.0, "is_reserved": 0, "lon": -77.02819633333333}, {"type": "electric_bike", "name": "68c361cb07370899ab3d8055eb26bd9a", "rental_uris": {"ios": "https://dc.lft.to/lastmile_qr_scan", "android": "https://dc.lft.to/lastmile_qr_scan"}, "fusion_lon": 0.0, "lat": 38.9846335, "is_disabled": 0, "bike_id": "68c361cb07370899ab3d8055eb26bd9a", "fusion_lat": 0.0, "is_reserved": 0, "lon": -76.97047266666667}, {"type": "electric_scooter", "name": "6b05ca53e93c38e998d3b98289f4f2de", "rental_uris": {"ios": "https://dc.lft.to/lastmile_qr_scan", "android": "https://dc.lft.to/lastmile_qr_scan"}, "fusion_lon": 0.0, "lat": 38.891356333333334, "is_disabled": 0, "bike_id": "6b05ca53e93c38e998d3b98289f4f2de", "fusion_lat": 0.0, "is_reserved": 0, "lon": -76.99089683333334}, {"type": "electric_scooter", "name": "20fcf2d1aa3308290c627ed1b74814c6", "rental_uris": {"ios": "https://dc.lft.to/lastmile_qr_scan", "android": "https://dc.lft.to/lastmile_qr_scan"}, "fusion_lon": 0.0, "lat": 38.8984455, "is_disabled": 0, "bike_id": "20fcf2d1aa3308290c627ed1b74814c6", "fusion_lat": 0.0, "is_reserved": 0, "lon": -76.94631616666666}, {"type": "electric_scooter", "name": "6c813b230d194d772989630103eeccec", "rental_uris": {"ios": "https://dc.lft.to/lastmile_qr_scan", "android": "https://dc.lft.to/lastmile_qr_scan"}, "fusion_lon": 0.0, "lat": 38.904366, "is_disabled": 0, "bike_id": "6c813b230d194d772989630103eeccec", "fusion_lat": 0.0, "is_reserved": 0, "lon": -77.04350966666667}, {"type": "electric_scooter", "name": "c7e280462d8be1bfff04dc0e5b80d3f1", "rental_uris": {"ios": "https://dc.lft.to/lastmile_qr_scan", "android": "https://dc.lft.to/lastmile_qr_scan"}, "fusion_lon": 0.0, "lat": 38.910636, "is_disabled": 0, "bike_id": "c7e280462d8be1bfff04dc0e5b80d3f1", "fusion_lat": 0.0, "is_reserved": 0, "lon": -76.9851995}, {"type": "electric_bike", "name": "3f9087a47c84348921da6e1f697d1d58", "rental_uris": {"ios": "https://dc.lft.to/lastmile_qr_scan", "android": "https://dc.lft.to/lastmile_qr_scan"}, "fusion_lon": 0.0, "lat": 38.855166, "is_disabled": 0, "bike_id": "3f9087a47c84348921da6e1f697d1d58", "fusion_lat": 0.0, "is_reserved": 0, "lon": -76.98421816666666}, {"type": "electric_scooter", "name": "03f291b33d5e874347beebb0bf589be4", "rental_uris": {"ios": "https://dc.lft.to/lastmile_qr_scan", "android": "https://dc.lft.to/lastmile_qr_scan"}, "fusion_lon": 0.0, "lat": 38.93989533333333, "is_disabled": 0, "bike_id": "03f291b33d5e874347beebb0bf589be4", "fusion_lat": 0.0, "is_reserved": 0, "lon": -77.03263466666667}, {"type": "electric_scooter", "name": "9674a981ab6e284039cd30500e93476b", "rental_uris": {"ios": "https://dc.lft.to/lastmile_qr_scan", "android": "https://dc.lft.to/lastmile_qr_scan"}, "fusion_lon": 0.0, "lat": 38.905593333333336, "is_disabled": 0, "bike_id": "9674a981ab6e284039cd30500e93476b", "fusion_lat": 0.0, "is_reserved": 0, "lon": -77.013097}, {"type": "electric_scooter", "name": "77c16020ed1512f9b37f60f18b9b4614", "rental_uris": {"ios": "https://dc.lft.to/lastmile_qr_scan", "android": "https://dc.lft.to/lastmile_qr_scan"}, "fusion_lon": 0.0, "lat": 38.896914, "is_disabled": 0, "bike_id": "77c16020ed1512f9b37f60f18b9b4614", "fusion_lat": 0.0, "is_reserved": 0, "lon": -77.04658416666666}, {"type": "electric_scooter", "name": "cc8ca66dd7ac6af9d99df4ad0165b7ba", "rental_uris": {"ios": "https://dc.lft.to/lastmile_qr_scan", "android": "https://dc.lft.to/lastmile_qr_scan"}, "fusion_lon": 0.0, "lat": 38.9311645, "is_disabled": 0, "bike_id": "cc8ca66dd7ac6af9d99df4ad0165b7ba", "fusion_lat": 0.0, "is_reserved": 0, "lon": -77.0380575}, {"type": "electric_scooter", "name": "a62b7fca18f4000b0d8b4a5a6f5e992b", "rental_uris": {"ios": "https://dc.lft.to/lastmile_qr_scan", "android": "https://dc.lft.to/lastmile_qr_scan"}, "fusion_lon": 0.0, "lat": 38.89596083333333, "is_disabled": 0, "bike_id": "a62b7fca18f4000b0d8b4a5a6f5e992b", "fusion_lat": 0.0, "is_reserved": 0, "lon": -77.02305166666666}, {"type": "electric_scooter", "name": "c73aa3c13c946780de9f11e1b7480df8", "rental_uris": {"ios": "https://dc.lft.to/lastmile_qr_scan", "android": "https://dc.lft.to/lastmile_qr_scan"}, "fusion_lon": 0.0, "lat": 38.91771266666667, "is_disabled": 0, "bike_id": "c73aa3c13c946780de9f11e1b7480df8", "fusion_lat": 0.0, "is_reserved": 0, "lon": -77.02283266666667}, {"type": "electric_bike", "name": "0f55649089076040603cbe7548fa88f5", "rental_uris": {"ios": "https://dc.lft.to/lastmile_qr_scan", "android": "https://dc.lft.to/lastmile_qr_scan"}, "fusion_lon": 0.0, "lat": 38.8981355, "is_disabled": 0, "bike_id": "0f55649089076040603cbe7548fa88f5", "fusion_lat": 0.0, "is_reserved": 0, "lon": -77.0060115}, {"type": "electric_scooter", "name": "9cd7f9e3c8552f0cc2f88a07bc8e3e3a", "rental_uris": {"ios": "https://dc.lft.to/lastmile_qr_scan", "android": "https://dc.lft.to/lastmile_qr_scan"}, "fusion_lon": 0.0, "lat": 38.93676333333333, "is_disabled": 0, "bike_id": "9cd7f9e3c8552f0cc2f88a07bc8e3e3a", "fusion_lat": 0.0, "is_reserved": 0, "lon": -77.03587616666667}, {"type": "electric_scooter", "name": "92f327547321cde523772690011b5a18", "rental_uris": {"ios": "https://dc.lft.to/lastmile_qr_scan", "android": "https://dc.lft.to/lastmile_qr_scan"}, "fusion_lon": 0.0, "lat": 38.931882, "is_disabled": 0, "bike_id": "92f327547321cde523772690011b5a18", "fusion_lat": 0.0, "is_reserved": 0, "lon": -77.04300666666667}, {"type": "electric_scooter", "name": "5c6887d0edf74d7f1d965584d902325d", "rental_uris": {"ios": "https://dc.lft.to/lastmile_qr_scan", "android": "https://dc.lft.to/lastmile_qr_scan"}, "fusion_lon": 0.0, "lat": 38.89227433333333, "is_disabled": 0, "bike_id": "5c6887d0edf74d7f1d965584d902325d", "fusion_lat": 0.0, "is_reserved": 0, "lon": -77.04329433333334}, {"type": "electric_scooter", "name": "250d70b294e443e5aa6f43885d51ee30", "rental_uris": {"ios": "https://dc.lft.to/lastmile_qr_scan", "android": "https://dc.lft.to/lastmile_qr_scan"}, "fusion_lon": 0.0, "lat": 38.88726833333333, "is_disabled": 0, "bike_id": "250d70b294e443e5aa6f43885d51ee30", "fusion_lat": 0.0, "is_reserved": 0, "lon": -77.0257805}, {"type": "electric_scooter", "name": "43fdec6c19b5fac64b62688f3a24a878", "rental_uris": {"ios": "https://dc.lft.to/lastmile_qr_scan", "android": "https://dc.lft.to/lastmile_qr_scan"}, "fusion_lon": 0.0, "lat": 38.935248, "is_disabled": 0, "bike_id": "43fdec6c19b5fac64b62688f3a24a878", "fusion_lat": 0.0, "is_reserved": 0, "lon": -77.07654933333333}, {"type": "electric_scooter", "name": "60a3e0359510d93344757fcd4966e0e2", "rental_uris": {"ios": "https://dc.lft.to/lastmile_qr_scan", "android": "https://dc.lft.to/lastmile_qr_scan"}, "fusion_lon": 0.0, "lat": 38.924760666666664, "is_disabled": 0, "bike_id": "60a3e0359510d93344757fcd4966e0e2", "fusion_lat": 0.0, "is_reserved": 0, "lon": -77.022149}, {"type": "electric_scooter", "name": "817bbcb9fa3293a2f59063318158d703", "rental_uris": {"ios": "https://dc.lft.to/lastmile_qr_scan", "android": "https://dc.lft.to/lastmile_qr_scan"}, "fusion_lon": 0.0, "lat": 38.895048833333334, "is_disabled": 0, "bike_id": "817bbcb9fa3293a2f59063318158d703", "fusion_lat": 0.0, "is_reserved": 0, "lon": -76.934761}, {"type": "electric_scooter", "name": "7bf956fbb97cd3188b123245c96966d9", "rental_uris": {"ios": "https://dc.lft.to/lastmile_qr_scan", "android": "https://dc.lft.to/lastmile_qr_scan"}, "fusion_lon": 0.0, "lat": 38.8987105, "is_disabled": 0, "bike_id": "7bf956fbb97cd3188b123245c96966d9", "fusion_lat": 0.0, "is_reserved": 0, "lon": -76.946458}, {"type": "electric_scooter", "name": "83099f292ae5dfe1e9b552a0a411261f", "rental_uris": {"ios": "https://dc.lft.to/lastmile_qr_scan", "android": "https://dc.lft.to/lastmile_qr_scan"}, "fusion_lon": 0.0, "lat": 38.9230245, "is_disabled": 0, "bike_id": "83099f292ae5dfe1e9b552a0a411261f", "fusion_lat": 0.0, "is_reserved": 0, "lon": -77.04268416666666}, {"type": "electric_scooter", "name": "fbad1976fe6f52a5df57fc3b334ee1c7", "rental_uris": {"ios": "https://dc.lft.to/lastmile_qr_scan", "android": "https://dc.lft.to/lastmile_qr_scan"}, "fusion_lon": 0.0, "lat": 38.93279233333333, "is_disabled": 0, "bike_id": "fbad1976fe6f52a5df57fc3b334ee1c7", "fusion_lat": 0.0, "is_reserved": 0, "lon": -77.0408065}, {"type": "electric_scooter", "name": "383d2e06b823a8242a517f71482c7414", "rental_uris": {"ios": "https://dc.lft.to/lastmile_qr_scan", "android": "https://dc.lft.to/lastmile_qr_scan"}, "fusion_lon": 0.0, "lat": 38.90976216666667, "is_disabled": 0, "bike_id": "383d2e06b823a8242a517f71482c7414", "fusion_lat": 0.0, "is_reserved": 0, "lon": -77.03216166666667}, {"type": "electric_scooter", "name": "07faa2ed55f8f4fda2813c5664a1fc2b", "rental_uris": {"ios": "https://dc.lft.to/lastmile_qr_scan", "android": "https://dc.lft.to/lastmile_qr_scan"}, "fusion_lon": 0.0, "lat": 38.91176983333333, "is_disabled": 0, "bike_id": "07faa2ed55f8f4fda2813c5664a1fc2b", "fusion_lat": 0.0, "is_reserved": 0, "lon": -77.00388966666667}, {"type": "electric_scooter", "name": "311296573aa9f2289b20a6647467c00e", "rental_uris": {"ios": "https://dc.lft.to/lastmile_qr_scan", "android": "https://dc.lft.to/lastmile_qr_scan"}, "fusion_lon": 0.0, "lat": 38.93603483333333, "is_disabled": 0, "bike_id": "311296573aa9f2289b20a6647467c00e", "fusion_lat": 0.0, "is_reserved": 0, "lon": -77.05861183333333}, {"type": "electric_scooter", "name": "b634a3644a4133c5a7b08cac925e765f", "rental_uris": {"ios": "https://dc.lft.to/lastmile_qr_scan", "android": "https://dc.lft.to/lastmile_qr_scan"}, "fusion_lon": 0.0, "lat": 38.8983135, "is_disabled": 0, "bike_id": "b634a3644a4133c5a7b08cac925e765f", "fusion_lat": 0.0, "is_reserved": 0, "lon": -76.93176616666666}, {"type": "electric_scooter", "name": "7d85d825aab5b8509c0f3624f75f3ac6", "rental_uris": {"ios": "https://dc.lft.to/lastmile_qr_scan", "android": "https://dc.lft.to/lastmile_qr_scan"},