{"data": {"bikes": [{"rental_uris": {"ios": "https://dc.lft.to/lastmile_qr_scan", "android": "https://dc.lft.to/lastmile_qr_scan"}, "type": "electric_scooter", "name": "1c773f993e0ce994e8943827d11dbc99", "is_reserved": 0, "lon": -77.00820866666666, "is_disabled": 0, "fusion_lat": 0.0, "lat": 38.9137805, "bike_id": "1c773f993e0ce994e8943827d11dbc99", "fusion_lon": 0.0}, {"rental_uris": {"ios": "https://dc.lft.to/lastmile_qr_scan", "android": "https://dc.lft.to/lastmile_qr_scan"}, "type": "electric_scooter", "name": "d32c0a3d350a0e8e09e1c956ea9b9866", "is_reserved": 0, "lon": -77.036539, "is_disabled": 0, "fusion_lat": 0.0, "lat": 38.906652666666666, "bike_id": "d32c0a3d350a0e8e09e1c956ea9b9866", "fusion_lon": 0.0}, {"rental_uris": {"ios": "https://dc.lft.to/lastmile_qr_scan", "android": "https://dc.lft.to/lastmile_qr_scan"}, "type": "electric_scooter", "name": "187032c8c0eee81f5663e9d1a815d272", "is_reserved": 0, "lon": -77.04093833333333, "is_disabled": 0, "fusion_lat": 0.0, "lat": 38.92703983333333, "bike_id": "187032c8c0eee81f5663e9d1a815d272", "fusion_lon": 0.0}, {"rental_uris": {"ios": "https://dc.lft.to/lastmile_qr_scan", "android": "https://dc.lft.to/lastmile_qr_scan"}, "type": "electric_bike", "name": "6d5d7aaffdf03d45f523979fe65b6cf9", "is_reserved": 0, "lon": -76.90732866666667, "is_disabled": 0, "fusion_lat": 0.0, "lat": 38.896167166666665, "bike_id": "6d5d7aaffdf03d45f523979fe65b6cf9", "fusion_lon": 0.0}, {"rental_uris": {"ios": "https://dc.lft.to/lastmile_qr_scan", "android": "https://dc.lft.to/lastmile_qr_scan"}, "type": "electric_scooter", "name": "f7156e7fb953ac32ddde2fe829d49a82", "is_reserved": 0, "lon": -77.02164766666667, "is_disabled": 0, "fusion_lat": 0.0, "lat": 38.8949235, "bike_id": "f7156e7fb953ac32ddde2fe829d49a82", "fusion_lon": 0.0}, {"rental_uris": {"ios": "https://dc.lft.to/lastmile_qr_scan", "android": "https://dc.lft.to/lastmile_qr_scan"}, "type": "electric_scooter", "name": "d00d326c5e7345894253a3fa7cf4eee7", "is_reserved": 0, "lon": -77.0346685, "is_disabled": 0, "fusion_lat": 0.0, "lat": 38.9011105, "bike_id": "d00d326c5e7345894253a3fa7cf4eee7", "fusion_lon": 0.0}, {"rental_uris": {"ios": "https://dc.lft.to/lastmile_qr_scan", "android": "https://dc.lft.to/lastmile_qr_scan"}, "type": "electric_scooter", "name": "48a92b768be5fb35cfbbc3b2f974645b", "is_reserved": 0, "lon": -77.038268, "is_disabled": 0, "fusion_lat": 0.0, "lat": 38.931370333333334, "bike_id": "48a92b768be5fb35cfbbc3b2f974645b", "fusion_lon": 0.0}, {"rental_uris": {"ios": "https://dc.lft.to/lastmile_qr_scan", "android": "https://dc.lft.to/lastmile_qr_scan"}, "type": "electric_scooter", "name": "350055a1a6c5fd136f7a28fe14f7214b", "is_reserved": 0, "lon": -77.01224566666667, "is_disabled": 0, "fusion_lat": 0.0, "lat": 38.867169833333335, "bike_id": "350055a1a6c5fd136f7a28fe14f7214b", "fusion_lon": 0.0}, {"rental_uris": {"ios": "https://dc.lft.to/lastmile_qr_scan", "android": "https://dc.lft.to/lastmile_qr_scan"}, "type": "electric_scooter", "name": "dd950a57019185f3c6febd1d223ee944", "is_reserved": 0, "lon": -77.04877883333333, "is_disabled": 0, "fusion_lat": 0.0, "lat": 38.900712666666664, "bike_id": "dd950a57019185f3c6febd1d223ee944", "fusion_lon": 0.0}, {"rental_uris": {"ios": "https://dc.lft.to/lastmile_qr_scan", "android": "https://dc.lft.to/lastmile_qr_scan"}, "type": "electric_scooter", "name": "466eb7e9387c1828f3c06ef1d04aa54d", "is_reserved": 0, "lon": -76.992343, "is_disabled": 0, "fusion_lat": 0.0, "lat": 38.887517333333335, "bike_id": "466eb7e9387c1828f3c06ef1d04aa54d", "fusion_lon": 0.0}, {"rental_uris": {"ios": "https://dc.lft.to/lastmile_qr_scan", "android": "https://dc.lft.to/lastmile_qr_scan"}, "type": "electric_scooter", "name": "e556ffef340f148391669fc053a035db", "is_reserved": 0, "lon": -76.99911783333333, "is_disabled": 0, "fusion_lat": 0.0, "lat": 38.92456, "bike_id": "e556ffef340f148391669fc053a035db", "fusion_lon": 0.0}, {"rental_uris": {"ios": "https://dc.lft.to/lastmile_qr_scan", "android": "https://dc.lft.to/lastmile_qr_scan"}, "type": "electric_scooter", "name": "e663a066aec5ebd98d9b5c0b786edfef", "is_reserved": 0, "lon": -77.03213416666667, "is_disabled": 0, "fusion_lat": 0.0, "lat": 38.88476133333333, "bike_id": "e663a066aec5ebd98d9b5c0b786edfef", "fusion_lon": 0.0}, {"rental_uris": {"ios": "https://dc.lft.to/lastmile_qr_scan", "android": "https://dc.lft.to/lastmile_qr_scan"}, "type": "electric_scooter", "name": "ba8539b99d55f998d987706e40cfcc82", "is_reserved": 0, "lon": -77.015059, "is_disabled": 0, "fusion_lat": 0.0, "lat": 38.901446, "bike_id": "ba8539b99d55f998d987706e40cfcc82", "fusion_lon": 0.0}, {"rental_uris": {"ios": "https://dc.lft.to/lastmile_qr_scan", "android": "https://dc.lft.to/lastmile_qr_scan"}, "type": "electric_scooter", "name": "5b4ceff17ac0c284369ab994d24cff04", "is_reserved": 0, "lon": -77.03799316666667, "is_disabled": 0, "fusion_lat": 0.0, "lat": 38.92589916666667, "bike_id": "5b4ceff17ac0c284369ab994d24cff04", "fusion_lon": 0.0}, {"rental_uris": {"ios": "https://dc.lft.to/lastmile_qr_scan", "android": "https://dc.lft.to/lastmile_qr_scan"}, "type": "electric_scooter", "name": "707343c03e11e2ad39c785ac1288b42a", "is_reserved": 0, "lon": -77.01911766666667, "is_disabled": 0, "fusion_lat": 0.0, "lat": 38.90241966666667, "bike_id": "707343c03e11e2ad39c785ac1288b42a", "fusion_lon": 0.0}, {"rental_uris": {"ios": "https://dc.lft.to/lastmile_qr_scan", "android": "https://dc.lft.to/lastmile_qr_scan"}, "type": "electric_scooter", "name": "d697575372326de626c62062713b4b53", "is_reserved": 0, "lon": -77.03214833333334, "is_disabled": 0, "fusion_lat": 0.0, "lat": 38.924899833333335, "bike_id": "d697575372326de626c62062713b4b53", "fusion_lon": 0.0}, {"rental_uris": {"ios": "https://dc.lft.to/lastmile_qr_scan", "android": "https://dc.lft.to/lastmile_qr_scan"}, "type": "electric_scooter", "name": "29c82a3e445ea7876e28a017b3035f83", "is_reserved": 0, "lon": -77.05333666666667, "is_disabled": 0, "fusion_lat": 0.0, "lat": 38.8987575, "bike_id": "29c82a3e445ea7876e28a017b3035f83", "fusion_lon": 0.0}, {"rental_uris": {"ios": "https://dc.lft.to/lastmile_qr_scan", "android": "https://dc.lft.to/lastmile_qr_scan"}, "type": "electric_scooter", "name": "bb0c6e94661fbc7c32e23dc79cefb579", "is_reserved": 0, "lon": -77.04392833333333, "is_disabled": 0, "fusion_lat": 0.0, "lat": 38.92592283333333, "bike_id": "bb0c6e94661fbc7c32e23dc79cefb579", "fusion_lon": 0.0}, {"rental_uris": {"ios": "https://dc.lft.to/lastmile_qr_scan", "android": "https://dc.lft.to/lastmile_qr_scan"}, "type": "electric_scooter", "name": "a63c1ffeb447e4065aae253fe706c981", "is_reserved": 0, "lon": -77.0424785, "is_disabled": 0, "fusion_lat": 0.0, "lat": 38.91058066666667, "bike_id": "a63c1ffeb447e4065aae253fe706c981", "fusion_lon": 0.0}, {"rental_uris": {"ios": "https://dc.lft.to/lastmile_qr_scan", "android": "https://dc.lft.to/lastmile_qr_scan"}, "type": "electric_bike", "name": "be5508bfb6ecac122ce06f60d4d7d806", "is_reserved": 0, "lon": -77.07242283333333, "is_disabled": 0, "fusion_lat": 0.0, "lat": 38.813623, "bike_id": "be5508bfb6ecac122ce06f60d4d7d806", "fusion_lon": 0.0}, {"rental_uris": {"ios": "https://dc.lft.to/lastmile_qr_scan", "android": "https://dc.lft.to/lastmile_qr_scan"}, "type": "electric_scooter", "name": "07f06915e764d86b39c30ca54e011bbe", "is_reserved": 0, "lon": -76.99005283333334, "is_disabled": 0, "fusion_lat": 0.0, "lat": 38.9039835, "bike_id": "07f06915e764d86b39c30ca54e011bbe", "fusion_lon": 0.0}, {"rental_uris": {"ios": "https://dc.lft.to/lastmile_qr_scan", "android": "https://dc.lft.to/lastmile_qr_scan"}, "type": "electric_scooter", "name": "bfa2188d6418684495826f75da9fe2bd", "is_reserved": 0, "lon": -76.99944633333334, "is_disabled": 0, "fusion_lat": 0.0, "lat": 38.90768716666667, "bike_id": "bfa2188d6418684495826f75da9fe2bd", "fusion_lon": 0.0}, {"rental_uris": {"ios": "https://dc.lft.to/lastmile_qr_scan", "android": "https://dc.lft.to/lastmile_qr_scan"}, "type": "electric_scooter", "name": "cb3de00e161f3f4b4b06a54df91381b7", "is_reserved": 0, "lon": -77.03717433333334, "is_disabled": 0, "fusion_lat": 0.0, "lat": 38.926450833333334, "bike_id": "cb3de00e161f3f4b4b06a54df91381b7", "fusion_lon": 0.0}, {"rental_uris": {"ios": "https://dc.lft.to/lastmile_qr_scan", "android": "https://dc.lft.to/lastmile_qr_scan"}, "type": "electric_scooter", "name": "610467f388f3318e43b4e1ec945f6651", "is_reserved": 0, "lon": -77.0004325, "is_disabled": 0, "fusion_lat": 0.0, "lat": 38.87687566666666, "bike_id": "610467f388f3318e43b4e1ec945f6651", "fusion_lon": 0.0}, {"rental_uris": {"ios": "https://dc.lft.to/lastmile_qr_scan", "android": "https://dc.lft.to/lastmile_qr_scan"}, "type": "electric_scooter", "name": "2dc71c7acb3d771436464e584b71cab2", "is_reserved": 0, "lon": -77.01497466666666, "is_disabled": 0, "fusion_lat": 0.0, "lat": 38.917688166666665, "bike_id": "2dc71c7acb3d771436464e584b71cab2", "fusion_lon": 0.0}, {"rental_uris": {"ios": "https://dc.lft.to/lastmile_qr_scan", "android": "https://dc.lft.to/lastmile_qr_scan"}, "type": "electric_scooter", "name": "6f2aef42ff5394b81bd0d1cbc0517a85", "is_reserved": 0, "lon": -77.04239633333333, "is_disabled": 0, "fusion_lat": 0.0, "lat": 38.92273466666666, "bike_id": "6f2aef42ff5394b81bd0d1cbc0517a85", "fusion_lon": 0.0}, {"rental_uris": {"ios": "https://dc.lft.to/lastmile_qr_scan", "android": "https://dc.lft.to/lastmile_qr_scan"}, "type": "electric_scooter", "name": "70fd06adf07a989ff5263be437e85b8a", "is_reserved": 0, "lon": -77.03186133333334, "is_disabled": 0, "fusion_lat": 0.0, "lat": 38.899817166666665, "bike_id": "70fd06adf07a989ff5263be437e85b8a", "fusion_lon": 0.0}, {"rental_uris": {"ios": "https://dc.lft.to/lastmile_qr_scan", "android": "https://dc.lft.to/lastmile_qr_scan"}, "type": "electric_scooter", "name": "bb60cff7b0a28b721c4d254d1b4e68e7", "is_reserved": 0, "lon": -77.04093116666667, "is_disabled": 0, "fusion_lat": 0.0, "lat": 38.9206195, "bike_id": "bb60cff7b0a28b721c4d254d1b4e68e7", "fusion_lon": 0.0}, {"rental_uris": {"ios": "https://dc.lft.to/lastmile_qr_scan", "android": "https://dc.lft.to/lastmile_qr_scan"}, "type": "electric_scooter", "name": "d4fca903c64154f13d7f7b55c0e48189", "is_reserved": 0, "lon": -77.02779233333334, "is_disabled": 0, "fusion_lat": 0.0, "lat": 38.965824166666664, "bike_id": "d4fca903c64154f13d7f7b55c0e48189", "fusion_lon": 0.0}, {"rental_uris": {"ios": "https://dc.lft.to/lastmile_qr_scan", "android": "https://dc.lft.to/lastmile_qr_scan"}, "type": "electric_scooter", "name": "cdf9faf8bab00152595305e57a9cb9a1", "is_reserved": 0, "lon": -76.94161966666667, "is_disabled": 0, "fusion_lat": 0.0, "lat": 38.90176016666667, "bike_id": "cdf9faf8bab00152595305e57a9cb9a1", "fusion_lon": 0.0}, {"rental_uris": {"ios": "https://dc.lft.to/lastmile_qr_scan", "android": "https://dc.lft.to/lastmile_qr_scan"}, "type": "electric_bike", "name": "7d1a44e31875970193c0b0e3b5e0aeaf", "is_reserved": 0, "lon": -77.09962833333333, "is_disabled": 0, "fusion_lat": 0.0, "lat": 38.8579005, "bike_id": "7d1a44e31875970193c0b0e3b5e0aeaf", "fusion_lon": 0.0}, {"rental_uris": {"ios": "https://dc.lft.to/lastmile_qr_scan", "android": "https://dc.lft.to/lastmile_qr_scan"}, "type": "electric_scooter", "name": "77aec6bf15694cdebb9c840630583abf", "is_reserved": 0, "lon": -76.976545, "is_disabled": 0, "fusion_lat": 0.0, "lat": 38.90361766666667, "bike_id": "77aec6bf15694cdebb9c840630583abf", "fusion_lon": 0.0}, {"rental_uris": {"ios": "https://dc.lft.to/lastmile_qr_scan", "android": "https://dc.lft.to/lastmile_qr_scan"}, "type": "electric_scooter", "name": "59a5780602b4443e587bf0d41274ec3a", "is_reserved": 0, "lon": -77.01778683333333, "is_disabled": 0, "fusion_lat": 0.0, "lat": 38.879156333333334, "bike_id": "59a5780602b4443e587bf0d41274ec3a", "fusion_lon": 0.0}, {"rental_uris": {"ios": "https://dc.lft.to/lastmile_qr_scan", "android": "https://dc.lft.to/lastmile_qr_scan"}, "type": "electric_scooter", "name": "a868f34dac124b05db2454e945829b38", "is_reserved": 0, "lon": -77.007581, "is_disabled": 0, "fusion_lat": 0.0, "lat": 38.87114283333333, "bike_id": "a868f34dac124b05db2454e945829b38", "fusion_lon": 0.0}, {"rental_uris": {"ios": "https://dc.lft.to/lastmile_qr_scan", "android": "https://dc.lft.to/lastmile_qr_scan"}, "type": "electric_scooter", "name": "a7fba2b708126abcff2b88caa9b0909b", "is_reserved": 0, "lon": -77.03495166666667, "is_disabled": 0, "fusion_lat": 0.0, "lat": 38.91706883333333, "bike_id": "a7fba2b708126abcff2b88caa9b0909b", "fusion_lon": 0.0}, {"rental_uris": {"ios": "https://dc.lft.to/lastmile_qr_scan", "android": "https://dc.lft.to/lastmile_qr_scan"}, "type": "electric_scooter", "name": "9894f388b796cfdf503139c5eca3dc18", "is_reserved": 0, "lon": -77.05220883333334, "is_disabled": 0, "fusion_lat": 0.0, "lat": 38.88910416666667, "bike_id": "9894f388b796cfdf503139c5eca3dc18", "fusion_lon": 0.0}, {"rental_uris": {"ios": "https://dc.lft.to/lastmile_qr_scan", "android": "https://dc.lft.to/lastmile_qr_scan"}, "type": "electric_bike", "name": "a7538bf6f01af7858c2b66ac73cf05c1", "is_reserved": 0, "lon": -77.09627883333333, "is_disabled": 0, "fusion_lat": 0.0, "lat": 38.952518833333336, "bike_id": "a7538bf6f01af7858c2b66ac73cf05c1", "fusion_lon": 0.0}, {"rental_uris": {"ios": "https://dc.lft.to/lastmile_qr_scan", "android": "https://dc.lft.to/lastmile_qr_scan"}, "type": "electric_scooter", "name": "21df275e57c4500d2c38e73d1b785619", "is_reserved": 0, "lon": -77.01168733333333, "is_disabled": 0, "fusion_lat": 0.0, "lat": 38.896571, "bike_id": "21df275e57c4500d2c38e73d1b785619", "fusion_lon": 0.0}, {"rental_uris": {"ios": "https://dc.lft.to/lastmile_qr_scan", "android": "https://dc.lft.to/lastmile_qr_scan"}, "type": "electric_scooter", "name": "98a33a28cb7a8a28c85c5b60369e1c3a", "is_reserved": 0, "lon": -76.93179916666666, "is_disabled": 0, "fusion_lat": 0.0, "lat": 38.89874183333333, "bike_id": "98a33a28cb7a8a28c85c5b60369e1c3a", "fusion_lon": 0.0}, {"rental_uris": {"ios": "https://dc.lft.to/lastmile_qr_scan", "android": "https://dc.lft.to/lastmile_qr_scan"}, "type": "electric_bike", "name": "5e9ec3c7bcd2895197598d72cdca95b3", "is_reserved": 0, "lon": -77.03880866666667, "is_disabled": 0, "fusion_lat": 0.0, "lat": 39.02635183333334, "bike_id": "5e9ec3c7bcd2895197598d72cdca95b3", "fusion_lon": 0.0}, {"rental_uris": {"ios": "https://dc.lft.to/lastmile_qr_scan", "android": "https://dc.lft.to/lastmile_qr_scan"}, "type": "electric_bike", "name": "58d66bf15c0a583cc41a7a95d1a8cd86", "is_reserved": 0, "lon": -77.12741583333333, "is_disabled": 0, "fusion_lat": 0.0, "lat": 38.895672, "bike_id": "58d66bf15c0a583cc41a7a95d1a8cd86", "fusion_lon": 0.0}, {"rental_uris": {"ios": "https://dc.lft.to/lastmile_qr_scan", "android": "https://dc.lft.to/lastmile_qr_scan"}, "type": "electric_scooter", "name": "97eec46e80f8d7a155d6403df5fcc56e", "is_reserved": 0, "lon": -77.01759466666667, "is_disabled": 0, "fusion_lat": 0.0, "lat": 38.87686583333333, "bike_id": "97eec46e80f8d7a155d6403df5fcc56e", "fusion_lon": 0.0}, {"rental_uris": {"ios": "https://dc.lft.to/lastmile_qr_scan", "android": "https://dc.lft.to/lastmile_qr_scan"}, "type": "electric_scooter", "name": "c8642fb2c73898ba80900fc70ed68fe2", "is_reserved": 0, "lon": -76.985326, "is_disabled": 0, "fusion_lat": 0.0, "lat": 38.912917166666666, "bike_id": "c8642fb2c73898ba80900fc70ed68fe2", "fusion_lon": 0.0}, {"rental_uris": {"ios": "https://dc.lft.to/lastmile_qr_scan", "android": "https://dc.lft.to/lastmile_qr_scan"}, "type": "electric_scooter", "name": "0fc1e0ebfef4069ffaa9ae59dba8d211", "is_reserved": 0, "lon": -76.94870283333333, "is_disabled": 0, "fusion_lat": 0.0, "lat": 38.8948745, "bike_id": "0fc1e0ebfef4069ffaa9ae59dba8d211", "fusion_lon": 0.0}, {"rental_uris": {"ios": "https://dc.lft.to/lastmile_qr_scan", "android": "https://dc.lft.to/lastmile_qr_scan"}, "type": "electric_scooter", "name": "663f82ed84fa4666cf5b8de27a749723", "is_reserved": 0, "lon": -76.92633533333333, "is_disabled": 0, "fusion_lat": 0.0, "lat": 38.88365683333333, "bike_id": "663f82ed84fa4666cf5b8de27a749723", "fusion_lon": 0.0}, {"rental_uris": {"ios": "https://dc.lft.to/lastmile_qr_scan", "android": "https://dc.lft.to/lastmile_qr_scan"}, "type": "electric_scooter", "name": "364e22c46b54fe3d00d11dc64c380fde", "is_reserved": 0, "lon": -77.04781833333334, "is_disabled": 0, "fusion_lat": 0.0, "lat": 38.90859016666667, "bike_id": "364e22c46b54fe3d00d11dc64c380fde", "fusion_lon": 0.0}, {"rental_uris": {"ios": "https://dc.lft.to/lastmile_qr_scan", "android": "https://dc.lft.to/lastmile_qr_scan"}, "type": "electric_scooter", "name": "80110bd53c23bca1dfed8f5fd537b3b6", "is_reserved": 0, "lon": -77.03623683333333, "is_disabled": 0, "fusion_lat": 0.0, "lat": 38.9037845, "bike_id": "80110bd53c23bca1dfed8f5fd537b3b6", "fusion_lon": 0.0}, {"rental_uris": {"ios": "https://dc.lft.to/lastmile_qr_scan", "android": "https://dc.lft.to/lastmile_qr_scan"}, "type": "electric_scooter", "name": "fa3148daa5f49300f4c608cf92b73cfb", "is_reserved": 0, "lon": -77.00591766666666, "is_disabled": 0, "fusion_lat": 0.0, "lat": 38.8757055, "bike_id": "fa3148daa5f49300f4c608cf92b73cfb", "fusion_lon": 0.0}, {"rental_uris": {"ios": "https://dc.lft.to/lastmile_qr_scan", "android": "https://dc.lft.to/lastmile_qr_scan"}, "type": "electric_scooter", "name": "5e5cbf5c8e796cfbe6340a38bb5ef8f9", "is_reserved": 0, "lon": -77.04543933333333, "is_disabled": 0, "fusion_lat": 0.0, "lat": 38.91323516666667, "bike_id": "5e5cbf5c8e796cfbe6340a38bb5ef8f9", "fusion_lon": 0.0}, {"rental_uris": {"ios": "https://dc.lft.to/lastmile_qr_scan", "android": "https://dc.lft.to/lastmile_qr_scan"}, "type": "electric_scooter", "name": "94f7c5326840f5730ac6211d5faa9e90", "is_reserved": 0, "lon": -77.04059816666667, "is_disabled": 0, "fusion_lat": 0.0, "lat": 38.91764533333333, "bike_id": "94f7c5326840f5730ac6211d5faa9e90", "fusion_lon": 0.0}, {"rental_uris": {"ios": "https://dc.lft.to/lastmile_qr_scan", "android": "https://dc.lft.to/lastmile_qr_scan"}, "type": "electric_scooter", "name": "615a89621464db51172fc3342db5777c", "is_reserved": 0, "lon": -77.050308, "is_disabled": 0, "fusion_lat": 0.0, "lat": 38.89671383333334, "bike_id": "615a89621464db51172fc3342db5777c", "fusion_lon": 0.0}, {"rental_uris": {"ios": "https://dc.lft.to/lastmile_qr_scan", "android": "https://dc.lft.to/lastmile_qr_scan"}, "type": "electric_scooter", "name": "aa24f7552c60bdf1b24ef284465b7efa", "is_reserved": 0, "lon": -77.02754166666666, "is_disabled": 0, "fusion_lat": 0.0, "lat": 38.95779483333333, "bike_id": "aa24f7552c60bdf1b24ef284465b7efa", "fusion_lon": 0.0}, {"rental_uris": {"ios": "https://dc.lft.to/lastmile_qr_scan", "android": "https://dc.lft.to/lastmile_qr_scan"}, "type": "electric_scooter", "name": "d2367d4ed7b224e8357e91f9d4006829", "is_reserved": 0, "lon": -77.02404, "is_disabled": 0, "fusion_lat": 0.0, "lat": 38.927088166666664, "bike_id": "d2367d4ed7b224e8357e91f9d4006829", "fusion_lon": 0.0}, {"rental_uris": {"ios": "https://dc.lft.to/lastmile_qr_scan", "android": "https://dc.lft.to/lastmile_qr_scan"}, "type": "electric_scooter", "name": "ca65409d29295dfbff3bdd32b5de33f1", "is_reserved": 0, "lon": -77.02478316666667, "is_disabled": 0, "fusion_lat": 0.0, "lat": 38.903960833333336, "bike_id": "ca65409d29295dfbff3bdd32b5de33f1", "fusion_lon": 0.0}, {"rental_uris": {"ios": "https://dc.lft.to/lastmile_qr_scan", "android": "https://dc.lft.to/lastmile_qr_scan"}, "type": "electric_scooter", "name": "d7ed4c9d205802b90cdb1763aa368761", "is_reserved": 0, "lon": -77.02219966666667, "is_disabled": 0, "fusion_lat": 0.0, "lat": 38.920703, "bike_id": "d7ed4c9d205802b90cdb1763aa368761", "fusion_lon": 0.0}, {"rental_uris": {"ios": "https://dc.lft.to/lastmile_qr_scan", "android": "https://dc.lft.to/lastmile_qr_scan"}, "type": "electric_scooter", "name": "e59de6d91d9c8aee7799cbdac39479b4", "is_reserved": 0, "lon": -77.01861666666667, "is_disabled": 0, "fusion_lat": 0.0, "lat": 38.89952383333333, "bike_id": "e59de6d91d9c8aee7799cbdac39479b4", "fusion_lon": 0.0}, {"rental_uris": {"ios": "https://dc.lft.to/lastmile_qr_scan", "android": "https://dc.lft.to/lastmile_qr_scan"}, "type": "electric_bike", "name": "98f1512ddb83b92421892b09383052c4", "is_reserved": 0, "lon": -77.10749266666667, "is_disabled": 0, "fusion_lat": 0.0, "lat": 38.855262333333336, "bike_id": "98f1512ddb83b92421892b09383052c4", "fusion_lon": 0.0}, {"rental_uris": {"ios": "https://dc.lft.to/lastmile_qr_scan", "android": "https://dc.lft.to/lastmile_qr_scan"}, "type": "electric_scooter", "name": "756efd41bba0f37f34a1d7dce43e81c0", "is_reserved": 0, "lon": -77.03059733333333, "is_disabled": 0, "fusion_lat": 0.0, "lat": 38.9267165, "bike_id": "756efd41bba0f37f34a1d7dce43e81c0", "fusion_lon": 0.0}, {"rental_uris": {"ios": "https://dc.lft.to/lastmile_qr_scan", "android": "https://dc.lft.to/lastmile_qr_scan"}, "type": "electric_scooter", "name": "96723b8275f06930b0f66a35aa480f06", "is_reserved": 0, "lon": -77.04854916666666, "is_disabled": 0, "fusion_lat": 0.0, "lat": 38.905627333333335, "bike_id": "96723b8275f06930b0f66a35aa480f06", "fusion_lon": 0.0}, {"rental_uris": {"ios": "https://dc.lft.to/lastmile_qr_scan", "android": "https://dc.lft.to/lastmile_qr_scan"}, "type": "electric_scooter", "name": "27b55ea83784d61c665004b9b2deb1f8", "is_reserved": 0, "lon": -77.04230966666667, "is_disabled": 0, "fusion_lat": 0.0, "lat": 38.9213995, "bike_id": "27b55ea83784d61c665004b9b2deb1f8", "fusion_lon": 0.0}, {"rental_uris": {"ios": "https://dc.lft.to/lastmile_qr_scan", "android": "https://dc.lft.to/lastmile_qr_scan"}, "type": "electric_scooter", "name": "99e6f73cfe3420db4d789b92e0c3bb4e", "is_reserved": 0, "lon": -77.03753533333334, "is_disabled": 0, "fusion_lat": 0.0, "lat": 38.92893316666667, "bike_id": "99e6f73cfe3420db4d789b92e0c3bb4e", "fusion_lon": 0.0}, {"rental_uris": {"ios": "https://dc.lft.to/lastmile_qr_scan", "android": "https://dc.lft.to/lastmile_qr_scan"}, "type": "electric_scooter", "name": "48a92a920178b0fc4dbd1ab0c83f96d9", "is_reserved": 0, "lon": -77.0205295, "is_disabled": 0, "fusion_lat": 0.0, "lat": 38.92929866666667, "bike_id": "48a92a920178b0fc4dbd1ab0c83f96d9", "fusion_lon": 0.0}, {"rental_uris": {"ios": "https://dc.lft.to/lastmile_qr_scan", "android": "https://dc.lft.to/lastmile_qr_scan"}, "type": "electric_bike", "name": "409af9fdd305b426c03d7b79005df06f", "is_reserved": 0, "lon": -76.99439566666666, "is_disabled": 0, "fusion_lat": 0.0, "lat": 38.83105716666667, "bike_id": "409af9fdd305b426c03d7b79005df06f", "fusion_lon": 0.0}, {"rental_uris": {"ios": "https://dc.lft.to/lastmile_qr_scan", "android": "https://dc.lft.to/lastmile_qr_scan"}, "type": "electric_scooter", "name": "58deeae00df8113a6addf31509be1414", "is_reserved": 0, "lon": -77.02148666666666, "is_disabled": 0, "fusion_lat": 0.0, "lat": 38.88758766666667, "bike_id": "58deeae00df8113a6addf31509be1414", "fusion_lon": 0.0}, {"rental_uris": {"ios": "https://dc.lft.to/lastmile_qr_scan", "android": "https://dc.lft.to/lastmile_qr_scan"}, "type": "electric_scooter", "name": "fb28e29134272434c21440f3ab553744", "is_reserved": 0, "lon": -77.03666033333333, "is_disabled": 0, "fusion_lat": 0.0, "lat": 38.921228666666664, "bike_id": "fb28e29134272434c21440f3ab553744", "fusion_lon": 0.0}, {"rental_uris": {"ios": "https://dc.lft.to/lastmile_qr_scan", "android": "https://dc.lft.to/lastmile_qr_scan"}, "type": "electric_scooter", "name": "c156a50c7f041d007b9338bd524d0507", "is_reserved": 0, "lon": -77.04855633333334, "is_disabled": 0, "fusion_lat": 0.0, "lat": 38.9126045, "bike_id": "c156a50c7f041d007b9338bd524d0507", "fusion_lon": 0.0}, {"rental_uris": {"ios": "https://dc.lft.to/lastmile_qr_scan", "android": "https://dc.lft.to/lastmile_qr_scan"}, "type": "electric_scooter", "name": "f00b41ccfcc6d591c269bc3fc7f243f4", "is_reserved": 0, "lon": -77.0384575, "is_disabled": 0, "fusion_lat": 0.0, "lat": 38.916586333333335, "bike_id": "f00b41ccfcc6d591c269bc3fc7f243f4", "fusion_lon": 0.0}, {"rental_uris": {"ios": "https://dc.lft.to/lastmile_qr_scan", "android": "https://dc.lft.to/lastmile_qr_scan"}, "type": "electric_scooter", "name": "03fb9a8fc729311b0b46998b066e3457", "is_reserved": 0, "lon": -77.03213483333333, "is_disabled": 0, "fusion_lat": 0.0, "lat": 38.916948, "bike_id": "03fb9a8fc729311b0b46998b066e3457", "fusion_lon": 0.0}, {"rental_uris": {"ios": "https://dc.lft.to/lastmile_qr_scan", "android": "https://dc.lft.to/lastmile_qr_scan"}, "type": "electric_scooter", "name": "586d70ba0fe2ca920004e54d86a2a662", "is_reserved": 0, "lon": -77.0317685, "is_disabled": 0, "fusion_lat": 0.0, "lat": 38.918298166666666, "bike_id": "586d70ba0fe2ca920004e54d86a2a662", "fusion_lon": 0.0}, {"rental_uris": {"ios": "https://dc.lft.to/lastmile_qr_scan", "android": "https://dc.lft.to/lastmile_qr_scan"}, "type": "electric_scooter", "name": "f32f0859b362f63fd28a6170b724bd03", "is_reserved": 0, "lon": -77.0253495, "is_disabled": 0, "fusion_lat": 0.0, "lat": 38.94533066666666, "bike_id": "f32f0859b362f63fd28a6170b724bd03", "fusion_lon": 0.0}, {"rental_uris": {"ios": "https://dc.lft.to/lastmile_qr_scan", "android": "https://dc.lft.to/lastmile_qr_scan"}, "type": "electric_scooter", "name": "ce3aa2ce65df0fad9cf9ef56dd559c9b", "is_reserved": 0, "lon": -77.036678, "is_disabled": 0, "fusion_lat": 0.0, "lat": 38.93206383333333, "bike_id": "ce3aa2ce65df0fad9cf9ef56dd559c9b", "fusion_lon": 0.0}, {"rental_uris": {"ios": "https://dc.lft.to/lastmile_qr_scan", "android": "https://dc.lft.to/lastmile_qr_scan"}, "type": "electric_scooter", "name": "f674c28dd028477d12ec0ef15f4fee3e", "is_reserved": 0, "lon": -77.04943, "is_disabled": 0, "fusion_lat": 0.0, "lat": 38.9097595, "bike_id": "f674c28dd028477d12ec0ef15f4fee3e", "fusion_lon": 0.0}, {"rental_uris": {"ios": "https://dc.lft.to/lastmile_qr_scan", "android": "https://dc.lft.to/lastmile_qr_scan"}, "type": "electric_scooter", "name": "7a4eb6b00529288c8b055b23a08f269b", "is_reserved": 0, "lon": -76.93371116666667, "is_disabled": 0, "fusion_lat": 0.0, "lat": 38.89867133333333, "bike_id": "7a4eb6b00529288c8b055b23a08f269b", "fusion_lon": 0.0}, {"rental_uris": {"ios": "https://dc.lft.to/lastmile_qr_scan", "android": "https://dc.lft.to/lastmile_qr_scan"}, "type": "electric_scooter", "name": "8b162ce29797eb50fc254b634c0dd68e", "is_reserved": 0, "lon": -77.00250683333333, "is_disabled": 0, "fusion_lat": 0.0, "lat": 38.90053483333333, "bike_id": "8b162ce29797eb50fc254b634c0dd68e", "fusion_lon": 0.0}, {"rental_uris": {"ios": "https://dc.lft.to/lastmile_qr_scan", "android": "https://dc.lft.to/lastmile_qr_scan"}, "type": "electric_scooter", "name": "94717b67dc83a9453a0bfd2ade34f1ff", "is_reserved": 0, "lon": -77.03175883333333, "is_disabled": 0, "fusion_lat": 0.0, "lat": 38.91822533333333, "bike_id": "94717b67dc83a9453a0bfd2ade34f1ff", "fusion_lon": 0.0}, {"rental_uris": {"ios": "https://dc.lft.to/lastmile_qr_scan", "android": "https://dc.lft.to/lastmile_qr_scan"}, "type": "electric_scooter", "name": "7294d2f3f36f0cc0eaf1aac77245e7d1", "is_reserved": 0, "lon": -76.98889333333334, "is_disabled": 0, "fusion_lat": 0.0, "lat": 38.90648616666667, "bike_id": "7294d2f3f36f0cc0eaf1aac77245e7d1", "fusion_lon": 0.0}, {"rental_uris": {"ios": "https://dc.lft.to/lastmile_qr_scan", "android": "https://dc.lft.to/lastmile_qr_scan"}, "type": "electric_scooter", "name": "11accae3bce1a27ca863f4b3ba1eec97", "is_reserved": 0, "lon": -77.03659116666667, "is_disabled": 0, "fusion_lat": 0.0, "lat": 38.92289683333333, "bike_id": "11accae3bce1a27ca863f4b3ba1eec97", "fusion_lon": 0.0}, {"rental_uris": {"ios": "https://dc.lft.to/lastmile_qr_scan", "android": "https://dc.lft.to/lastmile_qr_scan"}, "type": "electric_scooter", "name": "3ef9d31fee1b10a4f76e3c63df4f2926", "is_reserved": 0, "lon": -77.00210383333334, "is_disabled": 0, "fusion_lat": 0.0, "lat": 38.91456566666667, "bike_id": "3ef9d31fee1b10a4f76e3c63df4f2926", "fusion_lon": 0.0}, {"rental_uris": {"ios": "https://dc.lft.to/lastmile_qr_scan", "android": "https://dc.lft.to/lastmile_qr_scan"}, "type": "electric_bike", "name": "b4b0b6ac5c56dbc9549935791248eafb", "is_reserved": 0, "lon": -77.04312283333333, "is_disabled": 0, "fusion_lat": 0.0, "lat": 39.03422833333333, "bike_id": "b4b0b6ac5c56dbc9549935791248eafb", "fusion_lon": 0.0}, {"rental_uris": {"ios": "https://dc.lft.to/lastmile_qr_scan", "android": "https://dc.lft.to/lastmile_qr_scan"}, "type": "electric_scooter", "name": "43603879fb134c7db76ae8cc224d37d3", "is_reserved": 0, "lon": -77.03204033333333, "is_disabled": 0, "fusion_lat": 0.0, "lat": 38.907251333333335, "bike_id": "43603879fb134c7db76ae8cc224d37d3", "fusion_lon": 0.0}, {"rental_uris": {"ios": "https://dc.lft.to/lastmile_qr_scan", "android": "https://dc.lft.to/lastmile_qr_scan"}, "type": "electric_scooter", "name": "661427540e9c56e11191503bbf92fc37", "is_reserved": 0, "lon": -77.04511483333333, "is_disabled": 0, "fusion_lat": 0.0, "lat": 38.90794366666667, "bike_id": "661427540e9c56e11191503bbf92fc37", "fusion_lon": 0.0}, {"rental_uris": {"ios": "https://dc.lft.to/lastmile_qr_scan", "android": "https://dc.lft.to/lastmile_qr_scan"}, "type": "electric_scooter", "name": "2d2ffdfb6b113bd0f30b00089682a130", "is_reserved": 0, "lon": -77.01757716666667, "is_disabled": 0, "fusion_lat": 0.0, "lat": 38.87686333333333, "bike_id": "2d2ffdfb6b113bd0f30b00089682a130", "fusion_lon": 0.0}, {"rental_uris": {"ios": "https://dc.lft.to/lastmile_qr_scan", "android": "https://dc.lft.to/lastmile_qr_scan"}, "type": "electric_scooter", "name": "98f7b7f7b0fc2e84adf8ca937d65f1b8", "is_reserved": 0, "lon": -76.97375283333334, "is_disabled": 0, "fusion_lat": 0.0, "lat": 38.8499715, "bike_id": "98f7b7f7b0fc2e84adf8ca937d65f1b8", "fusion_lon": 0.0}, {"rental_uris": {"ios": "https://dc.lft.to/lastmile_qr_scan", "android": "https://dc.lft.to/lastmile_qr_scan"}, "type": "electric_bike", "name": "a8b2284d63a77f60d7057f6f4ce5fac6", "is_reserved": 0, "lon": -77.11357733333334, "is_disabled": 0, "fusion_lat": 0.0, "lat": 38.84195483333333, "bike_id": "a8b2284d63a77f60d7057f6f4ce5fac6", "fusion_lon": 0.0}, {"rental_uris": {"ios": "https://dc.lft.to/lastmile_qr_scan", "android": "https://dc.lft.to/lastmile_qr_scan"}, "type": "electric_scooter", "name": "d495805ec263f351b118d5635fd153b0", "is_reserved": 0, "lon": -77.00510183333333, "is_disabled": 0, "fusion_lat": 0.0, "lat": 38.8792335, "bike_id": "d495805ec263f351b118d5635fd153b0", "fusion_lon": 0.0}, {"rental_uris": {"ios": "https://dc.lft.to/lastmile_qr_scan", "android": "https://dc.lft.to/lastmile_qr_scan"}, "type": "electric_scooter", "name": "aaa5c0408adbf1d942f2c38ccbb42b9c", "is_reserved": 0, "lon": -77.010099, "is_disabled": 0, "fusion_lat": 0.0, "lat": 38.906436166666666, "bike_id": "aaa5c0408adbf1d942f2c38ccbb42b9c", "fusion_lon": 0.0}, {"rental_uris": {"ios": "https://dc.lft.to/lastmile_qr_scan", "android": "https://dc.lft.to/lastmile_qr_scan"}, "type": "electric_scooter", "name": "cb7c8b1fc949f458f572db11b1a02827", "is_reserved": 0, "lon": -77.07450233333333, "is_disabled": 0, "fusion_lat": 0.0, "lat": 38.93782733333333, "bike_id": "cb7c8b1fc949f458f572db11b1a02827", "fusion_lon": 0.0}, {"rental_uris": {"ios": "https://dc.lft.to/lastmile_qr_scan", "android": "https://dc.lft.to/lastmile_qr_scan"}, "type": "electric_scooter", "name": "13c2ea55c9e99f0ef3c83ef47158ffd9", "is_reserved": 0, "lon": -77.0328645, "is_disabled": 0, "fusion_lat": 0.0, "lat": 38.932622333333335, "bike_id": "13c2ea55c9e99f0ef3c83ef47158ffd9", "fusion_lon": 0.0}, {"rental_uris": {"ios": "https://dc.lft.to/lastmile_qr_scan", "android": "https://dc.lft.to/lastmile_qr_scan"}, "type": "electric_scooter", "name": "95fea1d492c5fbcd495e1147427487cd", "is_reserved": 0, "lon": -77.0178085, "is_disabled": 0, "fusion_lat": 0.0, "lat": 38.9004135, "bike_id": "95fea1d492c5fbcd495e1147427487cd", "fusion_lon": 0.0}, {"rental_uris": {"ios": "https://dc.lft.to/lastmile_qr_scan", "android": "https://dc.lft.to/lastmile_qr_scan"}, "type": "electric_scooter", "name": "981db0ee96b82f21195f6b24223ac1cf", "is_reserved": 0, "lon": -76.99673616666666, "is_disabled": 0, "fusion_lat": 0.0, "lat": 38.88471783333333, "bike_id": "981db0ee96b82f21195f6b24223ac1cf", "fusion_lon": 0.0}, {"rental_uris": {"ios": "https://dc.lft.to/lastmile_qr_scan", "android": "https://dc.lft.to/lastmile_qr_scan"}, "type": "electric_scooter", "name": "52ca9c423d936d5fce589b7f82878495", "is_reserved": 0, "lon": -76.981126, "is_disabled": 0, "fusion_lat": 0.0, "lat": 38.902531333333336, "bike_id": "52ca9c423d936d5fce589b7f82878495", "fusion_lon": 0.0}, {"rental_uris": {"ios": "https://dc.lft.to/lastmile_qr_scan", "android": "https://dc.lft.to/lastmile_qr_scan"}, "type": "electric_scooter", "name": "662427ecc848a7c3433e0d8e267a76c0", "is_reserved": 0, "lon": -76.99344083333334, "is_disabled": 0, "fusion_lat": 0.0, "lat": 38.87691433333333, "bike_id": "662427ecc848a7c3433e0d8e267a76c0", "fusion_lon": 0.0}, {"rental_uris": {"ios": "https://dc.lft.to/lastmile_qr_scan", "android": "https://dc.lft.to/lastmile_qr_scan"}, "type": "electric_bike", "name": "55e165a1251be9691847d95c0ce12074", "is_reserved": 0, "lon": -76.98689166666666, "is_disabled": 0, "fusion_lat": 0.0, "lat": 38.9447225, "bike_id": "55e165a1251be9691847d95c0ce12074", "fusion_lon": 0.0}, {"rental_uris": {"ios": "https://dc.lft.to/lastmile_qr_scan", "android": "https://dc.lft.to/lastmile_qr_scan"}, "type": "electric_scooter", "name": "56474a5e09b3eb4a88aafe538fad1ac2", "is_reserved": 0, "lon": -77.023992, "is_disabled": 0, "fusion_lat": 0.0, "lat": 38.933905833333334, "bike_id": "56474a5e09b3eb4a88aafe538fad1ac2", "fusion_lon": 0.0}, {"rental_uris": {"ios": "https://dc.lft.to/lastmile_qr_scan", "android": "https://dc.lft.to/lastmile_qr_scan"}, "type": "electric_scooter", "name": "e2093ed6f97d0541ffe70a93f969b124", "is_reserved": 0, "lon": -77.0385385, "is_disabled": 0, "fusion_lat": 0.0, "lat": 38.911742333333336, "bike_id": "e2093ed6f97d0541ffe70a93f969b124", "fusion_lon": 0.0}, {"rental_uris": {"ios": "https://dc.lft.to/lastmile_qr_scan", "android": "https://dc.lft.to/lastmile_qr_scan"}, "type": "electric_scooter", "name": "eb06561628874daa4e9472e922c80d70", "is_reserved": 0, "lon": -77.0129535, "is_disabled": 0, "fusion_lat": 0.0, "lat": 38.9018995, "bike_id": "eb06561628874daa4e9472e922c80d70", "fusion_lon": 0.0}, {"rental_uris": {"ios": "https://dc.lft.to/lastmile_qr_scan", "android": "https://dc.lft.to/lastmile_qr_scan"}, "type": "electric_scooter", "name": "b8e2f09d8a49382ff2205b5dc1a439f7", "is_reserved": 0, "lon": -76.98358266666666, "is_disabled": 0, "fusion_lat": 0.0, "lat": 38.887441833333334, "bike_id": "b8e2f09d8a49382ff2205b5dc1a439f7", "fusion_lon": 0.0}, {"rental_uris": {"ios": "https://dc.lft.to/lastmile_qr_scan", "android": "https://dc.lft.to/lastmile_qr_scan"}, "type": "electric_scooter", "name": "91a70e7355392b5eb659ba2dfa33490c", "is_reserved": 0, "lon": -77.030291, "is_disabled": 0, "fusion_lat": 0.0, "lat": 38.92663133333333, "bike_id": "91a70e7355392b5eb659ba2dfa33490c", "fusion_lon": 0.0}, {"rental_uris": {"ios": "https://dc.lft.to/lastmile_qr_scan", "android": "https://dc.lft.to/lastmile_qr_scan"}, "type": "electric_scooter", "name": "b38846cd39bca413e0c4312f521ec7f8", "is_reserved": 0, "lon": -76.99903816666667, "is_disabled": 0, "fusion_lat": 0.0, "lat": 38.93746516666667, "bike_id": "b38846cd39bca413e0c4312f521ec7f8", "fusion_lon": 0.0}, {"rental_uris": {"ios": "https://dc.lft.to/lastmile_qr_scan", "android": "https://dc.lft.to/lastmile_qr_scan"}, "type": "electric_scooter", "name": "5c5f8df425c04c85bc8a8b9e2a6d29c8", "is_reserved": 0, "lon": -77.01886816666666, "is_disabled": 0, "fusion_lat": 0.0, "lat": 38.874711166666664, "bike_id": "5c5f8df425c04c85bc8a8b9e2a6d29c8", "fusion_lon": 0.0}, {"rental_uris": {"ios": "https://dc.lft.to/lastmile_qr_scan", "android": "https://dc.lft.to/lastmile_qr_scan"}, "type": "electric_bike", "name": "c3a34535f444e6bc1402ff6a11633663", "is_reserved": 0, "lon": -77.12890266666666, "is_disabled": 0, "fusion_lat": 0.0, "lat": 38.906062666666664, "bike_id": "c3a34535f444e6bc1402ff6a11633663", "fusion_lon": 0.0}, {"rental_uris": {"ios": "https://dc.lft.to/lastmile_qr_scan", "android": "https://dc.lft.to/lastmile_qr_scan"}, "type": "electric_scooter", "name": "f6b59e1b7a29c675bc44a4af2de7f250", "is_reserved": 0, "lon": -77.04003966666667, "is_disabled": 0, "fusion_lat": 0.0, "lat": 38.93422116666667, "bike_id": "f6b59e1b7a29c675bc44a4af2de7f250", "fusion_lon": 0.0}, {"rental_uris": {"ios": "https://dc.lft.to/lastmile_qr_scan", "android": "https://dc.lft.to/lastmile_qr_scan"}, "type": "electric_scooter", "name": "2cfa4c44dc854ff83229fc5848980d82", "is_reserved": 0, "lon": -77.00930166666667, "is_disabled": 0, "fusion_lat": 0.0, "lat": 38.897771, "bike_id": "2cfa4c44dc854ff83229fc5848980d82", "fusion_lon": 0.0}, {"rental_uris": {"ios": "https://dc.lft.to/lastmile_qr_scan", "android": "https://dc.lft.to/lastmile_qr_scan"}, "type": "electric_scooter", "name": "95bc0962d334a3d7b340d923b6f797dc", "is_reserved": 0, "lon": -77.0237795, "is_disabled": 0, "fusion_lat": 0.0, "lat": 38.903321166666665, "bike_id": "95bc0962d334a3d7b340d923b6f797dc", "fusion_lon": 0.0}, {"rental_uris": {"ios": "https://dc.lft.to/lastmile_qr_scan", "android": "https://dc.lft.to/lastmile_qr_scan"}, "type": "electric_scooter", "name": "7be0cf4ee4bd28db36ed51e5a3b3f5f0", "is_reserved": 0, "lon": -77.0355915, "is_disabled": 0, "fusion_lat": 0.0, "lat": 38.92736716666667, "bike_id": "7be0cf4ee4bd28db36ed51e5a3b3f5f0", "fusion_lon": 0.0}, {"rental_uris": {"ios": "https://dc.lft.to/lastmile_qr_scan", "android": "https://dc.lft.to/lastmile_qr_scan"}, "type": "electric_scooter", "name": "269e4f6e9560570b344d4236772461e0", "is_reserved": 0, "lon": -76.99143166666667, "is_disabled": 0, "fusion_lat": 0.0, "lat": 38.8733765, "bike_id": "269e4f6e9560570b344d4236772461e0", "fusion_lon": 0.0}, {"rental_uris": {"ios": "https://dc.lft.to/lastmile_qr_scan", "android": "https://dc.lft.to/lastmile_qr_scan"}, "type": "electric_scooter", "name": "749b9645e6a30082c65b69e246e6d73a", "is_reserved": 0, "lon": -76.985361, "is_disabled": 0, "fusion_lat": 0.0, "lat": 38.879618, "bike_id": "749b9645e6a30082c65b69e246e6d73a", "fusion_lon": 0.0}, {"rental_uris": {"ios": "https://dc.lft.to/lastmile_qr_scan", "android": "https://dc.lft.to/lastmile_qr_scan"}, "type": "electric_scooter", "name": "202b94df4be284970d7019e993295211", "is_reserved": 0, "lon": -77.02176933333334, "is_disabled": 0, "fusion_lat": 0.0, "lat": 38.92834783333333, "bike_id": "202b94df4be284970d7019e993295211", "fusion_lon": 0.0}, {"rental_uris": {"ios": "https://dc.lft.to/lastmile_qr_scan", "android": "https://dc.lft.to/lastmile_qr_scan"}, "type": "electric_scooter", "name": "0b3881026dc3ef37e66110029790fe59", "is_reserved": 0, "lon": -77.02466566666666, "is_disabled": 0, "fusion_lat": 0.0, "lat": 38.9033335, "bike_id": "0b3881026dc3ef37e66110029790fe59", "fusion_lon": 0.0}, {"rental_uris": {"ios": "https://dc.lft.to/lastmile_qr_scan", "android": "https://dc.lft.to/lastmile_qr_scan"}, "type": "electric_bike", "name": "f711a6d53a5da59c5da44caa1e182d80", "is_reserved": 0, "lon": -76.96887733333334, "is_disabled": 0, "fusion_lat": 0.0, "lat": 38.869839999999996, "bike_id": "f711a6d53a5da59c5da44caa1e182d80", "fusion_lon": 0.0}, {"rental_uris": {"ios": "https://dc.lft.to/lastmile_qr_scan", "android": "https://dc.lft.to/lastmile_qr_scan"}, "type": "electric_scooter", "name": "2a8c141c32e9050c19ca03e96f09989f", "is_reserved": 0, "lon": -77.06402716666666, "is_disabled": 0, "fusion_lat": 0.0, "lat": 38.90856483333334, "bike_id": "2a8c141c32e9050c19ca03e96f09989f", "fusion_lon": 0.0}, {"rental_uris": {"ios": "https://dc.lft.to/lastmile_qr_scan", "android": "https://dc.lft.to/lastmile_qr_scan"}, "type": "electric_scooter", "name": "6361ccaea51c25ffbf9f4ad92693011c", "is_reserved": 0, "lon": -77.03424816666667, "is_disabled": 0, "fusion_lat": 0.0, "lat": 38.9097825, "bike_id": "6361ccaea51c25ffbf9f4ad92693011c", "fusion_lon": 0.0}, {"rental_uris": {"ios": "https://dc.lft.to/lastmile_qr_scan", "android": "https://dc.lft.to/lastmile_qr_scan"}, "type": "electric_scooter", "name": "967daf02672f10fc07e5970dba3025c3", "is_reserved": 0, "lon": -77.05816133333333, "is_disabled": 0, "fusion_lat": 0.0, "lat": 38.93516733333333, "bike_id": "967daf02672f10fc07e5970dba3025c3", "fusion_lon": 0.0}, {"rental_uris": {"ios": "https://dc.lft.to/lastmile_qr_scan", "android": "https://dc.lft.to/lastmile_qr_scan"}, "type": "electric_scooter", "name": "26c4f0cf9e5e55773d9d6f6959c8fb72", "is_reserved": 0, "lon": -77.07019583333333, "is_disabled": 0, "fusion_lat": 0.0, "lat": 38.893037166666666, "bike_id": "26c4f0cf9e5e55773d9d6f6959c8fb72", "fusion_lon": 0.0}, {"rental_uris": {"ios": "https://dc.lft.to/lastmile_qr_scan", "android": "https://dc.lft.to/lastmile_qr_scan"}, "type": "electric_scooter", "name": "60fab9db0ffee27fcf7dc3affa5c968d", "is_reserved": 0, "lon": -76.99012683333333, "is_disabled": 0, "fusion_lat": 0.0, "lat": 38.86424133333333, "bike_id": "60fab9db0ffee27fcf7dc3affa5c968d", "fusion_lon": 0.0}, {"rental_uris": {"ios": "https://dc.lft.to/lastmile_qr_scan", "android": "https://dc.lft.to/lastmile_qr_scan"}, "type": "electric_scooter", "name": "e55b1f933be715d09bb56751e6949c58", "is_reserved": 0, "lon": -77.0003155, "is_disabled": 0, "fusion_lat": 0.0, "lat": 38.874393833333336, "bike_id": "e55b1f933be715d09bb56751e6949c58", "fusion_lon": 0.0}, {"rental_uris": {"ios": "https://dc.lft.to/lastmile_qr_scan", "android": "https://dc.lft.to/lastmile_qr_scan"}, "type": "electric_scooter", "name": "a667e324c81f5f4bb10514064c71e284", "is_reserved": 0, "lon": -77.00195616666667, "is_disabled": 0, "fusion_lat": 0.0, "lat": 38.911950833333336, "bike_id": "a667e324c81f5f4bb10514064c71e284", "fusion_lon": 0.0}, {"rental_uris": {"ios": "https://dc.lft.to/lastmile_qr_scan", "android": "https://dc.lft.to/lastmile_qr_scan"}, "type": "electric_scooter", "name": "dc176572f6ea09e8fa4a3394328ebe48", "is_reserved": 0, "lon": -77.04563016666667, "is_disabled": 0, "fusion_lat": 0.0, "lat": 38.909470666666664, "bike_id": "dc176572f6ea09e8fa4a3394328ebe48", "fusion_lon": 0.0}, {"rental_uris": {"ios": "https://dc.lft.to/lastmile_qr_scan", "android": "https://dc.lft.to/lastmile_qr_scan"}, "type": "electric_scooter", "name": "4392c789b7a7901b9b35b967219361b6", "is_reserved": 0, "lon": -77.02478166666667, "is_disabled": 0, "fusion_lat": 0.0, "lat": 38.91817133333333, "bike_id": "4392c789b7a7901b9b35b967219361b6", "fusion_lon": 0.0}, {"rental_uris": {"ios": "https://dc.lft.to/lastmile_qr_scan", "android": "https://dc.lft.to/lastmile_qr_scan"}, "type": "electric_bike", "name": "f2c0f16ec3f40779957cf1d44a085520", "is_reserved": 0, "lon": -77.12937766666667, "is_disabled": 0, "fusion_lat": 0.0, "lat": 38.865878, "bike_id": "f2c0f16ec3f40779957cf1d44a085520", "fusion_lon": 0.0}, {"rental_uris": {"ios": "https://dc.lft.to/lastmile_qr_scan", "android": "https://dc.lft.to/lastmile_qr_scan"}, "type": "electric_scooter", "name": "3cbe0624247f7a7262ca674d78c50441", "is_reserved": 0, "lon": -76.93185216666667, "is_disabled": 0, "fusion_lat": 0.0, "lat": 38.898724666666666, "bike_id": "3cbe0624247f7a7262ca674d78c50441", "fusion_lon": 0.0}, {"rental_uris": {"ios": "https://dc.lft.to/lastmile_qr_scan", "android": "https://dc.lft.to/lastmile_qr_scan"}, "type": "electric_scooter", "name": "11fa9259302676ae1225bfc76ed8ee28", "is_reserved": 0, "lon": -77.05528, "is_disabled": 0, "fusion_lat": 0.0, "lat": 38.9100055, "bike_id": "11fa9259302676ae1225bfc76ed8ee28", "fusion_lon": 0.0}, {"rental_uris": {"ios": "https://dc.lft.to/lastmile_qr_scan", "android": "https://dc.lft.to/lastmile_qr_scan"}, "type": "electric_scooter", "name": "f73a429708f47536456eaad617bd8815", "is_reserved": 0, "lon": -77.03831766666667, "is_disabled": 0, "fusion_lat": 0.0, "lat": 38.96264, "bike_id": "f73a429708f47536456eaad617bd8815", "fusion_lon": 0.0}, {"rental_uris": {"ios": "https://dc.lft.to/lastmile_qr_scan", "android": "https://dc.lft.to/lastmile_qr_scan"}, "type": "electric_scooter", "name": "7b92b4a5f0f099eaf83a2ad52278b0a9", "is_reserved": 0, "lon": -77.01495733333333, "is_disabled": 0, "fusion_lat": 0.0, "lat": 38.926706833333334, "bike_id": "7b92b4a5f0f099eaf83a2ad52278b0a9", "fusion_lon": 0.0}, {"rental_uris": {"ios": "https://dc.lft.to/lastmile_qr_scan", "android": "https://dc.lft.to/lastmile_qr_scan"}, "type": "electric_scooter", "name": "bc25d927b11ad2fae117a7c77bb1c741", "is_reserved": 0, "lon": -77.04589116666666, "is_disabled": 0, "fusion_lat": 0.0, "lat": 38.918552166666665, "bike_id": "bc25d927b11ad2fae117a7c77bb1c741", "fusion_lon": 0.0}, {"rental_uris": {"ios": "https://dc.lft.to/lastmile_qr_scan", "android": "https://dc.lft.to/lastmile_qr_scan"}, "type": "electric_scooter", "name": "b7425e1b8f6ca1d247fc3daab2beb70b", "is_reserved": 0, "lon": -76.99912133333333, "is_disabled": 0, "fusion_lat": 0.0, "lat": 38.900601, "bike_id": "b7425e1b8f6ca1d247fc3daab2beb70b", "fusion_lon": 0.0}, {"rental_uris": {"ios": "https://dc.lft.to/lastmile_qr_scan", "android": "https://dc.lft.to/lastmile_qr_scan"}, "type": "electric_scooter", "name": "7267408ff2f2a96f9121d8b61f0f6f89", "is_reserved": 0, "lon": -77.021637, "is_disabled": 0, "fusion_lat": 0.0, "lat": 38.92496916666666, "bike_id": "7267408ff2f2a96f9121d8b61f0f6f89", "fusion_lon": 0.0}, {"rental_uris": {"ios": "https://dc.lft.to/lastmile_qr_scan", "android": "https://dc.lft.to/lastmile_qr_scan"}, "type": "electric_scooter", "name": "cb860d879aa16f7b0bd5980b125684a7", "is_reserved": 0, "lon": -77.04373966666667, "is_disabled": 0, "fusion_lat": 0.0, "lat": 38.892223333333334, "bike_id": "cb860d879aa16f7b0bd5980b125684a7", "fusion_lon": 0.0}, {"rental_uris": {"ios": "https://dc.lft.to/lastmile_qr_scan", "android": "https://dc.lft.to/lastmile_qr_scan"}, "type": "electric_bike", "name": "a3e94c8e8ace0f34057b3fe331c1ad81", "is_reserved": 0, "lon": -76.94146566666667, "is_disabled": 0, "fusion_lat": 0.0, "lat": 38.89019533333333, "bike_id": "a3e94c8e8ace0f34057b3fe331c1ad81", "fusion_lon": 0.0}, {"rental_uris": {"ios": "https://dc.lft.to/lastmile_qr_scan", "android": "https://dc.lft.to/lastmile_qr_scan"}, "type": "electric_scooter", "name": "c079e7bdb00e34a3d7848fac3196a360", "is_reserved": 0, "lon": -77.00744833333333, "is_disabled": 0, "fusion_lat": 0.0, "lat": 38.87847033333333, "bike_id": "c079e7bdb00e34a3d7848fac3196a360", "fusion_lon": 0.0}, {"rental_uris": {"ios": "https://dc.lft.to/lastmile_qr_scan", "android": "https://dc.lft.to/lastmile_qr_scan"}, "type": "electric_scooter", "name": "6571343b905683c63bbf6d12f0d6e375", "is_reserved": 0, "lon": -77.050277, "is_disabled": 0, "fusion_lat": 0.0, "lat": 38.89659566666667, "bike_id": "6571343b905683c63bbf6d12f0d6e375", "fusion_lon": 0.0}, {"rental_uris": {"ios": "https://dc.lft.to/lastmile_qr_scan", "android": "https://dc.lft.to/lastmile_qr_scan"}, "type": "electric_scooter", "name": "6ee4d54168ba30d2022970a0755e2525", "is_reserved": 0, "lon": -77.02580166666667, "is_disabled": 0, "fusion_lat": 0.0, "lat": 38.8872085, "bike_id": "6ee4d54168ba30d2022970a0755e2525", "fusion_lon": 0.0}, {"rental_uris": {"ios": "https://dc.lft.to/lastmile_qr_scan", "android": "https://dc.lft.to/lastmile_qr_scan"}, "type": "electric_bike", "name": "c7eaa6e85269e22f652da0e08d8ba390", "is_reserved": 0, "lon": -76.995498, "is_disabled": 0, "fusion_lat": 0.0, "lat": 38.862171833333335, "bike_id": "c7eaa6e85269e22f652da0e08d8ba390", "fusion_lon": 0.0}, {"rental_uris": {"ios": "https://dc.lft.to/lastmile_qr_scan", "android": "https://dc.lft.to/lastmile_qr_scan"}, "type": "electric_scooter", "name": "d8b3e4d0f642326aee37accd106e80bf", "is_reserved": 0, "lon": -77.0201375, "is_disabled": 0, "fusion_lat": 0.0, "lat": 38.911166333333334, "bike_id": "d8b3e4d0f642326aee37accd106e80bf", "fusion_lon": 0.0}, {"rental_uris": {"ios": "https://dc.lft.to/lastmile_qr_scan", "android": "https://dc.lft.to/lastmile_qr_scan"}, "type": "electric_bike", "name": "7bf19bb3e18279df44f04553205773a6", "is_reserved": 0, "lon": -76.90741616666666, "is_disabled": 0, "fusion_lat": 0.0, "lat": 38.896172666666665, "bike_id": "7bf19bb3e18279df44f04553205773a6", "fusion_lon": 0.0}, {"rental_uris": {"ios": "https://dc.lft.to/lastmile_qr_scan", "android": "https://dc.lft.to/lastmile_qr_scan"}, "type": "electric_scooter", "name": "0f35fca7a3f66dda01392cc1991fd2e8", "is_reserved": 0, "lon": -77.03021083333333, "is_disabled": 0, "fusion_lat": 0.0, "lat": 38.87844666666667, "bike_id": "0f35fca7a3f66dda01392cc1991fd2e8", "fusion_lon": 0.0}, {"rental_uris": {"ios": "https://dc.lft.to/lastmile_qr_scan", "android": "https://dc.lft.to/lastmile_qr_scan"}, "type": "electric_scooter", "name": "2bbcd382182826b9a830a35ce63230d9", "is_reserved": 0, "lon": -77.00744533333334, "is_disabled": 0, "fusion_lat": 0.0, "lat": 38.899164666666664, "bike_id": "2bbcd382182826b9a830a35ce63230d9", "fusion_lon": 0.0}, {"rental_uris": {"ios": "https://dc.lft.to/lastmile_qr_scan", "android": "https://dc.lft.to/lastmile_qr_scan"}, "type": "electric_scooter", "name": "1e04f37f57754e3fd936712937e26ccb", "is_reserved": 0, "lon": -77.05754866666666, "is_disabled": 0, "fusion_lat": 0.0, "lat": 38.92499933333333, "bike_id": "1e04f37f57754e3fd936712937e26ccb", "fusion_lon": 0.0}, {"rental_uris": {"ios": "https://dc.lft.to/lastmile_qr_scan", "android": "https://dc.lft.to/lastmile_qr_scan"}, "type": "electric_scooter", "name": "1917cdb865bf188a9517951ab6087095", "is_reserved": 0, "lon": -77.0460285, "is_disabled": 0, "fusion_lat": 0.0, "lat": 38.90581316666667, "bike_id": "1917cdb865bf188a9517951ab6087095", "fusion_lon": 0.0}, {"rental_uris": {"ios": "https://dc.lft.to/lastmile_qr_scan", "android": "https://dc.lft.to/lastmile_qr_scan"}, "type": "electric_bike", "name": "78427d5199a0c5e30b9e1e5d1c124d12", "is_reserved": 0, "lon": -76.99801316666667, "is_disabled": 0, "fusion_lat": 0.0, "lat": 38.9084895, "bike_id": "78427d5199a0c5e30b9e1e5d1c124d12", "fusion_lon": 0.0}, {"rental_uris": {"ios": "https://dc.lft.to/lastmile_qr_scan", "android": "https://dc.lft.to/lastmile_qr_scan"}, "type": "electric_scooter", "name": "91fd13540635d6b84b16303fe37c7a98", "is_reserved": 0, "lon": -77.03161683333333, "is_disabled": 0, "fusion_lat": 0.0, "lat": 38.916250166666664, "bike_id": "91fd13540635d6b84b16303fe37c7a98", "fusion_lon": 0.0}, {"rental_uris": {"ios": "https://dc.lft.to/lastmile_qr_scan", "android": "https://dc.lft.to/lastmile_qr_scan"}, "type": "electric_scooter", "name": "f528a13d2fa03a07df1ab791c168f4f3", "is_reserved": 0, "lon": -76.9940895, "is_disabled": 0, "fusion_lat": 0.0, "lat": 38.87783483333333, "bike_id": "f528a13d2fa03a07df1ab791c168f4f3", "fusion_lon": 0.0}, {"rental_uris": {"ios": "https://dc.lft.to/lastmile_qr_scan", "android": "https://dc.lft.to/lastmile_qr_scan"}, "type": "electric_scooter", "name": "a0bace93ea62d317325a9e7b74b11f37", "is_reserved": 0, "lon": -77.03521516666666, "is_disabled": 0, "fusion_lat": 0.0, "lat": 38.92216883333333, "bike_id": "a0bace93ea62d317325a9e7b74b11f37", "fusion_lon": 0.0}, {"rental_uris": {"ios": "https://dc.lft.to/lastmile_qr_scan", "android": "https://dc.lft.to/lastmile_qr_scan"}, "type": "electric_scooter", "name": "c8327a1f76367ada7751af03c8d5f6e1", "is_reserved": 0, "lon": -77.0288035, "is_disabled": 0, "fusion_lat": 0.0, "lat": 38.90731266666667, "bike_id": "c8327a1f76367ada7751af03c8d5f6e1", "fusion_lon": 0.0}, {"rental_uris": {"ios": "https://dc.lft.to/lastmile_qr_scan", "android": "https://dc.lft.to/lastmile_qr_scan"}, "type": "electric_scooter", "name": "643224685432e427ad33d1d408f7419c", "is_reserved": 0, "lon": -77.05059866666667, "is_disabled": 0, "fusion_lat": 0.0, "lat": 38.92354433333333, "bike_id": "643224685432e427ad33d1d408f7419c", "fusion_lon": 0.0}, {"rental_uris": {"ios": "https://dc.lft.to/lastmile_qr_scan", "android": "https://dc.lft.to/lastmile_qr_scan"}, "type": "electric_bike", "name": "0ba2ce01b0a6670f61b52595b956fdab", "is_reserved": 0, "lon": -76.90299833333333, "is_disabled": 0, "fusion_lat": 0.0, "lat": 39.002902, "bike_id": "0ba2ce01b0a6670f61b52595b956fdab", "fusion_lon": 0.0}, {"rental_uris": {"ios": "https://dc.lft.to/lastmile_qr_scan", "android": "https://dc.lft.to/lastmile_qr_scan"}, "type": "electric_scooter", "name": "57e376ae3ff1cfef7eec2d49ccddc5d7", "is_reserved": 0, "lon": -76.99838883333334, "is_disabled": 0, "fusion_lat": 0.0, "lat": 38.902985, "bike_id": "57e376ae3ff1cfef7eec2d49ccddc5d7", "fusion_lon": 0.0}, {"rental_uris": {"ios": "https://dc.lft.to/lastmile_qr_scan", "android": "https://dc.lft.to/lastmile_qr_scan"}, "type": "electric_scooter", "name": "6a059d94f1cdb4ffc79a8e9b2882da0e", "is_reserved": 0, "lon": -77.00574883333333, "is_disabled": 0, "fusion_lat": 0.0, "lat": 38.909302833333335, "bike_id": "6a059d94f1cdb4ffc79a8e9b2882da0e", "fusion_lon": 0.0}, {"rental_uris": {"ios": "https://dc.lft.to/lastmile_qr_scan", "android": "https://dc.lft.to/lastmile_qr_scan"}, "type": "electric_scooter", "name": "914ddf448da9ab695d69202268d9067a", "is_reserved": 0, "lon": -77.0372555, "is_disabled": 0, "fusion_lat": 0.0, "lat": 38.926415, "bike_id": "914ddf448da9ab695d69202268d9067a", "fusion_lon": 0.0}, {"rental_uris": {"ios": "https://dc.lft.to/lastmile_qr_scan", "android": "https://dc.lft.to/lastmile_qr_scan"}, "type": "electric_scooter", "name": "e699dab9fd1ea9ebf147331b56096746", "is_reserved": 0, "lon": -77.05510833333334, "is_disabled": 0, "fusion_lat": 0.0, "lat": 38.928376666666665, "bike_id": "e699dab9fd1ea9ebf147331b56096746", "fusion_lon": 0.0}, {"rental_uris": {"ios": "https://dc.lft.to/lastmile_qr_scan", "android": "https://dc.lft.to/lastmile_qr_scan"}, "type": "electric_bike", "name": "8dab7b4ad4f93c769ad5c5c8c51ab6fd", "is_reserved": 0, "lon": -77.06954033333334, "is_disabled": 0, "fusion_lat": 0.0, "lat": 38.9557905, "bike_id": "8dab7b4ad4f93c769ad5c5c8c51ab6fd", "fusion_lon": 0.0}, {"rental_uris": {"ios": "https://dc.lft.to/lastmile_qr_scan", "android": "https://dc.lft.to/lastmile_qr_scan"}, "type": "electric_scooter", "name": "e3692c8377fb6d6e9a71278665c4e7f2", "is_reserved": 0, "lon": -77.0156225, "is_disabled": 0, "fusion_lat": 0.0, "lat": 38.876389333333336, "bike_id": "e3692c8377fb6d6e9a71278665c4e7f2", "fusion_lon": 0.0}, {"rental_uris": {"ios": "https://dc.lft.to/lastmile_qr_scan", "android": "https://dc.lft.to/lastmile_qr_scan"}, "type": "electric_scooter", "name": "feb4d7f3ceec58ceb22c36bb91f6e5b7", "is_reserved": 0, "lon": -77.02599483333333, "is_disabled": 0, "fusion_lat": 0.0, "lat": 38.946088333333336, "bike_id": "feb4d7f3ceec58ceb22c36bb91f6e5b7", "fusion_lon": 0.0}, {"rental_uris": {"ios": "https://dc.lft.to/lastmile_qr_scan", "android": "https://dc.lft.to/lastmile_qr_scan"}, "type": "electric_bike", "name": "7c011b1102105b7fcf49a25d86d0f5d3", "is_reserved": 0, "lon": -77.21667416666666, "is_disabled": 0, "fusion_lat": 0.0, "lat": 38.895080666666665, "bike_id": "7c011b1102105b7fcf49a25d86d0f5d3", "fusion_lon": 0.0}, {"rental_uris": {"ios": "https://dc.lft.to/lastmile_qr_scan", "android": "https://dc.lft.to/lastmile_qr_scan"}, "type": "electric_scooter", "name": "7ed7fd92eb6ad69e683e0fa1ea45968a", "is_reserved": 0, "lon": -77.01512266666667, "is_disabled": 0, "fusion_lat": 0.0, "lat": 38.909776666666666, "bike_id": "7ed7fd92eb6ad69e683e0fa1ea45968a", "fusion_lon": 0.0}, {"rental_uris": {"ios": "https://dc.lft.to/lastmile_qr_scan", "android": "https://dc.lft.to/lastmile_qr_scan"}, "type": "electric_bike", "name": "6a05b48aeff6ab2141fde4f9a3dd4952", "is_reserved": 0, "lon": -77.0972525, "is_disabled": 0, "fusion_lat": 0.0, "lat": 38.80739166666667, "bike_id": "6a05b48aeff6ab2141fde4f9a3dd4952", "fusion_lon": 0.0}, {"rental_uris": {"ios": "https://dc.lft.to/lastmile_qr_scan", "android": "https://dc.lft.to/lastmile_qr_scan"}, "type": "electric_scooter", "name": "4f92aba50afe9e6ac3c9832784af337f", "is_reserved": 0, "lon": -77.04130033333334, "is_disabled": 0, "fusion_lat": 0.0, "lat": 38.93384366666667, "bike_id": "4f92aba50afe9e6ac3c9832784af337f", "fusion_lon": 0.0}, {"rental_uris": {"ios": "https://dc.lft.to/lastmile_qr_scan", "android": "https://dc.lft.to/lastmile_qr_scan"}, "type": "electric_scooter", "name": "e9585f64bc6af0c9adbe5b5ddc1c370c", "is_reserved": 0, "lon": -77.01525866666667, "is_disabled": 0, "fusion_lat": 0.0, "lat": 38.90262516666667, "bike_id": "e9585f64bc6af0c9adbe5b5ddc1c370c", "fusion_lon": 0.0}, {"rental_uris": {"ios": "https://dc.lft.to/lastmile_qr_scan", "android": "https://dc.lft.to/lastmile_qr_scan"}, "type": "electric_bike", "name": "c4a034fd5307199a5da43f502327a599", "is_reserved": 0, "lon": -77.06524166666667, "is_disabled": 0, "fusion_lat": 0.0, "lat": 38.99231483333333, "bike_id": "c4a034fd5307199a5da43f502327a599", "fusion_lon": 0.0}, {"rental_uris": {"ios": "https://dc.lft.to/lastmile_qr_scan", "android": "https://dc.lft.to/lastmile_qr_scan"}, "type": "electric_bike", "name": "f6776f4a43647afe1d9a32b30f4601a3", "is_reserved": 0, "lon": -77.03193633333333, "is_disabled": 0, "fusion_lat": 0.0, "lat": 38.9209875, "bike_id": "f6776f4a43647afe1d9a32b30f4601a3", "fusion_lon": 0.0}, {"rental_uris": {"ios": "https://dc.lft.to/lastmile_qr_scan", "android": "https://dc.lft.to/lastmile_qr_scan"}, "type": "electric_scooter", "name": "711bf09decb761ef95cadd0affde5fb4", "is_reserved": 0, "lon": -77.054101, "is_disabled": 0, "fusion_lat": 0.0, "lat": 38.90079733333334, "bike_id": "711bf09decb761ef95cadd0affde5fb4", "fusion_lon": 0.0}, {"rental_uris": {"ios": "https://dc.lft.to/lastmile_qr_scan", "android": "https://dc.lft.to/lastmile_qr_scan"}, "type": "electric_scooter", "name": "ac26fe6f15f01d2e6006725398c6d473", "is_reserved": 0, "lon": -77.02702916666667, "is_disabled": 0, "fusion_lat": 0.0, "lat": 38.90528366666667, "bike_id": "ac26fe6f15f01d2e6006725398c6d473", "fusion_lon": 0.0}, {"rental_uris": {"ios": "https://dc.lft.to/lastmile_qr_scan", "android": "https://dc.lft.to/lastmile_qr_scan"}, "type": "electric_scooter", "name": "4b53c3d2e8f56a07622e02c5aa3e3f17", "is_reserved": 0, "lon": -77.053061, "is_disabled": 0, "fusion_lat": 0.0, "lat": 38.90263016666667, "bike_id": "4b53c3d2e8f56a07622e02c5aa3e3f17", "fusion_lon": 0.0}, {"rental_uris": {"ios": "https://dc.lft.to/lastmile_qr_scan", "android": "https://dc.lft.to/lastmile_qr_scan"}, "type": "electric_scooter", "name": "4877a47cf65ece2d7bbb3e9f7917cff5", "is_reserved": 0, "lon": -77.01438883333333, "is_disabled": 0, "fusion_lat": 0.0, "lat": 38.902478333333335, "bike_id": "4877a47cf65ece2d7bbb3e9f7917cff5", "fusion_lon": 0.0}, {"rental_uris": {"ios": "https://dc.lft.to/lastmile_qr_scan", "android": "https://dc.lft.to/lastmile_qr_scan"}, "type": "electric_scooter", "name": "82411f84cc885ac5c6da36eaf0b7de1c", "is_reserved": 0, "lon": -77.005716, "is_disabled": 0, "fusion_lat": 0.0, "lat": 38.879029333333335, "bike_id": "82411f84cc885ac5c6da36eaf0b7de1c", "fusion_lon": 0.0}, {"rental_uris": {"ios": "https://dc.lft.to/lastmile_qr_scan", "android": "https://dc.lft.to/lastmile_qr_scan"}, "type": "electric_scooter", "name": "12d9498580e6d4891df6858ea9daee46", "is_reserved": 0, "lon": -77.0450645, "is_disabled": 0, "fusion_lat": 0.0, "lat": 38.907226, "bike_id": "12d9498580e6d4891df6858ea9daee46", "fusion_lon": 0.0}, {"rental_uris": {"ios": "https://dc.lft.to/lastmile_qr_scan", "android": "https://dc.lft.to/lastmile_qr_scan"}, "type": "electric_scooter", "name": "bd87990887edfc187b4144fd3992488e", "is_reserved": 0, "lon": -77.02869416666667, "is_disabled": 0, "fusion_lat": 0.0, "lat": 38.90314733333334, "bike_id": "bd87990887edfc187b4144fd3992488e", "fusion_lon": 0.0}, {"rental_uris": {"ios": "https://dc.lft.to/lastmile_qr_scan", "android": "https://dc.lft.to/lastmile_qr_scan"}, "type": "electric_bike", "name": "d091201071612ebb646c61a15440e56c", "is_reserved": 0, "lon": -77.0202705, "is_disabled": 0, "fusion_lat": 0.0, "lat": 38.96558066666667, "bike_id": "d091201071612ebb646c61a15440e56c", "fusion_lon": 0.0}, {"rental_uris": {"ios": "https://dc.lft.to/lastmile_qr_scan", "android": "https://dc.lft.to/lastmile_qr_scan"}, "type": "electric_scooter", "name": "8f03580d2f8032ffddf5bc42f6633123", "is_reserved": 0, "lon": -77.0346265, "is_disabled": 0, "fusion_lat": 0.0, "lat": 38.90835216666667, "bike_id": "8f03580d2f8032ffddf5bc42f6633123", "fusion_lon": 0.0}, {"rental_uris": {"ios": "https://dc.lft.to/lastmile_qr_scan", "android": "https://dc.lft.to/lastmile_qr_scan"}, "type": "electric_scooter", "name": "bbb7dd8794e0a62e07786d006ff5d4ee", "is_reserved": 0, "lon": -77.0229295, "is_disabled": 0, "fusion_lat": 0.0, "lat": 38.96126783333333, "bike_id": "bbb7dd8794e0a62e07786d006ff5d4ee", "fusion_lon": 0.0}, {"rental_uris": {"ios": "https://dc.lft.to/lastmile_qr_scan", "android": "https://dc.lft.to/lastmile_qr_scan"}, "type": "electric_bike", "name": "983942ba630056ac93ef1676a261abe8", "is_reserved": 0, "lon": -77.00208216666667, "is_disabled": 0, "fusion_lat": 0.0, "lat": 38.988484666666665, "bike_id": "983942ba630056ac93ef1676a261abe8", "fusion_lon": 0.0}, {"rental_uris": {"ios": "https://dc.lft.to/lastmile_qr_scan", "android": "https://dc.lft.to/lastmile_qr_scan"}, "type": "electric_scooter", "name": "e22f5ab507de1850cf5d2dd9c121ac1e", "is_reserved": 0, "lon": -77.02398883333333, "is_disabled": 0, "fusion_lat": 0.0, "lat": 38.917108, "bike_id": "e22f5ab507de1850cf5d2dd9c121ac1e", "fusion_lon": 0.0}, {"rental_uris": {"ios": "https://dc.lft.to/lastmile_qr_scan", "android": "https://dc.lft.to/lastmile_qr_scan"}, "type": "electric_scooter", "name": "90b95d5c867898d20192d236ca45e9b8", "is_reserved": 0, "lon": -77.01787466666667, "is_disabled": 0, "fusion_lat": 0.0, "lat": 38.902584833333336, "bike_id": "90b95d5c867898d20192d236ca45e9b8", "fusion_lon": 0.0}, {"rental_uris": {"ios": "https://dc.lft.to/lastmile_qr_scan", "android": "https://dc.lft.to/lastmile_qr_scan"}, "type": "electric_scooter", "name": "16e73ba5d0f199a6fb892f8a0d3ca320", "is_reserved": 0, "lon": -77.03372916666666, "is_disabled": 0, "fusion_lat": 0.0, "lat": 38.910335833333335, "bike_id": "16e73ba5d0f199a6fb892f8a0d3ca320", "fusion_lon": 0.0}, {"rental_uris": {"ios": "https://dc.lft.to/lastmile_qr_scan", "android": "https://dc.lft.to/lastmile_qr_scan"}, "type": "electric_bike", "name": "a35533eab4d17bdb5e7665e15a3837ca", "is_reserved": 0, "lon": -77.0127655, "is_disabled": 0, "fusion_lat": 0.0, "lat": 38.9004035, "bike_id": "a35533eab4d17bdb5e7665e15a3837ca", "fusion_lon": 0.0}, {"rental_uris": {"ios": "https://dc.lft.to/lastmile_qr_scan", "android": "https://dc.lft.to/lastmile_qr_scan"}, "type": "electric_bike", "name": "729ef996529cbd88e644d253c04463e5", "is_reserved": 0, "lon": -77.00274066666667, "is_disabled": 0, "fusion_lat": 0.0, "lat": 38.911920333333335, "bike_id": "729ef996529cbd88e644d253c04463e5", "fusion_lon": 0.0}, {"rental_uris": {"ios": "https://dc.lft.to/lastmile_qr_scan", "android": "https://dc.lft.to/lastmile_qr_scan"}, "type": "electric_scooter", "name": "fa7bce771c0f298f90511f8a7ab5c7ce", "is_reserved": 0, "lon": -77.028139, "is_disabled": 0, "fusion_lat": 0.0, "lat": 38.956446666666665, "bike_id": "fa7bce771c0f298f90511f8a7ab5c7ce", "fusion_lon": 0.0}, {"rental_uris": {"ios": "https://dc.lft.to/lastmile_qr_scan", "android": "https://dc.lft.to/lastmile_qr_scan"}, "type": "electric_scooter", "name": "55385ed70dde235b862d987e28147d61", "is_reserved": 0, "lon": -77.04425566666667, "is_disabled": 0, "fusion_lat": 0.0, "lat": 38.897381333333335, "bike_id": "55385ed70dde235b862d987e28147d61", "fusion_lon": 0.0}, {"rental_uris": {"ios": "https://dc.lft.to/lastmile_qr_scan", "android": "https://dc.lft.to/lastmile_qr_scan"}, "type": "electric_scooter", "name": "6593e7dc9f6e6d99d4acd9b3e031b85a", "is_reserved": 0, "lon": -77.00604283333334, "is_disabled": 0, "fusion_lat": 0.0, "lat": 38.87564783333333, "bike_id": "6593e7dc9f6e6d99d4acd9b3e031b85a", "fusion_lon": 0.0}, {"rental_uris": {"ios": "https://dc.lft.to/lastmile_qr_scan", "android": "https://dc.lft.to/lastmile_qr_scan"}, "type": "electric_scooter", "name": "f16166c35d31055f7a220c3cba97250d", "is_reserved": 0, "lon": -77.03334233333334, "is_disabled": 0, "fusion_lat": 0.0, "lat": 38.902592, "bike_id": "f16166c35d31055f7a220c3cba97250d", "fusion_lon": 0.0}, {"rental_uris": {"ios": "https://dc.lft.to/lastmile_qr_scan", "android": "https://dc.lft.to/lastmile_qr_scan"}, "type": "electric_scooter", "name": "3ad2496d528c76fac20cb43714419c12", "is_reserved": 0, "lon": -77.06382083333334, "is_disabled": 0, "fusion_lat": 0.0, "lat": 38.944726833333334, "bike_id": "3ad2496d528c76fac20cb43714419c12", "fusion_lon": 0.0}, {"rental_uris": {"ios": "https://dc.lft.to/lastmile_qr_scan", "android": "https://dc.lft.to/lastmile_qr_scan"}, "type": "electric_bike", "name": "006b7a65afcbc606ac99b3c0b4de6000", "is_reserved": 0, "lon": -77.07131166666667, "is_disabled": 0, "fusion_lat": 0.0, "lat": 38.88982983333333, "bike_id": "006b7a65afcbc606ac99b3c0b4de6000", "fusion_lon": 0.0}, {"rental_uris": {"ios": "https://dc.lft.to/lastmile_qr_scan", "android": "https://dc.lft.to/lastmile_qr_scan"}, "type": "electric_scooter", "name": "13846dd9e6e60006a77e1fd342362da0", "is_reserved": 0, "lon": -77.03297333333333, "is_disabled": 0, "fusion_lat": 0.0, "lat": 38.90469083333333, "bike_id": "13846dd9e6e60006a77e1fd342362da0", "fusion_lon": 0.0}, {"rental_uris": {"ios": "https://dc.lft.to/lastmile_qr_scan", "android": "https://dc.lft.to/lastmile_qr_scan"}, "type": "electric_scooter", "name": "61dd2ec0c518d839de332822dc57e016", "is_reserved": 0, "lon": -77.04597966666667, "is_disabled": 0, "fusion_lat": 0.0, "lat": 38.923360833333334, "bike_id": "61dd2ec0c518d839de332822dc57e016", "fusion_lon": 0.0}, {"rental_uris": {"ios": "https://dc.lft.to/lastmile_qr_scan", "android": "https://dc.lft.to/lastmile_qr_scan"}, "type": "electric_scooter", "name": "eeacfaa3beb90d25ad2773ab957380ff", "is_reserved": 0, "lon": -77.06604633333333, "is_disabled": 0, "fusion_lat": 0.0, "lat": 38.91107733333333, "bike_id": "eeacfaa3beb90d25ad2773ab957380ff", "fusion_lon": 0.0}, {"rental_uris": {"ios": "https://dc.lft.to/lastmile_qr_scan", "android": "https://dc.lft.to/lastmile_qr_scan"}, "type": "electric_scooter", "name": "ed94cd30eba165013ab7c2cd8afdb06d", "is_reserved": 0, "lon": -77.04756416666666, "is_disabled": 0, "fusion_lat": 0.0, "lat": 38.8958905, "bike_id": "ed94cd30eba165013ab7c2cd8afdb06d", "fusion_lon": 0.0}, {"rental_uris": {"ios": "https://dc.lft.to/lastmile_qr_scan", "android": "https://dc.lft.to/lastmile_qr_scan"}, "type": "electric_scooter", "name": "83fa9b58d100b38ea654fcd0c1ded774", "is_reserved": 0, "lon": -77.04171683333334, "is_disabled": 0, "fusion_lat": 0.0, "lat": 38.91086833333333, "bike_id": "83fa9b58d100b38ea654fcd0c1ded774", "fusion_lon": 0.0}, {"rental_uris": {"ios": "https://dc.lft.to/lastmile_qr_scan", "android": "https://dc.lft.to/lastmile_qr_scan"}, "type": "electric_scooter", "name": "8349da0715893d74fe16868c5c551327", "is_reserved": 0, "lon": -77.017491, "is_disabled": 0, "fusion_lat": 0.0, "lat": 38.91417083333333, "bike_id": "8349da0715893d74fe16868c5c551327", "fusion_lon": 0.0}, {"rental_uris": {"ios": "https://dc.lft.to/lastmile_qr_scan", "android": "https://dc.lft.to/lastmile_qr_scan"}, "type": "electric_scooter", "name": "a95f83363c8f8a222f9019111fc33794", "is_reserved": 0, "lon": -77.022098, "is_disabled": 0, "fusion_lat": 0.0, "lat": 38.89850366666667, "bike_id": "a95f83363c8f8a222f9019111fc33794", "fusion_lon": 0.0}, {"rental_uris": {"ios": "https://dc.lft.to/lastmile_qr_scan", "android": "https://dc.lft.to/lastmile_qr_scan"}, "type": "electric_bike", "name": "8fb5201a6dd4f82c6916bf64cf747e6b", "is_reserved": 0, "lon": -76.999033, "is_disabled": 0, "fusion_lat": 0.0, "lat": 38.994663, "bike_id": "8fb5201a6dd4f82c6916bf64cf747e6b", "fusion_lon": 0.0}, {"rental_uris": {"ios": "https://dc.lft.to/lastmile_qr_scan", "android": "https://dc.lft.to/lastmile_qr_scan"}, "type": "electric_scooter", "name": "0881632bea52b2c3c2b7bc689850be13", "is_reserved": 0, "lon": -76.99485833333334, "is_disabled": 0, "fusion_lat": 0.0, "lat": 38.899738666666664, "bike_id": "0881632bea52b2c3c2b7bc689850be13", "fusion_lon": 0.0}, {"rental_uris": {"ios": "https://dc.lft.to/lastmile_qr_scan", "android": "https://dc.lft.to/lastmile_qr_scan"}, "type": "electric_scooter", "name": "3ee98ae0b291b4ae626471dc4572c873", "is_reserved": 0, "lon": -77.027944, "is_disabled": 0, "fusion_lat": 0.0, "lat": 38.956085, "bike_id": "3ee98ae0b291b4ae626471dc4572c873", "fusion_lon": 0.0}, {"rental_uris": {"ios": "https://dc.lft.to/lastmile_qr_scan", "android": "https://dc.lft.to/lastmile_qr_scan"}, "type": "electric_scooter", "name": "bccda92eb2e4a5e652c690ede5cb4abe", "is_reserved": 0, "lon": -77.03655266666667, "is_disabled": 0, "fusion_lat": 0.0, "lat": 38.92284566666667, "bike_id": "bccda92eb2e4a5e652c690ede5cb4abe", "fusion_lon": 0.0}, {"rental_uris": {"ios": "https://dc.lft.to/lastmile_qr_scan", "android": "https://dc.lft.to/lastmile_qr_scan"}, "type": "electric_scooter", "name": "a731b73a69c729fc0057cd50f1a0059f", "is_reserved": 0, "lon": -77.0060735, "is_disabled": 0, "fusion_lat": 0.0, "lat": 38.906456666666664, "bike_id": "a731b73a69c729fc0057cd50f1a0059f", "fusion_lon": 0.0}, {"rental_uris": {"ios": "https://dc.lft.to/lastmile_qr_scan", "android": "https://dc.lft.to/lastmile_qr_scan"}, "type": "electric_scooter", "name": "7edcb93202b52014fdf841128400df0a", "is_reserved": 0, "lon": -77.04185266666667, "is_disabled": 0, "fusion_lat": 0.0, "lat": 38.92051566666667, "bike_id": "7edcb93202b52014fdf841128400df0a", "fusion_lon": 0.0}, {"rental_uris": {"ios": "https://dc.lft.to/lastmile_qr_scan", "android": "https://dc.lft.to/lastmile_qr_scan"}, "type": "electric_scooter", "name": "6e7a7ce98f168f30288875e947b3d1d2", "is_reserved": 0, "lon": -76.9703775, "is_disabled": 0, "fusion_lat": 0.0, "lat": 38.873152166666664, "bike_id": "6e7a7ce98f168f30288875e947b3d1d2", "fusion_lon": 0.0}, {"rental_uris": {"ios": "https://dc.lft.to/lastmile_qr_scan", "android": "https://dc.lft.to/lastmile_qr_scan"}, "type": "electric_scooter", "name": "f7e9dadf31563a873b2cb85e162e5ecc", "is_reserved": 0, "lon": -77.03245566666666, "is_disabled": 0, "fusion_lat": 0.0, "lat": 38.91043283333333, "bike_id": "f7e9dadf31563a873b2cb85e162e5ecc", "fusion_lon": 0.0}, {"rental_uris": {"ios": "https://dc.lft.to/lastmile_qr_scan", "android": "https://dc.lft.to/lastmile_qr_scan"}, "type": "electric_scooter", "name": "aa6599727c205c88329c0bfee675fc79", "is_reserved": 0, "lon": -77.02058183333334, "is_disabled": 0, "fusion_lat": 0.0, "lat": 38.90849033333333, "bike_id": "aa6599727c205c88329c0bfee675fc79", "fusion_lon": 0.0}, {"rental_uris": {"ios": "https://dc.lft.to/lastmile_qr_scan", "android": "https://dc.lft.to/lastmile_qr_scan"}, "type": "electric_scooter", "name": "c9d3162da22d768e353ddf4a09ae1a80", "is_reserved": 0, "lon": -77.01869366666666, "is_disabled": 0, "fusion_lat": 0.0, "lat": 38.9305845, "bike_id": "c9d3162da22d768e353ddf4a09ae1a80", "fusion_lon": 0.0}, {"rental_uris": {"ios": "https://dc.lft.to/lastmile_qr_scan", "android": "https://dc.lft.to/lastmile_qr_scan"}, "type": "electric_scooter", "name": "8a67368402a072f79110969c9613543e", "is_reserved": 0, "lon": -76.93742466666667, "is_disabled": 0, "fusion_lat": 0.0, "lat": 38.890088666666664, "bike_id": "8a67368402a072f79110969c9613543e", "fusion_lon": 0.0}, {"rental_uris": {"ios": "https://dc.lft.to/lastmile_qr_scan", "android": "https://dc.lft.to/lastmile_qr_scan"}, "type": "electric_scooter", "name": "61303e109dae75e4c9291a80be0e3a1d", "is_reserved": 0, "lon": -77.0532545, "is_disabled": 0, "fusion_lat": 0.0, "lat": 38.902252, "bike_id": "61303e109dae75e4c9291a80be0e3a1d", "fusion_lon": 0.0}, {"rental_uris": {"ios": "https://dc.lft.to/lastmile_qr_scan", "android": "https://dc.lft.to/lastmile_qr_scan"}, "type": "electric_scooter", "name": "fab9bac3279cae22808bf6671c7ae646", "is_reserved": 0, "lon": -77.04171916666667, "is_disabled": 0, "fusion_lat": 0.0, "lat": 38.9037175, "bike_id": "fab9bac3279cae22808bf6671c7ae646", "fusion_lon": 0.0}, {"rental_uris": {"ios": "https://dc.lft.to/lastmile_qr_scan", "android": "https://dc.lft.to/lastmile_qr_scan"}, "type": "electric_scooter", "name": "04c58baa91fa3097162e86501c9674b7", "is_reserved": 0, "lon": -77.0290385, "is_disabled": 0, "fusion_lat": 0.0, "lat": 38.9404545, "bike_id": "04c58baa91fa3097162e86501c9674b7", "fusion_lon": 0.0}, {"rental_uris": {"ios": "https://dc.lft.to/lastmile_qr_scan", "android": "https://dc.lft.to/lastmile_qr_scan"}, "type": "electric_scooter", "name": "838b4a8aa1a3bd92647db6092da0cf78", "is_reserved": 0, "lon": -77.0227115, "is_disabled": 0, "fusion_lat": 0.0, "lat": 38.924174666666666, "bike_id": "838b4a8aa1a3bd92647db6092da0cf78", "fusion_lon": 0.0}, {"rental_uris": {"ios": "https://dc.lft.to/lastmile_qr_scan", "android": "https://dc.lft.to/lastmile_qr_scan"}, "type": "electric_scooter", "name": "71ae252d8b4b0d55542ce628a0785502", "is_reserved": 0, "lon": -77.03183333333334, "is_disabled": 0, "fusion_lat": 0.0, "lat": 38.915747, "bike_id": "71ae252d8b4b0d55542ce628a0785502", "fusion_lon": 0.0}, {"rental_uris": {"ios": "https://dc.lft.to/lastmile_qr_scan", "android": "https://dc.lft.to/lastmile_qr_scan"}, "type": "electric_scooter", "name": "bedf1166aa4cc1cfcc1ef3a27e7cdd2f", "is_reserved": 0, "lon": -77.07175066666667, "is_disabled": 0, "fusion_lat": 0.0, "lat": 38.899451166666665, "bike_id": "bedf1166aa4cc1cfcc1ef3a27e7cdd2f", "fusion_lon": 0.0}, {"rental_uris": {"ios": "https://dc.lft.to/lastmile_qr_scan", "android": "https://dc.lft.to/lastmile_qr_scan"}, "type": "electric_scooter", "name": "0ad5bf33f9c6f0e4b84e876d01ddf110", "is_reserved": 0, "lon": -77.00774516666667, "is_disabled": 0, "fusion_lat": 0.0, "lat": 38.87850733333333, "bike_id": "0ad5bf33f9c6f0e4b84e876d01ddf110", "fusion_lon": 0.0}, {"rental_uris": {"ios": "https://dc.lft.to/lastmile_qr_scan", "android": "https://dc.lft.to/lastmile_qr_scan"}, "type": "electric_bike", "name": "db1f4605eb60ef61ac2136617780227a", "is_reserved": 0, "lon": -77.06693033333333, "is_disabled": 0, "fusion_lat": 0.0, "lat": 38.831678, "bike_id": "db1f4605eb60ef61ac2136617780227a", "fusion_lon": 0.0}, {"rental_uris": {"ios": "https://dc.lft.to/lastmile_qr_scan", "android": "https://dc.lft.to/lastmile_qr_scan"}, "type": "electric_scooter", "name": "de5b5ca2803b66d545d57491bbd7e4fc", "is_reserved": 0, "lon": -77.02157833333334, "is_disabled": 0, "fusion_lat": 0.0, "lat": 38.8950455, "bike_id": "de5b5ca2803b66d545d57491bbd7e4fc", "fusion_lon": 0.0}, {"rental_uris": {"ios": "https://dc.lft.to/lastmile_qr_scan", "android": "https://dc.lft.to/lastmile_qr_scan"}, "type": "electric_scooter", "name": "e49fd55c1000e82c82eb7b6a1cd2a70e", "is_reserved": 0, "lon": -77.01755533333333, "is_disabled": 0, "fusion_lat": 0.0, "lat": 38.8768745, "bike_id": "e49fd55c1000e82c82eb7b6a1cd2a70e", "fusion_lon": 0.0}, {"rental_uris": {"ios": "https://dc.lft.to/lastmile_qr_scan", "android": "https://dc.lft.to/lastmile_qr_scan"}, "type": "electric_scooter", "name": "0bfd25049650f76ed52a5ea9691ac13f", "is_reserved": 0, "lon": -77.01214316666666, "is_disabled": 0, "fusion_lat": 0.0, "lat": 38.90163233333333, "bike_id": "0bfd25049650f76ed52a5ea9691ac13f", "fusion_lon": 0.0}, {"rental_uris": {"ios": "https://dc.lft.to/lastmile_qr_scan", "android": "https://dc.lft.to/lastmile_qr_scan"}, "type": "electric_scooter", "name": "365754adf2e0e83bcee152e570a14793", "is_reserved": 0, "lon": -77.00072066666667, "is_disabled": 0, "fusion_lat": 0.0, "lat": 38.8737775, "bike_id": "365754adf2e0e83bcee152e570a14793", "fusion_lon": 0.0}, {"rental_uris": {"ios": "https://dc.lft.to/lastmile_qr_scan", "android": "https://dc.lft.to/lastmile_qr_scan"}, "type": "electric_scooter", "name": "c1c243155f811ef050f3b7892a8cfbb2", "is_reserved": 0, "lon": -77.04357033333334, "is_disabled": 0, "fusion_lat": 0.0, "lat": 38.908186, "bike_id": "c1c243155f811ef050f3b7892a8cfbb2", "fusion_lon": 0.0}, {"rental_uris": {"ios": "https://dc.lft.to/lastmile_qr_scan", "android": "https://dc.lft.to/lastmile_qr_scan"}, "type": "electric_scooter", "name": "4da677e8a2dc7877d86f1dd005b5b1c7", "is_reserved": 0, "lon": -77.04484833333333, "is_disabled": 0, "fusion_lat": 0.0, "lat": 38.90369183333333, "bike_id": "4da677e8a2dc7877d86f1dd005b5b1c7", "fusion_lon": 0.0}, {"rental_uris": {"ios": "https://dc.lft.to/lastmile_qr_scan", "android": "https://dc.lft.to/lastmile_qr_scan"}, "type": "electric_scooter", "name": "1b41f00e8fb9ff50c7d526f319bd76c5", "is_reserved": 0, "lon": -77.02717483333333, "is_disabled": 0, "fusion_lat": 0.0, "lat": 38.910153333333334, "bike_id": "1b41f00e8fb9ff50c7d526f319bd76c5", "fusion_lon": 0.0}, {"rental_uris": {"ios": "https://dc.lft.to/lastmile_qr_scan", "android": "https://dc.lft.to/lastmile_qr_scan"}, "type": "electric_scooter", "name": "6e12f3bc4b3ac7abe7b7eec4acc91cd0", "is_reserved": 0, "lon": -76.97360083333334, "is_disabled": 0, "fusion_lat": 0.0, "lat": 38.850208, "bike_id": "6e12f3bc4b3ac7abe7b7eec4acc91cd0", "fusion_lon": 0.0}, {"rental_uris": {"ios": "https://dc.lft.to/lastmile_qr_scan", "android": "https://dc.lft.to/lastmile_qr_scan"}, "type": "electric_scooter", "name": "4798866164d3ef1851d5c5f08ad4e95e", "is_reserved": 0, "lon": -77.03537516666667, "is_disabled": 0, "fusion_lat": 0.0, "lat": 38.923398166666665, "bike_id": "4798866164d3ef1851d5c5f08ad4e95e", "fusion_lon": 0.0}, {"rental_uris": {"ios": "https://dc.lft.to/lastmile_qr_scan", "android": "https://dc.lft.to/lastmile_qr_scan"}, "type": "electric_scooter", "name": "244c8029f3da4a4d2b9ea8a05be25bfd", "is_reserved": 0, "lon": -77.08183633333333, "is_disabled": 0, "fusion_lat": 0.0, "lat": 38.9332335, "bike_id": "244c8029f3da4a4d2b9ea8a05be25bfd", "fusion_lon": 0.0}, {"rental_uris": {"ios": "https://dc.lft.to/lastmile_qr_scan", "android": "https://dc.lft.to/lastmile_qr_scan"}, "type": "electric_scooter", "name": "b7e482155bc0fa02e8ad1bff32deebc2", "is_reserved": 0, "lon": -77.03210583333333, "is_disabled": 0, "fusion_lat": 0.0, "lat": 38.916295166666664, "bike_id": "b7e482155bc0fa02e8ad1bff32deebc2", "fusion_lon": 0.0}, {"rental_uris": {"ios": "https://dc.lft.to/lastmile_qr_scan", "android": "https://dc.lft.to/lastmile_qr_scan"}, "type": "electric_scooter", "name": "1204bd64d890658564c502fc122dfd1a", "is_reserved": 0, "lon": -76.98532733333333, "is_disabled": 0, "fusion_lat": 0.0, "lat": 38.8808055, "bike_id": "1204bd64d890658564c502fc122dfd1a", "fusion_lon": 0.0}, {"rental_uris": {"ios": "https://dc.lft.to/lastmile_qr_scan", "android": "https://dc.lft.to/lastmile_qr_scan"}, "type": "electric_scooter", "name": "727bad6784cbd8b21214e03fdc252530", "is_reserved": 0, "lon": -76.98699816666667, "is_disabled": 0, "fusion_lat": 0.0, "lat": 38.85961066666667, "bike_id": "727bad6784cbd8b21214e03fdc252530", "fusion_lon": 0.0}, {"rental_uris": {"ios": "https://dc.lft.to/lastmile_qr_scan", "android": "https://dc.lft.to/lastmile_qr_scan"}, "type": "electric_scooter", "name": "dcc5e336ac769f71d8946f1dea11fc9c", "is_reserved": 0, "lon": -77.014334, "is_disabled": 0, "fusion_lat": 0.0, "lat": 38.920244833333335, "bike_id": "dcc5e336ac769f71d8946f1dea11fc9c", "fusion_lon": 0.0}, {"rental_uris": {"ios": "https://dc.lft.to/lastmile_qr_scan", "android": "https://dc.lft.to/lastmile_qr_scan"}, "type": "electric_scooter", "name": "65915e76d96f88e876469b724f19bc58", "is_reserved": 0, "lon": -76.9951225, "is_disabled": 0, "fusion_lat": 0.0, "lat": 38.88988466666667, "bike_id": "65915e76d96f88e876469b724f19bc58", "fusion_lon": 0.0}, {"rental_uris": {"ios": "https://dc.lft.to/lastmile_qr_scan", "android": "https://dc.lft.to/lastmile_qr_scan"}, "type": "electric_scooter", "name": "9f4370b1aa0b4e38f0608ab121056585", "is_reserved": 0, "lon": -77.03391566666667, "is_disabled": 0, "fusion_lat": 0.0, "lat": 38.899714333333336, "bike_id": "9f4370b1aa0b4e38f0608ab121056585", "fusion_lon": 0.0}, {"rental_uris": {"ios": "https://dc.lft.to/lastmile_qr_scan", "android": "https://dc.lft.to/lastmile_qr_scan"}, "type": "electric_scooter", "name": "46c15d51f3608baba088f6e1f63056a5", "is_reserved": 0, "lon": -77.03296366666666, "is_disabled": 0, "fusion_lat": 0.0, "lat": 38.91717283333333, "bike_id": "46c15d51f3608baba088f6e1f63056a5", "fusion_lon": 0.0}, {"rental_uris": {"ios": "https://dc.lft.to/lastmile_qr_scan", "android": "https://dc.lft.to/lastmile_qr_scan"}, "type": "electric_scooter", "name": "028fbd6d692ce94b1501bfd57ae504dd", "is_reserved": 0, "lon": -77.04812416666667, "is_disabled": 0, "fusion_lat": 0.0, "lat": 38.920427, "bike_id": "028fbd6d692ce94b1501bfd57ae504dd", "fusion_lon": 0.0}, {"rental_uris": {"ios": "https://dc.lft.to/lastmile_qr_scan", "android": "https://dc.lft.to/lastmile_qr_scan"}, "type": "electric_bike", "name": "f08e1a6901e6a28a919d6a60d482cb4f", "is_reserved": 0, "lon": -77.03231316666667, "is_disabled": 0, "fusion_lat": 0.0, "lat": 38.961626333333335, "bike_id": "f08e1a6901e6a28a919d6a60d482cb4f", "fusion_lon": 0.0}, {"rental_uris": {"ios": "https://dc.lft.to/lastmile_qr_scan", "android": "https://dc.lft.to/lastmile_qr_scan"}, "type": "electric_bike", "name": "d98ae91d981aea1fea94e0d7874b3da9", "is_reserved": 0, "lon": -77.00765266666667, "is_disabled": 0, "fusion_lat": 0.0, "lat": 38.981289333333336, "bike_id": "d98ae91d981aea1fea94e0d7874b3da9", "fusion_lon": 0.0}, {"rental_uris": {"ios": "https://dc.lft.to/lastmile_qr_scan", "android": "https://dc.lft.to/lastmile_qr_scan"}, "type": "electric_scooter", "name": "1d8e9b3cc14196a81e1477c64a6d7c8c", "is_reserved": 0, "lon": -77.03160483333333, "is_disabled": 0, "fusion_lat": 0.0, "lat": 38.959352833333334, "bike_id": "1d8e9b3cc14196a81e1477c64a6d7c8c", "fusion_lon": 0.0}, {"rental_uris": {"ios": "https://dc.lft.to/lastmile_qr_scan", "android": "https://dc.lft.to/lastmile_qr_scan"}, "type": "electric_scooter", "name": "839835e2dc417191f4b7e35f53185ce3", "is_reserved": 0, "lon": -77.047931, "is_disabled": 0, "fusion_lat": 0.0, "lat": 38.899507666666665, "bike_id": "839835e2dc417191f4b7e35f53185ce3", "fusion_lon": 0.0}, {"rental_uris": {"ios": "https://dc.lft.to/lastmile_qr_scan", "android": "https://dc.lft.to/lastmile_qr_scan"}, "type": "electric_scooter", "name": "956f8dadc03b984f1426a8f6d95b1cc9", "is_reserved": 0, "lon": -76.99068533333333, "is_disabled": 0, "fusion_lat": 0.0, "lat": 38.90417466666667, "bike_id": "956f8dadc03b984f1426a8f6d95b1cc9", "fusion_lon": 0.0}, {"rental_uris": {"ios": "https://dc.lft.to/lastmile_qr_scan", "android": "https://dc.lft.to/lastmile_qr_scan"}, "type": "electric_scooter", "name": "a14da623efb7167cf59cc74fe412b115", "is_reserved": 0, "lon": -77.01232116666667, "is_disabled": 0, "fusion_lat": 0.0, "lat": 38.915775, "bike_id": "a14da623efb7167cf59cc74fe412b115", "fusion_lon": 0.0}, {"rental_uris": {"ios": "https://dc.lft.to/lastmile_qr_scan", "android": "https://dc.lft.to/lastmile_qr_scan"}, "type": "electric_scooter", "name": "6de16fecea40d9197f792cc4ace7cb1f", "is_reserved": 0, "lon": -77.043837, "is_disabled": 0, "fusion_lat": 0.0, "lat": 38.93424483333333, "bike_id": "6de16fecea40d9197f792cc4ace7cb1f", "fusion_lon": 0.0}, {"rental_uris": {"ios": "https://dc.lft.to/lastmile_qr_scan", "android": "https://dc.lft.to/lastmile_qr_scan"}, "type": "electric_scooter", "name": "65240701377d336ce75e385168ae7ead", "is_reserved": 0, "lon": -76.98335416666667, "is_disabled": 0, "fusion_lat": 0.0, "lat": 38.90080016666667, "bike_id": "65240701377d336ce75e385168ae7ead", "fusion_lon": 0.0}, {"rental_uris": {"ios": "https://dc.lft.to/lastmile_qr_scan", "android": "https://dc.lft.to/lastmile_qr_scan"}, "type": "electric_scooter", "name": "fc3e2de75de742e875b2c6c51422d112", "is_reserved": 0, "lon": -77.02284433333334, "is_disabled": 0, "fusion_lat": 0.0, "lat": 38.90959333333333, "bike_id": "fc3e2de75de742e875b2c6c51422d112", "fusion_lon": 0.0}, {"rental_uris": {"ios": "https://dc.lft.to/lastmile_qr_scan", "android": "https://dc.lft.to/lastmile_qr_scan"}, "type": "electric_bike", "name": "960e501413b94fbf8f68c491616f868c", "is_reserved": 0, "lon": -76.98877683333333, "is_disabled": 0, "fusion_lat": 0.0, "lat": 38.9211335, "bike_id": "960e501413b94fbf8f68c491616f868c", "fusion_lon": 0.0}, {"rental_uris": {"ios": "https://dc.lft.to/lastmile_qr_scan", "android": "https://dc.lft.to/lastmile_qr_scan"}, "type": "electric_scooter", "name": "a8a6fb9e3c6c4d8ed0f05ced2317614e", "is_reserved": 0, "lon": -77.01892183333334, "is_disabled": 0, "fusion_lat": 0.0, "lat": 38.8974815, "bike_id": "a8a6fb9e3c6c4d8ed0f05ced2317614e", "fusion_lon": 0.0}, {"rental_uris": {"ios": "https://dc.lft.to/lastmile_qr_scan", "android": "https://dc.lft.to/lastmile_qr_scan"}, "type": "electric_scooter", "name": "5d3bbbc913ea0f5080621a817bf63ffb", "is_reserved": 0, "lon": -77.03660483333333, "is_disabled": 0, "fusion_lat": 0.0, "lat": 38.92385733333333, "bike_id": "5d3bbbc913ea0f5080621a817bf63ffb", "fusion_lon": 0.0}, {"rental_uris": {"ios": "https://dc.lft.to/lastmile_qr_scan", "android": "https://dc.lft.to/lastmile_qr_scan"}, "type": "electric_scooter", "name": "bd63a6fbab5443ddba1e65f09511ffd0", "is_reserved": 0, "lon": -77.03049983333334, "is_disabled": 0, "fusion_lat": 0.0, "lat": 38.90731783333333, "bike_id": "bd63a6fbab5443ddba1e65f09511ffd0", "fusion_lon": 0.0}, {"rental_uris": {"ios": "https://dc.lft.to/lastmile_qr_scan", "android": "https://dc.lft.to/lastmile_qr_scan"}, "type": "electric_scooter", "name": "d08f420b06795f1372f237ac74e8fa78", "is_reserved": 0, "lon": -77.04057583333334, "is_disabled": 0, "fusion_lat": 0.0, "lat": 38.91764216666667, "bike_id": "d08f420b06795f1372f237ac74e8fa78", "fusion_lon": 0.0}, {"rental_uris": {"ios": "https://dc.lft.to/lastmile_qr_scan", "android": "https://dc.lft.to/lastmile_qr_scan"}, "type": "electric_bike", "name": "abefc5bdcbfd3abe091271c0193f94c8", "is_reserved": 0, "lon": -77.00154583333334, "is_disabled": 0, "fusion_lat": 0.0, "lat": 38.941604166666664, "bike_id": "abefc5bdcbfd3abe091271c0193f94c8", "fusion_lon": 0.0}, {"rental_uris": {"ios": "https://dc.lft.to/lastmile_qr_scan", "android": "https://dc.lft.to/lastmile_qr_scan"}, "type": "electric_scooter", "name": "e4a2446905815b88fb7a41684856629d", "is_reserved": 0, "lon": -77.05812483333334, "is_disabled": 0, "fusion_lat": 0.0, "lat": 38.93517966666667, "bike_id": "e4a2446905815b88fb7a41684856629d", "fusion_lon": 0.0}, {"rental_uris": {"ios": "https://dc.lft.to/lastmile_qr_scan", "android": "https://dc.lft.to/lastmile_qr_scan"}, "type": "electric_scooter", "name": "66f2cd9e5fba76af79f814fb8d21079d", "is_reserved": 0, "lon": -77.0563295, "is_disabled": 0, "fusion_lat": 0.0, "lat": 38.936029833333336, "bike_id": "66f2cd9e5fba76af79f814fb8d21079d", "fusion_lon": 0.0}, {"rental_uris": {"ios": "https://dc.lft.to/lastmile_qr_scan", "android": "https://dc.lft.to/lastmile_qr_scan"}, "type": "electric_scooter", "name": "9b656132bf7a01ae406a440d5ef5f45c", "is_reserved": 0, "lon": -77.04683966666667, "is_disabled": 0, "fusion_lat": 0.0, "lat": 38.89742916666667, "bike_id": "9b656132bf7a01ae406a440d5ef5f45c", "fusion_lon": 0.0}, {"rental_uris": {"ios": "https://dc.lft.to/lastmile_qr_scan", "android": "https://dc.lft.to/lastmile_qr_scan"}, "type": "electric_scooter", "name": "511ada80fb61b2334db41d8d2739bd1d", "is_reserved": 0, "lon": -77.011915, "is_disabled": 0, "fusion_lat": 0.0, "lat": 38.90019866666667, "bike_id": "511ada80fb61b2334db41d8d2739bd1d", "fusion_lon": 0.0}, {"rental_uris": {"ios": "https://dc.lft.to/lastmile_qr_scan", "android": "https://dc.lft.to/lastmile_qr_scan"}, "type": "electric_scooter", "name": "49405cfbbc804ee2ea0080dc57fc560c", "is_reserved": 0, "lon": -77.02819016666666, "is_disabled": 0, "fusion_lat": 0.0, "lat": 38.89236266666666, "bike_id": "49405cfbbc804ee2ea0080dc57fc560c", "fusion_lon": 0.0}, {"rental_uris": {"ios": "https://dc.lft.to/lastmile_qr_scan", "android": "https://dc.lft.to/lastmile_qr_scan"}, "type": "electric_scooter", "name": "0a32faffb8bdb03e1f7d75c52cdc20f0", "is_reserved": 0, "lon": -77.032744, "is_disabled": 0, "fusion_lat": 0.0, "lat": 38.9199205, "bike_id": "0a32faffb8bdb03e1f7d75c52cdc20f0", "fusion_lon": 0.0}, {"rental_uris": {"ios": "https://dc.lft.to/lastmile_qr_scan", "android": "https://dc.lft.to/lastmile_qr_scan"}, "type": "electric_scooter", "name": "92c2625b985d5b3fb3927a6ae6cc178f", "is_reserved": 0, "lon": -77.0390825, "is_disabled": 0, "fusion_lat": 0.0, "lat": 38.91421, "bike_id": "92c2625b985d5b3fb3927a6ae6cc178f", "fusion_lon": 0.0}, {"rental_uris": {"ios": "https://dc.lft.to/lastmile_qr_scan", "android": "https://dc.lft.to/lastmile_qr_scan"}, "type": "electric_scooter", "name": "46b9d6b044edf72c69a57250b5fc4917", "is_reserved": 0, "lon": -77.04518216666666, "is_disabled": 0, "fusion_lat": 0.0, "lat": 38.9190585, "bike_id": "46b9d6b044edf72c69a57250b5fc4917", "fusion_lon": 0.0}, {"rental_uris": {"ios": "https://dc.lft.to/lastmile_qr_scan", "android": "https://dc.lft.to/lastmile_qr_scan"}, "type": "electric_scooter", "name": "a3e410e268f05a5f6053dc37b70af9a8", "is_reserved": 0, "lon": -77.03264433333334, "is_disabled": 0, "fusion_lat": 0.0, "lat": 38.9104775, "bike_id": "a3e410e268f05a5f6053dc37b70af9a8", "fusion_lon": 0.0}, {"rental_uris": {"ios": "https://dc.lft.to/lastmile_qr_scan", "android": "https://dc.lft.to/lastmile_qr_scan"}, "type": "electric_scooter", "name": "99fda36e65f4d0c5a6eb5e0305767299", "is_reserved": 0, "lon": -77.03176966666666, "is_disabled": 0, "fusion_lat": 0.0, "lat": 38.9182305, "bike_id": "99fda36e65f4d0c5a6eb5e0305767299", "fusion_lon": 0.0}, {"rental_uris": {"ios": "https://dc.lft.to/lastmile_qr_scan", "android": "https://dc.lft.to/lastmile_qr_scan"}, "type": "electric_scooter", "name": "d4533970427891856f4ccbc1393c7de8", "is_reserved": 0, "lon": -77.03639066666666, "is_disabled": 0, "fusion_lat": 0.0, "lat": 38.92590416666667, "bike_id": "d4533970427891856f4ccbc1393c7de8", "fusion_lon": 0.0}, {"rental_uris": {"ios": "https://dc.lft.to/lastmile_qr_scan", "android": "https://dc.lft.to/lastmile_qr_scan"}, "type": "electric_scooter", "name": "773723ee5786ae9ec8c8ccd9bf1cc8fc", "is_reserved": 0, "lon": -77.0437005, "is_disabled": 0, "fusion_lat": 0.0, "lat": 38.93150216666667, "bike_id": "773723ee5786ae9ec8c8ccd9bf1cc8fc", "fusion_lon": 0.0}, {"rental_uris": {"ios": "https://dc.lft.to/lastmile_qr_scan", "android": "https://dc.lft.to/lastmile_qr_scan"}, "type": "electric_scooter", "name": "7067d0a1d6720841841b6eafba998e74", "is_reserved": 0, "lon": -77.03471366666666, "is_disabled": 0, "fusion_lat": 0.0, "lat": 38.90565466666666, "bike_id": "7067d0a1d6720841841b6eafba998e74", "fusion_lon": 0.0}, {"rental_uris": {"ios": "https://dc.lft.to/lastmile_qr_scan", "android": "https://dc.lft.to/lastmile_qr_scan"}, "type": "electric_scooter", "name": "5d0a05b640101b1ed3bf42d771527fb6", "is_reserved": 0, "lon": -76.97718783333333, "is_disabled": 0, "fusion_lat": 0.0, "lat": 38.888190333333334, "bike_id": "5d0a05b640101b1ed3bf42d771527fb6", "fusion_lon": 0.0}, {"rental_uris": {"ios": "https://dc.lft.to/lastmile_qr_scan", "android": "https://dc.lft.to/lastmile_qr_scan"}, "type": "electric_scooter", "name": "1f92c810adf99b3d0f35069badfa92d9", "is_reserved": 0, "lon": -77.03354883333333, "is_disabled": 0, "fusion_lat": 0.0, "lat": 38.901088333333334, "bike_id": "1f92c810adf99b3d0f35069badfa92d9", "fusion_lon": 0.0}, {"rental_uris": {"ios": "https://dc.lft.to/lastmile_qr_scan", "android": "https://dc.lft.to/lastmile_qr_scan"}, "type": "electric_bike", "name": "535079d3bb15227706502d2d3f200ff0", "is_reserved": 0, "lon": -77.126489, "is_disabled": 0, "fusion_lat": 0.0, "lat": 38.81906266666667, "bike_id": "535079d3bb15227706502d2d3f200ff0", "fusion_lon": 0.0}, {"rental_uris": {"ios": "https://dc.lft.to/lastmile_qr_scan", "android": "https://dc.lft.to/lastmile_qr_scan"}, "type": "electric_scooter", "name": "5d09943d4fa6d21bbc05877bb673be35", "is_reserved": 0, "lon": -77.02390933333334, "is_disabled": 0, "fusion_lat": 0.0, "lat": 38.904158833333334, "bike_id": "5d09943d4fa6d21bbc05877bb673be35", "fusion_lon": 0.0}, {"rental_uris": {"ios": "https://dc.lft.to/lastmile_qr_scan", "android": "https://dc.lft.to/lastmile_qr_scan"}, "type": "electric_bike", "name": "0c7283542c2943c48b7608aa52229ad2", "is_reserved": 0, "lon": -77.07902883333334, "is_disabled": 0, "fusion_lat": 0.0, "lat": 38.839339833333334, "bike_id": "0c7283542c2943c48b7608aa52229ad2", "fusion_lon": 0.0}, {"rental_uris": {"ios": "https://dc.lft.to/lastmile_qr_scan", "android": "https://dc.lft.to/lastmile_qr_scan"}, "type": "electric_bike", "name": "a940a5f7d46fcc245b38757921503ee4", "is_reserved": 0, "lon": -76.95248066666667, "is_disabled": 0, "fusion_lat": 0.0, "lat": 38.9069135, "bike_id": "a940a5f7d46fcc245b38757921503ee4", "fusion_lon": 0.0}, {"rental_uris": {"ios": "https://dc.lft.to/lastmile_qr_scan", "android": "https://dc.lft.to/lastmile_qr_scan"}, "type": "electric_scooter", "name": "8b47c86a92ba2644aa660b216420628c", "is_reserved": 0, "lon": -77.01280716666666, "is_disabled": 0, "fusion_lat": 0.0, "lat": 38.9103715, "bike_id": "8b47c86a92ba2644aa660b216420628c", "fusion_lon": 0.0}, {"rental_uris": {"ios": "https://dc.lft.to/lastmile_qr_scan", "android": "https://dc.lft.to/lastmile_qr_scan"}, "type": "electric_bike", "name": "77e6ccc97f695bbb2bb1b29b153e2a79", "is_reserved": 0, "lon": -77.02452383333333, "is_disabled": 0, "fusion_lat": 0.0, "lat": 38.95742716666667, "bike_id": "77e6ccc97f695bbb2bb1b29b153e2a79", "fusion_lon": 0.0}, {"rental_uris": {"ios": "https://dc.lft.to/lastmile_qr_scan", "android": "https://dc.lft.to/lastmile_qr_scan"}, "type": "electric_scooter", "name": "7ff1fdc22fae47159dbb73e4d83f66f7", "is_reserved": 0, "lon": -77.0329175, "is_disabled": 0, "fusion_lat": 0.0, "lat": 38.9000435, "bike_id": "7ff1fdc22fae47159dbb73e4d83f66f7", "fusion_lon": 0.0}, {"rental_uris": {"ios": "https://dc.lft.to/lastmile_qr_scan", "android": "https://dc.lft.to/lastmile_qr_scan"}, "type": "electric_scooter", "name": "a498ff5a03338ed893d94a0f1e715b81", "is_reserved": 0, "lon": -76.93183283333333, "is_disabled": 0, "fusion_lat": 0.0, "lat": 38.89875283333333, "bike_id": "a498ff5a03338ed893d94a0f1e715b81", "fusion_lon": 0.0}, {"rental_uris": {"ios": "https://dc.lft.to/lastmile_qr_scan", "android": "https://dc.lft.to/lastmile_qr_scan"}, "type": "electric_scooter", "name": "7c7db3294df329d66a2f750c31fb3096", "is_reserved": 0, "lon": -77.03475183333333, "is_disabled": 0, "fusion_lat": 0.0, "lat": 38.90663466666667, "bike_id": "7c7db3294df329d66a2f750c31fb3096", "fusion_lon": 0.0}, {"rental_uris": {"ios": "https://dc.lft.to/lastmile_qr_scan", "android": "https://dc.lft.to/lastmile_qr_scan"}, "type": "electric_scooter", "name": "75268ee4c5322934d8b87b5d64a26cd1", "is_reserved": 0, "lon": -77.03589316666667, "is_disabled": 0, "fusion_lat": 0.0, "lat": 38.9278225, "bike_id": "75268ee4c5322934d8b87b5d64a26cd1", "fusion_lon": 0.0}, {"rental_uris": {"ios": "https://dc.lft.to/lastmile_qr_scan", "android": "https://dc.lft.to/lastmile_qr_scan"}, "type": "electric_scooter", "name": "84cdc6d8f90d1543cd5448eabd92ce45", "is_reserved": 0, "lon": -77.07222183333333, "is_disabled": 0, "fusion_lat": 0.0, "lat": 38.91968716666667, "bike_id": "84cdc6d8f90d1543cd5448eabd92ce45", "fusion_lon": 0.0}, {"rental_uris": {"ios": "https://dc.lft.to/lastmile_qr_scan", "android": "https://dc.lft.to/lastmile_qr_scan"}, "type": "electric_scooter", "name": "784a80d27fab0222f833064de27179f6", "is_reserved": 0, "lon": -77.00623116666667, "is_disabled": 0, "fusion_lat": 0.0, "lat": 38.8717345, "bike_id": "784a80d27fab0222f833064de27179f6", "fusion_lon": 0.0}, {"rental_uris": {"ios": "https://dc.lft.to/lastmile_qr_scan", "android": "https://dc.lft.to/lastmile_qr_scan"}, "type": "electric_scooter", "name": "694381b4df3a6068251fde27d95842f0", "is_reserved": 0, "lon": -77.063718, "is_disabled": 0, "fusion_lat": 0.0, "lat": 38.9355795, "bike_id": "694381b4df3a6068251fde27d95842f0", "fusion_lon": 0.0}, {"rental_uris": {"ios": "https://dc.lft.to/lastmile_qr_scan", "android": "https://dc.lft.to/lastmile_qr_scan"}, "type": "electric_scooter", "name": "439a06fe4d558bf90a0b8d77f50b66c2", "is_reserved": 0, "lon": -77.03811616666667, "is_disabled": 0, "fusion_lat": 0.0, "lat": 38.931134, "bike_id": "439a06fe4d558bf90a0b8d77f50b66c2", "fusion_lon": 0.0}, {"rental_uris": {"ios": "https://dc.lft.to/lastmile_qr_scan", "android": "https://dc.lft.to/lastmile_qr_scan"}, "type": "electric_scooter", "name": "ffea12d9e878a41212ba02bbad3bb5d9", "is_reserved": 0, "lon": -77.04379466666667, "is_disabled": 0, "fusion_lat": 0.0, "lat": 38.89737566666667, "bike_id": "ffea12d9e878a41212ba02bbad3bb5d9", "fusion_lon": 0.0}, {"rental_uris": {"ios": "https://dc.lft.to/lastmile_qr_scan", "android": "https://dc.lft.to/lastmile_qr_scan"}, "type": "electric_scooter", "name": "725c3a37e0937fdf984dc6a003f70bb6", "is_reserved": 0, "lon": -77.04829666666667, "is_disabled": 0, "fusion_lat": 0.0, "lat": 38.900615333333334, "bike_id": "725c3a37e0937fdf984dc6a003f70bb6", "fusion_lon": 0.0}, {"rental_uris": {"ios": "https://dc.lft.to/lastmile_qr_scan", "android": "https://dc.lft.to/lastmile_qr_scan"}, "type": "electric_bike", "name": "e381c58cd1056c7d1c5d0b48396a5b8f", "is_reserved": 0, "lon": -77.02826183333333, "is_disabled": 0, "fusion_lat": 0.0, "lat": 38.9655665, "bike_id": "e381c58cd1056c7d1c5d0b48396a5b8f", "fusion_lon": 0.0}, {"rental_uris": {"ios": "https://dc.lft.to/lastmile_qr_scan", "android": "https://dc.lft.to/lastmile_qr_scan"}, "type": "electric_scooter", "name": "1b2b249769ae4b1b767005a116da13fa", "is_reserved": 0, "lon": -77.02914083333333, "is_disabled": 0, "fusion_lat": 0.0, "lat": 38.934529833333336, "bike_id": "1b2b249769ae4b1b767005a116da13fa", "fusion_lon": 0.0}, {"rental_uris": {"ios": "https://dc.lft.to/lastmile_qr_scan", "android": "https://dc.lft.to/lastmile_qr_scan"}, "type": "electric_scooter", "name": "9359194f35860196cce43f69eaf91a3d", "is_reserved": 0, "lon": -77.08591183333333, "is_disabled": 0, "fusion_lat": 0.0, "lat": 38.90870316666667, "bike_id": "9359194f35860196cce43f69eaf91a3d", "fusion_lon": 0.0}, {"rental_uris": {"ios": "https://dc.lft.to/lastmile_qr_scan", "android": "https://dc.lft.to/lastmile_qr_scan"}, "type": "electric_scooter", "name": "4a68884f72326a1c9ab76fa6fedc4291", "is_reserved": 0, "lon": -77.03723783333334, "is_disabled": 0, "fusion_lat": 0.0, "lat": 38.9201995, "bike_id": "4a68884f72326a1c9ab76fa6fedc4291", "fusion_lon": 0.0}, {"rental_uris": {"ios": "https://dc.lft.to/lastmile_qr_scan", "android": "https://dc.lft.to/lastmile_qr_scan"}, "type": "electric_scooter", "name": "3e4d41a642a11f5511d8110857ca6705", "is_reserved": 0, "lon": -76.98495066666666, "is_disabled": 0, "fusion_lat": 0.0, "lat": 38.9200895, "bike_id": "3e4d41a642a11f5511d8110857ca6705", "fusion_lon": 0.0}, {"rental_uris": {"ios": "https://dc.lft.to/lastmile_qr_scan", "android": "https://dc.lft.to/lastmile_qr_scan"}, "type": "electric_bike", "name": "c701773317ed421163f009a876ae5828", "is_reserved": 0, "lon": -76.98368366666666, "is_disabled": 0, "fusion_lat": 0.0, "lat": 38.914949166666666, "bike_id": "c701773317ed421163f009a876ae5828", "fusion_lon": 0.0}, {"rental_uris": {"ios": "https://dc.lft.to/lastmile_qr_scan", "android": "https://dc.lft.to/lastmile_qr_scan"}, "type": "electric_scooter", "name": "55df766751fa15c0af5dc9b50b5283ff", "is_reserved": 0, "lon": -76.98538416666666, "is_disabled": 0, "fusion_lat": 0.0, "lat": 38.858448833333334, "bike_id": "55df766751fa15c0af5dc9b50b5283ff", "fusion_lon": 0.0}, {"rental_uris": {"ios": "https://dc.lft.to/lastmile_qr_scan", "android": "https://dc.lft.to/lastmile_qr_scan"}, "type": "electric_scooter", "name": "9edebad8d5c4b7230686e6db2f6f75fa", "is_reserved": 0, "lon": -77.0231655, "is_disabled": 0, "fusion_lat": 0.0, "lat": 38.92072616666667, "bike_id": "9edebad8d5c4b7230686e6db2f6f75fa", "fusion_lon": 0.0}, {"rental_uris": {"ios": "https://dc.lft.to/lastmile_qr_scan", "android": "https://dc.lft.to/lastmile_qr_scan"}, "type": "electric_scooter", "name": "ec03b06937290710797060b63f52ef1b", "is_reserved": 0, "lon": -76.92658333333333, "is_disabled": 0, "fusion_lat": 0.0, "lat": 38.882351166666666, "bike_id": "ec03b06937290710797060b63f52ef1b", "fusion_lon": 0.0}, {"rental_uris": {"ios": "https://dc.lft.to/lastmile_qr_scan", "android": "https://dc.lft.to/lastmile_qr_scan"},