{"data": {"bikes": [{"lat": 38.8747405, "fusion_lat": 0.0, "type": "electric_scooter", "bike_id": "ce9f4857030e5a84fc097e3ea7ad07f5", "is_reserved": 0, "rental_uris": {"ios": "https://dc.lft.to/lastmile_qr_scan", "android": "https://dc.lft.to/lastmile_qr_scan"}, "is_disabled": 0, "lon": -77.00559566666666, "name": "ce9f4857030e5a84fc097e3ea7ad07f5", "fusion_lon": 0.0}, {"lat": 38.857699, "fusion_lat": 0.0, "type": "electric_bike", "bike_id": "7ddb877ae06e97349beeda77f3e17eae", "is_reserved": 0, "rental_uris": {"ios": "https://dc.lft.to/lastmile_qr_scan", "android": "https://dc.lft.to/lastmile_qr_scan"}, "is_disabled": 0, "lon": -76.98762566666667, "name": "7ddb877ae06e97349beeda77f3e17eae", "fusion_lon": 0.0}, {"lat": 38.930156, "fusion_lat": 0.0, "type": "electric_scooter", "bike_id": "315b9339a30aac0425474957af83d2be", "is_reserved": 0, "rental_uris": {"ios": "https://dc.lft.to/lastmile_qr_scan", "android": "https://dc.lft.to/lastmile_qr_scan"}, "is_disabled": 0, "lon": -77.06091583333334, "name": "315b9339a30aac0425474957af83d2be", "fusion_lon": 0.0}, {"lat": 38.929732333333334, "fusion_lat": 0.0, "type": "electric_scooter", "bike_id": "e0386f617c85016189598fa529565453", "is_reserved": 0, "rental_uris": {"ios": "https://dc.lft.to/lastmile_qr_scan", "android": "https://dc.lft.to/lastmile_qr_scan"}, "is_disabled": 0, "lon": -77.02954366666667, "name": "e0386f617c85016189598fa529565453", "fusion_lon": 0.0}, {"lat": 38.902487666666666, "fusion_lat": 0.0, "type": "electric_scooter", "bike_id": "01bcdeb7ab1d5adf5de082948d6cef46", "is_reserved": 0, "rental_uris": {"ios": "https://dc.lft.to/lastmile_qr_scan", "android": "https://dc.lft.to/lastmile_qr_scan"}, "is_disabled": 0, "lon": -76.9741435, "name": "01bcdeb7ab1d5adf5de082948d6cef46", "fusion_lon": 0.0}, {"lat": 38.92274416666667, "fusion_lat": 0.0, "type": "electric_scooter", "bike_id": "937293f4b9caf795653582b604c92fd5", "is_reserved": 0, "rental_uris": {"ios": "https://dc.lft.to/lastmile_qr_scan", "android": "https://dc.lft.to/lastmile_qr_scan"}, "is_disabled": 0, "lon": -77.02249666666667, "name": "937293f4b9caf795653582b604c92fd5", "fusion_lon": 0.0}, {"lat": 38.83813333333333, "fusion_lat": 0.0, "type": "electric_bike", "bike_id": "816a3bc83d814acdff21ee8a202a9044", "is_reserved": 0, "rental_uris": {"ios": "https://dc.lft.to/lastmile_qr_scan", "android": "https://dc.lft.to/lastmile_qr_scan"}, "is_disabled": 0, "lon": -77.09523583333333, "name": "816a3bc83d814acdff21ee8a202a9044", "fusion_lon": 0.0}, {"lat": 38.9553295, "fusion_lat": 0.0, "type": "electric_scooter", "bike_id": "49bbe48db802522e4a0ac06690fdd897", "is_reserved": 0, "rental_uris": {"ios": "https://dc.lft.to/lastmile_qr_scan", "android": "https://dc.lft.to/lastmile_qr_scan"}, "is_disabled": 0, "lon": -77.02777766666667, "name": "49bbe48db802522e4a0ac06690fdd897", "fusion_lon": 0.0}, {"lat": 38.94119, "fusion_lat": 0.0, "type": "electric_scooter", "bike_id": "ed6066d7b9638d7dc055e53025e06f63", "is_reserved": 0, "rental_uris": {"ios": "https://dc.lft.to/lastmile_qr_scan", "android": "https://dc.lft.to/lastmile_qr_scan"}, "is_disabled": 0, "lon": -77.07737166666666, "name": "ed6066d7b9638d7dc055e53025e06f63", "fusion_lon": 0.0}, {"lat": 38.925808333333336, "fusion_lat": 0.0, "type": "electric_scooter", "bike_id": "4755a5362ac53c5c7b41c83e7f15e081", "is_reserved": 0, "rental_uris": {"ios": "https://dc.lft.to/lastmile_qr_scan", "android": "https://dc.lft.to/lastmile_qr_scan"}, "is_disabled": 0, "lon": -77.02607333333333, "name": "4755a5362ac53c5c7b41c83e7f15e081", "fusion_lon": 0.0}, {"lat": 38.920519, "fusion_lat": 0.0, "type": "electric_scooter", "bike_id": "efc3b61f498044b2a83abaa2aed45635", "is_reserved": 0, "rental_uris": {"ios": "https://dc.lft.to/lastmile_qr_scan", "android": "https://dc.lft.to/lastmile_qr_scan"}, "is_disabled": 0, "lon": -77.03353416666667, "name": "efc3b61f498044b2a83abaa2aed45635", "fusion_lon": 0.0}, {"lat": 38.891852166666666, "fusion_lat": 0.0, "type": "electric_scooter", "bike_id": "0f9f9e896c1205b36d6ec868ae79c485", "is_reserved": 0, "rental_uris": {"ios": "https://dc.lft.to/lastmile_qr_scan", "android": "https://dc.lft.to/lastmile_qr_scan"}, "is_disabled": 0, "lon": -76.911901, "name": "0f9f9e896c1205b36d6ec868ae79c485", "fusion_lon": 0.0}, {"lat": 38.898507333333335, "fusion_lat": 0.0, "type": "electric_scooter", "bike_id": "94b6724194865062b89cf6b70388c507", "is_reserved": 0, "rental_uris": {"ios": "https://dc.lft.to/lastmile_qr_scan", "android": "https://dc.lft.to/lastmile_qr_scan"}, "is_disabled": 0, "lon": -77.04338783333333, "name": "94b6724194865062b89cf6b70388c507", "fusion_lon": 0.0}, {"lat": 38.908396833333335, "fusion_lat": 0.0, "type": "electric_bike", "bike_id": "1dc80e0001f65c13ca534b58b849e121", "is_reserved": 0, "rental_uris": {"ios": "https://dc.lft.to/lastmile_qr_scan", "android": "https://dc.lft.to/lastmile_qr_scan"}, "is_disabled": 0, "lon": -77.04030883333333, "name": "1dc80e0001f65c13ca534b58b849e121", "fusion_lon": 0.0}, {"lat": 38.9185735, "fusion_lat": 0.0, "type": "electric_scooter", "bike_id": "129c2603d2b5d19fd6e29a18b5bf3aa8", "is_reserved": 0, "rental_uris": {"ios": "https://dc.lft.to/lastmile_qr_scan", "android": "https://dc.lft.to/lastmile_qr_scan"}, "is_disabled": 0, "lon": -77.015589, "name": "129c2603d2b5d19fd6e29a18b5bf3aa8", "fusion_lon": 0.0}, {"lat": 38.923405333333335, "fusion_lat": 0.0, "type": "electric_scooter", "bike_id": "8a961cc36abd0f06f351c1388c892a06", "is_reserved": 0, "rental_uris": {"ios": "https://dc.lft.to/lastmile_qr_scan", "android": "https://dc.lft.to/lastmile_qr_scan"}, "is_disabled": 0, "lon": -77.05245133333334, "name": "8a961cc36abd0f06f351c1388c892a06", "fusion_lon": 0.0}, {"lat": 38.895691, "fusion_lat": 0.0, "type": "electric_scooter", "bike_id": "9102ee392ccd43b735a583b372f7c3ad", "is_reserved": 0, "rental_uris": {"ios": "https://dc.lft.to/lastmile_qr_scan", "android": "https://dc.lft.to/lastmile_qr_scan"}, "is_disabled": 0, "lon": -77.02557966666667, "name": "9102ee392ccd43b735a583b372f7c3ad", "fusion_lon": 0.0}, {"lat": 38.93403883333333, "fusion_lat": 0.0, "type": "electric_scooter", "bike_id": "7a2fa80a8befc5af83f164541ec0ae1e", "is_reserved": 0, "rental_uris": {"ios": "https://dc.lft.to/lastmile_qr_scan", "android": "https://dc.lft.to/lastmile_qr_scan"}, "is_disabled": 0, "lon": -77.039832, "name": "7a2fa80a8befc5af83f164541ec0ae1e", "fusion_lon": 0.0}, {"lat": 38.924622666666664, "fusion_lat": 0.0, "type": "electric_scooter", "bike_id": "e3a0eb8c753629f47eee3c26236537b2", "is_reserved": 0, "rental_uris": {"ios": "https://dc.lft.to/lastmile_qr_scan", "android": "https://dc.lft.to/lastmile_qr_scan"}, "is_disabled": 0, "lon": -77.07829233333334, "name": "e3a0eb8c753629f47eee3c26236537b2", "fusion_lon": 0.0}, {"lat": 38.91712033333334, "fusion_lat": 0.0, "type": "electric_scooter", "bike_id": "a25ebc529ed1f12f5c914e25e5ef1cf3", "is_reserved": 0, "rental_uris": {"ios": "https://dc.lft.to/lastmile_qr_scan", "android": "https://dc.lft.to/lastmile_qr_scan"}, "is_disabled": 0, "lon": -77.04122316666667, "name": "a25ebc529ed1f12f5c914e25e5ef1cf3", "fusion_lon": 0.0}, {"lat": 38.92967466666666, "fusion_lat": 0.0, "type": "electric_bike", "bike_id": "9403550270c5e93d9b7935675f824879", "is_reserved": 0, "rental_uris": {"ios": "https://dc.lft.to/lastmile_qr_scan", "android": "https://dc.lft.to/lastmile_qr_scan"}, "is_disabled": 0, "lon": -77.18563616666667, "name": "9403550270c5e93d9b7935675f824879", "fusion_lon": 0.0}, {"lat": 38.907170666666666, "fusion_lat": 0.0, "type": "electric_scooter", "bike_id": "cfe01153cf20ad4f1f722cf2d68c86db", "is_reserved": 0, "rental_uris": {"ios": "https://dc.lft.to/lastmile_qr_scan", "android": "https://dc.lft.to/lastmile_qr_scan"}, "is_disabled": 0, "lon": -77.02971283333333, "name": "cfe01153cf20ad4f1f722cf2d68c86db", "fusion_lon": 0.0}, {"lat": 38.90397766666667, "fusion_lat": 0.0, "type": "electric_scooter", "bike_id": "90f2ad1cfda33719bca68474ebf8caf8", "is_reserved": 0, "rental_uris": {"ios": "https://dc.lft.to/lastmile_qr_scan", "android": "https://dc.lft.to/lastmile_qr_scan"}, "is_disabled": 0, "lon": -77.04346383333333, "name": "90f2ad1cfda33719bca68474ebf8caf8", "fusion_lon": 0.0}, {"lat": 39.0549845, "fusion_lat": 0.0, "type": "electric_bike", "bike_id": "46cc7a05d3203a4940a170604c2139f7", "is_reserved": 0, "rental_uris": {"ios": "https://dc.lft.to/lastmile_qr_scan", "android": "https://dc.lft.to/lastmile_qr_scan"}, "is_disabled": 0, "lon": -77.04651516666667, "name": "46cc7a05d3203a4940a170604c2139f7", "fusion_lon": 0.0}, {"lat": 38.90275666666667, "fusion_lat": 0.0, "type": "electric_scooter", "bike_id": "a19f2d54fb09ca52b5e546182e591a87", "is_reserved": 0, "rental_uris": {"ios": "https://dc.lft.to/lastmile_qr_scan", "android": "https://dc.lft.to/lastmile_qr_scan"}, "is_disabled": 0, "lon": -77.05813983333333, "name": "a19f2d54fb09ca52b5e546182e591a87", "fusion_lon": 0.0}, {"lat": 38.906197666666664, "fusion_lat": 0.0, "type": "electric_scooter", "bike_id": "789250b6668718f70c4f57d0dedb9fe7", "is_reserved": 0, "rental_uris": {"ios": "https://dc.lft.to/lastmile_qr_scan", "android": "https://dc.lft.to/lastmile_qr_scan"}, "is_disabled": 0, "lon": -77.05138133333334, "name": "789250b6668718f70c4f57d0dedb9fe7", "fusion_lon": 0.0}, {"lat": 38.8861275, "fusion_lat": 0.0, "type": "electric_scooter", "bike_id": "0940c6c07856a2de5d7a43287f90230a", "is_reserved": 0, "rental_uris": {"ios": "https://dc.lft.to/lastmile_qr_scan", "android": "https://dc.lft.to/lastmile_qr_scan"}, "is_disabled": 0, "lon": -76.99513783333333, "name": "0940c6c07856a2de5d7a43287f90230a", "fusion_lon": 0.0}, {"lat": 38.933209833333336, "fusion_lat": 0.0, "type": "electric_scooter", "bike_id": "211cf9c414139ca0ca372f56724c2055", "is_reserved": 0, "rental_uris": {"ios": "https://dc.lft.to/lastmile_qr_scan", "android": "https://dc.lft.to/lastmile_qr_scan"}, "is_disabled": 0, "lon": -77.0343715, "name": "211cf9c414139ca0ca372f56724c2055", "fusion_lon": 0.0}, {"lat": 38.92856666666667, "fusion_lat": 0.0, "type": "electric_scooter", "bike_id": "d64a224cc6fcac952492c292e13d745c", "is_reserved": 0, "rental_uris": {"ios": "https://dc.lft.to/lastmile_qr_scan", "android": "https://dc.lft.to/lastmile_qr_scan"}, "is_disabled": 0, "lon": -77.03667416666667, "name": "d64a224cc6fcac952492c292e13d745c", "fusion_lon": 0.0}, {"lat": 38.898495833333335, "fusion_lat": 0.0, "type": "electric_scooter", "bike_id": "60667c55413da90d24179c7457bc1f82", "is_reserved": 0, "rental_uris": {"ios": "https://dc.lft.to/lastmile_qr_scan", "android": "https://dc.lft.to/lastmile_qr_scan"}, "is_disabled": 0, "lon": -77.0259985, "name": "60667c55413da90d24179c7457bc1f82", "fusion_lon": 0.0}, {"lat": 38.926154833333335, "fusion_lat": 0.0, "type": "electric_scooter", "bike_id": "49c7e7756ca807f2263959431ae1d4b4", "is_reserved": 0, "rental_uris": {"ios": "https://dc.lft.to/lastmile_qr_scan", "android": "https://dc.lft.to/lastmile_qr_scan"}, "is_disabled": 0, "lon": -77.02162033333333, "name": "49c7e7756ca807f2263959431ae1d4b4", "fusion_lon": 0.0}, {"lat": 38.95657466666667, "fusion_lat": 0.0, "type": "electric_scooter", "bike_id": "ad4deef0103afdee1dfe28be1222fbf6", "is_reserved": 0, "rental_uris": {"ios": "https://dc.lft.to/lastmile_qr_scan", "android": "https://dc.lft.to/lastmile_qr_scan"}, "is_disabled": 0, "lon": -77.0127455, "name": "ad4deef0103afdee1dfe28be1222fbf6", "fusion_lon": 0.0}, {"lat": 38.88265216666667, "fusion_lat": 0.0, "type": "electric_scooter", "bike_id": "61fe8751c626783705ca187b039a0dfe", "is_reserved": 0, "rental_uris": {"ios": "https://dc.lft.to/lastmile_qr_scan", "android": "https://dc.lft.to/lastmile_qr_scan"}, "is_disabled": 0, "lon": -76.9925045, "name": "61fe8751c626783705ca187b039a0dfe", "fusion_lon": 0.0}, {"lat": 38.90687233333333, "fusion_lat": 0.0, "type": "electric_scooter", "bike_id": "c69a6975a30330581c984fe078e9ff0c", "is_reserved": 0, "rental_uris": {"ios": "https://dc.lft.to/lastmile_qr_scan", "android": "https://dc.lft.to/lastmile_qr_scan"}, "is_disabled": 0, "lon": -77.06344166666666, "name": "c69a6975a30330581c984fe078e9ff0c", "fusion_lon": 0.0}, {"lat": 38.91070333333333, "fusion_lat": 0.0, "type": "electric_scooter", "bike_id": "703da3c50f7d29b55f4d46c64390a5a6", "is_reserved": 0, "rental_uris": {"ios": "https://dc.lft.to/lastmile_qr_scan", "android": "https://dc.lft.to/lastmile_qr_scan"}, "is_disabled": 0, "lon": -77.00917633333333, "name": "703da3c50f7d29b55f4d46c64390a5a6", "fusion_lon": 0.0}, {"lat": 38.924031, "fusion_lat": 0.0, "type": "electric_scooter", "bike_id": "aadb00efae7970b818d8497409ff1a13", "is_reserved": 0, "rental_uris": {"ios": "https://dc.lft.to/lastmile_qr_scan", "android": "https://dc.lft.to/lastmile_qr_scan"}, "is_disabled": 0, "lon": -77.05167083333333, "name": "aadb00efae7970b818d8497409ff1a13", "fusion_lon": 0.0}, {"lat": 38.91648983333333, "fusion_lat": 0.0, "type": "electric_scooter", "bike_id": "7bcdd90cea0edf660e03b580d2a092aa", "is_reserved": 0, "rental_uris": {"ios": "https://dc.lft.to/lastmile_qr_scan", "android": "https://dc.lft.to/lastmile_qr_scan"}, "is_disabled": 0, "lon": -77.0399775, "name": "7bcdd90cea0edf660e03b580d2a092aa", "fusion_lon": 0.0}, {"lat": 38.908247333333335, "fusion_lat": 0.0, "type": "electric_scooter", "bike_id": "ee77202c48442bfb3b17972f2e19ed4b", "is_reserved": 0, "rental_uris": {"ios": "https://dc.lft.to/lastmile_qr_scan", "android": "https://dc.lft.to/lastmile_qr_scan"}, "is_disabled": 0, "lon": -77.02383533333334, "name": "ee77202c48442bfb3b17972f2e19ed4b", "fusion_lon": 0.0}, {"lat": 38.92565866666666, "fusion_lat": 0.0, "type": "electric_scooter", "bike_id": "c30b82fb9fd03b8fd12f69e6f0e49b17", "is_reserved": 0, "rental_uris": {"ios": "https://dc.lft.to/lastmile_qr_scan", "android": "https://dc.lft.to/lastmile_qr_scan"}, "is_disabled": 0, "lon": -77.05267333333333, "name": "c30b82fb9fd03b8fd12f69e6f0e49b17", "fusion_lon": 0.0}, {"lat": 38.919206, "fusion_lat": 0.0, "type": "electric_scooter", "bike_id": "ef8b785ac7448a4e3b775844a1f33435", "is_reserved": 0, "rental_uris": {"ios": "https://dc.lft.to/lastmile_qr_scan", "android": "https://dc.lft.to/lastmile_qr_scan"}, "is_disabled": 0, "lon": -77.03168583333333, "name": "ef8b785ac7448a4e3b775844a1f33435", "fusion_lon": 0.0}, {"lat": 38.93363566666667, "fusion_lat": 0.0, "type": "electric_scooter", "bike_id": "3a69bc28029535ebf31c046e88d8a187", "is_reserved": 0, "rental_uris": {"ios": "https://dc.lft.to/lastmile_qr_scan", "android": "https://dc.lft.to/lastmile_qr_scan"}, "is_disabled": 0, "lon": -77.08859733333334, "name": "3a69bc28029535ebf31c046e88d8a187", "fusion_lon": 0.0}, {"lat": 38.905898, "fusion_lat": 0.0, "type": "electric_scooter", "bike_id": "60f2a87c1e45ffbe6cc03feb74f72301", "is_reserved": 0, "rental_uris": {"ios": "https://dc.lft.to/lastmile_qr_scan", "android": "https://dc.lft.to/lastmile_qr_scan"}, "is_disabled": 0, "lon": -77.05121016666666, "name": "60f2a87c1e45ffbe6cc03feb74f72301", "fusion_lon": 0.0}, {"lat": 38.90761966666667, "fusion_lat": 0.0, "type": "electric_scooter", "bike_id": "481f9424225bc80cba55608ef523cde9", "is_reserved": 0, "rental_uris": {"ios": "https://dc.lft.to/lastmile_qr_scan", "android": "https://dc.lft.to/lastmile_qr_scan"}, "is_disabled": 0, "lon": -77.0347005, "name": "481f9424225bc80cba55608ef523cde9", "fusion_lon": 0.0}, {"lat": 38.893603166666665, "fusion_lat": 0.0, "type": "electric_scooter", "bike_id": "eca556096146c50e378509e55b25b020", "is_reserved": 0, "rental_uris": {"ios": "https://dc.lft.to/lastmile_qr_scan", "android": "https://dc.lft.to/lastmile_qr_scan"}, "is_disabled": 0, "lon": -77.003372, "name": "eca556096146c50e378509e55b25b020", "fusion_lon": 0.0}, {"lat": 38.89998083333333, "fusion_lat": 0.0, "type": "electric_scooter", "bike_id": "d567bc103f236434abc305c6755ca263", "is_reserved": 0, "rental_uris": {"ios": "https://dc.lft.to/lastmile_qr_scan", "android": "https://dc.lft.to/lastmile_qr_scan"}, "is_disabled": 0, "lon": -77.02391366666667, "name": "d567bc103f236434abc305c6755ca263", "fusion_lon": 0.0}, {"lat": 38.933941, "fusion_lat": 0.0, "type": "electric_scooter", "bike_id": "a28691a295f676ff8ce829bcd86e9f2d", "is_reserved": 0, "rental_uris": {"ios": "https://dc.lft.to/lastmile_qr_scan", "android": "https://dc.lft.to/lastmile_qr_scan"}, "is_disabled": 0, "lon": -77.03094283333333, "name": "a28691a295f676ff8ce829bcd86e9f2d", "fusion_lon": 0.0}, {"lat": 38.902656666666665, "fusion_lat": 0.0, "type": "electric_scooter", "bike_id": "3bb5baf83189bd2d11fd098745f9183a", "is_reserved": 0, "rental_uris": {"ios": "https://dc.lft.to/lastmile_qr_scan", "android": "https://dc.lft.to/lastmile_qr_scan"}, "is_disabled": 0, "lon": -77.0284925, "name": "3bb5baf83189bd2d11fd098745f9183a", "fusion_lon": 0.0}, {"lat": 38.896539, "fusion_lat": 0.0, "type": "electric_scooter", "bike_id": "74f2fafabcab23ee442520df286a4f08", "is_reserved": 0, "rental_uris": {"ios": "https://dc.lft.to/lastmile_qr_scan", "android": "https://dc.lft.to/lastmile_qr_scan"}, "is_disabled": 0, "lon": -77.0319515, "name": "74f2fafabcab23ee442520df286a4f08", "fusion_lon": 0.0}, {"lat": 38.9034865, "fusion_lat": 0.0, "type": "electric_scooter", "bike_id": "6d4079ac33483a058d8a0585727af985", "is_reserved": 0, "rental_uris": {"ios": "https://dc.lft.to/lastmile_qr_scan", "android": "https://dc.lft.to/lastmile_qr_scan"}, "is_disabled": 0, "lon": -77.045045, "name": "6d4079ac33483a058d8a0585727af985", "fusion_lon": 0.0}, {"lat": 38.90947516666667, "fusion_lat": 0.0, "type": "electric_scooter", "bike_id": "584c0ca17baa99488199c7ac5b083c87", "is_reserved": 0, "rental_uris": {"ios": "https://dc.lft.to/lastmile_qr_scan", "android": "https://dc.lft.to/lastmile_qr_scan"}, "is_disabled": 0, "lon": -77.031967, "name": "584c0ca17baa99488199c7ac5b083c87", "fusion_lon": 0.0}, {"lat": 38.898485, "fusion_lat": 0.0, "type": "electric_scooter", "bike_id": "58f27e725df3ee0a20d07eb846c53701", "is_reserved": 0, "rental_uris": {"ios": "https://dc.lft.to/lastmile_qr_scan", "android": "https://dc.lft.to/lastmile_qr_scan"}, "is_disabled": 0, "lon": -77.03337216666667, "name": "58f27e725df3ee0a20d07eb846c53701", "fusion_lon": 0.0}, {"lat": 38.94901516666667, "fusion_lat": 0.0, "type": "electric_bike", "bike_id": "f03a7869c95ce59f0ee5c51fd79a07b6", "is_reserved": 0, "rental_uris": {"ios": "https://dc.lft.to/lastmile_qr_scan", "android": "https://dc.lft.to/lastmile_qr_scan"}, "is_disabled": 0, "lon": -76.96376083333334, "name": "f03a7869c95ce59f0ee5c51fd79a07b6", "fusion_lon": 0.0}, {"lat": 38.9005865, "fusion_lat": 0.0, "type": "electric_scooter", "bike_id": "976294ceee1d0f808b9eff35ef0917de", "is_reserved": 0, "rental_uris": {"ios": "https://dc.lft.to/lastmile_qr_scan", "android": "https://dc.lft.to/lastmile_qr_scan"}, "is_disabled": 0, "lon": -77.04853283333334, "name": "976294ceee1d0f808b9eff35ef0917de", "fusion_lon": 0.0}, {"lat": 38.884058833333334, "fusion_lat": 0.0, "type": "electric_bike", "bike_id": "b183d28f98a8d4cfcd0d17f43aef5bfe", "is_reserved": 0, "rental_uris": {"ios": "https://dc.lft.to/lastmile_qr_scan", "android": "https://dc.lft.to/lastmile_qr_scan"}, "is_disabled": 0, "lon": -76.96056483333334, "name": "b183d28f98a8d4cfcd0d17f43aef5bfe", "fusion_lon": 0.0}, {"lat": 38.90689883333334, "fusion_lat": 0.0, "type": "electric_scooter", "bike_id": "c2ddec49e0ba03bb157eda7f40c94255", "is_reserved": 0, "rental_uris": {"ios": "https://dc.lft.to/lastmile_qr_scan", "android": "https://dc.lft.to/lastmile_qr_scan"}, "is_disabled": 0, "lon": -77.0531425, "name": "c2ddec49e0ba03bb157eda7f40c94255", "fusion_lon": 0.0}, {"lat": 38.89222816666667, "fusion_lat": 0.0, "type": "electric_scooter", "bike_id": "fd98cb4881c056ecc9a785b9a2637038", "is_reserved": 0, "rental_uris": {"ios": "https://dc.lft.to/lastmile_qr_scan", "android": "https://dc.lft.to/lastmile_qr_scan"}, "is_disabled": 0, "lon": -77.0215405, "name": "fd98cb4881c056ecc9a785b9a2637038", "fusion_lon": 0.0}, {"lat": 38.90406433333333, "fusion_lat": 0.0, "type": "electric_scooter", "bike_id": "0ff13e56262ddfb38d4671ba5551ad95", "is_reserved": 0, "rental_uris": {"ios": "https://dc.lft.to/lastmile_qr_scan", "android": "https://dc.lft.to/lastmile_qr_scan"}, "is_disabled": 0, "lon": -77.03246183333333, "name": "0ff13e56262ddfb38d4671ba5551ad95", "fusion_lon": 0.0}, {"lat": 38.88662016666667, "fusion_lat": 0.0, "type": "electric_bike", "bike_id": "08b8e2c358ba2c62e90d385e8acca186", "is_reserved": 0, "rental_uris": {"ios": "https://dc.lft.to/lastmile_qr_scan", "android": "https://dc.lft.to/lastmile_qr_scan"}, "is_disabled": 0, "lon": -77.16232933333333, "name": "08b8e2c358ba2c62e90d385e8acca186", "fusion_lon": 0.0}, {"lat": 38.86255166666667, "fusion_lat": 0.0, "type": "electric_scooter", "bike_id": "2fbfbafba9563caba3e0da0f3217d0da", "is_reserved": 0, "rental_uris": {"ios": "https://dc.lft.to/lastmile_qr_scan", "android": "https://dc.lft.to/lastmile_qr_scan"}, "is_disabled": 0, "lon": -76.99267783333333, "name": "2fbfbafba9563caba3e0da0f3217d0da", "fusion_lon": 0.0}, {"lat": 38.9021795, "fusion_lat": 0.0, "type": "electric_scooter", "bike_id": "49f585d403155ffda88a0e237934a0c8", "is_reserved": 0, "rental_uris": {"ios": "https://dc.lft.to/lastmile_qr_scan", "android": "https://dc.lft.to/lastmile_qr_scan"}, "is_disabled": 0, "lon": -77.02380933333333, "name": "49f585d403155ffda88a0e237934a0c8", "fusion_lon": 0.0}, {"lat": 38.899795, "fusion_lat": 0.0, "type": "electric_scooter", "bike_id": "50ccefe745b9587e97b46a444142c585", "is_reserved": 0, "rental_uris": {"ios": "https://dc.lft.to/lastmile_qr_scan", "android": "https://dc.lft.to/lastmile_qr_scan"}, "is_disabled": 0, "lon": -77.02257583333333, "name": "50ccefe745b9587e97b46a444142c585", "fusion_lon": 0.0}, {"lat": 38.885042, "fusion_lat": 0.0, "type": "electric_scooter", "bike_id": "a1312681dda28847f48170d2564be601", "is_reserved": 0, "rental_uris": {"ios": "https://dc.lft.to/lastmile_qr_scan", "android": "https://dc.lft.to/lastmile_qr_scan"}, "is_disabled": 0, "lon": -76.97710283333333, "name": "a1312681dda28847f48170d2564be601", "fusion_lon": 0.0}, {"lat": 38.92109633333333, "fusion_lat": 0.0, "type": "electric_scooter", "bike_id": "7db667f6ab8952b3d5ea5fea1e1199bf", "is_reserved": 0, "rental_uris": {"ios": "https://dc.lft.to/lastmile_qr_scan", "android": "https://dc.lft.to/lastmile_qr_scan"}, "is_disabled": 0, "lon": -77.03924033333334, "name": "7db667f6ab8952b3d5ea5fea1e1199bf", "fusion_lon": 0.0}, {"lat": 38.92828466666667, "fusion_lat": 0.0, "type": "electric_scooter", "bike_id": "555eda16a686b2192d9bb68de9515a7f", "is_reserved": 0, "rental_uris": {"ios": "https://dc.lft.to/lastmile_qr_scan", "android": "https://dc.lft.to/lastmile_qr_scan"}, "is_disabled": 0, "lon": -77.02262283333333, "name": "555eda16a686b2192d9bb68de9515a7f", "fusion_lon": 0.0}, {"lat": 38.9077475, "fusion_lat": 0.0, "type": "electric_scooter", "bike_id": "9c8c66a3ba773f8bddd0614a084b75b2", "is_reserved": 0, "rental_uris": {"ios": "https://dc.lft.to/lastmile_qr_scan", "android": "https://dc.lft.to/lastmile_qr_scan"}, "is_disabled": 0, "lon": -77.020292, "name": "9c8c66a3ba773f8bddd0614a084b75b2", "fusion_lon": 0.0}, {"lat": 38.912915, "fusion_lat": 0.0, "type": "electric_scooter", "bike_id": "5042023aacaeff320fd4f9e5f0eb8906", "is_reserved": 0, "rental_uris": {"ios": "https://dc.lft.to/lastmile_qr_scan", "android": "https://dc.lft.to/lastmile_qr_scan"}, "is_disabled": 0, "lon": -77.01980583333334, "name": "5042023aacaeff320fd4f9e5f0eb8906", "fusion_lon": 0.0}, {"lat": 38.91728166666667, "fusion_lat": 0.0, "type": "electric_scooter", "bike_id": "00847c21817fb8cbe12d394f892088cd", "is_reserved": 0, "rental_uris": {"ios": "https://dc.lft.to/lastmile_qr_scan", "android": "https://dc.lft.to/lastmile_qr_scan"}, "is_disabled": 0, "lon": -77.02518733333334, "name": "00847c21817fb8cbe12d394f892088cd", "fusion_lon": 0.0}, {"lat": 38.90252916666667, "fusion_lat": 0.0, "type": "electric_scooter", "bike_id": "e0340a51f884f2e8dc8430a33c36ce02", "is_reserved": 0, "rental_uris": {"ios": "https://dc.lft.to/lastmile_qr_scan", "android": "https://dc.lft.to/lastmile_qr_scan"}, "is_disabled": 0, "lon": -77.0163225, "name": "e0340a51f884f2e8dc8430a33c36ce02", "fusion_lon": 0.0}, {"lat": 38.90279266666667, "fusion_lat": 0.0, "type": "electric_scooter", "bike_id": "2f9b2c9147b6bc56e47c31c1cce68473", "is_reserved": 0, "rental_uris": {"ios": "https://dc.lft.to/lastmile_qr_scan", "android": "https://dc.lft.to/lastmile_qr_scan"}, "is_disabled": 0, "lon": -77.033537, "name": "2f9b2c9147b6bc56e47c31c1cce68473", "fusion_lon": 0.0}, {"lat": 38.912249333333335, "fusion_lat": 0.0, "type": "electric_scooter", "bike_id": "64ac34d60df9fd03795aaf6a6907a84d", "is_reserved": 0, "rental_uris": {"ios": "https://dc.lft.to/lastmile_qr_scan", "android": "https://dc.lft.to/lastmile_qr_scan"}, "is_disabled": 0, "lon": -77.02956333333333, "name": "64ac34d60df9fd03795aaf6a6907a84d", "fusion_lon": 0.0}, {"lat": 38.908331, "fusion_lat": 0.0, "type": "electric_bike", "bike_id": "9e67ed8cd649fbb9e0e8fe36f9aea075", "is_reserved": 0, "rental_uris": {"ios": "https://dc.lft.to/lastmile_qr_scan", "android": "https://dc.lft.to/lastmile_qr_scan"}, "is_disabled": 0, "lon": -76.94159616666667, "name": "9e67ed8cd649fbb9e0e8fe36f9aea075", "fusion_lon": 0.0}, {"lat": 38.910274666666666, "fusion_lat": 0.0, "type": "electric_scooter", "bike_id": "94eadbcb4f55b79a5932f262cf4a6d01", "is_reserved": 0, "rental_uris": {"ios": "https://dc.lft.to/lastmile_qr_scan", "android": "https://dc.lft.to/lastmile_qr_scan"}, "is_disabled": 0, "lon": -77.007583, "name": "94eadbcb4f55b79a5932f262cf4a6d01", "fusion_lon": 0.0}, {"lat": 38.90726433333333, "fusion_lat": 0.0, "type": "electric_scooter", "bike_id": "df6503d75d716d58ce16084aa3b6f83a", "is_reserved": 0, "rental_uris": {"ios": "https://dc.lft.to/lastmile_qr_scan", "android": "https://dc.lft.to/lastmile_qr_scan"}, "is_disabled": 0, "lon": -77.0417835, "name": "df6503d75d716d58ce16084aa3b6f83a", "fusion_lon": 0.0}, {"lat": 38.92400033333333, "fusion_lat": 0.0, "type": "electric_scooter", "bike_id": "35ed0cce94a1795030db6eb377fc5f0d", "is_reserved": 0, "rental_uris": {"ios": "https://dc.lft.to/lastmile_qr_scan", "android": "https://dc.lft.to/lastmile_qr_scan"}, "is_disabled": 0, "lon": -77.02428483333334, "name": "35ed0cce94a1795030db6eb377fc5f0d", "fusion_lon": 0.0}, {"lat": 38.893725, "fusion_lat": 0.0, "type": "electric_scooter", "bike_id": "47803efabd6c26a4a14d02128129f4c8", "is_reserved": 0, "rental_uris": {"ios": "https://dc.lft.to/lastmile_qr_scan", "android": "https://dc.lft.to/lastmile_qr_scan"}, "is_disabled": 0, "lon": -77.03151416666667, "name": "47803efabd6c26a4a14d02128129f4c8", "fusion_lon": 0.0}, {"lat": 38.9053695, "fusion_lat": 0.0, "type": "electric_scooter", "bike_id": "bb7f88dfac4c546c8f180385dc90348c", "is_reserved": 0, "rental_uris": {"ios": "https://dc.lft.to/lastmile_qr_scan", "android": "https://dc.lft.to/lastmile_qr_scan"}, "is_disabled": 0, "lon": -76.98104283333333, "name": "bb7f88dfac4c546c8f180385dc90348c", "fusion_lon": 0.0}, {"lat": 38.92028333333333, "fusion_lat": 0.0, "type": "electric_bike", "bike_id": "f3921ac2d9f044c8ed20c0b274137538", "is_reserved": 0, "rental_uris": {"ios": "https://dc.lft.to/lastmile_qr_scan", "android": "https://dc.lft.to/lastmile_qr_scan"}, "is_disabled": 0, "lon": -77.0033765, "name": "f3921ac2d9f044c8ed20c0b274137538", "fusion_lon": 0.0}, {"lat": 38.897547833333334, "fusion_lat": 0.0, "type": "electric_scooter", "bike_id": "1b4d44cbec6c904659f7d56eebe99874", "is_reserved": 0, "rental_uris": {"ios": "https://dc.lft.to/lastmile_qr_scan", "android": "https://dc.lft.to/lastmile_qr_scan"}, "is_disabled": 0, "lon": -76.925854, "name": "1b4d44cbec6c904659f7d56eebe99874", "fusion_lon": 0.0}, {"lat": 38.918080833333335, "fusion_lat": 0.0, "type": "electric_scooter", "bike_id": "d1daff62eab63b9bfd45ae52535222d8", "is_reserved": 0, "rental_uris": {"ios": "https://dc.lft.to/lastmile_qr_scan", "android": "https://dc.lft.to/lastmile_qr_scan"}, "is_disabled": 0, "lon": -77.04559133333333, "name": "d1daff62eab63b9bfd45ae52535222d8", "fusion_lon": 0.0}, {"lat": 38.88517433333333, "fusion_lat": 0.0, "type": "electric_scooter", "bike_id": "8bc1cef53f5b292d08f2a3d046cde53d", "is_reserved": 0, "rental_uris": {"ios": "https://dc.lft.to/lastmile_qr_scan", "android": "https://dc.lft.to/lastmile_qr_scan"}, "is_disabled": 0, "lon": -77.01561083333333, "name": "8bc1cef53f5b292d08f2a3d046cde53d", "fusion_lon": 0.0}, {"lat": 38.9278055, "fusion_lat": 0.0, "type": "electric_scooter", "bike_id": "d3dea1d994351e05daa15082c361c6b9", "is_reserved": 0, "rental_uris": {"ios": "https://dc.lft.to/lastmile_qr_scan", "android": "https://dc.lft.to/lastmile_qr_scan"}, "is_disabled": 0, "lon": -77.02679316666666, "name": "d3dea1d994351e05daa15082c361c6b9", "fusion_lon": 0.0}, {"lat": 38.832083, "fusion_lat": 0.0, "type": "electric_scooter", "bike_id": "cffd0b5f6bf78f7952a86158d69a4df9", "is_reserved": 0, "rental_uris": {"ios": "https://dc.lft.to/lastmile_qr_scan", "android": "https://dc.lft.to/lastmile_qr_scan"}, "is_disabled": 0, "lon": -77.00793816666666, "name": "cffd0b5f6bf78f7952a86158d69a4df9", "fusion_lon": 0.0}, {"lat": 38.876420833333334, "fusion_lat": 0.0, "type": "electric_scooter", "bike_id": "0c2d78d307841dfc794913607d19195c", "is_reserved": 0, "rental_uris": {"ios": "https://dc.lft.to/lastmile_qr_scan", "android": "https://dc.lft.to/lastmile_qr_scan"}, "is_disabled": 0, "lon": -77.0045985, "name": "0c2d78d307841dfc794913607d19195c", "fusion_lon": 0.0}, {"lat": 38.89677483333333, "fusion_lat": 0.0, "type": "electric_scooter", "bike_id": "7afc797a66ef5c60cc208d90b8ab8493", "is_reserved": 0, "rental_uris": {"ios": "https://dc.lft.to/lastmile_qr_scan", "android": "https://dc.lft.to/lastmile_qr_scan"}, "is_disabled": 0, "lon": -77.00352533333333, "name": "7afc797a66ef5c60cc208d90b8ab8493", "fusion_lon": 0.0}, {"lat": 38.8925965, "fusion_lat": 0.0, "type": "electric_scooter", "bike_id": "ddf83fd44762d8517943b555981772d1", "is_reserved": 0, "rental_uris": {"ios": "https://dc.lft.to/lastmile_qr_scan", "android": "https://dc.lft.to/lastmile_qr_scan"}, "is_disabled": 0, "lon": -77.00355016666667, "name": "ddf83fd44762d8517943b555981772d1", "fusion_lon": 0.0}, {"lat": 38.924493, "fusion_lat": 0.0, "type": "electric_scooter", "bike_id": "1ccc22d96b3f25bd25b95979c9ca1a42", "is_reserved": 0, "rental_uris": {"ios": "https://dc.lft.to/lastmile_qr_scan", "android": "https://dc.lft.to/lastmile_qr_scan"}, "is_disabled": 0, "lon": -77.0410875, "name": "1ccc22d96b3f25bd25b95979c9ca1a42", "fusion_lon": 0.0}, {"lat": 38.917638333333336, "fusion_lat": 0.0, "type": "electric_scooter", "bike_id": "e72d6b34631f0b3471bdeb7869cf6d39", "is_reserved": 0, "rental_uris": {"ios": "https://dc.lft.to/lastmile_qr_scan", "android": "https://dc.lft.to/lastmile_qr_scan"}, "is_disabled": 0, "lon": -77.03206916666667, "name": "e72d6b34631f0b3471bdeb7869cf6d39", "fusion_lon": 0.0}, {"lat": 38.8606165, "fusion_lat": 0.0, "type": "electric_scooter", "bike_id": "8d2c90367b4d45ecc73854faad30e5c6", "is_reserved": 0, "rental_uris": {"ios": "https://dc.lft.to/lastmile_qr_scan", "android": "https://dc.lft.to/lastmile_qr_scan"}, "is_disabled": 0, "lon": -76.984246, "name": "8d2c90367b4d45ecc73854faad30e5c6", "fusion_lon": 0.0}, {"lat": 38.894633666666664, "fusion_lat": 0.0, "type": "electric_scooter", "bike_id": "24344851c0940efb4bc7c81341c975e2", "is_reserved": 0, "rental_uris": {"ios": "https://dc.lft.to/lastmile_qr_scan", "android": "https://dc.lft.to/lastmile_qr_scan"}, "is_disabled": 0, "lon": -77.02782466666666, "name": "24344851c0940efb4bc7c81341c975e2", "fusion_lon": 0.0}, {"lat": 38.941816333333335, "fusion_lat": 0.0, "type": "electric_scooter", "bike_id": "1e7d3af39f04e6a06c3811616dd18952", "is_reserved": 0, "rental_uris": {"ios": "https://dc.lft.to/lastmile_qr_scan", "android": "https://dc.lft.to/lastmile_qr_scan"}, "is_disabled": 0, "lon": -77.02794, "name": "1e7d3af39f04e6a06c3811616dd18952", "fusion_lon": 0.0}, {"lat": 38.91696233333333, "fusion_lat": 0.0, "type": "electric_scooter", "bike_id": "f6314fdf7bb4c5c74a27c4621314595e", "is_reserved": 0, "rental_uris": {"ios": "https://dc.lft.to/lastmile_qr_scan", "android": "https://dc.lft.to/lastmile_qr_scan"}, "is_disabled": 0, "lon": -77.0251435, "name": "f6314fdf7bb4c5c74a27c4621314595e", "fusion_lon": 0.0}, {"lat": 38.92358483333334, "fusion_lat": 0.0, "type": "electric_scooter", "bike_id": "11217953e3e19e9d26ce323283ecdf6e", "is_reserved": 0, "rental_uris": {"ios": "https://dc.lft.to/lastmile_qr_scan", "android": "https://dc.lft.to/lastmile_qr_scan"}, "is_disabled": 0, "lon": -77.05281483333333, "name": "11217953e3e19e9d26ce323283ecdf6e", "fusion_lon": 0.0}, {"lat": 38.94183483333333, "fusion_lat": 0.0, "type": "electric_scooter", "bike_id": "df63a8162a6d11f1d48121034b730989", "is_reserved": 0, "rental_uris": {"ios": "https://dc.lft.to/lastmile_qr_scan", "android": "https://dc.lft.to/lastmile_qr_scan"}, "is_disabled": 0, "lon": -77.02488816666667, "name": "df63a8162a6d11f1d48121034b730989", "fusion_lon": 0.0}, {"lat": 38.925759166666666, "fusion_lat": 0.0, "type": "electric_scooter", "bike_id": "4f66705adaf0afff36ac7bb15e31ffd1", "is_reserved": 0, "rental_uris": {"ios": "https://dc.lft.to/lastmile_qr_scan", "android": "https://dc.lft.to/lastmile_qr_scan"}, "is_disabled": 0, "lon": -77.032213, "name": "4f66705adaf0afff36ac7bb15e31ffd1", "fusion_lon": 0.0}, {"lat": 38.918156, "fusion_lat": 0.0, "type": "electric_scooter", "bike_id": "1b0c38b2f808db604bc1d737db9e825c", "is_reserved": 0, "rental_uris": {"ios": "https://dc.lft.to/lastmile_qr_scan", "android": "https://dc.lft.to/lastmile_qr_scan"}, "is_disabled": 0, "lon": -77.04000933333333, "name": "1b0c38b2f808db604bc1d737db9e825c", "fusion_lon": 0.0}, {"lat": 38.865097, "fusion_lat": 0.0, "type": "electric_scooter", "bike_id": "b9cbd9978a38c7b61771919f0faf4950", "is_reserved": 0, "rental_uris": {"ios": "https://dc.lft.to/lastmile_qr_scan", "android": "https://dc.lft.to/lastmile_qr_scan"}, "is_disabled": 0, "lon": -76.99007, "name": "b9cbd9978a38c7b61771919f0faf4950", "fusion_lon": 0.0}, {"lat": 38.91960433333333, "fusion_lat": 0.0, "type": "electric_scooter", "bike_id": "643c1166ff42e1be297ed204da1c3f53", "is_reserved": 0, "rental_uris": {"ios": "https://dc.lft.to/lastmile_qr_scan", "android": "https://dc.lft.to/lastmile_qr_scan"}, "is_disabled": 0, "lon": -77.03476283333333, "name": "643c1166ff42e1be297ed204da1c3f53", "fusion_lon": 0.0}, {"lat": 38.93586, "fusion_lat": 0.0, "type": "electric_scooter", "bike_id": "bee297183f529f9a7f16f569c0af8060", "is_reserved": 0, "rental_uris": {"ios": "https://dc.lft.to/lastmile_qr_scan", "android": "https://dc.lft.to/lastmile_qr_scan"}, "is_disabled": 0, "lon": -77.0335785, "name": "bee297183f529f9a7f16f569c0af8060", "fusion_lon": 0.0}, {"lat": 38.91580916666667, "fusion_lat": 0.0, "type": "electric_scooter", "bike_id": "a914e9040b30c9a2d697b96148d1af9f", "is_reserved": 0, "rental_uris": {"ios": "https://dc.lft.to/lastmile_qr_scan", "android": "https://dc.lft.to/lastmile_qr_scan"}, "is_disabled": 0, "lon": -77.01233066666667, "name": "a914e9040b30c9a2d697b96148d1af9f", "fusion_lon": 0.0}, {"lat": 38.927071166666664, "fusion_lat": 0.0, "type": "electric_scooter", "bike_id": "e96369b5618a431c662984bf72f1f4fd", "is_reserved": 0, "rental_uris": {"ios": "https://dc.lft.to/lastmile_qr_scan", "android": "https://dc.lft.to/lastmile_qr_scan"}, "is_disabled": 0, "lon": -77.02423433333334, "name": "e96369b5618a431c662984bf72f1f4fd", "fusion_lon": 0.0}, {"lat": 38.9222595, "fusion_lat": 0.0, "type": "electric_scooter", "bike_id": "12f895f2a4340b5953928d3e52e57ce2", "is_reserved": 0, "rental_uris": {"ios": "https://dc.lft.to/lastmile_qr_scan", "android": "https://dc.lft.to/lastmile_qr_scan"}, "is_disabled": 0, "lon": -77.033105, "name": "12f895f2a4340b5953928d3e52e57ce2", "fusion_lon": 0.0}, {"lat": 38.9230945, "fusion_lat": 0.0, "type": "electric_bike", "bike_id": "6e228864e5c4792f6639a5f31eae2e2b", "is_reserved": 0, "rental_uris": {"ios": "https://dc.lft.to/lastmile_qr_scan", "android": "https://dc.lft.to/lastmile_qr_scan"}, "is_disabled": 0, "lon": -77.022614, "name": "6e228864e5c4792f6639a5f31eae2e2b", "fusion_lon": 0.0}, {"lat": 38.80764216666667, "fusion_lat": 0.0, "type": "electric_bike", "bike_id": "9b556c11b4959fabb72c64c64dc0d020", "is_reserved": 0, "rental_uris": {"ios": "https://dc.lft.to/lastmile_qr_scan", "android": "https://dc.lft.to/lastmile_qr_scan"}, "is_disabled": 0, "lon": -77.09467533333333, "name": "9b556c11b4959fabb72c64c64dc0d020", "fusion_lon": 0.0}, {"lat": 38.8720875, "fusion_lat": 0.0, "type": "electric_scooter", "bike_id": "9531a8c3b33f5556c4c30557e2bb86b9", "is_reserved": 0, "rental_uris": {"ios": "https://dc.lft.to/lastmile_qr_scan", "android": "https://dc.lft.to/lastmile_qr_scan"}, "is_disabled": 0, "lon": -77.00969066666667, "name": "9531a8c3b33f5556c4c30557e2bb86b9", "fusion_lon": 0.0}, {"lat": 38.993419, "fusion_lat": 0.0, "type": "electric_bike", "bike_id": "808ec3ed048ba868acce94b287b55339", "is_reserved": 0, "rental_uris": {"ios": "https://dc.lft.to/lastmile_qr_scan", "android": "https://dc.lft.to/lastmile_qr_scan"}, "is_disabled": 0, "lon": -77.11584366666666, "name": "808ec3ed048ba868acce94b287b55339", "fusion_lon": 0.0}, {"lat": 38.91402183333334, "fusion_lat": 0.0, "type": "electric_scooter", "bike_id": "378b88075ee705c49db442c4c8284b0b", "is_reserved": 0, "rental_uris": {"ios": "https://dc.lft.to/lastmile_qr_scan", "android": "https://dc.lft.to/lastmile_qr_scan"}, "is_disabled": 0, "lon": -77.03186283333334, "name": "378b88075ee705c49db442c4c8284b0b", "fusion_lon": 0.0}, {"lat": 38.916372833333334, "fusion_lat": 0.0, "type": "electric_scooter", "bike_id": "2b5dbadcabff459758a80e4148ad534c", "is_reserved": 0, "rental_uris": {"ios": "https://dc.lft.to/lastmile_qr_scan", "android": "https://dc.lft.to/lastmile_qr_scan"}, "is_disabled": 0, "lon": -77.02553133333333, "name": "2b5dbadcabff459758a80e4148ad534c", "fusion_lon": 0.0}, {"lat": 38.86391233333333, "fusion_lat": 0.0, "type": "electric_scooter", "bike_id": "aac7c9bafa2c1f5bd3d1069dc7c6f910", "is_reserved": 0, "rental_uris": {"ios": "https://dc.lft.to/lastmile_qr_scan", "android": "https://dc.lft.to/lastmile_qr_scan"}, "is_disabled": 0, "lon": -76.99045916666667, "name": "aac7c9bafa2c1f5bd3d1069dc7c6f910", "fusion_lon": 0.0}, {"lat": 38.932768333333335, "fusion_lat": 0.0, "type": "electric_scooter", "bike_id": "3639a6b5235967938b20e0f5b6f22f47", "is_reserved": 0, "rental_uris": {"ios": "https://dc.lft.to/lastmile_qr_scan", "android": "https://dc.lft.to/lastmile_qr_scan"}, "is_disabled": 0, "lon": -77.04538633333334, "name": "3639a6b5235967938b20e0f5b6f22f47", "fusion_lon": 0.0}, {"lat": 38.906364833333335, "fusion_lat": 0.0, "type": "electric_scooter", "bike_id": "d3355923b75515adf30b511958509cf9", "is_reserved": 0, "rental_uris": {"ios": "https://dc.lft.to/lastmile_qr_scan", "android": "https://dc.lft.to/lastmile_qr_scan"}, "is_disabled": 0, "lon": -77.00175, "name": "d3355923b75515adf30b511958509cf9", "fusion_lon": 0.0}, {"lat": 38.897365, "fusion_lat": 0.0, "type": "electric_scooter", "bike_id": "b8b75012bec05a751930ddb450385769", "is_reserved": 0, "rental_uris": {"ios": "https://dc.lft.to/lastmile_qr_scan", "android": "https://dc.lft.to/lastmile_qr_scan"}, "is_disabled": 0, "lon": -77.00752616666666, "name": "b8b75012bec05a751930ddb450385769", "fusion_lon": 0.0}, {"lat": 38.92495066666667, "fusion_lat": 0.0, "type": "electric_scooter", "bike_id": "344f39b5a6888cea10f5b707a3830bc8", "is_reserved": 0, "rental_uris": {"ios": "https://dc.lft.to/lastmile_qr_scan", "android": "https://dc.lft.to/lastmile_qr_scan"}, "is_disabled": 0, "lon": -77.052538, "name": "344f39b5a6888cea10f5b707a3830bc8", "fusion_lon": 0.0}, {"lat": 38.900434, "fusion_lat": 0.0, "type": "electric_scooter", "bike_id": "3048150edbb2144209b44be93101d154", "is_reserved": 0, "rental_uris": {"ios": "https://dc.lft.to/lastmile_qr_scan", "android": "https://dc.lft.to/lastmile_qr_scan"}, "is_disabled": 0, "lon": -76.98823733333333, "name": "3048150edbb2144209b44be93101d154", "fusion_lon": 0.0}, {"lat": 38.91024816666667, "fusion_lat": 0.0, "type": "electric_scooter", "bike_id": "3186493961583bb2682661f5a7de7fc7", "is_reserved": 0, "rental_uris": {"ios": "https://dc.lft.to/lastmile_qr_scan", "android": "https://dc.lft.to/lastmile_qr_scan"}, "is_disabled": 0, "lon": -77.0366355, "name": "3186493961583bb2682661f5a7de7fc7", "fusion_lon": 0.0}, {"lat": 38.98148333333334, "fusion_lat": 0.0, "type": "electric_bike", "bike_id": "c4997426b8af8e805c51869e4a9b2664", "is_reserved": 0, "rental_uris": {"ios": "https://dc.lft.to/lastmile_qr_scan", "android": "https://dc.lft.to/lastmile_qr_scan"}, "is_disabled": 0, "lon": -77.092572, "name": "c4997426b8af8e805c51869e4a9b2664", "fusion_lon": 0.0}, {"lat": 38.90827133333333, "fusion_lat": 0.0, "type": "electric_scooter", "bike_id": "da583306735759b82e6d35f03c42112d", "is_reserved": 0, "rental_uris": {"ios": "https://dc.lft.to/lastmile_qr_scan", "android": "https://dc.lft.to/lastmile_qr_scan"}, "is_disabled": 0, "lon": -77.04320216666666, "name": "da583306735759b82e6d35f03c42112d", "fusion_lon": 0.0}, {"lat": 38.88512633333333, "fusion_lat": 0.0, "type": "electric_scooter", "bike_id": "fe176abfe7d24326e0e90789bc351a18", "is_reserved": 0, "rental_uris": {"ios": "https://dc.lft.to/lastmile_qr_scan", "android": "https://dc.lft.to/lastmile_qr_scan"}, "is_disabled": 0, "lon": -77.02101433333333, "name": "fe176abfe7d24326e0e90789bc351a18", "fusion_lon": 0.0}, {"lat": 38.909723666666665, "fusion_lat": 0.0, "type": "electric_scooter", "bike_id": "15f23bb0b42a25d87e3377a758aa182a", "is_reserved": 0, "rental_uris": {"ios": "https://dc.lft.to/lastmile_qr_scan", "android": "https://dc.lft.to/lastmile_qr_scan"}, "is_disabled": 0, "lon": -77.0394155, "name": "15f23bb0b42a25d87e3377a758aa182a", "fusion_lon": 0.0}, {"lat": 38.91965583333333, "fusion_lat": 0.0, "type": "electric_scooter", "bike_id": "3dadf30592bf66d12e71c8695b353efd", "is_reserved": 0, "rental_uris": {"ios": "https://dc.lft.to/lastmile_qr_scan", "android": "https://dc.lft.to/lastmile_qr_scan"}, "is_disabled": 0, "lon": -77.0121485, "name": "3dadf30592bf66d12e71c8695b353efd", "fusion_lon": 0.0}, {"lat": 38.90879316666667, "fusion_lat": 0.0, "type": "electric_scooter", "bike_id": "26b60d4b1d4f61a68f0d75b4c6273921", "is_reserved": 0, "rental_uris": {"ios": "https://dc.lft.to/lastmile_qr_scan", "android": "https://dc.lft.to/lastmile_qr_scan"}, "is_disabled": 0, "lon": -77.0753725, "name": "26b60d4b1d4f61a68f0d75b4c6273921", "fusion_lon": 0.0}, {"lat": 38.921434833333336, "fusion_lat": 0.0, "type": "electric_scooter", "bike_id": "650e18e82615d3aac8a80d4de4549500", "is_reserved": 0, "rental_uris": {"ios": "https://dc.lft.to/lastmile_qr_scan", "android": "https://dc.lft.to/lastmile_qr_scan"}, "is_disabled": 0, "lon": -77.01829566666666, "name": "650e18e82615d3aac8a80d4de4549500", "fusion_lon": 0.0}, {"lat": 38.92140366666667, "fusion_lat": 0.0, "type": "electric_scooter", "bike_id": "3474a0662ca417d532aad7a96fbdf7aa", "is_reserved": 0, "rental_uris": {"ios": "https://dc.lft.to/lastmile_qr_scan", "android": "https://dc.lft.to/lastmile_qr_scan"}, "is_disabled": 0, "lon": -77.0433875, "name": "3474a0662ca417d532aad7a96fbdf7aa", "fusion_lon": 0.0}, {"lat": 38.90027283333333, "fusion_lat": 0.0, "type": "electric_scooter", "bike_id": "665bcbd5291044a51833a8d6ee492198", "is_reserved": 0, "rental_uris": {"ios": "https://dc.lft.to/lastmile_qr_scan", "android": "https://dc.lft.to/lastmile_qr_scan"}, "is_disabled": 0, "lon": -76.99869766666667, "name": "665bcbd5291044a51833a8d6ee492198", "fusion_lon": 0.0}, {"lat": 38.859326, "fusion_lat": 0.0, "type": "electric_scooter", "bike_id": "b620ffec5adec50a7a72e4c085458a27", "is_reserved": 0, "rental_uris": {"ios": "https://dc.lft.to/lastmile_qr_scan", "android": "https://dc.lft.to/lastmile_qr_scan"}, "is_disabled": 0, "lon": -76.98973516666666, "name": "b620ffec5adec50a7a72e4c085458a27", "fusion_lon": 0.0}, {"lat": 38.902151, "fusion_lat": 0.0, "type": "electric_scooter", "bike_id": "fb0307130ad8ab1796755a689e90ded8", "is_reserved": 0, "rental_uris": {"ios": "https://dc.lft.to/lastmile_qr_scan", "android": "https://dc.lft.to/lastmile_qr_scan"}, "is_disabled": 0, "lon": -77.0232835, "name": "fb0307130ad8ab1796755a689e90ded8", "fusion_lon": 0.0}, {"lat": 38.9204895, "fusion_lat": 0.0, "type": "electric_scooter", "bike_id": "5773608a79e33f9beae1d13f57fdd1b7", "is_reserved": 0, "rental_uris": {"ios": "https://dc.lft.to/lastmile_qr_scan", "android": "https://dc.lft.to/lastmile_qr_scan"}, "is_disabled": 0, "lon": -76.9894335, "name": "5773608a79e33f9beae1d13f57fdd1b7", "fusion_lon": 0.0}, {"lat": 38.90769366666667, "fusion_lat": 0.0, "type": "electric_scooter", "bike_id": "482429f084586a61da04561aceac3ceb", "is_reserved": 0, "rental_uris": {"ios": "https://dc.lft.to/lastmile_qr_scan", "android": "https://dc.lft.to/lastmile_qr_scan"}, "is_disabled": 0, "lon": -77.01223533333334, "name": "482429f084586a61da04561aceac3ceb", "fusion_lon": 0.0}, {"lat": 38.9039535, "fusion_lat": 0.0, "type": "electric_scooter", "bike_id": "a564a2e80fed23fc351626e6ccbcc2aa", "is_reserved": 0, "rental_uris": {"ios": "https://dc.lft.to/lastmile_qr_scan", "android": "https://dc.lft.to/lastmile_qr_scan"}, "is_disabled": 0, "lon": -77.04275033333333, "name": "a564a2e80fed23fc351626e6ccbcc2aa", "fusion_lon": 0.0}, {"lat": 38.898755333333334, "fusion_lat": 0.0, "type": "electric_scooter", "bike_id": "3078c68ac680b092579930794b40ae87", "is_reserved": 0, "rental_uris": {"ios": "https://dc.lft.to/lastmile_qr_scan", "android": "https://dc.lft.to/lastmile_qr_scan"}, "is_disabled": 0, "lon": -77.03926316666667, "name": "3078c68ac680b092579930794b40ae87", "fusion_lon": 0.0}, {"lat": 38.89760833333333, "fusion_lat": 0.0, "type": "electric_scooter", "bike_id": "e3573489d9738b323ebd19cee03fca16", "is_reserved": 0, "rental_uris": {"ios": "https://dc.lft.to/lastmile_qr_scan", "android": "https://dc.lft.to/lastmile_qr_scan"}, "is_disabled": 0, "lon": -77.03007283333334, "name": "e3573489d9738b323ebd19cee03fca16", "fusion_lon": 0.0}, {"lat": 38.8294585, "fusion_lat": 0.0, "type": "electric_bike", "bike_id": "becd86f6b6e47ac6a967337bc4474371", "is_reserved": 0, "rental_uris": {"ios": "https://dc.lft.to/lastmile_qr_scan", "android": "https://dc.lft.to/lastmile_qr_scan"}, "is_disabled": 0, "lon": -77.12360316666667, "name": "becd86f6b6e47ac6a967337bc4474371", "fusion_lon": 0.0}, {"lat": 38.92757233333333, "fusion_lat": 0.0, "type": "electric_scooter", "bike_id": "718e28a9d6fbdb0af721ac494cba3dc4", "is_reserved": 0, "rental_uris": {"ios": "https://dc.lft.to/lastmile_qr_scan", "android": "https://dc.lft.to/lastmile_qr_scan"}, "is_disabled": 0, "lon": -77.03278366666666, "name": "718e28a9d6fbdb0af721ac494cba3dc4", "fusion_lon": 0.0}, {"lat": 38.89983933333333, "fusion_lat": 0.0, "type": "electric_scooter", "bike_id": "fb9a76b8058de22475c46aee599189bd", "is_reserved": 0, "rental_uris": {"ios": "https://dc.lft.to/lastmile_qr_scan", "android": "https://dc.lft.to/lastmile_qr_scan"}, "is_disabled": 0, "lon": -77.0224855, "name": "fb9a76b8058de22475c46aee599189bd", "fusion_lon": 0.0}, {"lat": 38.907240333333334, "fusion_lat": 0.0, "type": "electric_scooter", "bike_id": "9c7b0dcde1e2b8de165346635ad64685", "is_reserved": 0, "rental_uris": {"ios": "https://dc.lft.to/lastmile_qr_scan", "android": "https://dc.lft.to/lastmile_qr_scan"}, "is_disabled": 0, "lon": -76.9892695, "name": "9c7b0dcde1e2b8de165346635ad64685", "fusion_lon": 0.0}, {"lat": 38.905809833333336, "fusion_lat": 0.0, "type": "electric_scooter", "bike_id": "643577acf5044477e5ec2e1a229b4bcb", "is_reserved": 0, "rental_uris": {"ios": "https://dc.lft.to/lastmile_qr_scan", "android": "https://dc.lft.to/lastmile_qr_scan"}, "is_disabled": 0, "lon": -77.05131366666667, "name": "643577acf5044477e5ec2e1a229b4bcb", "fusion_lon": 0.0}, {"lat": 38.871764, "fusion_lat": 0.0, "type": "electric_scooter", "bike_id": "aa92dceff45103e385df1a5c9f2500b7", "is_reserved": 0, "rental_uris": {"ios": "https://dc.lft.to/lastmile_qr_scan", "android": "https://dc.lft.to/lastmile_qr_scan"}, "is_disabled": 0, "lon": -77.00616183333334, "name": "aa92dceff45103e385df1a5c9f2500b7", "fusion_lon": 0.0}, {"lat": 38.919722666666665, "fusion_lat": 0.0, "type": "electric_scooter", "bike_id": "8e722e42733ded23f01ce1a27d3407b3", "is_reserved": 0, "rental_uris": {"ios": "https://dc.lft.to/lastmile_qr_scan", "android": "https://dc.lft.to/lastmile_qr_scan"}, "is_disabled": 0, "lon": -77.019124, "name": "8e722e42733ded23f01ce1a27d3407b3", "fusion_lon": 0.0}, {"lat": 38.91840966666667, "fusion_lat": 0.0, "type": "electric_scooter", "bike_id": "3386b9de2fad0c9f12abab1549d87050", "is_reserved": 0, "rental_uris": {"ios": "https://dc.lft.to/lastmile_qr_scan", "android": "https://dc.lft.to/lastmile_qr_scan"}, "is_disabled": 0, "lon": -77.0403025, "name": "3386b9de2fad0c9f12abab1549d87050", "fusion_lon": 0.0}, {"lat": 38.90701983333334, "fusion_lat": 0.0, "type": "electric_scooter", "bike_id": "15cdc7dcb9681c3419dbc1f0af34c87f", "is_reserved": 0, "rental_uris": {"ios": "https://dc.lft.to/lastmile_qr_scan", "android": "https://dc.lft.to/lastmile_qr_scan"}, "is_disabled": 0, "lon": -77.029398, "name": "15cdc7dcb9681c3419dbc1f0af34c87f", "fusion_lon": 0.0}, {"lat": 38.86938716666667, "fusion_lat": 0.0, "type": "electric_bike", "bike_id": "0bb60d058e305583176cec967919778d", "is_reserved": 0, "rental_uris": {"ios": "https://dc.lft.to/lastmile_qr_scan", "android": "https://dc.lft.to/lastmile_qr_scan"}, "is_disabled": 0, "lon": -77.09470066666667, "name": "0bb60d058e305583176cec967919778d", "fusion_lon": 0.0}, {"lat": 38.9185885, "fusion_lat": 0.0, "type": "electric_scooter", "bike_id": "06de3001b9fb827d413d58da2482de44", "is_reserved": 0, "rental_uris": {"ios": "https://dc.lft.to/lastmile_qr_scan", "android": "https://dc.lft.to/lastmile_qr_scan"}, "is_disabled": 0, "lon": -77.041078, "name": "06de3001b9fb827d413d58da2482de44", "fusion_lon": 0.0}, {"lat": 38.8837695, "fusion_lat": 0.0, "type": "electric_scooter", "bike_id": "3c79f39f3e2dfe6f73eb09daeb7b191f", "is_reserved": 0, "rental_uris": {"ios": "https://dc.lft.to/lastmile_qr_scan", "android": "https://dc.lft.to/lastmile_qr_scan"}, "is_disabled": 0, "lon": -76.99520416666667, "name": "3c79f39f3e2dfe6f73eb09daeb7b191f", "fusion_lon": 0.0}, {"lat": 38.959185166666664, "fusion_lat": 0.0, "type": "electric_bike", "bike_id": "0f1580972ed94e18cbcbe51080fbc259", "is_reserved": 0, "rental_uris": {"ios": "https://dc.lft.to/lastmile_qr_scan", "android": "https://dc.lft.to/lastmile_qr_scan"}, "is_disabled": 0, "lon": -77.08483316666667, "name": "0f1580972ed94e18cbcbe51080fbc259", "fusion_lon": 0.0}, {"lat": 38.88745433333333, "fusion_lat": 0.0, "type": "electric_scooter", "bike_id": "2c950066ec5afc1603dc6428c98ce6cf", "is_reserved": 0, "rental_uris": {"ios": "https://dc.lft.to/lastmile_qr_scan", "android": "https://dc.lft.to/lastmile_qr_scan"}, "is_disabled": 0, "lon": -77.0284795, "name": "2c950066ec5afc1603dc6428c98ce6cf", "fusion_lon": 0.0}, {"lat": 38.888532833333336, "fusion_lat": 0.0, "type": "electric_scooter", "bike_id": "f4af79f893d02fe28bc5fa9074463f0c", "is_reserved": 0, "rental_uris": {"ios": "https://dc.lft.to/lastmile_qr_scan", "android": "https://dc.lft.to/lastmile_qr_scan"}, "is_disabled": 0, "lon": -76.92686116666667, "name": "f4af79f893d02fe28bc5fa9074463f0c", "fusion_lon": 0.0}, {"lat": 38.90201583333333, "fusion_lat": 0.0, "type": "electric_scooter", "bike_id": "66a8410dd3d72977604151939cfb51f8", "is_reserved": 0, "rental_uris": {"ios": "https://dc.lft.to/lastmile_qr_scan", "android": "https://dc.lft.to/lastmile_qr_scan"}, "is_disabled": 0, "lon": -77.02184933333334, "name": "66a8410dd3d72977604151939cfb51f8", "fusion_lon": 0.0}, {"lat": 38.916991833333334, "fusion_lat": 0.0, "type": "electric_scooter", "bike_id": "b6fd524df1f6cf6438cb47edd9296084", "is_reserved": 0, "rental_uris": {"ios": "https://dc.lft.to/lastmile_qr_scan", "android": "https://dc.lft.to/lastmile_qr_scan"}, "is_disabled": 0, "lon": -77.03394466666667, "name": "b6fd524df1f6cf6438cb47edd9296084", "fusion_lon": 0.0}, {"lat": 38.93657433333333, "fusion_lat": 0.0, "type": "electric_scooter", "bike_id": "642bfbe9c093d151aef5d13e733de9f9", "is_reserved": 0, "rental_uris": {"ios": "https://dc.lft.to/lastmile_qr_scan", "android": "https://dc.lft.to/lastmile_qr_scan"}, "is_disabled": 0, "lon": -77.0264345, "name": "642bfbe9c093d151aef5d13e733de9f9", "fusion_lon": 0.0}, {"lat": 38.907400333333335, "fusion_lat": 0.0, "type": "electric_scooter", "bike_id": "6826e0fff923f99fdec799b9a2c94c9e", "is_reserved": 0, "rental_uris": {"ios": "https://dc.lft.to/lastmile_qr_scan", "android": "https://dc.lft.to/lastmile_qr_scan"}, "is_disabled": 0, "lon": -77.0093225, "name": "6826e0fff923f99fdec799b9a2c94c9e", "fusion_lon": 0.0}, {"lat": 38.884340333333334, "fusion_lat": 0.0, "type": "electric_scooter", "bike_id": "defd73b27586e4b07512a3181bbbbd91", "is_reserved": 0, "rental_uris": {"ios": "https://dc.lft.to/lastmile_qr_scan", "android": "https://dc.lft.to/lastmile_qr_scan"}, "is_disabled": 0, "lon": -76.95751766666666, "name": "defd73b27586e4b07512a3181bbbbd91", "fusion_lon": 0.0}, {"lat": 38.893150166666665, "fusion_lat": 0.0, "type": "electric_scooter", "bike_id": "0838a8946345745a99e10f1ea6cd0e41", "is_reserved": 0, "rental_uris": {"ios": "https://dc.lft.to/lastmile_qr_scan", "android": "https://dc.lft.to/lastmile_qr_scan"}, "is_disabled": 0, "lon": -77.050047, "name": "0838a8946345745a99e10f1ea6cd0e41", "fusion_lon": 0.0}, {"lat": 38.886407166666665, "fusion_lat": 0.0, "type": "electric_scooter", "bike_id": "0122c473e38d93fce6e849306a435f2b", "is_reserved": 0, "rental_uris": {"ios": "https://dc.lft.to/lastmile_qr_scan", "android": "https://dc.lft.to/lastmile_qr_scan"}, "is_disabled": 0, "lon": -77.01915133333334, "name": "0122c473e38d93fce6e849306a435f2b", "fusion_lon": 0.0}, {"lat": 38.928707, "fusion_lat": 0.0, "type": "electric_scooter", "bike_id": "0ff1436ff3c6457064f98ea1b740e89e", "is_reserved": 0, "rental_uris": {"ios": "https://dc.lft.to/lastmile_qr_scan", "android": "https://dc.lft.to/lastmile_qr_scan"}, "is_disabled": 0, "lon": -77.02852583333333, "name": "0ff1436ff3c6457064f98ea1b740e89e", "fusion_lon": 0.0}, {"lat": 38.90523783333333, "fusion_lat": 0.0, "type": "electric_scooter", "bike_id": "865cec2117af0ef733cd40601447e089", "is_reserved": 0, "rental_uris": {"ios": "https://dc.lft.to/lastmile_qr_scan", "android": "https://dc.lft.to/lastmile_qr_scan"}, "is_disabled": 0, "lon": -77.05086583333333, "name": "865cec2117af0ef733cd40601447e089", "fusion_lon": 0.0}, {"lat": 38.914172666666666, "fusion_lat": 0.0, "type": "electric_scooter", "bike_id": "fc391e3e86b84b842f8ebc1762144b02", "is_reserved": 0, "rental_uris": {"ios": "https://dc.lft.to/lastmile_qr_scan", "android": "https://dc.lft.to/lastmile_qr_scan"}, "is_disabled": 0, "lon": -77.02098233333334, "name": "fc391e3e86b84b842f8ebc1762144b02", "fusion_lon": 0.0}, {"lat": 38.920807333333336, "fusion_lat": 0.0, "type": "electric_bike", "bike_id": "ec852fd9d6074e0e4d1f5cac0b6cf01d", "is_reserved": 0, "rental_uris": {"ios": "https://dc.lft.to/lastmile_qr_scan", "android": "https://dc.lft.to/lastmile_qr_scan"}, "is_disabled": 0, "lon": -77.02933983333334, "name": "ec852fd9d6074e0e4d1f5cac0b6cf01d", "fusion_lon": 0.0}, {"lat": 38.86635716666667, "fusion_lat": 0.0, "type": "electric_scooter", "bike_id": "b6f8ce477e0ae71492d5f780f114af5b", "is_reserved": 0, "rental_uris": {"ios": "https://dc.lft.to/lastmile_qr_scan", "android": "https://dc.lft.to/lastmile_qr_scan"}, "is_disabled": 0, "lon": -76.98260916666666, "name": "b6f8ce477e0ae71492d5f780f114af5b", "fusion_lon": 0.0}, {"lat": 38.949967666666666, "fusion_lat": 0.0, "type": "electric_scooter", "bike_id": "6e04f65760911ba3eb637660d48a44af", "is_reserved": 0, "rental_uris": {"ios": "https://dc.lft.to/lastmile_qr_scan", "android": "https://dc.lft.to/lastmile_qr_scan"}, "is_disabled": 0, "lon": -77.0333035, "name": "6e04f65760911ba3eb637660d48a44af", "fusion_lon": 0.0}, {"lat": 38.97371866666667, "fusion_lat": 0.0, "type": "electric_scooter", "bike_id": "e5b68ebf6ee32100c996e78fcf01b3f1", "is_reserved": 0, "rental_uris": {"ios": "https://dc.lft.to/lastmile_qr_scan", "android": "https://dc.lft.to/lastmile_qr_scan"}, "is_disabled": 0, "lon": -77.0185255, "name": "e5b68ebf6ee32100c996e78fcf01b3f1", "fusion_lon": 0.0}, {"lat": 38.95631266666667, "fusion_lat": 0.0, "type": "electric_scooter", "bike_id": "e80a7ec1148ce99976515dc3a9d01b24", "is_reserved": 0, "rental_uris": {"ios": "https://dc.lft.to/lastmile_qr_scan", "android": "https://dc.lft.to/lastmile_qr_scan"}, "is_disabled": 0, "lon": -77.02782733333333, "name": "e80a7ec1148ce99976515dc3a9d01b24", "fusion_lon": 0.0}, {"lat": 38.9055795, "fusion_lat": 0.0, "type": "electric_scooter", "bike_id": "d72468ec75552ff0796f6556d9b823eb", "is_reserved": 0, "rental_uris": {"ios": "https://dc.lft.to/lastmile_qr_scan", "android": "https://dc.lft.to/lastmile_qr_scan"}, "is_disabled": 0, "lon": -77.04099116666667, "name": "d72468ec75552ff0796f6556d9b823eb", "fusion_lon": 0.0}, {"lat": 38.93434116666667, "fusion_lat": 0.0, "type": "electric_scooter", "bike_id": "990e64eb3f3c9518187087a0d53bf4fd", "is_reserved": 0, "rental_uris": {"ios": "https://dc.lft.to/lastmile_qr_scan", "android": "https://dc.lft.to/lastmile_qr_scan"}, "is_disabled": 0, "lon": -77.04543566666666, "name": "990e64eb3f3c9518187087a0d53bf4fd", "fusion_lon": 0.0}, {"lat": 38.898759166666665, "fusion_lat": 0.0, "type": "electric_scooter", "bike_id": "bc6e8629857c11b4cdce7ede8f40d74c", "is_reserved": 0, "rental_uris": {"ios": "https://dc.lft.to/lastmile_qr_scan", "android": "https://dc.lft.to/lastmile_qr_scan"}, "is_disabled": 0, "lon": -77.02170083333333, "name": "bc6e8629857c11b4cdce7ede8f40d74c", "fusion_lon": 0.0}, {"lat": 38.903972, "fusion_lat": 0.0, "type": "electric_scooter", "bike_id": "1f6ce4a5fc09177f45cd7f204e6a53f9", "is_reserved": 0, "rental_uris": {"ios": "https://dc.lft.to/lastmile_qr_scan", "android": "https://dc.lft.to/lastmile_qr_scan"}, "is_disabled": 0, "lon": -77.05007033333334, "name": "1f6ce4a5fc09177f45cd7f204e6a53f9", "fusion_lon": 0.0}, {"lat": 38.90082783333333, "fusion_lat": 0.0, "type": "electric_scooter", "bike_id": "fb7b9368f065787bb1e15c1f2b587ae0", "is_reserved": 0, "rental_uris": {"ios": "https://dc.lft.to/lastmile_qr_scan", "android": "https://dc.lft.to/lastmile_qr_scan"}, "is_disabled": 0, "lon": -77.049968, "name": "fb7b9368f065787bb1e15c1f2b587ae0", "fusion_lon": 0.0}, {"lat": 38.923220666666666, "fusion_lat": 0.0, "type": "electric_scooter", "bike_id": "28feee0baa0f433cc93c4cf8d4587459", "is_reserved": 0, "rental_uris": {"ios": "https://dc.lft.to/lastmile_qr_scan", "android": "https://dc.lft.to/lastmile_qr_scan"}, "is_disabled": 0, "lon": -77.02137933333333, "name": "28feee0baa0f433cc93c4cf8d4587459", "fusion_lon": 0.0}, {"lat": 38.9065875, "fusion_lat": 0.0, "type": "electric_scooter", "bike_id": "e410a23ebbe4f7333a993c514027c718", "is_reserved": 0, "rental_uris": {"ios": "https://dc.lft.to/lastmile_qr_scan", "android": "https://dc.lft.to/lastmile_qr_scan"}, "is_disabled": 0, "lon": -77.03868083333333, "name": "e410a23ebbe4f7333a993c514027c718", "fusion_lon": 0.0}, {"lat": 38.921782666666665, "fusion_lat": 0.0, "type": "electric_scooter", "bike_id": "9d0fa6ec3010aab18e0485f59856b2b5", "is_reserved": 0, "rental_uris": {"ios": "https://dc.lft.to/lastmile_qr_scan", "android": "https://dc.lft.to/lastmile_qr_scan"}, "is_disabled": 0, "lon": -77.01919633333333, "name": "9d0fa6ec3010aab18e0485f59856b2b5", "fusion_lon": 0.0}, {"lat": 38.91303116666667, "fusion_lat": 0.0, "type": "electric_scooter", "bike_id": "256f5d95537f1830fec5e1eda5efb6b0", "is_reserved": 0, "rental_uris": {"ios": "https://dc.lft.to/lastmile_qr_scan", "android": "https://dc.lft.to/lastmile_qr_scan"}, "is_disabled": 0, "lon": -77.066665, "name": "256f5d95537f1830fec5e1eda5efb6b0", "fusion_lon": 0.0}, {"lat": 38.951528833333334, "fusion_lat": 0.0, "type": "electric_scooter", "bike_id": "e9445bf28f9cca7d13a3ffad15d64e67", "is_reserved": 0, "rental_uris": {"ios": "https://dc.lft.to/lastmile_qr_scan", "android": "https://dc.lft.to/lastmile_qr_scan"}, "is_disabled": 0, "lon": -77.01870566666666, "name": "e9445bf28f9cca7d13a3ffad15d64e67", "fusion_lon": 0.0}, {"lat": 38.91216983333333, "fusion_lat": 0.0, "type": "electric_scooter", "bike_id": "63ad55ddc96b86462c196f59290d3028", "is_reserved": 0, "rental_uris": {"ios": "https://dc.lft.to/lastmile_qr_scan", "android": "https://dc.lft.to/lastmile_qr_scan"}, "is_disabled": 0, "lon": -77.03186166666667, "name": "63ad55ddc96b86462c196f59290d3028", "fusion_lon": 0.0}, {"lat": 38.90412, "fusion_lat": 0.0, "type": "electric_scooter", "bike_id": "1daf119fc81b823ab005096821fc8621", "is_reserved": 0, "rental_uris": {"ios": "https://dc.lft.to/lastmile_qr_scan", "android": "https://dc.lft.to/lastmile_qr_scan"}, "is_disabled": 0, "lon": -76.97331616666666, "name": "1daf119fc81b823ab005096821fc8621", "fusion_lon": 0.0}, {"lat": 38.90029833333333, "fusion_lat": 0.0, "type": "electric_scooter", "bike_id": "9132bbebf03d4ad93b8d8e8f628ca510", "is_reserved": 0, "rental_uris": {"ios": "https://dc.lft.to/lastmile_qr_scan", "android": "https://dc.lft.to/lastmile_qr_scan"}, "is_disabled": 0, "lon": -76.99561883333334, "name": "9132bbebf03d4ad93b8d8e8f628ca510", "fusion_lon": 0.0}, {"lat": 38.918008, "fusion_lat": 0.0, "type": "electric_scooter", "bike_id": "47745f3bf1619deb7acffd8a0b88a9e9", "is_reserved": 0, "rental_uris": {"ios": "https://dc.lft.to/lastmile_qr_scan", "android": "https://dc.lft.to/lastmile_qr_scan"}, "is_disabled": 0, "lon": -77.0421775, "name": "47745f3bf1619deb7acffd8a0b88a9e9", "fusion_lon": 0.0}, {"lat": 38.919185666666664, "fusion_lat": 0.0, "type": "electric_scooter", "bike_id": "051f5791c84f09b0e3b1ee8833c27e80", "is_reserved": 0, "rental_uris": {"ios": "https://dc.lft.to/lastmile_qr_scan", "android": "https://dc.lft.to/lastmile_qr_scan"}, "is_disabled": 0, "lon": -77.03393716666666, "name": "051f5791c84f09b0e3b1ee8833c27e80", "fusion_lon": 0.0}, {"lat": 38.957337333333335, "fusion_lat": 0.0, "type": "electric_scooter", "bike_id": "1d6afc1e86475724697c37ff0508b915", "is_reserved": 0, "rental_uris": {"ios": "https://dc.lft.to/lastmile_qr_scan", "android": "https://dc.lft.to/lastmile_qr_scan"}, "is_disabled": 0, "lon": -77.02404033333333, "name": "1d6afc1e86475724697c37ff0508b915", "fusion_lon": 0.0}, {"lat": 38.91708216666667, "fusion_lat": 0.0, "type": "electric_scooter", "bike_id": "e598191ad9191a79a57d8615aefc36c5", "is_reserved": 0, "rental_uris": {"ios": "https://dc.lft.to/lastmile_qr_scan", "android": "https://dc.lft.to/lastmile_qr_scan"}, "is_disabled": 0, "lon": -77.09580183333334, "name": "e598191ad9191a79a57d8615aefc36c5", "fusion_lon": 0.0}, {"lat": 38.89854666666667, "fusion_lat": 0.0, "type": "electric_scooter", "bike_id": "1db2ba7a7f0361c9b75e83e45dc421dc", "is_reserved": 0, "rental_uris": {"ios": "https://dc.lft.to/lastmile_qr_scan", "android": "https://dc.lft.to/lastmile_qr_scan"}, "is_disabled": 0, "lon": -77.025843, "name": "1db2ba7a7f0361c9b75e83e45dc421dc", "fusion_lon": 0.0}, {"lat": 38.900182, "fusion_lat": 0.0, "type": "electric_scooter", "bike_id": "c03996fbefd79fed4ccd9eaacb045777", "is_reserved": 0, "rental_uris": {"ios": "https://dc.lft.to/lastmile_qr_scan", "android": "https://dc.lft.to/lastmile_qr_scan"}, "is_disabled": 0, "lon": -76.9807645, "name": "c03996fbefd79fed4ccd9eaacb045777", "fusion_lon": 0.0}, {"lat": 38.90669533333333, "fusion_lat": 0.0, "type": "electric_scooter", "bike_id": "2c2a6fae5a3e0ce444dd5dafe0e414c0", "is_reserved": 0, "rental_uris": {"ios": "https://dc.lft.to/lastmile_qr_scan", "android": "https://dc.lft.to/lastmile_qr_scan"}, "is_disabled": 0, "lon": -77.07180166666667, "name": "2c2a6fae5a3e0ce444dd5dafe0e414c0", "fusion_lon": 0.0}, {"lat": 38.9031295, "fusion_lat": 0.0, "type": "electric_scooter", "bike_id": "6ee035b2c959454895e8baa6d276b0f4", "is_reserved": 0, "rental_uris": {"ios": "https://dc.lft.to/lastmile_qr_scan", "android": "https://dc.lft.to/lastmile_qr_scan"}, "is_disabled": 0, "lon": -76.99080433333333, "name": "6ee035b2c959454895e8baa6d276b0f4", "fusion_lon": 0.0}, {"lat": 38.900348666666666, "fusion_lat": 0.0, "type": "electric_scooter", "bike_id": "0490e4d062a55ed040272390b9ed4f0a", "is_reserved": 0, "rental_uris": {"ios": "https://dc.lft.to/lastmile_qr_scan", "android": "https://dc.lft.to/lastmile_qr_scan"}, "is_disabled": 0, "lon": -77.01774483333334, "name": "0490e4d062a55ed040272390b9ed4f0a", "fusion_lon": 0.0}, {"lat": 38.90438316666667, "fusion_lat": 0.0, "type": "electric_scooter", "bike_id": "b8ae382da1580c0ea6b0fe3a3d224e11", "is_reserved": 0, "rental_uris": {"ios": "https://dc.lft.to/lastmile_qr_scan", "android": "https://dc.lft.to/lastmile_qr_scan"}, "is_disabled": 0, "lon": -76.98496116666666, "name": "b8ae382da1580c0ea6b0fe3a3d224e11", "fusion_lon": 0.0}, {"lat": 38.957887, "fusion_lat": 0.0, "type": "electric_scooter", "bike_id": "4c28a2243f9f1426ae1ac3eeb52ce274", "is_reserved": 0, "rental_uris": {"ios": "https://dc.lft.to/lastmile_qr_scan", "android": "https://dc.lft.to/lastmile_qr_scan"}, "is_disabled": 0, "lon": -77.0199045, "name": "4c28a2243f9f1426ae1ac3eeb52ce274", "fusion_lon": 0.0}, {"lat": 38.90798066666667, "fusion_lat": 0.0, "type": "electric_scooter", "bike_id": "d6a3c3ed6ff00f06e4f4a26c8017876b", "is_reserved": 0, "rental_uris": {"ios": "https://dc.lft.to/lastmile_qr_scan", "android": "https://dc.lft.to/lastmile_qr_scan"}, "is_disabled": 0, "lon": -77.01116333333333, "name": "d6a3c3ed6ff00f06e4f4a26c8017876b", "fusion_lon": 0.0}, {"lat": 38.91190133333333, "fusion_lat": 0.0, "type": "electric_scooter", "bike_id": "41873f226789cbd20c903b7b7f100793", "is_reserved": 0, "rental_uris": {"ios": "https://dc.lft.to/lastmile_qr_scan", "android": "https://dc.lft.to/lastmile_qr_scan"}, "is_disabled": 0, "lon": -77.0178485, "name": "41873f226789cbd20c903b7b7f100793", "fusion_lon": 0.0}, {"lat": 38.90047416666667, "fusion_lat": 0.0, "type": "electric_scooter", "bike_id": "927b2a02bb688cdcfd090da71804ebd8", "is_reserved": 0, "rental_uris": {"ios": "https://dc.lft.to/lastmile_qr_scan", "android": "https://dc.lft.to/lastmile_qr_scan"}, "is_disabled": 0, "lon": -77.034996, "name": "927b2a02bb688cdcfd090da71804ebd8", "fusion_lon": 0.0}, {"lat": 38.95181066666667, "fusion_lat": 0.0, "type": "electric_scooter", "bike_id": "9838f7d83f98633bd63e070a9833cb79", "is_reserved": 0, "rental_uris": {"ios": "https://dc.lft.to/lastmile_qr_scan", "android": "https://dc.lft.to/lastmile_qr_scan"}, "is_disabled": 0, "lon": -77.02727866666666, "name": "9838f7d83f98633bd63e070a9833cb79", "fusion_lon": 0.0}, {"lat": 38.89220666666667, "fusion_lat": 0.0, "type": "electric_scooter", "bike_id": "f32ae8bcd2448fabd29d2d123dbe3d70", "is_reserved": 0, "rental_uris": {"ios": "https://dc.lft.to/lastmile_qr_scan", "android": "https://dc.lft.to/lastmile_qr_scan"}, "is_disabled": 0, "lon": -77.04864283333333, "name": "f32ae8bcd2448fabd29d2d123dbe3d70", "fusion_lon": 0.0}, {"lat": 38.870144333333336, "fusion_lat": 0.0, "type": "electric_scooter", "bike_id": "0bd28671429d2a5c2ef7b903e954684b", "is_reserved": 0, "rental_uris": {"ios": "https://dc.lft.to/lastmile_qr_scan", "android": "https://dc.lft.to/lastmile_qr_scan"}, "is_disabled": 0, "lon": -76.9808825, "name": "0bd28671429d2a5c2ef7b903e954684b", "fusion_lon": 0.0}, {"lat": 38.923247833333335, "fusion_lat": 0.0, "type": "electric_scooter", "bike_id": "ea72474dd8dda5b6e06c511ed9cdee3b", "is_reserved": 0, "rental_uris": {"ios": "https://dc.lft.to/lastmile_qr_scan", "android": "https://dc.lft.to/lastmile_qr_scan"}, "is_disabled": 0, "lon": -77.02138333333333, "name": "ea72474dd8dda5b6e06c511ed9cdee3b", "fusion_lon": 0.0}, {"lat": 38.92369933333333, "fusion_lat": 0.0, "type": "electric_scooter", "bike_id": "fad794e5d0a3fcf3e56ba87b37cc6e2d", "is_reserved": 0, "rental_uris": {"ios": "https://dc.lft.to/lastmile_qr_scan", "android": "https://dc.lft.to/lastmile_qr_scan"}, "is_disabled": 0, "lon": -77.05098816666667, "name": "fad794e5d0a3fcf3e56ba87b37cc6e2d", "fusion_lon": 0.0}, {"lat": 38.89477083333333, "fusion_lat": 0.0, "type": "electric_scooter", "bike_id": "e5ff401386c534dec67bf79ef4d8d601", "is_reserved": 0, "rental_uris": {"ios": "https://dc.lft.to/lastmile_qr_scan", "android": "https://dc.lft.to/lastmile_qr_scan"}, "is_disabled": 0, "lon": -77.02274916666667, "name": "e5ff401386c534dec67bf79ef4d8d601", "fusion_lon": 0.0}, {"lat": 38.907326, "fusion_lat": 0.0, "type": "electric_scooter", "bike_id": "71d13897101497be26fb13edc7e6fc7e", "is_reserved": 0, "rental_uris": {"ios": "https://dc.lft.to/lastmile_qr_scan", "android": "https://dc.lft.to/lastmile_qr_scan"}, "is_disabled": 0, "lon": -77.01469283333333, "name": "71d13897101497be26fb13edc7e6fc7e", "fusion_lon": 0.0}, {"lat": 38.83611333333333, "fusion_lat": 0.0, "type": "electric_bike", "bike_id": "16f4c3b3d40ccaa1f52bbc7fee3fc557", "is_reserved": 0, "rental_uris": {"ios": "https://dc.lft.to/lastmile_qr_scan", "android": "https://dc.lft.to/lastmile_qr_scan"}, "is_disabled": 0, "lon": -77.00385866666667, "name": "16f4c3b3d40ccaa1f52bbc7fee3fc557", "fusion_lon": 0.0}, {"lat": 38.8961285, "fusion_lat": 0.0, "type": "electric_scooter", "bike_id": "2032627d13d29d12c29ca55962101d1f", "is_reserved": 0, "rental_uris": {"ios": "https://dc.lft.to/lastmile_qr_scan", "android": "https://dc.lft.to/lastmile_qr_scan"}, "is_disabled": 0, "lon": -77.000273, "name": "2032627d13d29d12c29ca55962101d1f", "fusion_lon": 0.0}, {"lat": 38.9043205, "fusion_lat": 0.0, "type": "electric_scooter", "bike_id": "753e693dd419a0333271268901fad6fd", "is_reserved": 0, "rental_uris": {"ios": "https://dc.lft.to/lastmile_qr_scan", "android": "https://dc.lft.to/lastmile_qr_scan"}, "is_disabled": 0, "lon": -77.02515666666666, "name": "753e693dd419a0333271268901fad6fd", "fusion_lon": 0.0}, {"lat": 38.912318, "fusion_lat": 0.0, "type": "electric_scooter", "bike_id": "e8e5ee19e253ddf7732814eb0585ec10", "is_reserved": 0, "rental_uris": {"ios": "https://dc.lft.to/lastmile_qr_scan", "android": "https://dc.lft.to/lastmile_qr_scan"}, "is_disabled": 0, "lon": -77.04495183333333, "name": "e8e5ee19e253ddf7732814eb0585ec10", "fusion_lon": 0.0}, {"lat": 38.898311, "fusion_lat": 0.0, "type": "electric_scooter", "bike_id": "7e09df2e5aa45531495f989bcf2998fd", "is_reserved": 0, "rental_uris": {"ios": "https://dc.lft.to/lastmile_qr_scan", "android": "https://dc.lft.to/lastmile_qr_scan"}, "is_disabled": 0, "lon": -77.03926233333334, "name": "7e09df2e5aa45531495f989bcf2998fd", "fusion_lon": 0.0}, {"lat": 38.897426, "fusion_lat": 0.0, "type": "electric_scooter", "bike_id": "43333a630adc62205ace1b212f158fd1", "is_reserved": 0, "rental_uris": {"ios": "https://dc.lft.to/lastmile_qr_scan", "android": "https://dc.lft.to/lastmile_qr_scan"}, "is_disabled": 0, "lon": -77.02509566666667, "name": "43333a630adc62205ace1b212f158fd1", "fusion_lon": 0.0}, {"lat": 38.90021483333334, "fusion_lat": 0.0, "type": "electric_scooter", "bike_id": "bd86ed71762e3e4924d3557b34680df5", "is_reserved": 0, "rental_uris": {"ios": "https://dc.lft.to/lastmile_qr_scan", "android": "https://dc.lft.to/lastmile_qr_scan"}, "is_disabled": 0, "lon": -77.006889, "name": "bd86ed71762e3e4924d3557b34680df5", "fusion_lon": 0.0}, {"lat": 38.92442633333334, "fusion_lat": 0.0, "type": "electric_scooter", "bike_id": "6a7edfb0bd8fac3d02f680cc72075b28", "is_reserved": 0, "rental_uris": {"ios": "https://dc.lft.to/lastmile_qr_scan", "android": "https://dc.lft.to/lastmile_qr_scan"}, "is_disabled": 0, "lon": -77.04111866666666, "name": "6a7edfb0bd8fac3d02f680cc72075b28", "fusion_lon": 0.0}, {"lat": 38.89545866666667, "fusion_lat": 0.0, "type": "electric_scooter", "bike_id": "003b3bbdf115a805375cdfd3ff7b84a4", "is_reserved": 0, "rental_uris": {"ios": "https://dc.lft.to/lastmile_qr_scan", "android": "https://dc.lft.to/lastmile_qr_scan"}, "is_disabled": 0, "lon": -76.9492215, "name": "003b3bbdf115a805375cdfd3ff7b84a4", "fusion_lon": 0.0}, {"lat": 38.919355833333334, "fusion_lat": 0.0, "type": "electric_scooter", "bike_id": "1c133166bdd36690dd2bbb5ee4e90f5d", "is_reserved": 0, "rental_uris": {"ios": "https://dc.lft.to/lastmile_qr_scan", "android": "https://dc.lft.to/lastmile_qr_scan"}, "is_disabled": 0, "lon": -77.04489333333333, "name": "1c133166bdd36690dd2bbb5ee4e90f5d", "fusion_lon": 0.0}, {"lat": 38.90396966666667, "fusion_lat": 0.0, "type": "electric_scooter", "bike_id": "47bc49385426a5ce4369159ea50f80fb", "is_reserved": 0, "rental_uris": {"ios": "https://dc.lft.to/lastmile_qr_scan", "android": "https://dc.lft.to/lastmile_qr_scan"}, "is_disabled": 0, "lon": -77.03245916666667, "name": "47bc49385426a5ce4369159ea50f80fb", "fusion_lon": 0.0}, {"lat": 38.897856833333336, "fusion_lat": 0.0, "type": "electric_scooter", "bike_id": "2221de76a1174b2e485f5abeceeecebf", "is_reserved": 0, "rental_uris": {"ios": "https://dc.lft.to/lastmile_qr_scan", "android": "https://dc.lft.to/lastmile_qr_scan"}, "is_disabled": 0, "lon": -77.01198316666667, "name": "2221de76a1174b2e485f5abeceeecebf", "fusion_lon": 0.0}, {"lat": 38.92897083333333, "fusion_lat": 0.0, "type": "electric_scooter", "bike_id": "6476d891cd8b325d01a484e9ed433645", "is_reserved": 0, "rental_uris": {"ios": "https://dc.lft.to/lastmile_qr_scan", "android": "https://dc.lft.to/lastmile_qr_scan"}, "is_disabled": 0, "lon": -77.03346283333333, "name": "6476d891cd8b325d01a484e9ed433645", "fusion_lon": 0.0}, {"lat": 38.9191775, "fusion_lat": 0.0, "type": "electric_scooter", "bike_id": "22e6760a2f37e6e225a9172c106d450a", "is_reserved": 0, "rental_uris": {"ios": "https://dc.lft.to/lastmile_qr_scan", "android": "https://dc.lft.to/lastmile_qr_scan"}, "is_disabled": 0, "lon": -77.032034, "name": "22e6760a2f37e6e225a9172c106d450a", "fusion_lon": 0.0}, {"lat": 38.920432, "fusion_lat": 0.0, "type": "electric_scooter", "bike_id": "752ed24a35f69b48ff08529c029247d2", "is_reserved": 0, "rental_uris": {"ios": "https://dc.lft.to/lastmile_qr_scan", "android": "https://dc.lft.to/lastmile_qr_scan"}, "is_disabled": 0, "lon": -77.02607133333333, "name": "752ed24a35f69b48ff08529c029247d2", "fusion_lon": 0.0}, {"lat": 38.90975566666667, "fusion_lat": 0.0, "type": "electric_scooter", "bike_id": "0fc9a2d46053e8c3807a0b663675e6e2", "is_reserved": 0, "rental_uris": {"ios": "https://dc.lft.to/lastmile_qr_scan", "android": "https://dc.lft.to/lastmile_qr_scan"}, "is_disabled": 0, "lon": -77.03379483333333, "name": "0fc9a2d46053e8c3807a0b663675e6e2", "fusion_lon": 0.0}, {"lat": 38.900425, "fusion_lat": 0.0, "type": "electric_scooter", "bike_id": "9ace862a95594d648c03690c14a611a3", "is_reserved": 0, "rental_uris": {"ios": "https://dc.lft.to/lastmile_qr_scan", "android": "https://dc.lft.to/lastmile_qr_scan"}, "is_disabled": 0, "lon": -76.91918716666666, "name": "9ace862a95594d648c03690c14a611a3", "fusion_lon": 0.0}, {"lat": 38.9348275, "fusion_lat": 0.0, "type": "electric_scooter", "bike_id": "187b7c279872c817bfb3aea1b1ab41b2", "is_reserved": 0, "rental_uris": {"ios": "https://dc.lft.to/lastmile_qr_scan", "android": "https://dc.lft.to/lastmile_qr_scan"}, "is_disabled": 0, "lon": -77.07279383333334, "name": "187b7c279872c817bfb3aea1b1ab41b2", "fusion_lon": 0.0}, {"lat": 38.8749555, "fusion_lat": 0.0, "type": "electric_scooter", "bike_id": "bb11cf9669d4e64ffde3afd97ef9ecec", "is_reserved": 0, "rental_uris": {"ios": "https://dc.lft.to/lastmile_qr_scan", "android": "https://dc.lft.to/lastmile_qr_scan"}, "is_disabled": 0, "lon": -77.00941166666667, "name": "bb11cf9669d4e64ffde3afd97ef9ecec", "fusion_lon": 0.0}, {"lat": 38.85512466666667, "fusion_lat": 0.0, "type": "electric_bike", "bike_id": "adcd2df12338b8347cca5c613cbb0e60", "is_reserved": 0, "rental_uris": {"ios": "https://dc.lft.to/lastmile_qr_scan", "android": "https://dc.lft.to/lastmile_qr_scan"}, "is_disabled": 0, "lon": -76.9842045, "name": "adcd2df12338b8347cca5c613cbb0e60", "fusion_lon": 0.0}, {"lat": 38.90044316666667, "fusion_lat": 0.0, "type": "electric_scooter", "bike_id": "51337ff178966af1ec961de1887ef67a", "is_reserved": 0, "rental_uris": {"ios": "https://dc.lft.to/lastmile_qr_scan", "android": "https://dc.lft.to/lastmile_qr_scan"}, "is_disabled": 0, "lon": -77.01037916666667, "name": "51337ff178966af1ec961de1887ef67a", "fusion_lon": 0.0}, {"lat": 38.88312966666667, "fusion_lat": 0.0, "type": "electric_scooter", "bike_id": "5abb0b1fadfaa5476be98c31d927503c", "is_reserved": 0, "rental_uris": {"ios": "https://dc.lft.to/lastmile_qr_scan", "android": "https://dc.lft.to/lastmile_qr_scan"}, "is_disabled": 0, "lon": -77.000515, "name": "5abb0b1fadfaa5476be98c31d927503c", "fusion_lon": 0.0}, {"lat": 38.90495966666667, "fusion_lat": 0.0, "type": "electric_scooter", "bike_id": "9c9b863806272d9fbc4b0b524940e7d5", "is_reserved": 0, "rental_uris": {"ios": "https://dc.lft.to/lastmile_qr_scan", "android": "https://dc.lft.to/lastmile_qr_scan"}, "is_disabled": 0, "lon": -77.06011266666667, "name": "9c9b863806272d9fbc4b0b524940e7d5", "fusion_lon": 0.0}, {"lat": 38.89316566666667, "fusion_lat": 0.0, "type": "electric_scooter", "bike_id": "8953deafa84b03def1091373e09601e0", "is_reserved": 0, "rental_uris": {"ios": "https://dc.lft.to/lastmile_qr_scan", "android": "https://dc.lft.to/lastmile_qr_scan"}, "is_disabled": 0, "lon": -77.01228683333333, "name": "8953deafa84b03def1091373e09601e0", "fusion_lon": 0.0}, {"lat": 38.9650185, "fusion_lat": 0.0, "type": "electric_bike", "bike_id": "4e88c57dd31cfe203aed9922d4c476aa", "is_reserved": 0, "rental_uris": {"ios": "https://dc.lft.to/lastmile_qr_scan", "android": "https://dc.lft.to/lastmile_qr_scan"}, "is_disabled": 0, "lon": -77.02001883333334, "name": "4e88c57dd31cfe203aed9922d4c476aa", "fusion_lon": 0.0}, {"lat": 38.93675533333333, "fusion_lat": 0.0, "type": "electric_scooter", "bike_id": "68c4dda1bdc2380767d2e718056a4a8a", "is_reserved": 0, "rental_uris": {"ios": "https://dc.lft.to/lastmile_qr_scan", "android": "https://dc.lft.to/lastmile_qr_scan"}, "is_disabled": 0, "lon": -77.0357555, "name": "68c4dda1bdc2380767d2e718056a4a8a", "fusion_lon": 0.0}, {"lat": 38.90763366666667, "fusion_lat": 0.0, "type": "electric_scooter", "bike_id": "e8f4f7dfd9e81cbcb38f676663c7a1a5", "is_reserved": 0, "rental_uris": {"ios": "https://dc.lft.to/lastmile_qr_scan", "android": "https://dc.lft.to/lastmile_qr_scan"}, "is_disabled": 0, "lon": -77.00764666666667, "name": "e8f4f7dfd9e81cbcb38f676663c7a1a5", "fusion_lon": 0.0}, {"lat": 38.951770333333336, "fusion_lat": 0.0, "type": "electric_bike", "bike_id": "02173faa30025719e5ed43673842ef46", "is_reserved": 0, "rental_uris": {"ios": "https://dc.lft.to/lastmile_qr_scan", "android": "https://dc.lft.to/lastmile_qr_scan"}, "is_disabled": 0, "lon": -76.97732616666667, "name": "02173faa30025719e5ed43673842ef46", "fusion_lon": 0.0}, {"lat": 38.90491866666667, "fusion_lat": 0.0, "type": "electric_scooter", "bike_id": "3d2df04b0843a0b3775cef22db167c7a", "is_reserved": 0, "rental_uris": {"ios": "https://dc.lft.to/lastmile_qr_scan", "android": "https://dc.lft.to/lastmile_qr_scan"}, "is_disabled": 0, "lon": -76.94959616666667, "name": "3d2df04b0843a0b3775cef22db167c7a", "fusion_lon": 0.0}, {"lat": 38.928555, "fusion_lat": 0.0, "type": "electric_scooter", "bike_id": "c82bcd075a6efbfd6b8c090a5b55fefa", "is_reserved": 0, "rental_uris": {"ios": "https://dc.lft.to/lastmile_qr_scan", "android": "https://dc.lft.to/lastmile_qr_scan"}, "is_disabled": 0, "lon": -77.01403966666666, "name": "c82bcd075a6efbfd6b8c090a5b55fefa", "fusion_lon": 0.0}, {"lat": 38.92142316666666, "fusion_lat": 0.0, "type": "electric_scooter", "bike_id": "f17afafc501cd56a256b4c0f39e533b0", "is_reserved": 0, "rental_uris": {"ios": "https://dc.lft.to/lastmile_qr_scan", "android": "https://dc.lft.to/lastmile_qr_scan"}, "is_disabled": 0, "lon": -77.01823633333333, "name": "f17afafc501cd56a256b4c0f39e533b0", "fusion_lon": 0.0}, {"lat": 38.8994685, "fusion_lat": 0.0, "type": "electric_scooter", "bike_id": "c62899d7db08c7d502aa0b4fb3ef17a7", "is_reserved": 0, "rental_uris": {"ios": "https://dc.lft.to/lastmile_qr_scan", "android": "https://dc.lft.to/lastmile_qr_scan"}, "is_disabled": 0, "lon": -77.02638616666667, "name": "c62899d7db08c7d502aa0b4fb3ef17a7", "fusion_lon": 0.0}, {"lat": 38.908192166666666, "fusion_lat": 0.0, "type": "electric_scooter", "bike_id": "764bc3e2aacb3fa66dd7d2a4aac489d5", "is_reserved": 0, "rental_uris": {"ios": "https://dc.lft.to/lastmile_qr_scan", "android": "https://dc.lft.to/lastmile_qr_scan"}, "is_disabled": 0, "lon": -77.03849016666666, "name": "764bc3e2aacb3fa66dd7d2a4aac489d5", "fusion_lon": 0.0}, {"lat": 38.905557, "fusion_lat": 0.0, "type": "electric_scooter", "bike_id": "a13ba2fad7a7fd0eeca47c62e2f59959", "is_reserved": 0, "rental_uris": {"ios": "https://dc.lft.to/lastmile_qr_scan", "android": "https://dc.lft.to/lastmile_qr_scan"}, "is_disabled": 0, "lon": -77.02835983333334, "name": "a13ba2fad7a7fd0eeca47c62e2f59959", "fusion_lon": 0.0}, {"lat": 38.929287, "fusion_lat": 0.0, "type": "electric_scooter", "bike_id": "7d90a5791c30b6959eb3e1b7f3fc0f65", "is_reserved": 0, "rental_uris": {"ios": "https://dc.lft.to/lastmile_qr_scan", "android": "https://dc.lft.to/lastmile_qr_scan"}, "is_disabled": 0, "lon": -77.03270583333334, "name": "7d90a5791c30b6959eb3e1b7f3fc0f65", "fusion_lon": 0.0}, {"lat": 38.905237666666665, "fusion_lat": 0.0, "type": "electric_scooter", "bike_id": "d4b7715bbab6fd02471048c58d3cbaa6", "is_reserved": 0, "rental_uris": {"ios": "https://dc.lft.to/lastmile_qr_scan", "android": "https://dc.lft.to/lastmile_qr_scan"}, "is_disabled": 0, "lon": -77.06610233333333, "name": "d4b7715bbab6fd02471048c58d3cbaa6", "fusion_lon": 0.0}, {"lat": 38.90940166666667, "fusion_lat": 0.0, "type": "electric_scooter", "bike_id": "e86dfbf54bdb4e9385209711d3ea73b1", "is_reserved": 0, "rental_uris": {"ios": "https://dc.lft.to/lastmile_qr_scan", "android": "https://dc.lft.to/lastmile_qr_scan"}, "is_disabled": 0, "lon": -77.02701183333333, "name": "e86dfbf54bdb4e9385209711d3ea73b1", "fusion_lon": 0.0}, {"lat": 38.90258083333333, "fusion_lat": 0.0, "type": "electric_scooter", "bike_id": "3fc413874b55e562654efae05f39326a", "is_reserved": 0, "rental_uris": {"ios": "https://dc.lft.to/lastmile_qr_scan", "android": "https://dc.lft.to/lastmile_qr_scan"}, "is_disabled": 0, "lon": -77.00337116666667, "name": "3fc413874b55e562654efae05f39326a", "fusion_lon": 0.0}, {"lat": 38.897568666666665, "fusion_lat": 0.0, "type": "electric_scooter", "bike_id": "d1752a260c0bd2492902799082738eef", "is_reserved": 0, "rental_uris": {"ios": "https://dc.lft.to/lastmile_qr_scan", "android": "https://dc.lft.to/lastmile_qr_scan"}, "is_disabled": 0, "lon": -77.03313416666667, "name": "d1752a260c0bd2492902799082738eef", "fusion_lon": 0.0}, {"lat": 38.878647, "fusion_lat": 0.0, "type": "electric_scooter", "bike_id": "fa136758d40ccac4621fedbb62e99ff9", "is_reserved": 0, "rental_uris": {"ios": "https://dc.lft.to/lastmile_qr_scan", "android": "https://dc.lft.to/lastmile_qr_scan"}, "is_disabled": 0, "lon": -77.00841483333333, "name": "fa136758d40ccac4621fedbb62e99ff9", "fusion_lon": 0.0}, {"lat": 38.897688333333335, "fusion_lat": 0.0, "type": "electric_scooter", "bike_id": "590dc5595722d8e8fea283e2fd8070c0", "is_reserved": 0, "rental_uris": {"ios": "https://dc.lft.to/lastmile_qr_scan", "android": "https://dc.lft.to/lastmile_qr_scan"}, "is_disabled": 0, "lon": -77.05472716666667, "name": "590dc5595722d8e8fea283e2fd8070c0", "fusion_lon": 0.0}, {"lat": 38.875159833333335, "fusion_lat": 0.0, "type": "electric_scooter", "bike_id": "2f5006c17926c5e7409aff6008293026", "is_reserved": 0, "rental_uris": {"ios": "https://dc.lft.to/lastmile_qr_scan", "android": "https://dc.lft.to/lastmile_qr_scan"}, "is_disabled": 0, "lon": -76.99978833333333, "name": "2f5006c17926c5e7409aff6008293026", "fusion_lon": 0.0}, {"lat": 38.92613266666667, "fusion_lat": 0.0, "type": "electric_scooter", "bike_id": "fa18b1d5c5b71ef25c73bc8d8663c9bd", "is_reserved": 0, "rental_uris": {"ios": "https://dc.lft.to/lastmile_qr_scan", "android": "https://dc.lft.to/lastmile_qr_scan"}, "is_disabled": 0, "lon": -77.02655516666667, "name": "fa18b1d5c5b71ef25c73bc8d8663c9bd", "fusion_lon": 0.0}, {"lat": 38.902396333333336, "fusion_lat": 0.0, "type": "electric_scooter", "bike_id": "f3c967599c6c7368a603eb90e7c29b78", "is_reserved": 0, "rental_uris": {"ios": "https://dc.lft.to/lastmile_qr_scan", "android": "https://dc.lft.to/lastmile_qr_scan"}, "is_disabled": 0, "lon": -76.97411716666667, "name": "f3c967599c6c7368a603eb90e7c29b78", "fusion_lon": 0.0}, {"lat": 38.907700166666665, "fusion_lat": 0.0, "type": "electric_scooter", "bike_id": "f894d7c3c50a93b13965305676837c9b", "is_reserved": 0, "rental_uris": {"ios": "https://dc.lft.to/lastmile_qr_scan", "android": "https://dc.lft.to/lastmile_qr_scan"}, "is_disabled": 0, "lon": -77.0319075, "name": "f894d7c3c50a93b13965305676837c9b", "fusion_lon": 0.0}, {"lat": 38.9236005, "fusion_lat": 0.0, "type": "electric_scooter", "bike_id": "5da0d6a251ce9cbe74be577bd22a5ddb", "is_reserved": 0, "rental_uris": {"ios": "https://dc.lft.to/lastmile_qr_scan", "android": "https://dc.lft.to/lastmile_qr_scan"}, "is_disabled": 0, "lon": -77.05077683333333, "name": "5da0d6a251ce9cbe74be577bd22a5ddb", "fusion_lon": 0.0}, {"lat": 38.91488533333333, "fusion_lat": 0.0, "type": "electric_scooter", "bike_id": "a2861ba740a5ca4a8c580f59586ea539", "is_reserved": 0, "rental_uris": {"ios": "https://dc.lft.to/lastmile_qr_scan", "android": "https://dc.lft.to/lastmile_qr_scan"}, "is_disabled": 0, "lon": -76.98578383333333, "name": "a2861ba740a5ca4a8c580f59586ea539", "fusion_lon": 0.0}, {"lat": 38.9065415, "fusion_lat": 0.0, "type": "electric_scooter", "bike_id": "e51c8a2c172803427b38ed86f9de0cfe", "is_reserved": 0, "rental_uris": {"ios": "https://dc.lft.to/lastmile_qr_scan", "android": "https://dc.lft.to/lastmile_qr_scan"}, "is_disabled": 0, "lon": -77.04177366666667, "name": "e51c8a2c172803427b38ed86f9de0cfe", "fusion_lon": 0.0}, {"lat": 38.91991483333334, "fusion_lat": 0.0, "type": "electric_scooter", "bike_id": "cdffffa6c205baa9c733b37d9693b0d8", "is_reserved": 0, "rental_uris": {"ios": "https://dc.lft.to/lastmile_qr_scan", "android": "https://dc.lft.to/lastmile_qr_scan"}, "is_disabled": 0, "lon": -76.97307316666667, "name": "cdffffa6c205baa9c733b37d9693b0d8", "fusion_lon": 0.0}, {"lat": 38.887683833333334, "fusion_lat": 0.0, "type": "electric_scooter", "bike_id": "0892b63b3433e970fc74eaefffbe6a9e", "is_reserved": 0, "rental_uris": {"ios": "https://dc.lft.to/lastmile_qr_scan", "android": "https://dc.lft.to/lastmile_qr_scan"}, "is_disabled": 0, "lon": -77.02274516666667, "name": "0892b63b3433e970fc74eaefffbe6a9e", "fusion_lon": 0.0}, {"lat": 38.87458816666667, "fusion_lat": 0.0, "type": "electric_scooter", "bike_id": "7c29a19a2001b44af9abdc81b5bb0231", "is_reserved": 0, "rental_uris": {"ios": "https://dc.lft.to/lastmile_qr_scan", "android": "https://dc.lft.to/lastmile_qr_scan"}, "is_disabled": 0, "lon": -77.00546283333334, "name": "7c29a19a2001b44af9abdc81b5bb0231", "fusion_lon": 0.0}, {"lat": 38.92971983333333, "fusion_lat": 0.0, "type": "electric_scooter", "bike_id": "e16b664bd574810f366621e0b96186f1", "is_reserved": 0, "rental_uris": {"ios": "https://dc.lft.to/lastmile_qr_scan", "android": "https://dc.lft.to/lastmile_qr_scan"}, "is_disabled": 0, "lon": -76.99073166666666, "name": "e16b664bd574810f366621e0b96186f1", "fusion_lon": 0.0}, {"lat": 38.935347666666665, "fusion_lat": 0.0, "type": "electric_scooter", "bike_id": "83a3e544cab3f290d99d86421a1e0e5b", "is_reserved": 0, "rental_uris": {"ios": "https://dc.lft.to/lastmile_qr_scan", "android": "https://dc.lft.to/lastmile_qr_scan"}, "is_disabled": 0, "lon": -77.054602, "name": "83a3e544cab3f290d99d86421a1e0e5b", "fusion_lon": 0.0}, {"lat": 38.907745, "fusion_lat": 0.0, "type": "electric_scooter", "bike_id": "ac2117780f341b982e0625168f80f6a7", "is_reserved": 0, "rental_uris": {"ios": "https://dc.lft.to/lastmile_qr_scan", "android": "https://dc.lft.to/lastmile_qr_scan"}, "is_disabled": 0, "lon": -77.03838133333333, "name": "ac2117780f341b982e0625168f80f6a7", "fusion_lon": 0.0}, {"lat": 38.9003215, "fusion_lat": 0.0, "type": "electric_scooter", "bike_id": "efa9c5a81ef9b2ad9944a171ea24b9b2", "is_reserved": 0, "rental_uris": {"ios": "https://dc.lft.to/lastmile_qr_scan", "android": "https://dc.lft.to/lastmile_qr_scan"}, "is_disabled": 0, "lon": -76.98062916666666, "name": "efa9c5a81ef9b2ad9944a171ea24b9b2", "fusion_lon": 0.0}, {"lat": 38.862157, "fusion_lat": 0.0, "type": "electric_scooter", "bike_id": "d93d5422b19eabfe84503d083808675d", "is_reserved": 0, "rental_uris": {"ios": "https://dc.lft.to/lastmile_qr_scan", "android": "https://dc.lft.to/lastmile_qr_scan"}, "is_disabled": 0, "lon": -76.99479, "name": "d93d5422b19eabfe84503d083808675d", "fusion_lon": 0.0}, {"lat": 38.9211335, "fusion_lat": 0.0, "type": "electric_scooter", "bike_id": "31a5482907d4e6b5bda4da659989ae60", "is_reserved": 0, "rental_uris": {"ios": "https://dc.lft.to/lastmile_qr_scan", "android": "https://dc.lft.to/lastmile_qr_scan"}, "is_disabled": 0, "lon": -77.0333425, "name": "31a5482907d4e6b5bda4da659989ae60", "fusion_lon": 0.0}, {"lat": 38.911497, "fusion_lat": 0.0, "type": "electric_scooter", "bike_id": "f29f722b8bc4aa2d4267dd5d087a3cd0", "is_reserved": 0, "rental_uris": {"ios": "https://dc.lft.to/lastmile_qr_scan", "android": "https://dc.lft.to/lastmile_qr_scan"}, "is_disabled": 0, "lon": -77.0383015, "name": "f29f722b8bc4aa2d4267dd5d087a3cd0", "fusion_lon": 0.0}, {"lat": 38.902662166666666, "fusion_lat": 0.0, "type": "electric_scooter", "bike_id": "308b0eaf86067f8c5f8bc4bc104aa78b", "is_reserved": 0, "rental_uris": {"ios": "https://dc.lft.to/lastmile_qr_scan", "android": "https://dc.lft.to/lastmile_qr_scan"}, "is_disabled": 0, "lon": -77.0178985, "name": "308b0eaf86067f8c5f8bc4bc104aa78b", "fusion_lon": 0.0}, {"lat": 38.90689883333334, "fusion_lat": 0.0, "type": "electric_bike", "bike_id": "38f114ac2eab5620ed28ebcc63727782", "is_reserved": 0, "rental_uris": {"ios": "https://dc.lft.to/lastmile_qr_scan", "android": "https://dc.lft.to/lastmile_qr_scan"}, "is_disabled": 0, "lon": -77.063371, "name": "38f114ac2eab5620ed28ebcc63727782", "fusion_lon": 0.0}, {"lat": 38.922731166666665, "fusion_lat": 0.0, "type": "electric_scooter", "bike_id": "f8a6ef18a34dad0aceae67bf5c620fd6", "is_reserved": 0, "rental_uris": {"ios": "https://dc.lft.to/lastmile_qr_scan", "android": "https://dc.lft.to/lastmile_qr_scan"}, "is_disabled": 0, "lon": -77.0218555, "name": "f8a6ef18a34dad0aceae67bf5c620fd6", "fusion_lon": 0.0}, {"lat": 38.9565755, "fusion_lat": 0.0, "type": "electric_scooter", "bike_id": "7d88340d014171126af76c1eeaa38cbb", "is_reserved": 0, "rental_uris": {"ios": "https://dc.lft.to/lastmile_qr_scan", "android": "https://dc.lft.to/lastmile_qr_scan"}, "is_disabled": 0, "lon": -77.01045783333333, "name": "7d88340d014171126af76c1eeaa38cbb", "fusion_lon": 0.0}, {"lat": 38.83430466666667, "fusion_lat": 0.0, "type": "electric_bike", "bike_id": "5e574b5a71e1c8bade9f0d15f36876f0", "is_reserved": 0, "rental_uris": {"ios": "https://dc.lft.to/lastmile_qr_scan", "android": "https://dc.lft.to/lastmile_qr_scan"}, "is_disabled": 0, "lon": -77.10355366666667, "name": "5e574b5a71e1c8bade9f0d15f36876f0", "fusion_lon": 0.0}, {"lat": 38.9172935, "fusion_lat": 0.0, "type": "electric_scooter", "bike_id": "acd2c79d2383755fdf66cd421929c81a", "is_reserved": 0, "rental_uris": {"ios": "https://dc.lft.to/lastmile_qr_scan", "android": "https://dc.lft.to/lastmile_qr_scan"}, "is_disabled": 0, "lon": -77.02500716666667, "name": "acd2c79d2383755fdf66cd421929c81a", "fusion_lon": 0.0}, {"lat": 38.909743, "fusion_lat": 0.0, "type": "electric_scooter", "bike_id": "1b53a4c71f0983795f3f9e08681fbb19", "is_reserved": 0, "rental_uris": {"ios": "https://dc.lft.to/lastmile_qr_scan", "android": "https://dc.lft.to/lastmile_qr_scan"}, "is_disabled": 0, "lon": -77.03317883333334, "name": "1b53a4c71f0983795f3f9e08681fbb19", "fusion_lon": 0.0}, {"lat": 38.91051683333333, "fusion_lat": 0.0, "type": "electric_scooter", "bike_id": "6da9093a7eac7eea5527a62817917f8a", "is_reserved": 0, "rental_uris": {"ios": "https://dc.lft.to/lastmile_qr_scan", "android": "https://dc.lft.to/lastmile_qr_scan"}, "is_disabled": 0, "lon": -77.04347616666666, "name": "6da9093a7eac7eea5527a62817917f8a", "fusion_lon": 0.0}, {"lat": 38.93137183333333, "fusion_lat": 0.0, "type": "electric_scooter", "bike_id": "3aba23397bb599bf498c05beabcc62ad", "is_reserved": 0, "rental_uris": {"ios": "https://dc.lft.to/lastmile_qr_scan", "android": "https://dc.lft.to/lastmile_qr_scan"}, "is_disabled": 0, "lon": -77.03262183333334, "name": "3aba23397bb599bf498c05beabcc62ad", "fusion_lon": 0.0}, {"lat": 38.93049333333333, "fusion_lat": 0.0, "type": "electric_scooter", "bike_id": "734d25528472bf7f998c344494897ff6", "is_reserved": 0, "rental_uris": {"ios": "https://dc.lft.to/lastmile_qr_scan", "android": "https://dc.lft.to/lastmile_qr_scan"}, "is_disabled": 0, "lon": -77.03260133333333, "name": "734d25528472bf7f998c344494897ff6", "fusion_lon": 0.0}, {"lat": 38.909737666666665, "fusion_lat": 0.0, "type": "electric_scooter", "bike_id": "94a73020194b120dcfc847aca6a85e90", "is_reserved": 0, "rental_uris": {"ios": "https://dc.lft.to/lastmile_qr_scan", "android": "https://dc.lft.to/lastmile_qr_scan"}, "is_disabled": 0, "lon": -77.03415433333333, "name": "94a73020194b120dcfc847aca6a85e90", "fusion_lon": 0.0}, {"lat": 38.91362916666667, "fusion_lat": 0.0, "type": "electric_scooter", "bike_id": "ebb155fb1c0a3b2dea0e0d6ad5952927", "is_reserved": 0, "rental_uris": {"ios": "https://dc.lft.to/lastmile_qr_scan", "android": "https://dc.lft.to/lastmile_qr_scan"}, "is_disabled": 0, "lon": -77.06935866666667, "name": "ebb155fb1c0a3b2dea0e0d6ad5952927", "fusion_lon": 0.0}, {"lat": 38.89237333333333, "fusion_lat": 0.0, "type": "electric_scooter", "bike_id": "3466b1dec4779e6a222e043b4dbbea3b", "is_reserved": 0, "rental_uris": {"ios": "https://dc.lft.to/lastmile_qr_scan", "android": "https://dc.lft.to/lastmile_qr_scan"}, "is_disabled": 0, "lon": -77.02381366666667, "name": "3466b1dec4779e6a222e043b4dbbea3b", "fusion_lon": 0.0}, {"lat": 38.907145666666665, "fusion_lat": 0.0, "type": "electric_scooter", "bike_id": "b5327858c4e118b1f84d12d91df2374b", "is_reserved": 0, "rental_uris": {"ios": "https://dc.lft.to/lastmile_qr_scan", "android": "https://dc.lft.to/lastmile_qr_scan"}, "is_disabled": 0, "lon": -77.0101035, "name": "b5327858c4e118b1f84d12d91df2374b", "fusion_lon": 0.0}, {"lat": 38.907421666666664, "fusion_lat": 0.0, "type": "electric_scooter", "bike_id": "84305060d41f80d2912c70896add7275", "is_reserved": 0, "rental_uris": {"ios": "https://dc.lft.to/lastmile_qr_scan", "android": "https://dc.lft.to/lastmile_qr_scan"}, "is_disabled": 0, "lon": -77.03468366666667, "name": "84305060d41f80d2912c70896add7275", "fusion_lon": 0.0}, {"lat": 38.9209645, "fusion_lat": 0.0, "type": "electric_scooter", "bike_id": "056595e5dc3b79998e7c6da48e89a9a8", "is_reserved": 0, "rental_uris": {"ios": "https://dc.lft.to/lastmile_qr_scan", "android": "https://dc.lft.to/lastmile_qr_scan"}, "is_disabled": 0, "lon": -77.0255425, "name": "056595e5dc3b79998e7c6da48e89a9a8", "fusion_lon": 0.0}, {"lat": 38.92293333333333, "fusion_lat": 0.0, "type": "electric_scooter", "bike_id": "4e60aa17cce8205001b1ac034d2dedf2", "is_reserved": 0, "rental_uris": {"ios": "https://dc.lft.to/lastmile_qr_scan", "android": "https://dc.lft.to/lastmile_qr_scan"}, "is_disabled": 0, "lon": -77.0414545, "name": "4e60aa17cce8205001b1ac034d2dedf2", "fusion_lon": 0.0}, {"lat": 38.89899966666667, "fusion_lat": 0.0, "type": "electric_scooter", "bike_id": "e7fcb7375b56d86b3f9f36c5097522cd", "is_reserved": 0, "rental_uris": {"ios": "https://dc.lft.to/lastmile_qr_scan", "android": "https://dc.lft.to/lastmile_qr_scan"}, "is_disabled": 0, "lon": -76.97608766666667, "name": "e7fcb7375b56d86b3f9f36c5097522cd", "fusion_lon": 0.0}, {"lat": 38.9199475, "fusion_lat": 0.0, "type": "electric_scooter", "bike_id": "a3aab602a3ecb3da8d791a0a4cfd36f7", "is_reserved": 0, "rental_uris": {"ios": "https://dc.lft.to/lastmile_qr_scan", "android": "https://dc.lft.to/lastmile_qr_scan"}, "is_disabled": 0, "lon": -77.033054, "name": "a3aab602a3ecb3da8d791a0a4cfd36f7", "fusion_lon": 0.0}, {"lat": 38.910167333333334, "fusion_lat": 0.0, "type": "electric_scooter", "bike_id": "899b100179747c4b141bc7516392d452", "is_reserved": 0, "rental_uris": {"ios": "https://dc.lft.to/lastmile_qr_scan", "android": "https://dc.lft.to/lastmile_qr_scan"}, "is_disabled": 0, "lon": -77.034525, "name": "899b100179747c4b141bc7516392d452", "fusion_lon": 0.0}, {"lat": 38.89641483333333, "fusion_lat": 0.0, "type": "electric_scooter", "bike_id": "95c27a62b5b4ee9b6afca13346fc65d0", "is_reserved": 0, "rental_uris": {"ios": "https://dc.lft.to/lastmile_qr_scan", "android": "https://dc.lft.to/lastmile_qr_scan"}, "is_disabled": 0, "lon": -77.021711, "name": "95c27a62b5b4ee9b6afca13346fc65d0", "fusion_lon": 0.0}, {"lat": 38.90195716666667, "fusion_lat": 0.0, "type": "electric_scooter", "bike_id": "bef566d3a9d9ebac35d992ca8b4c86cd", "is_reserved": 0, "rental_uris": {"ios": "https://dc.lft.to/lastmile_qr_scan", "android": "https://dc.lft.to/lastmile_qr_scan"}, "is_disabled": 0, "lon": -76.9884755, "name": "bef566d3a9d9ebac35d992ca8b4c86cd", "fusion_lon": 0.0}, {"lat": 38.921195, "fusion_lat": 0.0, "type": "electric_scooter", "bike_id": "cc5f45bcabd75eada2b6ced2f26ed360", "is_reserved": 0, "rental_uris": {"ios": "https://dc.lft.to/lastmile_qr_scan", "android": "https://dc.lft.to/lastmile_qr_scan"}, "is_disabled": 0, "lon": -77.04570316666667, "name": "cc5f45bcabd75eada2b6ced2f26ed360", "fusion_lon": 0.0}, {"lat": 38.921781833333334, "fusion_lat": 0.0, "type": "electric_scooter", "bike_id": "9a1c2813dd36ae71901c985f251d1140", "is_reserved": 0, "rental_uris": {"ios": "https://dc.lft.to/lastmile_qr_scan", "android": "https://dc.lft.to/lastmile_qr_scan"}, "is_disabled": 0, "lon": -77.01922533333334, "name": "9a1c2813dd36ae71901c985f251d1140", "fusion_lon": 0.0}, {"lat": 38.909478, "fusion_lat": 0.0, "type": "electric_scooter", "bike_id": "e1a768ce4fd04026c259262094b16638", "is_reserved": 0, "rental_uris": {"ios": "https://dc.lft.to/lastmile_qr_scan", "android": "https://dc.lft.to/lastmile_qr_scan"}, "is_disabled": 0, "lon": -77.03189883333333, "name": "e1a768ce4fd04026c259262094b16638", "fusion_lon": 0.0}, {"lat": 38.88732016666667, "fusion_lat": 0.0, "type": "electric_scooter", "bike_id": "4c392ac72075fbf7373da2ab0c7221a9", "is_reserved": 0, "rental_uris": {"ios": "https://dc.lft.to/lastmile_qr_scan", "android": "https://dc.lft.to/lastmile_qr_scan"}, "is_disabled": 0, "lon": -77.03226716666667, "name": "4c392ac72075fbf7373da2ab0c7221a9", "fusion_lon": 0.0}, {"lat": 38.945328, "fusion_lat": 0.0, "type": "electric_scooter", "bike_id": "8d461cefa674d41a48b255520db9347b", "is_reserved": 0, "rental_uris": {"ios": "https://dc.lft.to/lastmile_qr_scan", "android": "https://dc.lft.to/lastmile_qr_scan"}, "is_disabled": 0, "lon": -77.02088666666667, "name": "8d461cefa674d41a48b255520db9347b", "fusion_lon": 0.0}, {"lat": 38.897445, "fusion_lat": 0.0, "type": "electric_bike", "bike_id": "004ca130451fa44f11cb380618c198e1", "is_reserved": 0, "rental_uris": {"ios": "https://dc.lft.to/lastmile_qr_scan", "android": "https://dc.lft.to/lastmile_qr_scan"}, "is_disabled": 0, "lon": -76.9204285, "name": "004ca130451fa44f11cb380618c198e1", "fusion_lon": 0.0}, {"lat": 38.9172015, "fusion_lat": 0.0, "type": "electric_scooter", "bike_id": "928013f84c0f345ff5ff8de253c51f69", "is_reserved": 0, "rental_uris": {"ios": "https://dc.lft.to/lastmile_qr_scan", "android": "https://dc.lft.to/lastmile_qr_scan"}, "is_disabled": 0, "lon": -77.029543, "name": "928013f84c0f345ff5ff8de253c51f69", "fusion_lon": 0.0}, {"lat": 38.918737666666665, "fusion_lat": 0.0, "type": "electric_scooter", "bike_id": "1a9d87cea03dd6b8a617fb589f677c4a", "is_reserved": 0, "rental_uris": {"ios": "https://dc.lft.to/lastmile_qr_scan", "android": "https://dc.lft.to/lastmile_qr_scan"}, "is_disabled": 0, "lon": -77.02960016666667, "name": "1a9d87cea03dd6b8a617fb589f677c4a", "fusion_lon": 0.0},