{"data": {"bikes": [{"fusion_lat": 0.0, "name": "ac3985a8190d3f7483cafcd26235c13f", "is_disabled": 0, "rental_uris": {"android": "https://dc.lft.to/lastmile_qr_scan", "ios": "https://dc.lft.to/lastmile_qr_scan"}, "fusion_lon": 0.0, "lat": 38.916148, "bike_id": "ac3985a8190d3f7483cafcd26235c13f", "type": "electric_scooter", "is_reserved": 0, "lon": -77.03853466666666}, {"fusion_lat": 0.0, "name": "d5ee08b10b36df25350ce731c192c390", "is_disabled": 0, "rental_uris": {"android": "https://dc.lft.to/lastmile_qr_scan", "ios": "https://dc.lft.to/lastmile_qr_scan"}, "fusion_lon": 0.0, "lat": 38.930432833333334, "bike_id": "d5ee08b10b36df25350ce731c192c390", "type": "electric_scooter", "is_reserved": 0, "lon": -77.03360083333334}, {"fusion_lat": 0.0, "name": "e1432581f302da583e4c0d544c3f252e", "is_disabled": 0, "rental_uris": {"android": "https://dc.lft.to/lastmile_qr_scan", "ios": "https://dc.lft.to/lastmile_qr_scan"}, "fusion_lon": 0.0, "lat": 38.9492295, "bike_id": "e1432581f302da583e4c0d544c3f252e", "type": "electric_scooter", "is_reserved": 0, "lon": -77.0185775}, {"fusion_lat": 0.0, "name": "620a27167bd3f80fd0e4a000bd811fec", "is_disabled": 0, "rental_uris": {"android": "https://dc.lft.to/lastmile_qr_scan", "ios": "https://dc.lft.to/lastmile_qr_scan"}, "fusion_lon": 0.0, "lat": 38.89367933333333, "bike_id": "620a27167bd3f80fd0e4a000bd811fec", "type": "electric_scooter", "is_reserved": 0, "lon": -77.00079}, {"fusion_lat": 0.0, "name": "774c784137fbecd489d1beb83f39eebf", "is_disabled": 0, "rental_uris": {"android": "https://dc.lft.to/lastmile_qr_scan", "ios": "https://dc.lft.to/lastmile_qr_scan"}, "fusion_lon": 0.0, "lat": 38.89513683333333, "bike_id": "774c784137fbecd489d1beb83f39eebf", "type": "electric_scooter", "is_reserved": 0, "lon": -77.04173833333333}, {"fusion_lat": 0.0, "name": "5fd9717def3ddc15b25a23644f37d621", "is_disabled": 0, "rental_uris": {"android": "https://dc.lft.to/lastmile_qr_scan", "ios": "https://dc.lft.to/lastmile_qr_scan"}, "fusion_lon": 0.0, "lat": 38.899146333333334, "bike_id": "5fd9717def3ddc15b25a23644f37d621", "type": "electric_scooter", "is_reserved": 0, "lon": -76.945851}, {"fusion_lat": 0.0, "name": "bb188a45dd03003fe7478600a650dc9f", "is_disabled": 0, "rental_uris": {"android": "https://dc.lft.to/lastmile_qr_scan", "ios": "https://dc.lft.to/lastmile_qr_scan"}, "fusion_lon": 0.0, "lat": 38.939024833333335, "bike_id": "bb188a45dd03003fe7478600a650dc9f", "type": "electric_scooter", "is_reserved": 0, "lon": -77.078036}, {"fusion_lat": 0.0, "name": "96f572b5837bc751f4b50e8414e5a32a", "is_disabled": 0, "rental_uris": {"android": "https://dc.lft.to/lastmile_qr_scan", "ios": "https://dc.lft.to/lastmile_qr_scan"}, "fusion_lon": 0.0, "lat": 38.8852085, "bike_id": "96f572b5837bc751f4b50e8414e5a32a", "type": "electric_scooter", "is_reserved": 0, "lon": -76.92912533333333}, {"fusion_lat": 0.0, "name": "3388e9ea1cb73670359622290d57a099", "is_disabled": 0, "rental_uris": {"android": "https://dc.lft.to/lastmile_qr_scan", "ios": "https://dc.lft.to/lastmile_qr_scan"}, "fusion_lon": 0.0, "lat": 38.916211833333335, "bike_id": "3388e9ea1cb73670359622290d57a099", "type": "electric_scooter", "is_reserved": 0, "lon": -77.00338116666667}, {"fusion_lat": 0.0, "name": "c29f1065b4129ed0c50d81f10e128c54", "is_disabled": 0, "rental_uris": {"android": "https://dc.lft.to/lastmile_qr_scan", "ios": "https://dc.lft.to/lastmile_qr_scan"}, "fusion_lon": 0.0, "lat": 38.907667333333336, "bike_id": "c29f1065b4129ed0c50d81f10e128c54", "type": "electric_scooter", "is_reserved": 0, "lon": -77.04262633333333}, {"fusion_lat": 0.0, "name": "a53c117bd91aca6b41a8b26ba0f78769", "is_disabled": 0, "rental_uris": {"android": "https://dc.lft.to/lastmile_qr_scan", "ios": "https://dc.lft.to/lastmile_qr_scan"}, "fusion_lon": 0.0, "lat": 38.899068, "bike_id": "a53c117bd91aca6b41a8b26ba0f78769", "type": "electric_scooter", "is_reserved": 0, "lon": -76.9335505}, {"fusion_lat": 0.0, "name": "4c9142d6a1f9a4a8859a4f5a0f55b37b", "is_disabled": 0, "rental_uris": {"android": "https://dc.lft.to/lastmile_qr_scan", "ios": "https://dc.lft.to/lastmile_qr_scan"}, "fusion_lon": 0.0, "lat": 38.923103, "bike_id": "4c9142d6a1f9a4a8859a4f5a0f55b37b", "type": "electric_scooter", "is_reserved": 0, "lon": -77.0420785}, {"fusion_lat": 0.0, "name": "05d21757c1976c8201ac08ec1bd75f65", "is_disabled": 0, "rental_uris": {"android": "https://dc.lft.to/lastmile_qr_scan", "ios": "https://dc.lft.to/lastmile_qr_scan"}, "fusion_lon": 0.0, "lat": 38.928263, "bike_id": "05d21757c1976c8201ac08ec1bd75f65", "type": "electric_scooter", "is_reserved": 0, "lon": -77.01593716666666}, {"fusion_lat": 0.0, "name": "051d14b99ba8bdd8bf794424298512fa", "is_disabled": 0, "rental_uris": {"android": "https://dc.lft.to/lastmile_qr_scan", "ios": "https://dc.lft.to/lastmile_qr_scan"}, "fusion_lon": 0.0, "lat": 38.87576116666666, "bike_id": "051d14b99ba8bdd8bf794424298512fa", "type": "electric_bike", "is_reserved": 0, "lon": -77.234105}, {"fusion_lat": 0.0, "name": "af040e3b8a89f8d68478a79094a38fe7", "is_disabled": 0, "rental_uris": {"android": "https://dc.lft.to/lastmile_qr_scan", "ios": "https://dc.lft.to/lastmile_qr_scan"}, "fusion_lon": 0.0, "lat": 38.91076183333333, "bike_id": "af040e3b8a89f8d68478a79094a38fe7", "type": "electric_scooter", "is_reserved": 0, "lon": -77.00936316666666}, {"fusion_lat": 0.0, "name": "74313d808d7f79c34417ba0241cafbf3", "is_disabled": 0, "rental_uris": {"android": "https://dc.lft.to/lastmile_qr_scan", "ios": "https://dc.lft.to/lastmile_qr_scan"}, "fusion_lon": 0.0, "lat": 38.906245166666665, "bike_id": "74313d808d7f79c34417ba0241cafbf3", "type": "electric_scooter", "is_reserved": 0, "lon": -77.03714566666666}, {"fusion_lat": 0.0, "name": "2d0b07b45ce03ae13c1fa8c9420f900d", "is_disabled": 0, "rental_uris": {"android": "https://dc.lft.to/lastmile_qr_scan", "ios": "https://dc.lft.to/lastmile_qr_scan"}, "fusion_lon": 0.0, "lat": 38.92537566666667, "bike_id": "2d0b07b45ce03ae13c1fa8c9420f900d", "type": "electric_scooter", "is_reserved": 0, "lon": -77.03830233333333}, {"fusion_lat": 0.0, "name": "053709b1bcd41d6b2f5e43ec7bf04141", "is_disabled": 0, "rental_uris": {"android": "https://dc.lft.to/lastmile_qr_scan", "ios": "https://dc.lft.to/lastmile_qr_scan"}, "fusion_lon": 0.0, "lat": 38.938606666666665, "bike_id": "053709b1bcd41d6b2f5e43ec7bf04141", "type": "electric_scooter", "is_reserved": 0, "lon": -77.02470983333333}, {"fusion_lat": 0.0, "name": "4b3533b7f6ffdb2b51f68f93b6b589cb", "is_disabled": 0, "rental_uris": {"android": "https://dc.lft.to/lastmile_qr_scan", "ios": "https://dc.lft.to/lastmile_qr_scan"}, "fusion_lon": 0.0, "lat": 38.915618333333335, "bike_id": "4b3533b7f6ffdb2b51f68f93b6b589cb", "type": "electric_scooter", "is_reserved": 0, "lon": -77.0385695}, {"fusion_lat": 0.0, "name": "edac1717283734062981c5f83d703d09", "is_disabled": 0, "rental_uris": {"android": "https://dc.lft.to/lastmile_qr_scan", "ios": "https://dc.lft.to/lastmile_qr_scan"}, "fusion_lon": 0.0, "lat": 38.9053735, "bike_id": "edac1717283734062981c5f83d703d09", "type": "electric_scooter", "is_reserved": 0, "lon": -77.02207683333333}, {"fusion_lat": 0.0, "name": "4ee8501f43ccf7ff1ad4cf31587c1dc6", "is_disabled": 0, "rental_uris": {"android": "https://dc.lft.to/lastmile_qr_scan", "ios": "https://dc.lft.to/lastmile_qr_scan"}, "fusion_lon": 0.0, "lat": 38.90088733333333, "bike_id": "4ee8501f43ccf7ff1ad4cf31587c1dc6", "type": "electric_scooter", "is_reserved": 0, "lon": -76.983339}, {"fusion_lat": 0.0, "name": "481db530aeb01408d363bcdc7852c33b", "is_disabled": 0, "rental_uris": {"android": "https://dc.lft.to/lastmile_qr_scan", "ios": "https://dc.lft.to/lastmile_qr_scan"}, "fusion_lon": 0.0, "lat": 38.91042816666667, "bike_id": "481db530aeb01408d363bcdc7852c33b", "type": "electric_scooter", "is_reserved": 0, "lon": -77.00829366666666}, {"fusion_lat": 0.0, "name": "ad1fd90d414278325e8fe0a97028d0f9", "is_disabled": 0, "rental_uris": {"android": "https://dc.lft.to/lastmile_qr_scan", "ios": "https://dc.lft.to/lastmile_qr_scan"}, "fusion_lon": 0.0, "lat": 38.91285516666667, "bike_id": "ad1fd90d414278325e8fe0a97028d0f9", "type": "electric_scooter", "is_reserved": 0, "lon": -77.0238425}, {"fusion_lat": 0.0, "name": "c6be46c8049cf8bd3226b69656a42825", "is_disabled": 0, "rental_uris": {"android": "https://dc.lft.to/lastmile_qr_scan", "ios": "https://dc.lft.to/lastmile_qr_scan"}, "fusion_lon": 0.0, "lat": 38.875832333333335, "bike_id": "c6be46c8049cf8bd3226b69656a42825", "type": "electric_scooter", "is_reserved": 0, "lon": -77.00579183333333}, {"fusion_lat": 0.0, "name": "e132ef21a6873765893be4eaf14a07de", "is_disabled": 0, "rental_uris": {"android": "https://dc.lft.to/lastmile_qr_scan", "ios": "https://dc.lft.to/lastmile_qr_scan"}, "fusion_lon": 0.0, "lat": 38.915530833333335, "bike_id": "e132ef21a6873765893be4eaf14a07de", "type": "electric_scooter", "is_reserved": 0, "lon": -77.0317355}, {"fusion_lat": 0.0, "name": "73be771890d05fa96a2cf92a456930e3", "is_disabled": 0, "rental_uris": {"android": "https://dc.lft.to/lastmile_qr_scan", "ios": "https://dc.lft.to/lastmile_qr_scan"}, "fusion_lon": 0.0, "lat": 38.913132, "bike_id": "73be771890d05fa96a2cf92a456930e3", "type": "electric_scooter", "is_reserved": 0, "lon": -77.02135783333334}, {"fusion_lat": 0.0, "name": "0ced5ec9dc7433d67c31bbce1589763f", "is_disabled": 0, "rental_uris": {"android": "https://dc.lft.to/lastmile_qr_scan", "ios": "https://dc.lft.to/lastmile_qr_scan"}, "fusion_lon": 0.0, "lat": 38.920473666666666, "bike_id": "0ced5ec9dc7433d67c31bbce1589763f", "type": "electric_scooter", "is_reserved": 0, "lon": -77.034641}, {"fusion_lat": 0.0, "name": "594e2987bd2be3983ccc9e24fc62f15c", "is_disabled": 0, "rental_uris": {"android": "https://dc.lft.to/lastmile_qr_scan", "ios": "https://dc.lft.to/lastmile_qr_scan"}, "fusion_lon": 0.0, "lat": 38.87961033333333, "bike_id": "594e2987bd2be3983ccc9e24fc62f15c", "type": "electric_bike", "is_reserved": 0, "lon": -76.91621433333333}, {"fusion_lat": 0.0, "name": "d523b9b3a38cf10805d5bf3d674b3212", "is_disabled": 0, "rental_uris": {"android": "https://dc.lft.to/lastmile_qr_scan", "ios": "https://dc.lft.to/lastmile_qr_scan"}, "fusion_lon": 0.0, "lat": 38.938742, "bike_id": "d523b9b3a38cf10805d5bf3d674b3212", "type": "electric_scooter", "is_reserved": 0, "lon": -77.0246905}, {"fusion_lat": 0.0, "name": "5c45b658d5c49eb5eb2cac251778ad19", "is_disabled": 0, "rental_uris": {"android": "https://dc.lft.to/lastmile_qr_scan", "ios": "https://dc.lft.to/lastmile_qr_scan"}, "fusion_lon": 0.0, "lat": 38.91799666666667, "bike_id": "5c45b658d5c49eb5eb2cac251778ad19", "type": "electric_scooter", "is_reserved": 0, "lon": -77.03298083333334}, {"fusion_lat": 0.0, "name": "ee08db415f81619062117923befea4f3", "is_disabled": 0, "rental_uris": {"android": "https://dc.lft.to/lastmile_qr_scan", "ios": "https://dc.lft.to/lastmile_qr_scan"}, "fusion_lon": 0.0, "lat": 38.92420033333333, "bike_id": "ee08db415f81619062117923befea4f3", "type": "electric_scooter", "is_reserved": 0, "lon": -77.01958683333334}, {"fusion_lat": 0.0, "name": "233be22876e01f9038c025bb0e1e1639", "is_disabled": 0, "rental_uris": {"android": "https://dc.lft.to/lastmile_qr_scan", "ios": "https://dc.lft.to/lastmile_qr_scan"}, "fusion_lon": 0.0, "lat": 38.9178755, "bike_id": "233be22876e01f9038c025bb0e1e1639", "type": "electric_scooter", "is_reserved": 0, "lon": -77.0402555}, {"fusion_lat": 0.0, "name": "8dd94d7b37a46a0c32ebebcca9c62d38", "is_disabled": 0, "rental_uris": {"android": "https://dc.lft.to/lastmile_qr_scan", "ios": "https://dc.lft.to/lastmile_qr_scan"}, "fusion_lon": 0.0, "lat": 38.913920833333336, "bike_id": "8dd94d7b37a46a0c32ebebcca9c62d38", "type": "electric_scooter", "is_reserved": 0, "lon": -77.04330433333334}, {"fusion_lat": 0.0, "name": "114374af7212a7e7a866b9871f40040e", "is_disabled": 0, "rental_uris": {"android": "https://dc.lft.to/lastmile_qr_scan", "ios": "https://dc.lft.to/lastmile_qr_scan"}, "fusion_lon": 0.0, "lat": 38.90030216666667, "bike_id": "114374af7212a7e7a866b9871f40040e", "type": "electric_scooter", "is_reserved": 0, "lon": -76.99450933333334}, {"fusion_lat": 0.0, "name": "39fb3e816474f5dd450cf075a73ce8e2", "is_disabled": 0, "rental_uris": {"android": "https://dc.lft.to/lastmile_qr_scan", "ios": "https://dc.lft.to/lastmile_qr_scan"}, "fusion_lon": 0.0, "lat": 38.835061, "bike_id": "39fb3e816474f5dd450cf075a73ce8e2", "type": "electric_bike", "is_reserved": 0, "lon": -76.98684783333333}, {"fusion_lat": 0.0, "name": "0660f6d71928e1ccd9f178c250c02f27", "is_disabled": 0, "rental_uris": {"android": "https://dc.lft.to/lastmile_qr_scan", "ios": "https://dc.lft.to/lastmile_qr_scan"}, "fusion_lon": 0.0, "lat": 38.94269416666667, "bike_id": "0660f6d71928e1ccd9f178c250c02f27", "type": "electric_scooter", "is_reserved": 0, "lon": -77.03257583333334}, {"fusion_lat": 0.0, "name": "5c5dd49378445dc9f49c7ec60b93400e", "is_disabled": 0, "rental_uris": {"android": "https://dc.lft.to/lastmile_qr_scan", "ios": "https://dc.lft.to/lastmile_qr_scan"}, "fusion_lon": 0.0, "lat": 38.91152833333334, "bike_id": "5c5dd49378445dc9f49c7ec60b93400e", "type": "electric_scooter", "is_reserved": 0, "lon": -77.07273916666666}, {"fusion_lat": 0.0, "name": "15989f4c5003e22924a085bb0ff7c32f", "is_disabled": 0, "rental_uris": {"android": "https://dc.lft.to/lastmile_qr_scan", "ios": "https://dc.lft.to/lastmile_qr_scan"}, "fusion_lon": 0.0, "lat": 38.91545083333333, "bike_id": "15989f4c5003e22924a085bb0ff7c32f", "type": "electric_scooter", "is_reserved": 0, "lon": -77.01132316666667}, {"fusion_lat": 0.0, "name": "74bc9e53f059c40883f9438b7a884cc5", "is_disabled": 0, "rental_uris": {"android": "https://dc.lft.to/lastmile_qr_scan", "ios": "https://dc.lft.to/lastmile_qr_scan"}, "fusion_lon": 0.0, "lat": 38.9401255, "bike_id": "74bc9e53f059c40883f9438b7a884cc5", "type": "electric_scooter", "is_reserved": 0, "lon": -77.0841235}, {"fusion_lat": 0.0, "name": "03811d3352ca885b891fc7e30351a177", "is_disabled": 0, "rental_uris": {"android": "https://dc.lft.to/lastmile_qr_scan", "ios": "https://dc.lft.to/lastmile_qr_scan"}, "fusion_lon": 0.0, "lat": 38.9001845, "bike_id": "03811d3352ca885b891fc7e30351a177", "type": "electric_scooter", "is_reserved": 0, "lon": -77.01617966666667}, {"fusion_lat": 0.0, "name": "3bf0a5132363681d95d6d78c0a2e2ed1", "is_disabled": 0, "rental_uris": {"android": "https://dc.lft.to/lastmile_qr_scan", "ios": "https://dc.lft.to/lastmile_qr_scan"}, "fusion_lon": 0.0, "lat": 38.90061466666667, "bike_id": "3bf0a5132363681d95d6d78c0a2e2ed1", "type": "electric_scooter", "is_reserved": 0, "lon": -76.9338845}, {"fusion_lat": 0.0, "name": "dd1ebabaa53d8efd05e4345fe3040920", "is_disabled": 0, "rental_uris": {"android": "https://dc.lft.to/lastmile_qr_scan", "ios": "https://dc.lft.to/lastmile_qr_scan"}, "fusion_lon": 0.0, "lat": 38.915337666666666, "bike_id": "dd1ebabaa53d8efd05e4345fe3040920", "type": "electric_scooter", "is_reserved": 0, "lon": -77.0665845}, {"fusion_lat": 0.0, "name": "13f0f0abb9336496c42a1ea3ece9f8fe", "is_disabled": 0, "rental_uris": {"android": "https://dc.lft.to/lastmile_qr_scan", "ios": "https://dc.lft.to/lastmile_qr_scan"}, "fusion_lon": 0.0, "lat": 38.90768933333333, "bike_id": "13f0f0abb9336496c42a1ea3ece9f8fe", "type": "electric_scooter", "is_reserved": 0, "lon": -77.0559655}, {"fusion_lat": 0.0, "name": "32446829ff9d1e418e3b989ce1de0f18", "is_disabled": 0, "rental_uris": {"android": "https://dc.lft.to/lastmile_qr_scan", "ios": "https://dc.lft.to/lastmile_qr_scan"}, "fusion_lon": 0.0, "lat": 38.886735333333334, "bike_id": "32446829ff9d1e418e3b989ce1de0f18", "type": "electric_scooter", "is_reserved": 0, "lon": -77.01369666666666}, {"fusion_lat": 0.0, "name": "8c90a7edf8f5baa64757d8328cb56dce", "is_disabled": 0, "rental_uris": {"android": "https://dc.lft.to/lastmile_qr_scan", "ios": "https://dc.lft.to/lastmile_qr_scan"}, "fusion_lon": 0.0, "lat": 38.924679833333336, "bike_id": "8c90a7edf8f5baa64757d8328cb56dce", "type": "electric_scooter", "is_reserved": 0, "lon": -77.03907766666667}, {"fusion_lat": 0.0, "name": "372fe3a4b5142847b9c637ac56a14572", "is_disabled": 0, "rental_uris": {"android": "https://dc.lft.to/lastmile_qr_scan", "ios": "https://dc.lft.to/lastmile_qr_scan"}, "fusion_lon": 0.0, "lat": 38.87530233333333, "bike_id": "372fe3a4b5142847b9c637ac56a14572", "type": "electric_scooter", "is_reserved": 0, "lon": -77.00508266666667}, {"fusion_lat": 0.0, "name": "60674e8f8eed5fd51bfee33cd962c3d3", "is_disabled": 0, "rental_uris": {"android": "https://dc.lft.to/lastmile_qr_scan", "ios": "https://dc.lft.to/lastmile_qr_scan"}, "fusion_lon": 0.0, "lat": 38.916311, "bike_id": "60674e8f8eed5fd51bfee33cd962c3d3", "type": "electric_scooter", "is_reserved": 0, "lon": -77.02252833333333}, {"fusion_lat": 0.0, "name": "c544ff0c021c78c2e68bda57d941d64e", "is_disabled": 0, "rental_uris": {"android": "https://dc.lft.to/lastmile_qr_scan", "ios": "https://dc.lft.to/lastmile_qr_scan"}, "fusion_lon": 0.0, "lat": 38.915971166666665, "bike_id": "c544ff0c021c78c2e68bda57d941d64e", "type": "electric_scooter", "is_reserved": 0, "lon": -77.045601}, {"fusion_lat": 0.0, "name": "a31fb30e224e348b4c811651bd89c5aa", "is_disabled": 0, "rental_uris": {"android": "https://dc.lft.to/lastmile_qr_scan", "ios": "https://dc.lft.to/lastmile_qr_scan"}, "fusion_lon": 0.0, "lat": 38.869334333333335, "bike_id": "a31fb30e224e348b4c811651bd89c5aa", "type": "electric_scooter", "is_reserved": 0, "lon": -77.01377266666667}, {"fusion_lat": 0.0, "name": "867913ea50508d82ef6e54af521c428f", "is_disabled": 0, "rental_uris": {"android": "https://dc.lft.to/lastmile_qr_scan", "ios": "https://dc.lft.to/lastmile_qr_scan"}, "fusion_lon": 0.0, "lat": 38.896616, "bike_id": "867913ea50508d82ef6e54af521c428f", "type": "electric_scooter", "is_reserved": 0, "lon": -77.050932}, {"fusion_lat": 0.0, "name": "0987aaace4e78723e06cf2488c5aca4f", "is_disabled": 0, "rental_uris": {"android": "https://dc.lft.to/lastmile_qr_scan", "ios": "https://dc.lft.to/lastmile_qr_scan"}, "fusion_lon": 0.0, "lat": 38.895398, "bike_id": "0987aaace4e78723e06cf2488c5aca4f", "type": "electric_scooter", "is_reserved": 0, "lon": -76.94956466666666}, {"fusion_lat": 0.0, "name": "abca259a1257e36c2dbdb7a8c1fb27a1", "is_disabled": 0, "rental_uris": {"android": "https://dc.lft.to/lastmile_qr_scan", "ios": "https://dc.lft.to/lastmile_qr_scan"}, "fusion_lon": 0.0, "lat": 38.91680516666667, "bike_id": "abca259a1257e36c2dbdb7a8c1fb27a1", "type": "electric_scooter", "is_reserved": 0, "lon": -77.03765866666667}, {"fusion_lat": 0.0, "name": "ab4de5d04bcaa834ec9cd561b3a487d5", "is_disabled": 0, "rental_uris": {"android": "https://dc.lft.to/lastmile_qr_scan", "ios": "https://dc.lft.to/lastmile_qr_scan"}, "fusion_lon": 0.0, "lat": 38.91455216666667, "bike_id": "ab4de5d04bcaa834ec9cd561b3a487d5", "type": "electric_scooter", "is_reserved": 0, "lon": -77.07223583333334}, {"fusion_lat": 0.0, "name": "6f3d8b1638decae5853313a549b46076", "is_disabled": 0, "rental_uris": {"android": "https://dc.lft.to/lastmile_qr_scan", "ios": "https://dc.lft.to/lastmile_qr_scan"}, "fusion_lon": 0.0, "lat": 38.87386466666667, "bike_id": "6f3d8b1638decae5853313a549b46076", "type": "electric_scooter", "is_reserved": 0, "lon": -77.000397}, {"fusion_lat": 0.0, "name": "f1675edb155f346f2588415b7294076a", "is_disabled": 0, "rental_uris": {"android": "https://dc.lft.to/lastmile_qr_scan", "ios": "https://dc.lft.to/lastmile_qr_scan"}, "fusion_lon": 0.0, "lat": 38.9077685, "bike_id": "f1675edb155f346f2588415b7294076a", "type": "electric_scooter", "is_reserved": 0, "lon": -77.07167016666666}, {"fusion_lat": 0.0, "name": "701820168c7be696a1a0e827b06238d6", "is_disabled": 0, "rental_uris": {"android": "https://dc.lft.to/lastmile_qr_scan", "ios": "https://dc.lft.to/lastmile_qr_scan"}, "fusion_lon": 0.0, "lat": 38.91792366666667, "bike_id": "701820168c7be696a1a0e827b06238d6", "type": "electric_scooter", "is_reserved": 0, "lon": -77.04025883333334}, {"fusion_lat": 0.0, "name": "2a01441a74358ba8ff3fbc3d1fcb7bb9", "is_disabled": 0, "rental_uris": {"android": "https://dc.lft.to/lastmile_qr_scan", "ios": "https://dc.lft.to/lastmile_qr_scan"}, "fusion_lon": 0.0, "lat": 38.9006795, "bike_id": "2a01441a74358ba8ff3fbc3d1fcb7bb9", "type": "electric_scooter", "is_reserved": 0, "lon": -76.92750083333334}, {"fusion_lat": 0.0, "name": "9d996f0c2d0ef05d11188efff0059d5e", "is_disabled": 0, "rental_uris": {"android": "https://dc.lft.to/lastmile_qr_scan", "ios": "https://dc.lft.to/lastmile_qr_scan"}, "fusion_lon": 0.0, "lat": 38.91551166666667, "bike_id": "9d996f0c2d0ef05d11188efff0059d5e", "type": "electric_scooter", "is_reserved": 0, "lon": -77.03174633333333}, {"fusion_lat": 0.0, "name": "a66692c918d9632851ddaa3b04be5f02", "is_disabled": 0, "rental_uris": {"android": "https://dc.lft.to/lastmile_qr_scan", "ios": "https://dc.lft.to/lastmile_qr_scan"}, "fusion_lon": 0.0, "lat": 38.876618666666666, "bike_id": "a66692c918d9632851ddaa3b04be5f02", "type": "electric_scooter", "is_reserved": 0, "lon": -76.9962555}, {"fusion_lat": 0.0, "name": "22cad693851e71b6f7b9c5d57ba47d2a", "is_disabled": 0, "rental_uris": {"android": "https://dc.lft.to/lastmile_qr_scan", "ios": "https://dc.lft.to/lastmile_qr_scan"}, "fusion_lon": 0.0, "lat": 38.8662495, "bike_id": "22cad693851e71b6f7b9c5d57ba47d2a", "type": "electric_scooter", "is_reserved": 0, "lon": -76.987159}, {"fusion_lat": 0.0, "name": "f554719d4c7dab25b3cfe223b750cd6e", "is_disabled": 0, "rental_uris": {"android": "https://dc.lft.to/lastmile_qr_scan", "ios": "https://dc.lft.to/lastmile_qr_scan"}, "fusion_lon": 0.0, "lat": 38.9510555, "bike_id": "f554719d4c7dab25b3cfe223b750cd6e", "type": "electric_scooter", "is_reserved": 0, "lon": -77.05860416666667}, {"fusion_lat": 0.0, "name": "9cf753a33ee22d9a1de116d865af3297", "is_disabled": 0, "rental_uris": {"android": "https://dc.lft.to/lastmile_qr_scan", "ios": "https://dc.lft.to/lastmile_qr_scan"}, "fusion_lon": 0.0, "lat": 38.915096166666665, "bike_id": "9cf753a33ee22d9a1de116d865af3297", "type": "electric_scooter", "is_reserved": 0, "lon": -77.0326975}, {"fusion_lat": 0.0, "name": "680e2b8d059aca81ba470bff01e62a7a", "is_disabled": 0, "rental_uris": {"android": "https://dc.lft.to/lastmile_qr_scan", "ios": "https://dc.lft.to/lastmile_qr_scan"}, "fusion_lon": 0.0, "lat": 38.91548916666667, "bike_id": "680e2b8d059aca81ba470bff01e62a7a", "type": "electric_scooter", "is_reserved": 0, "lon": -77.0418835}, {"fusion_lat": 0.0, "name": "8831b609b3e1d474f2c09b74a6e7f82f", "is_disabled": 0, "rental_uris": {"android": "https://dc.lft.to/lastmile_qr_scan", "ios": "https://dc.lft.to/lastmile_qr_scan"}, "fusion_lon": 0.0, "lat": 38.91701583333333, "bike_id": "8831b609b3e1d474f2c09b74a6e7f82f", "type": "electric_scooter", "is_reserved": 0, "lon": -77.03719416666667}, {"fusion_lat": 0.0, "name": "ecd4915e9909edb92d0e4150f2598bb2", "is_disabled": 0, "rental_uris": {"android": "https://dc.lft.to/lastmile_qr_scan", "ios": "https://dc.lft.to/lastmile_qr_scan"}, "fusion_lon": 0.0, "lat": 38.95471416666667, "bike_id": "ecd4915e9909edb92d0e4150f2598bb2", "type": "electric_scooter", "is_reserved": 0, "lon": -77.077797}, {"fusion_lat": 0.0, "name": "616ae6f390eb8288903d413475efac2b", "is_disabled": 0, "rental_uris": {"android": "https://dc.lft.to/lastmile_qr_scan", "ios": "https://dc.lft.to/lastmile_qr_scan"}, "fusion_lon": 0.0, "lat": 38.916889, "bike_id": "616ae6f390eb8288903d413475efac2b", "type": "electric_scooter", "is_reserved": 0, "lon": -77.02295566666666}, {"fusion_lat": 0.0, "name": "72a5e427bb705d186814aab1a3d533fa", "is_disabled": 0, "rental_uris": {"android": "https://dc.lft.to/lastmile_qr_scan", "ios": "https://dc.lft.to/lastmile_qr_scan"}, "fusion_lon": 0.0, "lat": 38.90528966666667, "bike_id": "72a5e427bb705d186814aab1a3d533fa", "type": "electric_bike", "is_reserved": 0, "lon": -76.99806833333334}, {"fusion_lat": 0.0, "name": "3e1bee2e15ee8fa7a91876ecfdacf7f9", "is_disabled": 0, "rental_uris": {"android": "https://dc.lft.to/lastmile_qr_scan", "ios": "https://dc.lft.to/lastmile_qr_scan"}, "fusion_lon": 0.0, "lat": 38.919334166666665, "bike_id": "3e1bee2e15ee8fa7a91876ecfdacf7f9", "type": "electric_scooter", "is_reserved": 0, "lon": -77.04553733333333}, {"fusion_lat": 0.0, "name": "a4d0fa7e25cdfed405fca8896acca174", "is_disabled": 0, "rental_uris": {"android": "https://dc.lft.to/lastmile_qr_scan", "ios": "https://dc.lft.to/lastmile_qr_scan"}, "fusion_lon": 0.0, "lat": 39.014153666666665, "bike_id": "a4d0fa7e25cdfed405fca8896acca174", "type": "electric_bike", "is_reserved": 0, "lon": -77.0450035}, {"fusion_lat": 0.0, "name": "9c911f7fd926dda9d6157873fc4fd0eb", "is_disabled": 0, "rental_uris": {"android": "https://dc.lft.to/lastmile_qr_scan", "ios": "https://dc.lft.to/lastmile_qr_scan"}, "fusion_lon": 0.0, "lat": 38.8969705, "bike_id": "9c911f7fd926dda9d6157873fc4fd0eb", "type": "electric_scooter", "is_reserved": 0, "lon": -77.02407033333333}, {"fusion_lat": 0.0, "name": "b176b0177ed56a2817a12c63c197c767", "is_disabled": 0, "rental_uris": {"android": "https://dc.lft.to/lastmile_qr_scan", "ios": "https://dc.lft.to/lastmile_qr_scan"}, "fusion_lon": 0.0, "lat": 38.89552883333333, "bike_id": "b176b0177ed56a2817a12c63c197c767", "type": "electric_scooter", "is_reserved": 0, "lon": -76.99430366666667}, {"fusion_lat": 0.0, "name": "ab58d375e2f9ef7197c5d55f24e7ad6f", "is_disabled": 0, "rental_uris": {"android": "https://dc.lft.to/lastmile_qr_scan", "ios": "https://dc.lft.to/lastmile_qr_scan"}, "fusion_lon": 0.0, "lat": 38.92225633333334, "bike_id": "ab58d375e2f9ef7197c5d55f24e7ad6f", "type": "electric_scooter", "is_reserved": 0, "lon": -77.01828733333333}, {"fusion_lat": 0.0, "name": "155ac7d64972b890feec5386960f552b", "is_disabled": 0, "rental_uris": {"android": "https://dc.lft.to/lastmile_qr_scan", "ios": "https://dc.lft.to/lastmile_qr_scan"}, "fusion_lon": 0.0, "lat": 38.90769233333333, "bike_id": "155ac7d64972b890feec5386960f552b", "type": "electric_scooter", "is_reserved": 0, "lon": -77.04260116666667}, {"fusion_lat": 0.0, "name": "dd36fbf529919c95e34cc4c030f7adc6", "is_disabled": 0, "rental_uris": {"android": "https://dc.lft.to/lastmile_qr_scan", "ios": "https://dc.lft.to/lastmile_qr_scan"}, "fusion_lon": 0.0, "lat": 38.89821716666667, "bike_id": "dd36fbf529919c95e34cc4c030f7adc6", "type": "electric_scooter", "is_reserved": 0, "lon": -77.04078183333333}, {"fusion_lat": 0.0, "name": "0a6930da86f03549e68f97382985d0d5", "is_disabled": 0, "rental_uris": {"android": "https://dc.lft.to/lastmile_qr_scan", "ios": "https://dc.lft.to/lastmile_qr_scan"}, "fusion_lon": 0.0, "lat": 38.900405, "bike_id": "0a6930da86f03549e68f97382985d0d5", "type": "electric_scooter", "is_reserved": 0, "lon": -77.012324}, {"fusion_lat": 0.0, "name": "a736884742638a049d01e06e0db34a83", "is_disabled": 0, "rental_uris": {"android": "https://dc.lft.to/lastmile_qr_scan", "ios": "https://dc.lft.to/lastmile_qr_scan"}, "fusion_lon": 0.0, "lat": 38.8789745, "bike_id": "a736884742638a049d01e06e0db34a83", "type": "electric_scooter", "is_reserved": 0, "lon": -77.01362966666667}, {"fusion_lat": 0.0, "name": "13433ee8109840b15559bb8931db6151", "is_disabled": 0, "rental_uris": {"android": "https://dc.lft.to/lastmile_qr_scan", "ios": "https://dc.lft.to/lastmile_qr_scan"}, "fusion_lon": 0.0, "lat": 38.895214, "bike_id": "13433ee8109840b15559bb8931db6151", "type": "electric_scooter", "is_reserved": 0, "lon": -76.93413}, {"fusion_lat": 0.0, "name": "d5fbde11e2eed6b43bb2af451989804f", "is_disabled": 0, "rental_uris": {"android": "https://dc.lft.to/lastmile_qr_scan", "ios": "https://dc.lft.to/lastmile_qr_scan"}, "fusion_lon": 0.0, "lat": 38.9014715, "bike_id": "d5fbde11e2eed6b43bb2af451989804f", "type": "electric_scooter", "is_reserved": 0, "lon": -77.06113}, {"fusion_lat": 0.0, "name": "e9b27c2c977a107abdaf4b721c4da75b", "is_disabled": 0, "rental_uris": {"android": "https://dc.lft.to/lastmile_qr_scan", "ios": "https://dc.lft.to/lastmile_qr_scan"}, "fusion_lon": 0.0, "lat": 38.9008095, "bike_id": "e9b27c2c977a107abdaf4b721c4da75b", "type": "electric_scooter", "is_reserved": 0, "lon": -77.05035366666667}, {"fusion_lat": 0.0, "name": "8a64627399f94a2dee2b0e095326827c", "is_disabled": 0, "rental_uris": {"android": "https://dc.lft.to/lastmile_qr_scan", "ios": "https://dc.lft.to/lastmile_qr_scan"}, "fusion_lon": 0.0, "lat": 38.923992166666665, "bike_id": "8a64627399f94a2dee2b0e095326827c", "type": "electric_scooter", "is_reserved": 0, "lon": -77.02554066666667}, {"fusion_lat": 0.0, "name": "ba31442dc76e8a8c0e076aa70b8e7c9a", "is_disabled": 0, "rental_uris": {"android": "https://dc.lft.to/lastmile_qr_scan", "ios": "https://dc.lft.to/lastmile_qr_scan"}, "fusion_lon": 0.0, "lat": 38.92115666666667, "bike_id": "ba31442dc76e8a8c0e076aa70b8e7c9a", "type": "electric_bike", "is_reserved": 0, "lon": -77.01211383333333}, {"fusion_lat": 0.0, "name": "37c135499d61b7feff6e41128c85cd7d", "is_disabled": 0, "rental_uris": {"android": "https://dc.lft.to/lastmile_qr_scan", "ios": "https://dc.lft.to/lastmile_qr_scan"}, "fusion_lon": 0.0, "lat": 38.924685333333336, "bike_id": "37c135499d61b7feff6e41128c85cd7d", "type": "electric_scooter", "is_reserved": 0, "lon": -77.02678966666667}, {"fusion_lat": 0.0, "name": "c42f216dfb7621c88ed61c104d2ba61d", "is_disabled": 0, "rental_uris": {"android": "https://dc.lft.to/lastmile_qr_scan", "ios": "https://dc.lft.to/lastmile_qr_scan"}, "fusion_lon": 0.0, "lat": 38.878907166666664, "bike_id": "c42f216dfb7621c88ed61c104d2ba61d", "type": "electric_scooter", "is_reserved": 0, "lon": -77.00715}, {"fusion_lat": 0.0, "name": "3c9c5ddb742acc26c6842c3bcb9096c2", "is_disabled": 0, "rental_uris": {"android": "https://dc.lft.to/lastmile_qr_scan", "ios": "https://dc.lft.to/lastmile_qr_scan"}, "fusion_lon": 0.0, "lat": 38.901095833333336, "bike_id": "3c9c5ddb742acc26c6842c3bcb9096c2", "type": "electric_scooter", "is_reserved": 0, "lon": -76.97427183333333}, {"fusion_lat": 0.0, "name": "835db7dfcad3fe815d05f3db51033750", "is_disabled": 0, "rental_uris": {"android": "https://dc.lft.to/lastmile_qr_scan", "ios": "https://dc.lft.to/lastmile_qr_scan"}, "fusion_lon": 0.0, "lat": 38.89875466666667, "bike_id": "835db7dfcad3fe815d05f3db51033750", "type": "electric_scooter", "is_reserved": 0, "lon": -77.02036066666666}, {"fusion_lat": 0.0, "name": "c8c776277ab6145ba67f8194cc2be5be", "is_disabled": 0, "rental_uris": {"android": "https://dc.lft.to/lastmile_qr_scan", "ios": "https://dc.lft.to/lastmile_qr_scan"}, "fusion_lon": 0.0, "lat": 38.9001545, "bike_id": "c8c776277ab6145ba67f8194cc2be5be", "type": "electric_scooter", "is_reserved": 0, "lon": -77.0447705}, {"fusion_lat": 0.0, "name": "1f504bb98421a2127aaad683223d9505", "is_disabled": 0, "rental_uris": {"android": "https://dc.lft.to/lastmile_qr_scan", "ios": "https://dc.lft.to/lastmile_qr_scan"}, "fusion_lon": 0.0, "lat": 38.926157, "bike_id": "1f504bb98421a2127aaad683223d9505", "type": "electric_scooter", "is_reserved": 0, "lon": -77.07569083333334}, {"fusion_lat": 0.0, "name": "a4ca885c9150635cc40da81236cff2e4", "is_disabled": 0, "rental_uris": {"android": "https://dc.lft.to/lastmile_qr_scan", "ios": "https://dc.lft.to/lastmile_qr_scan"}, "fusion_lon": 0.0, "lat": 38.907662, "bike_id": "a4ca885c9150635cc40da81236cff2e4", "type": "electric_scooter", "is_reserved": 0, "lon": -77.04268433333333}, {"fusion_lat": 0.0, "name": "63d487e5cfd3c616ff1eed6b5c27a238", "is_disabled": 0, "rental_uris": {"android": "https://dc.lft.to/lastmile_qr_scan", "ios": "https://dc.lft.to/lastmile_qr_scan"}, "fusion_lon": 0.0, "lat": 38.92815783333333, "bike_id": "63d487e5cfd3c616ff1eed6b5c27a238", "type": "electric_scooter", "is_reserved": 0, "lon": -77.04359983333333}, {"fusion_lat": 0.0, "name": "395761d16c5026055ec143c3a2bc7f41", "is_disabled": 0, "rental_uris": {"android": "https://dc.lft.to/lastmile_qr_scan", "ios": "https://dc.lft.to/lastmile_qr_scan"}, "fusion_lon": 0.0, "lat": 38.92320483333334, "bike_id": "395761d16c5026055ec143c3a2bc7f41", "type": "electric_scooter", "is_reserved": 0, "lon": -77.05367683333333}, {"fusion_lat": 0.0, "name": "94aba0f2ec68734d3958919d92ee4809", "is_disabled": 0, "rental_uris": {"android": "https://dc.lft.to/lastmile_qr_scan", "ios": "https://dc.lft.to/lastmile_qr_scan"}, "fusion_lon": 0.0, "lat": 38.89996033333333, "bike_id": "94aba0f2ec68734d3958919d92ee4809", "type": "electric_scooter", "is_reserved": 0, "lon": -77.00372066666667}, {"fusion_lat": 0.0, "name": "f8115534685fc93c7da0caaa12f9ecfb", "is_disabled": 0, "rental_uris": {"android": "https://dc.lft.to/lastmile_qr_scan", "ios": "https://dc.lft.to/lastmile_qr_scan"}, "fusion_lon": 0.0, "lat": 38.904234333333335, "bike_id": "f8115534685fc93c7da0caaa12f9ecfb", "type": "electric_scooter", "is_reserved": 0, "lon": -77.05129066666667}, {"fusion_lat": 0.0, "name": "524e354bfa5461ec2b0a8d4a515f460f", "is_disabled": 0, "rental_uris": {"android": "https://dc.lft.to/lastmile_qr_scan", "ios": "https://dc.lft.to/lastmile_qr_scan"}, "fusion_lon": 0.0, "lat": 38.8483145, "bike_id": "524e354bfa5461ec2b0a8d4a515f460f", "type": "electric_bike", "is_reserved": 0, "lon": -77.07916983333334}, {"fusion_lat": 0.0, "name": "bf6a3d3090bcd3c57971ceddfe3aa23a", "is_disabled": 0, "rental_uris": {"android": "https://dc.lft.to/lastmile_qr_scan", "ios": "https://dc.lft.to/lastmile_qr_scan"}, "fusion_lon": 0.0, "lat": 38.937013666666665, "bike_id": "bf6a3d3090bcd3c57971ceddfe3aa23a", "type": "electric_scooter", "is_reserved": 0, "lon": -77.0609965}, {"fusion_lat": 0.0, "name": "4ad0c52a02e42afafa10e88fdc3b1ca9", "is_disabled": 0, "rental_uris": {"android": "https://dc.lft.to/lastmile_qr_scan", "ios": "https://dc.lft.to/lastmile_qr_scan"}, "fusion_lon": 0.0, "lat": 38.90767183333333, "bike_id": "4ad0c52a02e42afafa10e88fdc3b1ca9", "type": "electric_scooter", "is_reserved": 0, "lon": -77.03467866666666}, {"fusion_lat": 0.0, "name": "c6601c5c3e2311bf5f8da085c7ff2cc3", "is_disabled": 0, "rental_uris": {"android": "https://dc.lft.to/lastmile_qr_scan", "ios": "https://dc.lft.to/lastmile_qr_scan"}, "fusion_lon": 0.0, "lat": 38.923463, "bike_id": "c6601c5c3e2311bf5f8da085c7ff2cc3", "type": "electric_scooter", "is_reserved": 0, "lon": -77.03394716666666}, {"fusion_lat": 0.0, "name": "1d0b126a90465b16553f4c4eeb60eab3", "is_disabled": 0, "rental_uris": {"android": "https://dc.lft.to/lastmile_qr_scan", "ios": "https://dc.lft.to/lastmile_qr_scan"}, "fusion_lon": 0.0, "lat": 38.905310666666665, "bike_id": "1d0b126a90465b16553f4c4eeb60eab3", "type": "electric_scooter", "is_reserved": 0, "lon": -77.061403}, {"fusion_lat": 0.0, "name": "0070cf6681b14ae11486c185c00bed3e", "is_disabled": 0, "rental_uris": {"android": "https://dc.lft.to/lastmile_qr_scan", "ios": "https://dc.lft.to/lastmile_qr_scan"}, "fusion_lon": 0.0, "lat": 38.91439733333333, "bike_id": "0070cf6681b14ae11486c185c00bed3e", "type": "electric_scooter", "is_reserved": 0, "lon": -77.014286}, {"fusion_lat": 0.0, "name": "324342358ec770649884331ecc642d84", "is_disabled": 0, "rental_uris": {"android": "https://dc.lft.to/lastmile_qr_scan", "ios": "https://dc.lft.to/lastmile_qr_scan"}, "fusion_lon": 0.0, "lat": 38.913970166666665, "bike_id": "324342358ec770649884331ecc642d84", "type": "electric_scooter", "is_reserved": 0, "lon": -77.03173216666667}, {"fusion_lat": 0.0, "name": "15ff1a6e4f8b29208986a4a5c853d8c1", "is_disabled": 0, "rental_uris": {"android": "https://dc.lft.to/lastmile_qr_scan", "ios": "https://dc.lft.to/lastmile_qr_scan"}, "fusion_lon": 0.0, "lat": 38.920516666666664, "bike_id": "15ff1a6e4f8b29208986a4a5c853d8c1", "type": "electric_scooter", "is_reserved": 0, "lon": -77.03179633333333}, {"fusion_lat": 0.0, "name": "125f0270ed25bdda4f3910c2abde87c9", "is_disabled": 0, "rental_uris": {"android": "https://dc.lft.to/lastmile_qr_scan", "ios": "https://dc.lft.to/lastmile_qr_scan"}, "fusion_lon": 0.0, "lat": 38.904080666666665, "bike_id": "125f0270ed25bdda4f3910c2abde87c9", "type": "electric_scooter", "is_reserved": 0, "lon": -76.97334616666667}, {"fusion_lat": 0.0, "name": "02b35d0e0d7a7c61224e2a07ce2d5ebe", "is_disabled": 0, "rental_uris": {"android": "https://dc.lft.to/lastmile_qr_scan", "ios": "https://dc.lft.to/lastmile_qr_scan"}, "fusion_lon": 0.0, "lat": 38.941243, "bike_id": "02b35d0e0d7a7c61224e2a07ce2d5ebe", "type": "electric_scooter", "is_reserved": 0, "lon": -77.02648816666667}, {"fusion_lat": 0.0, "name": "fce942332dfa6032eb3d1cb9cf4f468d", "is_disabled": 0, "rental_uris": {"android": "https://dc.lft.to/lastmile_qr_scan", "ios": "https://dc.lft.to/lastmile_qr_scan"}, "fusion_lon": 0.0, "lat": 38.997732666666664, "bike_id": "fce942332dfa6032eb3d1cb9cf4f468d", "type": "electric_bike", "is_reserved": 0, "lon": -77.04717816666667}, {"fusion_lat": 0.0, "name": "5f18bf21ea3181f19d5a1ecc524e3c76", "is_disabled": 0, "rental_uris": {"android": "https://dc.lft.to/lastmile_qr_scan", "ios": "https://dc.lft.to/lastmile_qr_scan"}, "fusion_lon": 0.0, "lat": 38.896170166666664, "bike_id": "5f18bf21ea3181f19d5a1ecc524e3c76", "type": "electric_scooter", "is_reserved": 0, "lon": -76.9941455}, {"fusion_lat": 0.0, "name": "b94a2b1c8bddcab5fe07989b8448410b", "is_disabled": 0, "rental_uris": {"android": "https://dc.lft.to/lastmile_qr_scan", "ios": "https://dc.lft.to/lastmile_qr_scan"}, "fusion_lon": 0.0, "lat": 38.898644, "bike_id": "b94a2b1c8bddcab5fe07989b8448410b", "type": "electric_scooter", "is_reserved": 0, "lon": -77.03948483333333}, {"fusion_lat": 0.0, "name": "3c2b1d894d280aa3b243533c06397af8", "is_disabled": 0, "rental_uris": {"android": "https://dc.lft.to/lastmile_qr_scan", "ios": "https://dc.lft.to/lastmile_qr_scan"}, "fusion_lon": 0.0, "lat": 38.898042333333336, "bike_id": "3c2b1d894d280aa3b243533c06397af8", "type": "electric_scooter", "is_reserved": 0, "lon": -77.04674766666666}, {"fusion_lat": 0.0, "name": "1c927f79dde507eaf022ea9ee0573830", "is_disabled": 0, "rental_uris": {"android": "https://dc.lft.to/lastmile_qr_scan", "ios": "https://dc.lft.to/lastmile_qr_scan"}, "fusion_lon": 0.0, "lat": 38.833043333333336, "bike_id": "1c927f79dde507eaf022ea9ee0573830", "type": "electric_bike", "is_reserved": 0, "lon": -77.04178416666667}, {"fusion_lat": 0.0, "name": "4d1d48ad89777716dfe85c0a75a62188", "is_disabled": 0, "rental_uris": {"android": "https://dc.lft.to/lastmile_qr_scan", "ios": "https://dc.lft.to/lastmile_qr_scan"}, "fusion_lon": 0.0, "lat": 38.937757166666664, "bike_id": "4d1d48ad89777716dfe85c0a75a62188", "type": "electric_scooter", "is_reserved": 0, "lon": -77.02325916666666}, {"fusion_lat": 0.0, "name": "0b2ad7beefc06d749f5b20cda444c531", "is_disabled": 0, "rental_uris": {"android": "https://dc.lft.to/lastmile_qr_scan", "ios": "https://dc.lft.to/lastmile_qr_scan"}, "fusion_lon": 0.0, "lat": 38.894768666666664, "bike_id": "0b2ad7beefc06d749f5b20cda444c531", "type": "electric_scooter", "is_reserved": 0, "lon": -77.01038216666667}, {"fusion_lat": 0.0, "name": "77a57179a60699e359d84f07b0570f98", "is_disabled": 0, "rental_uris": {"android": "https://dc.lft.to/lastmile_qr_scan", "ios": "https://dc.lft.to/lastmile_qr_scan"}, "fusion_lon": 0.0, "lat": 38.9228985, "bike_id": "77a57179a60699e359d84f07b0570f98", "type": "electric_scooter", "is_reserved": 0, "lon": -77.04246683333334}, {"fusion_lat": 0.0, "name": "a88dc040051aaaa03755f4cefee3d788", "is_disabled": 0, "rental_uris": {"android": "https://dc.lft.to/lastmile_qr_scan", "ios": "https://dc.lft.to/lastmile_qr_scan"}, "fusion_lon": 0.0, "lat": 38.935165, "bike_id": "a88dc040051aaaa03755f4cefee3d788", "type": "electric_scooter", "is_reserved": 0, "lon": -77.03088316666667}, {"fusion_lat": 0.0, "name": "5a8989b0c6282598a5de0927e4e90078", "is_disabled": 0, "rental_uris": {"android": "https://dc.lft.to/lastmile_qr_scan", "ios": "https://dc.lft.to/lastmile_qr_scan"}, "fusion_lon": 0.0, "lat": 38.9095135, "bike_id": "5a8989b0c6282598a5de0927e4e90078", "type": "electric_scooter", "is_reserved": 0, "lon": -77.02381983333333}, {"fusion_lat": 0.0, "name": "bafd11d2c66cb4e38ec1637cee5d6a4e", "is_disabled": 0, "rental_uris": {"android": "https://dc.lft.to/lastmile_qr_scan", "ios": "https://dc.lft.to/lastmile_qr_scan"}, "fusion_lon": 0.0, "lat": 38.91414866666667, "bike_id": "bafd11d2c66cb4e38ec1637cee5d6a4e", "type": "electric_scooter", "is_reserved": 0, "lon": -77.03441616666667}, {"fusion_lat": 0.0, "name": "f5b34dfcfdf845454141dac243170aaf", "is_disabled": 0, "rental_uris": {"android": "https://dc.lft.to/lastmile_qr_scan", "ios": "https://dc.lft.to/lastmile_qr_scan"}, "fusion_lon": 0.0, "lat": 38.91274683333333, "bike_id": "f5b34dfcfdf845454141dac243170aaf", "type": "electric_scooter", "is_reserved": 0, "lon": -77.01992533333333}, {"fusion_lat": 0.0, "name": "2a7652d48b5641f4f7912a65bda9e54c", "is_disabled": 0, "rental_uris": {"android": "https://dc.lft.to/lastmile_qr_scan", "ios": "https://dc.lft.to/lastmile_qr_scan"}, "fusion_lon": 0.0, "lat": 38.979777, "bike_id": "2a7652d48b5641f4f7912a65bda9e54c", "type": "electric_scooter", "is_reserved": 0, "lon": -77.0263635}, {"fusion_lat": 0.0, "name": "beb50ae42e10770aba2d29561bc4fda4", "is_disabled": 0, "rental_uris": {"android": "https://dc.lft.to/lastmile_qr_scan", "ios": "https://dc.lft.to/lastmile_qr_scan"}, "fusion_lon": 0.0, "lat": 38.89740583333333, "bike_id": "beb50ae42e10770aba2d29561bc4fda4", "type": "electric_scooter", "is_reserved": 0, "lon": -76.947196}, {"fusion_lat": 0.0, "name": "159c9dd5e310631497ee87de70286761", "is_disabled": 0, "rental_uris": {"android": "https://dc.lft.to/lastmile_qr_scan", "ios": "https://dc.lft.to/lastmile_qr_scan"}, "fusion_lon": 0.0, "lat": 38.91580716666667, "bike_id": "159c9dd5e310631497ee87de70286761", "type": "electric_scooter", "is_reserved": 0, "lon": -77.04638866666667}, {"fusion_lat": 0.0, "name": "ed5dc8d02e1a454b0cc1439465a3c3a8", "is_disabled": 0, "rental_uris": {"android": "https://dc.lft.to/lastmile_qr_scan", "ios": "https://dc.lft.to/lastmile_qr_scan"}, "fusion_lon": 0.0, "lat": 38.90026866666667, "bike_id": "ed5dc8d02e1a454b0cc1439465a3c3a8", "type": "electric_scooter", "is_reserved": 0, "lon": -76.9913635}, {"fusion_lat": 0.0, "name": "941a8946bfdd163752c1ffb509a801de", "is_disabled": 0, "rental_uris": {"android": "https://dc.lft.to/lastmile_qr_scan", "ios": "https://dc.lft.to/lastmile_qr_scan"}, "fusion_lon": 0.0, "lat": 38.93035233333333, "bike_id": "941a8946bfdd163752c1ffb509a801de", "type": "electric_scooter", "is_reserved": 0, "lon": -77.032852}, {"fusion_lat": 0.0, "name": "5943a14f4d8ab66fce95adb442dd8022", "is_disabled": 0, "rental_uris": {"android": "https://dc.lft.to/lastmile_qr_scan", "ios": "https://dc.lft.to/lastmile_qr_scan"}, "fusion_lon": 0.0, "lat": 38.886028, "bike_id": "5943a14f4d8ab66fce95adb442dd8022", "type": "electric_scooter", "is_reserved": 0, "lon": -77.04510766666667}, {"fusion_lat": 0.0, "name": "517f96b909fd785b424a72ea7b854dce", "is_disabled": 0, "rental_uris": {"android": "https://dc.lft.to/lastmile_qr_scan", "ios": "https://dc.lft.to/lastmile_qr_scan"}, "fusion_lon": 0.0, "lat": 38.932091666666665, "bike_id": "517f96b909fd785b424a72ea7b854dce", "type": "electric_scooter", "is_reserved": 0, "lon": -77.02652083333334}, {"fusion_lat": 0.0, "name": "5d7d88df3019fb22c4beab68dac9f227", "is_disabled": 0, "rental_uris": {"android": "https://dc.lft.to/lastmile_qr_scan", "ios": "https://dc.lft.to/lastmile_qr_scan"}, "fusion_lon": 0.0, "lat": 38.900246333333335, "bike_id": "5d7d88df3019fb22c4beab68dac9f227", "type": "electric_scooter", "is_reserved": 0, "lon": -76.99922783333334}, {"fusion_lat": 0.0, "name": "304a2fffcb736f39c405f864694e969d", "is_disabled": 0, "rental_uris": {"android": "https://dc.lft.to/lastmile_qr_scan", "ios": "https://dc.lft.to/lastmile_qr_scan"}, "fusion_lon": 0.0, "lat": 38.92311766666667, "bike_id": "304a2fffcb736f39c405f864694e969d", "type": "electric_scooter", "is_reserved": 0, "lon": -77.04618883333333}, {"fusion_lat": 0.0, "name": "c4507d388f31db01d3d86ab0cfc78aeb", "is_disabled": 0, "rental_uris": {"android": "https://dc.lft.to/lastmile_qr_scan", "ios": "https://dc.lft.to/lastmile_qr_scan"}, "fusion_lon": 0.0, "lat": 38.9058335, "bike_id": "c4507d388f31db01d3d86ab0cfc78aeb", "type": "electric_scooter", "is_reserved": 0, "lon": -77.03432583333333}, {"fusion_lat": 0.0, "name": "a5b97d045963b249065c1777dc1680de", "is_disabled": 0, "rental_uris": {"android": "https://dc.lft.to/lastmile_qr_scan", "ios": "https://dc.lft.to/lastmile_qr_scan"}, "fusion_lon": 0.0, "lat": 38.87444933333333, "bike_id": "a5b97d045963b249065c1777dc1680de", "type": "electric_scooter", "is_reserved": 0, "lon": -77.01874566666666}, {"fusion_lat": 0.0, "name": "dcf80c8b3736aaa21b7d6a96d5ae368e", "is_disabled": 0, "rental_uris": {"android": "https://dc.lft.to/lastmile_qr_scan", "ios": "https://dc.lft.to/lastmile_qr_scan"}, "fusion_lon": 0.0, "lat": 38.920883833333335, "bike_id": "dcf80c8b3736aaa21b7d6a96d5ae368e", "type": "electric_scooter", "is_reserved": 0, "lon": -77.04048}, {"fusion_lat": 0.0, "name": "7b4ddf53b79dcd1609d506bcd2e1db5e", "is_disabled": 0, "rental_uris": {"android": "https://dc.lft.to/lastmile_qr_scan", "ios": "https://dc.lft.to/lastmile_qr_scan"}, "fusion_lon": 0.0, "lat": 38.8758495, "bike_id": "7b4ddf53b79dcd1609d506bcd2e1db5e", "type": "electric_scooter", "is_reserved": 0, "lon": -77.00577083333333}, {"fusion_lat": 0.0, "name": "39a725729b6d81eb40738c1caae2c201", "is_disabled": 0, "rental_uris": {"android": "https://dc.lft.to/lastmile_qr_scan", "ios": "https://dc.lft.to/lastmile_qr_scan"}, "fusion_lon": 0.0, "lat": 38.92275466666667, "bike_id": "39a725729b6d81eb40738c1caae2c201", "type": "electric_scooter", "is_reserved": 0, "lon": -76.99420783333333}, {"fusion_lat": 0.0, "name": "ef482b166c9e3323c17cddf09e940f1e", "is_disabled": 0, "rental_uris": {"android": "https://dc.lft.to/lastmile_qr_scan", "ios": "https://dc.lft.to/lastmile_qr_scan"}, "fusion_lon": 0.0, "lat": 38.923657666666664, "bike_id": "ef482b166c9e3323c17cddf09e940f1e", "type": "electric_scooter", "is_reserved": 0, "lon": -77.081556}, {"fusion_lat": 0.0, "name": "e2d7a5abcf0c007bad82cfbac062a937", "is_disabled": 0, "rental_uris": {"android": "https://dc.lft.to/lastmile_qr_scan", "ios": "https://dc.lft.to/lastmile_qr_scan"}, "fusion_lon": 0.0, "lat": 38.90261433333333, "bike_id": "e2d7a5abcf0c007bad82cfbac062a937", "type": "electric_scooter", "is_reserved": 0, "lon": -76.99609383333333}, {"fusion_lat": 0.0, "name": "44f21057ece462607eaaa6f5eb3bce41", "is_disabled": 0, "rental_uris": {"android": "https://dc.lft.to/lastmile_qr_scan", "ios": "https://dc.lft.to/lastmile_qr_scan"}, "fusion_lon": 0.0, "lat": 38.92704666666667, "bike_id": "44f21057ece462607eaaa6f5eb3bce41", "type": "electric_scooter", "is_reserved": 0, "lon": -77.031649}, {"fusion_lat": 0.0, "name": "15a7adbad272386f77903d97836bfc53", "is_disabled": 0, "rental_uris": {"android": "https://dc.lft.to/lastmile_qr_scan", "ios": "https://dc.lft.to/lastmile_qr_scan"}, "fusion_lon": 0.0, "lat": 38.89723016666667, "bike_id": "15a7adbad272386f77903d97836bfc53", "type": "electric_scooter", "is_reserved": 0, "lon": -77.03965416666666}, {"fusion_lat": 0.0, "name": "0dc9dd3665f0222618116025d7d871ec", "is_disabled": 0, "rental_uris": {"android": "https://dc.lft.to/lastmile_qr_scan", "ios": "https://dc.lft.to/lastmile_qr_scan"}, "fusion_lon": 0.0, "lat": 38.8972735, "bike_id": "0dc9dd3665f0222618116025d7d871ec", "type": "electric_scooter", "is_reserved": 0, "lon": -76.9470725}, {"fusion_lat": 0.0, "name": "e540515f38e7d2e2c75da9fa69a1010e", "is_disabled": 0, "rental_uris": {"android": "https://dc.lft.to/lastmile_qr_scan", "ios": "https://dc.lft.to/lastmile_qr_scan"}, "fusion_lon": 0.0, "lat": 38.908498, "bike_id": "e540515f38e7d2e2c75da9fa69a1010e", "type": "electric_scooter", "is_reserved": 0, "lon": -77.0639295}, {"fusion_lat": 0.0, "name": "d05af673c2a20872aadb14df1502bc76", "is_disabled": 0, "rental_uris": {"android": "https://dc.lft.to/lastmile_qr_scan", "ios": "https://dc.lft.to/lastmile_qr_scan"}, "fusion_lon": 0.0, "lat": 38.960675, "bike_id": "d05af673c2a20872aadb14df1502bc76", "type": "electric_scooter", "is_reserved": 0, "lon": -77.0010125}, {"fusion_lat": 0.0, "name": "9562686c1a57bab9771c3d6038368c18", "is_disabled": 0, "rental_uris": {"android": "https://dc.lft.to/lastmile_qr_scan", "ios": "https://dc.lft.to/lastmile_qr_scan"}, "fusion_lon": 0.0, "lat": 38.8556475, "bike_id": "9562686c1a57bab9771c3d6038368c18", "type": "electric_bike", "is_reserved": 0, "lon": -77.1131775}, {"fusion_lat": 0.0, "name": "8c0a67615e5b8a38d74bbf2bc22b1b8d", "is_disabled": 0, "rental_uris": {"android": "https://dc.lft.to/lastmile_qr_scan", "ios": "https://dc.lft.to/lastmile_qr_scan"}, "fusion_lon": 0.0, "lat": 38.894500666666666, "bike_id": "8c0a67615e5b8a38d74bbf2bc22b1b8d", "type": "electric_scooter", "is_reserved": 0, "lon": -77.04542366666666}, {"fusion_lat": 0.0, "name": "ed71359e38652b8098cca0b44ae20ae2", "is_disabled": 0, "rental_uris": {"android": "https://dc.lft.to/lastmile_qr_scan", "ios": "https://dc.lft.to/lastmile_qr_scan"}, "fusion_lon": 0.0, "lat": 38.88382633333333, "bike_id": "ed71359e38652b8098cca0b44ae20ae2", "type": "electric_scooter", "is_reserved": 0, "lon": -77.02984716666667}, {"fusion_lat": 0.0, "name": "05de2891ef5fd2e8a3d0bb2d446d0a56", "is_disabled": 0, "rental_uris": {"android": "https://dc.lft.to/lastmile_qr_scan", "ios": "https://dc.lft.to/lastmile_qr_scan"}, "fusion_lon": 0.0, "lat": 38.904826666666665, "bike_id": "05de2891ef5fd2e8a3d0bb2d446d0a56", "type": "electric_scooter", "is_reserved": 0, "lon": -76.9496865}, {"fusion_lat": 0.0, "name": "1ecc3b01e5fe4df4c050741a6214a59a", "is_disabled": 0, "rental_uris": {"android": "https://dc.lft.to/lastmile_qr_scan", "ios": "https://dc.lft.to/lastmile_qr_scan"}, "fusion_lon": 0.0, "lat": 38.911069499999996, "bike_id": "1ecc3b01e5fe4df4c050741a6214a59a", "type": "electric_scooter", "is_reserved": 0, "lon": -77.03836083333333}, {"fusion_lat": 0.0, "name": "77f45472842c6ebc6fa4c8ece2b2f12b", "is_disabled": 0, "rental_uris": {"android": "https://dc.lft.to/lastmile_qr_scan", "ios": "https://dc.lft.to/lastmile_qr_scan"}, "fusion_lon": 0.0, "lat": 38.93059983333333, "bike_id": "77f45472842c6ebc6fa4c8ece2b2f12b", "type": "electric_scooter", "is_reserved": 0, "lon": -77.0394395}, {"fusion_lat": 0.0, "name": "4c95e1e52a280e8d9725d5c8ce1150fe", "is_disabled": 0, "rental_uris": {"android": "https://dc.lft.to/lastmile_qr_scan", "ios": "https://dc.lft.to/lastmile_qr_scan"}, "fusion_lon": 0.0, "lat": 38.927953333333335, "bike_id": "4c95e1e52a280e8d9725d5c8ce1150fe", "type": "electric_scooter", "is_reserved": 0, "lon": -76.95559616666667}, {"fusion_lat": 0.0, "name": "3d933ac9fd14f418a4ba2206c6bcacad", "is_disabled": 0, "rental_uris": {"android": "https://dc.lft.to/lastmile_qr_scan", "ios": "https://dc.lft.to/lastmile_qr_scan"}, "fusion_lon": 0.0, "lat": 38.902583166666666, "bike_id": "3d933ac9fd14f418a4ba2206c6bcacad", "type": "electric_scooter", "is_reserved": 0, "lon": -77.001997}, {"fusion_lat": 0.0, "name": "8ec9e14aba28e5896a4b7f691fc1f4ed", "is_disabled": 0, "rental_uris": {"android": "https://dc.lft.to/lastmile_qr_scan", "ios": "https://dc.lft.to/lastmile_qr_scan"}, "fusion_lon": 0.0, "lat": 38.91750966666667, "bike_id": "8ec9e14aba28e5896a4b7f691fc1f4ed", "type": "electric_scooter", "is_reserved": 0, "lon": -77.03654433333334}, {"fusion_lat": 0.0, "name": "5386c8c9575a53b8d31d2a553eab42fe", "is_disabled": 0, "rental_uris": {"android": "https://dc.lft.to/lastmile_qr_scan", "ios": "https://dc.lft.to/lastmile_qr_scan"}, "fusion_lon": 0.0, "lat": 38.90763616666667, "bike_id": "5386c8c9575a53b8d31d2a553eab42fe", "type": "electric_scooter", "is_reserved": 0, "lon": -77.06234516666666}, {"fusion_lat": 0.0, "name": "d808ad0ed49c1c435b467af7b5682f1f", "is_disabled": 0, "rental_uris": {"android": "https://dc.lft.to/lastmile_qr_scan", "ios": "https://dc.lft.to/lastmile_qr_scan"}, "fusion_lon": 0.0, "lat": 38.898232, "bike_id": "d808ad0ed49c1c435b467af7b5682f1f", "type": "electric_bike", "is_reserved": 0, "lon": -77.04680383333333}, {"fusion_lat": 0.0, "name": "79be2d04d521ffad324a9adf59fd4eec", "is_disabled": 0, "rental_uris": {"android": "https://dc.lft.to/lastmile_qr_scan", "ios": "https://dc.lft.to/lastmile_qr_scan"}, "fusion_lon": 0.0, "lat": 38.93177766666667, "bike_id": "79be2d04d521ffad324a9adf59fd4eec", "type": "electric_scooter", "is_reserved": 0, "lon": -77.03316733333334}, {"fusion_lat": 0.0, "name": "dac2aa9e07e67cf2d9b1dee4bcac24b0", "is_disabled": 0, "rental_uris": {"android": "https://dc.lft.to/lastmile_qr_scan", "ios": "https://dc.lft.to/lastmile_qr_scan"}, "fusion_lon": 0.0, "lat": 38.905156, "bike_id": "dac2aa9e07e67cf2d9b1dee4bcac24b0", "type": "electric_scooter", "is_reserved": 0, "lon": -77.06784133333333}, {"fusion_lat": 0.0, "name": "46841037a571437bdfa43451d05c30ca", "is_disabled": 0, "rental_uris": {"android": "https://dc.lft.to/lastmile_qr_scan", "ios": "https://dc.lft.to/lastmile_qr_scan"}, "fusion_lon": 0.0, "lat": 38.883867, "bike_id": "46841037a571437bdfa43451d05c30ca", "type": "electric_scooter", "is_reserved": 0, "lon": -76.930445}, {"fusion_lat": 0.0, "name": "002e8ae71589ed686bc3af781c8539a7", "is_disabled": 0, "rental_uris": {"android": "https://dc.lft.to/lastmile_qr_scan", "ios": "https://dc.lft.to/lastmile_qr_scan"}, "fusion_lon": 0.0, "lat": 38.84188316666667, "bike_id": "002e8ae71589ed686bc3af781c8539a7", "type": "electric_bike", "is_reserved": 0, "lon": -77.077593}, {"fusion_lat": 0.0, "name": "8faa88252b1be715362567c5b200de4e", "is_disabled": 0, "rental_uris": {"android": "https://dc.lft.to/lastmile_qr_scan", "ios": "https://dc.lft.to/lastmile_qr_scan"}, "fusion_lon": 0.0, "lat": 38.919253, "bike_id": "8faa88252b1be715362567c5b200de4e", "type": "electric_scooter", "is_reserved": 0, "lon": -77.0249865}, {"fusion_lat": 0.0, "name": "af3d27a62b0d73c41a21443cfaa45544", "is_disabled": 0, "rental_uris": {"android": "https://dc.lft.to/lastmile_qr_scan", "ios": "https://dc.lft.to/lastmile_qr_scan"}, "fusion_lon": 0.0, "lat": 38.86256183333333, "bike_id": "af3d27a62b0d73c41a21443cfaa45544", "type": "electric_bike", "is_reserved": 0, "lon": -76.9835485}, {"fusion_lat": 0.0, "name": "88cd0751d6f068e9f6260362e3ed4e6f", "is_disabled": 0, "rental_uris": {"android": "https://dc.lft.to/lastmile_qr_scan", "ios": "https://dc.lft.to/lastmile_qr_scan"}, "fusion_lon": 0.0, "lat": 38.910137166666665, "bike_id": "88cd0751d6f068e9f6260362e3ed4e6f", "type": "electric_scooter", "is_reserved": 0, "lon": -77.05283416666667}, {"fusion_lat": 0.0, "name": "98358c59773219a71a4a40b30d239f25", "is_disabled": 0, "rental_uris": {"android": "https://dc.lft.to/lastmile_qr_scan", "ios": "https://dc.lft.to/lastmile_qr_scan"}, "fusion_lon": 0.0, "lat": 38.96630966666667, "bike_id": "98358c59773219a71a4a40b30d239f25", "type": "electric_bike", "is_reserved": 0, "lon": -77.02759166666667}, {"fusion_lat": 0.0, "name": "9cff0f8a77862769a87c25bc3fc61411", "is_disabled": 0, "rental_uris": {"android": "https://dc.lft.to/lastmile_qr_scan", "ios": "https://dc.lft.to/lastmile_qr_scan"}, "fusion_lon": 0.0, "lat": 38.903709666666664, "bike_id": "9cff0f8a77862769a87c25bc3fc61411", "type": "electric_scooter", "is_reserved": 0, "lon": -77.06741966666667}, {"fusion_lat": 0.0, "name": "0550404a03668f97ffd84dc200aa2717", "is_disabled": 0, "rental_uris": {"android": "https://dc.lft.to/lastmile_qr_scan", "ios": "https://dc.lft.to/lastmile_qr_scan"}, "fusion_lon": 0.0, "lat": 38.884244333333335, "bike_id": "0550404a03668f97ffd84dc200aa2717", "type": "electric_scooter", "is_reserved": 0, "lon": -77.02563416666666}, {"fusion_lat": 0.0, "name": "095363218e67ab33491329df6cd6f018", "is_disabled": 0, "rental_uris": {"android": "https://dc.lft.to/lastmile_qr_scan", "ios": "https://dc.lft.to/lastmile_qr_scan"}, "fusion_lon": 0.0, "lat": 38.888689666666664, "bike_id": "095363218e67ab33491329df6cd6f018", "type": "electric_scooter", "is_reserved": 0, "lon": -76.98456083333333}, {"fusion_lat": 0.0, "name": "e1a05f9815556ccd9086dbe051149819", "is_disabled": 0, "rental_uris": {"android": "https://dc.lft.to/lastmile_qr_scan", "ios": "https://dc.lft.to/lastmile_qr_scan"}, "fusion_lon": 0.0, "lat": 38.882560166666664, "bike_id": "e1a05f9815556ccd9086dbe051149819", "type": "electric_scooter", "is_reserved": 0, "lon": -76.9903395}, {"fusion_lat": 0.0, "name": "0a264d7e31b5e5fa90813f81c45b10e8", "is_disabled": 0, "rental_uris": {"android": "https://dc.lft.to/lastmile_qr_scan", "ios": "https://dc.lft.to/lastmile_qr_scan"}, "fusion_lon": 0.0, "lat": 38.89478316666667, "bike_id": "0a264d7e31b5e5fa90813f81c45b10e8", "type": "electric_scooter", "is_reserved": 0, "lon": -76.99736966666667}, {"fusion_lat": 0.0, "name": "acdb350cdd296908e974e841a1fc4084", "is_disabled": 0, "rental_uris": {"android": "https://dc.lft.to/lastmile_qr_scan", "ios": "https://dc.lft.to/lastmile_qr_scan"}, "fusion_lon": 0.0, "lat": 38.9049845, "bike_id": "acdb350cdd296908e974e841a1fc4084", "type": "electric_scooter", "is_reserved": 0, "lon": -77.0170905}, {"fusion_lat": 0.0, "name": "8f97d67deb618a5ee439c961a40e30a2", "is_disabled": 0, "rental_uris": {"android": "https://dc.lft.to/lastmile_qr_scan", "ios": "https://dc.lft.to/lastmile_qr_scan"}, "fusion_lon": 0.0, "lat": 38.916531166666665, "bike_id": "8f97d67deb618a5ee439c961a40e30a2", "type": "electric_scooter", "is_reserved": 0, "lon": -77.038561}, {"fusion_lat": 0.0, "name": "6297c63bee0ca1f3205def7aabb33046", "is_disabled": 0, "rental_uris": {"android": "https://dc.lft.to/lastmile_qr_scan", "ios": "https://dc.lft.to/lastmile_qr_scan"}, "fusion_lon": 0.0, "lat": 38.90164016666667, "bike_id": "6297c63bee0ca1f3205def7aabb33046", "type": "electric_scooter", "is_reserved": 0, "lon": -76.99263916666666}, {"fusion_lat": 0.0, "name": "50f9d964c02dfd5e31b08df1b5f22450", "is_disabled": 0, "rental_uris": {"android": "https://dc.lft.to/lastmile_qr_scan", "ios": "https://dc.lft.to/lastmile_qr_scan"}, "fusion_lon": 0.0, "lat": 38.8844915, "bike_id": "50f9d964c02dfd5e31b08df1b5f22450", "type": "electric_scooter", "is_reserved": 0, "lon": -76.99390833333334}, {"fusion_lat": 0.0, "name": "3996c95981f5d6b2546da0202b0d4648", "is_disabled": 0, "rental_uris": {"android": "https://dc.lft.to/lastmile_qr_scan", "ios": "https://dc.lft.to/lastmile_qr_scan"}, "fusion_lon": 0.0, "lat": 38.920757, "bike_id": "3996c95981f5d6b2546da0202b0d4648", "type": "electric_scooter", "is_reserved": 0, "lon": -77.023056}, {"fusion_lat": 0.0, "name": "9ea8c0cbb678f0637fb7d77a0c3e350a", "is_disabled": 0, "rental_uris": {"android": "https://dc.lft.to/lastmile_qr_scan", "ios": "https://dc.lft.to/lastmile_qr_scan"}, "fusion_lon": 0.0, "lat": 38.89613583333333, "bike_id": "9ea8c0cbb678f0637fb7d77a0c3e350a", "type": "electric_scooter", "is_reserved": 0, "lon": -77.0449555}, {"fusion_lat": 0.0, "name": "2e962d6327f734a822ace490895ac59a", "is_disabled": 0, "rental_uris": {"android": "https://dc.lft.to/lastmile_qr_scan", "ios": "https://dc.lft.to/lastmile_qr_scan"}, "fusion_lon": 0.0, "lat": 38.8712145, "bike_id": "2e962d6327f734a822ace490895ac59a", "type": "electric_scooter", "is_reserved": 0, "lon": -77.00579333333333}, {"fusion_lat": 0.0, "name": "8ee03b6cf2def94585f6a28c9638b281", "is_disabled": 0, "rental_uris": {"android": "https://dc.lft.to/lastmile_qr_scan", "ios": "https://dc.lft.to/lastmile_qr_scan"}, "fusion_lon": 0.0, "lat": 38.9210755, "bike_id": "8ee03b6cf2def94585f6a28c9638b281", "type": "electric_scooter", "is_reserved": 0, "lon": -77.07217516666667}, {"fusion_lat": 0.0, "name": "b28973c7cb1b7afaeb084c6e01b049dd", "is_disabled": 0, "rental_uris": {"android": "https://dc.lft.to/lastmile_qr_scan", "ios": "https://dc.lft.to/lastmile_qr_scan"}, "fusion_lon": 0.0, "lat": 38.907463, "bike_id": "b28973c7cb1b7afaeb084c6e01b049dd", "type": "electric_scooter", "is_reserved": 0, "lon": -77.000969}, {"fusion_lat": 0.0, "name": "437d2b267961fcd97057c4eed400e81c", "is_disabled": 0, "rental_uris": {"android": "https://dc.lft.to/lastmile_qr_scan", "ios": "https://dc.lft.to/lastmile_qr_scan"}, "fusion_lon": 0.0, "lat": 38.937396, "bike_id": "437d2b267961fcd97057c4eed400e81c", "type": "electric_scooter", "is_reserved": 0, "lon": -77.03590183333333}, {"fusion_lat": 0.0, "name": "2beb93fe3e5e001cef8d94c85e73e64b", "is_disabled": 0, "rental_uris": {"android": "https://dc.lft.to/lastmile_qr_scan", "ios": "https://dc.lft.to/lastmile_qr_scan"}, "fusion_lon": 0.0, "lat": 38.806781, "bike_id": "2beb93fe3e5e001cef8d94c85e73e64b", "type": "electric_bike", "is_reserved": 0, "lon": -77.069187}, {"fusion_lat": 0.0, "name": "b119e7f9f06e7a768afdc3a30cea6158", "is_disabled": 0, "rental_uris": {"android": "https://dc.lft.to/lastmile_qr_scan", "ios": "https://dc.lft.to/lastmile_qr_scan"}, "fusion_lon": 0.0, "lat": 38.913283666666665, "bike_id": "b119e7f9f06e7a768afdc3a30cea6158", "type": "electric_scooter", "is_reserved": 0, "lon": -77.0103075}, {"fusion_lat": 0.0, "name": "366edb52abfdcb71fd34cee0751b0a77", "is_disabled": 0, "rental_uris": {"android": "https://dc.lft.to/lastmile_qr_scan", "ios": "https://dc.lft.to/lastmile_qr_scan"}, "fusion_lon": 0.0, "lat": 38.915407333333334, "bike_id": "366edb52abfdcb71fd34cee0751b0a77", "type": "electric_scooter", "is_reserved": 0, "lon": -77.0183445}, {"fusion_lat": 0.0, "name": "19c2094df374f480bae939aaf9c58376", "is_disabled": 0, "rental_uris": {"android": "https://dc.lft.to/lastmile_qr_scan", "ios": "https://dc.lft.to/lastmile_qr_scan"}, "fusion_lon": 0.0, "lat": 38.9071435, "bike_id": "19c2094df374f480bae939aaf9c58376", "type": "electric_scooter", "is_reserved": 0, "lon": -77.05060583333334}, {"fusion_lat": 0.0, "name": "a8c07e30de7277f212ceb8d436f77a06", "is_disabled": 0, "rental_uris": {"android": "https://dc.lft.to/lastmile_qr_scan", "ios": "https://dc.lft.to/lastmile_qr_scan"}, "fusion_lon": 0.0, "lat": 38.90491466666667, "bike_id": "a8c07e30de7277f212ceb8d436f77a06", "type": "electric_scooter", "is_reserved": 0, "lon": -77.00925666666667}, {"fusion_lat": 0.0, "name": "09ede1c8a8d11de4075efd1f950db66a", "is_disabled": 0, "rental_uris": {"android": "https://dc.lft.to/lastmile_qr_scan", "ios": "https://dc.lft.to/lastmile_qr_scan"}, "fusion_lon": 0.0, "lat": 38.8910495, "bike_id": "09ede1c8a8d11de4075efd1f950db66a", "type": "electric_scooter", "is_reserved": 0, "lon": -76.9438325}, {"fusion_lat": 0.0, "name": "fe3e606759d57eb894b36fd6db084535", "is_disabled": 0, "rental_uris": {"android": "https://dc.lft.to/lastmile_qr_scan", "ios": "https://dc.lft.to/lastmile_qr_scan"}, "fusion_lon": 0.0, "lat": 38.97375683333333, "bike_id": "fe3e606759d57eb894b36fd6db084535", "type": "electric_scooter", "is_reserved": 0, "lon": -77.012837}, {"fusion_lat": 0.0, "name": "68ed7d87fe7b1f7a76ae6a83df693558", "is_disabled": 0, "rental_uris": {"android": "https://dc.lft.to/lastmile_qr_scan", "ios": "https://dc.lft.to/lastmile_qr_scan"}, "fusion_lon": 0.0, "lat": 38.924240166666664, "bike_id": "68ed7d87fe7b1f7a76ae6a83df693558", "type": "electric_scooter", "is_reserved": 0, "lon": -77.04478133333333}, {"fusion_lat": 0.0, "name": "7102a236a990bbb238aeae8465d36875", "is_disabled": 0, "rental_uris": {"android": "https://dc.lft.to/lastmile_qr_scan", "ios": "https://dc.lft.to/lastmile_qr_scan"}, "fusion_lon": 0.0, "lat": 38.96178466666667, "bike_id": "7102a236a990bbb238aeae8465d36875", "type": "electric_bike", "is_reserved": 0, "lon": -77.05269016666666}, {"fusion_lat": 0.0, "name": "7d79492bcd7b0f207f2673a1dd562adb", "is_disabled": 0, "rental_uris": {"android": "https://dc.lft.to/lastmile_qr_scan", "ios": "https://dc.lft.to/lastmile_qr_scan"}, "fusion_lon": 0.0, "lat": 38.91251533333333, "bike_id": "7d79492bcd7b0f207f2673a1dd562adb", "type": "electric_scooter", "is_reserved": 0, "lon": -77.02953266666667}, {"fusion_lat": 0.0, "name": "fac94a1d8e0e49853aa37dc5419b7a42", "is_disabled": 0, "rental_uris": {"android": "https://dc.lft.to/lastmile_qr_scan", "ios": "https://dc.lft.to/lastmile_qr_scan"}, "fusion_lon": 0.0, "lat": 38.89717133333333, "bike_id": "fac94a1d8e0e49853aa37dc5419b7a42", "type": "electric_scooter", "is_reserved": 0, "lon": -77.0128945}, {"fusion_lat": 0.0, "name": "c472c16371cf57f3a817a72512079294", "is_disabled": 0, "rental_uris": {"android": "https://dc.lft.to/lastmile_qr_scan", "ios": "https://dc.lft.to/lastmile_qr_scan"}, "fusion_lon": 0.0, "lat": 38.90427583333334, "bike_id": "c472c16371cf57f3a817a72512079294", "type": "electric_scooter", "is_reserved": 0, "lon": -77.01879183333334}, {"fusion_lat": 0.0, "name": "440df1023554762900be0ee24f830ce1", "is_disabled": 0, "rental_uris": {"android": "https://dc.lft.to/lastmile_qr_scan", "ios": "https://dc.lft.to/lastmile_qr_scan"}, "fusion_lon": 0.0, "lat": 38.8427365, "bike_id": "440df1023554762900be0ee24f830ce1", "type": "electric_bike", "is_reserved": 0, "lon": -76.98848233333334}, {"fusion_lat": 0.0, "name": "5a011586fa6ed8e9e4c2339be61f5316", "is_disabled": 0, "rental_uris": {"android": "https://dc.lft.to/lastmile_qr_scan", "ios": "https://dc.lft.to/lastmile_qr_scan"}, "fusion_lon": 0.0, "lat": 38.910038166666666, "bike_id": "5a011586fa6ed8e9e4c2339be61f5316", "type": "electric_scooter", "is_reserved": 0, "lon": -77.03452366666667}, {"fusion_lat": 0.0, "name": "5d656fa57de03c29f46e67f9d989861f", "is_disabled": 0, "rental_uris": {"android": "https://dc.lft.to/lastmile_qr_scan", "ios": "https://dc.lft.to/lastmile_qr_scan"}, "fusion_lon": 0.0, "lat": 38.9002055, "bike_id": "5d656fa57de03c29f46e67f9d989861f", "type": "electric_scooter", "is_reserved": 0, "lon": -77.01178816666666}, {"fusion_lat": 0.0, "name": "c6decf6d4cb9878f0c850feb0d5e5160", "is_disabled": 0, "rental_uris": {"android": "https://dc.lft.to/lastmile_qr_scan", "ios": "https://dc.lft.to/lastmile_qr_scan"}, "fusion_lon": 0.0, "lat": 38.91784233333333, "bike_id": "c6decf6d4cb9878f0c850feb0d5e5160", "type": "electric_scooter", "is_reserved": 0, "lon": -77.0402725}, {"fusion_lat": 0.0, "name": "d20d897e39991b53a3be16971ec588e6", "is_disabled": 0, "rental_uris": {"android": "https://dc.lft.to/lastmile_qr_scan", "ios": "https://dc.lft.to/lastmile_qr_scan"}, "fusion_lon": 0.0, "lat": 38.932179, "bike_id": "d20d897e39991b53a3be16971ec588e6", "type": "electric_scooter", "is_reserved": 0, "lon": -77.04417016666666}, {"fusion_lat": 0.0, "name": "22416a25382778f704237aca0769911b", "is_disabled": 0, "rental_uris": {"android": "https://dc.lft.to/lastmile_qr_scan", "ios": "https://dc.lft.to/lastmile_qr_scan"}, "fusion_lon": 0.0, "lat": 38.938712, "bike_id": "22416a25382778f704237aca0769911b", "type": "electric_scooter", "is_reserved": 0, "lon": -77.03229116666667}, {"fusion_lat": 0.0, "name": "0965f2274c8c417296b0eadcd4abfe94", "is_disabled": 0, "rental_uris": {"android": "https://dc.lft.to/lastmile_qr_scan", "ios": "https://dc.lft.to/lastmile_qr_scan"}, "fusion_lon": 0.0, "lat": 38.907124333333336, "bike_id": "0965f2274c8c417296b0eadcd4abfe94", "type": "electric_scooter", "is_reserved": 0, "lon": -77.02894333333333}, {"fusion_lat": 0.0, "name": "61baeb6a4eb59a8b67078730785eea41", "is_disabled": 0, "rental_uris": {"android": "https://dc.lft.to/lastmile_qr_scan", "ios": "https://dc.lft.to/lastmile_qr_scan"}, "fusion_lon": 0.0, "lat": 38.91470266666666, "bike_id": "61baeb6a4eb59a8b67078730785eea41", "type": "electric_scooter", "is_reserved": 0, "lon": -76.98445116666667}, {"fusion_lat": 0.0, "name": "e4944e364e5dfc3ddc3aa9351185c655", "is_disabled": 0, "rental_uris": {"android": "https://dc.lft.to/lastmile_qr_scan", "ios": "https://dc.lft.to/lastmile_qr_scan"}, "fusion_lon": 0.0, "lat": 38.93115733333333, "bike_id": "e4944e364e5dfc3ddc3aa9351185c655", "type": "electric_scooter", "is_reserved": 0, "lon": -77.0209995}, {"fusion_lat": 0.0, "name": "5dea4fdd8e5c019212cf3b48a1a4477c", "is_disabled": 0, "rental_uris": {"android": "https://dc.lft.to/lastmile_qr_scan", "ios": "https://dc.lft.to/lastmile_qr_scan"}, "fusion_lon": 0.0, "lat": 38.90028616666667, "bike_id": "5dea4fdd8e5c019212cf3b48a1a4477c", "type": "electric_scooter", "is_reserved": 0, "lon": -77.0002905}, {"fusion_lat": 0.0, "name": "42a5c1e51d2992be7ddcd50d0367dda9", "is_disabled": 0, "rental_uris": {"android": "https://dc.lft.to/lastmile_qr_scan", "ios": "https://dc.lft.to/lastmile_qr_scan"}, "fusion_lon": 0.0, "lat": 38.896982333333334, "bike_id": "42a5c1e51d2992be7ddcd50d0367dda9", "type": "electric_scooter", "is_reserved": 0, "lon": -77.02398966666667}, {"fusion_lat": 0.0, "name": "830dfe0e92f8e80c7880a370d1348240", "is_disabled": 0, "rental_uris": {"android": "https://dc.lft.to/lastmile_qr_scan", "ios": "https://dc.lft.to/lastmile_qr_scan"}, "fusion_lon": 0.0, "lat": 38.9199385, "bike_id": "830dfe0e92f8e80c7880a370d1348240", "type": "electric_scooter", "is_reserved": 0, "lon": -77.071157}, {"fusion_lat": 0.0, "name": "9c066c3f649139f23eeff5022ef93ecb", "is_disabled": 0, "rental_uris": {"android": "https://dc.lft.to/lastmile_qr_scan", "ios": "https://dc.lft.to/lastmile_qr_scan"}, "fusion_lon": 0.0, "lat": 38.931349166666664, "bike_id": "9c066c3f649139f23eeff5022ef93ecb", "type": "electric_scooter", "is_reserved": 0, "lon": -77.03894683333333}, {"fusion_lat": 0.0, "name": "4742670d7a152d97e49cb8b83a1b278b", "is_disabled": 0, "rental_uris": {"android": "https://dc.lft.to/lastmile_qr_scan", "ios": "https://dc.lft.to/lastmile_qr_scan"}, "fusion_lon": 0.0, "lat": 38.95376383333333, "bike_id": "4742670d7a152d97e49cb8b83a1b278b", "type": "electric_bike", "is_reserved": 0, "lon": -76.97957216666667}, {"fusion_lat": 0.0, "name": "08a0e87af29277abb4baf5006dbd0537", "is_disabled": 0, "rental_uris": {"android": "https://dc.lft.to/lastmile_qr_scan", "ios": "https://dc.lft.to/lastmile_qr_scan"}, "fusion_lon": 0.0, "lat": 38.920908833333336, "bike_id": "08a0e87af29277abb4baf5006dbd0537", "type": "electric_scooter", "is_reserved": 0, "lon": -77.02321383333333}, {"fusion_lat": 0.0, "name": "2827f29abe60b4d069caebf7434c2317", "is_disabled": 0, "rental_uris": {"android": "https://dc.lft.to/lastmile_qr_scan", "ios": "https://dc.lft.to/lastmile_qr_scan"}, "fusion_lon": 0.0, "lat": 38.92547716666667, "bike_id": "2827f29abe60b4d069caebf7434c2317", "type": "electric_scooter", "is_reserved": 0, "lon": -77.043015}, {"fusion_lat": 0.0, "name": "14579d0caeb0c270f66d1df6bd358fad", "is_disabled": 0, "rental_uris": {"android": "https://dc.lft.to/lastmile_qr_scan", "ios": "https://dc.lft.to/lastmile_qr_scan"}, "fusion_lon": 0.0, "lat": 38.92617216666667, "bike_id": "14579d0caeb0c270f66d1df6bd358fad", "type": "electric_scooter", "is_reserved": 0, "lon": -77.04320533333333}, {"fusion_lat": 0.0, "name": "ead9d962e6b8623dab53d53bdc4739a4", "is_disabled": 0, "rental_uris": {"android": "https://dc.lft.to/lastmile_qr_scan", "ios": "https://dc.lft.to/lastmile_qr_scan"}, "fusion_lon": 0.0, "lat": 38.91637766666667, "bike_id": "ead9d962e6b8623dab53d53bdc4739a4", "type": "electric_scooter", "is_reserved": 0, "lon": -77.032215}, {"fusion_lat": 0.0, "name": "d98ebffa0a580836a9b2650a7a7386c7", "is_disabled": 0, "rental_uris": {"android": "https://dc.lft.to/lastmile_qr_scan", "ios": "https://dc.lft.to/lastmile_qr_scan"}, "fusion_lon": 0.0, "lat": 38.93439583333333, "bike_id": "d98ebffa0a580836a9b2650a7a7386c7", "type": "electric_scooter", "is_reserved": 0, "lon": -77.038775}, {"fusion_lat": 0.0, "name": "12808f33dfa44b1a9c57b38e3cd5fff8", "is_disabled": 0, "rental_uris": {"android": "https://dc.lft.to/lastmile_qr_scan", "ios": "https://dc.lft.to/lastmile_qr_scan"}, "fusion_lon": 0.0, "lat": 38.922869666666664, "bike_id": "12808f33dfa44b1a9c57b38e3cd5fff8", "type": "electric_scooter", "is_reserved": 0, "lon": -77.022454}, {"fusion_lat": 0.0, "name": "7b59d5cb7a655a7c22b02e383cdda55d", "is_disabled": 0, "rental_uris": {"android": "https://dc.lft.to/lastmile_qr_scan", "ios": "https://dc.lft.to/lastmile_qr_scan"}, "fusion_lon": 0.0, "lat": 38.91694566666666, "bike_id": "7b59d5cb7a655a7c22b02e383cdda55d", "type": "electric_scooter", "is_reserved": 0, "lon": -77.03499616666667}, {"fusion_lat": 0.0, "name": "f87b2d83bffeab7f12ee2a9589180306", "is_disabled": 0, "rental_uris": {"android": "https://dc.lft.to/lastmile_qr_scan", "ios": "https://dc.lft.to/lastmile_qr_scan"}, "fusion_lon": 0.0, "lat": 38.887696166666665, "bike_id": "f87b2d83bffeab7f12ee2a9589180306", "type": "electric_scooter", "is_reserved": 0, "lon": -77.0333615}, {"fusion_lat": 0.0, "name": "4565d2f8fe8f8eae658965d3f16fb43e", "is_disabled": 0, "rental_uris": {"android": "https://dc.lft.to/lastmile_qr_scan", "ios": "https://dc.lft.to/lastmile_qr_scan"}, "fusion_lon": 0.0, "lat": 38.8926195, "bike_id": "4565d2f8fe8f8eae658965d3f16fb43e", "type": "electric_scooter", "is_reserved": 0, "lon": -77.05027316666667}, {"fusion_lat": 0.0, "name": "bb021bd1a2e33743530f042125e34dbb", "is_disabled": 0, "rental_uris": {"android": "https://dc.lft.to/lastmile_qr_scan", "ios": "https://dc.lft.to/lastmile_qr_scan"}, "fusion_lon": 0.0, "lat": 38.92595, "bike_id": "bb021bd1a2e33743530f042125e34dbb", "type": "electric_scooter", "is_reserved": 0, "lon": -77.07311866666667}, {"fusion_lat": 0.0, "name": "497ebc6db8220c3912e93e89fef68f00", "is_disabled": 0, "rental_uris": {"android": "https://dc.lft.to/lastmile_qr_scan", "ios": "https://dc.lft.to/lastmile_qr_scan"}, "fusion_lon": 0.0, "lat": 38.8870205, "bike_id": "497ebc6db8220c3912e93e89fef68f00", "type": "electric_scooter", "is_reserved": 0, "lon": -76.996767}, {"fusion_lat": 0.0, "name": "483b09996430694e827cd37a8eb6c35d", "is_disabled": 0, "rental_uris": {"android": "https://dc.lft.to/lastmile_qr_scan", "ios": "https://dc.lft.to/lastmile_qr_scan"}, "fusion_lon": 0.0, "lat": 38.91398183333333, "bike_id": "483b09996430694e827cd37a8eb6c35d", "type": "electric_scooter", "is_reserved": 0, "lon": -77.031828}, {"fusion_lat": 0.0, "name": "1ee982b2e7edddb2b02cb3c86dd0da9f", "is_disabled": 0, "rental_uris": {"android": "https://dc.lft.to/lastmile_qr_scan", "ios": "https://dc.lft.to/lastmile_qr_scan"}, "fusion_lon": 0.0, "lat": 38.91571183333333, "bike_id": "1ee982b2e7edddb2b02cb3c86dd0da9f", "type": "electric_scooter", "is_reserved": 0, "lon": -77.02292566666667}, {"fusion_lat": 0.0, "name": "da38a3956485e0640849ebf4df77c5af", "is_disabled": 0, "rental_uris": {"android": "https://dc.lft.to/lastmile_qr_scan", "ios": "https://dc.lft.to/lastmile_qr_scan"}, "fusion_lon": 0.0, "lat": 38.92317766666667, "bike_id": "da38a3956485e0640849ebf4df77c5af", "type": "electric_scooter", "is_reserved": 0, "lon": -77.05794733333333}, {"fusion_lat": 0.0, "name": "9b4632e115f8c75e4fe36f361f1593b1", "is_disabled": 0, "rental_uris": {"android": "https://dc.lft.to/lastmile_qr_scan", "ios": "https://dc.lft.to/lastmile_qr_scan"}, "fusion_lon": 0.0, "lat": 38.97367916666666, "bike_id": "9b4632e115f8c75e4fe36f361f1593b1", "type": "electric_scooter", "is_reserved": 0, "lon": -77.01297583333333}, {"fusion_lat": 0.0, "name": "fdff0d5a8b192eb5ca729b281afad598", "is_disabled": 0, "rental_uris": {"android": "https://dc.lft.to/lastmile_qr_scan", "ios": "https://dc.lft.to/lastmile_qr_scan"}, "fusion_lon": 0.0, "lat": 38.898208333333336, "bike_id": "fdff0d5a8b192eb5ca729b281afad598", "type": "electric_scooter", "is_reserved": 0, "lon": -77.046774}, {"fusion_lat": 0.0, "name": "4df5f83d6278507574ba08ffd0b8e578", "is_disabled": 0, "rental_uris": {"android": "https://dc.lft.to/lastmile_qr_scan", "ios": "https://dc.lft.to/lastmile_qr_scan"}, "fusion_lon": 0.0, "lat": 38.920769166666666, "bike_id": "4df5f83d6278507574ba08ffd0b8e578", "type": "electric_scooter", "is_reserved": 0, "lon": -77.02315066666667}, {"fusion_lat": 0.0, "name": "5820ee6627622dad2775ec4308256bbe", "is_disabled": 0, "rental_uris": {"android": "https://dc.lft.to/lastmile_qr_scan", "ios": "https://dc.lft.to/lastmile_qr_scan"}, "fusion_lon": 0.0, "lat": 38.900886666666665, "bike_id": "5820ee6627622dad2775ec4308256bbe", "type": "electric_scooter", "is_reserved": 0, "lon": -77.05059366666667}, {"fusion_lat": 0.0, "name": "2dc5840ba33d33e9a9ed8c2eea1ff4ae", "is_disabled": 0, "rental_uris": {"android": "https://dc.lft.to/lastmile_qr_scan", "ios": "https://dc.lft.to/lastmile_qr_scan"}, "fusion_lon": 0.0, "lat": 38.90924566666666, "bike_id": "2dc5840ba33d33e9a9ed8c2eea1ff4ae", "type": "electric_scooter", "is_reserved": 0, "lon": -77.06255033333333}, {"fusion_lat": 0.0, "name": "5b2b18cd48313a8be449a02b4d4d0f0c", "is_disabled": 0, "rental_uris": {"android": "https://dc.lft.to/lastmile_qr_scan", "ios": "https://dc.lft.to/lastmile_qr_scan"}, "fusion_lon": 0.0, "lat": 38.93871633333333, "bike_id": "5b2b18cd48313a8be449a02b4d4d0f0c", "type": "electric_scooter", "is_reserved": 0, "lon": -77.0246755}, {"fusion_lat": 0.0, "name": "a86f5befd1741ae1b42608c841f4ff96", "is_disabled": 0, "rental_uris": {"android": "https://dc.lft.to/lastmile_qr_scan", "ios": "https://dc.lft.to/lastmile_qr_scan"}, "fusion_lon": 0.0, "lat": 38.897233166666666, "bike_id": "a86f5befd1741ae1b42608c841f4ff96", "type": "electric_scooter", "is_reserved": 0, "lon": -77.00758966666666}, {"fusion_lat": 0.0, "name": "d5a312989b580d4180c8bcb70f9c4aea", "is_disabled": 0, "rental_uris": {"android": "https://dc.lft.to/lastmile_qr_scan", "ios": "https://dc.lft.to/lastmile_qr_scan"}, "fusion_lon": 0.0, "lat": 38.880492833333335, "bike_id": "d5a312989b580d4180c8bcb70f9c4aea", "type": "electric_scooter", "is_reserved": 0, "lon": -77.00528833333334}, {"fusion_lat": 0.0, "name": "14650e67366b057a87d2293d71e89017", "is_disabled": 0, "rental_uris": {"android": "https://dc.lft.to/lastmile_qr_scan", "ios": "https://dc.lft.to/lastmile_qr_scan"}, "fusion_lon": 0.0, "lat": 38.918358, "bike_id": "14650e67366b057a87d2293d71e89017", "type": "electric_scooter", "is_reserved": 0, "lon": -77.06369466666666}, {"fusion_lat": 0.0, "name": "03675cb39df7b0a0214ec2f02f81f1a9", "is_disabled": 0, "rental_uris": {"android": "https://dc.lft.to/lastmile_qr_scan", "ios": "https://dc.lft.to/lastmile_qr_scan"}, "fusion_lon": 0.0, "lat": 38.938205333333336, "bike_id": "03675cb39df7b0a0214ec2f02f81f1a9", "type": "electric_scooter", "is_reserved": 0, "lon": -77.02648983333333}, {"fusion_lat": 0.0, "name": "b6e1686af0d6e494e541587dc1c667b0", "is_disabled": 0, "rental_uris": {"android": "https://dc.lft.to/lastmile_qr_scan", "ios": "https://dc.lft.to/lastmile_qr_scan"}, "fusion_lon": 0.0, "lat": 38.90348933333333, "bike_id": "b6e1686af0d6e494e541587dc1c667b0", "type": "electric_scooter", "is_reserved": 0, "lon": -76.97479166666666}, {"fusion_lat": 0.0, "name": "10a5f7c846edeced65d43676a64e3c6e", "is_disabled": 0, "rental_uris": {"android": "https://dc.lft.to/lastmile_qr_scan", "ios": "https://dc.lft.to/lastmile_qr_scan"}, "fusion_lon": 0.0, "lat": 38.935219833333335, "bike_id": "10a5f7c846edeced65d43676a64e3c6e", "type": "electric_scooter", "is_reserved": 0, "lon": -77.04519616666667}, {"fusion_lat": 0.0, "name": "ba0e9ed85a97396ea3e6ecd30e5dc9a7", "is_disabled": 0, "rental_uris": {"android": "https://dc.lft.to/lastmile_qr_scan", "ios": "https://dc.lft.to/lastmile_qr_scan"}, "fusion_lon": 0.0, "lat": 38.900046333333336, "bike_id": "ba0e9ed85a97396ea3e6ecd30e5dc9a7", "type": "electric_scooter", "is_reserved": 0, "lon": -77.02942383333334}, {"fusion_lat": 0.0, "name": "a7ce43d76b2a7bf3bb723af3b8858e44", "is_disabled": 0, "rental_uris": {"android": "https://dc.lft.to/lastmile_qr_scan", "ios": "https://dc.lft.to/lastmile_qr_scan"}, "fusion_lon": 0.0, "lat": 38.915501166666665, "bike_id": "a7ce43d76b2a7bf3bb723af3b8858e44", "type": "electric_scooter", "is_reserved": 0, "lon": -77.03253816666667}, {"fusion_lat": 0.0, "name": "d2f7ab9d219eaa6ea6f3d778be845185", "is_disabled": 0, "rental_uris": {"android": "https://dc.lft.to/lastmile_qr_scan", "ios": "https://dc.lft.to/lastmile_qr_scan"}, "fusion_lon": 0.0, "lat": 38.93028566666667, "bike_id": "d2f7ab9d219eaa6ea6f3d778be845185", "type": "electric_scooter", "is_reserved": 0, "lon": -77.01949233333333}, {"fusion_lat": 0.0, "name": "db4ab1540be14dd8ec00c41da6804b2f", "is_disabled": 0, "rental_uris": {"android": "https://dc.lft.to/lastmile_qr_scan", "ios": "https://dc.lft.to/lastmile_qr_scan"}, "fusion_lon": 0.0, "lat": 38.89488333333333, "bike_id": "db4ab1540be14dd8ec00c41da6804b2f", "type": "electric_scooter", "is_reserved": 0, "lon": -77.01948116666667}, {"fusion_lat": 0.0, "name": "1f310922be8a2d8cbc9276434a9f4610", "is_disabled": 0, "rental_uris": {"android": "https://dc.lft.to/lastmile_qr_scan", "ios": "https://dc.lft.to/lastmile_qr_scan"}, "fusion_lon": 0.0, "lat": 38.912108333333336, "bike_id": "1f310922be8a2d8cbc9276434a9f4610", "type": "electric_scooter", "is_reserved": 0, "lon": -77.04494133333333}, {"fusion_lat": 0.0, "name": "454d8510860682016639e8f4a5b7b27b", "is_disabled": 0, "rental_uris": {"android": "https://dc.lft.to/lastmile_qr_scan", "ios": "https://dc.lft.to/lastmile_qr_scan"}, "fusion_lon": 0.0, "lat": 38.9108955, "bike_id": "454d8510860682016639e8f4a5b7b27b", "type": "electric_scooter", "is_reserved": 0, "lon": -77.02406466666666}, {"fusion_lat": 0.0, "name": "b55f51d35d2994aaba3a5e34c2b7b52f", "is_disabled": 0, "rental_uris": {"android": "https://dc.lft.to/lastmile_qr_scan", "ios": "https://dc.lft.to/lastmile_qr_scan"}, "fusion_lon": 0.0, "lat": 38.81330116666667, "bike_id": "b55f51d35d2994aaba3a5e34c2b7b52f", "type": "electric_bike", "is_reserved": 0, "lon": -77.05081983333334}, {"fusion_lat": 0.0, "name": "4289477dd3431ed05f0120b11dd294d6", "is_disabled": 0, "rental_uris": {"android": "https://dc.lft.to/lastmile_qr_scan", "ios": "https://dc.lft.to/lastmile_qr_scan"}, "fusion_lon": 0.0, "lat": 38.9297125, "bike_id": "4289477dd3431ed05f0120b11dd294d6", "type": "electric_bike", "is_reserved": 0, "lon": -77.03775833333333}, {"fusion_lat": 0.0, "name": "cb2b7834eaf60ac69fbc5586a6b18980", "is_disabled": 0, "rental_uris": {"android": "https://dc.lft.to/lastmile_qr_scan", "ios": "https://dc.lft.to/lastmile_qr_scan"}, "fusion_lon": 0.0, "lat": 38.9184935, "bike_id": "cb2b7834eaf60ac69fbc5586a6b18980", "type": "electric_bike", "is_reserved": 0, "lon": -76.96089483333333}, {"fusion_lat": 0.0, "name": "f59a204ced9df06a1409dd575680e961", "is_disabled": 0, "rental_uris": {"android": "https://dc.lft.to/lastmile_qr_scan", "ios": "https://dc.lft.to/lastmile_qr_scan"}, "fusion_lon": 0.0, "lat": 38.88045116666667, "bike_id": "f59a204ced9df06a1409dd575680e961", "type": "electric_scooter", "is_reserved": 0, "lon": -77.0037165}, {"fusion_lat": 0.0, "name": "018d20ee67ffc03a38a4fcbc3916bce4", "is_disabled": 0, "rental_uris": {"android": "https://dc.lft.to/lastmile_qr_scan", "ios": "https://dc.lft.to/lastmile_qr_scan"}, "fusion_lon": 0.0, "lat": 38.855104, "bike_id": "018d20ee67ffc03a38a4fcbc3916bce4", "type": "electric_scooter", "is_reserved": 0, "lon": -76.96537816666667}, {"fusion_lat": 0.0, "name": "9e65f539eb0fca68727aa96b15d93ba2", "is_disabled": 0, "rental_uris": {"android": "https://dc.lft.to/lastmile_qr_scan", "ios": "https://dc.lft.to/lastmile_qr_scan"}, "fusion_lon": 0.0, "lat": 38.916928666666664, "bike_id": "9e65f539eb0fca68727aa96b15d93ba2", "type": "electric_scooter", "is_reserved": 0, "lon": -77.0416225}, {"fusion_lat": 0.0, "name": "45c731ed9b444d61693b4cb267c90e76", "is_disabled": 0, "rental_uris": {"android": "https://dc.lft.to/lastmile_qr_scan", "ios": "https://dc.lft.to/lastmile_qr_scan"}, "fusion_lon": 0.0, "lat": 38.99222833333334, "bike_id": "45c731ed9b444d61693b4cb267c90e76", "type": "electric_bike", "is_reserved": 0, "lon": -76.94416083333333}, {"fusion_lat": 0.0, "name": "b5020afabcf468976a4133399b7a04b4", "is_disabled": 0, "rental_uris": {"android": "https://dc.lft.to/lastmile_qr_scan", "ios": "https://dc.lft.to/lastmile_qr_scan"}, "fusion_lon": 0.0, "lat": 38.953073833333335, "bike_id": "b5020afabcf468976a4133399b7a04b4", "type": "electric_scooter", "is_reserved": 0, "lon": -77.02247983333334}, {"fusion_lat": 0.0, "name": "fa1e1f5f50e4620ecf9110167b0d33af", "is_disabled": 0, "rental_uris": {"android": "https://dc.lft.to/lastmile_qr_scan", "ios": "https://dc.lft.to/lastmile_qr_scan"}, "fusion_lon": 0.0, "lat": 38.93532166666667, "bike_id": "fa1e1f5f50e4620ecf9110167b0d33af", "type": "electric_scooter", "is_reserved": 0, "lon": -77.02346983333334}, {"fusion_lat": 0.0, "name": "98885f006181a23940c35f5477595f9b", "is_disabled": 0, "rental_uris": {"android": "https://dc.lft.to/lastmile_qr_scan", "ios": "https://dc.lft.to/lastmile_qr_scan"}, "fusion_lon": 0.0, "lat": 38.9168185, "bike_id": "98885f006181a23940c35f5477595f9b", "type": "electric_scooter", "is_reserved": 0, "lon": -77.0312755}, {"fusion_lat": 0.0, "name": "1a953e209b7c700e12e2ef8d9d481955", "is_disabled": 0, "rental_uris": {"android": "https://dc.lft.to/lastmile_qr_scan", "ios": "https://dc.lft.to/lastmile_qr_scan"}, "fusion_lon": 0.0, "lat": 38.9171535, "bike_id": "1a953e209b7c700e12e2ef8d9d481955", "type": "electric_scooter", "is_reserved": 0, "lon": -76.96869266666667}, {"fusion_lat": 0.0, "name": "631da230c69081a5fb7d62e5f0f2a9a7", "is_disabled": 0, "rental_uris": {"android": "https://dc.lft.to/lastmile_qr_scan", "ios": "https://dc.lft.to/lastmile_qr_scan"}, "fusion_lon": 0.0, "lat": 38.90485616666667, "bike_id": "631da230c69081a5fb7d62e5f0f2a9a7", "type": "electric_scooter", "is_reserved": 0, "lon": -77.0295855}, {"fusion_lat": 0.0, "name": "7bf8556b43eccdab6a92a8bad52e9c58", "is_disabled": 0, "rental_uris": {"android": "https://dc.lft.to/lastmile_qr_scan", "ios": "https://dc.lft.to/lastmile_qr_scan"}, "fusion_lon": 0.0, "lat": 38.905280166666664, "bike_id": "7bf8556b43eccdab6a92a8bad52e9c58", "type": "electric_scooter", "is_reserved": 0, "lon": -77.06139083333333}, {"fusion_lat": 0.0, "name": "a4966853d508820e8cbece08a09b4991", "is_disabled": 0, "rental_uris": {"android": "https://dc.lft.to/lastmile_qr_scan", "ios": "https://dc.lft.to/lastmile_qr_scan"}, "fusion_lon": 0.0, "lat": 38.913797833333334, "bike_id": "a4966853d508820e8cbece08a09b4991", "type": "electric_scooter", "is_reserved": 0, "lon": -77.03940666666666}, {"fusion_lat": 0.0, "name": "32318fe233d5b736a20f299da32c8716", "is_disabled": 0, "rental_uris": {"android": "https://dc.lft.to/lastmile_qr_scan", "ios": "https://dc.lft.to/lastmile_qr_scan"}, "fusion_lon": 0.0, "lat": 38.913169333333336, "bike_id": "32318fe233d5b736a20f299da32c8716", "type": "electric_scooter", "is_reserved": 0, "lon": -77.04709483333333}, {"fusion_lat": 0.0, "name": "2a7308842d9dcc5d964b162df63c9d9a", "is_disabled": 0, "rental_uris": {"android": "https://dc.lft.to/lastmile_qr_scan", "ios": "https://dc.lft.to/lastmile_qr_scan"}, "fusion_lon": 0.0, "lat": 38.910255166666666, "bike_id": "2a7308842d9dcc5d964b162df63c9d9a", "type": "electric_scooter", "is_reserved": 0, "lon": -77.00761266666666}, {"fusion_lat": 0.0, "name": "04e0c2e93e9d4c4a34ecd2cf2b4b23cb", "is_disabled": 0, "rental_uris": {"android": "https://dc.lft.to/lastmile_qr_scan", "ios": "https://dc.lft.to/lastmile_qr_scan"}, "fusion_lon": 0.0, "lat": 38.91476633333333, "bike_id": "04e0c2e93e9d4c4a34ecd2cf2b4b23cb", "type": "electric_scooter", "is_reserved": 0, "lon": -77.03217766666667}, {"fusion_lat": 0.0, "name": "96e120c476140d962595300baae6c891", "is_disabled": 0, "rental_uris": {"android": "https://dc.lft.to/lastmile_qr_scan", "ios": "https://dc.lft.to/lastmile_qr_scan"}, "fusion_lon": 0.0, "lat": 38.9013, "bike_id": "96e120c476140d962595300baae6c891", "type": "electric_scooter", "is_reserved": 0, "lon": -77.04465683333333}, {"fusion_lat": 0.0, "name": "4e66211ec3149015ee0d4cbd7129c141", "is_disabled": 0, "rental_uris": {"android": "https://dc.lft.to/lastmile_qr_scan", "ios": "https://dc.lft.to/lastmile_qr_scan"}, "fusion_lon": 0.0, "lat": 38.93646483333333, "bike_id": "4e66211ec3149015ee0d4cbd7129c141", "type": "electric_scooter", "is_reserved": 0, "lon": -77.03363183333333}, {"fusion_lat": 0.0, "name": "33388dfac478100faafcedc92eddbe35", "is_disabled": 0, "rental_uris": {"android": "https://dc.lft.to/lastmile_qr_scan", "ios": "https://dc.lft.to/lastmile_qr_scan"}, "fusion_lon": 0.0, "lat": 38.94381533333333, "bike_id": "33388dfac478100faafcedc92eddbe35", "type": "electric_scooter", "is_reserved": 0, "lon": -77.09508233333334}, {"fusion_lat": 0.0, "name": "2c74072688bb27adf54ba8ab0154552f", "is_disabled": 0, "rental_uris": {"android": "https://dc.lft.to/lastmile_qr_scan", "ios": "https://dc.lft.to/lastmile_qr_scan"}, "fusion_lon": 0.0, "lat": 38.920744666666664, "bike_id": "2c74072688bb27adf54ba8ab0154552f", "type": "electric_scooter", "is_reserved": 0, "lon": -77.01476816666667}, {"fusion_lat": 0.0, "name": "578ae30e4f72d1ec1c804ee53132fc91", "is_disabled": 0, "rental_uris": {"android": "https://dc.lft.to/lastmile_qr_scan", "ios": "https://dc.lft.to/lastmile_qr_scan"}, "fusion_lon": 0.0, "lat": 38.91557233333333, "bike_id": "578ae30e4f72d1ec1c804ee53132fc91", "type": "electric_scooter", "is_reserved": 0, "lon": -77.01039183333333}, {"fusion_lat": 0.0, "name": "9e6902e5a1ae983c04c8910f2818d20e", "is_disabled": 0, "rental_uris": {"android": "https://dc.lft.to/lastmile_qr_scan", "ios": "https://dc.lft.to/lastmile_qr_scan"}, "fusion_lon": 0.0, "lat": 38.91748466666667, "bike_id": "9e6902e5a1ae983c04c8910f2818d20e", "type": "electric_scooter", "is_reserved": 0, "lon": -77.00667266666666}, {"fusion_lat": 0.0, "name": "a0007955f842f96451edaa1d8bd28d8a", "is_disabled": 0, "rental_uris": {"android": "https://dc.lft.to/lastmile_qr_scan", "ios": "https://dc.lft.to/lastmile_qr_scan"}, "fusion_lon": 0.0, "lat": 38.911761, "bike_id": "a0007955f842f96451edaa1d8bd28d8a", "type": "electric_scooter", "is_reserved": 0, "lon": -77.02831783333333}, {"fusion_lat": 0.0, "name": "b6df40fa7821a117ad046c80c4c03fbd", "is_disabled": 0, "rental_uris": {"android": "https://dc.lft.to/lastmile_qr_scan", "ios": "https://dc.lft.to/lastmile_qr_scan"}, "fusion_lon": 0.0, "lat": 38.907288, "bike_id": "b6df40fa7821a117ad046c80c4c03fbd", "type": "electric_scooter", "is_reserved": 0, "lon": -77.0476495}, {"fusion_lat": 0.0, "name": "943a5902c161656783b7edf5c7b3ba54", "is_disabled": 0, "rental_uris": {"android": "https://dc.lft.to/lastmile_qr_scan", "ios": "https://dc.lft.to/lastmile_qr_scan"}, "fusion_lon": 0.0, "lat": 38.92075116666667, "bike_id": "943a5902c161656783b7edf5c7b3ba54", "type": "electric_scooter", "is_reserved": 0, "lon": -77.023041}, {"fusion_lat": 0.0, "name": "b4e02969c4592a9b198589feb100dabf", "is_disabled": 0, "rental_uris": {"android": "https://dc.lft.to/lastmile_qr_scan", "ios": "https://dc.lft.to/lastmile_qr_scan"}, "fusion_lon": 0.0, "lat": 38.892364, "bike_id": "b4e02969c4592a9b198589feb100dabf", "type": "electric_scooter", "is_reserved": 0, "lon": -77.00276366666667}, {"fusion_lat": 0.0, "name": "a89e552d594b8bdd246b81105b8ad9f9", "is_disabled": 0, "rental_uris": {"android": "https://dc.lft.to/lastmile_qr_scan", "ios": "https://dc.lft.to/lastmile_qr_scan"}, "fusion_lon": 0.0, "lat": 38.922968833333336, "bike_id": "a89e552d594b8bdd246b81105b8ad9f9", "type": "electric_scooter", "is_reserved": 0, "lon": -77.018252}, {"fusion_lat": 0.0, "name": "65097c141d6e6fb87b83e63a68dcb09d", "is_disabled": 0, "rental_uris": {"android": "https://dc.lft.to/lastmile_qr_scan", "ios": "https://dc.lft.to/lastmile_qr_scan"}, "fusion_lon": 0.0, "lat": 38.901034833333334, "bike_id": "65097c141d6e6fb87b83e63a68dcb09d", "type": "electric_scooter", "is_reserved": 0, "lon": -76.9304875}, {"fusion_lat": 0.0, "name": "ca1e2cf735949f0000bd683492eb2fdc", "is_disabled": 0, "rental_uris": {"android": "https://dc.lft.to/lastmile_qr_scan", "ios": "https://dc.lft.to/lastmile_qr_scan"}, "fusion_lon": 0.0, "lat": 38.91171166666667, "bike_id": "ca1e2cf735949f0000bd683492eb2fdc", "type": "electric_scooter", "is_reserved": 0, "lon": -77.02960966666667}, {"fusion_lat": 0.0, "name": "ee8685f2cb29ab843d3b9e03e9ccd68d", "is_disabled": 0, "rental_uris": {"android": "https://dc.lft.to/lastmile_qr_scan", "ios": "https://dc.lft.to/lastmile_qr_scan"}, "fusion_lon": 0.0, "lat": 38.934595333333334, "bike_id": "ee8685f2cb29ab843d3b9e03e9ccd68d", "type": "electric_scooter", "is_reserved": 0, "lon": -77.041223}, {"fusion_lat": 0.0, "name": "5c425e66da72707c2c46b5f5e57b4788", "is_disabled": 0, "rental_uris": {"android": "https://dc.lft.to/lastmile_qr_scan", "ios": "https://dc.lft.to/lastmile_qr_scan"}, "fusion_lon": 0.0, "lat": 38.89737316666667, "bike_id": "5c425e66da72707c2c46b5f5e57b4788", "type": "electric_scooter", "is_reserved": 0, "lon": -77.02447666666667}, {"fusion_lat": 0.0, "name": "14557234d10037c65bdcd4204ce134e3", "is_disabled": 0, "rental_uris": {"android": "https://dc.lft.to/lastmile_qr_scan", "ios": "https://dc.lft.to/lastmile_qr_scan"}, "fusion_lon": 0.0, "lat": 38.909112666666665, "bike_id": "14557234d10037c65bdcd4204ce134e3", "type": "electric_scooter", "is_reserved": 0, "lon": -76.99929583333333}, {"fusion_lat": 0.0, "name": "1f285331591901bdd47f749df3414ca2", "is_disabled": 0, "rental_uris": {"android": "https://dc.lft.to/lastmile_qr_scan", "ios": "https://dc.lft.to/lastmile_qr_scan"}, "fusion_lon": 0.0, "lat": 38.90774716666667, "bike_id": "1f285331591901bdd47f749df3414ca2", "type": "electric_scooter", "is_reserved": 0, "lon": -77.04260366666666}, {"fusion_lat": 0.0, "name": "673dd658dcb6f106477d0ca1431c83cc", "is_disabled": 0, "rental_uris": {"android": "https://dc.lft.to/lastmile_qr_scan", "ios": "https://dc.lft.to/lastmile_qr_scan"}, "fusion_lon": 0.0, "lat": 38.91023466666667, "bike_id": "673dd658dcb6f106477d0ca1431c83cc", "type": "electric_scooter", "is_reserved": 0, "lon": -77.02908966666666}, {"fusion_lat": 0.0, "name": "fddc4c1b5911994db5acf4ecfcc011c1", "is_disabled": 0, "rental_uris": {"android": "https://dc.lft.to/lastmile_qr_scan", "ios": "https://dc.lft.to/lastmile_qr_scan"}, "fusion_lon": 0.0, "lat": 38.92461733333333, "bike_id": "fddc4c1b5911994db5acf4ecfcc011c1", "type": "electric_scooter", "is_reserved": 0, "lon": -77.02077083333333}, {"fusion_lat": 0.0, "name": "1904ccc9e2f8cb3181a8b7782942d016", "is_disabled": 0, "rental_uris": {"android": "https://dc.lft.to/lastmile_qr_scan", "ios": "https://dc.lft.to/lastmile_qr_scan"}, "fusion_lon": 0.0, "lat": 38.9667085, "bike_id": "1904ccc9e2f8cb3181a8b7782942d016", "type": "electric_bike", "is_reserved": 0, "lon": -77.02168016666667}, {"fusion_lat": 0.0, "name": "8b8cfd9534229b5510cf012da4f73888", "is_disabled": 0, "rental_uris": {"android": "https://dc.lft.to/lastmile_qr_scan", "ios": "https://dc.lft.to/lastmile_qr_scan"}, "fusion_lon": 0.0, "lat": 38.90029916666667, "bike_id": "8b8cfd9534229b5510cf012da4f73888", "type": "electric_scooter", "is_reserved": 0, "lon": -76.99135633333333}, {"fusion_lat": 0.0, "name": "e3ab106099c2981ce0833eece4860896", "is_disabled": 0, "rental_uris": {"android": "https://dc.lft.to/lastmile_qr_scan", "ios": "https://dc.lft.to/lastmile_qr_scan"}, "fusion_lon": 0.0, "lat": 38.87648516666667, "bike_id": "e3ab106099c2981ce0833eece4860896", "type": "electric_scooter", "is_reserved": 0, "lon": -77.00317583333333}, {"fusion_lat": 0.0, "name": "846676c463dfbcee057f122d1b667097", "is_disabled": 0, "rental_uris": {"android": "https://dc.lft.to/lastmile_qr_scan", "ios": "https://dc.lft.to/lastmile_qr_scan"}, "fusion_lon": 0.0, "lat": 38.931884333333336, "bike_id": "846676c463dfbcee057f122d1b667097", "type": "electric_scooter", "is_reserved": 0, "lon": -77.04296616666667}, {"fusion_lat": 0.0, "name": "c102ee0ae140069a084ca19ce4e56a18", "is_disabled": 0, "rental_uris": {"android": "https://dc.lft.to/lastmile_qr_scan", "ios": "https://dc.lft.to/lastmile_qr_scan"}, "fusion_lon": 0.0, "lat": 38.89036516666667, "bike_id": "c102ee0ae140069a084ca19ce4e56a18", "type": "electric_scooter", "is_reserved": 0, "lon": -76.937505}, {"fusion_lat": 0.0, "name": "a65943268e4f4e0fbbd4670750ea3b83", "is_disabled": 0, "rental_uris": {"android": "https://dc.lft.to/lastmile_qr_scan", "ios": "https://dc.lft.to/lastmile_qr_scan"}, "fusion_lon": 0.0, "lat": 38.946231833333336, "bike_id": "a65943268e4f4e0fbbd4670750ea3b83", "type": "electric_scooter", "is_reserved": 0, "lon": -77.019362}, {"fusion_lat": 0.0, "name": "e0cfe3959eefab17127854ef12e06917", "is_disabled": 0, "rental_uris": {"android": "https://dc.lft.to/lastmile_qr_scan", "ios": "https://dc.lft.to/lastmile_qr_scan"}, "fusion_lon": 0.0, "lat": 38.958192, "bike_id": "e0cfe3959eefab17127854ef12e06917", "type": "electric_scooter", "is_reserved": 0, "lon": -77.00178966666667}, {"fusion_lat": 0.0, "name": "e34f319bb2a75571f075e7f997f73631", "is_disabled": 0, "rental_uris": {"android": "https://dc.lft.to/lastmile_qr_scan", "ios": "https://dc.lft.to/lastmile_qr_scan"}, "fusion_lon": 0.0, "lat": 38.92071966666666, "bike_id": "e34f319bb2a75571f075e7f997f73631", "type": "electric_scooter", "is_reserved": 0, "lon": -77.023149}, {"fusion_lat": 0.0, "name": "c1f0bd3b864913f4fa8bee5f9e828116", "is_disabled": 0, "rental_uris": {"android": "https://dc.lft.to/lastmile_qr_scan", "ios": "https://dc.lft.to/lastmile_qr_scan"}, "fusion_lon": 0.0, "lat": 38.91062733333333, "bike_id": "c1f0bd3b864913f4fa8bee5f9e828116", "type": "electric_scooter", "is_reserved": 0, "lon": -77.03661733333334}, {"fusion_lat": 0.0, "name": "b7b4c0ca3c7b91b24ff9fe80e617b1d7", "is_disabled": 0, "rental_uris": {"android": "https://dc.lft.to/lastmile_qr_scan", "ios": "https://dc.lft.to/lastmile_qr_scan"}, "fusion_lon": 0.0, "lat": 38.882410666666665, "bike_id": "b7b4c0ca3c7b91b24ff9fe80e617b1d7", "type": "electric_scooter", "is_reserved": 0, "lon": -77.0035785}, {"fusion_lat": 0.0, "name": "feeb2d3da9c9b5e23d0e7a21ed523578", "is_disabled": 0, "rental_uris": {"android": "https://dc.lft.to/lastmile_qr_scan", "ios": "https://dc.lft.to/lastmile_qr_scan"}, "fusion_lon": 0.0, "lat": 38.9358505, "bike_id": "feeb2d3da9c9b5e23d0e7a21ed523578", "type": "electric_scooter", "is_reserved": 0, "lon": -77.0236005}, {"fusion_lat": 0.0, "name": "a6bd31da00c02ac55adf699fee1f31c3", "is_disabled": 0, "rental_uris": {"android": "https://dc.lft.to/lastmile_qr_scan", "ios": "https://dc.lft.to/lastmile_qr_scan"}, "fusion_lon": 0.0, "lat": 38.91106533333333, "bike_id": "a6bd31da00c02ac55adf699fee1f31c3", "type": "electric_scooter", "is_reserved": 0, "lon": -77.01149033333333}, {"fusion_lat": 0.0, "name": "d08f0027ffd0110d8e220d61cd5d5cec", "is_disabled": 0, "rental_uris": {"android": "https://dc.lft.to/lastmile_qr_scan", "ios": "https://dc.lft.to/lastmile_qr_scan"}, "fusion_lon": 0.0, "lat": 38.9240105, "bike_id": "d08f0027ffd0110d8e220d61cd5d5cec", "type": "electric_scooter", "is_reserved": 0, "lon": -77.02258766666667}, {"fusion_lat": 0.0, "name": "31475c45d486205c7614a7315a8660bc", "is_disabled": 0, "rental_uris": {"android": "https://dc.lft.to/lastmile_qr_scan", "ios": "https://dc.lft.to/lastmile_qr_scan"}, "fusion_lon": 0.0, "lat": 38.92977116666667, "bike_id": "31475c45d486205c7614a7315a8660bc", "type": "electric_scooter", "is_reserved": 0, "lon": -77.03249216666667}, {"fusion_lat": 0.0, "name": "f86af688a4ddc7d8756e7a35a1819bfd", "is_disabled": 0, "rental_uris": {"android": "https://dc.lft.to/lastmile_qr_scan", "ios": "https://dc.lft.to/lastmile_qr_scan"}, "fusion_lon": 0.0, "lat": 38.928702333333334, "bike_id": "f86af688a4ddc7d8756e7a35a1819bfd", "type": "electric_scooter", "is_reserved": 0, "lon": -77.03357283333334}, {"fusion_lat": 0.0, "name": "5be1068e4eb300f988d5c54f8302e828", "is_disabled": 0, "rental_uris": {"android": "https://dc.lft.to/lastmile_qr_scan", "ios": "https://dc.lft.to/lastmile_qr_scan"}, "fusion_lon": 0.0, "lat": 38.910566333333335, "bike_id": "5be1068e4eb300f988d5c54f8302e828", "type": "electric_scooter", "is_reserved": 0, "lon": -77.045768}, {"fusion_lat": 0.0, "name": "dcce18c8219b4c206028ca99a61e5677", "is_disabled": 0, "rental_uris": {"android": "https://dc.lft.to/lastmile_qr_scan", "ios": "https://dc.lft.to/lastmile_qr_scan"}, "fusion_lon": 0.0, "lat": 38.914419, "bike_id": "dcce18c8219b4c206028ca99a61e5677", "type": "electric_scooter", "is_reserved": 0, "lon": -77.0416115}, {"fusion_lat": 0.0, "name": "1955a329cbd9baef3dd0ec208fd25002", "is_disabled": 0, "rental_uris": {"android": "https://dc.lft.to/lastmile_qr_scan", "ios": "https://dc.lft.to/lastmile_qr_scan"}, "fusion_lon": 0.0, "lat": 38.8633075, "bike_id": "1955a329cbd9baef3dd0ec208fd25002", "type": "electric_bike", "is_reserved": 0, "lon": -76.9872975}, {"fusion_lat": 0.0, "name": "e64bfba4238269886ec880adf6e89048", "is_disabled": 0, "rental_uris": {"android": "https://dc.lft.to/lastmile_qr_scan", "ios": "https://dc.lft.to/lastmile_qr_scan"}, "fusion_lon": 0.0, "lat": 38.95633733333333, "bike_id": "e64bfba4238269886ec880adf6e89048", "type": "electric_scooter", "is_reserved": 0, "lon": -77.03306533333334},