{"data": {"bikes": [{"lat": 38.90626266666666, "is_disabled": 0, "type": "electric_bike", "lon": -77.07020533333333, "bike_id": "145875719db290ca0f4cb9ab8ade9077", "fusion_lat": 0.0, "name": "145875719db290ca0f4cb9ab8ade9077", "is_reserved": 0, "rental_uris": {"android": "https://dc.lft.to/lastmile_qr_scan", "ios": "https://dc.lft.to/lastmile_qr_scan"}, "fusion_lon": 0.0}, {"lat": 38.89281033333334, "is_disabled": 0, "type": "electric_scooter", "lon": -77.00210533333333, "bike_id": "87f4d0819ae64f0ea58f45f20205585c", "fusion_lat": 0.0, "name": "87f4d0819ae64f0ea58f45f20205585c", "is_reserved": 0, "rental_uris": {"android": "https://dc.lft.to/lastmile_qr_scan", "ios": "https://dc.lft.to/lastmile_qr_scan"}, "fusion_lon": 0.0}, {"lat": 38.90012616666667, "is_disabled": 0, "type": "electric_scooter", "lon": -77.02156916666667, "bike_id": "4a6f9d976569378db787f06dbf411609", "fusion_lat": 0.0, "name": "4a6f9d976569378db787f06dbf411609", "is_reserved": 0, "rental_uris": {"android": "https://dc.lft.to/lastmile_qr_scan", "ios": "https://dc.lft.to/lastmile_qr_scan"}, "fusion_lon": 0.0}, {"lat": 38.80220166666667, "is_disabled": 0, "type": "electric_bike", "lon": -77.0792355, "bike_id": "1897c5112415eed83c575543165657d7", "fusion_lat": 0.0, "name": "1897c5112415eed83c575543165657d7", "is_reserved": 0, "rental_uris": {"android": "https://dc.lft.to/lastmile_qr_scan", "ios": "https://dc.lft.to/lastmile_qr_scan"}, "fusion_lon": 0.0}, {"lat": 38.85786183333333, "is_disabled": 0, "type": "electric_bike", "lon": -76.98749533333333, "bike_id": "27286ae8cba070c6a8f82b6d64c6c83b", "fusion_lat": 0.0, "name": "27286ae8cba070c6a8f82b6d64c6c83b", "is_reserved": 0, "rental_uris": {"android": "https://dc.lft.to/lastmile_qr_scan", "ios": "https://dc.lft.to/lastmile_qr_scan"}, "fusion_lon": 0.0}, {"lat": 38.90386566666667, "is_disabled": 0, "type": "electric_scooter", "lon": -77.02817133333333, "bike_id": "4a588daeb7037087d69a5dbb125999ea", "fusion_lat": 0.0, "name": "4a588daeb7037087d69a5dbb125999ea", "is_reserved": 0, "rental_uris": {"android": "https://dc.lft.to/lastmile_qr_scan", "ios": "https://dc.lft.to/lastmile_qr_scan"}, "fusion_lon": 0.0}, {"lat": 38.93321183333333, "is_disabled": 0, "type": "electric_scooter", "lon": -77.04402933333333, "bike_id": "0e96aae6f3ad8355e562de5fa00510f6", "fusion_lat": 0.0, "name": "0e96aae6f3ad8355e562de5fa00510f6", "is_reserved": 0, "rental_uris": {"android": "https://dc.lft.to/lastmile_qr_scan", "ios": "https://dc.lft.to/lastmile_qr_scan"}, "fusion_lon": 0.0}, {"lat": 38.91752816666666, "is_disabled": 0, "type": "electric_scooter", "lon": -77.03999833333333, "bike_id": "cb2a3dd1d6edb8b94dd039babed3f2c2", "fusion_lat": 0.0, "name": "cb2a3dd1d6edb8b94dd039babed3f2c2", "is_reserved": 0, "rental_uris": {"android": "https://dc.lft.to/lastmile_qr_scan", "ios": "https://dc.lft.to/lastmile_qr_scan"}, "fusion_lon": 0.0}, {"lat": 38.9278625, "is_disabled": 0, "type": "electric_scooter", "lon": -77.04307983333334, "bike_id": "b022cf293d225a2ac76398955945937f", "fusion_lat": 0.0, "name": "b022cf293d225a2ac76398955945937f", "is_reserved": 0, "rental_uris": {"android": "https://dc.lft.to/lastmile_qr_scan", "ios": "https://dc.lft.to/lastmile_qr_scan"}, "fusion_lon": 0.0}, {"lat": 38.89957316666667, "is_disabled": 0, "type": "electric_scooter", "lon": -77.0521585, "bike_id": "545bfd8d4a11a8e50126027098c53fd9", "fusion_lat": 0.0, "name": "545bfd8d4a11a8e50126027098c53fd9", "is_reserved": 0, "rental_uris": {"android": "https://dc.lft.to/lastmile_qr_scan", "ios": "https://dc.lft.to/lastmile_qr_scan"}, "fusion_lon": 0.0}, {"lat": 38.954025, "is_disabled": 0, "type": "electric_scooter", "lon": -77.02748483333333, "bike_id": "39b6b8f66f60c558d5328bff371e0c49", "fusion_lat": 0.0, "name": "39b6b8f66f60c558d5328bff371e0c49", "is_reserved": 0, "rental_uris": {"android": "https://dc.lft.to/lastmile_qr_scan", "ios": "https://dc.lft.to/lastmile_qr_scan"}, "fusion_lon": 0.0}, {"lat": 38.9077485, "is_disabled": 0, "type": "electric_scooter", "lon": -77.0640175, "bike_id": "5c57feb3905c887bcb46fedbd28302d9", "fusion_lat": 0.0, "name": "5c57feb3905c887bcb46fedbd28302d9", "is_reserved": 0, "rental_uris": {"android": "https://dc.lft.to/lastmile_qr_scan", "ios": "https://dc.lft.to/lastmile_qr_scan"}, "fusion_lon": 0.0}, {"lat": 38.933393833333334, "is_disabled": 0, "type": "electric_scooter", "lon": -77.02392783333333, "bike_id": "4e959051a6bd9b28836d24e37452cab1", "fusion_lat": 0.0, "name": "4e959051a6bd9b28836d24e37452cab1", "is_reserved": 0, "rental_uris": {"android": "https://dc.lft.to/lastmile_qr_scan", "ios": "https://dc.lft.to/lastmile_qr_scan"}, "fusion_lon": 0.0}, {"lat": 38.9031935, "is_disabled": 0, "type": "electric_scooter", "lon": -77.02568716666667, "bike_id": "7a824caf66bef7e30d5d7ff6ec40c0ed", "fusion_lat": 0.0, "name": "7a824caf66bef7e30d5d7ff6ec40c0ed", "is_reserved": 0, "rental_uris": {"android": "https://dc.lft.to/lastmile_qr_scan", "ios": "https://dc.lft.to/lastmile_qr_scan"}, "fusion_lon": 0.0}, {"lat": 38.802679833333336, "is_disabled": 0, "type": "electric_bike", "lon": -77.08115833333333, "bike_id": "8e71fd79c8e16aa748ca735ec00e18d9", "fusion_lat": 0.0, "name": "8e71fd79c8e16aa748ca735ec00e18d9", "is_reserved": 0, "rental_uris": {"android": "https://dc.lft.to/lastmile_qr_scan", "ios": "https://dc.lft.to/lastmile_qr_scan"}, "fusion_lon": 0.0}, {"lat": 38.909688, "is_disabled": 0, "type": "electric_scooter", "lon": -77.040604, "bike_id": "f672b4e2490637f66a7570f8cca8bf71", "fusion_lat": 0.0, "name": "f672b4e2490637f66a7570f8cca8bf71", "is_reserved": 0, "rental_uris": {"android": "https://dc.lft.to/lastmile_qr_scan", "ios": "https://dc.lft.to/lastmile_qr_scan"}, "fusion_lon": 0.0}, {"lat": 38.923455833333335, "is_disabled": 0, "type": "electric_scooter", "lon": -77.02456133333334, "bike_id": "f007c284a52f4d42b14d015c46ad24d1", "fusion_lat": 0.0, "name": "f007c284a52f4d42b14d015c46ad24d1", "is_reserved": 0, "rental_uris": {"android": "https://dc.lft.to/lastmile_qr_scan", "ios": "https://dc.lft.to/lastmile_qr_scan"}, "fusion_lon": 0.0}, {"lat": 38.928752, "is_disabled": 0, "type": "electric_scooter", "lon": -77.03221966666666, "bike_id": "a2e43234e42144319e9e685b5fc60492", "fusion_lat": 0.0, "name": "a2e43234e42144319e9e685b5fc60492", "is_reserved": 0, "rental_uris": {"android": "https://dc.lft.to/lastmile_qr_scan", "ios": "https://dc.lft.to/lastmile_qr_scan"}, "fusion_lon": 0.0}, {"lat": 38.896315, "is_disabled": 0, "type": "electric_scooter", "lon": -77.02314083333333, "bike_id": "33dbe57451bcb668df578d82e5bca781", "fusion_lat": 0.0, "name": "33dbe57451bcb668df578d82e5bca781", "is_reserved": 0, "rental_uris": {"android": "https://dc.lft.to/lastmile_qr_scan", "ios": "https://dc.lft.to/lastmile_qr_scan"}, "fusion_lon": 0.0}, {"lat": 38.90042233333333, "is_disabled": 0, "type": "electric_scooter", "lon": -77.03212433333333, "bike_id": "ff0a429585f1d19bf2de8bb27d465739", "fusion_lat": 0.0, "name": "ff0a429585f1d19bf2de8bb27d465739", "is_reserved": 0, "rental_uris": {"android": "https://dc.lft.to/lastmile_qr_scan", "ios": "https://dc.lft.to/lastmile_qr_scan"}, "fusion_lon": 0.0}, {"lat": 38.917077, "is_disabled": 0, "type": "electric_scooter", "lon": -77.03507566666667, "bike_id": "0fd9802afbee371999758e27476e6dce", "fusion_lat": 0.0, "name": "0fd9802afbee371999758e27476e6dce", "is_reserved": 0, "rental_uris": {"android": "https://dc.lft.to/lastmile_qr_scan", "ios": "https://dc.lft.to/lastmile_qr_scan"}, "fusion_lon": 0.0}, {"lat": 38.87064633333333, "is_disabled": 0, "type": "electric_scooter", "lon": -77.00844466666666, "bike_id": "09c7e85afed61bee1349766721a5a29f", "fusion_lat": 0.0, "name": "09c7e85afed61bee1349766721a5a29f", "is_reserved": 0, "rental_uris": {"android": "https://dc.lft.to/lastmile_qr_scan", "ios": "https://dc.lft.to/lastmile_qr_scan"}, "fusion_lon": 0.0}, {"lat": 38.901737833333335, "is_disabled": 0, "type": "electric_scooter", "lon": -77.04857383333334, "bike_id": "e218e699ee7b637933c227cda66f7666", "fusion_lat": 0.0, "name": "e218e699ee7b637933c227cda66f7666", "is_reserved": 0, "rental_uris": {"android": "https://dc.lft.to/lastmile_qr_scan", "ios": "https://dc.lft.to/lastmile_qr_scan"}, "fusion_lon": 0.0}, {"lat": 38.916994833333334, "is_disabled": 0, "type": "electric_scooter", "lon": -77.031517, "bike_id": "8cc52bdd2004e568cb80319f5527cdf0", "fusion_lat": 0.0, "name": "8cc52bdd2004e568cb80319f5527cdf0", "is_reserved": 0, "rental_uris": {"android": "https://dc.lft.to/lastmile_qr_scan", "ios": "https://dc.lft.to/lastmile_qr_scan"}, "fusion_lon": 0.0}, {"lat": 38.862064833333335, "is_disabled": 0, "type": "electric_bike", "lon": -76.99782333333333, "bike_id": "9d6c5a9f5ec321c8fd6fd7077e2aa087", "fusion_lat": 0.0, "name": "9d6c5a9f5ec321c8fd6fd7077e2aa087", "is_reserved": 0, "rental_uris": {"android": "https://dc.lft.to/lastmile_qr_scan", "ios": "https://dc.lft.to/lastmile_qr_scan"}, "fusion_lon": 0.0}, {"lat": 38.903846, "is_disabled": 0, "type": "electric_scooter", "lon": -77.02810233333334, "bike_id": "64444d32cfb8e91c83b1ff396b56fd1d", "fusion_lat": 0.0, "name": "64444d32cfb8e91c83b1ff396b56fd1d", "is_reserved": 0, "rental_uris": {"android": "https://dc.lft.to/lastmile_qr_scan", "ios": "https://dc.lft.to/lastmile_qr_scan"}, "fusion_lon": 0.0}, {"lat": 38.920321, "is_disabled": 0, "type": "electric_scooter", "lon": -77.0312355, "bike_id": "8492a76e36a75c18685eb094dd963c1b", "fusion_lat": 0.0, "name": "8492a76e36a75c18685eb094dd963c1b", "is_reserved": 0, "rental_uris": {"android": "https://dc.lft.to/lastmile_qr_scan", "ios": "https://dc.lft.to/lastmile_qr_scan"}, "fusion_lon": 0.0}, {"lat": 38.89219633333333, "is_disabled": 0, "type": "electric_bike", "lon": -77.10783583333334, "bike_id": "37d76e5deaac3220263778c4aeeaea33", "fusion_lat": 0.0, "name": "37d76e5deaac3220263778c4aeeaea33", "is_reserved": 0, "rental_uris": {"android": "https://dc.lft.to/lastmile_qr_scan", "ios": "https://dc.lft.to/lastmile_qr_scan"}, "fusion_lon": 0.0}, {"lat": 38.897126166666666, "is_disabled": 0, "type": "electric_scooter", "lon": -77.00797366666667, "bike_id": "b9773c9729243f4ea9223e9ae1e19220", "fusion_lat": 0.0, "name": "b9773c9729243f4ea9223e9ae1e19220", "is_reserved": 0, "rental_uris": {"android": "https://dc.lft.to/lastmile_qr_scan", "ios": "https://dc.lft.to/lastmile_qr_scan"}, "fusion_lon": 0.0}, {"lat": 38.926745333333336, "is_disabled": 0, "type": "electric_scooter", "lon": -77.00743383333334, "bike_id": "2d3eba4e0ca2ea236f4e9a5c3e18e329", "fusion_lat": 0.0, "name": "2d3eba4e0ca2ea236f4e9a5c3e18e329", "is_reserved": 0, "rental_uris": {"android": "https://dc.lft.to/lastmile_qr_scan", "ios": "https://dc.lft.to/lastmile_qr_scan"}, "fusion_lon": 0.0}, {"lat": 38.89491966666667, "is_disabled": 0, "type": "electric_scooter", "lon": -77.00213333333333, "bike_id": "386e1cb44f96cc714dafd332750630e4", "fusion_lat": 0.0, "name": "386e1cb44f96cc714dafd332750630e4", "is_reserved": 0, "rental_uris": {"android": "https://dc.lft.to/lastmile_qr_scan", "ios": "https://dc.lft.to/lastmile_qr_scan"}, "fusion_lon": 0.0}, {"lat": 38.90033283333333, "is_disabled": 0, "type": "electric_scooter", "lon": -77.00539116666667, "bike_id": "46233ad3366844d06541bee7be017139", "fusion_lat": 0.0, "name": "46233ad3366844d06541bee7be017139", "is_reserved": 0, "rental_uris": {"android": "https://dc.lft.to/lastmile_qr_scan", "ios": "https://dc.lft.to/lastmile_qr_scan"}, "fusion_lon": 0.0}, {"lat": 38.88458816666667, "is_disabled": 0, "type": "electric_scooter", "lon": -77.0153685, "bike_id": "e7aca5769a160c500cdf272529d2a4e7", "fusion_lat": 0.0, "name": "e7aca5769a160c500cdf272529d2a4e7", "is_reserved": 0, "rental_uris": {"android": "https://dc.lft.to/lastmile_qr_scan", "ios": "https://dc.lft.to/lastmile_qr_scan"}, "fusion_lon": 0.0}, {"lat": 38.957354, "is_disabled": 0, "type": "electric_bike", "lon": -77.023275, "bike_id": "a546725227b26a89cf7c6223fd4730df", "fusion_lat": 0.0, "name": "a546725227b26a89cf7c6223fd4730df", "is_reserved": 0, "rental_uris": {"android": "https://dc.lft.to/lastmile_qr_scan", "ios": "https://dc.lft.to/lastmile_qr_scan"}, "fusion_lon": 0.0}, {"lat": 38.908660166666664, "is_disabled": 0, "type": "electric_scooter", "lon": -77.00299883333334, "bike_id": "8291cdd32b7dae7519c4082aa29de993", "fusion_lat": 0.0, "name": "8291cdd32b7dae7519c4082aa29de993", "is_reserved": 0, "rental_uris": {"android": "https://dc.lft.to/lastmile_qr_scan", "ios": "https://dc.lft.to/lastmile_qr_scan"}, "fusion_lon": 0.0}, {"lat": 38.917271, "is_disabled": 0, "type": "electric_scooter", "lon": -77.03665766666667, "bike_id": "6a0a75bdb3063dfeaf771da0d1fdb8c5", "fusion_lat": 0.0, "name": "6a0a75bdb3063dfeaf771da0d1fdb8c5", "is_reserved": 0, "rental_uris": {"android": "https://dc.lft.to/lastmile_qr_scan", "ios": "https://dc.lft.to/lastmile_qr_scan"}, "fusion_lon": 0.0}, {"lat": 38.891435, "is_disabled": 0, "type": "electric_bike", "lon": -77.1130705, "bike_id": "62d05def4a9af51a936e9fe4da1a2738", "fusion_lat": 0.0, "name": "62d05def4a9af51a936e9fe4da1a2738", "is_reserved": 0, "rental_uris": {"android": "https://dc.lft.to/lastmile_qr_scan", "ios": "https://dc.lft.to/lastmile_qr_scan"}, "fusion_lon": 0.0}, {"lat": 38.88436683333333, "is_disabled": 0, "type": "electric_scooter", "lon": -77.030432, "bike_id": "d21286e8342eda7270f900f11326dcaf", "fusion_lat": 0.0, "name": "d21286e8342eda7270f900f11326dcaf", "is_reserved": 0, "rental_uris": {"android": "https://dc.lft.to/lastmile_qr_scan", "ios": "https://dc.lft.to/lastmile_qr_scan"}, "fusion_lon": 0.0}, {"lat": 38.913607999999996, "is_disabled": 0, "type": "electric_scooter", "lon": -77.06853016666666, "bike_id": "96c3d34d50cd6e061d4149fac986ccac", "fusion_lat": 0.0, "name": "96c3d34d50cd6e061d4149fac986ccac", "is_reserved": 0, "rental_uris": {"android": "https://dc.lft.to/lastmile_qr_scan", "ios": "https://dc.lft.to/lastmile_qr_scan"}, "fusion_lon": 0.0}, {"lat": 38.917693, "is_disabled": 0, "type": "electric_scooter", "lon": -77.023124, "bike_id": "6b47816b0d9a6646daecd75cf531d8a2", "fusion_lat": 0.0, "name": "6b47816b0d9a6646daecd75cf531d8a2", "is_reserved": 0, "rental_uris": {"android": "https://dc.lft.to/lastmile_qr_scan", "ios": "https://dc.lft.to/lastmile_qr_scan"}, "fusion_lon": 0.0}, {"lat": 38.8922585, "is_disabled": 0, "type": "electric_bike", "lon": -77.03332483333334, "bike_id": "a86231ce416a674f20b2fb23dd971f55", "fusion_lat": 0.0, "name": "a86231ce416a674f20b2fb23dd971f55", "is_reserved": 0, "rental_uris": {"android": "https://dc.lft.to/lastmile_qr_scan", "ios": "https://dc.lft.to/lastmile_qr_scan"}, "fusion_lon": 0.0}, {"lat": 38.920669833333335, "is_disabled": 0, "type": "electric_scooter", "lon": -77.04338483333333, "bike_id": "6a8ff41fe9475bbbbb971bd778dde1e4", "fusion_lat": 0.0, "name": "6a8ff41fe9475bbbbb971bd778dde1e4", "is_reserved": 0, "rental_uris": {"android": "https://dc.lft.to/lastmile_qr_scan", "ios": "https://dc.lft.to/lastmile_qr_scan"}, "fusion_lon": 0.0}, {"lat": 38.907809666666665, "is_disabled": 0, "type": "electric_scooter", "lon": -77.0640585, "bike_id": "b956c2792e6d29e5b3cabc43a5a69e0f", "fusion_lat": 0.0, "name": "b956c2792e6d29e5b3cabc43a5a69e0f", "is_reserved": 0, "rental_uris": {"android": "https://dc.lft.to/lastmile_qr_scan", "ios": "https://dc.lft.to/lastmile_qr_scan"}, "fusion_lon": 0.0}, {"lat": 38.91326566666667, "is_disabled": 0, "type": "electric_scooter", "lon": -77.0326475, "bike_id": "37ba0ab3f7acaefd1079072fd2eb137a", "fusion_lat": 0.0, "name": "37ba0ab3f7acaefd1079072fd2eb137a", "is_reserved": 0, "rental_uris": {"android": "https://dc.lft.to/lastmile_qr_scan", "ios": "https://dc.lft.to/lastmile_qr_scan"}, "fusion_lon": 0.0}, {"lat": 38.9170905, "is_disabled": 0, "type": "electric_scooter", "lon": -77.03232616666666, "bike_id": "a1b50e3b2eccd52350fffc25271cf11e", "fusion_lat": 0.0, "name": "a1b50e3b2eccd52350fffc25271cf11e", "is_reserved": 0, "rental_uris": {"android": "https://dc.lft.to/lastmile_qr_scan", "ios": "https://dc.lft.to/lastmile_qr_scan"}, "fusion_lon": 0.0}, {"lat": 38.903663333333334, "is_disabled": 0, "type": "electric_scooter", "lon": -77.0602715, "bike_id": "6a1da6bf95294305b8503a9ca6576d68", "fusion_lat": 0.0, "name": "6a1da6bf95294305b8503a9ca6576d68", "is_reserved": 0, "rental_uris": {"android": "https://dc.lft.to/lastmile_qr_scan", "ios": "https://dc.lft.to/lastmile_qr_scan"}, "fusion_lon": 0.0}, {"lat": 38.889302666666666, "is_disabled": 0, "type": "electric_scooter", "lon": -77.01506733333333, "bike_id": "2d12e09fc01ec09bd95805aaa52f76b7", "fusion_lat": 0.0, "name": "2d12e09fc01ec09bd95805aaa52f76b7", "is_reserved": 0, "rental_uris": {"android": "https://dc.lft.to/lastmile_qr_scan", "ios": "https://dc.lft.to/lastmile_qr_scan"}, "fusion_lon": 0.0}, {"lat": 38.95953383333333, "is_disabled": 0, "type": "electric_bike", "lon": -77.10096433333334, "bike_id": "82249753e753ab6c70e954166de2ab11", "fusion_lat": 0.0, "name": "82249753e753ab6c70e954166de2ab11", "is_reserved": 0, "rental_uris": {"android": "https://dc.lft.to/lastmile_qr_scan", "ios": "https://dc.lft.to/lastmile_qr_scan"}, "fusion_lon": 0.0}, {"lat": 38.9614225, "is_disabled": 0, "type": "electric_scooter", "lon": -77.02810016666666, "bike_id": "1923ceffbd7c78e0dc90ee58fd1d29d1", "fusion_lat": 0.0, "name": "1923ceffbd7c78e0dc90ee58fd1d29d1", "is_reserved": 0, "rental_uris": {"android": "https://dc.lft.to/lastmile_qr_scan", "ios": "https://dc.lft.to/lastmile_qr_scan"}, "fusion_lon": 0.0}, {"lat": 38.91559266666667, "is_disabled": 0, "type": "electric_scooter", "lon": -77.03160383333334, "bike_id": "417b3bffff29bbbb2f08a88a1c4210d3", "fusion_lat": 0.0, "name": "417b3bffff29bbbb2f08a88a1c4210d3", "is_reserved": 0, "rental_uris": {"android": "https://dc.lft.to/lastmile_qr_scan", "ios": "https://dc.lft.to/lastmile_qr_scan"}, "fusion_lon": 0.0}, {"lat": 38.896819666666666, "is_disabled": 0, "type": "electric_scooter", "lon": -76.935377, "bike_id": "1b6ede6ce857058d36644034cb95f760", "fusion_lat": 0.0, "name": "1b6ede6ce857058d36644034cb95f760", "is_reserved": 0, "rental_uris": {"android": "https://dc.lft.to/lastmile_qr_scan", "ios": "https://dc.lft.to/lastmile_qr_scan"}, "fusion_lon": 0.0}, {"lat": 38.912941833333335, "is_disabled": 0, "type": "electric_scooter", "lon": -77.0451375, "bike_id": "d8c935e760bc03254ea3d709519d8248", "fusion_lat": 0.0, "name": "d8c935e760bc03254ea3d709519d8248", "is_reserved": 0, "rental_uris": {"android": "https://dc.lft.to/lastmile_qr_scan", "ios": "https://dc.lft.to/lastmile_qr_scan"}, "fusion_lon": 0.0}, {"lat": 38.91708083333333, "is_disabled": 0, "type": "electric_scooter", "lon": -77.038681, "bike_id": "7d8f2eb0a05619e4b7ddc85e0ad604e3", "fusion_lat": 0.0, "name": "7d8f2eb0a05619e4b7ddc85e0ad604e3", "is_reserved": 0, "rental_uris": {"android": "https://dc.lft.to/lastmile_qr_scan", "ios": "https://dc.lft.to/lastmile_qr_scan"}, "fusion_lon": 0.0}, {"lat": 38.90862766666667, "is_disabled": 0, "type": "electric_scooter", "lon": -76.99958866666667, "bike_id": "6bf6336fbb7aed25548082e63e8b005e", "fusion_lat": 0.0, "name": "6bf6336fbb7aed25548082e63e8b005e", "is_reserved": 0, "rental_uris": {"android": "https://dc.lft.to/lastmile_qr_scan", "ios": "https://dc.lft.to/lastmile_qr_scan"}, "fusion_lon": 0.0}, {"lat": 38.868795666666664, "is_disabled": 0, "type": "electric_scooter", "lon": -76.98312683333333, "bike_id": "03f05453c53fbb8dba41368048afa6d8", "fusion_lat": 0.0, "name": "03f05453c53fbb8dba41368048afa6d8", "is_reserved": 0, "rental_uris": {"android": "https://dc.lft.to/lastmile_qr_scan", "ios": "https://dc.lft.to/lastmile_qr_scan"}, "fusion_lon": 0.0}, {"lat": 38.88121233333333, "is_disabled": 0, "type": "electric_scooter", "lon": -76.99517666666667, "bike_id": "6c21588cc307efd9b11f46c3bbe51c06", "fusion_lat": 0.0, "name": "6c21588cc307efd9b11f46c3bbe51c06", "is_reserved": 0, "rental_uris": {"android": "https://dc.lft.to/lastmile_qr_scan", "ios": "https://dc.lft.to/lastmile_qr_scan"}, "fusion_lon": 0.0}, {"lat": 38.900115, "is_disabled": 0, "type": "electric_scooter", "lon": -77.0396395, "bike_id": "55d4dcd5a0a329b05e2e37ba7a2cad7d", "fusion_lat": 0.0, "name": "55d4dcd5a0a329b05e2e37ba7a2cad7d", "is_reserved": 0, "rental_uris": {"android": "https://dc.lft.to/lastmile_qr_scan", "ios": "https://dc.lft.to/lastmile_qr_scan"}, "fusion_lon": 0.0}, {"lat": 38.910055, "is_disabled": 0, "type": "electric_scooter", "lon": -77.03857, "bike_id": "01aae3fdc54db7a40d68957cd76dfc36", "fusion_lat": 0.0, "name": "01aae3fdc54db7a40d68957cd76dfc36", "is_reserved": 0, "rental_uris": {"android": "https://dc.lft.to/lastmile_qr_scan", "ios": "https://dc.lft.to/lastmile_qr_scan"}, "fusion_lon": 0.0}, {"lat": 38.9224215, "is_disabled": 0, "type": "electric_scooter", "lon": -77.02187266666667, "bike_id": "01fe4731d68a2d1b2b32a1a2c6ff5b54", "fusion_lat": 0.0, "name": "01fe4731d68a2d1b2b32a1a2c6ff5b54", "is_reserved": 0, "rental_uris": {"android": "https://dc.lft.to/lastmile_qr_scan", "ios": "https://dc.lft.to/lastmile_qr_scan"}, "fusion_lon": 0.0}, {"lat": 38.883888166666665, "is_disabled": 0, "type": "electric_scooter", "lon": -77.019049, "bike_id": "b1307a3e94359e2d56eba3cba70a4e17", "fusion_lat": 0.0, "name": "b1307a3e94359e2d56eba3cba70a4e17", "is_reserved": 0, "rental_uris": {"android": "https://dc.lft.to/lastmile_qr_scan", "ios": "https://dc.lft.to/lastmile_qr_scan"}, "fusion_lon": 0.0}, {"lat": 38.903697666666666, "is_disabled": 0, "type": "electric_scooter", "lon": -77.02208033333334, "bike_id": "a1dc6875b2f1e37d069ed8a947b7f90c", "fusion_lat": 0.0, "name": "a1dc6875b2f1e37d069ed8a947b7f90c", "is_reserved": 0, "rental_uris": {"android": "https://dc.lft.to/lastmile_qr_scan", "ios": "https://dc.lft.to/lastmile_qr_scan"}, "fusion_lon": 0.0}, {"lat": 38.90484566666667, "is_disabled": 0, "type": "electric_scooter", "lon": -76.987196, "bike_id": "359c8caa1be25c4bf8a63079bd7f7fcb", "fusion_lat": 0.0, "name": "359c8caa1be25c4bf8a63079bd7f7fcb", "is_reserved": 0, "rental_uris": {"android": "https://dc.lft.to/lastmile_qr_scan", "ios": "https://dc.lft.to/lastmile_qr_scan"}, "fusion_lon": 0.0}, {"lat": 38.90583383333333, "is_disabled": 0, "type": "electric_scooter", "lon": -77.040391, "bike_id": "dd39be4a9400c49894704ee1bc49ee68", "fusion_lat": 0.0, "name": "dd39be4a9400c49894704ee1bc49ee68", "is_reserved": 0, "rental_uris": {"android": "https://dc.lft.to/lastmile_qr_scan", "ios": "https://dc.lft.to/lastmile_qr_scan"}, "fusion_lon": 0.0}, {"lat": 38.919947, "is_disabled": 0, "type": "electric_scooter", "lon": -77.021625, "bike_id": "1267e3d449d089136f58d8fdc6494b2a", "fusion_lat": 0.0, "name": "1267e3d449d089136f58d8fdc6494b2a", "is_reserved": 0, "rental_uris": {"android": "https://dc.lft.to/lastmile_qr_scan", "ios": "https://dc.lft.to/lastmile_qr_scan"}, "fusion_lon": 0.0}, {"lat": 38.88252516666667, "is_disabled": 0, "type": "electric_scooter", "lon": -76.98833483333334, "bike_id": "162d9125bf24eeb986d48fb39f368256", "fusion_lat": 0.0, "name": "162d9125bf24eeb986d48fb39f368256", "is_reserved": 0, "rental_uris": {"android": "https://dc.lft.to/lastmile_qr_scan", "ios": "https://dc.lft.to/lastmile_qr_scan"}, "fusion_lon": 0.0}, {"lat": 38.91058183333333, "is_disabled": 0, "type": "electric_scooter", "lon": -77.029303, "bike_id": "ee390a01be5553c7691930748b3f8742", "fusion_lat": 0.0, "name": "ee390a01be5553c7691930748b3f8742", "is_reserved": 0, "rental_uris": {"android": "https://dc.lft.to/lastmile_qr_scan", "ios": "https://dc.lft.to/lastmile_qr_scan"}, "fusion_lon": 0.0}, {"lat": 38.94242666666667, "is_disabled": 0, "type": "electric_scooter", "lon": -77.035927, "bike_id": "1f097df48fab7db82916aef6f21b5ea7", "fusion_lat": 0.0, "name": "1f097df48fab7db82916aef6f21b5ea7", "is_reserved": 0, "rental_uris": {"android": "https://dc.lft.to/lastmile_qr_scan", "ios": "https://dc.lft.to/lastmile_qr_scan"}, "fusion_lon": 0.0}, {"lat": 38.9297855, "is_disabled": 0, "type": "electric_scooter", "lon": -77.03831516666666, "bike_id": "bdf34567211bbe4ad2acaddc7d2cbd33", "fusion_lat": 0.0, "name": "bdf34567211bbe4ad2acaddc7d2cbd33", "is_reserved": 0, "rental_uris": {"android": "https://dc.lft.to/lastmile_qr_scan", "ios": "https://dc.lft.to/lastmile_qr_scan"}, "fusion_lon": 0.0}, {"lat": 38.89489366666667, "is_disabled": 0, "type": "electric_scooter", "lon": -77.00207783333333, "bike_id": "81f321118d504b549bb24559dd4a39d6", "fusion_lat": 0.0, "name": "81f321118d504b549bb24559dd4a39d6", "is_reserved": 0, "rental_uris": {"android": "https://dc.lft.to/lastmile_qr_scan", "ios": "https://dc.lft.to/lastmile_qr_scan"}, "fusion_lon": 0.0}, {"lat": 38.90373833333334, "is_disabled": 0, "type": "electric_scooter", "lon": -77.04105166666666, "bike_id": "bf3965d887cdabfd1e58333cae0cdfd0", "fusion_lat": 0.0, "name": "bf3965d887cdabfd1e58333cae0cdfd0", "is_reserved": 0, "rental_uris": {"android": "https://dc.lft.to/lastmile_qr_scan", "ios": "https://dc.lft.to/lastmile_qr_scan"}, "fusion_lon": 0.0}, {"lat": 38.90501833333333, "is_disabled": 0, "type": "electric_scooter", "lon": -77.04477616666667, "bike_id": "bba6c1e3a1c74c8e2669ce5a8e72fc92", "fusion_lat": 0.0, "name": "bba6c1e3a1c74c8e2669ce5a8e72fc92", "is_reserved": 0, "rental_uris": {"android": "https://dc.lft.to/lastmile_qr_scan", "ios": "https://dc.lft.to/lastmile_qr_scan"}, "fusion_lon": 0.0}, {"lat": 38.93608116666667, "is_disabled": 0, "type": "electric_scooter", "lon": -77.05643666666667, "bike_id": "6c45026068a83188820209984622c7b9", "fusion_lat": 0.0, "name": "6c45026068a83188820209984622c7b9", "is_reserved": 0, "rental_uris": {"android": "https://dc.lft.to/lastmile_qr_scan", "ios": "https://dc.lft.to/lastmile_qr_scan"}, "fusion_lon": 0.0}, {"lat": 38.91395766666667, "is_disabled": 0, "type": "electric_scooter", "lon": -77.03188783333333, "bike_id": "4d10e8c9aa5e4e4d6b52471e126fc89b", "fusion_lat": 0.0, "name": "4d10e8c9aa5e4e4d6b52471e126fc89b", "is_reserved": 0, "rental_uris": {"android": "https://dc.lft.to/lastmile_qr_scan", "ios": "https://dc.lft.to/lastmile_qr_scan"}, "fusion_lon": 0.0}, {"lat": 38.91704216666667, "is_disabled": 0, "type": "electric_scooter", "lon": -77.0402565, "bike_id": "8aa63fa93209af570c8711645c84c085", "fusion_lat": 0.0, "name": "8aa63fa93209af570c8711645c84c085", "is_reserved": 0, "rental_uris": {"android": "https://dc.lft.to/lastmile_qr_scan", "ios": "https://dc.lft.to/lastmile_qr_scan"}, "fusion_lon": 0.0}, {"lat": 38.938707666666666, "is_disabled": 0, "type": "electric_scooter", "lon": -77.03226433333333, "bike_id": "11446725805a32d7389260a3a86b2e73", "fusion_lat": 0.0, "name": "11446725805a32d7389260a3a86b2e73", "is_reserved": 0, "rental_uris": {"android": "https://dc.lft.to/lastmile_qr_scan", "ios": "https://dc.lft.to/lastmile_qr_scan"}, "fusion_lon": 0.0}, {"lat": 38.91172983333333, "is_disabled": 0, "type": "electric_scooter", "lon": -77.03865466666667, "bike_id": "dec6565f8c21556e81ab7a5f8748f57b", "fusion_lat": 0.0, "name": "dec6565f8c21556e81ab7a5f8748f57b", "is_reserved": 0, "rental_uris": {"android": "https://dc.lft.to/lastmile_qr_scan", "ios": "https://dc.lft.to/lastmile_qr_scan"}, "fusion_lon": 0.0}, {"lat": 38.90419583333333, "is_disabled": 0, "type": "electric_scooter", "lon": -77.02414533333334, "bike_id": "4ccbbe1d991b7963770c0deba3a422b9", "fusion_lat": 0.0, "name": "4ccbbe1d991b7963770c0deba3a422b9", "is_reserved": 0, "rental_uris": {"android": "https://dc.lft.to/lastmile_qr_scan", "ios": "https://dc.lft.to/lastmile_qr_scan"}, "fusion_lon": 0.0}, {"lat": 38.916973666666664, "is_disabled": 0, "type": "electric_scooter", "lon": -77.02390733333333, "bike_id": "88c3c2fbdd35bdd1722533067e749293", "fusion_lat": 0.0, "name": "88c3c2fbdd35bdd1722533067e749293", "is_reserved": 0, "rental_uris": {"android": "https://dc.lft.to/lastmile_qr_scan", "ios": "https://dc.lft.to/lastmile_qr_scan"}, "fusion_lon": 0.0}, {"lat": 38.886148666666664, "is_disabled": 0, "type": "electric_scooter", "lon": -77.02171916666667, "bike_id": "8ad4037afba1d6228616d2ee7aaec51c", "fusion_lat": 0.0, "name": "8ad4037afba1d6228616d2ee7aaec51c", "is_reserved": 0, "rental_uris": {"android": "https://dc.lft.to/lastmile_qr_scan", "ios": "https://dc.lft.to/lastmile_qr_scan"}, "fusion_lon": 0.0}, {"lat": 38.89849483333333, "is_disabled": 0, "type": "electric_bike", "lon": -76.93194233333334, "bike_id": "7ad9f32459d07e6b753254752a4432c6", "fusion_lat": 0.0, "name": "7ad9f32459d07e6b753254752a4432c6", "is_reserved": 0, "rental_uris": {"android": "https://dc.lft.to/lastmile_qr_scan", "ios": "https://dc.lft.to/lastmile_qr_scan"}, "fusion_lon": 0.0}, {"lat": 38.901079833333334, "is_disabled": 0, "type": "electric_scooter", "lon": -77.059073, "bike_id": "cb50884b8581d65a43ce039c661d7865", "fusion_lat": 0.0, "name": "cb50884b8581d65a43ce039c661d7865", "is_reserved": 0, "rental_uris": {"android": "https://dc.lft.to/lastmile_qr_scan", "ios": "https://dc.lft.to/lastmile_qr_scan"}, "fusion_lon": 0.0}, {"lat": 38.971930666666665, "is_disabled": 0, "type": "electric_bike", "lon": -77.027244, "bike_id": "be0de4c43b3a990ee10debd9d8d7f7cb", "fusion_lat": 0.0, "name": "be0de4c43b3a990ee10debd9d8d7f7cb", "is_reserved": 0, "rental_uris": {"android": "https://dc.lft.to/lastmile_qr_scan", "ios": "https://dc.lft.to/lastmile_qr_scan"}, "fusion_lon": 0.0}, {"lat": 38.924238333333335, "is_disabled": 0, "type": "electric_scooter", "lon": -77.05190733333333, "bike_id": "7af1f536e9be466651ea651efed79aaf", "fusion_lat": 0.0, "name": "7af1f536e9be466651ea651efed79aaf", "is_reserved": 0, "rental_uris": {"android": "https://dc.lft.to/lastmile_qr_scan", "ios": "https://dc.lft.to/lastmile_qr_scan"}, "fusion_lon": 0.0}, {"lat": 38.912629833333334, "is_disabled": 0, "type": "electric_scooter", "lon": -77.039388, "bike_id": "8a4eedba49358e750ec41000dc234030", "fusion_lat": 0.0, "name": "8a4eedba49358e750ec41000dc234030", "is_reserved": 0, "rental_uris": {"android": "https://dc.lft.to/lastmile_qr_scan", "ios": "https://dc.lft.to/lastmile_qr_scan"}, "fusion_lon": 0.0}, {"lat": 38.90969583333333, "is_disabled": 0, "type": "electric_scooter", "lon": -77.00925316666667, "bike_id": "ef2ced0f3f278c197cac82d27867205a", "fusion_lat": 0.0, "name": "ef2ced0f3f278c197cac82d27867205a", "is_reserved": 0, "rental_uris": {"android": "https://dc.lft.to/lastmile_qr_scan", "ios": "https://dc.lft.to/lastmile_qr_scan"}, "fusion_lon": 0.0}, {"lat": 38.889799333333336, "is_disabled": 0, "type": "electric_bike", "lon": -77.07141616666667, "bike_id": "e5bc3c72608153ee4fc992797b15d7d0", "fusion_lat": 0.0, "name": "e5bc3c72608153ee4fc992797b15d7d0", "is_reserved": 0, "rental_uris": {"android": "https://dc.lft.to/lastmile_qr_scan", "ios": "https://dc.lft.to/lastmile_qr_scan"}, "fusion_lon": 0.0}, {"lat": 38.90563, "is_disabled": 0, "type": "electric_scooter", "lon": -77.03420916666667, "bike_id": "ee092c7fda17670fd4dcc92743c85268", "fusion_lat": 0.0, "name": "ee092c7fda17670fd4dcc92743c85268", "is_reserved": 0, "rental_uris": {"android": "https://dc.lft.to/lastmile_qr_scan", "ios": "https://dc.lft.to/lastmile_qr_scan"}, "fusion_lon": 0.0}, {"lat": 38.908646833333336, "is_disabled": 0, "type": "electric_scooter", "lon": -77.02403633333333, "bike_id": "3d0fa03ce1d871b64d579ccc7efb4131", "fusion_lat": 0.0, "name": "3d0fa03ce1d871b64d579ccc7efb4131", "is_reserved": 0, "rental_uris": {"android": "https://dc.lft.to/lastmile_qr_scan", "ios": "https://dc.lft.to/lastmile_qr_scan"}, "fusion_lon": 0.0}, {"lat": 38.89342333333333, "is_disabled": 0, "type": "electric_scooter", "lon": -76.949401, "bike_id": "69cb116df1adb588735f10384b8531a6", "fusion_lat": 0.0, "name": "69cb116df1adb588735f10384b8531a6", "is_reserved": 0, "rental_uris": {"android": "https://dc.lft.to/lastmile_qr_scan", "ios": "https://dc.lft.to/lastmile_qr_scan"}, "fusion_lon": 0.0}, {"lat": 38.870898833333335, "is_disabled": 0, "type": "electric_scooter", "lon": -77.01188516666667, "bike_id": "3aa46fd4a0427d54261478042a54e273", "fusion_lat": 0.0, "name": "3aa46fd4a0427d54261478042a54e273", "is_reserved": 0, "rental_uris": {"android": "https://dc.lft.to/lastmile_qr_scan", "ios": "https://dc.lft.to/lastmile_qr_scan"}, "fusion_lon": 0.0}, {"lat": 38.90768583333333, "is_disabled": 0, "type": "electric_scooter", "lon": -77.0434315, "bike_id": "f456a1366f940fb6133e5b12bf0bdabe", "fusion_lat": 0.0, "name": "f456a1366f940fb6133e5b12bf0bdabe", "is_reserved": 0, "rental_uris": {"android": "https://dc.lft.to/lastmile_qr_scan", "ios": "https://dc.lft.to/lastmile_qr_scan"}, "fusion_lon": 0.0}, {"lat": 38.905488, "is_disabled": 0, "type": "electric_scooter", "lon": -77.019988, "bike_id": "e50d273dfb848fd74f22834d8780a718", "fusion_lat": 0.0, "name": "e50d273dfb848fd74f22834d8780a718", "is_reserved": 0, "rental_uris": {"android": "https://dc.lft.to/lastmile_qr_scan", "ios": "https://dc.lft.to/lastmile_qr_scan"}, "fusion_lon": 0.0}, {"lat": 38.86369883333333, "is_disabled": 0, "type": "electric_scooter", "lon": -76.99061683333333, "bike_id": "887817ef08e0b3f4210b24c53a679dde", "fusion_lat": 0.0, "name": "887817ef08e0b3f4210b24c53a679dde", "is_reserved": 0, "rental_uris": {"android": "https://dc.lft.to/lastmile_qr_scan", "ios": "https://dc.lft.to/lastmile_qr_scan"}, "fusion_lon": 0.0}, {"lat": 38.913490333333336, "is_disabled": 0, "type": "electric_scooter", "lon": -77.03184566666667, "bike_id": "c1b24c8c999bbc84c8a3649b96af13dd", "fusion_lat": 0.0, "name": "c1b24c8c999bbc84c8a3649b96af13dd", "is_reserved": 0, "rental_uris": {"android": "https://dc.lft.to/lastmile_qr_scan", "ios": "https://dc.lft.to/lastmile_qr_scan"}, "fusion_lon": 0.0}, {"lat": 38.951854166666664, "is_disabled": 0, "type": "electric_bike", "lon": -76.935507, "bike_id": "dc46ec0efc3bf92f2904073d4fe9098d", "fusion_lat": 0.0, "name": "dc46ec0efc3bf92f2904073d4fe9098d", "is_reserved": 0, "rental_uris": {"android": "https://dc.lft.to/lastmile_qr_scan", "ios": "https://dc.lft.to/lastmile_qr_scan"}, "fusion_lon": 0.0}, {"lat": 38.87968733333334, "is_disabled": 0, "type": "electric_bike", "lon": -77.10704416666667, "bike_id": "b2ed69a46f1da914cc35589ec8a68dbf", "fusion_lat": 0.0, "name": "b2ed69a46f1da914cc35589ec8a68dbf", "is_reserved": 0, "rental_uris": {"android": "https://dc.lft.to/lastmile_qr_scan", "ios": "https://dc.lft.to/lastmile_qr_scan"}, "fusion_lon": 0.0}, {"lat": 38.91710066666667, "is_disabled": 0, "type": "electric_scooter", "lon": -77.0387385, "bike_id": "2b59211422c811612a009a3c9a938db5", "fusion_lat": 0.0, "name": "2b59211422c811612a009a3c9a938db5", "is_reserved": 0, "rental_uris": {"android": "https://dc.lft.to/lastmile_qr_scan", "ios": "https://dc.lft.to/lastmile_qr_scan"}, "fusion_lon": 0.0}, {"lat": 38.93355866666667, "is_disabled": 0, "type": "electric_scooter", "lon": -77.073786, "bike_id": "ea45a03501b3705af30b6ece10bc20eb", "fusion_lat": 0.0, "name": "ea45a03501b3705af30b6ece10bc20eb", "is_reserved": 0, "rental_uris": {"android": "https://dc.lft.to/lastmile_qr_scan", "ios": "https://dc.lft.to/lastmile_qr_scan"}, "fusion_lon": 0.0}, {"lat": 38.917062666666666, "is_disabled": 0, "type": "electric_scooter", "lon": -77.03470266666666, "bike_id": "90dce9a490093885fbd4abe77405b1bd", "fusion_lat": 0.0, "name": "90dce9a490093885fbd4abe77405b1bd", "is_reserved": 0, "rental_uris": {"android": "https://dc.lft.to/lastmile_qr_scan", "ios": "https://dc.lft.to/lastmile_qr_scan"}, "fusion_lon": 0.0}, {"lat": 38.966030333333336, "is_disabled": 0, "type": "electric_bike", "lon": -76.983315, "bike_id": "ef0b143050152f5319a6ce7191599f0c", "fusion_lat": 0.0, "name": "ef0b143050152f5319a6ce7191599f0c", "is_reserved": 0, "rental_uris": {"android": "https://dc.lft.to/lastmile_qr_scan", "ios": "https://dc.lft.to/lastmile_qr_scan"}, "fusion_lon": 0.0}, {"lat": 38.89249233333334, "is_disabled": 0, "type": "electric_scooter", "lon": -77.04896216666667, "bike_id": "fb5fb7cf8b3b791e49209d2812463cab", "fusion_lat": 0.0, "name": "fb5fb7cf8b3b791e49209d2812463cab", "is_reserved": 0, "rental_uris": {"android": "https://dc.lft.to/lastmile_qr_scan", "ios": "https://dc.lft.to/lastmile_qr_scan"}, "fusion_lon": 0.0}, {"lat": 38.92316783333333, "is_disabled": 0, "type": "electric_scooter", "lon": -77.029828, "bike_id": "dfd5bfb8e73b37e53fd480ff70707573", "fusion_lat": 0.0, "name": "dfd5bfb8e73b37e53fd480ff70707573", "is_reserved": 0, "rental_uris": {"android": "https://dc.lft.to/lastmile_qr_scan", "ios": "https://dc.lft.to/lastmile_qr_scan"}, "fusion_lon": 0.0}, {"lat": 38.92068616666667, "is_disabled": 0, "type": "electric_scooter", "lon": -77.02499216666666, "bike_id": "50dba90220ad33fe4d2f778fe32f94c5", "fusion_lat": 0.0, "name": "50dba90220ad33fe4d2f778fe32f94c5", "is_reserved": 0, "rental_uris": {"android": "https://dc.lft.to/lastmile_qr_scan", "ios": "https://dc.lft.to/lastmile_qr_scan"}, "fusion_lon": 0.0}, {"lat": 38.93817766666667, "is_disabled": 0, "type": "electric_scooter", "lon": -77.06048266666667, "bike_id": "72a700f1bd60ee90bd1cdd1b393dc139", "fusion_lat": 0.0, "name": "72a700f1bd60ee90bd1cdd1b393dc139", "is_reserved": 0, "rental_uris": {"android": "https://dc.lft.to/lastmile_qr_scan", "ios": "https://dc.lft.to/lastmile_qr_scan"}, "fusion_lon": 0.0}, {"lat": 38.898380833333334, "is_disabled": 0, "type": "electric_scooter", "lon": -76.93106666666667, "bike_id": "80f56160d80517c3de88436dde6e3f8f", "fusion_lat": 0.0, "name": "80f56160d80517c3de88436dde6e3f8f", "is_reserved": 0, "rental_uris": {"android": "https://dc.lft.to/lastmile_qr_scan", "ios": "https://dc.lft.to/lastmile_qr_scan"}, "fusion_lon": 0.0}, {"lat": 38.9056915, "is_disabled": 0, "type": "electric_scooter", "lon": -77.0329415, "bike_id": "bc5f18509b5d70d3cccfec47cbb8e1c7", "fusion_lat": 0.0, "name": "bc5f18509b5d70d3cccfec47cbb8e1c7", "is_reserved": 0, "rental_uris": {"android": "https://dc.lft.to/lastmile_qr_scan", "ios": "https://dc.lft.to/lastmile_qr_scan"}, "fusion_lon": 0.0}, {"lat": 38.9282555, "is_disabled": 0, "type": "electric_scooter", "lon": -77.03738633333333, "bike_id": "7fbc4675172e145d878bb4835159927f", "fusion_lat": 0.0, "name": "7fbc4675172e145d878bb4835159927f", "is_reserved": 0, "rental_uris": {"android": "https://dc.lft.to/lastmile_qr_scan", "ios": "https://dc.lft.to/lastmile_qr_scan"}, "fusion_lon": 0.0}, {"lat": 38.91774133333333, "is_disabled": 0, "type": "electric_scooter", "lon": -77.04108166666667, "bike_id": "200c65ee98979a2f429bf0c821b03b3e", "fusion_lat": 0.0, "name": "200c65ee98979a2f429bf0c821b03b3e", "is_reserved": 0, "rental_uris": {"android": "https://dc.lft.to/lastmile_qr_scan", "ios": "https://dc.lft.to/lastmile_qr_scan"}, "fusion_lon": 0.0}, {"lat": 38.8772945, "is_disabled": 0, "type": "electric_bike", "lon": -76.9810975, "bike_id": "2760f0c9315b673011e7c0e1bdc96c6c", "fusion_lat": 0.0, "name": "2760f0c9315b673011e7c0e1bdc96c6c", "is_reserved": 0, "rental_uris": {"android": "https://dc.lft.to/lastmile_qr_scan", "ios": "https://dc.lft.to/lastmile_qr_scan"}, "fusion_lon": 0.0}, {"lat": 38.874703333333336, "is_disabled": 0, "type": "electric_scooter", "lon": -77.01074566666666, "bike_id": "097be9643231227d640209188238e06c", "fusion_lat": 0.0, "name": "097be9643231227d640209188238e06c", "is_reserved": 0, "rental_uris": {"android": "https://dc.lft.to/lastmile_qr_scan", "ios": "https://dc.lft.to/lastmile_qr_scan"}, "fusion_lon": 0.0}, {"lat": 38.89948366666667, "is_disabled": 0, "type": "electric_scooter", "lon": -77.0517455, "bike_id": "1870270d40855380b2a001954e526fb7", "fusion_lat": 0.0, "name": "1870270d40855380b2a001954e526fb7", "is_reserved": 0, "rental_uris": {"android": "https://dc.lft.to/lastmile_qr_scan", "ios": "https://dc.lft.to/lastmile_qr_scan"}, "fusion_lon": 0.0}, {"lat": 38.915655666666666, "is_disabled": 0, "type": "electric_scooter", "lon": -77.03315583333334, "bike_id": "700175c3d76300f93bba38074fc5241d", "fusion_lat": 0.0, "name": "700175c3d76300f93bba38074fc5241d", "is_reserved": 0, "rental_uris": {"android": "https://dc.lft.to/lastmile_qr_scan", "ios": "https://dc.lft.to/lastmile_qr_scan"}, "fusion_lon": 0.0}, {"lat": 38.90259266666666, "is_disabled": 0, "type": "electric_scooter", "lon": -77.02829533333333, "bike_id": "e3bb50fcf3eea96be2b50e90eb05437a", "fusion_lat": 0.0, "name": "e3bb50fcf3eea96be2b50e90eb05437a", "is_reserved": 0, "rental_uris": {"android": "https://dc.lft.to/lastmile_qr_scan", "ios": "https://dc.lft.to/lastmile_qr_scan"}, "fusion_lon": 0.0}, {"lat": 38.91465, "is_disabled": 0, "type": "electric_scooter", "lon": -77.01793466666666, "bike_id": "8b7e183ebd0161de7eb94ac198ccdf58", "fusion_lat": 0.0, "name": "8b7e183ebd0161de7eb94ac198ccdf58", "is_reserved": 0, "rental_uris": {"android": "https://dc.lft.to/lastmile_qr_scan", "ios": "https://dc.lft.to/lastmile_qr_scan"}, "fusion_lon": 0.0}, {"lat": 38.881601333333336, "is_disabled": 0, "type": "electric_scooter", "lon": -76.994899, "bike_id": "d265aa2bc1c879f4d64cb56348d6d93e", "fusion_lat": 0.0, "name": "d265aa2bc1c879f4d64cb56348d6d93e", "is_reserved": 0, "rental_uris": {"android": "https://dc.lft.to/lastmile_qr_scan", "ios": "https://dc.lft.to/lastmile_qr_scan"}, "fusion_lon": 0.0}, {"lat": 38.903692666666664, "is_disabled": 0, "type": "electric_scooter", "lon": -77.04848883333334, "bike_id": "6064d186735a9f54c2eec6df065d63a7", "fusion_lat": 0.0, "name": "6064d186735a9f54c2eec6df065d63a7", "is_reserved": 0, "rental_uris": {"android": "https://dc.lft.to/lastmile_qr_scan", "ios": "https://dc.lft.to/lastmile_qr_scan"}, "fusion_lon": 0.0}, {"lat": 38.910497666666664, "is_disabled": 0, "type": "electric_scooter", "lon": -77.01526716666666, "bike_id": "a515fc51ca0ad18e6b1d391f3c5a3084", "fusion_lat": 0.0, "name": "a515fc51ca0ad18e6b1d391f3c5a3084", "is_reserved": 0, "rental_uris": {"android": "https://dc.lft.to/lastmile_qr_scan", "ios": "https://dc.lft.to/lastmile_qr_scan"}, "fusion_lon": 0.0}, {"lat": 38.907785, "is_disabled": 0, "type": "electric_scooter", "lon": -77.00352733333334, "bike_id": "ad64007442fff8f006dad70d165624fd", "fusion_lat": 0.0, "name": "ad64007442fff8f006dad70d165624fd", "is_reserved": 0, "rental_uris": {"android": "https://dc.lft.to/lastmile_qr_scan", "ios": "https://dc.lft.to/lastmile_qr_scan"}, "fusion_lon": 0.0}, {"lat": 38.90147266666666, "is_disabled": 0, "type": "electric_scooter", "lon": -77.03983666666667, "bike_id": "10f63d8e84103a0520762a32f9454878", "fusion_lat": 0.0, "name": "10f63d8e84103a0520762a32f9454878", "is_reserved": 0, "rental_uris": {"android": "https://dc.lft.to/lastmile_qr_scan", "ios": "https://dc.lft.to/lastmile_qr_scan"}, "fusion_lon": 0.0}, {"lat": 38.92630283333333, "is_disabled": 0, "type": "electric_scooter", "lon": -77.03787066666666, "bike_id": "7a3e65f48e86503412d44f8bc388bb70", "fusion_lat": 0.0, "name": "7a3e65f48e86503412d44f8bc388bb70", "is_reserved": 0, "rental_uris": {"android": "https://dc.lft.to/lastmile_qr_scan", "ios": "https://dc.lft.to/lastmile_qr_scan"}, "fusion_lon": 0.0}, {"lat": 38.9010265, "is_disabled": 0, "type": "electric_scooter", "lon": -77.05910516666667, "bike_id": "f92449f4d4d0406d63962c3970d646c5", "fusion_lat": 0.0, "name": "f92449f4d4d0406d63962c3970d646c5", "is_reserved": 0, "rental_uris": {"android": "https://dc.lft.to/lastmile_qr_scan", "ios": "https://dc.lft.to/lastmile_qr_scan"}, "fusion_lon": 0.0}, {"lat": 38.916928, "is_disabled": 0, "type": "electric_scooter", "lon": -77.04611083333333, "bike_id": "bb49519454638a8d53141333b427e0ca", "fusion_lat": 0.0, "name": "bb49519454638a8d53141333b427e0ca", "is_reserved": 0, "rental_uris": {"android": "https://dc.lft.to/lastmile_qr_scan", "ios": "https://dc.lft.to/lastmile_qr_scan"}, "fusion_lon": 0.0}, {"lat": 38.91551, "is_disabled": 0, "type": "electric_scooter", "lon": -77.03153616666667, "bike_id": "402e6a81fbe5ff66c82530723dc43bb5", "fusion_lat": 0.0, "name": "402e6a81fbe5ff66c82530723dc43bb5", "is_reserved": 0, "rental_uris": {"android": "https://dc.lft.to/lastmile_qr_scan", "ios": "https://dc.lft.to/lastmile_qr_scan"}, "fusion_lon": 0.0}, {"lat": 38.840929833333334, "is_disabled": 0, "type": "electric_bike", "lon": -77.08931033333333, "bike_id": "79c2a48e97095e07041dcbd6f2c0b7c1", "fusion_lat": 0.0, "name": "79c2a48e97095e07041dcbd6f2c0b7c1", "is_reserved": 0, "rental_uris": {"android": "https://dc.lft.to/lastmile_qr_scan", "ios": "https://dc.lft.to/lastmile_qr_scan"}, "fusion_lon": 0.0}, {"lat": 38.92239133333333, "is_disabled": 0, "type": "electric_scooter", "lon": -77.03672583333334, "bike_id": "4930caedd568d80dd4e2cee83166dead", "fusion_lat": 0.0, "name": "4930caedd568d80dd4e2cee83166dead", "is_reserved": 0, "rental_uris": {"android": "https://dc.lft.to/lastmile_qr_scan", "ios": "https://dc.lft.to/lastmile_qr_scan"}, "fusion_lon": 0.0}, {"lat": 38.923014, "is_disabled": 0, "type": "electric_scooter", "lon": -77.02334983333333, "bike_id": "1f9e5b876c02ee9a87f6f61c4be7917e", "fusion_lat": 0.0, "name": "1f9e5b876c02ee9a87f6f61c4be7917e", "is_reserved": 0, "rental_uris": {"android": "https://dc.lft.to/lastmile_qr_scan", "ios": "https://dc.lft.to/lastmile_qr_scan"}, "fusion_lon": 0.0}, {"lat": 38.881621333333335, "is_disabled": 0, "type": "electric_scooter", "lon": -77.028244, "bike_id": "85ef3e5b2e4a936e1d513c054d88b675", "fusion_lat": 0.0, "name": "85ef3e5b2e4a936e1d513c054d88b675", "is_reserved": 0, "rental_uris": {"android": "https://dc.lft.to/lastmile_qr_scan", "ios": "https://dc.lft.to/lastmile_qr_scan"}, "fusion_lon": 0.0}, {"lat": 38.90029116666667, "is_disabled": 0, "type": "electric_scooter", "lon": -77.00199633333334, "bike_id": "25e4435cf1e82beb85cf3b8c88dd0737", "fusion_lat": 0.0, "name": "25e4435cf1e82beb85cf3b8c88dd0737", "is_reserved": 0, "rental_uris": {"android": "https://dc.lft.to/lastmile_qr_scan", "ios": "https://dc.lft.to/lastmile_qr_scan"}, "fusion_lon": 0.0}, {"lat": 38.88179066666667, "is_disabled": 0, "type": "electric_scooter", "lon": -77.02840883333333, "bike_id": "11f2083721a166fcd02342d04848e860", "fusion_lat": 0.0, "name": "11f2083721a166fcd02342d04848e860", "is_reserved": 0, "rental_uris": {"android": "https://dc.lft.to/lastmile_qr_scan", "ios": "https://dc.lft.to/lastmile_qr_scan"}, "fusion_lon": 0.0}, {"lat": 38.95062016666667, "is_disabled": 0, "type": "electric_scooter", "lon": -77.0665375, "bike_id": "bfedc71efbc357b24eaa5b5d6f47a442", "fusion_lat": 0.0, "name": "bfedc71efbc357b24eaa5b5d6f47a442", "is_reserved": 0, "rental_uris": {"android": "https://dc.lft.to/lastmile_qr_scan", "ios": "https://dc.lft.to/lastmile_qr_scan"}, "fusion_lon": 0.0}, {"lat": 38.87627283333333, "is_disabled": 0, "type": "electric_scooter", "lon": -76.96533683333334, "bike_id": "dfabe6d94d104fa8d5a75541f2facffb", "fusion_lat": 0.0, "name": "dfabe6d94d104fa8d5a75541f2facffb", "is_reserved": 0, "rental_uris": {"android": "https://dc.lft.to/lastmile_qr_scan", "ios": "https://dc.lft.to/lastmile_qr_scan"}, "fusion_lon": 0.0}, {"lat": 38.890394, "is_disabled": 0, "type": "electric_scooter", "lon": -77.04774983333333, "bike_id": "7abd0c0acf39b0bed2efdcddf6088760", "fusion_lat": 0.0, "name": "7abd0c0acf39b0bed2efdcddf6088760", "is_reserved": 0, "rental_uris": {"android": "https://dc.lft.to/lastmile_qr_scan", "ios": "https://dc.lft.to/lastmile_qr_scan"}, "fusion_lon": 0.0}, {"lat": 38.90018583333333, "is_disabled": 0, "type": "electric_scooter", "lon": -77.044374, "bike_id": "a37479594ae93c6a40511e3078590766", "fusion_lat": 0.0, "name": "a37479594ae93c6a40511e3078590766", "is_reserved": 0, "rental_uris": {"android": "https://dc.lft.to/lastmile_qr_scan", "ios": "https://dc.lft.to/lastmile_qr_scan"}, "fusion_lon": 0.0}, {"lat": 38.8428925, "is_disabled": 0, "type": "electric_scooter", "lon": -76.99948533333334, "bike_id": "30c388abf1cfb53f8fabe59294875633", "fusion_lat": 0.0, "name": "30c388abf1cfb53f8fabe59294875633", "is_reserved": 0, "rental_uris": {"android": "https://dc.lft.to/lastmile_qr_scan", "ios": "https://dc.lft.to/lastmile_qr_scan"}, "fusion_lon": 0.0}, {"lat": 38.930233666666666, "is_disabled": 0, "type": "electric_scooter", "lon": -77.02355916666667, "bike_id": "d2355757291b177b20559b4634c2218d", "fusion_lat": 0.0, "name": "d2355757291b177b20559b4634c2218d", "is_reserved": 0, "rental_uris": {"android": "https://dc.lft.to/lastmile_qr_scan", "ios": "https://dc.lft.to/lastmile_qr_scan"}, "fusion_lon": 0.0}, {"lat": 38.907303166666665, "is_disabled": 0, "type": "electric_scooter", "lon": -77.04787083333333, "bike_id": "a6176b1656c328e54066be93cbc5ecc0", "fusion_lat": 0.0, "name": "a6176b1656c328e54066be93cbc5ecc0", "is_reserved": 0, "rental_uris": {"android": "https://dc.lft.to/lastmile_qr_scan", "ios": "https://dc.lft.to/lastmile_qr_scan"}, "fusion_lon": 0.0}, {"lat": 38.859901, "is_disabled": 0, "type": "electric_scooter", "lon": -76.9854205, "bike_id": "16a4600abf3751ed4d75f6abecbe4a81", "fusion_lat": 0.0, "name": "16a4600abf3751ed4d75f6abecbe4a81", "is_reserved": 0, "rental_uris": {"android": "https://dc.lft.to/lastmile_qr_scan", "ios": "https://dc.lft.to/lastmile_qr_scan"}, "fusion_lon": 0.0}, {"lat": 38.90125283333333, "is_disabled": 0, "type": "electric_scooter", "lon": -77.00333883333333, "bike_id": "d0d92f7b9fbb6912960d4d0055f7b633", "fusion_lat": 0.0, "name": "d0d92f7b9fbb6912960d4d0055f7b633", "is_reserved": 0, "rental_uris": {"android": "https://dc.lft.to/lastmile_qr_scan", "ios": "https://dc.lft.to/lastmile_qr_scan"}, "fusion_lon": 0.0}, {"lat": 38.91365866666666, "is_disabled": 0, "type": "electric_scooter", "lon": -77.03213783333334, "bike_id": "806ab2d299ce88999f00885c15b95e3c", "fusion_lat": 0.0, "name": "806ab2d299ce88999f00885c15b95e3c", "is_reserved": 0, "rental_uris": {"android": "https://dc.lft.to/lastmile_qr_scan", "ios": "https://dc.lft.to/lastmile_qr_scan"}, "fusion_lon": 0.0}, {"lat": 38.89611816666667, "is_disabled": 0, "type": "electric_scooter", "lon": -76.95659483333333, "bike_id": "360cdf241dfe45e489b80a622acae5aa", "fusion_lat": 0.0, "name": "360cdf241dfe45e489b80a622acae5aa", "is_reserved": 0, "rental_uris": {"android": "https://dc.lft.to/lastmile_qr_scan", "ios": "https://dc.lft.to/lastmile_qr_scan"}, "fusion_lon": 0.0}, {"lat": 38.87401933333334, "is_disabled": 0, "type": "electric_scooter", "lon": -77.01456233333333, "bike_id": "cde4f7999678a7b02e696ada117e0bf3", "fusion_lat": 0.0, "name": "cde4f7999678a7b02e696ada117e0bf3", "is_reserved": 0, "rental_uris": {"android": "https://dc.lft.to/lastmile_qr_scan", "ios": "https://dc.lft.to/lastmile_qr_scan"}, "fusion_lon": 0.0}, {"lat": 38.88130833333334, "is_disabled": 0, "type": "electric_scooter", "lon": -77.01652133333333, "bike_id": "c1363793185dc7f8c65a42c34d48bdae", "fusion_lat": 0.0, "name": "c1363793185dc7f8c65a42c34d48bdae", "is_reserved": 0, "rental_uris": {"android": "https://dc.lft.to/lastmile_qr_scan", "ios": "https://dc.lft.to/lastmile_qr_scan"}, "fusion_lon": 0.0}, {"lat": 38.94906316666667, "is_disabled": 0, "type": "electric_scooter", "lon": -77.06638416666667, "bike_id": "5f74092e77aa8f18c8c5852ca9bc1fdd", "fusion_lat": 0.0, "name": "5f74092e77aa8f18c8c5852ca9bc1fdd", "is_reserved": 0, "rental_uris": {"android": "https://dc.lft.to/lastmile_qr_scan", "ios": "https://dc.lft.to/lastmile_qr_scan"}, "fusion_lon": 0.0}, {"lat": 38.8863095, "is_disabled": 0, "type": "electric_scooter", "lon": -77.023137, "bike_id": "c6916823ceda44b20265e3dc716ee712", "fusion_lat": 0.0, "name": "c6916823ceda44b20265e3dc716ee712", "is_reserved": 0, "rental_uris": {"android": "https://dc.lft.to/lastmile_qr_scan", "ios": "https://dc.lft.to/lastmile_qr_scan"}, "fusion_lon": 0.0}, {"lat": 38.9208605, "is_disabled": 0, "type": "electric_scooter", "lon": -77.031573, "bike_id": "2e3d42bb660fed9fbe05424d31aa85f1", "fusion_lat": 0.0, "name": "2e3d42bb660fed9fbe05424d31aa85f1", "is_reserved": 0, "rental_uris": {"android": "https://dc.lft.to/lastmile_qr_scan", "ios": "https://dc.lft.to/lastmile_qr_scan"}, "fusion_lon": 0.0}, {"lat": 38.911041, "is_disabled": 0, "type": "electric_scooter", "lon": -77.0217805, "bike_id": "79a353f50aa7e6ead7f24152be56ee4b", "fusion_lat": 0.0, "name": "79a353f50aa7e6ead7f24152be56ee4b", "is_reserved": 0, "rental_uris": {"android": "https://dc.lft.to/lastmile_qr_scan", "ios": "https://dc.lft.to/lastmile_qr_scan"}, "fusion_lon": 0.0}, {"lat": 38.85314566666667, "is_disabled": 0, "type": "electric_scooter", "lon": -76.98027316666666, "bike_id": "0af83e0174e2f65c4b4ccf3f08212d43", "fusion_lat": 0.0, "name": "0af83e0174e2f65c4b4ccf3f08212d43", "is_reserved": 0, "rental_uris": {"android": "https://dc.lft.to/lastmile_qr_scan", "ios": "https://dc.lft.to/lastmile_qr_scan"}, "fusion_lon": 0.0}, {"lat": 38.88375283333333, "is_disabled": 0, "type": "electric_scooter", "lon": -77.04609866666667, "bike_id": "51aaa80a8e9bc0932f27c653e39c0aab", "fusion_lat": 0.0, "name": "51aaa80a8e9bc0932f27c653e39c0aab", "is_reserved": 0, "rental_uris": {"android": "https://dc.lft.to/lastmile_qr_scan", "ios": "https://dc.lft.to/lastmile_qr_scan"}, "fusion_lon": 0.0}, {"lat": 38.9182275, "is_disabled": 0, "type": "electric_scooter", "lon": -77.031674, "bike_id": "8966a4973b02e621d935090c6e5110e2", "fusion_lat": 0.0, "name": "8966a4973b02e621d935090c6e5110e2", "is_reserved": 0, "rental_uris": {"android": "https://dc.lft.to/lastmile_qr_scan", "ios": "https://dc.lft.to/lastmile_qr_scan"}, "fusion_lon": 0.0}, {"lat": 38.87774, "is_disabled": 0, "type": "electric_scooter", "lon": -76.99510316666667, "bike_id": "aa65d192c7da6e01e8e1f7d63fa4bdd4", "fusion_lat": 0.0, "name": "aa65d192c7da6e01e8e1f7d63fa4bdd4", "is_reserved": 0, "rental_uris": {"android": "https://dc.lft.to/lastmile_qr_scan", "ios": "https://dc.lft.to/lastmile_qr_scan"}, "fusion_lon": 0.0}, {"lat": 38.930953, "is_disabled": 0, "type": "electric_scooter", "lon": -77.02437066666667, "bike_id": "b84a650fba813835bfe3e750d2fe9033", "fusion_lat": 0.0, "name": "b84a650fba813835bfe3e750d2fe9033", "is_reserved": 0, "rental_uris": {"android": "https://dc.lft.to/lastmile_qr_scan", "ios": "https://dc.lft.to/lastmile_qr_scan"}, "fusion_lon": 0.0}, {"lat": 38.96199166666667, "is_disabled": 0, "type": "electric_bike", "lon": -77.03518083333333, "bike_id": "4f8cba03e0da598e3f7f2a61469c89cf", "fusion_lat": 0.0, "name": "4f8cba03e0da598e3f7f2a61469c89cf", "is_reserved": 0, "rental_uris": {"android": "https://dc.lft.to/lastmile_qr_scan", "ios": "https://dc.lft.to/lastmile_qr_scan"}, "fusion_lon": 0.0}, {"lat": 38.9001215, "is_disabled": 0, "type": "electric_scooter", "lon": -77.033053, "bike_id": "ece7499e897cbb3b060c7115fd9b5863", "fusion_lat": 0.0, "name": "ece7499e897cbb3b060c7115fd9b5863", "is_reserved": 0, "rental_uris": {"android": "https://dc.lft.to/lastmile_qr_scan", "ios": "https://dc.lft.to/lastmile_qr_scan"}, "fusion_lon": 0.0}, {"lat": 38.9288255, "is_disabled": 0, "type": "electric_scooter", "lon": -77.03875666666667, "bike_id": "e7a5f04f4e2f24d64af2c1131e3b6f8f", "fusion_lat": 0.0, "name": "e7a5f04f4e2f24d64af2c1131e3b6f8f", "is_reserved": 0, "rental_uris": {"android": "https://dc.lft.to/lastmile_qr_scan", "ios": "https://dc.lft.to/lastmile_qr_scan"}, "fusion_lon": 0.0}, {"lat": 38.872335, "is_disabled": 0, "type": "electric_scooter", "lon": -77.01205866666666, "bike_id": "0a2572dbde162dd6e4b66b29632681e2", "fusion_lat": 0.0, "name": "0a2572dbde162dd6e4b66b29632681e2", "is_reserved": 0, "rental_uris": {"android": "https://dc.lft.to/lastmile_qr_scan", "ios": "https://dc.lft.to/lastmile_qr_scan"}, "fusion_lon": 0.0}, {"lat": 38.9261675, "is_disabled": 0, "type": "electric_scooter", "lon": -77.04406783333333, "bike_id": "fcc6b196528273cdabec7342990f8209", "fusion_lat": 0.0, "name": "fcc6b196528273cdabec7342990f8209", "is_reserved": 0, "rental_uris": {"android": "https://dc.lft.to/lastmile_qr_scan", "ios": "https://dc.lft.to/lastmile_qr_scan"}, "fusion_lon": 0.0}, {"lat": 38.937350333333335, "is_disabled": 0, "type": "electric_scooter", "lon": -77.03501133333333, "bike_id": "b7d2387b3d67707a7308090223b4bfd8", "fusion_lat": 0.0, "name": "b7d2387b3d67707a7308090223b4bfd8", "is_reserved": 0, "rental_uris": {"android": "https://dc.lft.to/lastmile_qr_scan", "ios": "https://dc.lft.to/lastmile_qr_scan"}, "fusion_lon": 0.0}, {"lat": 38.9223955, "is_disabled": 0, "type": "electric_scooter", "lon": -77.04575683333333, "bike_id": "ca510812fe6e2cf416247cdad14dc44f", "fusion_lat": 0.0, "name": "ca510812fe6e2cf416247cdad14dc44f", "is_reserved": 0, "rental_uris": {"android": "https://dc.lft.to/lastmile_qr_scan", "ios": "https://dc.lft.to/lastmile_qr_scan"}, "fusion_lon": 0.0}, {"lat": 38.915826333333335, "is_disabled": 0, "type": "electric_scooter", "lon": -77.032035, "bike_id": "ecceac9c7ee032d9f50b58bf9becb7b2", "fusion_lat": 0.0, "name": "ecceac9c7ee032d9f50b58bf9becb7b2", "is_reserved": 0, "rental_uris": {"android": "https://dc.lft.to/lastmile_qr_scan", "ios": "https://dc.lft.to/lastmile_qr_scan"}, "fusion_lon": 0.0}, {"lat": 38.91855133333333, "is_disabled": 0, "type": "electric_scooter", "lon": -77.045773, "bike_id": "dfe49f37c696c1a940d7581c7b353df7", "fusion_lat": 0.0, "name": "dfe49f37c696c1a940d7581c7b353df7", "is_reserved": 0, "rental_uris": {"android": "https://dc.lft.to/lastmile_qr_scan", "ios": "https://dc.lft.to/lastmile_qr_scan"}, "fusion_lon": 0.0}, {"lat": 38.919466166666666, "is_disabled": 0, "type": "electric_scooter", "lon": -76.98087316666667, "bike_id": "715fcfafa5b2c973c3bc7685b35844fb", "fusion_lat": 0.0, "name": "715fcfafa5b2c973c3bc7685b35844fb", "is_reserved": 0, "rental_uris": {"android": "https://dc.lft.to/lastmile_qr_scan", "ios": "https://dc.lft.to/lastmile_qr_scan"}, "fusion_lon": 0.0}, {"lat": 38.9032475, "is_disabled": 0, "type": "electric_scooter", "lon": -77.03781633333334, "bike_id": "6b8406033ce24574486c797a925afaef", "fusion_lat": 0.0, "name": "6b8406033ce24574486c797a925afaef", "is_reserved": 0, "rental_uris": {"android": "https://dc.lft.to/lastmile_qr_scan", "ios": "https://dc.lft.to/lastmile_qr_scan"}, "fusion_lon": 0.0}, {"lat": 38.972259666666666, "is_disabled": 0, "type": "electric_bike", "lon": -76.99351383333334, "bike_id": "77a92081950c128f6a9e2b31740cad04", "fusion_lat": 0.0, "name": "77a92081950c128f6a9e2b31740cad04", "is_reserved": 0, "rental_uris": {"android": "https://dc.lft.to/lastmile_qr_scan", "ios": "https://dc.lft.to/lastmile_qr_scan"}, "fusion_lon": 0.0}, {"lat": 38.91681083333334, "is_disabled": 0, "type": "electric_scooter", "lon": -77.03772433333333, "bike_id": "ca8f4992e3c903ce6cc5e534c2511ce5", "fusion_lat": 0.0, "name": "ca8f4992e3c903ce6cc5e534c2511ce5", "is_reserved": 0, "rental_uris": {"android": "https://dc.lft.to/lastmile_qr_scan", "ios": "https://dc.lft.to/lastmile_qr_scan"}, "fusion_lon": 0.0}, {"lat": 38.86053283333333, "is_disabled": 0, "type": "electric_scooter", "lon": -77.05736533333334, "bike_id": "a9a794e36817f09b46d41cb580dd1ea1", "fusion_lat": 0.0, "name": "a9a794e36817f09b46d41cb580dd1ea1", "is_reserved": 0, "rental_uris": {"android": "https://dc.lft.to/lastmile_qr_scan", "ios": "https://dc.lft.to/lastmile_qr_scan"}, "fusion_lon": 0.0}, {"lat": 38.89222216666667, "is_disabled": 0, "type": "electric_scooter", "lon": -77.03192716666666, "bike_id": "40518664afcec4f23d6b57932614ed53", "fusion_lat": 0.0, "name": "40518664afcec4f23d6b57932614ed53", "is_reserved": 0, "rental_uris": {"android": "https://dc.lft.to/lastmile_qr_scan", "ios": "https://dc.lft.to/lastmile_qr_scan"}, "fusion_lon": 0.0}, {"lat": 38.8984235, "is_disabled": 0, "type": "electric_scooter", "lon": -77.04038483333333, "bike_id": "b786b95482cd97b83aae71ab22ed18b8", "fusion_lat": 0.0, "name": "b786b95482cd97b83aae71ab22ed18b8", "is_reserved": 0, "rental_uris": {"android": "https://dc.lft.to/lastmile_qr_scan", "ios": "https://dc.lft.to/lastmile_qr_scan"}, "fusion_lon": 0.0}, {"lat": 38.900251, "is_disabled": 0, "type": "electric_scooter", "lon": -77.04003766666666, "bike_id": "65c6d88e325a35046f56df54574d52b8", "fusion_lat": 0.0, "name": "65c6d88e325a35046f56df54574d52b8", "is_reserved": 0, "rental_uris": {"android": "https://dc.lft.to/lastmile_qr_scan", "ios": "https://dc.lft.to/lastmile_qr_scan"}, "fusion_lon": 0.0}, {"lat": 38.93327133333333, "is_disabled": 0, "type": "electric_scooter", "lon": -77.05705816666666, "bike_id": "a953ed6d978c2b64d0c426324247f1dd", "fusion_lat": 0.0, "name": "a953ed6d978c2b64d0c426324247f1dd", "is_reserved": 0, "rental_uris": {"android": "https://dc.lft.to/lastmile_qr_scan", "ios": "https://dc.lft.to/lastmile_qr_scan"}, "fusion_lon": 0.0}, {"lat": 38.91699283333333, "is_disabled": 0, "type": "electric_scooter", "lon": -77.03484416666667, "bike_id": "6a5dff0eb7444dbdb61214fcb7835663", "fusion_lat": 0.0, "name": "6a5dff0eb7444dbdb61214fcb7835663", "is_reserved": 0, "rental_uris": {"android": "https://dc.lft.to/lastmile_qr_scan", "ios": "https://dc.lft.to/lastmile_qr_scan"}, "fusion_lon": 0.0}, {"lat": 38.90001066666667, "is_disabled": 0, "type": "electric_scooter", "lon": -76.99850633333334, "bike_id": "bdceb897a088024cad8af1d5cdf83dcf", "fusion_lat": 0.0, "name": "bdceb897a088024cad8af1d5cdf83dcf", "is_reserved": 0, "rental_uris": {"android": "https://dc.lft.to/lastmile_qr_scan", "ios": "https://dc.lft.to/lastmile_qr_scan"}, "fusion_lon": 0.0}, {"lat": 38.91198383333333, "is_disabled": 0, "type": "electric_scooter", "lon": -77.0316415, "bike_id": "d566726872bc27d62d0d563ef5fcbcfc", "fusion_lat": 0.0, "name": "d566726872bc27d62d0d563ef5fcbcfc", "is_reserved": 0, "rental_uris": {"android": "https://dc.lft.to/lastmile_qr_scan", "ios": "https://dc.lft.to/lastmile_qr_scan"}, "fusion_lon": 0.0}, {"lat": 39.0158985, "is_disabled": 0, "type": "electric_bike", "lon": -77.044406, "bike_id": "39092783067ae569ffec2bf65ada0be3", "fusion_lat": 0.0, "name": "39092783067ae569ffec2bf65ada0be3", "is_reserved": 0, "rental_uris": {"android": "https://dc.lft.to/lastmile_qr_scan", "ios": "https://dc.lft.to/lastmile_qr_scan"}, "fusion_lon": 0.0}, {"lat": 38.89118883333333, "is_disabled": 0, "type": "electric_scooter", "lon": -76.94092283333333, "bike_id": "d33c48e47ce0edb74f8a846e15560d1c", "fusion_lat": 0.0, "name": "d33c48e47ce0edb74f8a846e15560d1c", "is_reserved": 0, "rental_uris": {"android": "https://dc.lft.to/lastmile_qr_scan", "ios": "https://dc.lft.to/lastmile_qr_scan"}, "fusion_lon": 0.0}, {"lat": 38.90456533333333, "is_disabled": 0, "type": "electric_scooter", "lon": -77.032736, "bike_id": "dcc2c3d85eb9f96da85b42c8ba78db04", "fusion_lat": 0.0, "name": "dcc2c3d85eb9f96da85b42c8ba78db04", "is_reserved": 0, "rental_uris": {"android": "https://dc.lft.to/lastmile_qr_scan", "ios": "https://dc.lft.to/lastmile_qr_scan"}, "fusion_lon": 0.0}, {"lat": 38.900003, "is_disabled": 0, "type": "electric_scooter", "lon": -76.99876666666667, "bike_id": "7ff3c31ad8655a202f921faf3862512b", "fusion_lat": 0.0, "name": "7ff3c31ad8655a202f921faf3862512b", "is_reserved": 0, "rental_uris": {"android": "https://dc.lft.to/lastmile_qr_scan", "ios": "https://dc.lft.to/lastmile_qr_scan"}, "fusion_lon": 0.0}, {"lat": 38.90142866666667, "is_disabled": 0, "type": "electric_scooter", "lon": -77.04158983333333, "bike_id": "48e8f67d53414f53e91f11e6bc0e183b", "fusion_lat": 0.0, "name": "48e8f67d53414f53e91f11e6bc0e183b", "is_reserved": 0, "rental_uris": {"android": "https://dc.lft.to/lastmile_qr_scan", "ios": "https://dc.lft.to/lastmile_qr_scan"}, "fusion_lon": 0.0}, {"lat": 38.905766, "is_disabled": 0, "type": "electric_scooter", "lon": -77.0088645, "bike_id": "6b8ef2fa6618e40f467fa90b02528878", "fusion_lat": 0.0, "name": "6b8ef2fa6618e40f467fa90b02528878", "is_reserved": 0, "rental_uris": {"android": "https://dc.lft.to/lastmile_qr_scan", "ios": "https://dc.lft.to/lastmile_qr_scan"}, "fusion_lon": 0.0}, {"lat": 38.896053, "is_disabled": 0, "type": "electric_scooter", "lon": -76.95602066666666, "bike_id": "a5ffd66e3ea0f9616b56bc531cc05dc2", "fusion_lat": 0.0, "name": "a5ffd66e3ea0f9616b56bc531cc05dc2", "is_reserved": 0, "rental_uris": {"android": "https://dc.lft.to/lastmile_qr_scan", "ios": "https://dc.lft.to/lastmile_qr_scan"}, "fusion_lon": 0.0}, {"lat": 38.918835666666666, "is_disabled": 0, "type": "electric_scooter", "lon": -77.03900316666666, "bike_id": "e4c7032e8ae6fa051d60827df15b5915", "fusion_lat": 0.0, "name": "e4c7032e8ae6fa051d60827df15b5915", "is_reserved": 0, "rental_uris": {"android": "https://dc.lft.to/lastmile_qr_scan", "ios": "https://dc.lft.to/lastmile_qr_scan"}, "fusion_lon": 0.0}, {"lat": 38.9334115, "is_disabled": 0, "type": "electric_scooter", "lon": -77.057056, "bike_id": "96e5df1f39f6f0fd919d12977abca63c", "fusion_lat": 0.0, "name": "96e5df1f39f6f0fd919d12977abca63c", "is_reserved": 0, "rental_uris": {"android": "https://dc.lft.to/lastmile_qr_scan", "ios": "https://dc.lft.to/lastmile_qr_scan"}, "fusion_lon": 0.0}, {"lat": 38.886548833333336, "is_disabled": 0, "type": "electric_bike", "lon": -77.16233466666667, "bike_id": "058615c2b746159941a0c1a1ed9ba6f2", "fusion_lat": 0.0, "name": "058615c2b746159941a0c1a1ed9ba6f2", "is_reserved": 0, "rental_uris": {"android": "https://dc.lft.to/lastmile_qr_scan", "ios": "https://dc.lft.to/lastmile_qr_scan"}, "fusion_lon": 0.0}, {"lat": 38.921447, "is_disabled": 0, "type": "electric_scooter", "lon": -77.03513866666667, "bike_id": "d47aa39cbce75500d7889a1cc144b924", "fusion_lat": 0.0, "name": "d47aa39cbce75500d7889a1cc144b924", "is_reserved": 0, "rental_uris": {"android": "https://dc.lft.to/lastmile_qr_scan", "ios": "https://dc.lft.to/lastmile_qr_scan"}, "fusion_lon": 0.0}, {"lat": 38.926349, "is_disabled": 0, "type": "electric_scooter", "lon": -77.03566533333333, "bike_id": "1615c1a46bd54c3b13cfd112ec1c2e16", "fusion_lat": 0.0, "name": "1615c1a46bd54c3b13cfd112ec1c2e16", "is_reserved": 0, "rental_uris": {"android": "https://dc.lft.to/lastmile_qr_scan", "ios": "https://dc.lft.to/lastmile_qr_scan"}, "fusion_lon": 0.0}, {"lat": 38.91709316666667, "is_disabled": 0, "type": "electric_scooter", "lon": -77.0386935, "bike_id": "084f47b891c03c50d7be09b4f7a96d71", "fusion_lat": 0.0, "name": "084f47b891c03c50d7be09b4f7a96d71", "is_reserved": 0, "rental_uris": {"android": "https://dc.lft.to/lastmile_qr_scan", "ios": "https://dc.lft.to/lastmile_qr_scan"}, "fusion_lon": 0.0}, {"lat": 38.905068166666666, "is_disabled": 0, "type": "electric_scooter", "lon": -77.06475833333333, "bike_id": "548629445e037abc7fd2bf20d33d9edd", "fusion_lat": 0.0, "name": "548629445e037abc7fd2bf20d33d9edd", "is_reserved": 0, "rental_uris": {"android": "https://dc.lft.to/lastmile_qr_scan", "ios": "https://dc.lft.to/lastmile_qr_scan"}, "fusion_lon": 0.0}, {"lat": 38.892458, "is_disabled": 0, "type": "electric_scooter", "lon": -77.02012183333333, "bike_id": "5a81428e370799ef3a2bec6a3c02dd26", "fusion_lat": 0.0, "name": "5a81428e370799ef3a2bec6a3c02dd26", "is_reserved": 0, "rental_uris": {"android": "https://dc.lft.to/lastmile_qr_scan", "ios": "https://dc.lft.to/lastmile_qr_scan"}, "fusion_lon": 0.0}, {"lat": 38.904759, "is_disabled": 0, "type": "electric_scooter", "lon": -77.00786833333333, "bike_id": "636c8c3b2c695e4178431d35d1689b7c", "fusion_lat": 0.0, "name": "636c8c3b2c695e4178431d35d1689b7c", "is_reserved": 0, "rental_uris": {"android": "https://dc.lft.to/lastmile_qr_scan", "ios": "https://dc.lft.to/lastmile_qr_scan"}, "fusion_lon": 0.0}, {"lat": 38.91054233333333, "is_disabled": 0, "type": "electric_scooter", "lon": -77.04583783333334, "bike_id": "b3bc78b2662b1108dc840d205010ff1f", "fusion_lat": 0.0, "name": "b3bc78b2662b1108dc840d205010ff1f", "is_reserved": 0, "rental_uris": {"android": "https://dc.lft.to/lastmile_qr_scan", "ios": "https://dc.lft.to/lastmile_qr_scan"}, "fusion_lon": 0.0}, {"lat": 38.9387725, "is_disabled": 0, "type": "electric_scooter", "lon": -77.03231466666666, "bike_id": "8b953ffa5ecb7524804c94b0e865b901", "fusion_lat": 0.0, "name": "8b953ffa5ecb7524804c94b0e865b901", "is_reserved": 0, "rental_uris": {"android": "https://dc.lft.to/lastmile_qr_scan", "ios": "https://dc.lft.to/lastmile_qr_scan"}, "fusion_lon": 0.0}, {"lat": 38.921335666666664, "is_disabled": 0, "type": "electric_scooter", "lon": -77.04137, "bike_id": "b11763f7093fc3176f86b4c2f75949ee", "fusion_lat": 0.0, "name": "b11763f7093fc3176f86b4c2f75949ee", "is_reserved": 0, "rental_uris": {"android": "https://dc.lft.to/lastmile_qr_scan", "ios": "https://dc.lft.to/lastmile_qr_scan"}, "fusion_lon": 0.0}, {"lat": 38.90203733333333, "is_disabled": 0, "type": "electric_scooter", "lon": -76.98850983333334, "bike_id": "d987a267f48f38fbf217a2a290c4c079", "fusion_lat": 0.0, "name": "d987a267f48f38fbf217a2a290c4c079", "is_reserved": 0, "rental_uris": {"android": "https://dc.lft.to/lastmile_qr_scan", "ios": "https://dc.lft.to/lastmile_qr_scan"}, "fusion_lon": 0.0}, {"lat": 38.90254133333333, "is_disabled": 0, "type": "electric_scooter", "lon": -77.03452016666667, "bike_id": "47e68e07ea82bd10cd374751071f81d2", "fusion_lat": 0.0, "name": "47e68e07ea82bd10cd374751071f81d2", "is_reserved": 0, "rental_uris": {"android": "https://dc.lft.to/lastmile_qr_scan", "ios": "https://dc.lft.to/lastmile_qr_scan"}, "fusion_lon": 0.0}, {"lat": 38.896587833333335, "is_disabled": 0, "type": "electric_scooter", "lon": -77.00907333333333, "bike_id": "90f0b4b8e3df0e5a2d5ea26882fc1c17", "fusion_lat": 0.0, "name": "90f0b4b8e3df0e5a2d5ea26882fc1c17", "is_reserved": 0, "rental_uris": {"android": "https://dc.lft.to/lastmile_qr_scan", "ios": "https://dc.lft.to/lastmile_qr_scan"}, "fusion_lon": 0.0}, {"lat": 38.920519166666665, "is_disabled": 0, "type": "electric_scooter", "lon": -77.03339816666667, "bike_id": "c9f6aa824eac5d4d5db4bb7c597e03bc", "fusion_lat": 0.0, "name": "c9f6aa824eac5d4d5db4bb7c597e03bc", "is_reserved": 0, "rental_uris": {"android": "https://dc.lft.to/lastmile_qr_scan", "ios": "https://dc.lft.to/lastmile_qr_scan"}, "fusion_lon": 0.0}, {"lat": 38.946461666666664, "is_disabled": 0, "type": "electric_scooter", "lon": -77.06493033333334, "bike_id": "79b32fc0ebacc30bda6a15d6ebdf57c3", "fusion_lat": 0.0, "name": "79b32fc0ebacc30bda6a15d6ebdf57c3", "is_reserved": 0, "rental_uris": {"android": "https://dc.lft.to/lastmile_qr_scan", "ios": "https://dc.lft.to/lastmile_qr_scan"}, "fusion_lon": 0.0}, {"lat": 38.79299316666667, "is_disabled": 0, "type": "electric_bike", "lon": -77.049263, "bike_id": "307d148c7b7941c84b2ec6c456e92382", "fusion_lat": 0.0, "name": "307d148c7b7941c84b2ec6c456e92382", "is_reserved": 0, "rental_uris": {"android": "https://dc.lft.to/lastmile_qr_scan", "ios": "https://dc.lft.to/lastmile_qr_scan"}, "fusion_lon": 0.0}, {"lat": 38.917093, "is_disabled": 0, "type": "electric_scooter", "lon": -77.0385985, "bike_id": "52570ec1e3e23959ce8698c42c1ea716", "fusion_lat": 0.0, "name": "52570ec1e3e23959ce8698c42c1ea716", "is_reserved": 0, "rental_uris": {"android": "https://dc.lft.to/lastmile_qr_scan", "ios": "https://dc.lft.to/lastmile_qr_scan"}, "fusion_lon": 0.0}, {"lat": 38.895852166666664, "is_disabled": 0, "type": "electric_scooter", "lon": -77.043687, "bike_id": "3bdcbc36027682ab4b7e4f9c15e43dd4", "fusion_lat": 0.0, "name": "3bdcbc36027682ab4b7e4f9c15e43dd4", "is_reserved": 0, "rental_uris": {"android": "https://dc.lft.to/lastmile_qr_scan", "ios": "https://dc.lft.to/lastmile_qr_scan"}, "fusion_lon": 0.0}, {"lat": 38.92659366666667, "is_disabled": 0, "type": "electric_scooter", "lon": -77.05599016666666, "bike_id": "6b1265611facbc0726c8af74d694fbda", "fusion_lat": 0.0, "name": "6b1265611facbc0726c8af74d694fbda", "is_reserved": 0, "rental_uris": {"android": "https://dc.lft.to/lastmile_qr_scan", "ios": "https://dc.lft.to/lastmile_qr_scan"}, "fusion_lon": 0.0}, {"lat": 38.91355383333333, "is_disabled": 0, "type": "electric_scooter", "lon": -77.03188616666667, "bike_id": "715f26151bbd7c0a7fc03cf6bc452c3b", "fusion_lat": 0.0, "name": "715f26151bbd7c0a7fc03cf6bc452c3b", "is_reserved": 0, "rental_uris": {"android": "https://dc.lft.to/lastmile_qr_scan", "ios": "https://dc.lft.to/lastmile_qr_scan"}, "fusion_lon": 0.0}, {"lat": 38.9035325, "is_disabled": 0, "type": "electric_scooter", "lon": -77.01896583333334, "bike_id": "78ecbd84d2a816f2b0a3cc1ad6ef67de", "fusion_lat": 0.0, "name": "78ecbd84d2a816f2b0a3cc1ad6ef67de", "is_reserved": 0, "rental_uris": {"android": "https://dc.lft.to/lastmile_qr_scan", "ios": "https://dc.lft.to/lastmile_qr_scan"}, "fusion_lon": 0.0}, {"lat": 38.89541666666667, "is_disabled": 0, "type": "electric_scooter", "lon": -76.933668, "bike_id": "20a668f65a0adb5c46c03979213bb59c", "fusion_lat": 0.0, "name": "20a668f65a0adb5c46c03979213bb59c", "is_reserved": 0, "rental_uris": {"android": "https://dc.lft.to/lastmile_qr_scan", "ios": "https://dc.lft.to/lastmile_qr_scan"}, "fusion_lon": 0.0}, {"lat": 38.90971066666667, "is_disabled": 0, "type": "electric_scooter", "lon": -77.03365916666667, "bike_id": "e8daa6e01aac560de08490d592ee0129", "fusion_lat": 0.0, "name": "e8daa6e01aac560de08490d592ee0129", "is_reserved": 0, "rental_uris": {"android": "https://dc.lft.to/lastmile_qr_scan", "ios": "https://dc.lft.to/lastmile_qr_scan"}, "fusion_lon": 0.0}, {"lat": 38.924888, "is_disabled": 0, "type": "electric_scooter", "lon": -77.05229733333333, "bike_id": "2b043dc3ac93eb73c592a7477e4ac58b", "fusion_lat": 0.0, "name": "2b043dc3ac93eb73c592a7477e4ac58b", "is_reserved": 0, "rental_uris": {"android": "https://dc.lft.to/lastmile_qr_scan", "ios": "https://dc.lft.to/lastmile_qr_scan"}, "fusion_lon": 0.0}, {"lat": 38.924688833333335, "is_disabled": 0, "type": "electric_scooter", "lon": -77.03972633333333, "bike_id": "12058e4d9181d7a5ca950cc3c7eb99e9", "fusion_lat": 0.0, "name": "12058e4d9181d7a5ca950cc3c7eb99e9", "is_reserved": 0, "rental_uris": {"android": "https://dc.lft.to/lastmile_qr_scan", "ios": "https://dc.lft.to/lastmile_qr_scan"}, "fusion_lon": 0.0}, {"lat": 38.90354933333333, "is_disabled": 0, "type": "electric_scooter", "lon": -76.97659816666666, "bike_id": "da58fdc59103c5b5e72f1058b03ad4a6", "fusion_lat": 0.0, "name": "da58fdc59103c5b5e72f1058b03ad4a6", "is_reserved": 0, "rental_uris": {"android": "https://dc.lft.to/lastmile_qr_scan", "ios": "https://dc.lft.to/lastmile_qr_scan"}, "fusion_lon": 0.0}, {"lat": 38.9528525, "is_disabled": 0, "type": "electric_bike", "lon": -76.9459735, "bike_id": "d5854c60b9a90660ee7c42f147fce716", "fusion_lat": 0.0, "name": "d5854c60b9a90660ee7c42f147fce716", "is_reserved": 0, "rental_uris": {"android": "https://dc.lft.to/lastmile_qr_scan", "ios": "https://dc.lft.to/lastmile_qr_scan"}, "fusion_lon": 0.0}, {"lat": 38.9395605, "is_disabled": 0, "type": "electric_bike", "lon": -77.360964, "bike_id": "a8306969023cfaefe7461e2faaaacad7", "fusion_lat": 0.0, "name": "a8306969023cfaefe7461e2faaaacad7", "is_reserved": 0, "rental_uris": {"android": "https://dc.lft.to/lastmile_qr_scan", "ios": "https://dc.lft.to/lastmile_qr_scan"}, "fusion_lon": 0.0}, {"lat": 38.908886, "is_disabled": 0, "type": "electric_scooter", "lon": -77.04316283333333, "bike_id": "fc10c49977b9c9ca69f3c9c20fd85f0d", "fusion_lat": 0.0, "name": "fc10c49977b9c9ca69f3c9c20fd85f0d", "is_reserved": 0, "rental_uris": {"android": "https://dc.lft.to/lastmile_qr_scan", "ios": "https://dc.lft.to/lastmile_qr_scan"}, "fusion_lon": 0.0}, {"lat": 38.9173355, "is_disabled": 0, "type": "electric_scooter", "lon": -77.02408883333334, "bike_id": "d2d20b00ea0ea4defa9f88d7d963e3d9", "fusion_lat": 0.0, "name": "d2d20b00ea0ea4defa9f88d7d963e3d9", "is_reserved": 0, "rental_uris": {"android": "https://dc.lft.to/lastmile_qr_scan", "ios": "https://dc.lft.to/lastmile_qr_scan"}, "fusion_lon": 0.0}, {"lat": 38.9170445, "is_disabled": 0, "type": "electric_scooter", "lon": -77.00119466666666, "bike_id": "75b4f617f9c550351eceb9c4981ead26", "fusion_lat": 0.0, "name": "75b4f617f9c550351eceb9c4981ead26", "is_reserved": 0, "rental_uris": {"android": "https://dc.lft.to/lastmile_qr_scan", "ios": "https://dc.lft.to/lastmile_qr_scan"}, "fusion_lon": 0.0}, {"lat": 38.8955785, "is_disabled": 0, "type": "electric_scooter", "lon": -76.93082583333333, "bike_id": "675062a4f8a43ebf8163cb3c64aa49ca", "fusion_lat": 0.0, "name": "675062a4f8a43ebf8163cb3c64aa49ca", "is_reserved": 0, "rental_uris": {"android": "https://dc.lft.to/lastmile_qr_scan", "ios": "https://dc.lft.to/lastmile_qr_scan"}, "fusion_lon": 0.0}, {"lat": 38.90583266666667, "is_disabled": 0, "type": "electric_scooter", "lon": -77.04695433333333, "bike_id": "70963678fb7d3ba1a05af07ec736e13f", "fusion_lat": 0.0, "name": "70963678fb7d3ba1a05af07ec736e13f", "is_reserved": 0, "rental_uris": {"android": "https://dc.lft.to/lastmile_qr_scan", "ios": "https://dc.lft.to/lastmile_qr_scan"}, "fusion_lon": 0.0}, {"lat": 38.931472166666666, "is_disabled": 0, "type": "electric_scooter", "lon": -77.02939416666666, "bike_id": "8ddafd2aab6821614b4315676d2c52cc", "fusion_lat": 0.0, "name": "8ddafd2aab6821614b4315676d2c52cc", "is_reserved": 0, "rental_uris": {"android": "https://dc.lft.to/lastmile_qr_scan", "ios": "https://dc.lft.to/lastmile_qr_scan"}, "fusion_lon": 0.0}, {"lat": 38.92759316666667, "is_disabled": 0, "type": "electric_scooter", "lon": -77.03212416666666, "bike_id": "8dff243432854a000df442530cb54a2f", "fusion_lat": 0.0, "name": "8dff243432854a000df442530cb54a2f", "is_reserved": 0, "rental_uris": {"android": "https://dc.lft.to/lastmile_qr_scan", "ios": "https://dc.lft.to/lastmile_qr_scan"}, "fusion_lon": 0.0}, {"lat": 38.92008366666666, "is_disabled": 0, "type": "electric_scooter", "lon": -77.03879216666667, "bike_id": "1fba5c84aa88d0011eb715b91e98ae85", "fusion_lat": 0.0, "name": "1fba5c84aa88d0011eb715b91e98ae85", "is_reserved": 0, "rental_uris": {"android": "https://dc.lft.to/lastmile_qr_scan", "ios": "https://dc.lft.to/lastmile_qr_scan"}, "fusion_lon": 0.0}, {"lat": 38.903762, "is_disabled": 0, "type": "electric_scooter", "lon": -77.04249183333333, "bike_id": "b109d27ee58de84097ea33d6574eae74", "fusion_lat": 0.0, "name": "b109d27ee58de84097ea33d6574eae74", "is_reserved": 0, "rental_uris": {"android": "https://dc.lft.to/lastmile_qr_scan", "ios": "https://dc.lft.to/lastmile_qr_scan"}, "fusion_lon": 0.0}, {"lat": 38.90281016666667, "is_disabled": 0, "type": "electric_scooter", "lon": -77.04046866666667, "bike_id": "9c9d525d57e269e6fd7d648cf2539d21", "fusion_lat": 0.0, "name": "9c9d525d57e269e6fd7d648cf2539d21", "is_reserved": 0, "rental_uris": {"android": "https://dc.lft.to/lastmile_qr_scan", "ios": "https://dc.lft.to/lastmile_qr_scan"}, "fusion_lon": 0.0}, {"lat": 38.889184166666666, "is_disabled": 0, "type": "electric_scooter", "lon": -76.997527, "bike_id": "f2d3b9784fb88d689c51735fa8829a92", "fusion_lat": 0.0, "name": "f2d3b9784fb88d689c51735fa8829a92", "is_reserved": 0, "rental_uris": {"android": "https://dc.lft.to/lastmile_qr_scan", "ios": "https://dc.lft.to/lastmile_qr_scan"}, "fusion_lon": 0.0}, {"lat": 38.865157833333335, "is_disabled": 0, "type": "electric_scooter", "lon": -76.99042483333334, "bike_id": "1eb9d84b167faf0c12c9adf0b35a0b84", "fusion_lat": 0.0, "name": "1eb9d84b167faf0c12c9adf0b35a0b84", "is_reserved": 0, "rental_uris": {"android": "https://dc.lft.to/lastmile_qr_scan", "ios": "https://dc.lft.to/lastmile_qr_scan"}, "fusion_lon": 0.0}, {"lat": 38.844606666666664, "is_disabled": 0, "type": "electric_bike", "lon": -76.9876, "bike_id": "0fa47120dd11c1cffa5f3948eb6917b0", "fusion_lat": 0.0, "name": "0fa47120dd11c1cffa5f3948eb6917b0", "is_reserved": 0, "rental_uris": {"android": "https://dc.lft.to/lastmile_qr_scan", "ios": "https://dc.lft.to/lastmile_qr_scan"}, "fusion_lon": 0.0}, {"lat": 38.916851666666666, "is_disabled": 0, "type": "electric_scooter", "lon": -77.031121, "bike_id": "0445385ce8ef9a2314a3e09d96e80c44", "fusion_lat": 0.0, "name": "0445385ce8ef9a2314a3e09d96e80c44", "is_reserved": 0, "rental_uris": {"android": "https://dc.lft.to/lastmile_qr_scan", "ios": "https://dc.lft.to/lastmile_qr_scan"}, "fusion_lon": 0.0}, {"lat": 38.8341955, "is_disabled": 0, "type": "electric_bike", "lon": -77.10379316666666, "bike_id": "857b07353f682a4b5de30ef1a7359200", "fusion_lat": 0.0, "name": "857b07353f682a4b5de30ef1a7359200", "is_reserved": 0, "rental_uris": {"android": "https://dc.lft.to/lastmile_qr_scan", "ios": "https://dc.lft.to/lastmile_qr_scan"}, "fusion_lon": 0.0}, {"lat": 38.90263133333333, "is_disabled": 0, "type": "electric_scooter", "lon": -77.034437, "bike_id": "7211a73f85ff27d71ceb165ab215300f", "fusion_lat": 0.0, "name": "7211a73f85ff27d71ceb165ab215300f", "is_reserved": 0, "rental_uris": {"android": "https://dc.lft.to/lastmile_qr_scan", "ios": "https://dc.lft.to/lastmile_qr_scan"}, "fusion_lon": 0.0}, {"lat": 38.932350666666665, "is_disabled": 0, "type": "electric_scooter", "lon": -77.03093466666667, "bike_id": "9cd7d623ebe854b5cd29a6a1d90d23a5", "fusion_lat": 0.0, "name": "9cd7d623ebe854b5cd29a6a1d90d23a5", "is_reserved": 0, "rental_uris": {"android": "https://dc.lft.to/lastmile_qr_scan", "ios": "https://dc.lft.to/lastmile_qr_scan"}, "fusion_lon": 0.0}, {"lat": 38.85928333333333, "is_disabled": 0, "type": "electric_scooter", "lon": -76.99725216666667, "bike_id": "12f6b38a2e966ed5df06ee60f0d95cc8", "fusion_lat": 0.0, "name": "12f6b38a2e966ed5df06ee60f0d95cc8", "is_reserved": 0, "rental_uris": {"android": "https://dc.lft.to/lastmile_qr_scan", "ios": "https://dc.lft.to/lastmile_qr_scan"}, "fusion_lon": 0.0}, {"lat": 38.905575166666665, "is_disabled": 0, "type": "electric_scooter", "lon": -77.00924916666666, "bike_id": "81d06130858e48fb67f7f1fd634bac2a", "fusion_lat": 0.0, "name": "81d06130858e48fb67f7f1fd634bac2a", "is_reserved": 0, "rental_uris": {"android": "https://dc.lft.to/lastmile_qr_scan", "ios": "https://dc.lft.to/lastmile_qr_scan"}, "fusion_lon": 0.0}, {"lat": 38.916505, "is_disabled": 0, "type": "electric_scooter", "lon": -77.0192495, "bike_id": "85fd115e09350a93de67d9f88db29470", "fusion_lat": 0.0, "name": "85fd115e09350a93de67d9f88db29470", "is_reserved": 0, "rental_uris": {"android": "https://dc.lft.to/lastmile_qr_scan", "ios": "https://dc.lft.to/lastmile_qr_scan"}, "fusion_lon": 0.0}, {"lat": 38.8762405, "is_disabled": 0, "type": "electric_scooter", "lon": -76.96535416666667, "bike_id": "12953b4477a5ef79c58ee263577442b4", "fusion_lat": 0.0, "name": "12953b4477a5ef79c58ee263577442b4", "is_reserved": 0, "rental_uris": {"android": "https://dc.lft.to/lastmile_qr_scan", "ios": "https://dc.lft.to/lastmile_qr_scan"}, "fusion_lon": 0.0}, {"lat": 38.9161875, "is_disabled": 0, "type": "electric_scooter", "lon": -77.03187, "bike_id": "286ced2041f47cb593906f80f13bd26f", "fusion_lat": 0.0, "name": "286ced2041f47cb593906f80f13bd26f", "is_reserved": 0, "rental_uris": {"android": "https://dc.lft.to/lastmile_qr_scan", "ios": "https://dc.lft.to/lastmile_qr_scan"}, "fusion_lon": 0.0}, {"lat": 38.924012166666664, "is_disabled": 0, "type": "electric_scooter", "lon": -77.0275455, "bike_id": "996aae3c5995ad96d211876ba37875e3", "fusion_lat": 0.0, "name": "996aae3c5995ad96d211876ba37875e3", "is_reserved": 0, "rental_uris": {"android": "https://dc.lft.to/lastmile_qr_scan", "ios": "https://dc.lft.to/lastmile_qr_scan"}, "fusion_lon": 0.0}, {"lat": 38.912673833333336, "is_disabled": 0, "type": "electric_scooter", "lon": -77.013114, "bike_id": "df89678df15ab48c8202a2572c8aee17", "fusion_lat": 0.0, "name": "df89678df15ab48c8202a2572c8aee17", "is_reserved": 0, "rental_uris": {"android": "https://dc.lft.to/lastmile_qr_scan", "ios": "https://dc.lft.to/lastmile_qr_scan"}, "fusion_lon": 0.0}, {"lat": 38.9555435, "is_disabled": 0, "type": "electric_bike", "lon": -76.9355195, "bike_id": "33ecaf69aff038f10dd182aafbf8dafe", "fusion_lat": 0.0, "name": "33ecaf69aff038f10dd182aafbf8dafe", "is_reserved": 0, "rental_uris": {"android": "https://dc.lft.to/lastmile_qr_scan", "ios": "https://dc.lft.to/lastmile_qr_scan"}, "fusion_lon": 0.0}, {"lat": 38.91922983333333, "is_disabled": 0, "type": "electric_scooter", "lon": -77.0240925, "bike_id": "5a31e44da4af633275fec1a180087bfe", "fusion_lat": 0.0, "name": "5a31e44da4af633275fec1a180087bfe", "is_reserved": 0, "rental_uris": {"android": "https://dc.lft.to/lastmile_qr_scan", "ios": "https://dc.lft.to/lastmile_qr_scan"}, "fusion_lon": 0.0}, {"lat": 38.9267355, "is_disabled": 0, "type": "electric_scooter", "lon": -77.0513305, "bike_id": "f3fdde96ae0e23931953ce4e171be911", "fusion_lat": 0.0, "name": "f3fdde96ae0e23931953ce4e171be911", "is_reserved": 0, "rental_uris": {"android": "https://dc.lft.to/lastmile_qr_scan", "ios": "https://dc.lft.to/lastmile_qr_scan"}, "fusion_lon": 0.0}, {"lat": 38.95884083333333, "is_disabled": 0, "type": "electric_scooter", "lon": -77.02732733333333, "bike_id": "206832f78db2dcd0f88ee8ed579a7286", "fusion_lat": 0.0, "name": "206832f78db2dcd0f88ee8ed579a7286", "is_reserved": 0, "rental_uris": {"android": "https://dc.lft.to/lastmile_qr_scan", "ios": "https://dc.lft.to/lastmile_qr_scan"}, "fusion_lon": 0.0}, {"lat": 38.8988275, "is_disabled": 0, "type": "electric_bike", "lon": -77.02136633333333, "bike_id": "b538f7cfa0a54f509614078f443312a1", "fusion_lat": 0.0, "name": "b538f7cfa0a54f509614078f443312a1", "is_reserved": 0, "rental_uris": {"android": "https://dc.lft.to/lastmile_qr_scan", "ios": "https://dc.lft.to/lastmile_qr_scan"}, "fusion_lon": 0.0}, {"lat": 38.90584316666666, "is_disabled": 0, "type": "electric_scooter", "lon": -77.058171, "bike_id": "4e3598836004f956cf540bf31d78b1e3", "fusion_lat": 0.0, "name": "4e3598836004f956cf540bf31d78b1e3", "is_reserved": 0, "rental_uris": {"android": "https://dc.lft.to/lastmile_qr_scan", "ios": "https://dc.lft.to/lastmile_qr_scan"}, "fusion_lon": 0.0}, {"lat": 38.899149333333334, "is_disabled": 0, "type": "electric_scooter", "lon": -76.93384883333333, "bike_id": "cf9c519eb279ce18ad772e21640431df", "fusion_lat": 0.0, "name": "cf9c519eb279ce18ad772e21640431df", "is_reserved": 0, "rental_uris": {"android": "https://dc.lft.to/lastmile_qr_scan", "ios": "https://dc.lft.to/lastmile_qr_scan"}, "fusion_lon": 0.0}, {"lat": 38.876512166666664, "is_disabled": 0, "type": "electric_scooter", "lon": -77.00567516666666, "bike_id": "c21b6a3538149df85291b5b7f2ee5d04", "fusion_lat": 0.0, "name": "c21b6a3538149df85291b5b7f2ee5d04", "is_reserved": 0, "rental_uris": {"android": "https://dc.lft.to/lastmile_qr_scan", "ios": "https://dc.lft.to/lastmile_qr_scan"}, "fusion_lon": 0.0}, {"lat": 38.842879833333335, "is_disabled": 0, "type": "electric_scooter", "lon": -76.99956283333333, "bike_id": "e0c99bc7469d05359095dedec4ec5997", "fusion_lat": 0.0, "name": "e0c99bc7469d05359095dedec4ec5997", "is_reserved": 0, "rental_uris": {"android": "https://dc.lft.to/lastmile_qr_scan", "ios": "https://dc.lft.to/lastmile_qr_scan"}, "fusion_lon": 0.0}, {"lat": 38.863441333333334, "is_disabled": 0, "type": "electric_scooter", "lon": -76.99007066666667, "bike_id": "2edcc65d4d823e370208a1e545b2cbc1", "fusion_lat": 0.0, "name": "2edcc65d4d823e370208a1e545b2cbc1", "is_reserved": 0, "rental_uris": {"android": "https://dc.lft.to/lastmile_qr_scan", "ios": "https://dc.lft.to/lastmile_qr_scan"}, "fusion_lon": 0.0}, {"lat": 38.885459, "is_disabled": 0, "type": "electric_bike", "lon": -77.11792616666666, "bike_id": "09140a18e252047cdc161ec00bea4977", "fusion_lat": 0.0, "name": "09140a18e252047cdc161ec00bea4977", "is_reserved": 0, "rental_uris": {"android": "https://dc.lft.to/lastmile_qr_scan", "ios": "https://dc.lft.to/lastmile_qr_scan"}, "fusion_lon": 0.0}, {"lat": 38.884506, "is_disabled": 0, "type": "electric_scooter", "lon": -76.92964916666666, "bike_id": "a95d3f1201bab7e06cc4a72ad41d0e6f", "fusion_lat": 0.0, "name": "a95d3f1201bab7e06cc4a72ad41d0e6f", "is_reserved": 0, "rental_uris": {"android": "https://dc.lft.to/lastmile_qr_scan", "ios": "https://dc.lft.to/lastmile_qr_scan"}, "fusion_lon": 0.0}, {"lat": 38.88588883333333, "is_disabled": 0, "type": "electric_scooter", "lon": -77.01899683333333, "bike_id": "fd8f656721704b0849be94b3300a1e1f", "fusion_lat": 0.0, "name": "fd8f656721704b0849be94b3300a1e1f", "is_reserved": 0, "rental_uris": {"android": "https://dc.lft.to/lastmile_qr_scan", "ios": "https://dc.lft.to/lastmile_qr_scan"}, "fusion_lon": 0.0}, {"lat": 38.895632166666665, "is_disabled": 0, "type": "electric_bike", "lon": -77.12741066666666, "bike_id": "4d4d557f0fe0e2a80fdb389e153e1f72", "fusion_lat": 0.0, "name": "4d4d557f0fe0e2a80fdb389e153e1f72", "is_reserved": 0, "rental_uris": {"android": "https://dc.lft.to/lastmile_qr_scan", "ios": "https://dc.lft.to/lastmile_qr_scan"}, "fusion_lon": 0.0}, {"lat": 38.899003, "is_disabled": 0, "type": "electric_scooter", "lon": -77.03920033333333, "bike_id": "327f92b9d972e3e32759ae1d25436f16", "fusion_lat": 0.0, "name": "327f92b9d972e3e32759ae1d25436f16", "is_reserved": 0, "rental_uris": {"android": "https://dc.lft.to/lastmile_qr_scan", "ios": "https://dc.lft.to/lastmile_qr_scan"}, "fusion_lon": 0.0}, {"lat": 38.9571005, "is_disabled": 0, "type": "electric_scooter", "lon": -77.024177, "bike_id": "7ef3ca2412deb60c2f773a4a6f1d46fa", "fusion_lat": 0.0, "name": "7ef3ca2412deb60c2f773a4a6f1d46fa", "is_reserved": 0, "rental_uris": {"android": "https://dc.lft.to/lastmile_qr_scan", "ios": "https://dc.lft.to/lastmile_qr_scan"}, "fusion_lon": 0.0}, {"lat": 38.9289855, "is_disabled": 0, "type": "electric_scooter", "lon": -77.01658466666666, "bike_id": "0cd49c5a096f230e790cce4dac89eda6", "fusion_lat": 0.0, "name": "0cd49c5a096f230e790cce4dac89eda6", "is_reserved": 0, "rental_uris": {"android": "https://dc.lft.to/lastmile_qr_scan", "ios": "https://dc.lft.to/lastmile_qr_scan"}, "fusion_lon": 0.0}, {"lat": 38.93172166666667, "is_disabled": 0, "type": "electric_scooter", "lon": -77.02373516666667, "bike_id": "c16b8ec048a52f585666d7a158287488", "fusion_lat": 0.0, "name": "c16b8ec048a52f585666d7a158287488", "is_reserved": 0, "rental_uris": {"android": "https://dc.lft.to/lastmile_qr_scan", "ios": "https://dc.lft.to/lastmile_qr_scan"}, "fusion_lon": 0.0}, {"lat": 38.87541133333333, "is_disabled": 0, "type": "electric_scooter", "lon": -77.00541683333333, "bike_id": "6f6d15d9c8716f0552d7307646baefea", "fusion_lat": 0.0, "name": "6f6d15d9c8716f0552d7307646baefea", "is_reserved": 0, "rental_uris": {"android": "https://dc.lft.to/lastmile_qr_scan", "ios": "https://dc.lft.to/lastmile_qr_scan"}, "fusion_lon": 0.0}, {"lat": 38.9337615, "is_disabled": 0, "type": "electric_scooter", "lon": -77.03562516666666, "bike_id": "b78680654188a4f587d766ed170765cb", "fusion_lat": 0.0, "name": "b78680654188a4f587d766ed170765cb", "is_reserved": 0, "rental_uris": {"android": "https://dc.lft.to/lastmile_qr_scan", "ios": "https://dc.lft.to/lastmile_qr_scan"}, "fusion_lon": 0.0}, {"lat": 38.934297, "is_disabled": 0, "type": "electric_scooter", "lon": -76.9651435, "bike_id": "2e218ae998d2fe9ed62afed362ad0f33", "fusion_lat": 0.0, "name": "2e218ae998d2fe9ed62afed362ad0f33", "is_reserved": 0, "rental_uris": {"android": "https://dc.lft.to/lastmile_qr_scan", "ios": "https://dc.lft.to/lastmile_qr_scan"}, "fusion_lon": 0.0}, {"lat": 38.90032583333333, "is_disabled": 0, "type": "electric_scooter", "lon": -77.002224, "bike_id": "b3e680cded500a6e65f27d10264d2087", "fusion_lat": 0.0, "name": "b3e680cded500a6e65f27d10264d2087", "is_reserved": 0, "rental_uris": {"android": "https://dc.lft.to/lastmile_qr_scan", "ios": "https://dc.lft.to/lastmile_qr_scan"}, "fusion_lon": 0.0}, {"lat": 38.9203, "is_disabled": 0, "type": "electric_scooter", "lon": -77.04098583333334, "bike_id": "a6d086f1cc872ae5c0a5bd995dba0fb7", "fusion_lat": 0.0, "name": "a6d086f1cc872ae5c0a5bd995dba0fb7", "is_reserved": 0, "rental_uris": {"android": "https://dc.lft.to/lastmile_qr_scan", "ios": "https://dc.lft.to/lastmile_qr_scan"}, "fusion_lon": 0.0}, {"lat": 38.919759166666665, "is_disabled": 0, "type": "electric_scooter", "lon": -77.012189, "bike_id": "8c277ffc526e9d1272e5950e9f35e3d6", "fusion_lat": 0.0, "name": "8c277ffc526e9d1272e5950e9f35e3d6", "is_reserved": 0, "rental_uris": {"android": "https://dc.lft.to/lastmile_qr_scan", "ios": "https://dc.lft.to/lastmile_qr_scan"}, "fusion_lon": 0.0}, {"lat": 38.934103666666665, "is_disabled": 0, "type": "electric_scooter", "lon": -77.02039983333333, "bike_id": "3056aed3a0a40c0fb82c1a0813ff70b4", "fusion_lat": 0.0, "name": "3056aed3a0a40c0fb82c1a0813ff70b4", "is_reserved": 0, "rental_uris": {"android": "https://dc.lft.to/lastmile_qr_scan", "ios": "https://dc.lft.to/lastmile_qr_scan"}, "fusion_lon": 0.0}, {"lat": 38.922644, "is_disabled": 0, "type": "electric_scooter", "lon": -77.026986, "bike_id": "8bd595a2b072e2806e6008a048d2197f", "fusion_lat": 0.0, "name": "8bd595a2b072e2806e6008a048d2197f", "is_reserved": 0, "rental_uris": {"android": "https://dc.lft.to/lastmile_qr_scan", "ios": "https://dc.lft.to/lastmile_qr_scan"}, "fusion_lon": 0.0}, {"lat": 38.888829333333334, "is_disabled": 0, "type": "electric_scooter", "lon": -76.93155533333334, "bike_id": "091ea3153d32830939094c355b7998d8", "fusion_lat": 0.0, "name": "091ea3153d32830939094c355b7998d8", "is_reserved": 0, "rental_uris": {"android": "https://dc.lft.to/lastmile_qr_scan", "ios": "https://dc.lft.to/lastmile_qr_scan"}, "fusion_lon": 0.0}, {"lat": 38.94430583333333, "is_disabled": 0, "type": "electric_scooter", "lon": -77.0630585, "bike_id": "1b99b583588bbb1bd805f9964de16657", "fusion_lat": 0.0, "name": "1b99b583588bbb1bd805f9964de16657", "is_reserved": 0, "rental_uris": {"android": "https://dc.lft.to/lastmile_qr_scan", "ios": "https://dc.lft.to/lastmile_qr_scan"}, "fusion_lon": 0.0}, {"lat": 38.94497666666667, "is_disabled": 0, "type": "electric_bike", "lon": -77.006849, "bike_id": "55ca7bb304528d34d08c83398735cd79", "fusion_lat": 0.0, "name": "55ca7bb304528d34d08c83398735cd79", "is_reserved": 0, "rental_uris": {"android": "https://dc.lft.to/lastmile_qr_scan", "ios": "https://dc.lft.to/lastmile_qr_scan"}, "fusion_lon": 0.0}, {"lat": 38.9094045, "is_disabled": 0, "type": "electric_scooter", "lon": -77.04662783333333, "bike_id": "1c248bba9fde7a65dab03088dfb51afd", "fusion_lat": 0.0, "name": "1c248bba9fde7a65dab03088dfb51afd", "is_reserved": 0, "rental_uris": {"android": "https://dc.lft.to/lastmile_qr_scan", "ios": "https://dc.lft.to/lastmile_qr_scan"}, "fusion_lon": 0.0}, {"lat": 38.9662605, "is_disabled": 0, "type": "electric_scooter", "lon": -77.01997666666666, "bike_id": "d91fad181fdcd51a45fcb174a71db34e", "fusion_lat": 0.0, "name": "d91fad181fdcd51a45fcb174a71db34e", "is_reserved": 0, "rental_uris": {"android": "https://dc.lft.to/lastmile_qr_scan", "ios": "https://dc.lft.to/lastmile_qr_scan"}, "fusion_lon": 0.0}, {"lat": 38.89676016666667, "is_disabled": 0, "type": "electric_bike", "lon": -77.02461866666667, "bike_id": "2c30a772107d29f9e7a09780263d789e", "fusion_lat": 0.0, "name": "2c30a772107d29f9e7a09780263d789e", "is_reserved": 0, "rental_uris": {"android": "https://dc.lft.to/lastmile_qr_scan", "ios": "https://dc.lft.to/lastmile_qr_scan"}, "fusion_lon": 0.0}, {"lat": 38.94133933333333, "is_disabled": 0, "type": "electric_scooter", "lon": -77.07617616666667, "bike_id": "d8a3505ff715a75dc7a5875756593e98", "fusion_lat": 0.0, "name": "d8a3505ff715a75dc7a5875756593e98", "is_reserved": 0, "rental_uris": {"android": "https://dc.lft.to/lastmile_qr_scan", "ios": "https://dc.lft.to/lastmile_qr_scan"}, "fusion_lon": 0.0}, {"lat": 38.96622033333333, "is_disabled": 0, "type": "electric_bike", "lon": -76.9767345, "bike_id": "488824d5b57ebf077d88de746412f761", "fusion_lat": 0.0, "name": "488824d5b57ebf077d88de746412f761", "is_reserved": 0, "rental_uris": {"android": "https://dc.lft.to/lastmile_qr_scan", "ios": "https://dc.lft.to/lastmile_qr_scan"}, "fusion_lon": 0.0}, {"lat": 38.92271066666667, "is_disabled": 0, "type": "electric_scooter", "lon": -77.04246333333333, "bike_id": "1af4e36afcd6c8ff7cbda1b105ccf2d4", "fusion_lat": 0.0, "name": "1af4e36afcd6c8ff7cbda1b105ccf2d4", "is_reserved": 0, "rental_uris": {"android": "https://dc.lft.to/lastmile_qr_scan", "ios": "https://dc.lft.to/lastmile_qr_scan"}, "fusion_lon": 0.0}, {"lat": 38.935777, "is_disabled": 0, "type": "electric_bike", "lon": -77.10686916666667, "bike_id": "8ce8c4ee8e9dc135bd256540fcc43a6a", "fusion_lat": 0.0, "name": "8ce8c4ee8e9dc135bd256540fcc43a6a", "is_reserved": 0, "rental_uris": {"android": "https://dc.lft.to/lastmile_qr_scan", "ios": "https://dc.lft.to/lastmile_qr_scan"}, "fusion_lon": 0.0}, {"lat": 38.92748, "is_disabled": 0, "type": "electric_scooter", "lon": -77.02310183333333, "bike_id": "6b5ed5be64c00c540d5bcdb043395153", "fusion_lat": 0.0, "name": "6b5ed5be64c00c540d5bcdb043395153", "is_reserved": 0, "rental_uris": {"android": "https://dc.lft.to/lastmile_qr_scan", "ios": "https://dc.lft.to/lastmile_qr_scan"}, "fusion_lon": 0.0}, {"lat": 38.91796433333333, "is_disabled": 0, "type": "electric_scooter", "lon": -77.0320145, "bike_id": "172b3a040097c40f059cbaa0f59df6d6", "fusion_lat": 0.0, "name": "172b3a040097c40f059cbaa0f59df6d6", "is_reserved": 0, "rental_uris": {"android": "https://dc.lft.to/lastmile_qr_scan", "ios": "https://dc.lft.to/lastmile_qr_scan"}, "fusion_lon": 0.0}, {"lat": 38.886943, "is_disabled": 0, "type": "electric_scooter", "lon": -76.993881, "bike_id": "79af814283b7ac35f7e0ee5dcea9af71", "fusion_lat": 0.0, "name": "79af814283b7ac35f7e0ee5dcea9af71", "is_reserved": 0, "rental_uris": {"android": "https://dc.lft.to/lastmile_qr_scan", "ios": "https://dc.lft.to/lastmile_qr_scan"}, "fusion_lon": 0.0}, {"lat": 38.893951666666666, "is_disabled": 0, "type": "electric_scooter", "lon": -77.05589683333334, "bike_id": "6bcd2a37a5c41abf35724ed77e98c5bc", "fusion_lat": 0.0, "name": "6bcd2a37a5c41abf35724ed77e98c5bc", "is_reserved": 0, "rental_uris": {"android": "https://dc.lft.to/lastmile_qr_scan", "ios": "https://dc.lft.to/lastmile_qr_scan"}, "fusion_lon": 0.0}, {"lat": 38.90243666666667, "is_disabled": 0, "type": "electric_scooter", "lon": -77.02049833333334, "bike_id": "d4cd3f50a7ee46762168816ef34b1403", "fusion_lat": 0.0, "name": "d4cd3f50a7ee46762168816ef34b1403", "is_reserved": 0, "rental_uris": {"android": "https://dc.lft.to/lastmile_qr_scan", "ios": "https://dc.lft.to/lastmile_qr_scan"}, "fusion_lon": 0.0}, {"lat": 38.87142766666667, "is_disabled": 0, "type": "electric_bike", "lon": -76.93671416666666, "bike_id": "3c8aa7d608ee0e9cceecebd2feca081d", "fusion_lat": 0.0, "name": "3c8aa7d608ee0e9cceecebd2feca081d", "is_reserved": 0, "rental_uris": {"android": "https://dc.lft.to/lastmile_qr_scan", "ios": "https://dc.lft.to/lastmile_qr_scan"}, "fusion_lon": 0.0}, {"lat": 38.9141305, "is_disabled": 0, "type": "electric_scooter", "lon": -77.03181816666667, "bike_id": "84a413a6155c9c6c4cef9913f6986226", "fusion_lat": 0.0, "name": "84a413a6155c9c6c4cef9913f6986226", "is_reserved": 0, "rental_uris": {"android": "https://dc.lft.to/lastmile_qr_scan", "ios": "https://dc.lft.to/lastmile_qr_scan"}, "fusion_lon": 0.0}, {"lat": 38.91217533333333, "is_disabled": 0, "type": "electric_scooter", "lon": -77.02717383333334, "bike_id": "088b43e80aa570c488e2603600716298", "fusion_lat": 0.0, "name": "088b43e80aa570c488e2603600716298", "is_reserved": 0, "rental_uris": {"android": "https://dc.lft.to/lastmile_qr_scan", "ios": "https://dc.lft.to/lastmile_qr_scan"}, "fusion_lon": 0.0}, {"lat": 38.90772616666667, "is_disabled": 0, "type": "electric_scooter", "lon": -77.038469, "bike_id": "c2c6fd382870a1ec824c8185c20af73c", "fusion_lat": 0.0, "name": "c2c6fd382870a1ec824c8185c20af73c", "is_reserved": 0, "rental_uris": {"android": "https://dc.lft.to/lastmile_qr_scan", "ios": "https://dc.lft.to/lastmile_qr_scan"}, "fusion_lon": 0.0}, {"lat": 38.90522966666666, "is_disabled": 0, "type": "electric_scooter", "lon": -76.9862685, "bike_id": "34368143096af0d533d6704f2f27b631", "fusion_lat": 0.0, "name": "34368143096af0d533d6704f2f27b631", "is_reserved": 0, "rental_uris": {"android": "https://dc.lft.to/lastmile_qr_scan", "ios": "https://dc.lft.to/lastmile_qr_scan"}, "fusion_lon": 0.0}, {"lat": 38.91346, "is_disabled": 0, "type": "electric_scooter", "lon": -77.04350766666667, "bike_id": "625922dd9011886dda323f6efd6fc03c", "fusion_lat": 0.0, "name": "625922dd9011886dda323f6efd6fc03c", "is_reserved": 0, "rental_uris": {"android": "https://dc.lft.to/lastmile_qr_scan", "ios": "https://dc.lft.to/lastmile_qr_scan"}, "fusion_lon": 0.0}, {"lat": 38.92026883333333, "is_disabled": 0, "type": "electric_scooter", "lon": -77.03848366666666, "bike_id": "c37bbbf402a1d569d342a7428e26bea4", "fusion_lat": 0.0, "name": "c37bbbf402a1d569d342a7428e26bea4", "is_reserved": 0, "rental_uris": {"android": "https://dc.lft.to/lastmile_qr_scan", "ios": "https://dc.lft.to/lastmile_qr_scan"}, "fusion_lon": 0.0}, {"lat": 38.919798166666666, "is_disabled": 0, "type": "electric_scooter", "lon": -77.04171, "bike_id": "721d9f2aa138c2a488db55facbbff277", "fusion_lat": 0.0, "name": "721d9f2aa138c2a488db55facbbff277", "is_reserved": 0, "rental_uris": {"android": "https://dc.lft.to/lastmile_qr_scan", "ios": "https://dc.lft.to/lastmile_qr_scan"}, "fusion_lon": 0.0},