{"data": {"bikes": [{"lon": -76.99365083333333, "bike_id": "a3e4429c8b1c8f9cefc2288d95674c24", "lat": 38.940283, "fusion_lon": 0.0, "fusion_lat": 0.0, "type": "electric_scooter", "name": "a3e4429c8b1c8f9cefc2288d95674c24", "is_disabled": 0, "rental_uris": {"ios": "https://dc.lft.to/lastmile_qr_scan", "android": "https://dc.lft.to/lastmile_qr_scan"}, "is_reserved": 0}, {"lon": -76.98587816666667, "bike_id": "830dc6c494c156cb567234545f59f34a", "lat": 38.88398083333333, "fusion_lon": 0.0, "fusion_lat": 0.0, "type": "electric_scooter", "name": "830dc6c494c156cb567234545f59f34a", "is_disabled": 0, "rental_uris": {"ios": "https://dc.lft.to/lastmile_qr_scan", "android": "https://dc.lft.to/lastmile_qr_scan"}, "is_reserved": 0}, {"lon": -77.02966383333333, "bike_id": "a8f498918d15bca7ebb4f4173286737f", "lat": 38.912783166666664, "fusion_lon": 0.0, "fusion_lat": 0.0, "type": "electric_scooter", "name": "a8f498918d15bca7ebb4f4173286737f", "is_disabled": 0, "rental_uris": {"ios": "https://dc.lft.to/lastmile_qr_scan", "android": "https://dc.lft.to/lastmile_qr_scan"}, "is_reserved": 0}, {"lon": -77.02274866666667, "bike_id": "4b8b9848ba44bb3cc18b0de9dad7b59f", "lat": 38.902821, "fusion_lon": 0.0, "fusion_lat": 0.0, "type": "electric_scooter", "name": "4b8b9848ba44bb3cc18b0de9dad7b59f", "is_disabled": 0, "rental_uris": {"ios": "https://dc.lft.to/lastmile_qr_scan", "android": "https://dc.lft.to/lastmile_qr_scan"}, "is_reserved": 0}, {"lon": -76.9786505, "bike_id": "3c108d6bf16c3cb5cbbae1411abd480f", "lat": 38.88301833333333, "fusion_lon": 0.0, "fusion_lat": 0.0, "type": "electric_scooter", "name": "3c108d6bf16c3cb5cbbae1411abd480f", "is_disabled": 0, "rental_uris": {"ios": "https://dc.lft.to/lastmile_qr_scan", "android": "https://dc.lft.to/lastmile_qr_scan"}, "is_reserved": 0}, {"lon": -76.9901105, "bike_id": "3236ac63ff3c990249c6387a19d71895", "lat": 38.94597266666667, "fusion_lon": 0.0, "fusion_lat": 0.0, "type": "electric_scooter", "name": "3236ac63ff3c990249c6387a19d71895", "is_disabled": 0, "rental_uris": {"ios": "https://dc.lft.to/lastmile_qr_scan", "android": "https://dc.lft.to/lastmile_qr_scan"}, "is_reserved": 0}, {"lon": -77.04976466666666, "bike_id": "a7a201e0dee5a5c2c362c997246f791f", "lat": 39.062952333333335, "fusion_lon": 0.0, "fusion_lat": 0.0, "type": "electric_bike", "name": "a7a201e0dee5a5c2c362c997246f791f", "is_disabled": 0, "rental_uris": {"ios": "https://dc.lft.to/lastmile_qr_scan", "android": "https://dc.lft.to/lastmile_qr_scan"}, "is_reserved": 0}, {"lon": -77.0386005, "bike_id": "fd125e8365670e9cd670fdd0db466d7e", "lat": 38.92012, "fusion_lon": 0.0, "fusion_lat": 0.0, "type": "electric_scooter", "name": "fd125e8365670e9cd670fdd0db466d7e", "is_disabled": 0, "rental_uris": {"ios": "https://dc.lft.to/lastmile_qr_scan", "android": "https://dc.lft.to/lastmile_qr_scan"}, "is_reserved": 0}, {"lon": -77.03814166666666, "bike_id": "397984a9e04540e28149b8f09ead8232", "lat": 38.909792833333334, "fusion_lon": 0.0, "fusion_lat": 0.0, "type": "electric_scooter", "name": "397984a9e04540e28149b8f09ead8232", "is_disabled": 0, "rental_uris": {"ios": "https://dc.lft.to/lastmile_qr_scan", "android": "https://dc.lft.to/lastmile_qr_scan"}, "is_reserved": 0}, {"lon": -77.06301733333333, "bike_id": "0888af8043d106aab6d1b90c26eff5a3", "lat": 38.865370666666664, "fusion_lon": 0.0, "fusion_lat": 0.0, "type": "electric_bike", "name": "0888af8043d106aab6d1b90c26eff5a3", "is_disabled": 0, "rental_uris": {"ios": "https://dc.lft.to/lastmile_qr_scan", "android": "https://dc.lft.to/lastmile_qr_scan"}, "is_reserved": 0}, {"lon": -77.0513875, "bike_id": "c3d0100e5b0c2eabb27dea80b3c9833d", "lat": 38.898708166666665, "fusion_lon": 0.0, "fusion_lat": 0.0, "type": "electric_scooter", "name": "c3d0100e5b0c2eabb27dea80b3c9833d", "is_disabled": 0, "rental_uris": {"ios": "https://dc.lft.to/lastmile_qr_scan", "android": "https://dc.lft.to/lastmile_qr_scan"}, "is_reserved": 0}, {"lon": -77.02757366666667, "bike_id": "333855408a12a475416a5910952dd1d3", "lat": 38.944036, "fusion_lon": 0.0, "fusion_lat": 0.0, "type": "electric_scooter", "name": "333855408a12a475416a5910952dd1d3", "is_disabled": 0, "rental_uris": {"ios": "https://dc.lft.to/lastmile_qr_scan", "android": "https://dc.lft.to/lastmile_qr_scan"}, "is_reserved": 0}, {"lon": -77.04549766666666, "bike_id": "45a6a1dfd0662e42f7d755d28661ec98", "lat": 38.915905, "fusion_lon": 0.0, "fusion_lat": 0.0, "type": "electric_scooter", "name": "45a6a1dfd0662e42f7d755d28661ec98", "is_disabled": 0, "rental_uris": {"ios": "https://dc.lft.to/lastmile_qr_scan", "android": "https://dc.lft.to/lastmile_qr_scan"}, "is_reserved": 0}, {"lon": -77.030709, "bike_id": "b228c732904a5bd311e0f434fda7ffdd", "lat": 38.902689, "fusion_lon": 0.0, "fusion_lat": 0.0, "type": "electric_scooter", "name": "b228c732904a5bd311e0f434fda7ffdd", "is_disabled": 0, "rental_uris": {"ios": "https://dc.lft.to/lastmile_qr_scan", "android": "https://dc.lft.to/lastmile_qr_scan"}, "is_reserved": 0}, {"lon": -77.03397616666666, "bike_id": "d4828f9299df483b129e4547a7b0e6a9", "lat": 38.9232145, "fusion_lon": 0.0, "fusion_lat": 0.0, "type": "electric_scooter", "name": "d4828f9299df483b129e4547a7b0e6a9", "is_disabled": 0, "rental_uris": {"ios": "https://dc.lft.to/lastmile_qr_scan", "android": "https://dc.lft.to/lastmile_qr_scan"}, "is_reserved": 0}, {"lon": -77.02079183333333, "bike_id": "fef6723c0c364ea14a18f7feb98e8067", "lat": 38.90405, "fusion_lon": 0.0, "fusion_lat": 0.0, "type": "electric_scooter", "name": "fef6723c0c364ea14a18f7feb98e8067", "is_disabled": 0, "rental_uris": {"ios": "https://dc.lft.to/lastmile_qr_scan", "android": "https://dc.lft.to/lastmile_qr_scan"}, "is_reserved": 0}, {"lon": -77.021155, "bike_id": "458db741b6812502b70e25e9a9645872", "lat": 38.909689166666666, "fusion_lon": 0.0, "fusion_lat": 0.0, "type": "electric_scooter", "name": "458db741b6812502b70e25e9a9645872", "is_disabled": 0, "rental_uris": {"ios": "https://dc.lft.to/lastmile_qr_scan", "android": "https://dc.lft.to/lastmile_qr_scan"}, "is_reserved": 0}, {"lon": -77.05859983333333, "bike_id": "6ba6fd73b2b16517e3d047f518512a92", "lat": 38.936094, "fusion_lon": 0.0, "fusion_lat": 0.0, "type": "electric_scooter", "name": "6ba6fd73b2b16517e3d047f518512a92", "is_disabled": 0, "rental_uris": {"ios": "https://dc.lft.to/lastmile_qr_scan", "android": "https://dc.lft.to/lastmile_qr_scan"}, "is_reserved": 0}, {"lon": -77.02451733333334, "bike_id": "4aef1b4fa8a8c4ad15380ce652bb456f", "lat": 38.90081883333333, "fusion_lon": 0.0, "fusion_lat": 0.0, "type": "electric_scooter", "name": "4aef1b4fa8a8c4ad15380ce652bb456f", "is_disabled": 0, "rental_uris": {"ios": "https://dc.lft.to/lastmile_qr_scan", "android": "https://dc.lft.to/lastmile_qr_scan"}, "is_reserved": 0}, {"lon": -77.03376633333333, "bike_id": "7d90760cbb18543e6c5c450af704d073", "lat": 38.90974283333333, "fusion_lon": 0.0, "fusion_lat": 0.0, "type": "electric_scooter", "name": "7d90760cbb18543e6c5c450af704d073", "is_disabled": 0, "rental_uris": {"ios": "https://dc.lft.to/lastmile_qr_scan", "android": "https://dc.lft.to/lastmile_qr_scan"}, "is_reserved": 0}, {"lon": -77.052608, "bike_id": "abe9b00ba36819331bb78e1968845897", "lat": 38.927795833333334, "fusion_lon": 0.0, "fusion_lat": 0.0, "type": "electric_scooter", "name": "abe9b00ba36819331bb78e1968845897", "is_disabled": 0, "rental_uris": {"ios": "https://dc.lft.to/lastmile_qr_scan", "android": "https://dc.lft.to/lastmile_qr_scan"}, "is_reserved": 0}, {"lon": -77.03839316666667, "bike_id": "114fa20e46e09e8b01afa6b4ee1cb2ad", "lat": 38.906612, "fusion_lon": 0.0, "fusion_lat": 0.0, "type": "electric_scooter", "name": "114fa20e46e09e8b01afa6b4ee1cb2ad", "is_disabled": 0, "rental_uris": {"ios": "https://dc.lft.to/lastmile_qr_scan", "android": "https://dc.lft.to/lastmile_qr_scan"}, "is_reserved": 0}, {"lon": -77.025915, "bike_id": "e43d2aa356500b336c0ca2b9d5f294b6", "lat": 38.9420355, "fusion_lon": 0.0, "fusion_lat": 0.0, "type": "electric_scooter", "name": "e43d2aa356500b336c0ca2b9d5f294b6", "is_disabled": 0, "rental_uris": {"ios": "https://dc.lft.to/lastmile_qr_scan", "android": "https://dc.lft.to/lastmile_qr_scan"}, "is_reserved": 0}, {"lon": -77.02710933333333, "bike_id": "89468b9053a9d12f83d135695259c1c9", "lat": 38.924631833333336, "fusion_lon": 0.0, "fusion_lat": 0.0, "type": "electric_scooter", "name": "89468b9053a9d12f83d135695259c1c9", "is_disabled": 0, "rental_uris": {"ios": "https://dc.lft.to/lastmile_qr_scan", "android": "https://dc.lft.to/lastmile_qr_scan"}, "is_reserved": 0}, {"lon": -77.03214883333334, "bike_id": "eb626dce20590ba5956ec9d5d6765af9", "lat": 38.91481666666667, "fusion_lon": 0.0, "fusion_lat": 0.0, "type": "electric_scooter", "name": "eb626dce20590ba5956ec9d5d6765af9", "is_disabled": 0, "rental_uris": {"ios": "https://dc.lft.to/lastmile_qr_scan", "android": "https://dc.lft.to/lastmile_qr_scan"}, "is_reserved": 0}, {"lon": -77.02826033333334, "bike_id": "aeb84bb39d49c5b19391326bd9cd68ce", "lat": 38.88732816666667, "fusion_lon": 0.0, "fusion_lat": 0.0, "type": "electric_scooter", "name": "aeb84bb39d49c5b19391326bd9cd68ce", "is_disabled": 0, "rental_uris": {"ios": "https://dc.lft.to/lastmile_qr_scan", "android": "https://dc.lft.to/lastmile_qr_scan"}, "is_reserved": 0}, {"lon": -76.989219, "bike_id": "b791552e04ed5f62e6520b99262b1935", "lat": 38.86487483333333, "fusion_lon": 0.0, "fusion_lat": 0.0, "type": "electric_scooter", "name": "b791552e04ed5f62e6520b99262b1935", "is_disabled": 0, "rental_uris": {"ios": "https://dc.lft.to/lastmile_qr_scan", "android": "https://dc.lft.to/lastmile_qr_scan"}, "is_reserved": 0}, {"lon": -77.0849175, "bike_id": "0b585ae79a530d5aeb32670ea82a8fca", "lat": 38.848488833333334, "fusion_lon": 0.0, "fusion_lat": 0.0, "type": "electric_bike", "name": "0b585ae79a530d5aeb32670ea82a8fca", "is_disabled": 0, "rental_uris": {"ios": "https://dc.lft.to/lastmile_qr_scan", "android": "https://dc.lft.to/lastmile_qr_scan"}, "is_reserved": 0}, {"lon": -77.04269483333333, "bike_id": "6443f4be0d4afb151ca6901b87bde0e6", "lat": 38.900235333333335, "fusion_lon": 0.0, "fusion_lat": 0.0, "type": "electric_scooter", "name": "6443f4be0d4afb151ca6901b87bde0e6", "is_disabled": 0, "rental_uris": {"ios": "https://dc.lft.to/lastmile_qr_scan", "android": "https://dc.lft.to/lastmile_qr_scan"}, "is_reserved": 0}, {"lon": -77.0319605, "bike_id": "f4895252af4468b6eed71c1e0bf36bca", "lat": 38.93056633333333, "fusion_lon": 0.0, "fusion_lat": 0.0, "type": "electric_scooter", "name": "f4895252af4468b6eed71c1e0bf36bca", "is_disabled": 0, "rental_uris": {"ios": "https://dc.lft.to/lastmile_qr_scan", "android": "https://dc.lft.to/lastmile_qr_scan"}, "is_reserved": 0}, {"lon": -77.025895, "bike_id": "c87e64ad21708579c9ffd40432024b0a", "lat": 38.90654216666667, "fusion_lon": 0.0, "fusion_lat": 0.0, "type": "electric_scooter", "name": "c87e64ad21708579c9ffd40432024b0a", "is_disabled": 0, "rental_uris": {"ios": "https://dc.lft.to/lastmile_qr_scan", "android": "https://dc.lft.to/lastmile_qr_scan"}, "is_reserved": 0}, {"lon": -77.0160295, "bike_id": "8ce98bada1297966d94f1ad97da0736c", "lat": 38.8767875, "fusion_lon": 0.0, "fusion_lat": 0.0, "type": "electric_scooter", "name": "8ce98bada1297966d94f1ad97da0736c", "is_disabled": 0, "rental_uris": {"ios": "https://dc.lft.to/lastmile_qr_scan", "android": "https://dc.lft.to/lastmile_qr_scan"}, "is_reserved": 0}, {"lon": -77.0447925, "bike_id": "f14a20dc201fbb0d1bb4e98642c3370a", "lat": 38.92428316666667, "fusion_lon": 0.0, "fusion_lat": 0.0, "type": "electric_scooter", "name": "f14a20dc201fbb0d1bb4e98642c3370a", "is_disabled": 0, "rental_uris": {"ios": "https://dc.lft.to/lastmile_qr_scan", "android": "https://dc.lft.to/lastmile_qr_scan"}, "is_reserved": 0}, {"lon": -77.04722883333334, "bike_id": "fb93ff5317e3ec49d1e756a4b2fc38d1", "lat": 38.90311116666667, "fusion_lon": 0.0, "fusion_lat": 0.0, "type": "electric_scooter", "name": "fb93ff5317e3ec49d1e756a4b2fc38d1", "is_disabled": 0, "rental_uris": {"ios": "https://dc.lft.to/lastmile_qr_scan", "android": "https://dc.lft.to/lastmile_qr_scan"}, "is_reserved": 0}, {"lon": -77.00889133333334, "bike_id": "c6c0fde6b4eb7bb0cca1ee9cd3dd7ee9", "lat": 38.9611985, "fusion_lon": 0.0, "fusion_lat": 0.0, "type": "electric_scooter", "name": "c6c0fde6b4eb7bb0cca1ee9cd3dd7ee9", "is_disabled": 0, "rental_uris": {"ios": "https://dc.lft.to/lastmile_qr_scan", "android": "https://dc.lft.to/lastmile_qr_scan"}, "is_reserved": 0}, {"lon": -76.94593716666667, "bike_id": "9246d3f8297e8d24d69c74377f59b2c0", "lat": 38.901511666666664, "fusion_lon": 0.0, "fusion_lat": 0.0, "type": "electric_scooter", "name": "9246d3f8297e8d24d69c74377f59b2c0", "is_disabled": 0, "rental_uris": {"ios": "https://dc.lft.to/lastmile_qr_scan", "android": "https://dc.lft.to/lastmile_qr_scan"}, "is_reserved": 0}, {"lon": -77.032696, "bike_id": "2ba9ce6da79fb71d94ddb0bf85d97ea6", "lat": 38.901301833333335, "fusion_lon": 0.0, "fusion_lat": 0.0, "type": "electric_scooter", "name": "2ba9ce6da79fb71d94ddb0bf85d97ea6", "is_disabled": 0, "rental_uris": {"ios": "https://dc.lft.to/lastmile_qr_scan", "android": "https://dc.lft.to/lastmile_qr_scan"}, "is_reserved": 0}, {"lon": -76.931853, "bike_id": "251d9d9b903dbaf33cff9ca7791870c5", "lat": 38.898763833333334, "fusion_lon": 0.0, "fusion_lat": 0.0, "type": "electric_scooter", "name": "251d9d9b903dbaf33cff9ca7791870c5", "is_disabled": 0, "rental_uris": {"ios": "https://dc.lft.to/lastmile_qr_scan", "android": "https://dc.lft.to/lastmile_qr_scan"}, "is_reserved": 0}, {"lon": -76.973963, "bike_id": "65698ac74758c9f2f325e3d7200019e9", "lat": 38.902963666666665, "fusion_lon": 0.0, "fusion_lat": 0.0, "type": "electric_scooter", "name": "65698ac74758c9f2f325e3d7200019e9", "is_disabled": 0, "rental_uris": {"ios": "https://dc.lft.to/lastmile_qr_scan", "android": "https://dc.lft.to/lastmile_qr_scan"}, "is_reserved": 0}, {"lon": -76.990343, "bike_id": "3af43d81ff2c777b9c179dd4a2922ee5", "lat": 38.888694, "fusion_lon": 0.0, "fusion_lat": 0.0, "type": "electric_scooter", "name": "3af43d81ff2c777b9c179dd4a2922ee5", "is_disabled": 0, "rental_uris": {"ios": "https://dc.lft.to/lastmile_qr_scan", "android": "https://dc.lft.to/lastmile_qr_scan"}, "is_reserved": 0}, {"lon": -77.0297055, "bike_id": "7e89a54d6bf481993aeaad0223f0e98e", "lat": 38.922871666666666, "fusion_lon": 0.0, "fusion_lat": 0.0, "type": "electric_scooter", "name": "7e89a54d6bf481993aeaad0223f0e98e", "is_disabled": 0, "rental_uris": {"ios": "https://dc.lft.to/lastmile_qr_scan", "android": "https://dc.lft.to/lastmile_qr_scan"}, "is_reserved": 0}, {"lon": -77.0676865, "bike_id": "a69d447268891870a2aef8f11e95073b", "lat": 38.9050655, "fusion_lon": 0.0, "fusion_lat": 0.0, "type": "electric_scooter", "name": "a69d447268891870a2aef8f11e95073b", "is_disabled": 0, "rental_uris": {"ios": "https://dc.lft.to/lastmile_qr_scan", "android": "https://dc.lft.to/lastmile_qr_scan"}, "is_reserved": 0}, {"lon": -77.0397665, "bike_id": "7aeb12f0df760ce99d4861c1ada4b4a9", "lat": 38.92804433333333, "fusion_lon": 0.0, "fusion_lat": 0.0, "type": "electric_scooter", "name": "7aeb12f0df760ce99d4861c1ada4b4a9", "is_disabled": 0, "rental_uris": {"ios": "https://dc.lft.to/lastmile_qr_scan", "android": "https://dc.lft.to/lastmile_qr_scan"}, "is_reserved": 0}, {"lon": -77.02797333333334, "bike_id": "50bf60725618287a25c30f5bdcfb9a90", "lat": 38.929619333333335, "fusion_lon": 0.0, "fusion_lat": 0.0, "type": "electric_scooter", "name": "50bf60725618287a25c30f5bdcfb9a90", "is_disabled": 0, "rental_uris": {"ios": "https://dc.lft.to/lastmile_qr_scan", "android": "https://dc.lft.to/lastmile_qr_scan"}, "is_reserved": 0}, {"lon": -76.985226, "bike_id": "1b307e399b081f7ce2b158d077aba653", "lat": 38.866871, "fusion_lon": 0.0, "fusion_lat": 0.0, "type": "electric_scooter", "name": "1b307e399b081f7ce2b158d077aba653", "is_disabled": 0, "rental_uris": {"ios": "https://dc.lft.to/lastmile_qr_scan", "android": "https://dc.lft.to/lastmile_qr_scan"}, "is_reserved": 0}, {"lon": -77.00295866666667, "bike_id": "735aa2d2631bb9e23fc5ff48cda7c38b", "lat": 38.90123766666667, "fusion_lon": 0.0, "fusion_lat": 0.0, "type": "electric_scooter", "name": "735aa2d2631bb9e23fc5ff48cda7c38b", "is_disabled": 0, "rental_uris": {"ios": "https://dc.lft.to/lastmile_qr_scan", "android": "https://dc.lft.to/lastmile_qr_scan"}, "is_reserved": 0}, {"lon": -77.0352285, "bike_id": "015aaea15e1597d04629606f8a6a1dc6", "lat": 38.923329333333335, "fusion_lon": 0.0, "fusion_lat": 0.0, "type": "electric_scooter", "name": "015aaea15e1597d04629606f8a6a1dc6", "is_disabled": 0, "rental_uris": {"ios": "https://dc.lft.to/lastmile_qr_scan", "android": "https://dc.lft.to/lastmile_qr_scan"}, "is_reserved": 0}, {"lon": -77.04358066666667, "bike_id": "436918620756bd05f9d53322a4ac4020", "lat": 38.91112183333333, "fusion_lon": 0.0, "fusion_lat": 0.0, "type": "electric_scooter", "name": "436918620756bd05f9d53322a4ac4020", "is_disabled": 0, "rental_uris": {"ios": "https://dc.lft.to/lastmile_qr_scan", "android": "https://dc.lft.to/lastmile_qr_scan"}, "is_reserved": 0}, {"lon": -77.01141216666667, "bike_id": "774c553d52bbb059f13384a094e3433f", "lat": 38.906471333333336, "fusion_lon": 0.0, "fusion_lat": 0.0, "type": "electric_scooter", "name": "774c553d52bbb059f13384a094e3433f", "is_disabled": 0, "rental_uris": {"ios": "https://dc.lft.to/lastmile_qr_scan", "android": "https://dc.lft.to/lastmile_qr_scan"}, "is_reserved": 0}, {"lon": -76.97297516666667, "bike_id": "153cce37831a3d26be50e49c67812cab", "lat": 38.91648583333333, "fusion_lon": 0.0, "fusion_lat": 0.0, "type": "electric_bike", "name": "153cce37831a3d26be50e49c67812cab", "is_disabled": 0, "rental_uris": {"ios": "https://dc.lft.to/lastmile_qr_scan", "android": "https://dc.lft.to/lastmile_qr_scan"}, "is_reserved": 0}, {"lon": -77.02657016666667, "bike_id": "c182a7b881fcc7616b560709abd72ece", "lat": 38.8974745, "fusion_lon": 0.0, "fusion_lat": 0.0, "type": "electric_scooter", "name": "c182a7b881fcc7616b560709abd72ece", "is_disabled": 0, "rental_uris": {"ios": "https://dc.lft.to/lastmile_qr_scan", "android": "https://dc.lft.to/lastmile_qr_scan"}, "is_reserved": 0}, {"lon": -77.02953866666667, "bike_id": "d7d4fd95cb90f32df945ecf8bf914a26", "lat": 38.9049455, "fusion_lon": 0.0, "fusion_lat": 0.0, "type": "electric_scooter", "name": "d7d4fd95cb90f32df945ecf8bf914a26", "is_disabled": 0, "rental_uris": {"ios": "https://dc.lft.to/lastmile_qr_scan", "android": "https://dc.lft.to/lastmile_qr_scan"}, "is_reserved": 0}, {"lon": -76.96538833333334, "bike_id": "498df536ca94d945a46a8ebb5a9b0673", "lat": 38.918448166666664, "fusion_lon": 0.0, "fusion_lat": 0.0, "type": "electric_scooter", "name": "498df536ca94d945a46a8ebb5a9b0673", "is_disabled": 0, "rental_uris": {"ios": "https://dc.lft.to/lastmile_qr_scan", "android": "https://dc.lft.to/lastmile_qr_scan"}, "is_reserved": 0}, {"lon": -76.9499245, "bike_id": "bce27113b55f65cc206ce298b9fd127e", "lat": 38.893818833333334, "fusion_lon": 0.0, "fusion_lat": 0.0, "type": "electric_scooter", "name": "bce27113b55f65cc206ce298b9fd127e", "is_disabled": 0, "rental_uris": {"ios": "https://dc.lft.to/lastmile_qr_scan", "android": "https://dc.lft.to/lastmile_qr_scan"}, "is_reserved": 0}, {"lon": -77.233307, "bike_id": "bb7c63e248b61008e4b53945dfb5c581", "lat": 38.8727405, "fusion_lon": 0.0, "fusion_lat": 0.0, "type": "electric_bike", "name": "bb7c63e248b61008e4b53945dfb5c581", "is_disabled": 0, "rental_uris": {"ios": "https://dc.lft.to/lastmile_qr_scan", "android": "https://dc.lft.to/lastmile_qr_scan"}, "is_reserved": 0}, {"lon": -76.994491, "bike_id": "7aab4835c1635a25ab3fbe050d808c7f", "lat": 38.86276933333333, "fusion_lon": 0.0, "fusion_lat": 0.0, "type": "electric_scooter", "name": "7aab4835c1635a25ab3fbe050d808c7f", "is_disabled": 0, "rental_uris": {"ios": "https://dc.lft.to/lastmile_qr_scan", "android": "https://dc.lft.to/lastmile_qr_scan"}, "is_reserved": 0}, {"lon": -77.026929, "bike_id": "24f964581451964aa233899f8cf112b3", "lat": 38.90844466666667, "fusion_lon": 0.0, "fusion_lat": 0.0, "type": "electric_scooter", "name": "24f964581451964aa233899f8cf112b3", "is_disabled": 0, "rental_uris": {"ios": "https://dc.lft.to/lastmile_qr_scan", "android": "https://dc.lft.to/lastmile_qr_scan"}, "is_reserved": 0}, {"lon": -76.98880716666666, "bike_id": "c8e87e70dfdb80ce5f06170a4e0aca4a", "lat": 38.86660633333334, "fusion_lon": 0.0, "fusion_lat": 0.0, "type": "electric_scooter", "name": "c8e87e70dfdb80ce5f06170a4e0aca4a", "is_disabled": 0, "rental_uris": {"ios": "https://dc.lft.to/lastmile_qr_scan", "android": "https://dc.lft.to/lastmile_qr_scan"}, "is_reserved": 0}, {"lon": -77.0010385, "bike_id": "f0ca4930cf6c25f833312c390a10af63", "lat": 38.912402666666665, "fusion_lon": 0.0, "fusion_lat": 0.0, "type": "electric_scooter", "name": "f0ca4930cf6c25f833312c390a10af63", "is_disabled": 0, "rental_uris": {"ios": "https://dc.lft.to/lastmile_qr_scan", "android": "https://dc.lft.to/lastmile_qr_scan"}, "is_reserved": 0}, {"lon": -77.006684, "bike_id": "5074521567bb8a5d487b2f6305aa8eea", "lat": 38.9450575, "fusion_lon": 0.0, "fusion_lat": 0.0, "type": "electric_bike", "name": "5074521567bb8a5d487b2f6305aa8eea", "is_disabled": 0, "rental_uris": {"ios": "https://dc.lft.to/lastmile_qr_scan", "android": "https://dc.lft.to/lastmile_qr_scan"}, "is_reserved": 0}, {"lon": -77.0319505, "bike_id": "b92110cf13dbc31c28c66381561d802e", "lat": 38.89881416666667, "fusion_lon": 0.0, "fusion_lat": 0.0, "type": "electric_scooter", "name": "b92110cf13dbc31c28c66381561d802e", "is_disabled": 0, "rental_uris": {"ios": "https://dc.lft.to/lastmile_qr_scan", "android": "https://dc.lft.to/lastmile_qr_scan"}, "is_reserved": 0}, {"lon": -77.0422995, "bike_id": "1b2490107bd1a42e3d11dfa221826c93", "lat": 38.921279, "fusion_lon": 0.0, "fusion_lat": 0.0, "type": "electric_scooter", "name": "1b2490107bd1a42e3d11dfa221826c93", "is_disabled": 0, "rental_uris": {"ios": "https://dc.lft.to/lastmile_qr_scan", "android": "https://dc.lft.to/lastmile_qr_scan"}, "is_reserved": 0}, {"lon": -77.03803866666667, "bike_id": "8fd6123f4b535cf2775cca65da2aa05d", "lat": 38.92064633333333, "fusion_lon": 0.0, "fusion_lat": 0.0, "type": "electric_scooter", "name": "8fd6123f4b535cf2775cca65da2aa05d", "is_disabled": 0, "rental_uris": {"ios": "https://dc.lft.to/lastmile_qr_scan", "android": "https://dc.lft.to/lastmile_qr_scan"}, "is_reserved": 0}, {"lon": -77.04050183333334, "bike_id": "234c63a0f5d9c96a9b52e6b310a87ac9", "lat": 38.90835716666667, "fusion_lon": 0.0, "fusion_lat": 0.0, "type": "electric_bike", "name": "234c63a0f5d9c96a9b52e6b310a87ac9", "is_disabled": 0, "rental_uris": {"ios": "https://dc.lft.to/lastmile_qr_scan", "android": "https://dc.lft.to/lastmile_qr_scan"}, "is_reserved": 0}, {"lon": -76.99755, "bike_id": "338575151e0a38194914a2525d7a2020", "lat": 38.90025466666667, "fusion_lon": 0.0, "fusion_lat": 0.0, "type": "electric_scooter", "name": "338575151e0a38194914a2525d7a2020", "is_disabled": 0, "rental_uris": {"ios": "https://dc.lft.to/lastmile_qr_scan", "android": "https://dc.lft.to/lastmile_qr_scan"}, "is_reserved": 0}, {"lon": -77.03168733333334, "bike_id": "7a591d5eb04cb1b2c16485f001eaef05", "lat": 38.91121066666667, "fusion_lon": 0.0, "fusion_lat": 0.0, "type": "electric_scooter", "name": "7a591d5eb04cb1b2c16485f001eaef05", "is_disabled": 0, "rental_uris": {"ios": "https://dc.lft.to/lastmile_qr_scan", "android": "https://dc.lft.to/lastmile_qr_scan"}, "is_reserved": 0}, {"lon": -77.01761033333334, "bike_id": "e51cb97552f49e9ac67341e0a96158b6", "lat": 38.88596033333334, "fusion_lon": 0.0, "fusion_lat": 0.0, "type": "electric_scooter", "name": "e51cb97552f49e9ac67341e0a96158b6", "is_disabled": 0, "rental_uris": {"ios": "https://dc.lft.to/lastmile_qr_scan", "android": "https://dc.lft.to/lastmile_qr_scan"}, "is_reserved": 0}, {"lon": -77.02206966666667, "bike_id": "9ec48e79f62ee76699196eb3013ef250", "lat": 38.902014, "fusion_lon": 0.0, "fusion_lat": 0.0, "type": "electric_scooter", "name": "9ec48e79f62ee76699196eb3013ef250", "is_disabled": 0, "rental_uris": {"ios": "https://dc.lft.to/lastmile_qr_scan", "android": "https://dc.lft.to/lastmile_qr_scan"}, "is_reserved": 0}, {"lon": -76.98706783333333, "bike_id": "5aa9f9f04f2545ca9a800c93d2034a43", "lat": 38.86703, "fusion_lon": 0.0, "fusion_lat": 0.0, "type": "electric_scooter", "name": "5aa9f9f04f2545ca9a800c93d2034a43", "is_disabled": 0, "rental_uris": {"ios": "https://dc.lft.to/lastmile_qr_scan", "android": "https://dc.lft.to/lastmile_qr_scan"}, "is_reserved": 0}, {"lon": -77.03795333333333, "bike_id": "59d2714ae5727317eb7cbd220cd684bc", "lat": 38.925434833333334, "fusion_lon": 0.0, "fusion_lat": 0.0, "type": "electric_scooter", "name": "59d2714ae5727317eb7cbd220cd684bc", "is_disabled": 0, "rental_uris": {"ios": "https://dc.lft.to/lastmile_qr_scan", "android": "https://dc.lft.to/lastmile_qr_scan"}, "is_reserved": 0}, {"lon": -77.05488616666666, "bike_id": "eb8a1f7c6aed7df3a90dbb3d494793ae", "lat": 38.93543233333333, "fusion_lon": 0.0, "fusion_lat": 0.0, "type": "electric_scooter", "name": "eb8a1f7c6aed7df3a90dbb3d494793ae", "is_disabled": 0, "rental_uris": {"ios": "https://dc.lft.to/lastmile_qr_scan", "android": "https://dc.lft.to/lastmile_qr_scan"}, "is_reserved": 0}, {"lon": -77.01976183333333, "bike_id": "9507d130f4b073281c74ad0868317458", "lat": 38.921282833333336, "fusion_lon": 0.0, "fusion_lat": 0.0, "type": "electric_scooter", "name": "9507d130f4b073281c74ad0868317458", "is_disabled": 0, "rental_uris": {"ios": "https://dc.lft.to/lastmile_qr_scan", "android": "https://dc.lft.to/lastmile_qr_scan"}, "is_reserved": 0}, {"lon": -77.02147383333333, "bike_id": "5b5f1dca7f6f50a6f386deaf23e5c3ca", "lat": 38.8946785, "fusion_lon": 0.0, "fusion_lat": 0.0, "type": "electric_scooter", "name": "5b5f1dca7f6f50a6f386deaf23e5c3ca", "is_disabled": 0, "rental_uris": {"ios": "https://dc.lft.to/lastmile_qr_scan", "android": "https://dc.lft.to/lastmile_qr_scan"}, "is_reserved": 0}, {"lon": -77.008872, "bike_id": "9523a75cd143aa168772cca2c40f4ec6", "lat": 38.9265045, "fusion_lon": 0.0, "fusion_lat": 0.0, "type": "electric_scooter", "name": "9523a75cd143aa168772cca2c40f4ec6", "is_disabled": 0, "rental_uris": {"ios": "https://dc.lft.to/lastmile_qr_scan", "android": "https://dc.lft.to/lastmile_qr_scan"}, "is_reserved": 0}, {"lon": -77.02693766666667, "bike_id": "f842aad4987040e56f331f2c7a612b1c", "lat": 38.908424333333336, "fusion_lon": 0.0, "fusion_lat": 0.0, "type": "electric_scooter", "name": "f842aad4987040e56f331f2c7a612b1c", "is_disabled": 0, "rental_uris": {"ios": "https://dc.lft.to/lastmile_qr_scan", "android": "https://dc.lft.to/lastmile_qr_scan"}, "is_reserved": 0}, {"lon": -77.02000616666666, "bike_id": "cf91d5f7779ec34a3b5c440201f7ac9b", "lat": 38.88741383333333, "fusion_lon": 0.0, "fusion_lat": 0.0, "type": "electric_scooter", "name": "cf91d5f7779ec34a3b5c440201f7ac9b", "is_disabled": 0, "rental_uris": {"ios": "https://dc.lft.to/lastmile_qr_scan", "android": "https://dc.lft.to/lastmile_qr_scan"}, "is_reserved": 0}, {"lon": -76.991857, "bike_id": "25922a4858f921da1563ca5dcfc4716e", "lat": 38.9083305, "fusion_lon": 0.0, "fusion_lat": 0.0, "type": "electric_scooter", "name": "25922a4858f921da1563ca5dcfc4716e", "is_disabled": 0, "rental_uris": {"ios": "https://dc.lft.to/lastmile_qr_scan", "android": "https://dc.lft.to/lastmile_qr_scan"}, "is_reserved": 0}, {"lon": -76.987059, "bike_id": "a57d649532524b5ecf8f62fbc15926c9", "lat": 38.86695816666667, "fusion_lon": 0.0, "fusion_lat": 0.0, "type": "electric_scooter", "name": "a57d649532524b5ecf8f62fbc15926c9", "is_disabled": 0, "rental_uris": {"ios": "https://dc.lft.to/lastmile_qr_scan", "android": "https://dc.lft.to/lastmile_qr_scan"}, "is_reserved": 0}, {"lon": -77.01980366666666, "bike_id": "1181bd0e6467e5a08dd743bc5833a351", "lat": 38.960280166666664, "fusion_lon": 0.0, "fusion_lat": 0.0, "type": "electric_scooter", "name": "1181bd0e6467e5a08dd743bc5833a351", "is_disabled": 0, "rental_uris": {"ios": "https://dc.lft.to/lastmile_qr_scan", "android": "https://dc.lft.to/lastmile_qr_scan"}, "is_reserved": 0}, {"lon": -76.93172766666666, "bike_id": "565093aa1177afe6cc914dd5a3cc86cf", "lat": 38.898883166666664, "fusion_lon": 0.0, "fusion_lat": 0.0, "type": "electric_scooter", "name": "565093aa1177afe6cc914dd5a3cc86cf", "is_disabled": 0, "rental_uris": {"ios": "https://dc.lft.to/lastmile_qr_scan", "android": "https://dc.lft.to/lastmile_qr_scan"}, "is_reserved": 0}, {"lon": -77.03205166666666, "bike_id": "5fdb8824d766f0aa90a6d4e20e7f0cbe", "lat": 38.93870066666667, "fusion_lon": 0.0, "fusion_lat": 0.0, "type": "electric_scooter", "name": "5fdb8824d766f0aa90a6d4e20e7f0cbe", "is_disabled": 0, "rental_uris": {"ios": "https://dc.lft.to/lastmile_qr_scan", "android": "https://dc.lft.to/lastmile_qr_scan"}, "is_reserved": 0}, {"lon": -77.0140305, "bike_id": "ae419348df6076ad13a36b627372023b", "lat": 38.928378, "fusion_lon": 0.0, "fusion_lat": 0.0, "type": "electric_scooter", "name": "ae419348df6076ad13a36b627372023b", "is_disabled": 0, "rental_uris": {"ios": "https://dc.lft.to/lastmile_qr_scan", "android": "https://dc.lft.to/lastmile_qr_scan"}, "is_reserved": 0}, {"lon": -77.03230316666667, "bike_id": "c4c921f0496eafd08bb2f425dfdc84a5", "lat": 38.91709316666667, "fusion_lon": 0.0, "fusion_lat": 0.0, "type": "electric_scooter", "name": "c4c921f0496eafd08bb2f425dfdc84a5", "is_disabled": 0, "rental_uris": {"ios": "https://dc.lft.to/lastmile_qr_scan", "android": "https://dc.lft.to/lastmile_qr_scan"}, "is_reserved": 0}, {"lon": -77.00154066666667, "bike_id": "139db4cc5d31ab12b493c7eb03c2c24a", "lat": 38.84275216666666, "fusion_lon": 0.0, "fusion_lat": 0.0, "type": "electric_scooter", "name": "139db4cc5d31ab12b493c7eb03c2c24a", "is_disabled": 0, "rental_uris": {"ios": "https://dc.lft.to/lastmile_qr_scan", "android": "https://dc.lft.to/lastmile_qr_scan"}, "is_reserved": 0}, {"lon": -77.0370145, "bike_id": "bd5967fa374a6561fadcf9daebc77447", "lat": 38.9264115, "fusion_lon": 0.0, "fusion_lat": 0.0, "type": "electric_scooter", "name": "bd5967fa374a6561fadcf9daebc77447", "is_disabled": 0, "rental_uris": {"ios": "https://dc.lft.to/lastmile_qr_scan", "android": "https://dc.lft.to/lastmile_qr_scan"}, "is_reserved": 0}, {"lon": -76.98713416666666, "bike_id": "0f6f5c1ef2e4660bdf5115733e689027", "lat": 38.86624233333333, "fusion_lon": 0.0, "fusion_lat": 0.0, "type": "electric_scooter", "name": "0f6f5c1ef2e4660bdf5115733e689027", "is_disabled": 0, "rental_uris": {"ios": "https://dc.lft.to/lastmile_qr_scan", "android": "https://dc.lft.to/lastmile_qr_scan"}, "is_reserved": 0}, {"lon": -76.99498683333333, "bike_id": "51ccd8c3fdab402f0594d067bc5a54f6", "lat": 38.8819865, "fusion_lon": 0.0, "fusion_lat": 0.0, "type": "electric_bike", "name": "51ccd8c3fdab402f0594d067bc5a54f6", "is_disabled": 0, "rental_uris": {"ios": "https://dc.lft.to/lastmile_qr_scan", "android": "https://dc.lft.to/lastmile_qr_scan"}, "is_reserved": 0}, {"lon": -76.92768966666667, "bike_id": "55c835fd1511c78423296cd91678e6a8", "lat": 38.90084016666667, "fusion_lon": 0.0, "fusion_lat": 0.0, "type": "electric_scooter", "name": "55c835fd1511c78423296cd91678e6a8", "is_disabled": 0, "rental_uris": {"ios": "https://dc.lft.to/lastmile_qr_scan", "android": "https://dc.lft.to/lastmile_qr_scan"}, "is_reserved": 0}, {"lon": -76.97902733333333, "bike_id": "1a6a8249991b9fa2a20a3cac12595426", "lat": 38.8635645, "fusion_lon": 0.0, "fusion_lat": 0.0, "type": "electric_scooter", "name": "1a6a8249991b9fa2a20a3cac12595426", "is_disabled": 0, "rental_uris": {"ios": "https://dc.lft.to/lastmile_qr_scan", "android": "https://dc.lft.to/lastmile_qr_scan"}, "is_reserved": 0}, {"lon": -77.03661466666667, "bike_id": "5890221111ed51e4cc5f180c403fe63b", "lat": 38.91724516666667, "fusion_lon": 0.0, "fusion_lat": 0.0, "type": "electric_scooter", "name": "5890221111ed51e4cc5f180c403fe63b", "is_disabled": 0, "rental_uris": {"ios": "https://dc.lft.to/lastmile_qr_scan", "android": "https://dc.lft.to/lastmile_qr_scan"}, "is_reserved": 0}, {"lon": -77.00197366666667, "bike_id": "44d4c2a420dbab5a9c08374891b457c4", "lat": 38.90042, "fusion_lon": 0.0, "fusion_lat": 0.0, "type": "electric_scooter", "name": "44d4c2a420dbab5a9c08374891b457c4", "is_disabled": 0, "rental_uris": {"ios": "https://dc.lft.to/lastmile_qr_scan", "android": "https://dc.lft.to/lastmile_qr_scan"}, "is_reserved": 0}, {"lon": -76.98880233333334, "bike_id": "6ac56dd49377cae7af28b9940dd8b11d", "lat": 38.86646483333333, "fusion_lon": 0.0, "fusion_lat": 0.0, "type": "electric_scooter", "name": "6ac56dd49377cae7af28b9940dd8b11d", "is_disabled": 0, "rental_uris": {"ios": "https://dc.lft.to/lastmile_qr_scan", "android": "https://dc.lft.to/lastmile_qr_scan"}, "is_reserved": 0}, {"lon": -77.02500816666667, "bike_id": "2d732e67dce3730b7c3adc0957806e01", "lat": 38.92076766666667, "fusion_lon": 0.0, "fusion_lat": 0.0, "type": "electric_scooter", "name": "2d732e67dce3730b7c3adc0957806e01", "is_disabled": 0, "rental_uris": {"ios": "https://dc.lft.to/lastmile_qr_scan", "android": "https://dc.lft.to/lastmile_qr_scan"}, "is_reserved": 0}, {"lon": -77.0431805, "bike_id": "1e3d1abffe02e4baf1c546f1aa394847", "lat": 38.922526833333336, "fusion_lon": 0.0, "fusion_lat": 0.0, "type": "electric_scooter", "name": "1e3d1abffe02e4baf1c546f1aa394847", "is_disabled": 0, "rental_uris": {"ios": "https://dc.lft.to/lastmile_qr_scan", "android": "https://dc.lft.to/lastmile_qr_scan"}, "is_reserved": 0}, {"lon": -77.02624233333333, "bike_id": "2aa9d4b9d5a8c3a4393aaa1fe1471c58", "lat": 38.93351666666667, "fusion_lon": 0.0, "fusion_lat": 0.0, "type": "electric_scooter", "name": "2aa9d4b9d5a8c3a4393aaa1fe1471c58", "is_disabled": 0, "rental_uris": {"ios": "https://dc.lft.to/lastmile_qr_scan", "android": "https://dc.lft.to/lastmile_qr_scan"}, "is_reserved": 0}, {"lon": -77.0416165, "bike_id": "b4a38e570f2ead009d627cf6e7ad2af6", "lat": 38.919887, "fusion_lon": 0.0, "fusion_lat": 0.0, "type": "electric_scooter", "name": "b4a38e570f2ead009d627cf6e7ad2af6", "is_disabled": 0, "rental_uris": {"ios": "https://dc.lft.to/lastmile_qr_scan", "android": "https://dc.lft.to/lastmile_qr_scan"}, "is_reserved": 0}, {"lon": -77.02525216666666, "bike_id": "e3022a9a12614e78076a749db26debf7", "lat": 38.94101466666667, "fusion_lon": 0.0, "fusion_lat": 0.0, "type": "electric_scooter", "name": "e3022a9a12614e78076a749db26debf7", "is_disabled": 0, "rental_uris": {"ios": "https://dc.lft.to/lastmile_qr_scan", "android": "https://dc.lft.to/lastmile_qr_scan"}, "is_reserved": 0}, {"lon": -77.03961066666666, "bike_id": "2d5fa975811d1733d5f9077b49711f71", "lat": 38.9162685, "fusion_lon": 0.0, "fusion_lat": 0.0, "type": "electric_scooter", "name": "2d5fa975811d1733d5f9077b49711f71", "is_disabled": 0, "rental_uris": {"ios": "https://dc.lft.to/lastmile_qr_scan", "android": "https://dc.lft.to/lastmile_qr_scan"}, "is_reserved": 0}, {"lon": -77.03767033333334, "bike_id": "4f8501de5dfce95ac7dc87dc0a8010fe", "lat": 38.929706, "fusion_lon": 0.0, "fusion_lat": 0.0, "type": "electric_scooter", "name": "4f8501de5dfce95ac7dc87dc0a8010fe", "is_disabled": 0, "rental_uris": {"ios": "https://dc.lft.to/lastmile_qr_scan", "android": "https://dc.lft.to/lastmile_qr_scan"}, "is_reserved": 0}, {"lon": -76.98405216666667, "bike_id": "3f0a39120394527946c27d43e9d4560c", "lat": 38.9062625, "fusion_lon": 0.0, "fusion_lat": 0.0, "type": "electric_scooter", "name": "3f0a39120394527946c27d43e9d4560c", "is_disabled": 0, "rental_uris": {"ios": "https://dc.lft.to/lastmile_qr_scan", "android": "https://dc.lft.to/lastmile_qr_scan"}, "is_reserved": 0}, {"lon": -76.989389, "bike_id": "bda129b6eec87307cec6d77b9b10e8e5", "lat": 38.9182795, "fusion_lon": 0.0, "fusion_lat": 0.0, "type": "electric_scooter", "name": "bda129b6eec87307cec6d77b9b10e8e5", "is_disabled": 0, "rental_uris": {"ios": "https://dc.lft.to/lastmile_qr_scan", "android": "https://dc.lft.to/lastmile_qr_scan"}, "is_reserved": 0}, {"lon": -76.98776183333334, "bike_id": "cebd8620e015367a3d35b01d66285ad9", "lat": 38.865998, "fusion_lon": 0.0, "fusion_lat": 0.0, "type": "electric_bike", "name": "cebd8620e015367a3d35b01d66285ad9", "is_disabled": 0, "rental_uris": {"ios": "https://dc.lft.to/lastmile_qr_scan", "android": "https://dc.lft.to/lastmile_qr_scan"}, "is_reserved": 0}, {"lon": -77.04510016666667, "bike_id": "9ef7203344276a39086bf25e41d3cb8c", "lat": 38.886010666666664, "fusion_lon": 0.0, "fusion_lat": 0.0, "type": "electric_scooter", "name": "9ef7203344276a39086bf25e41d3cb8c", "is_disabled": 0, "rental_uris": {"ios": "https://dc.lft.to/lastmile_qr_scan", "android": "https://dc.lft.to/lastmile_qr_scan"}, "is_reserved": 0}, {"lon": -76.99613783333334, "bike_id": "3730f4cb0e8dba5654fa8129acbf93e2", "lat": 38.90110933333333, "fusion_lon": 0.0, "fusion_lat": 0.0, "type": "electric_scooter", "name": "3730f4cb0e8dba5654fa8129acbf93e2", "is_disabled": 0, "rental_uris": {"ios": "https://dc.lft.to/lastmile_qr_scan", "android": "https://dc.lft.to/lastmile_qr_scan"}, "is_reserved": 0}, {"lon": -77.0256715, "bike_id": "cb13e78c411c10ed9210561f5bdf4d35", "lat": 38.91342016666667, "fusion_lon": 0.0, "fusion_lat": 0.0, "type": "electric_scooter", "name": "cb13e78c411c10ed9210561f5bdf4d35", "is_disabled": 0, "rental_uris": {"ios": "https://dc.lft.to/lastmile_qr_scan", "android": "https://dc.lft.to/lastmile_qr_scan"}, "is_reserved": 0}, {"lon": -76.99181216666666, "bike_id": "0c7ef28a05ea9b3305a19b94dcf79c6a", "lat": 38.88976316666667, "fusion_lon": 0.0, "fusion_lat": 0.0, "type": "electric_scooter", "name": "0c7ef28a05ea9b3305a19b94dcf79c6a", "is_disabled": 0, "rental_uris": {"ios": "https://dc.lft.to/lastmile_qr_scan", "android": "https://dc.lft.to/lastmile_qr_scan"}, "is_reserved": 0}, {"lon": -76.995432, "bike_id": "1d0abd019def46d62b2ab19512194380", "lat": 38.83159066666666, "fusion_lon": 0.0, "fusion_lat": 0.0, "type": "electric_bike", "name": "1d0abd019def46d62b2ab19512194380", "is_disabled": 0, "rental_uris": {"ios": "https://dc.lft.to/lastmile_qr_scan", "android": "https://dc.lft.to/lastmile_qr_scan"}, "is_reserved": 0}, {"lon": -76.98881283333333, "bike_id": "51afd4f036aae502d28d07cbdc4054b0", "lat": 38.866529, "fusion_lon": 0.0, "fusion_lat": 0.0, "type": "electric_scooter", "name": "51afd4f036aae502d28d07cbdc4054b0", "is_disabled": 0, "rental_uris": {"ios": "https://dc.lft.to/lastmile_qr_scan", "android": "https://dc.lft.to/lastmile_qr_scan"}, "is_reserved": 0}, {"lon": -77.03442, "bike_id": "fd739931ed06fce4d418abea950c71fd", "lat": 38.9058955, "fusion_lon": 0.0, "fusion_lat": 0.0, "type": "electric_scooter", "name": "fd739931ed06fce4d418abea950c71fd", "is_disabled": 0, "rental_uris": {"ios": "https://dc.lft.to/lastmile_qr_scan", "android": "https://dc.lft.to/lastmile_qr_scan"}, "is_reserved": 0}, {"lon": -76.98700383333333, "bike_id": "a171ce1074ff95fc8342207084a45403", "lat": 38.9070255, "fusion_lon": 0.0, "fusion_lat": 0.0, "type": "electric_scooter", "name": "a171ce1074ff95fc8342207084a45403", "is_disabled": 0, "rental_uris": {"ios": "https://dc.lft.to/lastmile_qr_scan", "android": "https://dc.lft.to/lastmile_qr_scan"}, "is_reserved": 0}, {"lon": -77.06251433333334, "bike_id": "1a61c70fbf407bf7103b77a6ab3386ee", "lat": 38.94425433333333, "fusion_lon": 0.0, "fusion_lat": 0.0, "type": "electric_scooter", "name": "1a61c70fbf407bf7103b77a6ab3386ee", "is_disabled": 0, "rental_uris": {"ios": "https://dc.lft.to/lastmile_qr_scan", "android": "https://dc.lft.to/lastmile_qr_scan"}, "is_reserved": 0}, {"lon": -77.0230795, "bike_id": "e3fdc4bd944176a0d41ec21600f2de01", "lat": 38.917813333333335, "fusion_lon": 0.0, "fusion_lat": 0.0, "type": "electric_scooter", "name": "e3fdc4bd944176a0d41ec21600f2de01", "is_disabled": 0, "rental_uris": {"ios": "https://dc.lft.to/lastmile_qr_scan", "android": "https://dc.lft.to/lastmile_qr_scan"}, "is_reserved": 0}, {"lon": -77.03291166666666, "bike_id": "2fa578cbeba2497563067becb813cad5", "lat": 38.93724266666667, "fusion_lon": 0.0, "fusion_lat": 0.0, "type": "electric_scooter", "name": "2fa578cbeba2497563067becb813cad5", "is_disabled": 0, "rental_uris": {"ios": "https://dc.lft.to/lastmile_qr_scan", "android": "https://dc.lft.to/lastmile_qr_scan"}, "is_reserved": 0}, {"lon": -76.9826105, "bike_id": "fef7459cfd7c724ad19167bcfc1ab940", "lat": 38.908528, "fusion_lon": 0.0, "fusion_lat": 0.0, "type": "electric_scooter", "name": "fef7459cfd7c724ad19167bcfc1ab940", "is_disabled": 0, "rental_uris": {"ios": "https://dc.lft.to/lastmile_qr_scan", "android": "https://dc.lft.to/lastmile_qr_scan"}, "is_reserved": 0}, {"lon": -77.011715, "bike_id": "f9f8eb4aefbaa4ab8f986c471e640765", "lat": 38.87232233333334, "fusion_lon": 0.0, "fusion_lat": 0.0, "type": "electric_bike", "name": "f9f8eb4aefbaa4ab8f986c471e640765", "is_disabled": 0, "rental_uris": {"ios": "https://dc.lft.to/lastmile_qr_scan", "android": "https://dc.lft.to/lastmile_qr_scan"}, "is_reserved": 0}, {"lon": -76.98891783333333, "bike_id": "7364d381bc2bacdb2b8e20965955b35a", "lat": 38.9134585, "fusion_lon": 0.0, "fusion_lat": 0.0, "type": "electric_scooter", "name": "7364d381bc2bacdb2b8e20965955b35a", "is_disabled": 0, "rental_uris": {"ios": "https://dc.lft.to/lastmile_qr_scan", "android": "https://dc.lft.to/lastmile_qr_scan"}, "is_reserved": 0}, {"lon": -77.00206866666667, "bike_id": "19a885755ec74e53f2a2f90a5fde08d4", "lat": 38.9002635, "fusion_lon": 0.0, "fusion_lat": 0.0, "type": "electric_scooter", "name": "19a885755ec74e53f2a2f90a5fde08d4", "is_disabled": 0, "rental_uris": {"ios": "https://dc.lft.to/lastmile_qr_scan", "android": "https://dc.lft.to/lastmile_qr_scan"}, "is_reserved": 0}, {"lon": -77.041825, "bike_id": "a9b0fca904106acfe4ec744f774bcc28", "lat": 38.89985033333333, "fusion_lon": 0.0, "fusion_lat": 0.0, "type": "electric_scooter", "name": "a9b0fca904106acfe4ec744f774bcc28", "is_disabled": 0, "rental_uris": {"ios": "https://dc.lft.to/lastmile_qr_scan", "android": "https://dc.lft.to/lastmile_qr_scan"}, "is_reserved": 0}, {"lon": -76.93376016666667, "bike_id": "74360051a7e53b5b667cac9c18b954e5", "lat": 38.89910866666666, "fusion_lon": 0.0, "fusion_lat": 0.0, "type": "electric_scooter", "name": "74360051a7e53b5b667cac9c18b954e5", "is_disabled": 0, "rental_uris": {"ios": "https://dc.lft.to/lastmile_qr_scan", "android": "https://dc.lft.to/lastmile_qr_scan"}, "is_reserved": 0}, {"lon": -76.95484533333334, "bike_id": "1681b6f123b6d65ed1ffcb0fd812afd3", "lat": 38.88470983333333, "fusion_lon": 0.0, "fusion_lat": 0.0, "type": "electric_scooter", "name": "1681b6f123b6d65ed1ffcb0fd812afd3", "is_disabled": 0, "rental_uris": {"ios": "https://dc.lft.to/lastmile_qr_scan", "android": "https://dc.lft.to/lastmile_qr_scan"}, "is_reserved": 0}, {"lon": -77.03217633333334, "bike_id": "ec9252e0d2ac1ca29996a0f021bb27f4", "lat": 38.918244333333334, "fusion_lon": 0.0, "fusion_lat": 0.0, "type": "electric_scooter", "name": "ec9252e0d2ac1ca29996a0f021bb27f4", "is_disabled": 0, "rental_uris": {"ios": "https://dc.lft.to/lastmile_qr_scan", "android": "https://dc.lft.to/lastmile_qr_scan"}, "is_reserved": 0}, {"lon": -77.100886, "bike_id": "b3fbb46e57f3d1d96208450f41e81f1c", "lat": 38.95960516666667, "fusion_lon": 0.0, "fusion_lat": 0.0, "type": "electric_bike", "name": "b3fbb46e57f3d1d96208450f41e81f1c", "is_disabled": 0, "rental_uris": {"ios": "https://dc.lft.to/lastmile_qr_scan", "android": "https://dc.lft.to/lastmile_qr_scan"}, "is_reserved": 0}, {"lon": -77.035318, "bike_id": "2dc9558835b228b6b1e11a93c62c637a", "lat": 38.9263, "fusion_lon": 0.0, "fusion_lat": 0.0, "type": "electric_scooter", "name": "2dc9558835b228b6b1e11a93c62c637a", "is_disabled": 0, "rental_uris": {"ios": "https://dc.lft.to/lastmile_qr_scan", "android": "https://dc.lft.to/lastmile_qr_scan"}, "is_reserved": 0}, {"lon": -76.9429075, "bike_id": "2618275e498c81724a3b5d3fa46108f2", "lat": 38.938672, "fusion_lon": 0.0, "fusion_lat": 0.0, "type": "electric_bike", "name": "2618275e498c81724a3b5d3fa46108f2", "is_disabled": 0, "rental_uris": {"ios": "https://dc.lft.to/lastmile_qr_scan", "android": "https://dc.lft.to/lastmile_qr_scan"}, "is_reserved": 0}, {"lon": -77.02623216666667, "bike_id": "e0cbd7f63f923fbe22651fe2a792020e", "lat": 38.9621465, "fusion_lon": 0.0, "fusion_lat": 0.0, "type": "electric_bike", "name": "e0cbd7f63f923fbe22651fe2a792020e", "is_disabled": 0, "rental_uris": {"ios": "https://dc.lft.to/lastmile_qr_scan", "android": "https://dc.lft.to/lastmile_qr_scan"}, "is_reserved": 0}, {"lon": -76.99914216666667, "bike_id": "2c3bffeaa9568017c210efea2a81004d", "lat": 38.907255, "fusion_lon": 0.0, "fusion_lat": 0.0, "type": "electric_scooter", "name": "2c3bffeaa9568017c210efea2a81004d", "is_disabled": 0, "rental_uris": {"ios": "https://dc.lft.to/lastmile_qr_scan", "android": "https://dc.lft.to/lastmile_qr_scan"}, "is_reserved": 0}, {"lon": -77.04007516666667, "bike_id": "64e163088631611db176ec9df93ffbf2", "lat": 38.91004483333333, "fusion_lon": 0.0, "fusion_lat": 0.0, "type": "electric_scooter", "name": "64e163088631611db176ec9df93ffbf2", "is_disabled": 0, "rental_uris": {"ios": "https://dc.lft.to/lastmile_qr_scan", "android": "https://dc.lft.to/lastmile_qr_scan"}, "is_reserved": 0}, {"lon": -77.0116125, "bike_id": "3fd68b999db40ebead9408da244e83af", "lat": 38.885446333333334, "fusion_lon": 0.0, "fusion_lat": 0.0, "type": "electric_scooter", "name": "3fd68b999db40ebead9408da244e83af", "is_disabled": 0, "rental_uris": {"ios": "https://dc.lft.to/lastmile_qr_scan", "android": "https://dc.lft.to/lastmile_qr_scan"}, "is_reserved": 0}, {"lon": -77.03795683333334, "bike_id": "21c02c199d4bb03ecc40eecd04a85a9c", "lat": 38.93026033333334, "fusion_lon": 0.0, "fusion_lat": 0.0, "type": "electric_scooter", "name": "21c02c199d4bb03ecc40eecd04a85a9c", "is_disabled": 0, "rental_uris": {"ios": "https://dc.lft.to/lastmile_qr_scan", "android": "https://dc.lft.to/lastmile_qr_scan"}, "is_reserved": 0}, {"lon": -77.071154, "bike_id": "43fc7807009b020b47cf33460458a9d1", "lat": 38.919732833333335, "fusion_lon": 0.0, "fusion_lat": 0.0, "type": "electric_scooter", "name": "43fc7807009b020b47cf33460458a9d1", "is_disabled": 0, "rental_uris": {"ios": "https://dc.lft.to/lastmile_qr_scan", "android": "https://dc.lft.to/lastmile_qr_scan"}, "is_reserved": 0}, {"lon": -76.89532666666666, "bike_id": "9b89b29040421187b2f22973e1412cb9", "lat": 38.945518166666666, "fusion_lon": 0.0, "fusion_lat": 0.0, "type": "electric_bike", "name": "9b89b29040421187b2f22973e1412cb9", "is_disabled": 0, "rental_uris": {"ios": "https://dc.lft.to/lastmile_qr_scan", "android": "https://dc.lft.to/lastmile_qr_scan"}, "is_reserved": 0}, {"lon": -77.03182916666667, "bike_id": "83c7506549db7c2a3e2da456f76aa16e", "lat": 38.90946866666667, "fusion_lon": 0.0, "fusion_lat": 0.0, "type": "electric_scooter", "name": "83c7506549db7c2a3e2da456f76aa16e", "is_disabled": 0, "rental_uris": {"ios": "https://dc.lft.to/lastmile_qr_scan", "android": "https://dc.lft.to/lastmile_qr_scan"}, "is_reserved": 0}, {"lon": -77.0327525, "bike_id": "37a6b3661d08bfe661bc8d0843d37100", "lat": 38.901302, "fusion_lon": 0.0, "fusion_lat": 0.0, "type": "electric_scooter", "name": "37a6b3661d08bfe661bc8d0843d37100", "is_disabled": 0, "rental_uris": {"ios": "https://dc.lft.to/lastmile_qr_scan", "android": "https://dc.lft.to/lastmile_qr_scan"}, "is_reserved": 0}, {"lon": -77.0351465, "bike_id": "94bec9ec43fecaa445c5b2e5e854795f", "lat": 38.921953333333335, "fusion_lon": 0.0, "fusion_lat": 0.0, "type": "electric_scooter", "name": "94bec9ec43fecaa445c5b2e5e854795f", "is_disabled": 0, "rental_uris": {"ios": "https://dc.lft.to/lastmile_qr_scan", "android": "https://dc.lft.to/lastmile_qr_scan"}, "is_reserved": 0}, {"lon": -77.129818, "bike_id": "be754f7d3647a5e24dc0db6a943a97b8", "lat": 38.799808, "fusion_lon": 0.0, "fusion_lat": 0.0, "type": "electric_bike", "name": "be754f7d3647a5e24dc0db6a943a97b8", "is_disabled": 0, "rental_uris": {"ios": "https://dc.lft.to/lastmile_qr_scan", "android": "https://dc.lft.to/lastmile_qr_scan"}, "is_reserved": 0}, {"lon": -77.03245966666667, "bike_id": "3f693a36ff2008c4bd78af5198e9a956", "lat": 38.92867433333333, "fusion_lon": 0.0, "fusion_lat": 0.0, "type": "electric_scooter", "name": "3f693a36ff2008c4bd78af5198e9a956", "is_disabled": 0, "rental_uris": {"ios": "https://dc.lft.to/lastmile_qr_scan", "android": "https://dc.lft.to/lastmile_qr_scan"}, "is_reserved": 0}, {"lon": -76.97804983333333, "bike_id": "04ec5cc9e041bf9bdb95d437552ddb71", "lat": 38.90668066666667, "fusion_lon": 0.0, "fusion_lat": 0.0, "type": "electric_scooter", "name": "04ec5cc9e041bf9bdb95d437552ddb71", "is_disabled": 0, "rental_uris": {"ios": "https://dc.lft.to/lastmile_qr_scan", "android": "https://dc.lft.to/lastmile_qr_scan"}, "is_reserved": 0}, {"lon": -77.043865, "bike_id": "4e200a4276d30b66a1e503931b1b6035", "lat": 38.921155166666665, "fusion_lon": 0.0, "fusion_lat": 0.0, "type": "electric_scooter", "name": "4e200a4276d30b66a1e503931b1b6035", "is_disabled": 0, "rental_uris": {"ios": "https://dc.lft.to/lastmile_qr_scan", "android": "https://dc.lft.to/lastmile_qr_scan"}, "is_reserved": 0}, {"lon": -77.03643483333333, "bike_id": "181bac7d8b1c064b9e8f7fc2ad3735d7", "lat": 38.922812666666665, "fusion_lon": 0.0, "fusion_lat": 0.0, "type": "electric_scooter", "name": "181bac7d8b1c064b9e8f7fc2ad3735d7", "is_disabled": 0, "rental_uris": {"ios": "https://dc.lft.to/lastmile_qr_scan", "android": "https://dc.lft.to/lastmile_qr_scan"}, "is_reserved": 0}, {"lon": -77.0398825, "bike_id": "cae9f308302cc5c53913c1adf1270830", "lat": 38.9054845, "fusion_lon": 0.0, "fusion_lat": 0.0, "type": "electric_scooter", "name": "cae9f308302cc5c53913c1adf1270830", "is_disabled": 0, "rental_uris": {"ios": "https://dc.lft.to/lastmile_qr_scan", "android": "https://dc.lft.to/lastmile_qr_scan"}, "is_reserved": 0}, {"lon": -77.04217766666666, "bike_id": "efbb10f34a3f669603d227e3b1e23c23", "lat": 38.92309816666667, "fusion_lon": 0.0, "fusion_lat": 0.0, "type": "electric_scooter", "name": "efbb10f34a3f669603d227e3b1e23c23", "is_disabled": 0, "rental_uris": {"ios": "https://dc.lft.to/lastmile_qr_scan", "android": "https://dc.lft.to/lastmile_qr_scan"}, "is_reserved": 0}, {"lon": -77.006792, "bike_id": "d7e9b685d187d0fd392a1b4058eb88e3", "lat": 38.9449505, "fusion_lon": 0.0, "fusion_lat": 0.0, "type": "electric_bike", "name": "d7e9b685d187d0fd392a1b4058eb88e3", "is_disabled": 0, "rental_uris": {"ios": "https://dc.lft.to/lastmile_qr_scan", "android": "https://dc.lft.to/lastmile_qr_scan"}, "is_reserved": 0}, {"lon": -77.02565316666667, "bike_id": "23dd1d96b8bc401a6b5f72960a03c07e", "lat": 38.91481783333333, "fusion_lon": 0.0, "fusion_lat": 0.0, "type": "electric_scooter", "name": "23dd1d96b8bc401a6b5f72960a03c07e", "is_disabled": 0, "rental_uris": {"ios": "https://dc.lft.to/lastmile_qr_scan", "android": "https://dc.lft.to/lastmile_qr_scan"}, "is_reserved": 0}, {"lon": -77.02565183333333, "bike_id": "1dae675d198bdf9689c0e3c9a0e658bf", "lat": 38.92409983333334, "fusion_lon": 0.0, "fusion_lat": 0.0, "type": "electric_scooter", "name": "1dae675d198bdf9689c0e3c9a0e658bf", "is_disabled": 0, "rental_uris": {"ios": "https://dc.lft.to/lastmile_qr_scan", "android": "https://dc.lft.to/lastmile_qr_scan"}, "is_reserved": 0}, {"lon": -77.0199155, "bike_id": "41e80d2ce0e333c3a488d8720d4c7606", "lat": 38.883828, "fusion_lon": 0.0, "fusion_lat": 0.0, "type": "electric_scooter", "name": "41e80d2ce0e333c3a488d8720d4c7606", "is_disabled": 0, "rental_uris": {"ios": "https://dc.lft.to/lastmile_qr_scan", "android": "https://dc.lft.to/lastmile_qr_scan"}, "is_reserved": 0}, {"lon": -77.03848783333333, "bike_id": "375b271f9bc512e52e28a8509a7216ce", "lat": 38.916876333333335, "fusion_lon": 0.0, "fusion_lat": 0.0, "type": "electric_scooter", "name": "375b271f9bc512e52e28a8509a7216ce", "is_disabled": 0, "rental_uris": {"ios": "https://dc.lft.to/lastmile_qr_scan", "android": "https://dc.lft.to/lastmile_qr_scan"}, "is_reserved": 0}, {"lon": -77.02370366666666, "bike_id": "c3df3fd549dd1a26c10da31397c8f1a4", "lat": 38.91782966666667, "fusion_lon": 0.0, "fusion_lat": 0.0, "type": "electric_scooter", "name": "c3df3fd549dd1a26c10da31397c8f1a4", "is_disabled": 0, "rental_uris": {"ios": "https://dc.lft.to/lastmile_qr_scan", "android": "https://dc.lft.to/lastmile_qr_scan"}, "is_reserved": 0}, {"lon": -77.02796883333333, "bike_id": "1ec66e0818e7e387ee2a3ace077c8cf9", "lat": 38.9202125, "fusion_lon": 0.0, "fusion_lat": 0.0, "type": "electric_scooter", "name": "1ec66e0818e7e387ee2a3ace077c8cf9", "is_disabled": 0, "rental_uris": {"ios": "https://dc.lft.to/lastmile_qr_scan", "android": "https://dc.lft.to/lastmile_qr_scan"}, "is_reserved": 0}, {"lon": -77.04540383333334, "bike_id": "fede2c8f4ef6480a46646a53d4a4741b", "lat": 38.92053933333333, "fusion_lon": 0.0, "fusion_lat": 0.0, "type": "electric_scooter", "name": "fede2c8f4ef6480a46646a53d4a4741b", "is_disabled": 0, "rental_uris": {"ios": "https://dc.lft.to/lastmile_qr_scan", "android": "https://dc.lft.to/lastmile_qr_scan"}, "is_reserved": 0}, {"lon": -77.03329483333333, "bike_id": "ca5b4ffb861c9f4f3b3f25650370a69b", "lat": 38.90961166666666, "fusion_lon": 0.0, "fusion_lat": 0.0, "type": "electric_scooter", "name": "ca5b4ffb861c9f4f3b3f25650370a69b", "is_disabled": 0, "rental_uris": {"ios": "https://dc.lft.to/lastmile_qr_scan", "android": "https://dc.lft.to/lastmile_qr_scan"}, "is_reserved": 0}, {"lon": -77.02733083333334, "bike_id": "b5e5647bec50cde3cc416b67b3653d53", "lat": 38.93208516666667, "fusion_lon": 0.0, "fusion_lat": 0.0, "type": "electric_scooter", "name": "b5e5647bec50cde3cc416b67b3653d53", "is_disabled": 0, "rental_uris": {"ios": "https://dc.lft.to/lastmile_qr_scan", "android": "https://dc.lft.to/lastmile_qr_scan"}, "is_reserved": 0}, {"lon": -77.0208055, "bike_id": "fd939af6af45e0d32d405a885ec77cf6", "lat": 38.93113183333333, "fusion_lon": 0.0, "fusion_lat": 0.0, "type": "electric_scooter", "name": "fd939af6af45e0d32d405a885ec77cf6", "is_disabled": 0, "rental_uris": {"ios": "https://dc.lft.to/lastmile_qr_scan", "android": "https://dc.lft.to/lastmile_qr_scan"}, "is_reserved": 0}, {"lon": -77.044807, "bike_id": "c6f009379d2a89d68fa21da4284b5d34", "lat": 38.91166883333333, "fusion_lon": 0.0, "fusion_lat": 0.0, "type": "electric_scooter", "name": "c6f009379d2a89d68fa21da4284b5d34", "is_disabled": 0, "rental_uris": {"ios": "https://dc.lft.to/lastmile_qr_scan", "android": "https://dc.lft.to/lastmile_qr_scan"}, "is_reserved": 0}, {"lon": -77.04174333333333, "bike_id": "2f2552b136101c9dcae8b53ba1f763ca", "lat": 38.9134735, "fusion_lon": 0.0, "fusion_lat": 0.0, "type": "electric_scooter", "name": "2f2552b136101c9dcae8b53ba1f763ca", "is_disabled": 0, "rental_uris": {"ios": "https://dc.lft.to/lastmile_qr_scan", "android": "https://dc.lft.to/lastmile_qr_scan"}, "is_reserved": 0}, {"lon": -76.9949075, "bike_id": "ca5398936b0974fa642afee44c03060e", "lat": 38.86245233333333, "fusion_lon": 0.0, "fusion_lat": 0.0, "type": "electric_scooter", "name": "ca5398936b0974fa642afee44c03060e", "is_disabled": 0, "rental_uris": {"ios": "https://dc.lft.to/lastmile_qr_scan", "android": "https://dc.lft.to/lastmile_qr_scan"}, "is_reserved": 0}, {"lon": -76.93729983333333, "bike_id": "286dff7c179d3dd8e64a641bee6b649a", "lat": 38.89015766666667, "fusion_lon": 0.0, "fusion_lat": 0.0, "type": "electric_scooter", "name": "286dff7c179d3dd8e64a641bee6b649a", "is_disabled": 0, "rental_uris": {"ios": "https://dc.lft.to/lastmile_qr_scan", "android": "https://dc.lft.to/lastmile_qr_scan"}, "is_reserved": 0}, {"lon": -76.98879233333334, "bike_id": "f04d51bcf3a7df5102cadfc5fc8330e2", "lat": 38.86645716666666, "fusion_lon": 0.0, "fusion_lat": 0.0, "type": "electric_scooter", "name": "f04d51bcf3a7df5102cadfc5fc8330e2", "is_disabled": 0, "rental_uris": {"ios": "https://dc.lft.to/lastmile_qr_scan", "android": "https://dc.lft.to/lastmile_qr_scan"}, "is_reserved": 0}, {"lon": -77.03179883333334, "bike_id": "c3fbdc96d044d5c791a480cd2f4f5002", "lat": 38.90809733333333, "fusion_lon": 0.0, "fusion_lat": 0.0, "type": "electric_scooter", "name": "c3fbdc96d044d5c791a480cd2f4f5002", "is_disabled": 0, "rental_uris": {"ios": "https://dc.lft.to/lastmile_qr_scan", "android": "https://dc.lft.to/lastmile_qr_scan"}, "is_reserved": 0}, {"lon": -77.0320745, "bike_id": "370d6c689620fdaf90dda4ea2c72c9e3", "lat": 38.8924375, "fusion_lon": 0.0, "fusion_lat": 0.0, "type": "electric_scooter", "name": "370d6c689620fdaf90dda4ea2c72c9e3", "is_disabled": 0, "rental_uris": {"ios": "https://dc.lft.to/lastmile_qr_scan", "android": "https://dc.lft.to/lastmile_qr_scan"}, "is_reserved": 0}, {"lon": -77.02319883333334, "bike_id": "e6452dc4e4a9d28e6f440a66ae68fb80", "lat": 38.916812166666666, "fusion_lon": 0.0, "fusion_lat": 0.0, "type": "electric_scooter", "name": "e6452dc4e4a9d28e6f440a66ae68fb80", "is_disabled": 0, "rental_uris": {"ios": "https://dc.lft.to/lastmile_qr_scan", "android": "https://dc.lft.to/lastmile_qr_scan"}, "is_reserved": 0}, {"lon": -77.043348, "bike_id": "681030e0bd30251c35b201de5f96fda7", "lat": 38.9014745, "fusion_lon": 0.0, "fusion_lat": 0.0, "type": "electric_scooter", "name": "681030e0bd30251c35b201de5f96fda7", "is_disabled": 0, "rental_uris": {"ios": "https://dc.lft.to/lastmile_qr_scan", "android": "https://dc.lft.to/lastmile_qr_scan"}, "is_reserved": 0}, {"lon": -77.04497883333333, "bike_id": "48c94b13efcb7a2cc38b323747e895a1", "lat": 38.90368333333333, "fusion_lon": 0.0, "fusion_lat": 0.0, "type": "electric_scooter", "name": "48c94b13efcb7a2cc38b323747e895a1", "is_disabled": 0, "rental_uris": {"ios": "https://dc.lft.to/lastmile_qr_scan", "android": "https://dc.lft.to/lastmile_qr_scan"}, "is_reserved": 0}, {"lon": -76.98709833333334, "bike_id": "c5525a6b9304e2248fa9babb25001cfb", "lat": 38.8670275, "fusion_lon": 0.0, "fusion_lat": 0.0, "type": "electric_scooter", "name": "c5525a6b9304e2248fa9babb25001cfb", "is_disabled": 0, "rental_uris": {"ios": "https://dc.lft.to/lastmile_qr_scan", "android": "https://dc.lft.to/lastmile_qr_scan"}, "is_reserved": 0}, {"lon": -77.03280683333334, "bike_id": "b6802736fb76cd4b8958f2fb6faca396", "lat": 38.9349345, "fusion_lon": 0.0, "fusion_lat": 0.0, "type": "electric_scooter", "name": "b6802736fb76cd4b8958f2fb6faca396", "is_disabled": 0, "rental_uris": {"ios": "https://dc.lft.to/lastmile_qr_scan", "android": "https://dc.lft.to/lastmile_qr_scan"}, "is_reserved": 0}, {"lon": -77.03666566666666, "bike_id": "0faec484beb50d5e537257aa1b42cf5b", "lat": 38.91677333333333, "fusion_lon": 0.0, "fusion_lat": 0.0, "type": "electric_scooter", "name": "0faec484beb50d5e537257aa1b42cf5b", "is_disabled": 0, "rental_uris": {"ios": "https://dc.lft.to/lastmile_qr_scan", "android": "https://dc.lft.to/lastmile_qr_scan"}, "is_reserved": 0}, {"lon": -77.0253515, "bike_id": "6615df989981b3ac16ede4301b275e82", "lat": 38.93861416666667, "fusion_lon": 0.0, "fusion_lat": 0.0, "type": "electric_scooter", "name": "6615df989981b3ac16ede4301b275e82", "is_disabled": 0, "rental_uris": {"ios": "https://dc.lft.to/lastmile_qr_scan", "android": "https://dc.lft.to/lastmile_qr_scan"}, "is_reserved": 0}, {"lon": -77.0385975, "bike_id": "dbe80fa23f317a21b2dbc32d1af52294", "lat": 38.90267383333333, "fusion_lon": 0.0, "fusion_lat": 0.0, "type": "electric_scooter", "name": "dbe80fa23f317a21b2dbc32d1af52294", "is_disabled": 0, "rental_uris": {"ios": "https://dc.lft.to/lastmile_qr_scan", "android": "https://dc.lft.to/lastmile_qr_scan"}, "is_reserved": 0}, {"lon": -77.01903933333334, "bike_id": "c140fa5cab18a4378053963bb6497537", "lat": 39.011735, "fusion_lon": 0.0, "fusion_lat": 0.0, "type": "electric_bike", "name": "c140fa5cab18a4378053963bb6497537", "is_disabled": 0, "rental_uris": {"ios": "https://dc.lft.to/lastmile_qr_scan", "android": "https://dc.lft.to/lastmile_qr_scan"}, "is_reserved": 0}, {"lon": -77.02008766666667, "bike_id": "8b77549593f54aa226fed3311a8eb7a2", "lat": 38.92408433333333, "fusion_lon": 0.0, "fusion_lat": 0.0, "type": "electric_scooter", "name": "8b77549593f54aa226fed3311a8eb7a2", "is_disabled": 0, "rental_uris": {"ios": "https://dc.lft.to/lastmile_qr_scan", "android": "https://dc.lft.to/lastmile_qr_scan"}, "is_reserved": 0}, {"lon": -77.00771583333334, "bike_id": "546ebba850a933241da54a26c31a81e0", "lat": 38.897842, "fusion_lon": 0.0, "fusion_lat": 0.0, "type": "electric_bike", "name": "546ebba850a933241da54a26c31a81e0", "is_disabled": 0, "rental_uris": {"ios": "https://dc.lft.to/lastmile_qr_scan", "android": "https://dc.lft.to/lastmile_qr_scan"}, "is_reserved": 0}, {"lon": -77.03273083333333, "bike_id": "e000f44035d0d8f24dcf1c7ee40f2fd9", "lat": 38.9013515, "fusion_lon": 0.0, "fusion_lat": 0.0, "type": "electric_scooter", "name": "e000f44035d0d8f24dcf1c7ee40f2fd9", "is_disabled": 0, "rental_uris": {"ios": "https://dc.lft.to/lastmile_qr_scan", "android": "https://dc.lft.to/lastmile_qr_scan"}, "is_reserved": 0}, {"lon": -77.05741066666667, "bike_id": "4ed4b8c7388353205dae343ee433fb9c", "lat": 38.93348566666667, "fusion_lon": 0.0, "fusion_lat": 0.0, "type": "electric_scooter", "name": "4ed4b8c7388353205dae343ee433fb9c", "is_disabled": 0, "rental_uris": {"ios": "https://dc.lft.to/lastmile_qr_scan", "android": "https://dc.lft.to/lastmile_qr_scan"}, "is_reserved": 0}, {"lon": -77.07963133333334, "bike_id": "f858700eca2d2f485e932d79a71bd7fe", "lat": 38.8572335, "fusion_lon": 0.0, "fusion_lat": 0.0, "type": "electric_bike", "name": "f858700eca2d2f485e932d79a71bd7fe", "is_disabled": 0, "rental_uris": {"ios": "https://dc.lft.to/lastmile_qr_scan", "android": "https://dc.lft.to/lastmile_qr_scan"}, "is_reserved": 0}, {"lon": -77.02080133333334, "bike_id": "9e8c6e111e0a6b047fc6a89e05b232a9", "lat": 38.904045333333336, "fusion_lon": 0.0, "fusion_lat": 0.0, "type": "electric_scooter", "name": "9e8c6e111e0a6b047fc6a89e05b232a9", "is_disabled": 0, "rental_uris": {"ios": "https://dc.lft.to/lastmile_qr_scan", "android": "https://dc.lft.to/lastmile_qr_scan"}, "is_reserved": 0}, {"lon": -77.0311175, "bike_id": "46f27f4a7ae25ba8b8ae553387b9c924", "lat": 38.915594, "fusion_lon": 0.0, "fusion_lat": 0.0, "type": "electric_scooter", "name": "46f27f4a7ae25ba8b8ae553387b9c924", "is_disabled": 0, "rental_uris": {"ios": "https://dc.lft.to/lastmile_qr_scan", "android": "https://dc.lft.to/lastmile_qr_scan"}, "is_reserved": 0}, {"lon": -77.04173566666667, "bike_id": "421ccd86969151cbda464cbaae40bd3b", "lat": 38.919798166666666, "fusion_lon": 0.0, "fusion_lat": 0.0, "type": "electric_scooter", "name": "421ccd86969151cbda464cbaae40bd3b", "is_disabled": 0, "rental_uris": {"ios": "https://dc.lft.to/lastmile_qr_scan", "android": "https://dc.lft.to/lastmile_qr_scan"}, "is_reserved": 0}, {"lon": -76.9801755, "bike_id": "bc0288dee2025a24a27d997c2a37412e", "lat": 38.8532235, "fusion_lon": 0.0, "fusion_lat": 0.0, "type": "electric_bike", "name": "bc0288dee2025a24a27d997c2a37412e", "is_disabled": 0, "rental_uris": {"ios": "https://dc.lft.to/lastmile_qr_scan", "android": "https://dc.lft.to/lastmile_qr_scan"}, "is_reserved": 0}, {"lon": -76.98986966666666, "bike_id": "ae0ce5b03247afe963b561fa037ca4e1", "lat": 38.933630666666666, "fusion_lon": 0.0, "fusion_lat": 0.0, "type": "electric_scooter", "name": "ae0ce5b03247afe963b561fa037ca4e1", "is_disabled": 0, "rental_uris": {"ios": "https://dc.lft.to/lastmile_qr_scan", "android": "https://dc.lft.to/lastmile_qr_scan"}, "is_reserved": 0}, {"lon": -76.99029633333333, "bike_id": "d3453e0bf60ac4232ffd8c894c70906b", "lat": 38.88876616666667, "fusion_lon": 0.0, "fusion_lat": 0.0, "type": "electric_scooter", "name": "d3453e0bf60ac4232ffd8c894c70906b", "is_disabled": 0, "rental_uris": {"ios": "https://dc.lft.to/lastmile_qr_scan", "android": "https://dc.lft.to/lastmile_qr_scan"}, "is_reserved": 0}, {"lon": -77.03209833333334, "bike_id": "b68f5c08b1f8a8ad13b00fe8bf28e6d5", "lat": 38.91469383333333, "fusion_lon": 0.0, "fusion_lat": 0.0, "type": "electric_scooter", "name": "b68f5c08b1f8a8ad13b00fe8bf28e6d5", "is_disabled": 0, "rental_uris": {"ios": "https://dc.lft.to/lastmile_qr_scan", "android": "https://dc.lft.to/lastmile_qr_scan"}, "is_reserved": 0}, {"lon": -77.0414315, "bike_id": "33c8c1c8d908da15f041002a4481d7e1", "lat": 38.919685333333334, "fusion_lon": 0.0, "fusion_lat": 0.0, "type": "electric_scooter", "name": "33c8c1c8d908da15f041002a4481d7e1", "is_disabled": 0, "rental_uris": {"ios": "https://dc.lft.to/lastmile_qr_scan", "android": "https://dc.lft.to/lastmile_qr_scan"}, "is_reserved": 0}, {"lon": -76.9488145, "bike_id": "4beb7911450961d2632b54d37d6c31bf", "lat": 38.8950945, "fusion_lon": 0.0, "fusion_lat": 0.0, "type": "electric_scooter", "name": "4beb7911450961d2632b54d37d6c31bf", "is_disabled": 0, "rental_uris": {"ios": "https://dc.lft.to/lastmile_qr_scan", "android": "https://dc.lft.to/lastmile_qr_scan"}, "is_reserved": 0}, {"lon": -77.03439566666667, "bike_id": "b0485edaf6b0200d53f217cdffaa880e", "lat": 38.909779666666665, "fusion_lon": 0.0, "fusion_lat": 0.0, "type": "electric_scooter", "name": "b0485edaf6b0200d53f217cdffaa880e", "is_disabled": 0, "rental_uris": {"ios": "https://dc.lft.to/lastmile_qr_scan", "android": "https://dc.lft.to/lastmile_qr_scan"}, "is_reserved": 0}, {"lon": -76.99517416666667, "bike_id": "36f8310511faab0d4a865d57c93c4fe8", "lat": 38.862596, "fusion_lon": 0.0, "fusion_lat": 0.0, "type": "electric_scooter", "name": "36f8310511faab0d4a865d57c93c4fe8", "is_disabled": 0, "rental_uris": {"ios": "https://dc.lft.to/lastmile_qr_scan", "android": "https://dc.lft.to/lastmile_qr_scan"}, "is_reserved": 0}, {"lon": -76.98555983333333, "bike_id": "c69267fb5828995df4d3c5cdc5975980", "lat": 38.909148333333334, "fusion_lon": 0.0, "fusion_lat": 0.0, "type": "electric_scooter", "name": "c69267fb5828995df4d3c5cdc5975980", "is_disabled": 0, "rental_uris": {"ios": "https://dc.lft.to/lastmile_qr_scan", "android": "https://dc.lft.to/lastmile_qr_scan"}, "is_reserved": 0}, {"lon": -77.03631683333333, "bike_id": "23d71ed8d8e05bddab2d27b8cf2780fa", "lat": 38.912335, "fusion_lon": 0.0, "fusion_lat": 0.0, "type": "electric_scooter", "name": "23d71ed8d8e05bddab2d27b8cf2780fa", "is_disabled": 0, "rental_uris": {"ios": "https://dc.lft.to/lastmile_qr_scan", "android": "https://dc.lft.to/lastmile_qr_scan"}, "is_reserved": 0}, {"lon": -77.03189283333333, "bike_id": "9c26f01cc1544f8217bb4ddc3e79ae94", "lat": 38.928729833333335, "fusion_lon": 0.0, "fusion_lat": 0.0, "type": "electric_scooter", "name": "9c26f01cc1544f8217bb4ddc3e79ae94", "is_disabled": 0, "rental_uris": {"ios": "https://dc.lft.to/lastmile_qr_scan", "android": "https://dc.lft.to/lastmile_qr_scan"}, "is_reserved": 0}, {"lon": -76.97331816666667, "bike_id": "fe0654438d4e7bf8a691b0374976ba93", "lat": 38.865195666666665, "fusion_lon": 0.0, "fusion_lat": 0.0, "type": "electric_bike", "name": "fe0654438d4e7bf8a691b0374976ba93", "is_disabled": 0, "rental_uris": {"ios": "https://dc.lft.to/lastmile_qr_scan", "android": "https://dc.lft.to/lastmile_qr_scan"}, "is_reserved": 0}, {"lon": -77.016969, "bike_id": "f4a2a0f234ebcd239f38bce593fd8a49", "lat": 38.879225166666664, "fusion_lon": 0.0, "fusion_lat": 0.0, "type": "electric_scooter", "name": "f4a2a0f234ebcd239f38bce593fd8a49", "is_disabled": 0, "rental_uris": {"ios": "https://dc.lft.to/lastmile_qr_scan", "android": "https://dc.lft.to/lastmile_qr_scan"}, "is_reserved": 0}, {"lon": -77.0383645, "bike_id": "0785a7ad7d38234f2438c64e24f95dca", "lat": 38.917167166666665, "fusion_lon": 0.0, "fusion_lat": 0.0, "type": "electric_scooter", "name": "0785a7ad7d38234f2438c64e24f95dca", "is_disabled": 0, "rental_uris": {"ios": "https://dc.lft.to/lastmile_qr_scan", "android": "https://dc.lft.to/lastmile_qr_scan"}, "is_reserved": 0}, {"lon": -77.0391275, "bike_id": "102dc294e208e229b56e533b0b839caa", "lat": 38.9184295, "fusion_lon": 0.0, "fusion_lat": 0.0, "type": "electric_scooter", "name": "102dc294e208e229b56e533b0b839caa", "is_disabled": 0, "rental_uris": {"ios": "https://dc.lft.to/lastmile_qr_scan", "android": "https://dc.lft.to/lastmile_qr_scan"}, "is_reserved": 0}, {"lon": -76.9808305, "bike_id": "e5866c57088951cd94dcc173d21da17d", "lat": 38.88419616666667, "fusion_lon": 0.0, "fusion_lat": 0.0, "type": "electric_scooter", "name": "e5866c57088951cd94dcc173d21da17d", "is_disabled": 0, "rental_uris": {"ios": "https://dc.lft.to/lastmile_qr_scan", "android": "https://dc.lft.to/lastmile_qr_scan"}, "is_reserved": 0}, {"lon": -77.0236905, "bike_id": "a8cb78f3571efbc35150da847288b845", "lat": 38.9154465, "fusion_lon": 0.0, "fusion_lat": 0.0, "type": "electric_scooter", "name": "a8cb78f3571efbc35150da847288b845", "is_disabled": 0, "rental_uris": {"ios": "https://dc.lft.to/lastmile_qr_scan", "android": "https://dc.lft.to/lastmile_qr_scan"}, "is_reserved": 0}, {"lon": -77.0132865, "bike_id": "cea13e2b178e5a247fabc97e61c3eb6a", "lat": 38.900329, "fusion_lon": 0.0, "fusion_lat": 0.0, "type": "electric_scooter", "name": "cea13e2b178e5a247fabc97e61c3eb6a", "is_disabled": 0, "rental_uris": {"ios": "https://dc.lft.to/lastmile_qr_scan", "android": "https://dc.lft.to/lastmile_qr_scan"}, "is_reserved": 0}, {"lon": -76.97330816666667, "bike_id": "10d2ec5b6b4d040f7a1afd443c87d528", "lat": 38.904107333333336, "fusion_lon": 0.0, "fusion_lat": 0.0, "type": "electric_scooter", "name": "10d2ec5b6b4d040f7a1afd443c87d528", "is_disabled": 0, "rental_uris": {"ios": "https://dc.lft.to/lastmile_qr_scan", "android": "https://dc.lft.to/lastmile_qr_scan"}, "is_reserved": 0}, {"lon": -77.0271515, "bike_id": "b8fdef9a652c0a37e338e7361b2dacd0", "lat": 38.90527266666667, "fusion_lon": 0.0, "fusion_lat": 0.0, "type": "electric_scooter", "name": "b8fdef9a652c0a37e338e7361b2dacd0", "is_disabled": 0, "rental_uris": {"ios": "https://dc.lft.to/lastmile_qr_scan", "android": "https://dc.lft.to/lastmile_qr_scan"}, "is_reserved": 0}, {"lon": -77.04152216666667, "bike_id": "42343518ed5af327f0fddce4439904d6", "lat": 38.91811366666667, "fusion_lon": 0.0, "fusion_lat": 0.0, "type": "electric_scooter", "name": "42343518ed5af327f0fddce4439904d6", "is_disabled": 0, "rental_uris": {"ios": "https://dc.lft.to/lastmile_qr_scan", "android": "https://dc.lft.to/lastmile_qr_scan"}, "is_reserved": 0}, {"lon": -77.03508933333333, "bike_id": "f42c97aeea0327b8b595b851ea177b13", "lat": 38.923514833333336, "fusion_lon": 0.0, "fusion_lat": 0.0, "type": "electric_scooter", "name": "f42c97aeea0327b8b595b851ea177b13", "is_disabled": 0, "rental_uris": {"ios": "https://dc.lft.to/lastmile_qr_scan", "android": "https://dc.lft.to/lastmile_qr_scan"}, "is_reserved": 0}, {"lon": -76.9419065, "bike_id": "38febe77d40078b49d8a7124e58ebcc2", "lat": 38.893165333333336, "fusion_lon": 0.0, "fusion_lat": 0.0, "type": "electric_bike", "name": "38febe77d40078b49d8a7124e58ebcc2", "is_disabled": 0, "rental_uris": {"ios": "https://dc.lft.to/lastmile_qr_scan", "android": "https://dc.lft.to/lastmile_qr_scan"}, "is_reserved": 0}, {"lon": -77.03469066666666, "bike_id": "c5cce41fbc928011bfd79045268a6c50", "lat": 38.907355833333334, "fusion_lon": 0.0, "fusion_lat": 0.0, "type": "electric_scooter", "name": "c5cce41fbc928011bfd79045268a6c50", "is_disabled": 0, "rental_uris": {"ios": "https://dc.lft.to/lastmile_qr_scan", "android": "https://dc.lft.to/lastmile_qr_scan"}, "is_reserved": 0}, {"lon": -77.03878466666667, "bike_id": "9b41c0ef4a711ba951f26749672a46ca", "lat": 38.931823666666666, "fusion_lon": 0.0, "fusion_lat": 0.0, "type": "electric_scooter", "name": "9b41c0ef4a711ba951f26749672a46ca", "is_disabled": 0, "rental_uris": {"ios": "https://dc.lft.to/lastmile_qr_scan", "android": "https://dc.lft.to/lastmile_qr_scan"}, "is_reserved": 0}, {"lon": -77.07165716666667, "bike_id": "69efd555253fcb29a9b547492df840bc", "lat": 38.9077745, "fusion_lon": 0.0, "fusion_lat": 0.0, "type": "electric_scooter", "name": "69efd555253fcb29a9b547492df840bc", "is_disabled": 0, "rental_uris": {"ios": "https://dc.lft.to/lastmile_qr_scan", "android": "https://dc.lft.to/lastmile_qr_scan"}, "is_reserved": 0}, {"lon": -76.991031, "bike_id": "88c9b72aaa7e42d068492c6f7c025a55", "lat": 38.903195333333336, "fusion_lon": 0.0, "fusion_lat": 0.0, "type": "electric_scooter", "name": "88c9b72aaa7e42d068492c6f7c025a55", "is_disabled": 0, "rental_uris": {"ios": "https://dc.lft.to/lastmile_qr_scan", "android": "https://dc.lft.to/lastmile_qr_scan"}, "is_reserved": 0}, {"lon": -77.046303, "bike_id": "181938f396336e2bb13c164015c3c30c", "lat": 38.91910466666667, "fusion_lon": 0.0, "fusion_lat": 0.0, "type": "electric_scooter", "name": "181938f396336e2bb13c164015c3c30c", "is_disabled": 0, "rental_uris": {"ios": "https://dc.lft.to/lastmile_qr_scan", "android": "https://dc.lft.to/lastmile_qr_scan"}, "is_reserved": 0}, {"lon": -77.12651466666667, "bike_id": "448e37f7949e2c4d11e6ae1c16fb5e6b", "lat": 38.81520966666667, "fusion_lon": 0.0, "fusion_lat": 0.0, "type": "electric_bike", "name": "448e37f7949e2c4d11e6ae1c16fb5e6b", "is_disabled": 0, "rental_uris": {"ios": "https://dc.lft.to/lastmile_qr_scan", "android": "https://dc.lft.to/lastmile_qr_scan"}, "is_reserved": 0}, {"lon": -77.03838933333333, "bike_id": "9787e42f6dec628a5f96a8d2f180e109", "lat": 38.91035933333333, "fusion_lon": 0.0, "fusion_lat": 0.0, "type": "electric_scooter", "name": "9787e42f6dec628a5f96a8d2f180e109", "is_disabled": 0, "rental_uris": {"ios": "https://dc.lft.to/lastmile_qr_scan", "android": "https://dc.lft.to/lastmile_qr_scan"}, "is_reserved": 0}, {"lon": -76.93375066666667, "bike_id": "e4040510baaa864cfc94b2d82b77e756", "lat": 38.91029866666667, "fusion_lon": 0.0, "fusion_lat": 0.0, "type": "electric_scooter", "name": "e4040510baaa864cfc94b2d82b77e756", "is_disabled": 0, "rental_uris": {"ios": "https://dc.lft.to/lastmile_qr_scan", "android": "https://dc.lft.to/lastmile_qr_scan"}, "is_reserved": 0}, {"lon": -77.026808, "bike_id": "c938beb4cbb4f8159dcf82384d696d99", "lat": 38.943248833333335, "fusion_lon": 0.0, "fusion_lat": 0.0, "type": "electric_scooter", "name": "c938beb4cbb4f8159dcf82384d696d99", "is_disabled": 0, "rental_uris": {"ios": "https://dc.lft.to/lastmile_qr_scan", "android": "https://dc.lft.to/lastmile_qr_scan"}, "is_reserved": 0}, {"lon": -76.9335555, "bike_id": "280a5d414bb4870c2e215305c5099bf9", "lat": 38.899086833333335, "fusion_lon": 0.0, "fusion_lat": 0.0, "type": "electric_scooter", "name": "280a5d414bb4870c2e215305c5099bf9", "is_disabled": 0, "rental_uris": {"ios": "https://dc.lft.to/lastmile_qr_scan", "android": "https://dc.lft.to/lastmile_qr_scan"}, "is_reserved": 0}, {"lon": -77.04442866666666, "bike_id": "a142c901f4197dd24e94930fb67800b8", "lat": 38.9187955, "fusion_lon": 0.0, "fusion_lat": 0.0, "type": "electric_scooter", "name": "a142c901f4197dd24e94930fb67800b8", "is_disabled": 0, "rental_uris": {"ios": "https://dc.lft.to/lastmile_qr_scan", "android": "https://dc.lft.to/lastmile_qr_scan"}, "is_reserved": 0}, {"lon": -76.9855965, "bike_id": "b683885704c8ec5ca2bfd4ed04a20a91", "lat": 38.8995505, "fusion_lon": 0.0, "fusion_lat": 0.0, "type": "electric_scooter", "name": "b683885704c8ec5ca2bfd4ed04a20a91", "is_disabled": 0, "rental_uris": {"ios": "https://dc.lft.to/lastmile_qr_scan", "android": "https://dc.lft.to/lastmile_qr_scan"}, "is_reserved": 0}, {"lon": -76.981893, "bike_id": "003429e3ad7853bca6865373502ca1c3", "lat": 38.925960833333335, "fusion_lon": 0.0, "fusion_lat": 0.0, "type": "electric_scooter", "name": "003429e3ad7853bca6865373502ca1c3", "is_disabled": 0, "rental_uris": {"ios": "https://dc.lft.to/lastmile_qr_scan", "android": "https://dc.lft.to/lastmile_qr_scan"}, "is_reserved": 0}, {"lon": -77.03209166666667, "bike_id": "e4e9838f1b19ac7ebcb4087bfa5ec423", "lat": 38.91206966666667, "fusion_lon": 0.0, "fusion_lat": 0.0, "type": "electric_scooter", "name": "e4e9838f1b19ac7ebcb4087bfa5ec423", "is_disabled": 0, "rental_uris": {"ios": "https://dc.lft.to/lastmile_qr_scan", "android": "https://dc.lft.to/lastmile_qr_scan"}, "is_reserved": 0}, {"lon": -77.02186133333333, "bike_id": "d61b087ae60565e879c96860c6e6b658", "lat": 38.90122066666667, "fusion_lon": 0.0, "fusion_lat": 0.0, "type": "electric_scooter", "name": "d61b087ae60565e879c96860c6e6b658", "is_disabled": 0, "rental_uris": {"ios": "https://dc.lft.to/lastmile_qr_scan", "android": "https://dc.lft.to/lastmile_qr_scan"}, "is_reserved": 0}, {"lon": -77.02526383333333, "bike_id": "514700e2035ad56928a10e2c07c04151", "lat": 38.905741166666665, "fusion_lon": 0.0, "fusion_lat": 0.0, "type": "electric_scooter", "name": "514700e2035ad56928a10e2c07c04151", "is_disabled": 0, "rental_uris": {"ios": "https://dc.lft.to/lastmile_qr_scan", "android": "https://dc.lft.to/lastmile_qr_scan"}, "is_reserved": 0}, {"lon": -77.02306416666667, "bike_id": "73e2b5702240f56e8b75291e301cea24", "lat": 38.917855, "fusion_lon": 0.0, "fusion_lat": 0.0, "type": "electric_scooter", "name": "73e2b5702240f56e8b75291e301cea24", "is_disabled": 0, "rental_uris": {"ios": "https://dc.lft.to/lastmile_qr_scan", "android": "https://dc.lft.to/lastmile_qr_scan"}, "is_reserved": 0}, {"lon": -77.03990666666667, "bike_id": "b6e1be8ef8fe0d478e392261b255a55a", "lat": 38.91885966666667, "fusion_lon": 0.0, "fusion_lat": 0.0, "type": "electric_scooter", "name": "b6e1be8ef8fe0d478e392261b255a55a", "is_disabled": 0, "rental_uris": {"ios": "https://dc.lft.to/lastmile_qr_scan", "android": "https://dc.lft.to/lastmile_qr_scan"}, "is_reserved": 0}, {"lon": -77.01769316666666, "bike_id": "947b31609f85d7630f5b5b739020dee2", "lat": 38.88383266666666, "fusion_lon": 0.0, "fusion_lat": 0.0, "type": "electric_scooter", "name": "947b31609f85d7630f5b5b739020dee2", "is_disabled": 0, "rental_uris": {"ios": "https://dc.lft.to/lastmile_qr_scan", "android": "https://dc.lft.to/lastmile_qr_scan"}, "is_reserved": 0}, {"lon": -77.02237666666667, "bike_id": "ca71c4fa1b0d345841d870a5f52ad396", "lat": 38.96202566666667, "fusion_lon": 0.0, "fusion_lat": 0.0, "type": "electric_scooter", "name": "ca71c4fa1b0d345841d870a5f52ad396", "is_disabled": 0, "rental_uris": {"ios": "https://dc.lft.to/lastmile_qr_scan", "android": "https://dc.lft.to/lastmile_qr_scan"}, "is_reserved": 0}, {"lon": -77.060116, "bike_id": "1cca51dee7a8e8d6a33c77cdd2e451cd", "lat": 38.90118, "fusion_lon": 0.0, "fusion_lat": 0.0, "type": "electric_scooter", "name": "1cca51dee7a8e8d6a33c77cdd2e451cd", "is_disabled": 0, "rental_uris": {"ios": "https://dc.lft.to/lastmile_qr_scan", "android": "https://dc.lft.to/lastmile_qr_scan"}, "is_reserved": 0}, {"lon": -77.048748, "bike_id": "0116df731ef8291e13128502c907c0e9", "lat": 38.892322166666666, "fusion_lon": 0.0, "fusion_lat": 0.0, "type": "electric_scooter", "name": "0116df731ef8291e13128502c907c0e9", "is_disabled": 0, "rental_uris": {"ios": "https://dc.lft.to/lastmile_qr_scan", "android": "https://dc.lft.to/lastmile_qr_scan"}, "is_reserved": 0}, {"lon": -77.03242716666666, "bike_id": "b62868eb168463201a628153ea57ea9f", "lat": 38.90548616666667, "fusion_lon": 0.0, "fusion_lat": 0.0, "type": "electric_scooter", "name": "b62868eb168463201a628153ea57ea9f", "is_disabled": 0, "rental_uris": {"ios": "https://dc.lft.to/lastmile_qr_scan", "android": "https://dc.lft.to/lastmile_qr_scan"}, "is_reserved": 0}, {"lon": -76.980346, "bike_id": "3b6e9d98ed98dad05281127c05f4efa2", "lat": 38.88967, "fusion_lon": 0.0, "fusion_lat": 0.0, "type": "electric_scooter", "name": "3b6e9d98ed98dad05281127c05f4efa2", "is_disabled": 0, "rental_uris": {"ios": "https://dc.lft.to/lastmile_qr_scan", "android": "https://dc.lft.to/lastmile_qr_scan"}, "is_reserved": 0}, {"lon": -76.9833735, "bike_id": "f9be6815c91fe48eb8a2fc4da99908fc", "lat": 38.8663985, "fusion_lon": 0.0, "fusion_lat": 0.0, "type": "electric_scooter", "name": "f9be6815c91fe48eb8a2fc4da99908fc", "is_disabled": 0, "rental_uris": {"ios": "https://dc.lft.to/lastmile_qr_scan", "android": "https://dc.lft.to/lastmile_qr_scan"}, "is_reserved": 0}, {"lon": -76.9318835, "bike_id": "f35baf9412a5466621bffa4a1b750568", "lat": 38.898760333333335, "fusion_lon": 0.0, "fusion_lat": 0.0, "type": "electric_scooter", "name": "f35baf9412a5466621bffa4a1b750568", "is_disabled": 0, "rental_uris": {"ios": "https://dc.lft.to/lastmile_qr_scan", "android": "https://dc.lft.to/lastmile_qr_scan"}, "is_reserved": 0}, {"lon": -77.07751183333333, "bike_id": "3d46d60a8c0361845f02559a2c92e4f9", "lat": 38.8419055, "fusion_lon": 0.0, "fusion_lat": 0.0, "type": "electric_bike", "name": "3d46d60a8c0361845f02559a2c92e4f9", "is_disabled": 0, "rental_uris": {"ios": "https://dc.lft.to/lastmile_qr_scan", "android": "https://dc.lft.to/lastmile_qr_scan"}, "is_reserved": 0}, {"lon": -77.0327435, "bike_id": "62e97185c7259ddc993a2c2645ac5f06", "lat": 38.90724933333333, "fusion_lon": 0.0, "fusion_lat": 0.0, "type": "electric_scooter", "name": "62e97185c7259ddc993a2c2645ac5f06", "is_disabled": 0, "rental_uris": {"ios": "https://dc.lft.to/lastmile_qr_scan", "android": "https://dc.lft.to/lastmile_qr_scan"}, "is_reserved": 0}, {"lon": -76.92204916666667, "bike_id": "0c5fc8e0d4be0070c8a789fdea2c89bc", "lat": 38.894959166666666, "fusion_lon": 0.0, "fusion_lat": 0.0, "type": "electric_bike", "name": "0c5fc8e0d4be0070c8a789fdea2c89bc", "is_disabled": 0, "rental_uris": {"ios": "https://dc.lft.to/lastmile_qr_scan", "android": "https://dc.lft.to/lastmile_qr_scan"}, "is_reserved": 0}, {"lon": -77.080014, "bike_id": "4fcc73f505192f61529d5b40107b4958", "lat": 38.96487033333333, "fusion_lon": 0.0, "fusion_lat": 0.0, "type": "electric_scooter", "name": "4fcc73f505192f61529d5b40107b4958", "is_disabled": 0, "rental_uris": {"ios": "https://dc.lft.to/lastmile_qr_scan", "android": "https://dc.lft.to/lastmile_qr_scan"}, "is_reserved": 0}, {"lon": -77.014935, "bike_id": "a264e22f7e3bd2c6373370ccb38fb3d7", "lat": 38.917561, "fusion_lon": 0.0, "fusion_lat": 0.0, "type": "electric_scooter", "name": "a264e22f7e3bd2c6373370ccb38fb3d7", "is_disabled": 0, "rental_uris": {"ios": "https://dc.lft.to/lastmile_qr_scan", "android": "https://dc.lft.to/lastmile_qr_scan"}, "is_reserved": 0}, {"lon": -77.023961, "bike_id": "dfc4b7f06ddc4910b76d7ebba7c5f57e", "lat": 38.91429133333333, "fusion_lon": 0.0, "fusion_lat": 0.0, "type": "electric_scooter", "name": "dfc4b7f06ddc4910b76d7ebba7c5f57e", "is_disabled": 0, "rental_uris": {"ios": "https://dc.lft.to/lastmile_qr_scan", "android": "https://dc.lft.to/lastmile_qr_scan"}, "is_reserved": 0}, {"lon": -76.990157, "bike_id": "9f6e3b2cd36b41bfa369f08306143ab6", "lat": 38.88270416666667, "fusion_lon": 0.0, "fusion_lat": 0.0, "type": "electric_scooter", "name": "9f6e3b2cd36b41bfa369f08306143ab6", "is_disabled": 0, "rental_uris": {"ios": "https://dc.lft.to/lastmile_qr_scan", "android": "https://dc.lft.to/lastmile_qr_scan"}, "is_reserved": 0}, {"lon": -77.00374666666667, "bike_id": "67dbd56aeff5d8b0e675e821876b0bdf", "lat": 38.897369, "fusion_lon": 0.0, "fusion_lat": 0.0, "type": "electric_scooter", "name": "67dbd56aeff5d8b0e675e821876b0bdf", "is_disabled": 0, "rental_uris": {"ios": "https://dc.lft.to/lastmile_qr_scan", "android": "https://dc.lft.to/lastmile_qr_scan"}, "is_reserved": 0}, {"lon": -77.07903483333334, "bike_id": "282254d7c9feca37f98a010fc65299c0", "lat": 38.839306666666666, "fusion_lon": 0.0, "fusion_lat": 0.0, "type": "electric_bike", "name": "282254d7c9feca37f98a010fc65299c0", "is_disabled": 0, "rental_uris": {"ios": "https://dc.lft.to/lastmile_qr_scan", "android": "https://dc.lft.to/lastmile_qr_scan"}, "is_reserved": 0}, {"lon": -77.02423583333334, "bike_id": "46140eeb9cc07cf87720737dba76e63e", "lat": 38.92654533333334, "fusion_lon": 0.0, "fusion_lat": 0.0, "type": "electric_scooter", "name": "46140eeb9cc07cf87720737dba76e63e", "is_disabled": 0, "rental_uris": {"ios": "https://dc.lft.to/lastmile_qr_scan", "android": "https://dc.lft.to/lastmile_qr_scan"}, "is_reserved": 0}, {"lon": -77.03856433333333, "bike_id": "0f53b7bab01ac767e2c8c5eed9ea0735", "lat": 38.915447666666665, "fusion_lon": 0.0, "fusion_lat": 0.0, "type": "electric_scooter", "name": "0f53b7bab01ac767e2c8c5eed9ea0735", "is_disabled": 0, "rental_uris": {"ios": "https://dc.lft.to/lastmile_qr_scan", "android": "https://dc.lft.to/lastmile_qr_scan"}, "is_reserved": 0}, {"lon": -77.0185715, "bike_id": "36d161e1c4041b2e9e70ba554899f5b7", "lat": 38.903819166666665, "fusion_lon": 0.0, "fusion_lat": 0.0, "type": "electric_scooter", "name": "36d161e1c4041b2e9e70ba554899f5b7", "is_disabled": 0, "rental_uris": {"ios": "https://dc.lft.to/lastmile_qr_scan", "android": "https://dc.lft.to/lastmile_qr_scan"}, "is_reserved": 0}, {"lon": -77.09069033333333, "bike_id": "628892abe86f3442e1f0466c36bd9350", "lat": 38.9786055, "fusion_lon": 0.0, "fusion_lat": 0.0, "type": "electric_bike", "name": "628892abe86f3442e1f0466c36bd9350", "is_disabled": 0, "rental_uris": {"ios": "https://dc.lft.to/lastmile_qr_scan", "android": "https://dc.lft.to/lastmile_qr_scan"}, "is_reserved": 0}, {"lon": -77.06753033333334, "bike_id": "f8d30381b298f73cb9b95257382d63fb", "lat": 38.90498616666667, "fusion_lon": 0.0, "fusion_lat": 0.0, "type": "electric_scooter", "name": "f8d30381b298f73cb9b95257382d63fb", "is_disabled": 0, "rental_uris": {"ios": "https://dc.lft.to/lastmile_qr_scan", "android": "https://dc.lft.to/lastmile_qr_scan"}, "is_reserved": 0}, {"lon": -77.0250425, "bike_id": "b0b28a60d2e770f314998a26174949f1", "lat": 38.919180833333336, "fusion_lon": 0.0, "fusion_lat": 0.0, "type": "electric_scooter", "name": "b0b28a60d2e770f314998a26174949f1", "is_disabled": 0, "rental_uris": {"ios": "https://dc.lft.to/lastmile_qr_scan", "android": "https://dc.lft.to/lastmile_qr_scan"}, "is_reserved": 0}, {"lon": -77.0325975, "bike_id": "f6ed79a1341f075d68bec358d63d2383", "lat": 38.925419166666664, "fusion_lon": 0.0, "fusion_lat": 0.0, "type": "electric_scooter", "name": "f6ed79a1341f075d68bec358d63d2383", "is_disabled": 0, "rental_uris": {"ios": "https://dc.lft.to/lastmile_qr_scan", "android": "https://dc.lft.to/lastmile_qr_scan"}, "is_reserved": 0}, {"lon": -77.04672766666667, "bike_id": "244208d0284d6b9c57fb40ca3e7621e5", "lat": 38.90548966666667, "fusion_lon": 0.0, "fusion_lat": 0.0, "type": "electric_scooter", "name": "244208d0284d6b9c57fb40ca3e7621e5", "is_disabled": 0, "rental_uris": {"ios": "https://dc.lft.to/lastmile_qr_scan", "android": "https://dc.lft.to/lastmile_qr_scan"}, "is_reserved": 0}, {"lon": -77.04176216666667, "bike_id": "7f63018c0f1a3c6534689a8454d836ba", "lat": 38.9179375, "fusion_lon": 0.0, "fusion_lat": 0.0, "type": "electric_scooter", "name": "7f63018c0f1a3c6534689a8454d836ba", "is_disabled": 0, "rental_uris": {"ios": "https://dc.lft.to/lastmile_qr_scan", "android": "https://dc.lft.to/lastmile_qr_scan"}, "is_reserved": 0}, {"lon": -77.01921833333333, "bike_id": "cf8062809417cb3c9ebb0eac87f5bd92", "lat": 38.922178, "fusion_lon": 0.0, "fusion_lat": 0.0, "type": "electric_scooter", "name": "cf8062809417cb3c9ebb0eac87f5bd92", "is_disabled": 0, "rental_uris": {"ios": "https://dc.lft.to/lastmile_qr_scan", "android": "https://dc.lft.to/lastmile_qr_scan"}, "is_reserved": 0}, {"lon": -77.130979, "bike_id": "3206f2da5fa87ffd545e711a1938510e", "lat": 39.02436483333334, "fusion_lon": 0.0, "fusion_lat": 0.0, "type": "electric_bike", "name": "3206f2da5fa87ffd545e711a1938510e", "is_disabled": 0, "rental_uris": {"ios": "https://dc.lft.to/lastmile_qr_scan", "android": "https://dc.lft.to/lastmile_qr_scan"}, "is_reserved": 0}, {"lon": -77.02710666666667, "bike_id": "0d2acc193b3046ab71caa30b99e8172d", "lat": 38.9167655, "fusion_lon": 0.0, "fusion_lat": 0.0, "type": "electric_scooter", "name": "0d2acc193b3046ab71caa30b99e8172d", "is_disabled": 0, "rental_uris": {"ios": "https://dc.lft.to/lastmile_qr_scan", "android": "https://dc.lft.to/lastmile_qr_scan"}, "is_reserved": 0}, {"lon": -77.0153325, "bike_id": "9b356665347c1229ede4b858176ca4a7", "lat": 38.902719, "fusion_lon": 0.0, "fusion_lat": 0.0, "type": "electric_scooter", "name": "9b356665347c1229ede4b858176ca4a7", "is_disabled": 0, "rental_uris": {"ios": "https://dc.lft.to/lastmile_qr_scan", "android": "https://dc.lft.to/lastmile_qr_scan"}, "is_reserved": 0}, {"lon": -76.98373916666667, "bike_id": "24549d0fa2a4e915714a65fe5c441f20", "lat": 38.899725333333336, "fusion_lon": 0.0, "fusion_lat": 0.0, "type": "electric_scooter", "name": "24549d0fa2a4e915714a65fe5c441f20", "is_disabled": 0, "rental_uris": {"ios": "https://dc.lft.to/lastmile_qr_scan", "android": "https://dc.lft.to/lastmile_qr_scan"}, "is_reserved": 0}, {"lon": -77.0036855, "bike_id": "a8b2af3cb06b56b1a6816cd787586492", "lat": 38.897299333333336, "fusion_lon": 0.0, "fusion_lat": 0.0, "type": "electric_scooter", "name": "a8b2af3cb06b56b1a6816cd787586492", "is_disabled": 0, "rental_uris": {"ios": "https://dc.lft.to/lastmile_qr_scan", "android": "https://dc.lft.to/lastmile_qr_scan"}, "is_reserved": 0}, {"lon": -76.97392, "bike_id": "40e5279441041178d3f36c93993d123a", "lat": 38.90557233333333, "fusion_lon": 0.0, "fusion_lat": 0.0, "type": "electric_scooter", "name": "40e5279441041178d3f36c93993d123a", "is_disabled": 0, "rental_uris": {"ios": "https://dc.lft.to/lastmile_qr_scan", "android": "https://dc.lft.to/lastmile_qr_scan"}, "is_reserved": 0}, {"lon": -77.03425233333333, "bike_id": "e13e9806845c6be8c6355faaca02e7e6", "lat": 38.92241, "fusion_lon": 0.0, "fusion_lat": 0.0, "type": "electric_scooter", "name": "e13e9806845c6be8c6355faaca02e7e6", "is_disabled": 0, "rental_uris": {"ios": "https://dc.lft.to/lastmile_qr_scan", "android": "https://dc.lft.to/lastmile_qr_scan"}, "is_reserved": 0}, {"lon": -76.9754755, "bike_id": "dfbd6b971f4ed885e2b903f6ba94a4d0", "lat": 38.903244, "fusion_lon": 0.0, "fusion_lat": 0.0, "type": "electric_scooter", "name": "dfbd6b971f4ed885e2b903f6ba94a4d0", "is_disabled": 0, "rental_uris": {"ios": "https://dc.lft.to/lastmile_qr_scan", "android": "https://dc.lft.to/lastmile_qr_scan"}, "is_reserved": 0}, {"lon": -77.03395433333333, "bike_id": "4112760cb0bf689efa6b69898355a409", "lat": 38.9097175, "fusion_lon": 0.0, "fusion_lat": 0.0, "type": "electric_scooter", "name": "4112760cb0bf689efa6b69898355a409", "is_disabled": 0, "rental_uris": {"ios": "https://dc.lft.to/lastmile_qr_scan", "android": "https://dc.lft.to/lastmile_qr_scan"}, "is_reserved": 0}, {"lon": -77.045651, "bike_id": "efaf8d23391c8665d96fc26867ffb12f", "lat": 38.914040666666665, "fusion_lon": 0.0, "fusion_lat": 0.0, "type": "electric_scooter", "name": "efaf8d23391c8665d96fc26867ffb12f", "is_disabled": 0, "rental_uris": {"ios": "https://dc.lft.to/lastmile_qr_scan", "android": "https://dc.lft.to/lastmile_qr_scan"}, "is_reserved": 0}, {"lon": -77.03502433333334, "bike_id": "014f912d20f4cda639de7b8c58a87934", "lat": 38.937554666666664, "fusion_lon": 0.0, "fusion_lat": 0.0, "type": "electric_scooter", "name": "014f912d20f4cda639de7b8c58a87934", "is_disabled": 0, "rental_uris": {"ios": "https://dc.lft.to/lastmile_qr_scan", "android": "https://dc.lft.to/lastmile_qr_scan"}, "is_reserved": 0}, {"lon": -77.02697933333333, "bike_id": "33a83e974617c1210cb6dfde5d916e4a", "lat": 38.8969895, "fusion_lon": 0.0, "fusion_lat": 0.0, "type": "electric_scooter", "name": "33a83e974617c1210cb6dfde5d916e4a", "is_disabled": 0, "rental_uris": {"ios": "https://dc.lft.to/lastmile_qr_scan", "android": "https://dc.lft.to/lastmile_qr_scan"}, "is_reserved": 0}, {"lon": -76.98351366666667, "bike_id": "691dc86d5122df2a8c0152d04f93d591", "lat": 38.887696, "fusion_lon": 0.0, "fusion_lat": 0.0, "type": "electric_scooter", "name": "691dc86d5122df2a8c0152d04f93d591", "is_disabled": 0, "rental_uris": {"ios": "https://dc.lft.to/lastmile_qr_scan", "android": "https://dc.lft.to/lastmile_qr_scan"}, "is_reserved": 0}, {"lon": -76.94632783333333, "bike_id": "389bf4a924cd94f3bc225b9986e5f271", "lat": 38.898323166666664, "fusion_lon": 0.0, "fusion_lat": 0.0, "type": "electric_scooter", "name": "389bf4a924cd94f3bc225b9986e5f271", "is_disabled": 0, "rental_uris": {"ios": "https://dc.lft.to/lastmile_qr_scan", "android": "https://dc.lft.to/lastmile_qr_scan"}, "is_reserved": 0}, {"lon": -77.03648266666667, "bike_id": "1663ac495869c09c45d0937ae979147d", "lat": 38.93082183333333, "fusion_lon": 0.0, "fusion_lat": 0.0, "type": "electric_scooter", "name": "1663ac495869c09c45d0937ae979147d", "is_disabled": 0, "rental_uris": {"ios": "https://dc.lft.to/lastmile_qr_scan", "android": "https://dc.lft.to/lastmile_qr_scan"}, "is_reserved": 0}, {"lon": -77.06340066666667, "bike_id": "22eb05cf996962816e575f0efc3ce5c1", "lat": 38.9068345, "fusion_lon": 0.0, "fusion_lat": 0.0, "type": "electric_scooter", "name": "22eb05cf996962816e575f0efc3ce5c1", "is_disabled": 0, "rental_uris": {"ios": "https://dc.lft.to/lastmile_qr_scan", "android": "https://dc.lft.to/lastmile_qr_scan"}, "is_reserved": 0}, {"lon": -77.03453, "bike_id": "4f995c699e1d3e359083c1501132cc1f", "lat": 38.908085666666665, "fusion_lon": 0.0, "fusion_lat": 0.0, "type": "electric_scooter", "name": "4f995c699e1d3e359083c1501132cc1f", "is_disabled": 0, "rental_uris": {"ios": "https://dc.lft.to/lastmile_qr_scan", "android": "https://dc.lft.to/lastmile_qr_scan"}, "is_reserved": 0}, {"lon": -77.08456083333333, "bike_id": "53c688b555b0422d8b9d0eacd2273cf3", "lat": 38.84818766666667, "fusion_lon": 0.0, "fusion_lat": 0.0, "type": "electric_bike", "name": "53c688b555b0422d8b9d0eacd2273cf3", "is_disabled": 0, "rental_uris": {"ios": "https://dc.lft.to/lastmile_qr_scan", "android": "https://dc.lft.to/lastmile_qr_scan"}, "is_reserved": 0}, {"lon": -77.02831433333333, "bike_id": "cfa872052f8da3305b73067355a49684", "lat": 38.9296265, "fusion_lon": 0.0, "fusion_lat": 0.0, "type": "electric_scooter", "name": "cfa872052f8da3305b73067355a49684", "is_disabled": 0, "rental_uris": {"ios": "https://dc.lft.to/lastmile_qr_scan", "android": "https://dc.lft.to/lastmile_qr_scan"}, "is_reserved": 0}, {"lon": -77.03183516666667, "bike_id": "baa3bec26a349a137597fe8ba3ae7eeb", "lat": 38.905262, "fusion_lon": 0.0, "fusion_lat": 0.0, "type": "electric_scooter", "name": "baa3bec26a349a137597fe8ba3ae7eeb", "is_disabled": 0, "rental_uris": {"ios": "https://dc.lft.to/lastmile_qr_scan", "android": "https://dc.lft.to/lastmile_qr_scan"}, "is_reserved": 0}, {"lon": -77.00195833333333, "bike_id": "54383953fa918da1df12033a4df41127", "lat": 38.90043883333333, "fusion_lon": 0.0, "fusion_lat": 0.0, "type": "electric_scooter", "name": "54383953fa918da1df12033a4df41127", "is_disabled": 0, "rental_uris": {"ios": "https://dc.lft.to/lastmile_qr_scan", "android": "https://dc.lft.to/lastmile_qr_scan"}, "is_reserved": 0}, {"lon": -77.1033435, "bike_id": "769e360c3b1ff7c9031b0e9c1e0a5bc4", "lat": 38.88551783333333, "fusion_lon": 0.0, "fusion_lat": 0.0, "type": "electric_bike", "name": "769e360c3b1ff7c9031b0e9c1e0a5bc4", "is_disabled": 0, "rental_uris": {"ios": "https://dc.lft.to/lastmile_qr_scan", "android": "https://dc.lft.to/lastmile_qr_scan"}, "is_reserved": 0}, {"lon": -77.02946483333334, "bike_id": "b65db98af95c40e1ad181e53b84ee270", "lat": 38.905043166666665, "fusion_lon": 0.0, "fusion_lat": 0.0, "type": "electric_scooter", "name": "b65db98af95c40e1ad181e53b84ee270", "is_disabled": 0, "rental_uris": {"ios": "https://dc.lft.to/lastmile_qr_scan", "android": "https://dc.lft.to/lastmile_qr_scan"}, "is_reserved": 0}, {"lon": -77.0356835, "bike_id": "1eaf5d59694d73a22c9b7066c612cf77", "lat": 38.917718666666666, "fusion_lon": 0.0, "fusion_lat": 0.0, "type": "electric_scooter", "name": "1eaf5d59694d73a22c9b7066c612cf77", "is_disabled": 0, "rental_uris": {"ios": "https://dc.lft.to/lastmile_qr_scan", "android": "https://dc.lft.to/lastmile_qr_scan"}, "is_reserved": 0}, {"lon": -77.00191083333333, "bike_id": "497ef9e50c3f02c3e27ce7bcb0bcfbb3", "lat": 38.8885085, "fusion_lon": 0.0, "fusion_lat": 0.0, "type": "electric_bike", "name": "497ef9e50c3f02c3e27ce7bcb0bcfbb3", "is_disabled": 0, "rental_uris": {"ios": "https://dc.lft.to/lastmile_qr_scan", "android": "https://dc.lft.to/lastmile_qr_scan"}, "is_reserved": 0}, {"lon": -77.02165483333333, "bike_id": "b1e15948c1d9c9038e8298f64989fb82", "lat": 38.897254333333336, "fusion_lon": 0.0, "fusion_lat": 0.0, "type": "electric_scooter", "name": "b1e15948c1d9c9038e8298f64989fb82", "is_disabled": 0, "rental_uris": {"ios": "https://dc.lft.to/lastmile_qr_scan", "android": "https://dc.lft.to/lastmile_qr_scan"}, "is_reserved": 0}, {"lon": -77.0410975, "bike_id": "1b3dee9a469a03b6a38fa44dfb853723", "lat": 38.9086595, "fusion_lon": 0.0, "fusion_lat": 0.0, "type": "electric_scooter", "name": "1b3dee9a469a03b6a38fa44dfb853723", "is_disabled": 0, "rental_uris": {"ios": "https://dc.lft.to/lastmile_qr_scan", "android": "https://dc.lft.to/lastmile_qr_scan"}, "is_reserved": 0}, {"lon": -77.03982433333333, "bike_id": "77b1d1960439e17444cdf479c354c593", "lat": 38.91628133333333, "fusion_lon": 0.0, "fusion_lat": 0.0, "type": "electric_scooter", "name": "77b1d1960439e17444cdf479c354c593", "is_disabled": 0, "rental_uris": {"ios": "https://dc.lft.to/lastmile_qr_scan", "android": "https://dc.lft.to/lastmile_qr_scan"}, "is_reserved": 0}, {"lon": -77.03835583333333, "bike_id": "84beacbdde7569db0f85f3e3824ed4b0", "lat": 38.904026333333334, "fusion_lon": 0.0, "fusion_lat": 0.0, "type": "electric_scooter", "name": "84beacbdde7569db0f85f3e3824ed4b0", "is_disabled": 0, "rental_uris": {"ios": "https://dc.lft.to/lastmile_qr_scan", "android": "https://dc.lft.to/lastmile_qr_scan"}, "is_reserved": 0}, {"lon": -77.01051966666667, "bike_id": "6a23a85ea8d14d001d6af5e43a3ea64d", "lat": 38.9636165, "fusion_lon": 0.0, "fusion_lat": 0.0, "type": "electric_scooter", "name": "6a23a85ea8d14d001d6af5e43a3ea64d", "is_disabled": 0, "rental_uris": {"ios": "https://dc.lft.to/lastmile_qr_scan", "android": "https://dc.lft.to/lastmile_qr_scan"}, "is_reserved": 0}, {"lon": -77.009835, "bike_id": "ddf9710bbba4af686c5bc555c25e4528", "lat": 38.903672666666665, "fusion_lon": 0.0, "fusion_lat": 0.0, "type": "electric_scooter", "name": "ddf9710bbba4af686c5bc555c25e4528", "is_disabled": 0, "rental_uris": {"ios": "https://dc.lft.to/lastmile_qr_scan", "android": "https://dc.lft.to/lastmile_qr_scan"}, "is_reserved": 0}, {"lon": -76.99174516666666, "bike_id": "d18e162d481679d353756bacb8974ed7", "lat": 38.88987266666667, "fusion_lon": 0.0, "fusion_lat": 0.0, "type": "electric_scooter", "name": "d18e162d481679d353756bacb8974ed7", "is_disabled": 0, "rental_uris": {"ios": "https://dc.lft.to/lastmile_qr_scan", "android": "https://dc.lft.to/lastmile_qr_scan"}, "is_reserved": 0}, {"lon": -77.01839616666666, "bike_id": "c1b74f371e7af55269f38ba01bff7da8", "lat": 38.90954833333333, "fusion_lon": 0.0, "fusion_lat": 0.0, "type": "electric_scooter", "name": "c1b74f371e7af55269f38ba01bff7da8", "is_disabled": 0, "rental_uris": {"ios": "https://dc.lft.to/lastmile_qr_scan", "android": "https://dc.lft.to/lastmile_qr_scan"}, "is_reserved": 0}, {"lon": -76.97243933333333, "bike_id": "c596f6b1aa30257e0053f0f76b7b032c", "lat": 38.90340783333333, "fusion_lon": 0.0, "fusion_lat": 0.0, "type": "electric_scooter", "name": "c596f6b1aa30257e0053f0f76b7b032c", "is_disabled": 0, "rental_uris": {"ios": "https://dc.lft.to/lastmile_qr_scan", "android": "https://dc.lft.to/lastmile_qr_scan"}, "is_reserved": 0}, {"lon": -77.017008, "bike_id": "e75428a8ac07e0f4a12981df47eb8438", "lat": 38.904603, "fusion_lon": 0.0, "fusion_lat": 0.0, "type": "electric_scooter", "name": "e75428a8ac07e0f4a12981df47eb8438", "is_disabled": 0, "rental_uris": {"ios": "https://dc.lft.to/lastmile_qr_scan", "android": "https://dc.lft.to/lastmile_qr_scan"}, "is_reserved": 0}, {"lon": -76.99070083333334, "bike_id": "b7d426b45762e87d9bc4f8b23fd7e0d0", "lat": 38.898134, "fusion_lon": 0.0, "fusion_lat": 0.0, "type": "electric_bike", "name": "b7d426b45762e87d9bc4f8b23fd7e0d0", "is_disabled": 0, "rental_uris": {"ios": "https://dc.lft.to/lastmile_qr_scan", "android": "https://dc.lft.to/lastmile_qr_scan"}, "is_reserved": 0}, {"lon": -77.0434385, "bike_id": "e92bee5e5f2be258c342aee2c86c8b3e", "lat": 38.90799766666667, "fusion_lon": 0.0, "fusion_lat": 0.0, "type": "electric_scooter", "name": "e92bee5e5f2be258c342aee2c86c8b3e", "is_disabled": 0, "rental_uris": {"ios": "https://dc.lft.to/lastmile_qr_scan", "android": "https://dc.lft.to/lastmile_qr_scan"}, "is_reserved": 0}, {"lon": -77.018357, "bike_id": "ceadf8e481e9f711bab88d1df257b2ed", "lat": 38.9093375, "fusion_lon": 0.0, "fusion_lat": 0.0, "type": "electric_scooter", "name": "ceadf8e481e9f711bab88d1df257b2ed", "is_disabled": 0, "rental_uris": {"ios": "https://dc.lft.to/lastmile_qr_scan", "android": "https://dc.lft.to/lastmile_qr_scan"}, "is_reserved": 0}, {"lon": -77.02500716666667, "bike_id": "76ac0857d9767b85cb7ae95e498c61a0", "lat": 38.91905933333334, "fusion_lon": 0.0, "fusion_lat": 0.0, "type": "electric_scooter", "name": "76ac0857d9767b85cb7ae95e498c61a0", "is_disabled": 0, "rental_uris": {"ios": "https://dc.lft.to/lastmile_qr_scan", "android": "https://dc.lft.to/lastmile_qr_scan"},