{"data": {"bikes": [{"lon": -77.05070433333333, "rental_uris": {"android": "https://dc.lft.to/lastmile_qr_scan", "ios": "https://dc.lft.to/lastmile_qr_scan"}, "fusion_lon": 0.0, "is_reserved": 0, "is_disabled": 0, "fusion_lat": 0.0, "type": "electric_scooter", "name": "1b391c0101717787d3ff3d45c323488d", "lat": 38.916329, "bike_id": "1b391c0101717787d3ff3d45c323488d"}, {"lon": -76.97745433333333, "rental_uris": {"android": "https://dc.lft.to/lastmile_qr_scan", "ios": "https://dc.lft.to/lastmile_qr_scan"}, "fusion_lon": 0.0, "is_reserved": 0, "is_disabled": 0, "fusion_lat": 0.0, "type": "electric_bike", "name": "8cbe8ecf038e483ebfc2b29e4b1d31e1", "lat": 38.864998, "bike_id": "8cbe8ecf038e483ebfc2b29e4b1d31e1"}, {"lon": -77.02199966666667, "rental_uris": {"android": "https://dc.lft.to/lastmile_qr_scan", "ios": "https://dc.lft.to/lastmile_qr_scan"}, "fusion_lon": 0.0, "is_reserved": 0, "is_disabled": 0, "fusion_lat": 0.0, "type": "electric_scooter", "name": "72401952354af73fa728a8a5c075e452", "lat": 38.89712883333333, "bike_id": "72401952354af73fa728a8a5c075e452"}, {"lon": -77.01372166666667, "rental_uris": {"android": "https://dc.lft.to/lastmile_qr_scan", "ios": "https://dc.lft.to/lastmile_qr_scan"}, "fusion_lon": 0.0, "is_reserved": 0, "is_disabled": 0, "fusion_lat": 0.0, "type": "electric_scooter", "name": "f15cfd514b95d273fba81746cc15f936", "lat": 38.928804, "bike_id": "f15cfd514b95d273fba81746cc15f936"}, {"lon": -77.04473966666667, "rental_uris": {"android": "https://dc.lft.to/lastmile_qr_scan", "ios": "https://dc.lft.to/lastmile_qr_scan"}, "fusion_lon": 0.0, "is_reserved": 0, "is_disabled": 0, "fusion_lat": 0.0, "type": "electric_scooter", "name": "229ab1bb5c3c9da6c06327868b8e8aba", "lat": 38.8989715, "bike_id": "229ab1bb5c3c9da6c06327868b8e8aba"}, {"lon": -77.027228, "rental_uris": {"android": "https://dc.lft.to/lastmile_qr_scan", "ios": "https://dc.lft.to/lastmile_qr_scan"}, "fusion_lon": 0.0, "is_reserved": 0, "is_disabled": 0, "fusion_lat": 0.0, "type": "electric_scooter", "name": "e109dd10149e6083775e41b0d1ebf28a", "lat": 38.9408725, "bike_id": "e109dd10149e6083775e41b0d1ebf28a"}, {"lon": -77.0486585, "rental_uris": {"android": "https://dc.lft.to/lastmile_qr_scan", "ios": "https://dc.lft.to/lastmile_qr_scan"}, "fusion_lon": 0.0, "is_reserved": 0, "is_disabled": 0, "fusion_lat": 0.0, "type": "electric_scooter", "name": "50ac3f1bd13e0d11ec810193ffa9bf59", "lat": 38.892219, "bike_id": "50ac3f1bd13e0d11ec810193ffa9bf59"}, {"lon": -77.0415585, "rental_uris": {"android": "https://dc.lft.to/lastmile_qr_scan", "ios": "https://dc.lft.to/lastmile_qr_scan"}, "fusion_lon": 0.0, "is_reserved": 0, "is_disabled": 0, "fusion_lat": 0.0, "type": "electric_scooter", "name": "aab80c3d2bf3abfff2b4635126bbce43", "lat": 38.907357, "bike_id": "aab80c3d2bf3abfff2b4635126bbce43"}, {"lon": -76.96980333333333, "rental_uris": {"android": "https://dc.lft.to/lastmile_qr_scan", "ios": "https://dc.lft.to/lastmile_qr_scan"}, "fusion_lon": 0.0, "is_reserved": 0, "is_disabled": 0, "fusion_lat": 0.0, "type": "electric_scooter", "name": "b416c2016bf1436853895ce8690cefb3", "lat": 38.87379266666667, "bike_id": "b416c2016bf1436853895ce8690cefb3"}, {"lon": -77.080606, "rental_uris": {"android": "https://dc.lft.to/lastmile_qr_scan", "ios": "https://dc.lft.to/lastmile_qr_scan"}, "fusion_lon": 0.0, "is_reserved": 0, "is_disabled": 0, "fusion_lat": 0.0, "type": "electric_scooter", "name": "f0b94ab80b5893b795a5ee50ffa7c351", "lat": 38.9559415, "bike_id": "f0b94ab80b5893b795a5ee50ffa7c351"}, {"lon": -77.02795983333333, "rental_uris": {"android": "https://dc.lft.to/lastmile_qr_scan", "ios": "https://dc.lft.to/lastmile_qr_scan"}, "fusion_lon": 0.0, "is_reserved": 0, "is_disabled": 0, "fusion_lat": 0.0, "type": "electric_scooter", "name": "ef29b83ed532f8a0b05e9078e8efd094", "lat": 38.954048666666665, "bike_id": "ef29b83ed532f8a0b05e9078e8efd094"}, {"lon": -76.95758716666667, "rental_uris": {"android": "https://dc.lft.to/lastmile_qr_scan", "ios": "https://dc.lft.to/lastmile_qr_scan"}, "fusion_lon": 0.0, "is_reserved": 0, "is_disabled": 0, "fusion_lat": 0.0, "type": "electric_scooter", "name": "74f97b7761d4a15a8214b296689fd125", "lat": 38.88427216666667, "bike_id": "74f97b7761d4a15a8214b296689fd125"}, {"lon": -77.00147283333334, "rental_uris": {"android": "https://dc.lft.to/lastmile_qr_scan", "ios": "https://dc.lft.to/lastmile_qr_scan"}, "fusion_lon": 0.0, "is_reserved": 0, "is_disabled": 0, "fusion_lat": 0.0, "type": "electric_scooter", "name": "6f7c5ff4c5ae75c1c5be17d66709e2f8", "lat": 38.9107695, "bike_id": "6f7c5ff4c5ae75c1c5be17d66709e2f8"}, {"lon": -77.04110633333333, "rental_uris": {"android": "https://dc.lft.to/lastmile_qr_scan", "ios": "https://dc.lft.to/lastmile_qr_scan"}, "fusion_lon": 0.0, "is_reserved": 0, "is_disabled": 0, "fusion_lat": 0.0, "type": "electric_scooter", "name": "5648301f907a1660f56e1df1eb885758", "lat": 38.90163016666666, "bike_id": "5648301f907a1660f56e1df1eb885758"}, {"lon": -77.02396516666667, "rental_uris": {"android": "https://dc.lft.to/lastmile_qr_scan", "ios": "https://dc.lft.to/lastmile_qr_scan"}, "fusion_lon": 0.0, "is_reserved": 0, "is_disabled": 0, "fusion_lat": 0.0, "type": "electric_scooter", "name": "0501698a11a1c177d2f696becca55a08", "lat": 38.894791166666664, "bike_id": "0501698a11a1c177d2f696becca55a08"}, {"lon": -77.02590366666666, "rental_uris": {"android": "https://dc.lft.to/lastmile_qr_scan", "ios": "https://dc.lft.to/lastmile_qr_scan"}, "fusion_lon": 0.0, "is_reserved": 0, "is_disabled": 0, "fusion_lat": 0.0, "type": "electric_scooter", "name": "3cd97ae6f5f0ab1c409bbdc1a279009e", "lat": 38.91813116666667, "bike_id": "3cd97ae6f5f0ab1c409bbdc1a279009e"}, {"lon": -77.02134483333333, "rental_uris": {"android": "https://dc.lft.to/lastmile_qr_scan", "ios": "https://dc.lft.to/lastmile_qr_scan"}, "fusion_lon": 0.0, "is_reserved": 0, "is_disabled": 0, "fusion_lat": 0.0, "type": "electric_scooter", "name": "767be76efee87a5914774b7773e8da3e", "lat": 38.92486983333333, "bike_id": "767be76efee87a5914774b7773e8da3e"}, {"lon": -77.056816, "rental_uris": {"android": "https://dc.lft.to/lastmile_qr_scan", "ios": "https://dc.lft.to/lastmile_qr_scan"}, "fusion_lon": 0.0, "is_reserved": 0, "is_disabled": 0, "fusion_lat": 0.0, "type": "electric_scooter", "name": "5453357e707208a24e3d976976e832eb", "lat": 38.92327383333333, "bike_id": "5453357e707208a24e3d976976e832eb"}, {"lon": -76.99909816666667, "rental_uris": {"android": "https://dc.lft.to/lastmile_qr_scan", "ios": "https://dc.lft.to/lastmile_qr_scan"}, "fusion_lon": 0.0, "is_reserved": 0, "is_disabled": 0, "fusion_lat": 0.0, "type": "electric_scooter", "name": "6415966c3f6962d902b5dea82b652d15", "lat": 38.843339666666665, "bike_id": "6415966c3f6962d902b5dea82b652d15"}, {"lon": -77.02164833333333, "rental_uris": {"android": "https://dc.lft.to/lastmile_qr_scan", "ios": "https://dc.lft.to/lastmile_qr_scan"}, "fusion_lon": 0.0, "is_reserved": 0, "is_disabled": 0, "fusion_lat": 0.0, "type": "electric_scooter", "name": "c09dbaa6c551184605997cbbd8c206c2", "lat": 38.9026705, "bike_id": "c09dbaa6c551184605997cbbd8c206c2"}, {"lon": -77.0327555, "rental_uris": {"android": "https://dc.lft.to/lastmile_qr_scan", "ios": "https://dc.lft.to/lastmile_qr_scan"}, "fusion_lon": 0.0, "is_reserved": 0, "is_disabled": 0, "fusion_lat": 0.0, "type": "electric_scooter", "name": "4c716ce47faa952ff8919caeb75e5455", "lat": 38.92924383333333, "bike_id": "4c716ce47faa952ff8919caeb75e5455"}, {"lon": -77.03407166666666, "rental_uris": {"android": "https://dc.lft.to/lastmile_qr_scan", "ios": "https://dc.lft.to/lastmile_qr_scan"}, "fusion_lon": 0.0, "is_reserved": 0, "is_disabled": 0, "fusion_lat": 0.0, "type": "electric_scooter", "name": "972f2302f0a9185bd60d91b7ee00bc79", "lat": 38.902476166666666, "bike_id": "972f2302f0a9185bd60d91b7ee00bc79"}, {"lon": -77.03831316666667, "rental_uris": {"android": "https://dc.lft.to/lastmile_qr_scan", "ios": "https://dc.lft.to/lastmile_qr_scan"}, "fusion_lon": 0.0, "is_reserved": 0, "is_disabled": 0, "fusion_lat": 0.0, "type": "electric_scooter", "name": "a209d5aacdbc737831dcae392e9f649e", "lat": 38.906827166666666, "bike_id": "a209d5aacdbc737831dcae392e9f649e"}, {"lon": -77.00535683333334, "rental_uris": {"android": "https://dc.lft.to/lastmile_qr_scan", "ios": "https://dc.lft.to/lastmile_qr_scan"}, "fusion_lon": 0.0, "is_reserved": 0, "is_disabled": 0, "fusion_lat": 0.0, "type": "electric_scooter", "name": "3827224702a3bb1559ad86a05b765b63", "lat": 38.88498466666667, "bike_id": "3827224702a3bb1559ad86a05b765b63"}, {"lon": -76.973291, "rental_uris": {"android": "https://dc.lft.to/lastmile_qr_scan", "ios": "https://dc.lft.to/lastmile_qr_scan"}, "fusion_lon": 0.0, "is_reserved": 0, "is_disabled": 0, "fusion_lat": 0.0, "type": "electric_scooter", "name": "d4eaea6e7fffad5f6d4a318079c443d3", "lat": 38.904109, "bike_id": "d4eaea6e7fffad5f6d4a318079c443d3"}, {"lon": -76.93501366666666, "rental_uris": {"android": "https://dc.lft.to/lastmile_qr_scan", "ios": "https://dc.lft.to/lastmile_qr_scan"}, "fusion_lon": 0.0, "is_reserved": 0, "is_disabled": 0, "fusion_lat": 0.0, "type": "electric_scooter", "name": "38ca2d8522306fa8e1754b1a2792a434", "lat": 38.883392, "bike_id": "38ca2d8522306fa8e1754b1a2792a434"}, {"lon": -77.03504766666667, "rental_uris": {"android": "https://dc.lft.to/lastmile_qr_scan", "ios": "https://dc.lft.to/lastmile_qr_scan"}, "fusion_lon": 0.0, "is_reserved": 0, "is_disabled": 0, "fusion_lat": 0.0, "type": "electric_scooter", "name": "dfd3804822c9a964f3e224e90e41d14e", "lat": 38.92346233333333, "bike_id": "dfd3804822c9a964f3e224e90e41d14e"}, {"lon": -77.03153433333334, "rental_uris": {"android": "https://dc.lft.to/lastmile_qr_scan", "ios": "https://dc.lft.to/lastmile_qr_scan"}, "fusion_lon": 0.0, "is_reserved": 0, "is_disabled": 0, "fusion_lat": 0.0, "type": "electric_scooter", "name": "bee5b9cdd4da82ed9f85b204eff2af21", "lat": 38.91689866666667, "bike_id": "bee5b9cdd4da82ed9f85b204eff2af21"}, {"lon": -77.0117315, "rental_uris": {"android": "https://dc.lft.to/lastmile_qr_scan", "ios": "https://dc.lft.to/lastmile_qr_scan"}, "fusion_lon": 0.0, "is_reserved": 0, "is_disabled": 0, "fusion_lat": 0.0, "type": "electric_scooter", "name": "0c9ffa3b5bc0bebd1ff99b88e5434a40", "lat": 38.8962735, "bike_id": "0c9ffa3b5bc0bebd1ff99b88e5434a40"}, {"lon": -77.02369, "rental_uris": {"android": "https://dc.lft.to/lastmile_qr_scan", "ios": "https://dc.lft.to/lastmile_qr_scan"}, "fusion_lon": 0.0, "is_reserved": 0, "is_disabled": 0, "fusion_lat": 0.0, "type": "electric_scooter", "name": "8b7c9e6d245d66e58cb4bf0542b04480", "lat": 38.90298833333333, "bike_id": "8b7c9e6d245d66e58cb4bf0542b04480"}, {"lon": -77.04365383333334, "rental_uris": {"android": "https://dc.lft.to/lastmile_qr_scan", "ios": "https://dc.lft.to/lastmile_qr_scan"}, "fusion_lon": 0.0, "is_reserved": 0, "is_disabled": 0, "fusion_lat": 0.0, "type": "electric_scooter", "name": "a4768948e570d90d73a9244cd64ebad3", "lat": 38.8999745, "bike_id": "a4768948e570d90d73a9244cd64ebad3"}, {"lon": -76.99462816666667, "rental_uris": {"android": "https://dc.lft.to/lastmile_qr_scan", "ios": "https://dc.lft.to/lastmile_qr_scan"}, "fusion_lon": 0.0, "is_reserved": 0, "is_disabled": 0, "fusion_lat": 0.0, "type": "electric_scooter", "name": "76f9b49108cbd92f331bb94f1538b3b7", "lat": 38.861892166666664, "bike_id": "76f9b49108cbd92f331bb94f1538b3b7"}, {"lon": -76.997677, "rental_uris": {"android": "https://dc.lft.to/lastmile_qr_scan", "ios": "https://dc.lft.to/lastmile_qr_scan"}, "fusion_lon": 0.0, "is_reserved": 0, "is_disabled": 0, "fusion_lat": 0.0, "type": "electric_bike", "name": "7a57cf17d81951a1ca9a6d395d738c85", "lat": 38.92273933333333, "bike_id": "7a57cf17d81951a1ca9a6d395d738c85"}, {"lon": -77.05012816666667, "rental_uris": {"android": "https://dc.lft.to/lastmile_qr_scan", "ios": "https://dc.lft.to/lastmile_qr_scan"}, "fusion_lon": 0.0, "is_reserved": 0, "is_disabled": 0, "fusion_lat": 0.0, "type": "electric_scooter", "name": "d6d37e6457b847dd2ee16f8dde18c7d6", "lat": 38.923367, "bike_id": "d6d37e6457b847dd2ee16f8dde18c7d6"}, {"lon": -76.93754166666666, "rental_uris": {"android": "https://dc.lft.to/lastmile_qr_scan", "ios": "https://dc.lft.to/lastmile_qr_scan"}, "fusion_lon": 0.0, "is_reserved": 0, "is_disabled": 0, "fusion_lat": 0.0, "type": "electric_scooter", "name": "fc14e7ef4840af95e13cf0eb195b0e97", "lat": 38.890418, "bike_id": "fc14e7ef4840af95e13cf0eb195b0e97"}, {"lon": -77.022155, "rental_uris": {"android": "https://dc.lft.to/lastmile_qr_scan", "ios": "https://dc.lft.to/lastmile_qr_scan"}, "fusion_lon": 0.0, "is_reserved": 0, "is_disabled": 0, "fusion_lat": 0.0, "type": "electric_scooter", "name": "4899aa9467fe8a42f5fcc58d451965d2", "lat": 38.9247395, "bike_id": "4899aa9467fe8a42f5fcc58d451965d2"}, {"lon": -77.02706566666667, "rental_uris": {"android": "https://dc.lft.to/lastmile_qr_scan", "ios": "https://dc.lft.to/lastmile_qr_scan"}, "fusion_lon": 0.0, "is_reserved": 0, "is_disabled": 0, "fusion_lat": 0.0, "type": "electric_scooter", "name": "ba468335bdc8597d2828ffb0ab6ce769", "lat": 38.90667583333333, "bike_id": "ba468335bdc8597d2828ffb0ab6ce769"}, {"lon": -77.03184233333333, "rental_uris": {"android": "https://dc.lft.to/lastmile_qr_scan", "ios": "https://dc.lft.to/lastmile_qr_scan"}, "fusion_lon": 0.0, "is_reserved": 0, "is_disabled": 0, "fusion_lat": 0.0, "type": "electric_bike", "name": "0482f740d3c5998f1233e1e98b786c30", "lat": 38.91639216666667, "bike_id": "0482f740d3c5998f1233e1e98b786c30"}, {"lon": -77.01372816666667, "rental_uris": {"android": "https://dc.lft.to/lastmile_qr_scan", "ios": "https://dc.lft.to/lastmile_qr_scan"}, "fusion_lon": 0.0, "is_reserved": 0, "is_disabled": 0, "fusion_lat": 0.0, "type": "electric_scooter", "name": "1d65d88c795a2e3204789dc0644651f2", "lat": 38.869248666666664, "bike_id": "1d65d88c795a2e3204789dc0644651f2"}, {"lon": -77.0531965, "rental_uris": {"android": "https://dc.lft.to/lastmile_qr_scan", "ios": "https://dc.lft.to/lastmile_qr_scan"}, "fusion_lon": 0.0, "is_reserved": 0, "is_disabled": 0, "fusion_lat": 0.0, "type": "electric_scooter", "name": "bf88a22212c735db7b46e65d73521538", "lat": 38.9155215, "bike_id": "bf88a22212c735db7b46e65d73521538"}, {"lon": -76.99846266666667, "rental_uris": {"android": "https://dc.lft.to/lastmile_qr_scan", "ios": "https://dc.lft.to/lastmile_qr_scan"}, "fusion_lon": 0.0, "is_reserved": 0, "is_disabled": 0, "fusion_lat": 0.0, "type": "electric_scooter", "name": "c039393504c8ce20484e71bb4340f4d7", "lat": 38.90011483333333, "bike_id": "c039393504c8ce20484e71bb4340f4d7"}, {"lon": -77.005904, "rental_uris": {"android": "https://dc.lft.to/lastmile_qr_scan", "ios": "https://dc.lft.to/lastmile_qr_scan"}, "fusion_lon": 0.0, "is_reserved": 0, "is_disabled": 0, "fusion_lat": 0.0, "type": "electric_scooter", "name": "772ddaef79eaa43a2494ad4a619c9761", "lat": 38.875668, "bike_id": "772ddaef79eaa43a2494ad4a619c9761"}, {"lon": -77.046717, "rental_uris": {"android": "https://dc.lft.to/lastmile_qr_scan", "ios": "https://dc.lft.to/lastmile_qr_scan"}, "fusion_lon": 0.0, "is_reserved": 0, "is_disabled": 0, "fusion_lat": 0.0, "type": "electric_scooter", "name": "58ef88ba6ae469975505a0d76b554ba8", "lat": 38.89269633333333, "bike_id": "58ef88ba6ae469975505a0d76b554ba8"}, {"lon": -77.0418675, "rental_uris": {"android": "https://dc.lft.to/lastmile_qr_scan", "ios": "https://dc.lft.to/lastmile_qr_scan"}, "fusion_lon": 0.0, "is_reserved": 0, "is_disabled": 0, "fusion_lat": 0.0, "type": "electric_scooter", "name": "8282b92f04795d4dfd2f717841f89cf5", "lat": 38.90680866666667, "bike_id": "8282b92f04795d4dfd2f717841f89cf5"}, {"lon": -77.0220375, "rental_uris": {"android": "https://dc.lft.to/lastmile_qr_scan", "ios": "https://dc.lft.to/lastmile_qr_scan"}, "fusion_lon": 0.0, "is_reserved": 0, "is_disabled": 0, "fusion_lat": 0.0, "type": "electric_scooter", "name": "812efd19e6a99ca249f01580d5cee935", "lat": 38.88712983333333, "bike_id": "812efd19e6a99ca249f01580d5cee935"}, {"lon": -77.03683633333333, "rental_uris": {"android": "https://dc.lft.to/lastmile_qr_scan", "ios": "https://dc.lft.to/lastmile_qr_scan"}, "fusion_lon": 0.0, "is_reserved": 0, "is_disabled": 0, "fusion_lat": 0.0, "type": "electric_scooter", "name": "84e556e6a8bdc765d5673a235e8f7e3b", "lat": 38.92259816666667, "bike_id": "84e556e6a8bdc765d5673a235e8f7e3b"}, {"lon": -77.04272566666667, "rental_uris": {"android": "https://dc.lft.to/lastmile_qr_scan", "ios": "https://dc.lft.to/lastmile_qr_scan"}, "fusion_lon": 0.0, "is_reserved": 0, "is_disabled": 0, "fusion_lat": 0.0, "type": "electric_scooter", "name": "8b2b753285cec25ea10be19d3b92bcc4", "lat": 38.8960455, "bike_id": "8b2b753285cec25ea10be19d3b92bcc4"}, {"lon": -77.02737666666667, "rental_uris": {"android": "https://dc.lft.to/lastmile_qr_scan", "ios": "https://dc.lft.to/lastmile_qr_scan"}, "fusion_lon": 0.0, "is_reserved": 0, "is_disabled": 0, "fusion_lat": 0.0, "type": "electric_scooter", "name": "c74933df24877661d0a1b9c61419c3a4", "lat": 38.89734033333333, "bike_id": "c74933df24877661d0a1b9c61419c3a4"}, {"lon": -77.02544066666667, "rental_uris": {"android": "https://dc.lft.to/lastmile_qr_scan", "ios": "https://dc.lft.to/lastmile_qr_scan"}, "fusion_lon": 0.0, "is_reserved": 0, "is_disabled": 0, "fusion_lat": 0.0, "type": "electric_scooter", "name": "f903e3f6addda9cf062cbf8a3dd07759", "lat": 38.93985466666667, "bike_id": "f903e3f6addda9cf062cbf8a3dd07759"}, {"lon": -77.00797533333333, "rental_uris": {"android": "https://dc.lft.to/lastmile_qr_scan", "ios": "https://dc.lft.to/lastmile_qr_scan"}, "fusion_lon": 0.0, "is_reserved": 0, "is_disabled": 0, "fusion_lat": 0.0, "type": "electric_scooter", "name": "7721e9e73350e613b9fc42455eea0991", "lat": 38.897126666666665, "bike_id": "7721e9e73350e613b9fc42455eea0991"}, {"lon": -77.0212805, "rental_uris": {"android": "https://dc.lft.to/lastmile_qr_scan", "ios": "https://dc.lft.to/lastmile_qr_scan"}, "fusion_lon": 0.0, "is_reserved": 0, "is_disabled": 0, "fusion_lat": 0.0, "type": "electric_scooter", "name": "b68108be769f1c5907bf5f2565a4811d", "lat": 38.88742516666667, "bike_id": "b68108be769f1c5907bf5f2565a4811d"}, {"lon": -77.02296533333333, "rental_uris": {"android": "https://dc.lft.to/lastmile_qr_scan", "ios": "https://dc.lft.to/lastmile_qr_scan"}, "fusion_lon": 0.0, "is_reserved": 0, "is_disabled": 0, "fusion_lat": 0.0, "type": "electric_scooter", "name": "101520e7753703b7aa3f9fe5b1f6e53a", "lat": 38.916010166666666, "bike_id": "101520e7753703b7aa3f9fe5b1f6e53a"}, {"lon": -76.93756083333334, "rental_uris": {"android": "https://dc.lft.to/lastmile_qr_scan", "ios": "https://dc.lft.to/lastmile_qr_scan"}, "fusion_lon": 0.0, "is_reserved": 0, "is_disabled": 0, "fusion_lat": 0.0, "type": "electric_scooter", "name": "4c6028cb6b2e1836f50155390468fb6d", "lat": 38.8903825, "bike_id": "4c6028cb6b2e1836f50155390468fb6d"}, {"lon": -77.11771, "rental_uris": {"android": "https://dc.lft.to/lastmile_qr_scan", "ios": "https://dc.lft.to/lastmile_qr_scan"}, "fusion_lon": 0.0, "is_reserved": 0, "is_disabled": 0, "fusion_lat": 0.0, "type": "electric_bike", "name": "74ac9e3d996f42a36e05c299a735900e", "lat": 38.8126185, "bike_id": "74ac9e3d996f42a36e05c299a735900e"}, {"lon": -77.03461116666666, "rental_uris": {"android": "https://dc.lft.to/lastmile_qr_scan", "ios": "https://dc.lft.to/lastmile_qr_scan"}, "fusion_lon": 0.0, "is_reserved": 0, "is_disabled": 0, "fusion_lat": 0.0, "type": "electric_scooter", "name": "216abe749feafa9b0b190b180ebd8fb1", "lat": 38.902289, "bike_id": "216abe749feafa9b0b190b180ebd8fb1"}, {"lon": -77.042499, "rental_uris": {"android": "https://dc.lft.to/lastmile_qr_scan", "ios": "https://dc.lft.to/lastmile_qr_scan"}, "fusion_lon": 0.0, "is_reserved": 0, "is_disabled": 0, "fusion_lat": 0.0, "type": "electric_scooter", "name": "e642a2a16b1a68873aebedec5f1b1606", "lat": 38.92431666666667, "bike_id": "e642a2a16b1a68873aebedec5f1b1606"}, {"lon": -76.97330833333334, "rental_uris": {"android": "https://dc.lft.to/lastmile_qr_scan", "ios": "https://dc.lft.to/lastmile_qr_scan"}, "fusion_lon": 0.0, "is_reserved": 0, "is_disabled": 0, "fusion_lat": 0.0, "type": "electric_bike", "name": "5877ca890f7abf9a492eff4d6dc86a97", "lat": 38.855486166666665, "bike_id": "5877ca890f7abf9a492eff4d6dc86a97"}, {"lon": -77.04156733333333, "rental_uris": {"android": "https://dc.lft.to/lastmile_qr_scan", "ios": "https://dc.lft.to/lastmile_qr_scan"}, "fusion_lon": 0.0, "is_reserved": 0, "is_disabled": 0, "fusion_lat": 0.0, "type": "electric_scooter", "name": "de479858fdd87aaee5bc43d831c96d47", "lat": 38.90740266666667, "bike_id": "de479858fdd87aaee5bc43d831c96d47"}, {"lon": -77.03199116666667, "rental_uris": {"android": "https://dc.lft.to/lastmile_qr_scan", "ios": "https://dc.lft.to/lastmile_qr_scan"}, "fusion_lon": 0.0, "is_reserved": 0, "is_disabled": 0, "fusion_lat": 0.0, "type": "electric_scooter", "name": "9fec1a3d3e9c0afcae793390fb723f9d", "lat": 38.9307825, "bike_id": "9fec1a3d3e9c0afcae793390fb723f9d"}, {"lon": -77.03739833333333, "rental_uris": {"android": "https://dc.lft.to/lastmile_qr_scan", "ios": "https://dc.lft.to/lastmile_qr_scan"}, "fusion_lon": 0.0, "is_reserved": 0, "is_disabled": 0, "fusion_lat": 0.0, "type": "electric_scooter", "name": "eec910056c70d539f88c034a0d5ce992", "lat": 38.907611833333334, "bike_id": "eec910056c70d539f88c034a0d5ce992"}, {"lon": -77.129772, "rental_uris": {"android": "https://dc.lft.to/lastmile_qr_scan", "ios": "https://dc.lft.to/lastmile_qr_scan"}, "fusion_lon": 0.0, "is_reserved": 0, "is_disabled": 0, "fusion_lat": 0.0, "type": "electric_bike", "name": "d7c45af647dc923a473d366c3ed6af14", "lat": 38.7998285, "bike_id": "d7c45af647dc923a473d366c3ed6af14"}, {"lon": -77.0418685, "rental_uris": {"android": "https://dc.lft.to/lastmile_qr_scan", "ios": "https://dc.lft.to/lastmile_qr_scan"}, "fusion_lon": 0.0, "is_reserved": 0, "is_disabled": 0, "fusion_lat": 0.0, "type": "electric_scooter", "name": "a5e5b90335afbb334299507dbc7e05a7", "lat": 38.926148833333336, "bike_id": "a5e5b90335afbb334299507dbc7e05a7"}, {"lon": -77.00762416666667, "rental_uris": {"android": "https://dc.lft.to/lastmile_qr_scan", "ios": "https://dc.lft.to/lastmile_qr_scan"}, "fusion_lon": 0.0, "is_reserved": 0, "is_disabled": 0, "fusion_lat": 0.0, "type": "electric_scooter", "name": "084fb0bc6d6704bf2a2cbf56afec523d", "lat": 38.8710875, "bike_id": "084fb0bc6d6704bf2a2cbf56afec523d"}, {"lon": -77.00333166666667, "rental_uris": {"android": "https://dc.lft.to/lastmile_qr_scan", "ios": "https://dc.lft.to/lastmile_qr_scan"}, "fusion_lon": 0.0, "is_reserved": 0, "is_disabled": 0, "fusion_lat": 0.0, "type": "electric_scooter", "name": "44e9b997bf8a4cb261bf48c63d14e69c", "lat": 38.893533, "bike_id": "44e9b997bf8a4cb261bf48c63d14e69c"}, {"lon": -76.9989185, "rental_uris": {"android": "https://dc.lft.to/lastmile_qr_scan", "ios": "https://dc.lft.to/lastmile_qr_scan"}, "fusion_lon": 0.0, "is_reserved": 0, "is_disabled": 0, "fusion_lat": 0.0, "type": "electric_scooter", "name": "9dda79aa6a548d06e7c29419c8f4e937", "lat": 38.89609083333333, "bike_id": "9dda79aa6a548d06e7c29419c8f4e937"}, {"lon": -76.987069, "rental_uris": {"android": "https://dc.lft.to/lastmile_qr_scan", "ios": "https://dc.lft.to/lastmile_qr_scan"}, "fusion_lon": 0.0, "is_reserved": 0, "is_disabled": 0, "fusion_lat": 0.0, "type": "electric_scooter", "name": "6147799d235866e966e3066785d13586", "lat": 38.86539666666667, "bike_id": "6147799d235866e966e3066785d13586"}, {"lon": -77.02451766666667, "rental_uris": {"android": "https://dc.lft.to/lastmile_qr_scan", "ios": "https://dc.lft.to/lastmile_qr_scan"}, "fusion_lon": 0.0, "is_reserved": 0, "is_disabled": 0, "fusion_lat": 0.0, "type": "electric_scooter", "name": "92bfb5507083816cb70eabe76e6c17b0", "lat": 38.900158833333336, "bike_id": "92bfb5507083816cb70eabe76e6c17b0"}, {"lon": -77.03614283333333, "rental_uris": {"android": "https://dc.lft.to/lastmile_qr_scan", "ios": "https://dc.lft.to/lastmile_qr_scan"}, "fusion_lon": 0.0, "is_reserved": 0, "is_disabled": 0, "fusion_lat": 0.0, "type": "electric_scooter", "name": "da7c515afe148d72e0bacea02527fa90", "lat": 38.93048133333333, "bike_id": "da7c515afe148d72e0bacea02527fa90"}, {"lon": -77.02594166666667, "rental_uris": {"android": "https://dc.lft.to/lastmile_qr_scan", "ios": "https://dc.lft.to/lastmile_qr_scan"}, "fusion_lon": 0.0, "is_reserved": 0, "is_disabled": 0, "fusion_lat": 0.0, "type": "electric_scooter", "name": "33adb6c2b6998edba35b0b1f76a3a24b", "lat": 38.916857, "bike_id": "33adb6c2b6998edba35b0b1f76a3a24b"}, {"lon": -76.99530983333334, "rental_uris": {"android": "https://dc.lft.to/lastmile_qr_scan", "ios": "https://dc.lft.to/lastmile_qr_scan"}, "fusion_lon": 0.0, "is_reserved": 0, "is_disabled": 0, "fusion_lat": 0.0, "type": "electric_scooter", "name": "e8ed191d39223a25b1b020af6cf30714", "lat": 38.862655, "bike_id": "e8ed191d39223a25b1b020af6cf30714"}, {"lon": -77.027476, "rental_uris": {"android": "https://dc.lft.to/lastmile_qr_scan", "ios": "https://dc.lft.to/lastmile_qr_scan"}, "fusion_lon": 0.0, "is_reserved": 0, "is_disabled": 0, "fusion_lat": 0.0, "type": "electric_scooter", "name": "9ed749a582756dbe024117f9daee7ffd", "lat": 38.966044333333336, "bike_id": "9ed749a582756dbe024117f9daee7ffd"}, {"lon": -77.04488633333334, "rental_uris": {"android": "https://dc.lft.to/lastmile_qr_scan", "ios": "https://dc.lft.to/lastmile_qr_scan"}, "fusion_lon": 0.0, "is_reserved": 0, "is_disabled": 0, "fusion_lat": 0.0, "type": "electric_scooter", "name": "99ca742400665641aaf5f0b6a5a484f5", "lat": 38.892386, "bike_id": "99ca742400665641aaf5f0b6a5a484f5"}, {"lon": -77.03171083333334, "rental_uris": {"android": "https://dc.lft.to/lastmile_qr_scan", "ios": "https://dc.lft.to/lastmile_qr_scan"}, "fusion_lon": 0.0, "is_reserved": 0, "is_disabled": 0, "fusion_lat": 0.0, "type": "electric_scooter", "name": "9d507c820335a0ac5f10fbf7d9112b1a", "lat": 38.91780166666667, "bike_id": "9d507c820335a0ac5f10fbf7d9112b1a"}, {"lon": -77.0574315, "rental_uris": {"android": "https://dc.lft.to/lastmile_qr_scan", "ios": "https://dc.lft.to/lastmile_qr_scan"}, "fusion_lon": 0.0, "is_reserved": 0, "is_disabled": 0, "fusion_lat": 0.0, "type": "electric_scooter", "name": "c18ce70a9bde83cce6a94174a1949a27", "lat": 38.933888333333336, "bike_id": "c18ce70a9bde83cce6a94174a1949a27"}, {"lon": -77.022442, "rental_uris": {"android": "https://dc.lft.to/lastmile_qr_scan", "ios": "https://dc.lft.to/lastmile_qr_scan"}, "fusion_lon": 0.0, "is_reserved": 0, "is_disabled": 0, "fusion_lat": 0.0, "type": "electric_scooter", "name": "f45d9623518a784d609f1edca4f9debc", "lat": 38.91355166666666, "bike_id": "f45d9623518a784d609f1edca4f9debc"}, {"lon": -77.05742616666667, "rental_uris": {"android": "https://dc.lft.to/lastmile_qr_scan", "ios": "https://dc.lft.to/lastmile_qr_scan"}, "fusion_lon": 0.0, "is_reserved": 0, "is_disabled": 0, "fusion_lat": 0.0, "type": "electric_scooter", "name": "32aa37ea61079a6d763e486692b58637", "lat": 38.933835333333334, "bike_id": "32aa37ea61079a6d763e486692b58637"}, {"lon": -77.013626, "rental_uris": {"android": "https://dc.lft.to/lastmile_qr_scan", "ios": "https://dc.lft.to/lastmile_qr_scan"}, "fusion_lon": 0.0, "is_reserved": 0, "is_disabled": 0, "fusion_lat": 0.0, "type": "electric_scooter", "name": "ada10893069837809cb67332ef910c91", "lat": 38.956676, "bike_id": "ada10893069837809cb67332ef910c91"}, {"lon": -77.03186216666667, "rental_uris": {"android": "https://dc.lft.to/lastmile_qr_scan", "ios": "https://dc.lft.to/lastmile_qr_scan"}, "fusion_lon": 0.0, "is_reserved": 0, "is_disabled": 0, "fusion_lat": 0.0, "type": "electric_scooter", "name": "9df8142c0c59b60bd8437bec21e29d3f", "lat": 38.92011566666667, "bike_id": "9df8142c0c59b60bd8437bec21e29d3f"}, {"lon": -77.04424066666667, "rental_uris": {"android": "https://dc.lft.to/lastmile_qr_scan", "ios": "https://dc.lft.to/lastmile_qr_scan"}, "fusion_lon": 0.0, "is_reserved": 0, "is_disabled": 0, "fusion_lat": 0.0, "type": "electric_scooter", "name": "f26b4c81991311fc03180dc392245b5a", "lat": 38.911227, "bike_id": "f26b4c81991311fc03180dc392245b5a"}, {"lon": -76.958827, "rental_uris": {"android": "https://dc.lft.to/lastmile_qr_scan", "ios": "https://dc.lft.to/lastmile_qr_scan"}, "fusion_lon": 0.0, "is_reserved": 0, "is_disabled": 0, "fusion_lat": 0.0, "type": "electric_scooter", "name": "7850d9dbddd826ee0ea376f722a79257", "lat": 38.859463166666664, "bike_id": "7850d9dbddd826ee0ea376f722a79257"}, {"lon": -76.985572, "rental_uris": {"android": "https://dc.lft.to/lastmile_qr_scan", "ios": "https://dc.lft.to/lastmile_qr_scan"}, "fusion_lon": 0.0, "is_reserved": 0, "is_disabled": 0, "fusion_lat": 0.0, "type": "electric_scooter", "name": "55b59dc0f8143deed61ff49480871df5", "lat": 38.8975855, "bike_id": "55b59dc0f8143deed61ff49480871df5"}, {"lon": -77.0257765, "rental_uris": {"android": "https://dc.lft.to/lastmile_qr_scan", "ios": "https://dc.lft.to/lastmile_qr_scan"}, "fusion_lon": 0.0, "is_reserved": 0, "is_disabled": 0, "fusion_lat": 0.0, "type": "electric_scooter", "name": "2753c9bcd512b65583a7c11948894f2b", "lat": 38.926893, "bike_id": "2753c9bcd512b65583a7c11948894f2b"}, {"lon": -77.07541016666667, "rental_uris": {"android": "https://dc.lft.to/lastmile_qr_scan", "ios": "https://dc.lft.to/lastmile_qr_scan"}, "fusion_lon": 0.0, "is_reserved": 0, "is_disabled": 0, "fusion_lat": 0.0, "type": "electric_scooter", "name": "46b25de998023a59d3edde4b063d448d", "lat": 38.91039933333333, "bike_id": "46b25de998023a59d3edde4b063d448d"}, {"lon": -77.02594516666667, "rental_uris": {"android": "https://dc.lft.to/lastmile_qr_scan", "ios": "https://dc.lft.to/lastmile_qr_scan"}, "fusion_lon": 0.0, "is_reserved": 0, "is_disabled": 0, "fusion_lat": 0.0, "type": "electric_scooter", "name": "35dca59c689f5dc819c294a04b13d68d", "lat": 38.963911833333334, "bike_id": "35dca59c689f5dc819c294a04b13d68d"}, {"lon": -77.04173916666667, "rental_uris": {"android": "https://dc.lft.to/lastmile_qr_scan", "ios": "https://dc.lft.to/lastmile_qr_scan"}, "fusion_lon": 0.0, "is_reserved": 0, "is_disabled": 0, "fusion_lat": 0.0, "type": "electric_scooter", "name": "d2564aa521f2e3c5cbd003aa9eca0d14", "lat": 38.920008, "bike_id": "d2564aa521f2e3c5cbd003aa9eca0d14"}, {"lon": -77.03205383333334, "rental_uris": {"android": "https://dc.lft.to/lastmile_qr_scan", "ios": "https://dc.lft.to/lastmile_qr_scan"}, "fusion_lon": 0.0, "is_reserved": 0, "is_disabled": 0, "fusion_lat": 0.0, "type": "electric_scooter", "name": "f8e826cecfca50eec7213d26ea3cf829", "lat": 38.910276, "bike_id": "f8e826cecfca50eec7213d26ea3cf829"}, {"lon": -77.01678, "rental_uris": {"android": "https://dc.lft.to/lastmile_qr_scan", "ios": "https://dc.lft.to/lastmile_qr_scan"}, "fusion_lon": 0.0, "is_reserved": 0, "is_disabled": 0, "fusion_lat": 0.0, "type": "electric_scooter", "name": "ce9947046d80e49986a770b18f665c4b", "lat": 38.920385333333336, "bike_id": "ce9947046d80e49986a770b18f665c4b"}, {"lon": -76.99015583333333, "rental_uris": {"android": "https://dc.lft.to/lastmile_qr_scan", "ios": "https://dc.lft.to/lastmile_qr_scan"}, "fusion_lon": 0.0, "is_reserved": 0, "is_disabled": 0, "fusion_lat": 0.0, "type": "electric_scooter", "name": "6dd5b8c2f1968e118b1cec93a6a5634f", "lat": 38.8827045, "bike_id": "6dd5b8c2f1968e118b1cec93a6a5634f"}, {"lon": -77.01528233333333, "rental_uris": {"android": "https://dc.lft.to/lastmile_qr_scan", "ios": "https://dc.lft.to/lastmile_qr_scan"}, "fusion_lon": 0.0, "is_reserved": 0, "is_disabled": 0, "fusion_lat": 0.0, "type": "electric_scooter", "name": "0c4fb00b80eed362813e9dee34052d50", "lat": 38.88737783333333, "bike_id": "0c4fb00b80eed362813e9dee34052d50"}, {"lon": -77.07007266666666, "rental_uris": {"android": "https://dc.lft.to/lastmile_qr_scan", "ios": "https://dc.lft.to/lastmile_qr_scan"}, "fusion_lon": 0.0, "is_reserved": 0, "is_disabled": 0, "fusion_lat": 0.0, "type": "electric_scooter", "name": "19e8a2f5ab0fea6af9b2430383a5818c", "lat": 38.9561645, "bike_id": "19e8a2f5ab0fea6af9b2430383a5818c"}, {"lon": -77.02794216666666, "rental_uris": {"android": "https://dc.lft.to/lastmile_qr_scan", "ios": "https://dc.lft.to/lastmile_qr_scan"}, "fusion_lon": 0.0, "is_reserved": 0, "is_disabled": 0, "fusion_lat": 0.0, "type": "electric_scooter", "name": "828927d70c682e01fb6755fec888ea75", "lat": 38.961466, "bike_id": "828927d70c682e01fb6755fec888ea75"}, {"lon": -77.0269615, "rental_uris": {"android": "https://dc.lft.to/lastmile_qr_scan", "ios": "https://dc.lft.to/lastmile_qr_scan"}, "fusion_lon": 0.0, "is_reserved": 0, "is_disabled": 0, "fusion_lat": 0.0, "type": "electric_scooter", "name": "273a2bae9e788a5352f7bca34a65ccfb", "lat": 38.89626666666667, "bike_id": "273a2bae9e788a5352f7bca34a65ccfb"}, {"lon": -77.03210033333333, "rental_uris": {"android": "https://dc.lft.to/lastmile_qr_scan", "ios": "https://dc.lft.to/lastmile_qr_scan"}, "fusion_lon": 0.0, "is_reserved": 0, "is_disabled": 0, "fusion_lat": 0.0, "type": "electric_scooter", "name": "39c0ee1e62d4848e6522d25c2d35cde5", "lat": 38.916069, "bike_id": "39c0ee1e62d4848e6522d25c2d35cde5"}, {"lon": -77.02834716666666, "rental_uris": {"android": "https://dc.lft.to/lastmile_qr_scan", "ios": "https://dc.lft.to/lastmile_qr_scan"}, "fusion_lon": 0.0, "is_reserved": 0, "is_disabled": 0, "fusion_lat": 0.0, "type": "electric_scooter", "name": "073f6c4a45d1c549d0591f2ef79bee3d", "lat": 38.887085166666665, "bike_id": "073f6c4a45d1c549d0591f2ef79bee3d"}, {"lon": -77.04455066666667, "rental_uris": {"android": "https://dc.lft.to/lastmile_qr_scan", "ios": "https://dc.lft.to/lastmile_qr_scan"}, "fusion_lon": 0.0, "is_reserved": 0, "is_disabled": 0, "fusion_lat": 0.0, "type": "electric_scooter", "name": "ed5bceac0369593fdb49d8dfdaff19b0", "lat": 38.905809, "bike_id": "ed5bceac0369593fdb49d8dfdaff19b0"}, {"lon": -76.95794983333333, "rental_uris": {"android": "https://dc.lft.to/lastmile_qr_scan", "ios": "https://dc.lft.to/lastmile_qr_scan"}, "fusion_lon": 0.0, "is_reserved": 0, "is_disabled": 0, "fusion_lat": 0.0, "type": "electric_bike", "name": "d9e162da50c427c348be4761031dc8f2", "lat": 38.980447, "bike_id": "d9e162da50c427c348be4761031dc8f2"}, {"lon": -76.987254, "rental_uris": {"android": "https://dc.lft.to/lastmile_qr_scan", "ios": "https://dc.lft.to/lastmile_qr_scan"}, "fusion_lon": 0.0, "is_reserved": 0, "is_disabled": 0, "fusion_lat": 0.0, "type": "electric_bike", "name": "61a97e8084a54af7cc0bf54cff24e787", "lat": 38.8632925, "bike_id": "61a97e8084a54af7cc0bf54cff24e787"}, {"lon": -77.02141916666666, "rental_uris": {"android": "https://dc.lft.to/lastmile_qr_scan", "ios": "https://dc.lft.to/lastmile_qr_scan"}, "fusion_lon": 0.0, "is_reserved": 0, "is_disabled": 0, "fusion_lat": 0.0, "type": "electric_scooter", "name": "a22674ae149e48e65ec8813ca9b08ef2", "lat": 38.92434883333333, "bike_id": "a22674ae149e48e65ec8813ca9b08ef2"}, {"lon": -77.04893733333333, "rental_uris": {"android": "https://dc.lft.to/lastmile_qr_scan", "ios": "https://dc.lft.to/lastmile_qr_scan"}, "fusion_lon": 0.0, "is_reserved": 0, "is_disabled": 0, "fusion_lat": 0.0, "type": "electric_scooter", "name": "c7408ca882ea0e906562832a96c4ee7d", "lat": 38.8922355, "bike_id": "c7408ca882ea0e906562832a96c4ee7d"}, {"lon": -77.02362916666667, "rental_uris": {"android": "https://dc.lft.to/lastmile_qr_scan", "ios": "https://dc.lft.to/lastmile_qr_scan"}, "fusion_lon": 0.0, "is_reserved": 0, "is_disabled": 0, "fusion_lat": 0.0, "type": "electric_scooter", "name": "4a5c8c46a9b7173707e958f0dfa05e0f", "lat": 38.87930383333333, "bike_id": "4a5c8c46a9b7173707e958f0dfa05e0f"}, {"lon": -77.02824266666667, "rental_uris": {"android": "https://dc.lft.to/lastmile_qr_scan", "ios": "https://dc.lft.to/lastmile_qr_scan"}, "fusion_lon": 0.0, "is_reserved": 0, "is_disabled": 0, "fusion_lat": 0.0, "type": "electric_scooter", "name": "371928ac609b04736631e0e164a21cb1", "lat": 38.92228816666667, "bike_id": "371928ac609b04736631e0e164a21cb1"}, {"lon": -77.03659566666667, "rental_uris": {"android": "https://dc.lft.to/lastmile_qr_scan", "ios": "https://dc.lft.to/lastmile_qr_scan"}, "fusion_lon": 0.0, "is_reserved": 0, "is_disabled": 0, "fusion_lat": 0.0, "type": "electric_scooter", "name": "6b0d08a05629ac34d37ae0eb01c22cf3", "lat": 38.91125616666667, "bike_id": "6b0d08a05629ac34d37ae0eb01c22cf3"}, {"lon": -77.072652, "rental_uris": {"android": "https://dc.lft.to/lastmile_qr_scan", "ios": "https://dc.lft.to/lastmile_qr_scan"}, "fusion_lon": 0.0, "is_reserved": 0, "is_disabled": 0, "fusion_lat": 0.0, "type": "electric_scooter", "name": "1c204ed3bcc058522beac0a4beaa22b5", "lat": 38.90903616666667, "bike_id": "1c204ed3bcc058522beac0a4beaa22b5"}, {"lon": -77.03381883333333, "rental_uris": {"android": "https://dc.lft.to/lastmile_qr_scan", "ios": "https://dc.lft.to/lastmile_qr_scan"}, "fusion_lon": 0.0, "is_reserved": 0, "is_disabled": 0, "fusion_lat": 0.0, "type": "electric_scooter", "name": "2368dfc0259bcbfe301693a5920fbb8c", "lat": 38.938637666666665, "bike_id": "2368dfc0259bcbfe301693a5920fbb8c"}, {"lon": -77.00924683333334, "rental_uris": {"android": "https://dc.lft.to/lastmile_qr_scan", "ios": "https://dc.lft.to/lastmile_qr_scan"}, "fusion_lon": 0.0, "is_reserved": 0, "is_disabled": 0, "fusion_lat": 0.0, "type": "electric_scooter", "name": "f1fd31580ab61140bf9fcf304807843d", "lat": 38.90762516666667, "bike_id": "f1fd31580ab61140bf9fcf304807843d"}, {"lon": -77.23675883333334, "rental_uris": {"android": "https://dc.lft.to/lastmile_qr_scan", "ios": "https://dc.lft.to/lastmile_qr_scan"}, "fusion_lon": 0.0, "is_reserved": 0, "is_disabled": 0, "fusion_lat": 0.0, "type": "electric_bike", "name": "96410321bc6b143d2eeeb804ed809136", "lat": 38.92112766666666, "bike_id": "96410321bc6b143d2eeeb804ed809136"}, {"lon": -77.00313, "rental_uris": {"android": "https://dc.lft.to/lastmile_qr_scan", "ios": "https://dc.lft.to/lastmile_qr_scan"}, "fusion_lon": 0.0, "is_reserved": 0, "is_disabled": 0, "fusion_lat": 0.0, "type": "electric_scooter", "name": "f5deb74b6d0c925e2f43540456d9bb25", "lat": 38.87646633333333, "bike_id": "f5deb74b6d0c925e2f43540456d9bb25"}, {"lon": -77.053162, "rental_uris": {"android": "https://dc.lft.to/lastmile_qr_scan", "ios": "https://dc.lft.to/lastmile_qr_scan"}, "fusion_lon": 0.0, "is_reserved": 0, "is_disabled": 0, "fusion_lat": 0.0, "type": "electric_scooter", "name": "d1408bb326a4214966bb6d2a550e7d9c", "lat": 38.90257966666667, "bike_id": "d1408bb326a4214966bb6d2a550e7d9c"}, {"lon": -77.02488883333334, "rental_uris": {"android": "https://dc.lft.to/lastmile_qr_scan", "ios": "https://dc.lft.to/lastmile_qr_scan"}, "fusion_lon": 0.0, "is_reserved": 0, "is_disabled": 0, "fusion_lat": 0.0, "type": "electric_scooter", "name": "ebb09b9693c1eb440fccb628aa0a1881", "lat": 38.93093566666667, "bike_id": "ebb09b9693c1eb440fccb628aa0a1881"}, {"lon": -77.0380965, "rental_uris": {"android": "https://dc.lft.to/lastmile_qr_scan", "ios": "https://dc.lft.to/lastmile_qr_scan"}, "fusion_lon": 0.0, "is_reserved": 0, "is_disabled": 0, "fusion_lat": 0.0, "type": "electric_scooter", "name": "7091197c3d11031cf18a48a555368021", "lat": 38.915549, "bike_id": "7091197c3d11031cf18a48a555368021"}, {"lon": -77.04675283333333, "rental_uris": {"android": "https://dc.lft.to/lastmile_qr_scan", "ios": "https://dc.lft.to/lastmile_qr_scan"}, "fusion_lon": 0.0, "is_reserved": 0, "is_disabled": 0, "fusion_lat": 0.0, "type": "electric_scooter", "name": "26f58889a06178773fd9981f96065060", "lat": 38.8973255, "bike_id": "26f58889a06178773fd9981f96065060"}, {"lon": -77.04501966666666, "rental_uris": {"android": "https://dc.lft.to/lastmile_qr_scan", "ios": "https://dc.lft.to/lastmile_qr_scan"}, "fusion_lon": 0.0, "is_reserved": 0, "is_disabled": 0, "fusion_lat": 0.0, "type": "electric_scooter", "name": "d88ec6aa757fe7203f1155b5ecab5878", "lat": 38.89252066666667, "bike_id": "d88ec6aa757fe7203f1155b5ecab5878"}, {"lon": -77.0275655, "rental_uris": {"android": "https://dc.lft.to/lastmile_qr_scan", "ios": "https://dc.lft.to/lastmile_qr_scan"}, "fusion_lon": 0.0, "is_reserved": 0, "is_disabled": 0, "fusion_lat": 0.0, "type": "electric_scooter", "name": "19b794dc4277b8b5417586ea49f39048", "lat": 38.95613916666667, "bike_id": "19b794dc4277b8b5417586ea49f39048"}, {"lon": -76.98574133333334, "rental_uris": {"android": "https://dc.lft.to/lastmile_qr_scan", "ios": "https://dc.lft.to/lastmile_qr_scan"}, "fusion_lon": 0.0, "is_reserved": 0, "is_disabled": 0, "fusion_lat": 0.0, "type": "electric_bike", "name": "36b1a56e96cdaecbd4e83602a4421ca9", "lat": 38.91481266666667, "bike_id": "36b1a56e96cdaecbd4e83602a4421ca9"}, {"lon": -77.028239, "rental_uris": {"android": "https://dc.lft.to/lastmile_qr_scan", "ios": "https://dc.lft.to/lastmile_qr_scan"}, "fusion_lon": 0.0, "is_reserved": 0, "is_disabled": 0, "fusion_lat": 0.0, "type": "electric_scooter", "name": "5423b8d46988d3031e7284633a8da8c9", "lat": 38.88730733333333, "bike_id": "5423b8d46988d3031e7284633a8da8c9"}, {"lon": -77.0304975, "rental_uris": {"android": "https://dc.lft.to/lastmile_qr_scan", "ios": "https://dc.lft.to/lastmile_qr_scan"}, "fusion_lon": 0.0, "is_reserved": 0, "is_disabled": 0, "fusion_lat": 0.0, "type": "electric_scooter", "name": "a60b0ca23fc0d048e8d4cd04609613bf", "lat": 38.91330133333334, "bike_id": "a60b0ca23fc0d048e8d4cd04609613bf"}, {"lon": -77.02793866666667, "rental_uris": {"android": "https://dc.lft.to/lastmile_qr_scan", "ios": "https://dc.lft.to/lastmile_qr_scan"}, "fusion_lon": 0.0, "is_reserved": 0, "is_disabled": 0, "fusion_lat": 0.0, "type": "electric_scooter", "name": "34b44c128bd95db111a3a67b0cb13e62", "lat": 38.94177083333334, "bike_id": "34b44c128bd95db111a3a67b0cb13e62"}, {"lon": -77.01956633333333, "rental_uris": {"android": "https://dc.lft.to/lastmile_qr_scan", "ios": "https://dc.lft.to/lastmile_qr_scan"}, "fusion_lon": 0.0, "is_reserved": 0, "is_disabled": 0, "fusion_lat": 0.0, "type": "electric_bike", "name": "983b1e61ec83d6cd1f4146e44470cf7b", "lat": 38.89854116666667, "bike_id": "983b1e61ec83d6cd1f4146e44470cf7b"}, {"lon": -77.03250083333333, "rental_uris": {"android": "https://dc.lft.to/lastmile_qr_scan", "ios": "https://dc.lft.to/lastmile_qr_scan"}, "fusion_lon": 0.0, "is_reserved": 0, "is_disabled": 0, "fusion_lat": 0.0, "type": "electric_scooter", "name": "856649fa4f05cbfd7a6611cc35b69e82", "lat": 38.92907683333333, "bike_id": "856649fa4f05cbfd7a6611cc35b69e82"}, {"lon": -77.04454216666667, "rental_uris": {"android": "https://dc.lft.to/lastmile_qr_scan", "ios": "https://dc.lft.to/lastmile_qr_scan"}, "fusion_lon": 0.0, "is_reserved": 0, "is_disabled": 0, "fusion_lat": 0.0, "type": "electric_scooter", "name": "a02544e72b2e61d32ead417b65468081", "lat": 38.905665166666665, "bike_id": "a02544e72b2e61d32ead417b65468081"}, {"lon": -77.04082266666667, "rental_uris": {"android": "https://dc.lft.to/lastmile_qr_scan", "ios": "https://dc.lft.to/lastmile_qr_scan"}, "fusion_lon": 0.0, "is_reserved": 0, "is_disabled": 0, "fusion_lat": 0.0, "type": "electric_scooter", "name": "c1edef725edc1bdfe3d8f19e00a0eb3a", "lat": 38.903836166666665, "bike_id": "c1edef725edc1bdfe3d8f19e00a0eb3a"}, {"lon": -77.02118716666666, "rental_uris": {"android": "https://dc.lft.to/lastmile_qr_scan", "ios": "https://dc.lft.to/lastmile_qr_scan"}, "fusion_lon": 0.0, "is_reserved": 0, "is_disabled": 0, "fusion_lat": 0.0, "type": "electric_scooter", "name": "5aa3a9f0f0953014284bdecec48f4881", "lat": 38.9223615, "bike_id": "5aa3a9f0f0953014284bdecec48f4881"}, {"lon": -77.04869733333334, "rental_uris": {"android": "https://dc.lft.to/lastmile_qr_scan", "ios": "https://dc.lft.to/lastmile_qr_scan"}, "fusion_lon": 0.0, "is_reserved": 0, "is_disabled": 0, "fusion_lat": 0.0, "type": "electric_scooter", "name": "2f08bfbda913af2e2e5d6fff05858d4d", "lat": 38.89828166666667, "bike_id": "2f08bfbda913af2e2e5d6fff05858d4d"}, {"lon": -77.073933, "rental_uris": {"android": "https://dc.lft.to/lastmile_qr_scan", "ios": "https://dc.lft.to/lastmile_qr_scan"}, "fusion_lon": 0.0, "is_reserved": 0, "is_disabled": 0, "fusion_lat": 0.0, "type": "electric_scooter", "name": "d43dcb884be53f7d7315eb0966c830cf", "lat": 38.9101935, "bike_id": "d43dcb884be53f7d7315eb0966c830cf"}, {"lon": -76.96503866666667, "rental_uris": {"android": "https://dc.lft.to/lastmile_qr_scan", "ios": "https://dc.lft.to/lastmile_qr_scan"}, "fusion_lon": 0.0, "is_reserved": 0, "is_disabled": 0, "fusion_lat": 0.0, "type": "electric_scooter", "name": "d57a31e890062dd49307806e3faa93f0", "lat": 38.876425, "bike_id": "d57a31e890062dd49307806e3faa93f0"}, {"lon": -77.02405, "rental_uris": {"android": "https://dc.lft.to/lastmile_qr_scan", "ios": "https://dc.lft.to/lastmile_qr_scan"}, "fusion_lon": 0.0, "is_reserved": 0, "is_disabled": 0, "fusion_lat": 0.0, "type": "electric_scooter", "name": "dd2063b989d277198c9c872e92a8efcf", "lat": 38.957051666666665, "bike_id": "dd2063b989d277198c9c872e92a8efcf"}, {"lon": -77.048734, "rental_uris": {"android": "https://dc.lft.to/lastmile_qr_scan", "ios": "https://dc.lft.to/lastmile_qr_scan"}, "fusion_lon": 0.0, "is_reserved": 0, "is_disabled": 0, "fusion_lat": 0.0, "type": "electric_scooter", "name": "2fde17b69ccc8af8480a4a9646868926", "lat": 38.912263833333334, "bike_id": "2fde17b69ccc8af8480a4a9646868926"}, {"lon": -77.04332066666667, "rental_uris": {"android": "https://dc.lft.to/lastmile_qr_scan", "ios": "https://dc.lft.to/lastmile_qr_scan"}, "fusion_lon": 0.0, "is_reserved": 0, "is_disabled": 0, "fusion_lat": 0.0, "type": "electric_scooter", "name": "14c1d8d906b872c49fe0042511c8abdf", "lat": 38.892222, "bike_id": "14c1d8d906b872c49fe0042511c8abdf"}, {"lon": -76.97331566666666, "rental_uris": {"android": "https://dc.lft.to/lastmile_qr_scan", "ios": "https://dc.lft.to/lastmile_qr_scan"}, "fusion_lon": 0.0, "is_reserved": 0, "is_disabled": 0, "fusion_lat": 0.0, "type": "electric_scooter", "name": "b53e77c3876854180d25ff85e465c889", "lat": 38.904114166666666, "bike_id": "b53e77c3876854180d25ff85e465c889"}, {"lon": -76.96980866666667, "rental_uris": {"android": "https://dc.lft.to/lastmile_qr_scan", "ios": "https://dc.lft.to/lastmile_qr_scan"}, "fusion_lon": 0.0, "is_reserved": 0, "is_disabled": 0, "fusion_lat": 0.0, "type": "electric_scooter", "name": "3847786dd1643b5483a30fab03c96ea3", "lat": 38.873787, "bike_id": "3847786dd1643b5483a30fab03c96ea3"}, {"lon": -77.04335716666667, "rental_uris": {"android": "https://dc.lft.to/lastmile_qr_scan", "ios": "https://dc.lft.to/lastmile_qr_scan"}, "fusion_lon": 0.0, "is_reserved": 0, "is_disabled": 0, "fusion_lat": 0.0, "type": "electric_scooter", "name": "959318304875850ce44a3addc5a54ad2", "lat": 38.908783, "bike_id": "959318304875850ce44a3addc5a54ad2"}, {"lon": -77.11519166666666, "rental_uris": {"android": "https://dc.lft.to/lastmile_qr_scan", "ios": "https://dc.lft.to/lastmile_qr_scan"}, "fusion_lon": 0.0, "is_reserved": 0, "is_disabled": 0, "fusion_lat": 0.0, "type": "electric_bike", "name": "e9f02fc7f4a1ced34fe05d56592ef7ac", "lat": 39.070483833333334, "bike_id": "e9f02fc7f4a1ced34fe05d56592ef7ac"}, {"lon": -76.995516, "rental_uris": {"android": "https://dc.lft.to/lastmile_qr_scan", "ios": "https://dc.lft.to/lastmile_qr_scan"}, "fusion_lon": 0.0, "is_reserved": 0, "is_disabled": 0, "fusion_lat": 0.0, "type": "electric_scooter", "name": "6cbddb7c73137d74a8155de6c5227722", "lat": 38.86230283333333, "bike_id": "6cbddb7c73137d74a8155de6c5227722"}, {"lon": -77.02800333333333, "rental_uris": {"android": "https://dc.lft.to/lastmile_qr_scan", "ios": "https://dc.lft.to/lastmile_qr_scan"}, "fusion_lon": 0.0, "is_reserved": 0, "is_disabled": 0, "fusion_lat": 0.0, "type": "electric_scooter", "name": "1b4f07862fc7cbd7b655928d374fcd4f", "lat": 38.9142575, "bike_id": "1b4f07862fc7cbd7b655928d374fcd4f"}, {"lon": -77.07010716666667, "rental_uris": {"android": "https://dc.lft.to/lastmile_qr_scan", "ios": "https://dc.lft.to/lastmile_qr_scan"}, "fusion_lon": 0.0, "is_reserved": 0, "is_disabled": 0, "fusion_lat": 0.0, "type": "electric_bike", "name": "74bf439dd1a8bd77cbf13a8caba9966a", "lat": 38.84107316666667, "bike_id": "74bf439dd1a8bd77cbf13a8caba9966a"}, {"lon": -77.0176515, "rental_uris": {"android": "https://dc.lft.to/lastmile_qr_scan", "ios": "https://dc.lft.to/lastmile_qr_scan"}, "fusion_lon": 0.0, "is_reserved": 0, "is_disabled": 0, "fusion_lat": 0.0, "type": "electric_scooter", "name": "9f0604f72a79d2a742f1db0e1296e360", "lat": 38.938921666666666, "bike_id": "9f0604f72a79d2a742f1db0e1296e360"}, {"lon": -77.048677, "rental_uris": {"android": "https://dc.lft.to/lastmile_qr_scan", "ios": "https://dc.lft.to/lastmile_qr_scan"}, "fusion_lon": 0.0, "is_reserved": 0, "is_disabled": 0, "fusion_lat": 0.0, "type": "electric_scooter", "name": "fe957a939971c7568a4fb46727dec85f", "lat": 38.89885916666667, "bike_id": "fe957a939971c7568a4fb46727dec85f"}, {"lon": -77.01908283333333, "rental_uris": {"android": "https://dc.lft.to/lastmile_qr_scan", "ios": "https://dc.lft.to/lastmile_qr_scan"}, "fusion_lon": 0.0, "is_reserved": 0, "is_disabled": 0, "fusion_lat": 0.0, "type": "electric_scooter", "name": "a4505ef05d7db07c8fa9d5a505323952", "lat": 38.89558516666666, "bike_id": "a4505ef05d7db07c8fa9d5a505323952"}, {"lon": -77.05172716666667, "rental_uris": {"android": "https://dc.lft.to/lastmile_qr_scan", "ios": "https://dc.lft.to/lastmile_qr_scan"}, "fusion_lon": 0.0, "is_reserved": 0, "is_disabled": 0, "fusion_lat": 0.0, "type": "electric_scooter", "name": "31da96b6c1e626dc212fa9e7a75b041e", "lat": 38.923394333333334, "bike_id": "31da96b6c1e626dc212fa9e7a75b041e"}, {"lon": -77.02696083333333, "rental_uris": {"android": "https://dc.lft.to/lastmile_qr_scan", "ios": "https://dc.lft.to/lastmile_qr_scan"}, "fusion_lon": 0.0, "is_reserved": 0, "is_disabled": 0, "fusion_lat": 0.0, "type": "electric_scooter", "name": "000d67f5ce4f9c9a73930074cfb39472", "lat": 38.909498666666664, "bike_id": "000d67f5ce4f9c9a73930074cfb39472"}, {"lon": -77.02220516666667, "rental_uris": {"android": "https://dc.lft.to/lastmile_qr_scan", "ios": "https://dc.lft.to/lastmile_qr_scan"}, "fusion_lon": 0.0, "is_reserved": 0, "is_disabled": 0, "fusion_lat": 0.0, "type": "electric_scooter", "name": "39f9b8bd45feb3dc594a9560df1a120a", "lat": 38.892208833333335, "bike_id": "39f9b8bd45feb3dc594a9560df1a120a"}, {"lon": -77.0395835, "rental_uris": {"android": "https://dc.lft.to/lastmile_qr_scan", "ios": "https://dc.lft.to/lastmile_qr_scan"}, "fusion_lon": 0.0, "is_reserved": 0, "is_disabled": 0, "fusion_lat": 0.0, "type": "electric_scooter", "name": "a588f4cc21af9cbb0e3b4a23302670f1", "lat": 38.9156985, "bike_id": "a588f4cc21af9cbb0e3b4a23302670f1"}, {"lon": -77.02174483333333, "rental_uris": {"android": "https://dc.lft.to/lastmile_qr_scan", "ios": "https://dc.lft.to/lastmile_qr_scan"}, "fusion_lon": 0.0, "is_reserved": 0, "is_disabled": 0, "fusion_lat": 0.0, "type": "electric_scooter", "name": "55b2f414fb53ebba52561648b45f6731", "lat": 38.88733583333333, "bike_id": "55b2f414fb53ebba52561648b45f6731"}, {"lon": -76.99950033333333, "rental_uris": {"android": "https://dc.lft.to/lastmile_qr_scan", "ios": "https://dc.lft.to/lastmile_qr_scan"}, "fusion_lon": 0.0, "is_reserved": 0, "is_disabled": 0, "fusion_lat": 0.0, "type": "electric_scooter", "name": "0b7cc6184fb808c3a1f981f8ae8fc485", "lat": 38.92352966666667, "bike_id": "0b7cc6184fb808c3a1f981f8ae8fc485"}, {"lon": -77.00536483333333, "rental_uris": {"android": "https://dc.lft.to/lastmile_qr_scan", "ios": "https://dc.lft.to/lastmile_qr_scan"}, "fusion_lon": 0.0, "is_reserved": 0, "is_disabled": 0, "fusion_lat": 0.0, "type": "electric_scooter", "name": "1962c1e09a25834adf59c272e6eab404", "lat": 38.8754415, "bike_id": "1962c1e09a25834adf59c272e6eab404"}, {"lon": -77.010769, "rental_uris": {"android": "https://dc.lft.to/lastmile_qr_scan", "ios": "https://dc.lft.to/lastmile_qr_scan"}, "fusion_lon": 0.0, "is_reserved": 0, "is_disabled": 0, "fusion_lat": 0.0, "type": "electric_scooter", "name": "61ee4b9404bce8236727dbca7e6ecc98", "lat": 38.8943645, "bike_id": "61ee4b9404bce8236727dbca7e6ecc98"}, {"lon": -77.05267633333334, "rental_uris": {"android": "https://dc.lft.to/lastmile_qr_scan", "ios": "https://dc.lft.to/lastmile_qr_scan"}, "fusion_lon": 0.0, "is_reserved": 0, "is_disabled": 0, "fusion_lat": 0.0, "type": "electric_scooter", "name": "817c1dc2e3000a8b6bb35ea0b28bcbcc", "lat": 38.922436166666664, "bike_id": "817c1dc2e3000a8b6bb35ea0b28bcbcc"}, {"lon": -77.01353016666667, "rental_uris": {"android": "https://dc.lft.to/lastmile_qr_scan", "ios": "https://dc.lft.to/lastmile_qr_scan"}, "fusion_lon": 0.0, "is_reserved": 0, "is_disabled": 0, "fusion_lat": 0.0, "type": "electric_scooter", "name": "4cd0f8a1cb54bea4148cdcd287e0b831", "lat": 38.942134333333335, "bike_id": "4cd0f8a1cb54bea4148cdcd287e0b831"}, {"lon": -77.00372716666666, "rental_uris": {"android": "https://dc.lft.to/lastmile_qr_scan", "ios": "https://dc.lft.to/lastmile_qr_scan"}, "fusion_lon": 0.0, "is_reserved": 0, "is_disabled": 0, "fusion_lat": 0.0, "type": "electric_scooter", "name": "0a2bc354f3160f2282e89ab4321baefe", "lat": 38.876803333333335, "bike_id": "0a2bc354f3160f2282e89ab4321baefe"}, {"lon": -77.02962933333333, "rental_uris": {"android": "https://dc.lft.to/lastmile_qr_scan", "ios": "https://dc.lft.to/lastmile_qr_scan"}, "fusion_lon": 0.0, "is_reserved": 0, "is_disabled": 0, "fusion_lat": 0.0, "type": "electric_scooter", "name": "15a1f6969a32b04bfe3cc003d95eb1c0", "lat": 38.94215883333333, "bike_id": "15a1f6969a32b04bfe3cc003d95eb1c0"}, {"lon": -77.03805816666667, "rental_uris": {"android": "https://dc.lft.to/lastmile_qr_scan", "ios": "https://dc.lft.to/lastmile_qr_scan"}, "fusion_lon": 0.0, "is_reserved": 0, "is_disabled": 0, "fusion_lat": 0.0, "type": "electric_scooter", "name": "51487f8b14541ee1b31aa8343809ffc3", "lat": 38.90254, "bike_id": "51487f8b14541ee1b31aa8343809ffc3"}, {"lon": -77.03153983333333, "rental_uris": {"android": "https://dc.lft.to/lastmile_qr_scan", "ios": "https://dc.lft.to/lastmile_qr_scan"}, "fusion_lon": 0.0, "is_reserved": 0, "is_disabled": 0, "fusion_lat": 0.0, "type": "electric_scooter", "name": "88ff7155742a0e274f77195277322b8d", "lat": 38.899717833333334, "bike_id": "88ff7155742a0e274f77195277322b8d"}, {"lon": -77.01466483333333, "rental_uris": {"android": "https://dc.lft.to/lastmile_qr_scan", "ios": "https://dc.lft.to/lastmile_qr_scan"}, "fusion_lon": 0.0, "is_reserved": 0, "is_disabled": 0, "fusion_lat": 0.0, "type": "electric_scooter", "name": "ae66349c103e1790acb519e16f1746ee", "lat": 38.9541755, "bike_id": "ae66349c103e1790acb519e16f1746ee"}, {"lon": -77.0885905, "rental_uris": {"android": "https://dc.lft.to/lastmile_qr_scan", "ios": "https://dc.lft.to/lastmile_qr_scan"}, "fusion_lon": 0.0, "is_reserved": 0, "is_disabled": 0, "fusion_lat": 0.0, "type": "electric_scooter", "name": "48f9fab4da34959ac6119792667110de", "lat": 38.933761, "bike_id": "48f9fab4da34959ac6119792667110de"}, {"lon": -77.02478133333334, "rental_uris": {"android": "https://dc.lft.to/lastmile_qr_scan", "ios": "https://dc.lft.to/lastmile_qr_scan"}, "fusion_lon": 0.0, "is_reserved": 0, "is_disabled": 0, "fusion_lat": 0.0, "type": "electric_scooter", "name": "f2f82322c1cc70dffd2be1a831efc09c", "lat": 38.94196566666667, "bike_id": "f2f82322c1cc70dffd2be1a831efc09c"}, {"lon": -77.02284733333333, "rental_uris": {"android": "https://dc.lft.to/lastmile_qr_scan", "ios": "https://dc.lft.to/lastmile_qr_scan"}, "fusion_lon": 0.0, "is_reserved": 0, "is_disabled": 0, "fusion_lat": 0.0, "type": "electric_scooter", "name": "19feabf25d25c51c1bf1594b22adb4e9", "lat": 38.9269055, "bike_id": "19feabf25d25c51c1bf1594b22adb4e9"}, {"lon": -77.0468255, "rental_uris": {"android": "https://dc.lft.to/lastmile_qr_scan", "ios": "https://dc.lft.to/lastmile_qr_scan"}, "fusion_lon": 0.0, "is_reserved": 0, "is_disabled": 0, "fusion_lat": 0.0, "type": "electric_scooter", "name": "c40fc68e8da21df726e30fc7bafa6244", "lat": 38.90269983333334, "bike_id": "c40fc68e8da21df726e30fc7bafa6244"}, {"lon": -77.03245, "rental_uris": {"android": "https://dc.lft.to/lastmile_qr_scan", "ios": "https://dc.lft.to/lastmile_qr_scan"}, "fusion_lon": 0.0, "is_reserved": 0, "is_disabled": 0, "fusion_lat": 0.0, "type": "electric_scooter", "name": "c9a48d7449a925c2efa681a3b9fcf818", "lat": 38.919888666666665, "bike_id": "c9a48d7449a925c2efa681a3b9fcf818"}, {"lon": -77.045444, "rental_uris": {"android": "https://dc.lft.to/lastmile_qr_scan", "ios": "https://dc.lft.to/lastmile_qr_scan"}, "fusion_lon": 0.0, "is_reserved": 0, "is_disabled": 0, "fusion_lat": 0.0, "type": "electric_scooter", "name": "40535ede1ae849b577632bc9c00a8885", "lat": 38.911104333333334, "bike_id": "40535ede1ae849b577632bc9c00a8885"}, {"lon": -77.029601, "rental_uris": {"android": "https://dc.lft.to/lastmile_qr_scan", "ios": "https://dc.lft.to/lastmile_qr_scan"}, "fusion_lon": 0.0, "is_reserved": 0, "is_disabled": 0, "fusion_lat": 0.0, "type": "electric_scooter", "name": "22e456a73e4d9fab63db6410d1d8b395", "lat": 38.901577833333334, "bike_id": "22e456a73e4d9fab63db6410d1d8b395"}, {"lon": -77.00558066666666, "rental_uris": {"android": "https://dc.lft.to/lastmile_qr_scan", "ios": "https://dc.lft.to/lastmile_qr_scan"}, "fusion_lon": 0.0, "is_reserved": 0, "is_disabled": 0, "fusion_lat": 0.0, "type": "electric_scooter", "name": "9dfc11a099efa0a64c5bf4e27fb1db55", "lat": 38.875596333333334, "bike_id": "9dfc11a099efa0a64c5bf4e27fb1db55"}, {"lon": -77.04501216666667, "rental_uris": {"android": "https://dc.lft.to/lastmile_qr_scan", "ios": "https://dc.lft.to/lastmile_qr_scan"}, "fusion_lon": 0.0, "is_reserved": 0, "is_disabled": 0, "fusion_lat": 0.0, "type": "electric_scooter", "name": "2d6408682d444c14e87703ea8829b348", "lat": 38.900057, "bike_id": "2d6408682d444c14e87703ea8829b348"}, {"lon": -76.97333916666666, "rental_uris": {"android": "https://dc.lft.to/lastmile_qr_scan", "ios": "https://dc.lft.to/lastmile_qr_scan"}, "fusion_lon": 0.0, "is_reserved": 0, "is_disabled": 0, "fusion_lat": 0.0, "type": "electric_scooter", "name": "1fec150f48ef7936d4602cfcb8dc84a5", "lat": 38.90409733333333, "bike_id": "1fec150f48ef7936d4602cfcb8dc84a5"}, {"lon": -77.00927633333333, "rental_uris": {"android": "https://dc.lft.to/lastmile_qr_scan", "ios": "https://dc.lft.to/lastmile_qr_scan"}, "fusion_lon": 0.0, "is_reserved": 0, "is_disabled": 0, "fusion_lat": 0.0, "type": "electric_scooter", "name": "cb42945748e8346ea9a690ed3132fb40", "lat": 38.896031, "bike_id": "cb42945748e8346ea9a690ed3132fb40"}, {"lon": -77.04837483333333, "rental_uris": {"android": "https://dc.lft.to/lastmile_qr_scan", "ios": "https://dc.lft.to/lastmile_qr_scan"}, "fusion_lon": 0.0, "is_reserved": 0, "is_disabled": 0, "fusion_lat": 0.0, "type": "electric_scooter", "name": "89ba32fe4e72dfb110aa6bf84da5aa20", "lat": 38.9110225, "bike_id": "89ba32fe4e72dfb110aa6bf84da5aa20"}, {"lon": -76.99841966666666, "rental_uris": {"android": "https://dc.lft.to/lastmile_qr_scan", "ios": "https://dc.lft.to/lastmile_qr_scan"}, "fusion_lon": 0.0, "is_reserved": 0, "is_disabled": 0, "fusion_lat": 0.0, "type": "electric_scooter", "name": "3b20d688a5aa00888423d35026611bcd", "lat": 38.839440333333336, "bike_id": "3b20d688a5aa00888423d35026611bcd"}, {"lon": -77.02710383333333, "rental_uris": {"android": "https://dc.lft.to/lastmile_qr_scan", "ios": "https://dc.lft.to/lastmile_qr_scan"}, "fusion_lon": 0.0, "is_reserved": 0, "is_disabled": 0, "fusion_lat": 0.0, "type": "electric_scooter", "name": "edd729ba3e64440780d470d78dcde61b", "lat": 38.898296333333334, "bike_id": "edd729ba3e64440780d470d78dcde61b"}, {"lon": -77.02747516666666, "rental_uris": {"android": "https://dc.lft.to/lastmile_qr_scan", "ios": "https://dc.lft.to/lastmile_qr_scan"}, "fusion_lon": 0.0, "is_reserved": 0, "is_disabled": 0, "fusion_lat": 0.0, "type": "electric_scooter", "name": "865e0cb9c3dfdc4c1994c3124e333418", "lat": 38.96608783333333, "bike_id": "865e0cb9c3dfdc4c1994c3124e333418"}, {"lon": -77.042023, "rental_uris": {"android": "https://dc.lft.to/lastmile_qr_scan", "ios": "https://dc.lft.to/lastmile_qr_scan"}, "fusion_lon": 0.0, "is_reserved": 0, "is_disabled": 0, "fusion_lat": 0.0, "type": "electric_scooter", "name": "6985f0bb82894a962010074f32c62501", "lat": 38.90736966666667, "bike_id": "6985f0bb82894a962010074f32c62501"}, {"lon": -77.02975816666667, "rental_uris": {"android": "https://dc.lft.to/lastmile_qr_scan", "ios": "https://dc.lft.to/lastmile_qr_scan"}, "fusion_lon": 0.0, "is_reserved": 0, "is_disabled": 0, "fusion_lat": 0.0, "type": "electric_scooter", "name": "1c71a718cfc17ff1d8638fb88eea973e", "lat": 38.91114666666667, "bike_id": "1c71a718cfc17ff1d8638fb88eea973e"}, {"lon": -77.07789633333333, "rental_uris": {"android": "https://dc.lft.to/lastmile_qr_scan", "ios": "https://dc.lft.to/lastmile_qr_scan"}, "fusion_lon": 0.0, "is_reserved": 0, "is_disabled": 0, "fusion_lat": 0.0, "type": "electric_bike", "name": "a805e4310ffd902ea044380184a42502", "lat": 38.945535166666666, "bike_id": "a805e4310ffd902ea044380184a42502"}, {"lon": -77.0722695, "rental_uris": {"android": "https://dc.lft.to/lastmile_qr_scan", "ios": "https://dc.lft.to/lastmile_qr_scan"}, "fusion_lon": 0.0, "is_reserved": 0, "is_disabled": 0, "fusion_lat": 0.0, "type": "electric_scooter", "name": "25791594b0e28cc35126a26df4ae01c6", "lat": 38.9384465, "bike_id": "25791594b0e28cc35126a26df4ae01c6"}, {"lon": -77.03318266666666, "rental_uris": {"android": "https://dc.lft.to/lastmile_qr_scan", "ios": "https://dc.lft.to/lastmile_qr_scan"}, "fusion_lon": 0.0, "is_reserved": 0, "is_disabled": 0, "fusion_lat": 0.0, "type": "electric_scooter", "name": "7da969c47b29d3b6e7a2636f048b68ba", "lat": 38.88773666666667, "bike_id": "7da969c47b29d3b6e7a2636f048b68ba"}, {"lon": -77.04743033333334, "rental_uris": {"android": "https://dc.lft.to/lastmile_qr_scan", "ios": "https://dc.lft.to/lastmile_qr_scan"}, "fusion_lon": 0.0, "is_reserved": 0, "is_disabled": 0, "fusion_lat": 0.0, "type": "electric_bike", "name": "a59600f7ed3e9aac1e70e04186b8ae0a", "lat": 39.000265166666665, "bike_id": "a59600f7ed3e9aac1e70e04186b8ae0a"}, {"lon": -77.05742533333333, "rental_uris": {"android": "https://dc.lft.to/lastmile_qr_scan", "ios": "https://dc.lft.to/lastmile_qr_scan"}, "fusion_lon": 0.0, "is_reserved": 0, "is_disabled": 0, "fusion_lat": 0.0, "type": "electric_scooter", "name": "4c051cd486071d048e32f1c811edc061", "lat": 38.93536433333333, "bike_id": "4c051cd486071d048e32f1c811edc061"}, {"lon": -77.01311083333333, "rental_uris": {"android": "https://dc.lft.to/lastmile_qr_scan", "ios": "https://dc.lft.to/lastmile_qr_scan"}, "fusion_lon": 0.0, "is_reserved": 0, "is_disabled": 0, "fusion_lat": 0.0, "type": "electric_scooter", "name": "0ce1a541c26e8405b49024a6c8852286", "lat": 38.919699333333334, "bike_id": "0ce1a541c26e8405b49024a6c8852286"}, {"lon": -77.00449983333333, "rental_uris": {"android": "https://dc.lft.to/lastmile_qr_scan", "ios": "https://dc.lft.to/lastmile_qr_scan"}, "fusion_lon": 0.0, "is_reserved": 0, "is_disabled": 0, "fusion_lat": 0.0, "type": "electric_scooter", "name": "b73433ca4e1f97d208b1b6b546fa5d30", "lat": 38.83788166666667, "bike_id": "b73433ca4e1f97d208b1b6b546fa5d30"}, {"lon": -76.98908333333333, "rental_uris": {"android": "https://dc.lft.to/lastmile_qr_scan", "ios": "https://dc.lft.to/lastmile_qr_scan"}, "fusion_lon": 0.0, "is_reserved": 0, "is_disabled": 0, "fusion_lat": 0.0, "type": "electric_scooter", "name": "58e41bacb3636ae125863141452d307b", "lat": 38.860919333333335, "bike_id": "58e41bacb3636ae125863141452d307b"}, {"lon": -77.0411205, "rental_uris": {"android": "https://dc.lft.to/lastmile_qr_scan", "ios": "https://dc.lft.to/lastmile_qr_scan"}, "fusion_lon": 0.0, "is_reserved": 0, "is_disabled": 0, "fusion_lat": 0.0, "type": "electric_scooter", "name": "17b17b19f9c9a3f445b49b144b228272", "lat": 38.89849383333333, "bike_id": "17b17b19f9c9a3f445b49b144b228272"}, {"lon": -77.05790566666667, "rental_uris": {"android": "https://dc.lft.to/lastmile_qr_scan", "ios": "https://dc.lft.to/lastmile_qr_scan"}, "fusion_lon": 0.0, "is_reserved": 0, "is_disabled": 0, "fusion_lat": 0.0, "type": "electric_scooter", "name": "69361c9e5ad8d5be87131b9ae342c8fe", "lat": 38.90105116666667, "bike_id": "69361c9e5ad8d5be87131b9ae342c8fe"}, {"lon": -77.0432565, "rental_uris": {"android": "https://dc.lft.to/lastmile_qr_scan", "ios": "https://dc.lft.to/lastmile_qr_scan"}, "fusion_lon": 0.0, "is_reserved": 0, "is_disabled": 0, "fusion_lat": 0.0, "type": "electric_scooter", "name": "07a0d7e909c91ed1a2407c07f9880e8c", "lat": 38.892174833333335, "bike_id": "07a0d7e909c91ed1a2407c07f9880e8c"}, {"lon": -77.03337633333334, "rental_uris": {"android": "https://dc.lft.to/lastmile_qr_scan", "ios": "https://dc.lft.to/lastmile_qr_scan"}, "fusion_lon": 0.0, "is_reserved": 0, "is_disabled": 0, "fusion_lat": 0.0, "type": "electric_scooter", "name": "01ca48aa362ba0298020223bf8d30235", "lat": 38.90252483333333, "bike_id": "01ca48aa362ba0298020223bf8d30235"}, {"lon": -77.029398, "rental_uris": {"android": "https://dc.lft.to/lastmile_qr_scan", "ios": "https://dc.lft.to/lastmile_qr_scan"}, "fusion_lon": 0.0, "is_reserved": 0, "is_disabled": 0, "fusion_lat": 0.0, "type": "electric_scooter", "name": "5e8160b5a97fb6e05dd774e5212e6358", "lat": 38.898324, "bike_id": "5e8160b5a97fb6e05dd774e5212e6358"}, {"lon": -77.0327265, "rental_uris": {"android": "https://dc.lft.to/lastmile_qr_scan", "ios": "https://dc.lft.to/lastmile_qr_scan"}, "fusion_lon": 0.0, "is_reserved": 0, "is_disabled": 0, "fusion_lat": 0.0, "type": "electric_scooter", "name": "ebcb728f82e52968e4b9da09dabd3501", "lat": 38.930007, "bike_id": "ebcb728f82e52968e4b9da09dabd3501"}, {"lon": -76.98593, "rental_uris": {"android": "https://dc.lft.to/lastmile_qr_scan", "ios": "https://dc.lft.to/lastmile_qr_scan"}, "fusion_lon": 0.0, "is_reserved": 0, "is_disabled": 0, "fusion_lat": 0.0, "type": "electric_scooter", "name": "a74c4989056a0738235cbdddbccd5ab0", "lat": 38.894725333333334, "bike_id": "a74c4989056a0738235cbdddbccd5ab0"}, {"lon": -77.0184895, "rental_uris": {"android": "https://dc.lft.to/lastmile_qr_scan", "ios": "https://dc.lft.to/lastmile_qr_scan"}, "fusion_lon": 0.0, "is_reserved": 0, "is_disabled": 0, "fusion_lat": 0.0, "type": "electric_scooter", "name": "cc30f7722d2ff6c98233e619914528dd", "lat": 38.95425733333333, "bike_id": "cc30f7722d2ff6c98233e619914528dd"}, {"lon": -77.007668, "rental_uris": {"android": "https://dc.lft.to/lastmile_qr_scan", "ios": "https://dc.lft.to/lastmile_qr_scan"}, "fusion_lon": 0.0, "is_reserved": 0, "is_disabled": 0, "fusion_lat": 0.0, "type": "electric_scooter", "name": "8c1c139daf136c826a27cff8922a6f4b", "lat": 38.871148833333336, "bike_id": "8c1c139daf136c826a27cff8922a6f4b"}, {"lon": -77.02643766666667, "rental_uris": {"android": "https://dc.lft.to/lastmile_qr_scan", "ios": "https://dc.lft.to/lastmile_qr_scan"}, "fusion_lon": 0.0, "is_reserved": 0, "is_disabled": 0, "fusion_lat": 0.0, "type": "electric_scooter", "name": "f78e2f8c5bbb6c2b86e467876e7a5e07", "lat": 38.9410265, "bike_id": "f78e2f8c5bbb6c2b86e467876e7a5e07"}, {"lon": -77.02575833333333, "rental_uris": {"android": "https://dc.lft.to/lastmile_qr_scan", "ios": "https://dc.lft.to/lastmile_qr_scan"}, "fusion_lon": 0.0, "is_reserved": 0, "is_disabled": 0, "fusion_lat": 0.0, "type": "electric_scooter", "name": "a3d693973c08b027d3ba74114b5a0ceb", "lat": 38.9204615, "bike_id": "a3d693973c08b027d3ba74114b5a0ceb"}, {"lon": -76.96911333333334, "rental_uris": {"android": "https://dc.lft.to/lastmile_qr_scan", "ios": "https://dc.lft.to/lastmile_qr_scan"}, "fusion_lon": 0.0, "is_reserved": 0, "is_disabled": 0, "fusion_lat": 0.0, "type": "electric_bike", "name": "fafc61445631449684b406de35d9e990", "lat": 38.84607916666667, "bike_id": "fafc61445631449684b406de35d9e990"}, {"lon": -77.042364, "rental_uris": {"android": "https://dc.lft.to/lastmile_qr_scan", "ios": "https://dc.lft.to/lastmile_qr_scan"}, "fusion_lon": 0.0, "is_reserved": 0, "is_disabled": 0, "fusion_lat": 0.0, "type": "electric_scooter", "name": "76c4d7fbbab49702dee85aefd9b90f5f", "lat": 38.9236005, "bike_id": "76c4d7fbbab49702dee85aefd9b90f5f"}, {"lon": -77.02377933333334, "rental_uris": {"android": "https://dc.lft.to/lastmile_qr_scan", "ios": "https://dc.lft.to/lastmile_qr_scan"}, "fusion_lon": 0.0, "is_reserved": 0, "is_disabled": 0, "fusion_lat": 0.0, "type": "electric_scooter", "name": "6c978f020fcb6da642824ebc26e49a8c", "lat": 38.919614333333335, "bike_id": "6c978f020fcb6da642824ebc26e49a8c"}, {"lon": -77.02065683333333, "rental_uris": {"android": "https://dc.lft.to/lastmile_qr_scan", "ios": "https://dc.lft.to/lastmile_qr_scan"}, "fusion_lon": 0.0, "is_reserved": 0, "is_disabled": 0, "fusion_lat": 0.0, "type": "electric_scooter", "name": "ad26387994824e3d4381792c94c7905d", "lat": 38.926983166666666, "bike_id": "ad26387994824e3d4381792c94c7905d"}, {"lon": -77.04357433333334, "rental_uris": {"android": "https://dc.lft.to/lastmile_qr_scan", "ios": "https://dc.lft.to/lastmile_qr_scan"}, "fusion_lon": 0.0, "is_reserved": 0, "is_disabled": 0, "fusion_lat": 0.0, "type": "electric_scooter", "name": "4a0674772a7fe4e9a259eb68f566b236", "lat": 38.9215245, "bike_id": "4a0674772a7fe4e9a259eb68f566b236"}, {"lon": -77.03990233333333, "rental_uris": {"android": "https://dc.lft.to/lastmile_qr_scan", "ios": "https://dc.lft.to/lastmile_qr_scan"}, "fusion_lon": 0.0, "is_reserved": 0, "is_disabled": 0, "fusion_lat": 0.0, "type": "electric_scooter", "name": "80160ec1b0aa0406dbe54048ab0bfb00", "lat": 38.903305, "bike_id": "80160ec1b0aa0406dbe54048ab0bfb00"}, {"lon": -77.0491485, "rental_uris": {"android": "https://dc.lft.to/lastmile_qr_scan", "ios": "https://dc.lft.to/lastmile_qr_scan"}, "fusion_lon": 0.0, "is_reserved": 0, "is_disabled": 0, "fusion_lat": 0.0, "type": "electric_scooter", "name": "1091799547ce5848b00a285943bbeb96", "lat": 38.89828266666667, "bike_id": "1091799547ce5848b00a285943bbeb96"}, {"lon": -77.0006485, "rental_uris": {"android": "https://dc.lft.to/lastmile_qr_scan", "ios": "https://dc.lft.to/lastmile_qr_scan"}, "fusion_lon": 0.0, "is_reserved": 0, "is_disabled": 0, "fusion_lat": 0.0, "type": "electric_scooter", "name": "9761c0ecd8e6ca221f093fc3cfd21ed0", "lat": 38.87383066666666, "bike_id": "9761c0ecd8e6ca221f093fc3cfd21ed0"}, {"lon": -77.04121533333333, "rental_uris": {"android": "https://dc.lft.to/lastmile_qr_scan", "ios": "https://dc.lft.to/lastmile_qr_scan"}, "fusion_lon": 0.0, "is_reserved": 0, "is_disabled": 0, "fusion_lat": 0.0, "type": "electric_scooter", "name": "adf36b593ffcecb80d45b8fa87333d79", "lat": 38.9021075, "bike_id": "adf36b593ffcecb80d45b8fa87333d79"}, {"lon": -77.02160216666667, "rental_uris": {"android": "https://dc.lft.to/lastmile_qr_scan", "ios": "https://dc.lft.to/lastmile_qr_scan"}, "fusion_lon": 0.0, "is_reserved": 0, "is_disabled": 0, "fusion_lat": 0.0, "type": "electric_scooter", "name": "933ac16135b5084907a0d2edd2edd77b", "lat": 38.926067, "bike_id": "933ac16135b5084907a0d2edd2edd77b"}, {"lon": -77.021205, "rental_uris": {"android": "https://dc.lft.to/lastmile_qr_scan", "ios": "https://dc.lft.to/lastmile_qr_scan"}, "fusion_lon": 0.0, "is_reserved": 0, "is_disabled": 0, "fusion_lat": 0.0, "type": "electric_scooter", "name": "53aecc4f8a21b9dc993c2d19db8530a9", "lat": 38.91557616666667, "bike_id": "53aecc4f8a21b9dc993c2d19db8530a9"}, {"lon": -77.0343705, "rental_uris": {"android": "https://dc.lft.to/lastmile_qr_scan", "ios": "https://dc.lft.to/lastmile_qr_scan"}, "fusion_lon": 0.0, "is_reserved": 0, "is_disabled": 0, "fusion_lat": 0.0, "type": "electric_scooter", "name": "874ab26cea48cebc4e0e68fcc249d2b1", "lat": 38.90367233333333, "bike_id": "874ab26cea48cebc4e0e68fcc249d2b1"}, {"lon": -77.00294333333333, "rental_uris": {"android": "https://dc.lft.to/lastmile_qr_scan", "ios": "https://dc.lft.to/lastmile_qr_scan"}, "fusion_lon": 0.0, "is_reserved": 0, "is_disabled": 0, "fusion_lat": 0.0, "type": "electric_scooter", "name": "37231aa78dd7e6add672c19af323e30e", "lat": 38.892028833333335, "bike_id": "37231aa78dd7e6add672c19af323e30e"}, {"lon": -77.04365866666667, "rental_uris": {"android": "https://dc.lft.to/lastmile_qr_scan", "ios": "https://dc.lft.to/lastmile_qr_scan"}, "fusion_lon": 0.0, "is_reserved": 0, "is_disabled": 0, "fusion_lat": 0.0, "type": "electric_scooter", "name": "b78ae3b7a113e810e185d2cd26798d0b", "lat": 38.90275483333333, "bike_id": "b78ae3b7a113e810e185d2cd26798d0b"}, {"lon": -77.01129516666667, "rental_uris": {"android": "https://dc.lft.to/lastmile_qr_scan", "ios": "https://dc.lft.to/lastmile_qr_scan"}, "fusion_lon": 0.0, "is_reserved": 0, "is_disabled": 0, "fusion_lat": 0.0, "type": "electric_scooter", "name": "7ac1e863adf4a58257a782761760d0e3", "lat": 38.89528416666667, "bike_id": "7ac1e863adf4a58257a782761760d0e3"}, {"lon": -77.044696, "rental_uris": {"android": "https://dc.lft.to/lastmile_qr_scan", "ios": "https://dc.lft.to/lastmile_qr_scan"}, "fusion_lon": 0.0, "is_reserved": 0, "is_disabled": 0, "fusion_lat": 0.0, "type": "electric_scooter", "name": "13627342053325f8a5f39b9d9d056701", "lat": 38.89225833333333, "bike_id": "13627342053325f8a5f39b9d9d056701"}, {"lon": -76.97807916666666, "rental_uris": {"android": "https://dc.lft.to/lastmile_qr_scan", "ios": "https://dc.lft.to/lastmile_qr_scan"}, "fusion_lon": 0.0, "is_reserved": 0, "is_disabled": 0, "fusion_lat": 0.0, "type": "electric_scooter", "name": "8ccf8418e9386b7f11b4686d816f443a", "lat": 38.903060333333336, "bike_id": "8ccf8418e9386b7f11b4686d816f443a"}, {"lon": -77.00775, "rental_uris": {"android": "https://dc.lft.to/lastmile_qr_scan", "ios": "https://dc.lft.to/lastmile_qr_scan"}, "fusion_lon": 0.0, "is_reserved": 0, "is_disabled": 0, "fusion_lat": 0.0, "type": "electric_bike", "name": "6c8fb791c5dced6ac2d4f78982a09fc1", "lat": 38.874761166666666, "bike_id": "6c8fb791c5dced6ac2d4f78982a09fc1"}, {"lon": -77.00187133333333, "rental_uris": {"android": "https://dc.lft.to/lastmile_qr_scan", "ios": "https://dc.lft.to/lastmile_qr_scan"}, "fusion_lon": 0.0, "is_reserved": 0, "is_disabled": 0, "fusion_lat": 0.0, "type": "electric_scooter", "name": "9d50985d37bfa94e68fc7b966a6a27f5", "lat": 38.8737825, "bike_id": "9d50985d37bfa94e68fc7b966a6a27f5"}, {"lon": -77.02166833333334, "rental_uris": {"android": "https://dc.lft.to/lastmile_qr_scan", "ios": "https://dc.lft.to/lastmile_qr_scan"}, "fusion_lon": 0.0, "is_reserved": 0, "is_disabled": 0, "fusion_lat": 0.0, "type": "electric_scooter", "name": "4849b7cc6614efde93ff24ed3828e116", "lat": 38.942874833333335, "bike_id": "4849b7cc6614efde93ff24ed3828e116"}, {"lon": -77.01217416666667, "rental_uris": {"android": "https://dc.lft.to/lastmile_qr_scan", "ios": "https://dc.lft.to/lastmile_qr_scan"}, "fusion_lon": 0.0, "is_reserved": 0, "is_disabled": 0, "fusion_lat": 0.0, "type": "electric_scooter", "name": "436dd2cb96c40e60f9ac71d1870cca34", "lat": 38.893369, "bike_id": "436dd2cb96c40e60f9ac71d1870cca34"}, {"lon": -77.05135483333333, "rental_uris": {"android": "https://dc.lft.to/lastmile_qr_scan", "ios": "https://dc.lft.to/lastmile_qr_scan"}, "fusion_lon": 0.0, "is_reserved": 0, "is_disabled": 0, "fusion_lat": 0.0, "type": "electric_scooter", "name": "c1c63075e18377c5ca70760198fffbcf", "lat": 38.9061935, "bike_id": "c1c63075e18377c5ca70760198fffbcf"}, {"lon": -77.01955483333333, "rental_uris": {"android": "https://dc.lft.to/lastmile_qr_scan", "ios": "https://dc.lft.to/lastmile_qr_scan"}, "fusion_lon": 0.0, "is_reserved": 0, "is_disabled": 0, "fusion_lat": 0.0, "type": "electric_scooter", "name": "49abadd4d0882d56994fcd829f3551eb", "lat": 38.9231705, "bike_id": "49abadd4d0882d56994fcd829f3551eb"}, {"lon": -77.03194783333333, "rental_uris": {"android": "https://dc.lft.to/lastmile_qr_scan", "ios": "https://dc.lft.to/lastmile_qr_scan"}, "fusion_lon": 0.0, "is_reserved": 0, "is_disabled": 0, "fusion_lat": 0.0, "type": "electric_scooter", "name": "694f9b10031e80f83ec632973e578056", "lat": 38.911915666666665, "bike_id": "694f9b10031e80f83ec632973e578056"}, {"lon": -77.02001816666667, "rental_uris": {"android": "https://dc.lft.to/lastmile_qr_scan", "ios": "https://dc.lft.to/lastmile_qr_scan"}, "fusion_lon": 0.0, "is_reserved": 0, "is_disabled": 0, "fusion_lat": 0.0, "type": "electric_scooter", "name": "ece3e3035a9997e83bc696bb5e253284", "lat": 38.96438066666666, "bike_id": "ece3e3035a9997e83bc696bb5e253284"}, {"lon": -77.04113066666666, "rental_uris": {"android": "https://dc.lft.to/lastmile_qr_scan", "ios": "https://dc.lft.to/lastmile_qr_scan"}, "fusion_lon": 0.0, "is_reserved": 0, "is_disabled": 0, "fusion_lat": 0.0, "type": "electric_scooter", "name": "97c40e067c9c209dbcd2f47a63185c94", "lat": 38.898464833333335, "bike_id": "97c40e067c9c209dbcd2f47a63185c94"}, {"lon": -77.0089055, "rental_uris": {"android": "https://dc.lft.to/lastmile_qr_scan", "ios": "https://dc.lft.to/lastmile_qr_scan"}, "fusion_lon": 0.0, "is_reserved": 0, "is_disabled": 0, "fusion_lat": 0.0, "type": "electric_scooter", "name": "66df666e1db2e8d939994ce81a255b5f", "lat": 38.955644166666666, "bike_id": "66df666e1db2e8d939994ce81a255b5f"}, {"lon": -77.02000133333334, "rental_uris": {"android": "https://dc.lft.to/lastmile_qr_scan", "ios": "https://dc.lft.to/lastmile_qr_scan"}, "fusion_lon": 0.0, "is_reserved": 0, "is_disabled": 0, "fusion_lat": 0.0, "type": "electric_scooter", "name": "f9d7bc33677b5f415b799ed47effea40", "lat": 38.899299166666665, "bike_id": "f9d7bc33677b5f415b799ed47effea40"}, {"lon": -77.02840366666666, "rental_uris": {"android": "https://dc.lft.to/lastmile_qr_scan", "ios": "https://dc.lft.to/lastmile_qr_scan"}, "fusion_lon": 0.0, "is_reserved": 0, "is_disabled": 0, "fusion_lat": 0.0, "type": "electric_bike", "name": "e3c2f475cc94381b9e1a03434b06ca9c", "lat": 38.942638, "bike_id": "e3c2f475cc94381b9e1a03434b06ca9c"}, {"lon": -77.04163566666666, "rental_uris": {"android": "https://dc.lft.to/lastmile_qr_scan", "ios": "https://dc.lft.to/lastmile_qr_scan"}, "fusion_lon": 0.0, "is_reserved": 0, "is_disabled": 0, "fusion_lat": 0.0, "type": "electric_scooter", "name": "aad1c4d5d04f2a58b99f02a0e31c9bdd", "lat": 38.899194, "bike_id": "aad1c4d5d04f2a58b99f02a0e31c9bdd"}, {"lon": -76.95698683333333, "rental_uris": {"android": "https://dc.lft.to/lastmile_qr_scan", "ios": "https://dc.lft.to/lastmile_qr_scan"}, "fusion_lon": 0.0, "is_reserved": 0, "is_disabled": 0, "fusion_lat": 0.0, "type": "electric_bike", "name": "737e3cf75e23ffaba0612117b96bddcf", "lat": 38.850794666666665, "bike_id": "737e3cf75e23ffaba0612117b96bddcf"}, {"lon": -77.019405, "rental_uris": {"android": "https://dc.lft.to/lastmile_qr_scan", "ios": "https://dc.lft.to/lastmile_qr_scan"}, "fusion_lon": 0.0, "is_reserved": 0, "is_disabled": 0, "fusion_lat": 0.0, "type": "electric_scooter", "name": "3376f929d78c92ad900dddda29acc6f0", "lat": 38.9226355, "bike_id": "3376f929d78c92ad900dddda29acc6f0"}, {"lon": -77.01554083333333, "rental_uris": {"android": "https://dc.lft.to/lastmile_qr_scan", "ios": "https://dc.lft.to/lastmile_qr_scan"}, "fusion_lon": 0.0, "is_reserved": 0, "is_disabled": 0, "fusion_lat": 0.0, "type": "electric_scooter", "name": "12905ce2277bae30f5c85ae0fda07dae", "lat": 38.914602333333335, "bike_id": "12905ce2277bae30f5c85ae0fda07dae"}, {"lon": -76.99378916666667, "rental_uris": {"android": "https://dc.lft.to/lastmile_qr_scan", "ios": "https://dc.lft.to/lastmile_qr_scan"}, "fusion_lon": 0.0, "is_reserved": 0, "is_disabled": 0, "fusion_lat": 0.0, "type": "electric_scooter", "name": "83cd5bd59d11fa40d5b367efe44c3d9c", "lat": 38.8933775, "bike_id": "83cd5bd59d11fa40d5b367efe44c3d9c"}, {"lon": -77.02861233333333, "rental_uris": {"android": "https://dc.lft.to/lastmile_qr_scan", "ios": "https://dc.lft.to/lastmile_qr_scan"}, "fusion_lon": 0.0, "is_reserved": 0, "is_disabled": 0, "fusion_lat": 0.0, "type": "electric_scooter", "name": "e498ab1720799ca89b26790319f86802", "lat": 38.887466333333336, "bike_id": "e498ab1720799ca89b26790319f86802"}, {"lon": -77.04540183333333, "rental_uris": {"android": "https://dc.lft.to/lastmile_qr_scan", "ios": "https://dc.lft.to/lastmile_qr_scan"}, "fusion_lon": 0.0, "is_reserved": 0, "is_disabled": 0, "fusion_lat": 0.0, "type": "electric_scooter", "name": "cea311f05f083b9abc4bcb679b5ae974", "lat": 38.914207, "bike_id": "cea311f05f083b9abc4bcb679b5ae974"}, {"lon": -76.99552183333333, "rental_uris": {"android": "https://dc.lft.to/lastmile_qr_scan", "ios": "https://dc.lft.to/lastmile_qr_scan"}, "fusion_lon": 0.0, "is_reserved": 0, "is_disabled": 0, "fusion_lat": 0.0, "type": "electric_scooter", "name": "8b20caeef3fde3dfddf4cfc2c7e26679", "lat": 38.920419333333335, "bike_id": "8b20caeef3fde3dfddf4cfc2c7e26679"}, {"lon": -77.05558516666666, "rental_uris": {"android": "https://dc.lft.to/lastmile_qr_scan", "ios": "https://dc.lft.to/lastmile_qr_scan"}, "fusion_lon": 0.0, "is_reserved": 0, "is_disabled": 0, "fusion_lat": 0.0, "type": "electric_scooter", "name": "d192eeaff52786d828e66affc941fbc3", "lat": 38.93027583333333, "bike_id": "d192eeaff52786d828e66affc941fbc3"}, {"lon": -77.0068155, "rental_uris": {"android": "https://dc.lft.to/lastmile_qr_scan", "ios": "https://dc.lft.to/lastmile_qr_scan"}, "fusion_lon": 0.0, "is_reserved": 0, "is_disabled": 0, "fusion_lat": 0.0, "type": "electric_scooter", "name": "47d9aef0372d27d9bab98a3b14686c43", "lat": 38.8769755, "bike_id": "47d9aef0372d27d9bab98a3b14686c43"}, {"lon": -77.02240633333334, "rental_uris": {"android": "https://dc.lft.to/lastmile_qr_scan", "ios": "https://dc.lft.to/lastmile_qr_scan"}, "fusion_lon": 0.0, "is_reserved": 0, "is_disabled": 0, "fusion_lat": 0.0, "type": "electric_scooter", "name": "45cf783c563607b712fac8042407ba1c", "lat": 38.887713833333336, "bike_id": "45cf783c563607b712fac8042407ba1c"}, {"lon": -77.032182, "rental_uris": {"android": "https://dc.lft.to/lastmile_qr_scan", "ios": "https://dc.lft.to/lastmile_qr_scan"}, "fusion_lon": 0.0, "is_reserved": 0, "is_disabled": 0, "fusion_lat": 0.0, "type": "electric_bike", "name": "8c5bf4f86981112be9e42974267ac88e", "lat": 38.90763966666667, "bike_id": "8c5bf4f86981112be9e42974267ac88e"}, {"lon": -77.04863183333333, "rental_uris": {"android": "https://dc.lft.to/lastmile_qr_scan", "ios": "https://dc.lft.to/lastmile_qr_scan"}, "fusion_lon": 0.0, "is_reserved": 0, "is_disabled": 0, "fusion_lat": 0.0, "type": "electric_scooter", "name": "491a9afad10ff44769c373e0d1385fcd", "lat": 38.9000705, "bike_id": "491a9afad10ff44769c373e0d1385fcd"}, {"lon": -77.040731, "rental_uris": {"android": "https://dc.lft.to/lastmile_qr_scan", "ios": "https://dc.lft.to/lastmile_qr_scan"}, "fusion_lon": 0.0, "is_reserved": 0, "is_disabled": 0, "fusion_lat": 0.0, "type": "electric_scooter", "name": "9b6412754091da2f98072053a2720a25", "lat": 38.91410033333333, "bike_id": "9b6412754091da2f98072053a2720a25"}, {"lon": -77.04532816666666, "rental_uris": {"android": "https://dc.lft.to/lastmile_qr_scan", "ios": "https://dc.lft.to/lastmile_qr_scan"}, "fusion_lon": 0.0, "is_reserved": 0, "is_disabled": 0, "fusion_lat": 0.0, "type": "electric_scooter", "name": "ffcd9452b44c05f6565a91274360caa7", "lat": 38.899588, "bike_id": "ffcd9452b44c05f6565a91274360caa7"}, {"lon": -77.01667783333333, "rental_uris": {"android": "https://dc.lft.to/lastmile_qr_scan", "ios": "https://dc.lft.to/lastmile_qr_scan"}, "fusion_lon": 0.0, "is_reserved": 0, "is_disabled": 0, "fusion_lat": 0.0, "type": "electric_scooter", "name": "e08be3674095a2aacebcdfe8c15fd026", "lat": 38.9204005, "bike_id": "e08be3674095a2aacebcdfe8c15fd026"}, {"lon": -77.00316566666666, "rental_uris": {"android": "https://dc.lft.to/lastmile_qr_scan", "ios": "https://dc.lft.to/lastmile_qr_scan"}, "fusion_lon": 0.0, "is_reserved": 0, "is_disabled": 0, "fusion_lat": 0.0, "type": "electric_scooter", "name": "1c00aa9e5f8e245dc3a3526e680410c2", "lat": 38.91254433333334, "bike_id": "1c00aa9e5f8e245dc3a3526e680410c2"}, {"lon": -77.0321545, "rental_uris": {"android": "https://dc.lft.to/lastmile_qr_scan", "ios": "https://dc.lft.to/lastmile_qr_scan"}, "fusion_lon": 0.0, "is_reserved": 0, "is_disabled": 0, "fusion_lat": 0.0, "type": "electric_scooter", "name": "9dbc7d628f76215c91787719c1be72b1", "lat": 38.916818, "bike_id": "9dbc7d628f76215c91787719c1be72b1"}, {"lon": -76.9905875, "rental_uris": {"android": "https://dc.lft.to/lastmile_qr_scan", "ios": "https://dc.lft.to/lastmile_qr_scan"}, "fusion_lon": 0.0, "is_reserved": 0, "is_disabled": 0, "fusion_lat": 0.0, "type": "electric_scooter", "name": "9b426b03b39c6c7d194fc419056bb241", "lat": 38.90008816666667, "bike_id": "9b426b03b39c6c7d194fc419056bb241"}, {"lon": -77.04144933333333, "rental_uris": {"android": "https://dc.lft.to/lastmile_qr_scan", "ios": "https://dc.lft.to/lastmile_qr_scan"}, "fusion_lon": 0.0, "is_reserved": 0, "is_disabled": 0, "fusion_lat": 0.0, "type": "electric_scooter", "name": "c66ebe670ff9db6e4854c142d90cfc05", "lat": 38.92336266666667, "bike_id": "c66ebe670ff9db6e4854c142d90cfc05"}, {"lon": -77.02847716666666, "rental_uris": {"android": "https://dc.lft.to/lastmile_qr_scan", "ios": "https://dc.lft.to/lastmile_qr_scan"}, "fusion_lon": 0.0, "is_reserved": 0, "is_disabled": 0, "fusion_lat": 0.0, "type": "electric_scooter", "name": "7c398101b334fdabab8b1e67b79f9e06", "lat": 38.935795166666665, "bike_id": "7c398101b334fdabab8b1e67b79f9e06"}, {"lon": -77.03669566666666, "rental_uris": {"android": "https://dc.lft.to/lastmile_qr_scan", "ios": "https://dc.lft.to/lastmile_qr_scan"}, "fusion_lon": 0.0, "is_reserved": 0, "is_disabled": 0, "fusion_lat": 0.0, "type": "electric_scooter", "name": "da406860ce56d6a7961d18e2d48d01c3", "lat": 38.91814433333333, "bike_id": "da406860ce56d6a7961d18e2d48d01c3"}, {"lon": -77.04984266666666, "rental_uris": {"android": "https://dc.lft.to/lastmile_qr_scan", "ios": "https://dc.lft.to/lastmile_qr_scan"}, "fusion_lon": 0.0, "is_reserved": 0, "is_disabled": 0, "fusion_lat": 0.0, "type": "electric_scooter", "name": "218c235e5ac2f025e3e15ac27368fd20", "lat": 38.90095816666667, "bike_id": "218c235e5ac2f025e3e15ac27368fd20"}, {"lon": -77.043699, "rental_uris": {"android": "https://dc.lft.to/lastmile_qr_scan", "ios": "https://dc.lft.to/lastmile_qr_scan"}, "fusion_lon": 0.0, "is_reserved": 0, "is_disabled": 0, "fusion_lat": 0.0, "type": "electric_scooter", "name": "16c63e316d4e2d2c6f95967a8227bab5", "lat": 38.90358066666667, "bike_id": "16c63e316d4e2d2c6f95967a8227bab5"}, {"lon": -76.95094383333333, "rental_uris": {"android": "https://dc.lft.to/lastmile_qr_scan", "ios": "https://dc.lft.to/lastmile_qr_scan"}, "fusion_lon": 0.0, "is_reserved": 0, "is_disabled": 0, "fusion_lat": 0.0, "type": "electric_scooter", "name": "cbaa282b87d60d0a204235a2cf757715", "lat": 38.8844555, "bike_id": "cbaa282b87d60d0a204235a2cf757715"}, {"lon": -77.036767, "rental_uris": {"android": "https://dc.lft.to/lastmile_qr_scan", "ios": "https://dc.lft.to/lastmile_qr_scan"}, "fusion_lon": 0.0, "is_reserved": 0, "is_disabled": 0, "fusion_lat": 0.0, "type": "electric_scooter", "name": "92d9b5c1d82dd7d52d29a16004a280aa", "lat": 38.90028016666667, "bike_id": "92d9b5c1d82dd7d52d29a16004a280aa"}, {"lon": -77.00330383333333, "rental_uris": {"android": "https://dc.lft.to/lastmile_qr_scan", "ios": "https://dc.lft.to/lastmile_qr_scan"}, "fusion_lon": 0.0, "is_reserved": 0, "is_disabled": 0, "fusion_lat": 0.0, "type": "electric_scooter", "name": "257a65f2a0c826c8415ae163bc94475e", "lat": 38.923452, "bike_id": "257a65f2a0c826c8415ae163bc94475e"}, {"lon": -77.03347733333334, "rental_uris": {"android": "https://dc.lft.to/lastmile_qr_scan", "ios": "https://dc.lft.to/lastmile_qr_scan"}, "fusion_lon": 0.0, "is_reserved": 0, "is_disabled": 0, "fusion_lat": 0.0, "type": "electric_scooter", "name": "f90b1abd54df6ad853beab47805b245a", "lat": 38.892311166666666, "bike_id": "f90b1abd54df6ad853beab47805b245a"}, {"lon": -77.048639, "rental_uris": {"android": "https://dc.lft.to/lastmile_qr_scan", "ios": "https://dc.lft.to/lastmile_qr_scan"}, "fusion_lon": 0.0, "is_reserved": 0, "is_disabled": 0, "fusion_lat": 0.0, "type": "electric_scooter", "name": "a3d4562e5dd142b95e8bbdb74986624f", "lat": 38.89866933333333, "bike_id": "a3d4562e5dd142b95e8bbdb74986624f"}, {"lon": -77.00774416666667, "rental_uris": {"android": "https://dc.lft.to/lastmile_qr_scan", "ios": "https://dc.lft.to/lastmile_qr_scan"}, "fusion_lon": 0.0, "is_reserved": 0, "is_disabled": 0, "fusion_lat": 0.0, "type": "electric_scooter", "name": "c5ead10d10e68554911831fbba22111d", "lat": 38.89736466666667, "bike_id": "c5ead10d10e68554911831fbba22111d"}, {"lon": -76.9884785, "rental_uris": {"android": "https://dc.lft.to/lastmile_qr_scan", "ios": "https://dc.lft.to/lastmile_qr_scan"}, "fusion_lon": 0.0, "is_reserved": 0, "is_disabled": 0, "fusion_lat": 0.0, "type": "electric_scooter", "name": "9e906d1057da3fba21eb03f0a38761e8", "lat": 38.900253166666666, "bike_id": "9e906d1057da3fba21eb03f0a38761e8"}, {"lon": -77.0610305, "rental_uris": {"android": "https://dc.lft.to/lastmile_qr_scan", "ios": "https://dc.lft.to/lastmile_qr_scan"}, "fusion_lon": 0.0, "is_reserved": 0, "is_disabled": 0, "fusion_lat": 0.0, "type": "electric_scooter", "name": "15e260ceb2415a795dec73e6e8dd700b", "lat": 38.90242216666667, "bike_id": "15e260ceb2415a795dec73e6e8dd700b"}, {"lon": -77.03820816666666, "rental_uris": {"android": "https://dc.lft.to/lastmile_qr_scan", "ios": "https://dc.lft.to/lastmile_qr_scan"}, "fusion_lon": 0.0, "is_reserved": 0, "is_disabled": 0, "fusion_lat": 0.0, "type": "electric_scooter", "name": "75318f2b4ecf2650b196928ea85db0eb", "lat": 38.900187, "bike_id": "75318f2b4ecf2650b196928ea85db0eb"}, {"lon": -77.029187, "rental_uris": {"android": "https://dc.lft.to/lastmile_qr_scan", "ios": "https://dc.lft.to/lastmile_qr_scan"}, "fusion_lon": 0.0, "is_reserved": 0, "is_disabled": 0, "fusion_lat": 0.0, "type": "electric_scooter", "name": "04f17baf8276df1ac12da29de7111111", "lat": 38.91699116666667, "bike_id": "04f17baf8276df1ac12da29de7111111"}, {"lon": -77.04358883333333, "rental_uris": {"android": "https://dc.lft.to/lastmile_qr_scan", "ios": "https://dc.lft.to/lastmile_qr_scan"}, "fusion_lon": 0.0, "is_reserved": 0, "is_disabled": 0, "fusion_lat": 0.0, "type": "electric_scooter", "name": "fc0b3297a53fa8a1ce36eae651c00583", "lat": 38.902373, "bike_id": "fc0b3297a53fa8a1ce36eae651c00583"}, {"lon": -77.07038383333334, "rental_uris": {"android": "https://dc.lft.to/lastmile_qr_scan", "ios": "https://dc.lft.to/lastmile_qr_scan"}, "fusion_lon": 0.0, "is_reserved": 0, "is_disabled": 0, "fusion_lat": 0.0, "type": "electric_scooter", "name": "d1c8a89f7bb8721a1b1d41409a754d9a", "lat": 38.90761416666667, "bike_id": "d1c8a89f7bb8721a1b1d41409a754d9a"}, {"lon": -76.96706983333333, "rental_uris": {"android": "https://dc.lft.to/lastmile_qr_scan", "ios": "https://dc.lft.to/lastmile_qr_scan"}, "fusion_lon": 0.0, "is_reserved": 0, "is_disabled": 0, "fusion_lat": 0.0, "type": "electric_scooter", "name": "46b33b5b5d3dbbce79de77d2a60a0966", "lat": 38.8601535, "bike_id": "46b33b5b5d3dbbce79de77d2a60a0966"}, {"lon": -77.04867033333333, "rental_uris": {"android": "https://dc.lft.to/lastmile_qr_scan", "ios": "https://dc.lft.to/lastmile_qr_scan"}, "fusion_lon": 0.0, "is_reserved": 0, "is_disabled": 0, "fusion_lat": 0.0, "type": "electric_scooter", "name": "bce523012114a70b56c63f0adae32bdc", "lat": 38.89222933333333, "bike_id": "bce523012114a70b56c63f0adae32bdc"}, {"lon": -77.02719633333334, "rental_uris": {"android": "https://dc.lft.to/lastmile_qr_scan", "ios": "https://dc.lft.to/lastmile_qr_scan"}, "fusion_lon": 0.0, "is_reserved": 0, "is_disabled": 0, "fusion_lat": 0.0, "type": "electric_scooter", "name": "cf73dcc588e732d822b8c9133ec8480f", "lat": 38.897572333333336, "bike_id": "cf73dcc588e732d822b8c9133ec8480f"}, {"lon": -77.04534166666667, "rental_uris": {"android": "https://dc.lft.to/lastmile_qr_scan", "ios": "https://dc.lft.to/lastmile_qr_scan"}, "fusion_lon": 0.0, "is_reserved": 0, "is_disabled": 0, "fusion_lat": 0.0, "type": "electric_scooter", "name": "a80cdaae788340c795e58601c0f009ab", "lat": 38.91109016666667, "bike_id": "a80cdaae788340c795e58601c0f009ab"}, {"lon": -77.037687, "rental_uris": {"android": "https://dc.lft.to/lastmile_qr_scan", "ios": "https://dc.lft.to/lastmile_qr_scan"}, "fusion_lon": 0.0, "is_reserved": 0, "is_disabled": 0, "fusion_lat": 0.0, "type": "electric_scooter", "name": "d93bf8483176def8b084ef360bef4195", "lat": 38.91684466666667, "bike_id": "d93bf8483176def8b084ef360bef4195"}, {"lon": -77.02414016666667, "rental_uris": {"android": "https://dc.lft.to/lastmile_qr_scan", "ios": "https://dc.lft.to/lastmile_qr_scan"}, "fusion_lon": 0.0, "is_reserved": 0, "is_disabled": 0, "fusion_lat": 0.0, "type": "electric_scooter", "name": "20518d008d9e37c1b52e24f0a2dd6bcc", "lat": 38.897381333333335, "bike_id": "20518d008d9e37c1b52e24f0a2dd6bcc"}, {"lon": -77.0320695, "rental_uris": {"android": "https://dc.lft.to/lastmile_qr_scan", "ios": "https://dc.lft.to/lastmile_qr_scan"}, "fusion_lon": 0.0, "is_reserved": 0, "is_disabled": 0, "fusion_lat": 0.0, "type": "electric_scooter", "name": "9ab1f5e07db93868ffc287461150ec0f", "lat": 38.90827683333333, "bike_id": "9ab1f5e07db93868ffc287461150ec0f"}, {"lon": -77.03175666666667, "rental_uris": {"android": "https://dc.lft.to/lastmile_qr_scan", "ios": "https://dc.lft.to/lastmile_qr_scan"}, "fusion_lon": 0.0, "is_reserved": 0, "is_disabled": 0, "fusion_lat": 0.0, "type": "electric_scooter", "name": "5df2a66a337899ae1c80260e1340c7cc", "lat": 38.90118283333334, "bike_id": "5df2a66a337899ae1c80260e1340c7cc"}, {"lon": -77.0464785, "rental_uris": {"android": "https://dc.lft.to/lastmile_qr_scan", "ios": "https://dc.lft.to/lastmile_qr_scan"}, "fusion_lon": 0.0, "is_reserved": 0, "is_disabled": 0, "fusion_lat": 0.0, "type": "electric_scooter", "name": "585899408c012705ac26742d1e8bcf97", "lat": 38.8922225, "bike_id": "585899408c012705ac26742d1e8bcf97"}, {"lon": -77.046098, "rental_uris": {"android": "https://dc.lft.to/lastmile_qr_scan", "ios": "https://dc.lft.to/lastmile_qr_scan"}, "fusion_lon": 0.0, "is_reserved": 0, "is_disabled": 0, "fusion_lat": 0.0, "type": "electric_scooter", "name": "bcc233c66baf432315050c9e75182189", "lat": 38.9024145, "bike_id": "bcc233c66baf432315050c9e75182189"}, {"lon": -77.0496825, "rental_uris": {"android": "https://dc.lft.to/lastmile_qr_scan", "ios": "https://dc.lft.to/lastmile_qr_scan"}, "fusion_lon": 0.0, "is_reserved": 0, "is_disabled": 0, "fusion_lat": 0.0, "type": "electric_scooter", "name": "ebd70eec33a8302c576beb4231ca421a", "lat": 38.90091183333333, "bike_id": "ebd70eec33a8302c576beb4231ca421a"}, {"lon": -77.03282383333334, "rental_uris": {"android": "https://dc.lft.to/lastmile_qr_scan", "ios": "https://dc.lft.to/lastmile_qr_scan"}, "fusion_lon": 0.0, "is_reserved": 0, "is_disabled": 0, "fusion_lat": 0.0, "type": "electric_scooter", "name": "0a461789c2a04fc7d1944abd28ad08dc", "lat": 38.937596, "bike_id": "0a461789c2a04fc7d1944abd28ad08dc"}, {"lon": -77.00734683333333, "rental_uris": {"android": "https://dc.lft.to/lastmile_qr_scan", "ios": "https://dc.lft.to/lastmile_qr_scan"}, "fusion_lon": 0.0, "is_reserved": 0, "is_disabled": 0, "fusion_lat": 0.0, "type": "electric_scooter", "name": "951617c7c1c45cf798a7e00cd5bf09fe", "lat": 38.898023333333335, "bike_id": "951617c7c1c45cf798a7e00cd5bf09fe"}, {"lon": -77.02370183333333, "rental_uris": {"android": "https://dc.lft.to/lastmile_qr_scan", "ios": "https://dc.lft.to/lastmile_qr_scan"}, "fusion_lon": 0.0, "is_reserved": 0, "is_disabled": 0, "fusion_lat": 0.0, "type": "electric_scooter", "name": "2e0a2cca61dd095036efdb157e70e3d8", "lat": 38.892121, "bike_id": "2e0a2cca61dd095036efdb157e70e3d8"}, {"lon": -77.02162516666667, "rental_uris": {"android": "https://dc.lft.to/lastmile_qr_scan", "ios": "https://dc.lft.to/lastmile_qr_scan"}, "fusion_lon": 0.0, "is_reserved": 0, "is_disabled": 0, "fusion_lat": 0.0, "type": "electric_scooter", "name": "17a36aac63641216a7c7d1a32348c47f", "lat": 38.926077, "bike_id": "17a36aac63641216a7c7d1a32348c47f"}, {"lon": -77.021674, "rental_uris": {"android": "https://dc.lft.to/lastmile_qr_scan", "ios": "https://dc.lft.to/lastmile_qr_scan"}, "fusion_lon": 0.0, "is_reserved": 0, "is_disabled": 0, "fusion_lat": 0.0, "type": "electric_scooter", "name": "9944395ba5d4e795dda7c845eb9cbf15", "lat": 38.92607733333333, "bike_id": "9944395ba5d4e795dda7c845eb9cbf15"}, {"lon": -77.06813383333333, "rental_uris": {"android": "https://dc.lft.to/lastmile_qr_scan", "ios": "https://dc.lft.to/lastmile_qr_scan"}, "fusion_lon": 0.0, "is_reserved": 0, "is_disabled": 0, "fusion_lat": 0.0, "type": "electric_scooter", "name": "5c6d2a983f97b19fe077507508db415a", "lat": 38.90399216666667, "bike_id": "5c6d2a983f97b19fe077507508db415a"}, {"lon": -77.0240455, "rental_uris": {"android": "https://dc.lft.to/lastmile_qr_scan", "ios": "https://dc.lft.to/lastmile_qr_scan"}, "fusion_lon": 0.0, "is_reserved": 0, "is_disabled": 0, "fusion_lat": 0.0, "type": "electric_scooter", "name": "d577f311ec1c9eff64c26ad391335f73", "lat": 38.901843666666664, "bike_id": "d577f311ec1c9eff64c26ad391335f73"}, {"lon": -77.07150383333334, "rental_uris": {"android": "https://dc.lft.to/lastmile_qr_scan", "ios": "https://dc.lft.to/lastmile_qr_scan"}, "fusion_lon": 0.0, "is_reserved": 0, "is_disabled": 0, "fusion_lat": 0.0, "type": "electric_scooter", "name": "9ed0a12498ff204156c5bba9aabbc043", "lat": 38.920275833333335, "bike_id": "9ed0a12498ff204156c5bba9aabbc043"}, {"lon": -77.00577166666666, "rental_uris": {"android": "https://dc.lft.to/lastmile_qr_scan", "ios": "https://dc.lft.to/lastmile_qr_scan"}, "fusion_lon": 0.0, "is_reserved": 0, "is_disabled": 0, "fusion_lat": 0.0, "type": "electric_scooter", "name": "f79d374fc3743c198f99cb8c99d70f2c", "lat": 38.900069333333334, "bike_id": "f79d374fc3743c198f99cb8c99d70f2c"}, {"lon": -77.0365565, "rental_uris": {"android": "https://dc.lft.to/lastmile_qr_scan", "ios": "https://dc.lft.to/lastmile_qr_scan"}, "fusion_lon": 0.0, "is_reserved": 0, "is_disabled": 0, "fusion_lat": 0.0, "type": "electric_scooter", "name": "f5f8f23a1236638f4fb3928eaba91256", "lat": 38.92379733333333, "bike_id": "f5f8f23a1236638f4fb3928eaba91256"}, {"lon": -77.01035566666667, "rental_uris": {"android": "https://dc.lft.to/lastmile_qr_scan", "ios": "https://dc.lft.to/lastmile_qr_scan"}, "fusion_lon": 0.0, "is_reserved": 0, "is_disabled": 0, "fusion_lat": 0.0, "type": "electric_scooter", "name": "11559af59496b7281b3558a03344bdef", "lat": 38.920293666666666, "bike_id": "11559af59496b7281b3558a03344bdef"}, {"lon": -77.03653333333334, "rental_uris": {"android": "https://dc.lft.to/lastmile_qr_scan", "ios": "https://dc.lft.to/lastmile_qr_scan"}, "fusion_lon": 0.0, "is_reserved": 0, "is_disabled": 0, "fusion_lat": 0.0, "type": "electric_scooter", "name": "46bb0b4bfc65a95a39dc17af2fa2bcfb", "lat": 38.906636666666664, "bike_id": "46bb0b4bfc65a95a39dc17af2fa2bcfb"}, {"lon": -77.02636283333334, "rental_uris": {"android": "https://dc.lft.to/lastmile_qr_scan", "ios": "https://dc.lft.to/lastmile_qr_scan"}, "fusion_lon": 0.0, "is_reserved": 0, "is_disabled": 0, "fusion_lat": 0.0, "type": "electric_scooter", "name": "d41a9d05ce9c98a38b395a369a14b8c1", "lat": 38.940963333333336, "bike_id": "d41a9d05ce9c98a38b395a369a14b8c1"}, {"lon": -77.02135266666667, "rental_uris": {"android": "https://dc.lft.to/lastmile_qr_scan", "ios": "https://dc.lft.to/lastmile_qr_scan"}, "fusion_lon": 0.0, "is_reserved": 0, "is_disabled": 0, "fusion_lat": 0.0, "type": "electric_scooter", "name": "a0265b0793c476d587f16cbc1352fb1e", "lat": 38.93762066666667, "bike_id": "a0265b0793c476d587f16cbc1352fb1e"}, {"lon": -77.02382466666667, "rental_uris": {"android": "https://dc.lft.to/lastmile_qr_scan", "ios": "https://dc.lft.to/lastmile_qr_scan"}, "fusion_lon": 0.0, "is_reserved": 0, "is_disabled": 0, "fusion_lat": 0.0, "type": "electric_scooter", "name": "e97e256f2bbb8558ede1087773c5b736", "lat": 38.8873055, "bike_id": "e97e256f2bbb8558ede1087773c5b736"}, {"lon": -77.02376983333333, "rental_uris": {"android": "https://dc.lft.to/lastmile_qr_scan", "ios": "https://dc.lft.to/lastmile_qr_scan"}, "fusion_lon": 0.0, "is_reserved": 0, "is_disabled": 0, "fusion_lat": 0.0, "type": "electric_scooter", "name": "34b07dad3990520ad59954c98203428e", "lat": 38.8919685, "bike_id": "34b07dad3990520ad59954c98203428e"}, {"lon": -77.02781816666666, "rental_uris": {"android": "https://dc.lft.to/lastmile_qr_scan", "ios": "https://dc.lft.to/lastmile_qr_scan"}, "fusion_lon": 0.0, "is_reserved": 0, "is_disabled": 0, "fusion_lat": 0.0, "type": "electric_scooter", "name": "827bd076cdb802fd2180018cd5200b5d", "lat": 38.8921675, "bike_id": "827bd076cdb802fd2180018cd5200b5d"}, {"lon": -77.0093055, "rental_uris": {"android": "https://dc.lft.to/lastmile_qr_scan", "ios": "https://dc.lft.to/lastmile_qr_scan"},