{"data": {"bikes": [{"lon": -77.02481766666666, "bike_id": "ed33d9f92aea3ee1be961785c0f385b3", "lat": 38.90413316666667, "fusion_lon": 0.0, "fusion_lat": 0.0, "type": "electric_scooter", "name": "ed33d9f92aea3ee1be961785c0f385b3", "is_disabled": 0, "rental_uris": {"ios": "https://dc.lft.to/lastmile_qr_scan", "android": "https://dc.lft.to/lastmile_qr_scan"}, "is_reserved": 0}, {"lon": -76.91597416666667, "bike_id": "de1b32aa0d5c92e6e2c1304430e387b6", "lat": 38.8798085, "fusion_lon": 0.0, "fusion_lat": 0.0, "type": "electric_bike", "name": "de1b32aa0d5c92e6e2c1304430e387b6", "is_disabled": 0, "rental_uris": {"ios": "https://dc.lft.to/lastmile_qr_scan", "android": "https://dc.lft.to/lastmile_qr_scan"}, "is_reserved": 0}, {"lon": -76.99046233333334, "bike_id": "181b874c3761625c6a37b2c4cd4d7425", "lat": 38.88417966666667, "fusion_lon": 0.0, "fusion_lat": 0.0, "type": "electric_scooter", "name": "181b874c3761625c6a37b2c4cd4d7425", "is_disabled": 0, "rental_uris": {"ios": "https://dc.lft.to/lastmile_qr_scan", "android": "https://dc.lft.to/lastmile_qr_scan"}, "is_reserved": 0}, {"lon": -77.0213575, "bike_id": "36986aa232872a94f64ac722d7126ea0", "lat": 38.901886, "fusion_lon": 0.0, "fusion_lat": 0.0, "type": "electric_scooter", "name": "36986aa232872a94f64ac722d7126ea0", "is_disabled": 0, "rental_uris": {"ios": "https://dc.lft.to/lastmile_qr_scan", "android": "https://dc.lft.to/lastmile_qr_scan"}, "is_reserved": 0}, {"lon": -76.982282, "bike_id": "51986bd2b6f6a7a3eb642b8a5abf0162", "lat": 38.86629083333333, "fusion_lon": 0.0, "fusion_lat": 0.0, "type": "electric_scooter", "name": "51986bd2b6f6a7a3eb642b8a5abf0162", "is_disabled": 0, "rental_uris": {"ios": "https://dc.lft.to/lastmile_qr_scan", "android": "https://dc.lft.to/lastmile_qr_scan"}, "is_reserved": 0}, {"lon": -77.02940633333333, "bike_id": "dd19e3ad194a9d5fcd5ac615f37fb420", "lat": 38.90719033333333, "fusion_lon": 0.0, "fusion_lat": 0.0, "type": "electric_scooter", "name": "dd19e3ad194a9d5fcd5ac615f37fb420", "is_disabled": 0, "rental_uris": {"ios": "https://dc.lft.to/lastmile_qr_scan", "android": "https://dc.lft.to/lastmile_qr_scan"}, "is_reserved": 0}, {"lon": -77.03652516666666, "bike_id": "20781db3805bf48883ff746821ccc955", "lat": 38.9027, "fusion_lon": 0.0, "fusion_lat": 0.0, "type": "electric_scooter", "name": "20781db3805bf48883ff746821ccc955", "is_disabled": 0, "rental_uris": {"ios": "https://dc.lft.to/lastmile_qr_scan", "android": "https://dc.lft.to/lastmile_qr_scan"}, "is_reserved": 0}, {"lon": -77.038602, "bike_id": "e2bde9d470c52625e0f5e7524d6a83c4", "lat": 38.91561133333333, "fusion_lon": 0.0, "fusion_lat": 0.0, "type": "electric_scooter", "name": "e2bde9d470c52625e0f5e7524d6a83c4", "is_disabled": 0, "rental_uris": {"ios": "https://dc.lft.to/lastmile_qr_scan", "android": "https://dc.lft.to/lastmile_qr_scan"}, "is_reserved": 0}, {"lon": -77.02597983333334, "bike_id": "1367065e1276c0f7712bda862febccb8", "lat": 38.9050415, "fusion_lon": 0.0, "fusion_lat": 0.0, "type": "electric_scooter", "name": "1367065e1276c0f7712bda862febccb8", "is_disabled": 0, "rental_uris": {"ios": "https://dc.lft.to/lastmile_qr_scan", "android": "https://dc.lft.to/lastmile_qr_scan"}, "is_reserved": 0}, {"lon": -77.0604455, "bike_id": "f40924a34834220719d12ce06c536e97", "lat": 38.938257166666666, "fusion_lon": 0.0, "fusion_lat": 0.0, "type": "electric_scooter", "name": "f40924a34834220719d12ce06c536e97", "is_disabled": 0, "rental_uris": {"ios": "https://dc.lft.to/lastmile_qr_scan", "android": "https://dc.lft.to/lastmile_qr_scan"}, "is_reserved": 0}, {"lon": -77.12221366666667, "bike_id": "f9a26443456a4dff6465ee138e44f763", "lat": 38.8530165, "fusion_lon": 0.0, "fusion_lat": 0.0, "type": "electric_bike", "name": "f9a26443456a4dff6465ee138e44f763", "is_disabled": 0, "rental_uris": {"ios": "https://dc.lft.to/lastmile_qr_scan", "android": "https://dc.lft.to/lastmile_qr_scan"}, "is_reserved": 0}, {"lon": -76.99844916666666, "bike_id": "2b608d780fe2afb1b14255a754c91ac8", "lat": 38.90732083333333, "fusion_lon": 0.0, "fusion_lat": 0.0, "type": "electric_scooter", "name": "2b608d780fe2afb1b14255a754c91ac8", "is_disabled": 0, "rental_uris": {"ios": "https://dc.lft.to/lastmile_qr_scan", "android": "https://dc.lft.to/lastmile_qr_scan"}, "is_reserved": 0}, {"lon": -77.0000765, "bike_id": "f67cadd7cb9616b7c73b6d615c1ef1a2", "lat": 38.875042666666666, "fusion_lon": 0.0, "fusion_lat": 0.0, "type": "electric_scooter", "name": "f67cadd7cb9616b7c73b6d615c1ef1a2", "is_disabled": 0, "rental_uris": {"ios": "https://dc.lft.to/lastmile_qr_scan", "android": "https://dc.lft.to/lastmile_qr_scan"}, "is_reserved": 0}, {"lon": -77.04559066666667, "bike_id": "6fbc269e75fb5d5b3e176350a8fb34ff", "lat": 38.918313, "fusion_lon": 0.0, "fusion_lat": 0.0, "type": "electric_scooter", "name": "6fbc269e75fb5d5b3e176350a8fb34ff", "is_disabled": 0, "rental_uris": {"ios": "https://dc.lft.to/lastmile_qr_scan", "android": "https://dc.lft.to/lastmile_qr_scan"}, "is_reserved": 0}, {"lon": -77.01184483333333, "bike_id": "455a35337fedd2f491a3ea18f606a2b6", "lat": 38.915526166666666, "fusion_lon": 0.0, "fusion_lat": 0.0, "type": "electric_scooter", "name": "455a35337fedd2f491a3ea18f606a2b6", "is_disabled": 0, "rental_uris": {"ios": "https://dc.lft.to/lastmile_qr_scan", "android": "https://dc.lft.to/lastmile_qr_scan"}, "is_reserved": 0}, {"lon": -77.073475, "bike_id": "6f07b347fb221ad5824e72753626423c", "lat": 38.911040666666665, "fusion_lon": 0.0, "fusion_lat": 0.0, "type": "electric_scooter", "name": "6f07b347fb221ad5824e72753626423c", "is_disabled": 0, "rental_uris": {"ios": "https://dc.lft.to/lastmile_qr_scan", "android": "https://dc.lft.to/lastmile_qr_scan"}, "is_reserved": 0}, {"lon": -77.0215875, "bike_id": "1d08643b727abe9aeb7612162ede49a3", "lat": 38.90971283333333, "fusion_lon": 0.0, "fusion_lat": 0.0, "type": "electric_scooter", "name": "1d08643b727abe9aeb7612162ede49a3", "is_disabled": 0, "rental_uris": {"ios": "https://dc.lft.to/lastmile_qr_scan", "android": "https://dc.lft.to/lastmile_qr_scan"}, "is_reserved": 0}, {"lon": -76.954734, "bike_id": "d8cd5f62df759b3ecc6f7281675e2f3b", "lat": 38.886620666666666, "fusion_lon": 0.0, "fusion_lat": 0.0, "type": "electric_scooter", "name": "d8cd5f62df759b3ecc6f7281675e2f3b", "is_disabled": 0, "rental_uris": {"ios": "https://dc.lft.to/lastmile_qr_scan", "android": "https://dc.lft.to/lastmile_qr_scan"}, "is_reserved": 0}, {"lon": -77.0249765, "bike_id": "1fa580fa1ccce6e39591cf2a83f7b760", "lat": 38.92586133333333, "fusion_lon": 0.0, "fusion_lat": 0.0, "type": "electric_scooter", "name": "1fa580fa1ccce6e39591cf2a83f7b760", "is_disabled": 0, "rental_uris": {"ios": "https://dc.lft.to/lastmile_qr_scan", "android": "https://dc.lft.to/lastmile_qr_scan"}, "is_reserved": 0}, {"lon": -76.99887866666667, "bike_id": "8aa721fdb2d21b86baa974b21e2dde59", "lat": 38.9205395, "fusion_lon": 0.0, "fusion_lat": 0.0, "type": "electric_scooter", "name": "8aa721fdb2d21b86baa974b21e2dde59", "is_disabled": 0, "rental_uris": {"ios": "https://dc.lft.to/lastmile_qr_scan", "android": "https://dc.lft.to/lastmile_qr_scan"}, "is_reserved": 0}, {"lon": -77.00555716666666, "bike_id": "9c4a9624ec3c04dcc8f8d30826e81b70", "lat": 38.87471466666667, "fusion_lon": 0.0, "fusion_lat": 0.0, "type": "electric_scooter", "name": "9c4a9624ec3c04dcc8f8d30826e81b70", "is_disabled": 0, "rental_uris": {"ios": "https://dc.lft.to/lastmile_qr_scan", "android": "https://dc.lft.to/lastmile_qr_scan"}, "is_reserved": 0}, {"lon": -76.98667166666667, "bike_id": "274419aeaa91ea862c77f6b4ee245000", "lat": 38.867297666666666, "fusion_lon": 0.0, "fusion_lat": 0.0, "type": "electric_scooter", "name": "274419aeaa91ea862c77f6b4ee245000", "is_disabled": 0, "rental_uris": {"ios": "https://dc.lft.to/lastmile_qr_scan", "android": "https://dc.lft.to/lastmile_qr_scan"}, "is_reserved": 0}, {"lon": -77.03452466666667, "bike_id": "ea804d257d13ddda59c76ae5769c1f82", "lat": 38.934376666666665, "fusion_lon": 0.0, "fusion_lat": 0.0, "type": "electric_scooter", "name": "ea804d257d13ddda59c76ae5769c1f82", "is_disabled": 0, "rental_uris": {"ios": "https://dc.lft.to/lastmile_qr_scan", "android": "https://dc.lft.to/lastmile_qr_scan"}, "is_reserved": 0}, {"lon": -77.01153366666666, "bike_id": "0b7dd9cfa44ac89526c95e224a7f44d9", "lat": 38.895866, "fusion_lon": 0.0, "fusion_lat": 0.0, "type": "electric_scooter", "name": "0b7dd9cfa44ac89526c95e224a7f44d9", "is_disabled": 0, "rental_uris": {"ios": "https://dc.lft.to/lastmile_qr_scan", "android": "https://dc.lft.to/lastmile_qr_scan"}, "is_reserved": 0}, {"lon": -77.0489485, "bike_id": "94ac0dd2e577664bebbdde3c623c2dce", "lat": 38.892331666666664, "fusion_lon": 0.0, "fusion_lat": 0.0, "type": "electric_scooter", "name": "94ac0dd2e577664bebbdde3c623c2dce", "is_disabled": 0, "rental_uris": {"ios": "https://dc.lft.to/lastmile_qr_scan", "android": "https://dc.lft.to/lastmile_qr_scan"}, "is_reserved": 0}, {"lon": -77.0460115, "bike_id": "7a7e758415745202f7ab85d495332faa", "lat": 38.907663, "fusion_lon": 0.0, "fusion_lat": 0.0, "type": "electric_scooter", "name": "7a7e758415745202f7ab85d495332faa", "is_disabled": 0, "rental_uris": {"ios": "https://dc.lft.to/lastmile_qr_scan", "android": "https://dc.lft.to/lastmile_qr_scan"}, "is_reserved": 0}, {"lon": -77.032777, "bike_id": "52c8059c50aa39c35a7bc9b25899aa41", "lat": 38.934568, "fusion_lon": 0.0, "fusion_lat": 0.0, "type": "electric_scooter", "name": "52c8059c50aa39c35a7bc9b25899aa41", "is_disabled": 0, "rental_uris": {"ios": "https://dc.lft.to/lastmile_qr_scan", "android": "https://dc.lft.to/lastmile_qr_scan"}, "is_reserved": 0}, {"lon": -77.0481325, "bike_id": "fbd51d79fb32a68121e77ee7d25a71e4", "lat": 38.91640566666667, "fusion_lon": 0.0, "fusion_lat": 0.0, "type": "electric_scooter", "name": "fbd51d79fb32a68121e77ee7d25a71e4", "is_disabled": 0, "rental_uris": {"ios": "https://dc.lft.to/lastmile_qr_scan", "android": "https://dc.lft.to/lastmile_qr_scan"}, "is_reserved": 0}, {"lon": -77.028051, "bike_id": "42935f17e71e6ddbd603967c829dacdf", "lat": 38.88173316666666, "fusion_lon": 0.0, "fusion_lat": 0.0, "type": "electric_scooter", "name": "42935f17e71e6ddbd603967c829dacdf", "is_disabled": 0, "rental_uris": {"ios": "https://dc.lft.to/lastmile_qr_scan", "android": "https://dc.lft.to/lastmile_qr_scan"}, "is_reserved": 0}, {"lon": -76.99124833333333, "bike_id": "4d6c93e504c9d99c0c6314e133e2f4ee", "lat": 38.92268383333333, "fusion_lon": 0.0, "fusion_lat": 0.0, "type": "electric_scooter", "name": "4d6c93e504c9d99c0c6314e133e2f4ee", "is_disabled": 0, "rental_uris": {"ios": "https://dc.lft.to/lastmile_qr_scan", "android": "https://dc.lft.to/lastmile_qr_scan"}, "is_reserved": 0}, {"lon": -77.02681533333333, "bike_id": "f1e81e1f93e28e8643c1a07312e189d2", "lat": 38.9847075, "fusion_lon": 0.0, "fusion_lat": 0.0, "type": "electric_scooter", "name": "f1e81e1f93e28e8643c1a07312e189d2", "is_disabled": 0, "rental_uris": {"ios": "https://dc.lft.to/lastmile_qr_scan", "android": "https://dc.lft.to/lastmile_qr_scan"}, "is_reserved": 0}, {"lon": -77.02377416666667, "bike_id": "8fd0a1cdff46b22edb72dd527abfda64", "lat": 38.90208916666667, "fusion_lon": 0.0, "fusion_lat": 0.0, "type": "electric_scooter", "name": "8fd0a1cdff46b22edb72dd527abfda64", "is_disabled": 0, "rental_uris": {"ios": "https://dc.lft.to/lastmile_qr_scan", "android": "https://dc.lft.to/lastmile_qr_scan"}, "is_reserved": 0}, {"lon": -77.02004783333334, "bike_id": "938aaae92db10516bd0942774553e106", "lat": 38.9044925, "fusion_lon": 0.0, "fusion_lat": 0.0, "type": "electric_scooter", "name": "938aaae92db10516bd0942774553e106", "is_disabled": 0, "rental_uris": {"ios": "https://dc.lft.to/lastmile_qr_scan", "android": "https://dc.lft.to/lastmile_qr_scan"}, "is_reserved": 0}, {"lon": -77.03257316666667, "bike_id": "fcb1d9e747c1fc6468867278e496f6c2", "lat": 38.94271116666667, "fusion_lon": 0.0, "fusion_lat": 0.0, "type": "electric_scooter", "name": "fcb1d9e747c1fc6468867278e496f6c2", "is_disabled": 0, "rental_uris": {"ios": "https://dc.lft.to/lastmile_qr_scan", "android": "https://dc.lft.to/lastmile_qr_scan"}, "is_reserved": 0}, {"lon": -77.02978016666667, "bike_id": "df8f51118619f08f0c842bd1d575e25d", "lat": 38.92197083333333, "fusion_lon": 0.0, "fusion_lat": 0.0, "type": "electric_scooter", "name": "df8f51118619f08f0c842bd1d575e25d", "is_disabled": 0, "rental_uris": {"ios": "https://dc.lft.to/lastmile_qr_scan", "android": "https://dc.lft.to/lastmile_qr_scan"}, "is_reserved": 0}, {"lon": -76.9870545, "bike_id": "e96669dc87755beee89dba159f32a88e", "lat": 38.9001765, "fusion_lon": 0.0, "fusion_lat": 0.0, "type": "electric_scooter", "name": "e96669dc87755beee89dba159f32a88e", "is_disabled": 0, "rental_uris": {"ios": "https://dc.lft.to/lastmile_qr_scan", "android": "https://dc.lft.to/lastmile_qr_scan"}, "is_reserved": 0}, {"lon": -77.0365245, "bike_id": "4a31ee20dbb9818a9c993abf674b68ea", "lat": 38.93633116666667, "fusion_lon": 0.0, "fusion_lat": 0.0, "type": "electric_bike", "name": "4a31ee20dbb9818a9c993abf674b68ea", "is_disabled": 0, "rental_uris": {"ios": "https://dc.lft.to/lastmile_qr_scan", "android": "https://dc.lft.to/lastmile_qr_scan"}, "is_reserved": 0}, {"lon": -77.03426866666666, "bike_id": "5b6cf0502eb2aa2cea010f80bec591a3", "lat": 38.902836, "fusion_lon": 0.0, "fusion_lat": 0.0, "type": "electric_scooter", "name": "5b6cf0502eb2aa2cea010f80bec591a3", "is_disabled": 0, "rental_uris": {"ios": "https://dc.lft.to/lastmile_qr_scan", "android": "https://dc.lft.to/lastmile_qr_scan"}, "is_reserved": 0}, {"lon": -77.012173, "bike_id": "719ff70a0060ae019450fc59deab398c", "lat": 38.91436233333334, "fusion_lon": 0.0, "fusion_lat": 0.0, "type": "electric_scooter", "name": "719ff70a0060ae019450fc59deab398c", "is_disabled": 0, "rental_uris": {"ios": "https://dc.lft.to/lastmile_qr_scan", "android": "https://dc.lft.to/lastmile_qr_scan"}, "is_reserved": 0}, {"lon": -77.02441983333334, "bike_id": "a683e3fdf101dae5f5487895f8e22895", "lat": 38.9249295, "fusion_lon": 0.0, "fusion_lat": 0.0, "type": "electric_scooter", "name": "a683e3fdf101dae5f5487895f8e22895", "is_disabled": 0, "rental_uris": {"ios": "https://dc.lft.to/lastmile_qr_scan", "android": "https://dc.lft.to/lastmile_qr_scan"}, "is_reserved": 0}, {"lon": -76.99544933333334, "bike_id": "955ed7aad96d4f81de14f41b14bea7da", "lat": 38.862649, "fusion_lon": 0.0, "fusion_lat": 0.0, "type": "electric_scooter", "name": "955ed7aad96d4f81de14f41b14bea7da", "is_disabled": 0, "rental_uris": {"ios": "https://dc.lft.to/lastmile_qr_scan", "android": "https://dc.lft.to/lastmile_qr_scan"}, "is_reserved": 0}, {"lon": -76.96381683333334, "bike_id": "70576d8db4a2df931b3c42220b2df57e", "lat": 38.9518035, "fusion_lon": 0.0, "fusion_lat": 0.0, "type": "electric_bike", "name": "70576d8db4a2df931b3c42220b2df57e", "is_disabled": 0, "rental_uris": {"ios": "https://dc.lft.to/lastmile_qr_scan", "android": "https://dc.lft.to/lastmile_qr_scan"}, "is_reserved": 0}, {"lon": -77.00030683333334, "bike_id": "7232b6bdd750a727126560d5689ecb29", "lat": 38.90861566666667, "fusion_lon": 0.0, "fusion_lat": 0.0, "type": "electric_scooter", "name": "7232b6bdd750a727126560d5689ecb29", "is_disabled": 0, "rental_uris": {"ios": "https://dc.lft.to/lastmile_qr_scan", "android": "https://dc.lft.to/lastmile_qr_scan"}, "is_reserved": 0}, {"lon": -77.03653133333333, "bike_id": "38ea7a97c256e3dc388c8b831513d022", "lat": 38.936320333333335, "fusion_lon": 0.0, "fusion_lat": 0.0, "type": "electric_scooter", "name": "38ea7a97c256e3dc388c8b831513d022", "is_disabled": 0, "rental_uris": {"ios": "https://dc.lft.to/lastmile_qr_scan", "android": "https://dc.lft.to/lastmile_qr_scan"}, "is_reserved": 0}, {"lon": -77.03623533333334, "bike_id": "4b0c3fcd104f44b2b28b0d8e156034d4", "lat": 38.9125215, "fusion_lon": 0.0, "fusion_lat": 0.0, "type": "electric_scooter", "name": "4b0c3fcd104f44b2b28b0d8e156034d4", "is_disabled": 0, "rental_uris": {"ios": "https://dc.lft.to/lastmile_qr_scan", "android": "https://dc.lft.to/lastmile_qr_scan"}, "is_reserved": 0}, {"lon": -77.01515083333334, "bike_id": "d486085c4b7567fce7bde641b559839c", "lat": 38.8924125, "fusion_lon": 0.0, "fusion_lat": 0.0, "type": "electric_scooter", "name": "d486085c4b7567fce7bde641b559839c", "is_disabled": 0, "rental_uris": {"ios": "https://dc.lft.to/lastmile_qr_scan", "android": "https://dc.lft.to/lastmile_qr_scan"}, "is_reserved": 0}, {"lon": -77.01766283333333, "bike_id": "a7ff19bbfad3b04ee54b302be8c824e7", "lat": 38.88587066666667, "fusion_lon": 0.0, "fusion_lat": 0.0, "type": "electric_scooter", "name": "a7ff19bbfad3b04ee54b302be8c824e7", "is_disabled": 0, "rental_uris": {"ios": "https://dc.lft.to/lastmile_qr_scan", "android": "https://dc.lft.to/lastmile_qr_scan"}, "is_reserved": 0}, {"lon": -77.02724083333334, "bike_id": "076d6b9b3ac635e9af8110e563a2b5c3", "lat": 38.905568833333334, "fusion_lon": 0.0, "fusion_lat": 0.0, "type": "electric_scooter", "name": "076d6b9b3ac635e9af8110e563a2b5c3", "is_disabled": 0, "rental_uris": {"ios": "https://dc.lft.to/lastmile_qr_scan", "android": "https://dc.lft.to/lastmile_qr_scan"}, "is_reserved": 0}, {"lon": -77.04375483333334, "bike_id": "b3196f76bede6d2f6bab2d680c86ebfb", "lat": 38.921124166666665, "fusion_lon": 0.0, "fusion_lat": 0.0, "type": "electric_scooter", "name": "b3196f76bede6d2f6bab2d680c86ebfb", "is_disabled": 0, "rental_uris": {"ios": "https://dc.lft.to/lastmile_qr_scan", "android": "https://dc.lft.to/lastmile_qr_scan"}, "is_reserved": 0}, {"lon": -77.06733833333334, "bike_id": "5f247542094683ca9c6613ecc7d5239c", "lat": 38.903497333333334, "fusion_lon": 0.0, "fusion_lat": 0.0, "type": "electric_scooter", "name": "5f247542094683ca9c6613ecc7d5239c", "is_disabled": 0, "rental_uris": {"ios": "https://dc.lft.to/lastmile_qr_scan", "android": "https://dc.lft.to/lastmile_qr_scan"}, "is_reserved": 0}, {"lon": -77.03270866666666, "bike_id": "f1dd80cf9bbc1626e8b1b8ea5088e19f", "lat": 38.927627, "fusion_lon": 0.0, "fusion_lat": 0.0, "type": "electric_scooter", "name": "f1dd80cf9bbc1626e8b1b8ea5088e19f", "is_disabled": 0, "rental_uris": {"ios": "https://dc.lft.to/lastmile_qr_scan", "android": "https://dc.lft.to/lastmile_qr_scan"}, "is_reserved": 0}, {"lon": -77.03090716666667, "bike_id": "00f72ff27d3c3e8a32cbe7241c31fb09", "lat": 38.9339355, "fusion_lon": 0.0, "fusion_lat": 0.0, "type": "electric_scooter", "name": "00f72ff27d3c3e8a32cbe7241c31fb09", "is_disabled": 0, "rental_uris": {"ios": "https://dc.lft.to/lastmile_qr_scan", "android": "https://dc.lft.to/lastmile_qr_scan"}, "is_reserved": 0}, {"lon": -76.99933933333334, "bike_id": "a6089d68a1dcd03e34b805d6cbd728aa", "lat": 38.903620833333335, "fusion_lon": 0.0, "fusion_lat": 0.0, "type": "electric_scooter", "name": "a6089d68a1dcd03e34b805d6cbd728aa", "is_disabled": 0, "rental_uris": {"ios": "https://dc.lft.to/lastmile_qr_scan", "android": "https://dc.lft.to/lastmile_qr_scan"}, "is_reserved": 0}, {"lon": -77.03340566666667, "bike_id": "ee7f71c76531ab338eef2d10a2220d26", "lat": 38.920558, "fusion_lon": 0.0, "fusion_lat": 0.0, "type": "electric_scooter", "name": "ee7f71c76531ab338eef2d10a2220d26", "is_disabled": 0, "rental_uris": {"ios": "https://dc.lft.to/lastmile_qr_scan", "android": "https://dc.lft.to/lastmile_qr_scan"}, "is_reserved": 0}, {"lon": -77.0342695, "bike_id": "7067b03a21c84949a6d4cfc7a4b2fec1", "lat": 38.92741916666667, "fusion_lon": 0.0, "fusion_lat": 0.0, "type": "electric_scooter", "name": "7067b03a21c84949a6d4cfc7a4b2fec1", "is_disabled": 0, "rental_uris": {"ios": "https://dc.lft.to/lastmile_qr_scan", "android": "https://dc.lft.to/lastmile_qr_scan"}, "is_reserved": 0}, {"lon": -77.01051833333334, "bike_id": "b8468027c3c41c078a02015b031a1741", "lat": 38.963412166666664, "fusion_lon": 0.0, "fusion_lat": 0.0, "type": "electric_scooter", "name": "b8468027c3c41c078a02015b031a1741", "is_disabled": 0, "rental_uris": {"ios": "https://dc.lft.to/lastmile_qr_scan", "android": "https://dc.lft.to/lastmile_qr_scan"}, "is_reserved": 0}, {"lon": -77.02599583333334, "bike_id": "2b7ba4b94a6b5132cda30588d576c66a", "lat": 38.927989, "fusion_lon": 0.0, "fusion_lat": 0.0, "type": "electric_scooter", "name": "2b7ba4b94a6b5132cda30588d576c66a", "is_disabled": 0, "rental_uris": {"ios": "https://dc.lft.to/lastmile_qr_scan", "android": "https://dc.lft.to/lastmile_qr_scan"}, "is_reserved": 0}, {"lon": -77.11913283333334, "bike_id": "672b011a073400370152bb2df58f196f", "lat": 38.8763365, "fusion_lon": 0.0, "fusion_lat": 0.0, "type": "electric_bike", "name": "672b011a073400370152bb2df58f196f", "is_disabled": 0, "rental_uris": {"ios": "https://dc.lft.to/lastmile_qr_scan", "android": "https://dc.lft.to/lastmile_qr_scan"}, "is_reserved": 0}, {"lon": -77.07811366666667, "bike_id": "adc3f42ee7ae44a79f461c35dccab86b", "lat": 38.92456583333333, "fusion_lon": 0.0, "fusion_lat": 0.0, "type": "electric_scooter", "name": "adc3f42ee7ae44a79f461c35dccab86b", "is_disabled": 0, "rental_uris": {"ios": "https://dc.lft.to/lastmile_qr_scan", "android": "https://dc.lft.to/lastmile_qr_scan"}, "is_reserved": 0}, {"lon": -77.070124, "bike_id": "f5c606b9f81d8d1466303c10ee70498d", "lat": 38.905804833333335, "fusion_lon": 0.0, "fusion_lat": 0.0, "type": "electric_bike", "name": "f5c606b9f81d8d1466303c10ee70498d", "is_disabled": 0, "rental_uris": {"ios": "https://dc.lft.to/lastmile_qr_scan", "android": "https://dc.lft.to/lastmile_qr_scan"}, "is_reserved": 0}, {"lon": -77.039672, "bike_id": "81bd9f8ad908a1a479b657eb95f66813", "lat": 38.92317333333333, "fusion_lon": 0.0, "fusion_lat": 0.0, "type": "electric_scooter", "name": "81bd9f8ad908a1a479b657eb95f66813", "is_disabled": 0, "rental_uris": {"ios": "https://dc.lft.to/lastmile_qr_scan", "android": "https://dc.lft.to/lastmile_qr_scan"}, "is_reserved": 0}, {"lon": -77.0056285, "bike_id": "70541f931d499048099490d7b81cad04", "lat": 38.87678016666667, "fusion_lon": 0.0, "fusion_lat": 0.0, "type": "electric_scooter", "name": "70541f931d499048099490d7b81cad04", "is_disabled": 0, "rental_uris": {"ios": "https://dc.lft.to/lastmile_qr_scan", "android": "https://dc.lft.to/lastmile_qr_scan"}, "is_reserved": 0}, {"lon": -77.053344, "bike_id": "387ca54cc1c4cb17585639dee0c7f8bf", "lat": 38.89877766666667, "fusion_lon": 0.0, "fusion_lat": 0.0, "type": "electric_scooter", "name": "387ca54cc1c4cb17585639dee0c7f8bf", "is_disabled": 0, "rental_uris": {"ios": "https://dc.lft.to/lastmile_qr_scan", "android": "https://dc.lft.to/lastmile_qr_scan"}, "is_reserved": 0}, {"lon": -77.01770066666667, "bike_id": "bb528a711eb7dc0003d3f95f6e8c838e", "lat": 38.8722235, "fusion_lon": 0.0, "fusion_lat": 0.0, "type": "electric_scooter", "name": "bb528a711eb7dc0003d3f95f6e8c838e", "is_disabled": 0, "rental_uris": {"ios": "https://dc.lft.to/lastmile_qr_scan", "android": "https://dc.lft.to/lastmile_qr_scan"}, "is_reserved": 0}, {"lon": -77.02031166666667, "bike_id": "5402b792afb4e71da41f1e895131f77b", "lat": 38.9165325, "fusion_lon": 0.0, "fusion_lat": 0.0, "type": "electric_scooter", "name": "5402b792afb4e71da41f1e895131f77b", "is_disabled": 0, "rental_uris": {"ios": "https://dc.lft.to/lastmile_qr_scan", "android": "https://dc.lft.to/lastmile_qr_scan"}, "is_reserved": 0}, {"lon": -77.00913783333333, "bike_id": "a9e8779ecd8f9e62901c2401d9fd5a8f", "lat": 38.910640666666666, "fusion_lon": 0.0, "fusion_lat": 0.0, "type": "electric_scooter", "name": "a9e8779ecd8f9e62901c2401d9fd5a8f", "is_disabled": 0, "rental_uris": {"ios": "https://dc.lft.to/lastmile_qr_scan", "android": "https://dc.lft.to/lastmile_qr_scan"}, "is_reserved": 0}, {"lon": -77.00220683333333, "bike_id": "d9af80289a7aed9cc69c14ae319d1554", "lat": 38.902428666666665, "fusion_lon": 0.0, "fusion_lat": 0.0, "type": "electric_scooter", "name": "d9af80289a7aed9cc69c14ae319d1554", "is_disabled": 0, "rental_uris": {"ios": "https://dc.lft.to/lastmile_qr_scan", "android": "https://dc.lft.to/lastmile_qr_scan"}, "is_reserved": 0}, {"lon": -77.02980666666667, "bike_id": "cb631aca6e7ee4de4ed9a64676bdbf52", "lat": 38.92194716666667, "fusion_lon": 0.0, "fusion_lat": 0.0, "type": "electric_scooter", "name": "cb631aca6e7ee4de4ed9a64676bdbf52", "is_disabled": 0, "rental_uris": {"ios": "https://dc.lft.to/lastmile_qr_scan", "android": "https://dc.lft.to/lastmile_qr_scan"}, "is_reserved": 0}, {"lon": -77.01250833333333, "bike_id": "e55e74857b1a03d1a39bd579a6050080", "lat": 38.915737, "fusion_lon": 0.0, "fusion_lat": 0.0, "type": "electric_scooter", "name": "e55e74857b1a03d1a39bd579a6050080", "is_disabled": 0, "rental_uris": {"ios": "https://dc.lft.to/lastmile_qr_scan", "android": "https://dc.lft.to/lastmile_qr_scan"}, "is_reserved": 0}, {"lon": -77.04835266666667, "bike_id": "b50ef070821d6ec296bba7d5eba4936c", "lat": 38.8972865, "fusion_lon": 0.0, "fusion_lat": 0.0, "type": "electric_scooter", "name": "b50ef070821d6ec296bba7d5eba4936c", "is_disabled": 0, "rental_uris": {"ios": "https://dc.lft.to/lastmile_qr_scan", "android": "https://dc.lft.to/lastmile_qr_scan"}, "is_reserved": 0}, {"lon": -77.02210716666667, "bike_id": "cf51060f37f896c90c3fd0723378c18a", "lat": 38.9105295, "fusion_lon": 0.0, "fusion_lat": 0.0, "type": "electric_scooter", "name": "cf51060f37f896c90c3fd0723378c18a", "is_disabled": 0, "rental_uris": {"ios": "https://dc.lft.to/lastmile_qr_scan", "android": "https://dc.lft.to/lastmile_qr_scan"}, "is_reserved": 0}, {"lon": -77.01201533333334, "bike_id": "712eff0a07c0dcd056fba6df0d53efe8", "lat": 38.900045666666664, "fusion_lon": 0.0, "fusion_lat": 0.0, "type": "electric_scooter", "name": "712eff0a07c0dcd056fba6df0d53efe8", "is_disabled": 0, "rental_uris": {"ios": "https://dc.lft.to/lastmile_qr_scan", "android": "https://dc.lft.to/lastmile_qr_scan"}, "is_reserved": 0}, {"lon": -77.02379566666667, "bike_id": "2b87e337556f0bd71ac92f00958dfbeb", "lat": 38.90961383333333, "fusion_lon": 0.0, "fusion_lat": 0.0, "type": "electric_scooter", "name": "2b87e337556f0bd71ac92f00958dfbeb", "is_disabled": 0, "rental_uris": {"ios": "https://dc.lft.to/lastmile_qr_scan", "android": "https://dc.lft.to/lastmile_qr_scan"}, "is_reserved": 0}, {"lon": -77.03230283333333, "bike_id": "5ae41fd560b3770a16f5d2e902ae9309", "lat": 38.914071, "fusion_lon": 0.0, "fusion_lat": 0.0, "type": "electric_scooter", "name": "5ae41fd560b3770a16f5d2e902ae9309", "is_disabled": 0, "rental_uris": {"ios": "https://dc.lft.to/lastmile_qr_scan", "android": "https://dc.lft.to/lastmile_qr_scan"}, "is_reserved": 0}, {"lon": -77.03470783333333, "bike_id": "b1843cc584384ade9c430287da09e1d2", "lat": 38.934423833333334, "fusion_lon": 0.0, "fusion_lat": 0.0, "type": "electric_scooter", "name": "b1843cc584384ade9c430287da09e1d2", "is_disabled": 0, "rental_uris": {"ios": "https://dc.lft.to/lastmile_qr_scan", "android": "https://dc.lft.to/lastmile_qr_scan"}, "is_reserved": 0}, {"lon": -77.03441666666667, "bike_id": "5cced8cecd31fbb0e279ffad27e9667c", "lat": 38.909530333333336, "fusion_lon": 0.0, "fusion_lat": 0.0, "type": "electric_scooter", "name": "5cced8cecd31fbb0e279ffad27e9667c", "is_disabled": 0, "rental_uris": {"ios": "https://dc.lft.to/lastmile_qr_scan", "android": "https://dc.lft.to/lastmile_qr_scan"}, "is_reserved": 0}, {"lon": -76.9967725, "bike_id": "fe381d772ea60e421323487354edbf74", "lat": 38.881211666666665, "fusion_lon": 0.0, "fusion_lat": 0.0, "type": "electric_scooter", "name": "fe381d772ea60e421323487354edbf74", "is_disabled": 0, "rental_uris": {"ios": "https://dc.lft.to/lastmile_qr_scan", "android": "https://dc.lft.to/lastmile_qr_scan"}, "is_reserved": 0}, {"lon": -77.0199615, "bike_id": "b811aad5ccb4500f17df9026b7769c81", "lat": 38.91141066666667, "fusion_lon": 0.0, "fusion_lat": 0.0, "type": "electric_scooter", "name": "b811aad5ccb4500f17df9026b7769c81", "is_disabled": 0, "rental_uris": {"ios": "https://dc.lft.to/lastmile_qr_scan", "android": "https://dc.lft.to/lastmile_qr_scan"}, "is_reserved": 0}, {"lon": -77.11711783333334, "bike_id": "000fa70ec0d28d9587c897d5c94e884a", "lat": 38.867454333333335, "fusion_lon": 0.0, "fusion_lat": 0.0, "type": "electric_bike", "name": "000fa70ec0d28d9587c897d5c94e884a", "is_disabled": 0, "rental_uris": {"ios": "https://dc.lft.to/lastmile_qr_scan", "android": "https://dc.lft.to/lastmile_qr_scan"}, "is_reserved": 0}, {"lon": -77.04743916666666, "bike_id": "2a7cc40ec45e99ecceb0b056e30134e7", "lat": 38.91770533333333, "fusion_lon": 0.0, "fusion_lat": 0.0, "type": "electric_scooter", "name": "2a7cc40ec45e99ecceb0b056e30134e7", "is_disabled": 0, "rental_uris": {"ios": "https://dc.lft.to/lastmile_qr_scan", "android": "https://dc.lft.to/lastmile_qr_scan"}, "is_reserved": 0}, {"lon": -76.98531516666667, "bike_id": "2d28b517081f6a3b4ca6f1ba206af2e9", "lat": 38.904571833333335, "fusion_lon": 0.0, "fusion_lat": 0.0, "type": "electric_scooter", "name": "2d28b517081f6a3b4ca6f1ba206af2e9", "is_disabled": 0, "rental_uris": {"ios": "https://dc.lft.to/lastmile_qr_scan", "android": "https://dc.lft.to/lastmile_qr_scan"}, "is_reserved": 0}, {"lon": -77.02466283333334, "bike_id": "5389aa9973108804819c636c47c4f2e6", "lat": 38.92084916666667, "fusion_lon": 0.0, "fusion_lat": 0.0, "type": "electric_scooter", "name": "5389aa9973108804819c636c47c4f2e6", "is_disabled": 0, "rental_uris": {"ios": "https://dc.lft.to/lastmile_qr_scan", "android": "https://dc.lft.to/lastmile_qr_scan"}, "is_reserved": 0}, {"lon": -77.0481985, "bike_id": "77ad26eecb81ec709cb72147a11a8e4f", "lat": 38.907246666666666, "fusion_lon": 0.0, "fusion_lat": 0.0, "type": "electric_scooter", "name": "77ad26eecb81ec709cb72147a11a8e4f", "is_disabled": 0, "rental_uris": {"ios": "https://dc.lft.to/lastmile_qr_scan", "android": "https://dc.lft.to/lastmile_qr_scan"}, "is_reserved": 0}, {"lon": -77.01786283333334, "bike_id": "99c4712d2d759ab90ccc23095fe747c6", "lat": 38.92130933333333, "fusion_lon": 0.0, "fusion_lat": 0.0, "type": "electric_scooter", "name": "99c4712d2d759ab90ccc23095fe747c6", "is_disabled": 0, "rental_uris": {"ios": "https://dc.lft.to/lastmile_qr_scan", "android": "https://dc.lft.to/lastmile_qr_scan"}, "is_reserved": 0}, {"lon": -77.05520633333333, "bike_id": "336a5b932334ac25faa84542b0d359ff", "lat": 38.929695333333335, "fusion_lon": 0.0, "fusion_lat": 0.0, "type": "electric_scooter", "name": "336a5b932334ac25faa84542b0d359ff", "is_disabled": 0, "rental_uris": {"ios": "https://dc.lft.to/lastmile_qr_scan", "android": "https://dc.lft.to/lastmile_qr_scan"}, "is_reserved": 0}, {"lon": -77.0384365, "bike_id": "dd642ba0a39e34b647aa42308c29c034", "lat": 38.906872, "fusion_lon": 0.0, "fusion_lat": 0.0, "type": "electric_scooter", "name": "dd642ba0a39e34b647aa42308c29c034", "is_disabled": 0, "rental_uris": {"ios": "https://dc.lft.to/lastmile_qr_scan", "android": "https://dc.lft.to/lastmile_qr_scan"}, "is_reserved": 0}, {"lon": -77.02980066666667, "bike_id": "716ef9928aae74712e4be75698b9c53f", "lat": 38.897103, "fusion_lon": 0.0, "fusion_lat": 0.0, "type": "electric_scooter", "name": "716ef9928aae74712e4be75698b9c53f", "is_disabled": 0, "rental_uris": {"ios": "https://dc.lft.to/lastmile_qr_scan", "android": "https://dc.lft.to/lastmile_qr_scan"}, "is_reserved": 0}, {"lon": -77.02982566666667, "bike_id": "37a42158169d7a15f2147775aa6c8a98", "lat": 38.907351166666665, "fusion_lon": 0.0, "fusion_lat": 0.0, "type": "electric_scooter", "name": "37a42158169d7a15f2147775aa6c8a98", "is_disabled": 0, "rental_uris": {"ios": "https://dc.lft.to/lastmile_qr_scan", "android": "https://dc.lft.to/lastmile_qr_scan"}, "is_reserved": 0}, {"lon": -77.02713966666667, "bike_id": "7c01918a4a691f89da2c5cd1c220fdb7", "lat": 38.906666, "fusion_lon": 0.0, "fusion_lat": 0.0, "type": "electric_scooter", "name": "7c01918a4a691f89da2c5cd1c220fdb7", "is_disabled": 0, "rental_uris": {"ios": "https://dc.lft.to/lastmile_qr_scan", "android": "https://dc.lft.to/lastmile_qr_scan"}, "is_reserved": 0}, {"lon": -77.01346366666667, "bike_id": "7a34429a36078c71b14b7c2ff282f091", "lat": 38.87812233333333, "fusion_lon": 0.0, "fusion_lat": 0.0, "type": "electric_scooter", "name": "7a34429a36078c71b14b7c2ff282f091", "is_disabled": 0, "rental_uris": {"ios": "https://dc.lft.to/lastmile_qr_scan", "android": "https://dc.lft.to/lastmile_qr_scan"}, "is_reserved": 0}, {"lon": -77.00097416666667, "bike_id": "7e3f04a0b2646c00b06875bc67d35760", "lat": 38.916332, "fusion_lon": 0.0, "fusion_lat": 0.0, "type": "electric_scooter", "name": "7e3f04a0b2646c00b06875bc67d35760", "is_disabled": 0, "rental_uris": {"ios": "https://dc.lft.to/lastmile_qr_scan", "android": "https://dc.lft.to/lastmile_qr_scan"}, "is_reserved": 0}, {"lon": -77.03286566666667, "bike_id": "8e9d3738f3802e60f31a0afe0e1ad2ab", "lat": 38.9285505, "fusion_lon": 0.0, "fusion_lat": 0.0, "type": "electric_scooter", "name": "8e9d3738f3802e60f31a0afe0e1ad2ab", "is_disabled": 0, "rental_uris": {"ios": "https://dc.lft.to/lastmile_qr_scan", "android": "https://dc.lft.to/lastmile_qr_scan"}, "is_reserved": 0}, {"lon": -77.04279983333333, "bike_id": "daba5ab8fb3334a2ee6601ce04f01ecc", "lat": 38.922463, "fusion_lon": 0.0, "fusion_lat": 0.0, "type": "electric_scooter", "name": "daba5ab8fb3334a2ee6601ce04f01ecc", "is_disabled": 0, "rental_uris": {"ios": "https://dc.lft.to/lastmile_qr_scan", "android": "https://dc.lft.to/lastmile_qr_scan"}, "is_reserved": 0}, {"lon": -77.04609183333334, "bike_id": "f76fbcdf99c2189c3bb28c742f8adff5", "lat": 38.905465, "fusion_lon": 0.0, "fusion_lat": 0.0, "type": "electric_scooter", "name": "f76fbcdf99c2189c3bb28c742f8adff5", "is_disabled": 0, "rental_uris": {"ios": "https://dc.lft.to/lastmile_qr_scan", "android": "https://dc.lft.to/lastmile_qr_scan"}, "is_reserved": 0}, {"lon": -77.0274175, "bike_id": "9d70869d6efe2c3a7771cf468b801e62", "lat": 38.9277105, "fusion_lon": 0.0, "fusion_lat": 0.0, "type": "electric_scooter", "name": "9d70869d6efe2c3a7771cf468b801e62", "is_disabled": 0, "rental_uris": {"ios": "https://dc.lft.to/lastmile_qr_scan", "android": "https://dc.lft.to/lastmile_qr_scan"}, "is_reserved": 0}, {"lon": -77.02412116666666, "bike_id": "07946226058a7a5fad2a24618fb0a008", "lat": 38.917880333333336, "fusion_lon": 0.0, "fusion_lat": 0.0, "type": "electric_scooter", "name": "07946226058a7a5fad2a24618fb0a008", "is_disabled": 0, "rental_uris": {"ios": "https://dc.lft.to/lastmile_qr_scan", "android": "https://dc.lft.to/lastmile_qr_scan"}, "is_reserved": 0}, {"lon": -77.029544, "bike_id": "6405013988846eb72b74f319a5236534", "lat": 38.912499, "fusion_lon": 0.0, "fusion_lat": 0.0, "type": "electric_scooter", "name": "6405013988846eb72b74f319a5236534", "is_disabled": 0, "rental_uris": {"ios": "https://dc.lft.to/lastmile_qr_scan", "android": "https://dc.lft.to/lastmile_qr_scan"}, "is_reserved": 0}, {"lon": -77.03651133333334, "bike_id": "743390340cd24b47632187e21d6d46d3", "lat": 38.902671833333336, "fusion_lon": 0.0, "fusion_lat": 0.0, "type": "electric_scooter", "name": "743390340cd24b47632187e21d6d46d3", "is_disabled": 0, "rental_uris": {"ios": "https://dc.lft.to/lastmile_qr_scan", "android": "https://dc.lft.to/lastmile_qr_scan"}, "is_reserved": 0}, {"lon": -77.024832, "bike_id": "d60e6ebfb238b481672bcd58a89b4bcf", "lat": 38.901672833333336, "fusion_lon": 0.0, "fusion_lat": 0.0, "type": "electric_scooter", "name": "d60e6ebfb238b481672bcd58a89b4bcf", "is_disabled": 0, "rental_uris": {"ios": "https://dc.lft.to/lastmile_qr_scan", "android": "https://dc.lft.to/lastmile_qr_scan"}, "is_reserved": 0}, {"lon": -77.04218283333333, "bike_id": "f91a37c8cf95d81b7f4aeaa652d89b18", "lat": 38.91118266666667, "fusion_lon": 0.0, "fusion_lat": 0.0, "type": "electric_scooter", "name": "f91a37c8cf95d81b7f4aeaa652d89b18", "is_disabled": 0, "rental_uris": {"ios": "https://dc.lft.to/lastmile_qr_scan", "android": "https://dc.lft.to/lastmile_qr_scan"}, "is_reserved": 0}, {"lon": -77.02287283333334, "bike_id": "4527bb42dbb4032eabfdadb5d95c69a9", "lat": 38.916353, "fusion_lon": 0.0, "fusion_lat": 0.0, "type": "electric_scooter", "name": "4527bb42dbb4032eabfdadb5d95c69a9", "is_disabled": 0, "rental_uris": {"ios": "https://dc.lft.to/lastmile_qr_scan", "android": "https://dc.lft.to/lastmile_qr_scan"}, "is_reserved": 0}, {"lon": -77.02362283333333, "bike_id": "8d012be09149cec126750d03c80d3cad", "lat": 38.89222933333333, "fusion_lon": 0.0, "fusion_lat": 0.0, "type": "electric_scooter", "name": "8d012be09149cec126750d03c80d3cad", "is_disabled": 0, "rental_uris": {"ios": "https://dc.lft.to/lastmile_qr_scan", "android": "https://dc.lft.to/lastmile_qr_scan"}, "is_reserved": 0}, {"lon": -76.9884015, "bike_id": "4f99bbbbc2d070a11a7705bda8d51e28", "lat": 38.842794833333336, "fusion_lon": 0.0, "fusion_lat": 0.0, "type": "electric_bike", "name": "4f99bbbbc2d070a11a7705bda8d51e28", "is_disabled": 0, "rental_uris": {"ios": "https://dc.lft.to/lastmile_qr_scan", "android": "https://dc.lft.to/lastmile_qr_scan"}, "is_reserved": 0}, {"lon": -77.05730866666667, "bike_id": "e81864fd1fdc856a94b27702c4661741", "lat": 38.93369766666667, "fusion_lon": 0.0, "fusion_lat": 0.0, "type": "electric_scooter", "name": "e81864fd1fdc856a94b27702c4661741", "is_disabled": 0, "rental_uris": {"ios": "https://dc.lft.to/lastmile_qr_scan", "android": "https://dc.lft.to/lastmile_qr_scan"}, "is_reserved": 0}, {"lon": -76.970541, "bike_id": "c1f0e0c1df0c2d9dd01a454839e81a3e", "lat": 38.897737166666666, "fusion_lon": 0.0, "fusion_lat": 0.0, "type": "electric_scooter", "name": "c1f0e0c1df0c2d9dd01a454839e81a3e", "is_disabled": 0, "rental_uris": {"ios": "https://dc.lft.to/lastmile_qr_scan", "android": "https://dc.lft.to/lastmile_qr_scan"}, "is_reserved": 0}, {"lon": -77.00145416666666, "bike_id": "02711b1be4b9987eccf96f828080d5cd", "lat": 38.889930166666666, "fusion_lon": 0.0, "fusion_lat": 0.0, "type": "electric_scooter", "name": "02711b1be4b9987eccf96f828080d5cd", "is_disabled": 0, "rental_uris": {"ios": "https://dc.lft.to/lastmile_qr_scan", "android": "https://dc.lft.to/lastmile_qr_scan"}, "is_reserved": 0}, {"lon": -77.000439, "bike_id": "c5c856337c6af27ad007204910437111", "lat": 38.92395066666667, "fusion_lon": 0.0, "fusion_lat": 0.0, "type": "electric_scooter", "name": "c5c856337c6af27ad007204910437111", "is_disabled": 0, "rental_uris": {"ios": "https://dc.lft.to/lastmile_qr_scan", "android": "https://dc.lft.to/lastmile_qr_scan"}, "is_reserved": 0}, {"lon": -77.02385783333334, "bike_id": "db774308819f0b749775fbc3ec9a6297", "lat": 38.934715833333335, "fusion_lon": 0.0, "fusion_lat": 0.0, "type": "electric_scooter", "name": "db774308819f0b749775fbc3ec9a6297", "is_disabled": 0, "rental_uris": {"ios": "https://dc.lft.to/lastmile_qr_scan", "android": "https://dc.lft.to/lastmile_qr_scan"}, "is_reserved": 0}, {"lon": -77.033635, "bike_id": "3b1ebf3d4fb37c72219994de6906f21b", "lat": 38.9384385, "fusion_lon": 0.0, "fusion_lat": 0.0, "type": "electric_scooter", "name": "3b1ebf3d4fb37c72219994de6906f21b", "is_disabled": 0, "rental_uris": {"ios": "https://dc.lft.to/lastmile_qr_scan", "android": "https://dc.lft.to/lastmile_qr_scan"}, "is_reserved": 0}, {"lon": -77.0216425, "bike_id": "ffe69e1af189e080f3497774c90749c0", "lat": 38.88746066666667, "fusion_lon": 0.0, "fusion_lat": 0.0, "type": "electric_scooter", "name": "ffe69e1af189e080f3497774c90749c0", "is_disabled": 0, "rental_uris": {"ios": "https://dc.lft.to/lastmile_qr_scan", "android": "https://dc.lft.to/lastmile_qr_scan"}, "is_reserved": 0}, {"lon": -77.03174983333334, "bike_id": "683591084c8737669bcee2ce14eac8c5", "lat": 38.895718, "fusion_lon": 0.0, "fusion_lat": 0.0, "type": "electric_scooter", "name": "683591084c8737669bcee2ce14eac8c5", "is_disabled": 0, "rental_uris": {"ios": "https://dc.lft.to/lastmile_qr_scan", "android": "https://dc.lft.to/lastmile_qr_scan"}, "is_reserved": 0}, {"lon": -76.9888695, "bike_id": "040c74eaa0eb5db2df9d7ad805355e98", "lat": 38.866536333333336, "fusion_lon": 0.0, "fusion_lat": 0.0, "type": "electric_scooter", "name": "040c74eaa0eb5db2df9d7ad805355e98", "is_disabled": 0, "rental_uris": {"ios": "https://dc.lft.to/lastmile_qr_scan", "android": "https://dc.lft.to/lastmile_qr_scan"}, "is_reserved": 0}, {"lon": -77.02309633333333, "bike_id": "0ee1a66dc845c2b4680bddfc406df395", "lat": 38.940990666666664, "fusion_lon": 0.0, "fusion_lat": 0.0, "type": "electric_scooter", "name": "0ee1a66dc845c2b4680bddfc406df395", "is_disabled": 0, "rental_uris": {"ios": "https://dc.lft.to/lastmile_qr_scan", "android": "https://dc.lft.to/lastmile_qr_scan"}, "is_reserved": 0}, {"lon": -76.98594116666666, "bike_id": "40de03d8384827d549f66075f8f28fac", "lat": 38.9061705, "fusion_lon": 0.0, "fusion_lat": 0.0, "type": "electric_bike", "name": "40de03d8384827d549f66075f8f28fac", "is_disabled": 0, "rental_uris": {"ios": "https://dc.lft.to/lastmile_qr_scan", "android": "https://dc.lft.to/lastmile_qr_scan"}, "is_reserved": 0}, {"lon": -77.0418575, "bike_id": "2c1636bc389975846e7159a16afb3a14", "lat": 38.92016616666667, "fusion_lon": 0.0, "fusion_lat": 0.0, "type": "electric_scooter", "name": "2c1636bc389975846e7159a16afb3a14", "is_disabled": 0, "rental_uris": {"ios": "https://dc.lft.to/lastmile_qr_scan", "android": "https://dc.lft.to/lastmile_qr_scan"}, "is_reserved": 0}, {"lon": -77.02404416666667, "bike_id": "5dbd3dbe5fcb7048462b3f547ccf0b97", "lat": 38.919946, "fusion_lon": 0.0, "fusion_lat": 0.0, "type": "electric_scooter", "name": "5dbd3dbe5fcb7048462b3f547ccf0b97", "is_disabled": 0, "rental_uris": {"ios": "https://dc.lft.to/lastmile_qr_scan", "android": "https://dc.lft.to/lastmile_qr_scan"}, "is_reserved": 0}, {"lon": -77.03983266666667, "bike_id": "2d852772fc4bb10b08f1c415dd1a4dfc", "lat": 38.9245435, "fusion_lon": 0.0, "fusion_lat": 0.0, "type": "electric_scooter", "name": "2d852772fc4bb10b08f1c415dd1a4dfc", "is_disabled": 0, "rental_uris": {"ios": "https://dc.lft.to/lastmile_qr_scan", "android": "https://dc.lft.to/lastmile_qr_scan"}, "is_reserved": 0}, {"lon": -77.02160533333333, "bike_id": "efb99f2a9e47f8cd8521cf22bd384d1a", "lat": 38.892133666666666, "fusion_lon": 0.0, "fusion_lat": 0.0, "type": "electric_scooter", "name": "efb99f2a9e47f8cd8521cf22bd384d1a", "is_disabled": 0, "rental_uris": {"ios": "https://dc.lft.to/lastmile_qr_scan", "android": "https://dc.lft.to/lastmile_qr_scan"}, "is_reserved": 0}, {"lon": -77.02599966666666, "bike_id": "50c557103865961ea9b32048dd412195", "lat": 38.9265835, "fusion_lon": 0.0, "fusion_lat": 0.0, "type": "electric_scooter", "name": "50c557103865961ea9b32048dd412195", "is_disabled": 0, "rental_uris": {"ios": "https://dc.lft.to/lastmile_qr_scan", "android": "https://dc.lft.to/lastmile_qr_scan"}, "is_reserved": 0}, {"lon": -77.04929616666666, "bike_id": "02911eb78fe81b9495ec51774d839005", "lat": 39.02932166666667, "fusion_lon": 0.0, "fusion_lat": 0.0, "type": "electric_bike", "name": "02911eb78fe81b9495ec51774d839005", "is_disabled": 0, "rental_uris": {"ios": "https://dc.lft.to/lastmile_qr_scan", "android": "https://dc.lft.to/lastmile_qr_scan"}, "is_reserved": 0}, {"lon": -77.04633116666666, "bike_id": "edc2921eafc391398ade345444f7ad21", "lat": 38.90339816666667, "fusion_lon": 0.0, "fusion_lat": 0.0, "type": "electric_scooter", "name": "edc2921eafc391398ade345444f7ad21", "is_disabled": 0, "rental_uris": {"ios": "https://dc.lft.to/lastmile_qr_scan", "android": "https://dc.lft.to/lastmile_qr_scan"}, "is_reserved": 0}, {"lon": -77.04808066666666, "bike_id": "8b08e3e8d6a6452eb0286aa313444c7a", "lat": 38.91325716666667, "fusion_lon": 0.0, "fusion_lat": 0.0, "type": "electric_scooter", "name": "8b08e3e8d6a6452eb0286aa313444c7a", "is_disabled": 0, "rental_uris": {"ios": "https://dc.lft.to/lastmile_qr_scan", "android": "https://dc.lft.to/lastmile_qr_scan"}, "is_reserved": 0}, {"lon": -77.024226, "bike_id": "57091f219b6e05fb6deb489d98daff37", "lat": 38.914031333333334, "fusion_lon": 0.0, "fusion_lat": 0.0, "type": "electric_scooter", "name": "57091f219b6e05fb6deb489d98daff37", "is_disabled": 0, "rental_uris": {"ios": "https://dc.lft.to/lastmile_qr_scan", "android": "https://dc.lft.to/lastmile_qr_scan"}, "is_reserved": 0}, {"lon": -77.04332616666667, "bike_id": "a0a1950117912f8c94803a1811048633", "lat": 38.908216833333334, "fusion_lon": 0.0, "fusion_lat": 0.0, "type": "electric_scooter", "name": "a0a1950117912f8c94803a1811048633", "is_disabled": 0, "rental_uris": {"ios": "https://dc.lft.to/lastmile_qr_scan", "android": "https://dc.lft.to/lastmile_qr_scan"}, "is_reserved": 0}, {"lon": -77.04578883333333, "bike_id": "9d1bf31a08bab72246c32892cb441b6b", "lat": 38.921285166666664, "fusion_lon": 0.0, "fusion_lat": 0.0, "type": "electric_scooter", "name": "9d1bf31a08bab72246c32892cb441b6b", "is_disabled": 0, "rental_uris": {"ios": "https://dc.lft.to/lastmile_qr_scan", "android": "https://dc.lft.to/lastmile_qr_scan"}, "is_reserved": 0}, {"lon": -77.00658983333334, "bike_id": "9d2bea8dbf461f0a9b1aef95fd86a30c", "lat": 38.90033316666667, "fusion_lon": 0.0, "fusion_lat": 0.0, "type": "electric_scooter", "name": "9d2bea8dbf461f0a9b1aef95fd86a30c", "is_disabled": 0, "rental_uris": {"ios": "https://dc.lft.to/lastmile_qr_scan", "android": "https://dc.lft.to/lastmile_qr_scan"}, "is_reserved": 0}, {"lon": -77.03298916666667, "bike_id": "0e4bf734b5d4cdd641011118d216b7fc", "lat": 38.92362416666667, "fusion_lon": 0.0, "fusion_lat": 0.0, "type": "electric_scooter", "name": "0e4bf734b5d4cdd641011118d216b7fc", "is_disabled": 0, "rental_uris": {"ios": "https://dc.lft.to/lastmile_qr_scan", "android": "https://dc.lft.to/lastmile_qr_scan"}, "is_reserved": 0}, {"lon": -76.9439825, "bike_id": "e34c1fee43cfb15b415224eaf28fe7b1", "lat": 38.8813945, "fusion_lon": 0.0, "fusion_lat": 0.0, "type": "electric_scooter", "name": "e34c1fee43cfb15b415224eaf28fe7b1", "is_disabled": 0, "rental_uris": {"ios": "https://dc.lft.to/lastmile_qr_scan", "android": "https://dc.lft.to/lastmile_qr_scan"}, "is_reserved": 0}, {"lon": -77.02969866666666, "bike_id": "c6098bdca5bacf06e51613024ab22a32", "lat": 38.9168065, "fusion_lon": 0.0, "fusion_lat": 0.0, "type": "electric_scooter", "name": "c6098bdca5bacf06e51613024ab22a32", "is_disabled": 0, "rental_uris": {"ios": "https://dc.lft.to/lastmile_qr_scan", "android": "https://dc.lft.to/lastmile_qr_scan"}, "is_reserved": 0}, {"lon": -77.02198233333333, "bike_id": "39fd9692166ed91c490f994e68316833", "lat": 38.8998615, "fusion_lon": 0.0, "fusion_lat": 0.0, "type": "electric_scooter", "name": "39fd9692166ed91c490f994e68316833", "is_disabled": 0, "rental_uris": {"ios": "https://dc.lft.to/lastmile_qr_scan", "android": "https://dc.lft.to/lastmile_qr_scan"}, "is_reserved": 0}, {"lon": -76.99353566666667, "bike_id": "bdff1e8431b01fe217e54bb8ecc4c858", "lat": 38.8450725, "fusion_lon": 0.0, "fusion_lat": 0.0, "type": "electric_bike", "name": "bdff1e8431b01fe217e54bb8ecc4c858", "is_disabled": 0, "rental_uris": {"ios": "https://dc.lft.to/lastmile_qr_scan", "android": "https://dc.lft.to/lastmile_qr_scan"}, "is_reserved": 0}, {"lon": -76.9950915, "bike_id": "13ffbb6bf6b6d9ea93086505bfe463a5", "lat": 38.883483166666664, "fusion_lon": 0.0, "fusion_lat": 0.0, "type": "electric_scooter", "name": "13ffbb6bf6b6d9ea93086505bfe463a5", "is_disabled": 0, "rental_uris": {"ios": "https://dc.lft.to/lastmile_qr_scan", "android": "https://dc.lft.to/lastmile_qr_scan"}, "is_reserved": 0}, {"lon": -77.022689, "bike_id": "81c04ab149628176974404156efc0e37", "lat": 38.9272615, "fusion_lon": 0.0, "fusion_lat": 0.0, "type": "electric_scooter", "name": "81c04ab149628176974404156efc0e37", "is_disabled": 0, "rental_uris": {"ios": "https://dc.lft.to/lastmile_qr_scan", "android": "https://dc.lft.to/lastmile_qr_scan"}, "is_reserved": 0}, {"lon": -77.009638, "bike_id": "1827f629d61258c69714da9e96ae4c6b", "lat": 38.9170475, "fusion_lon": 0.0, "fusion_lat": 0.0, "type": "electric_scooter", "name": "1827f629d61258c69714da9e96ae4c6b", "is_disabled": 0, "rental_uris": {"ios": "https://dc.lft.to/lastmile_qr_scan", "android": "https://dc.lft.to/lastmile_qr_scan"}, "is_reserved": 0}, {"lon": -77.0047645, "bike_id": "50bfdd298425f23435db726c6b4c882e", "lat": 38.89584883333333, "fusion_lon": 0.0, "fusion_lat": 0.0, "type": "electric_scooter", "name": "50bfdd298425f23435db726c6b4c882e", "is_disabled": 0, "rental_uris": {"ios": "https://dc.lft.to/lastmile_qr_scan", "android": "https://dc.lft.to/lastmile_qr_scan"}, "is_reserved": 0}, {"lon": -77.0178585, "bike_id": "3d92576692e21256cd10555bddc15922", "lat": 38.901343, "fusion_lon": 0.0, "fusion_lat": 0.0, "type": "electric_scooter", "name": "3d92576692e21256cd10555bddc15922", "is_disabled": 0, "rental_uris": {"ios": "https://dc.lft.to/lastmile_qr_scan", "android": "https://dc.lft.to/lastmile_qr_scan"}, "is_reserved": 0}, {"lon": -76.88397, "bike_id": "aa43669aa329d114aa1cd7c78fba94e7", "lat": 38.93163333333333, "fusion_lon": 0.0, "fusion_lat": 0.0, "type": "electric_bike", "name": "aa43669aa329d114aa1cd7c78fba94e7", "is_disabled": 0, "rental_uris": {"ios": "https://dc.lft.to/lastmile_qr_scan", "android": "https://dc.lft.to/lastmile_qr_scan"}, "is_reserved": 0}, {"lon": -77.01809183333333, "bike_id": "977af95ba4382fd1bd16a8a87adcce4a", "lat": 38.964832333333334, "fusion_lon": 0.0, "fusion_lat": 0.0, "type": "electric_scooter", "name": "977af95ba4382fd1bd16a8a87adcce4a", "is_disabled": 0, "rental_uris": {"ios": "https://dc.lft.to/lastmile_qr_scan", "android": "https://dc.lft.to/lastmile_qr_scan"}, "is_reserved": 0}, {"lon": -77.04650183333334, "bike_id": "b55ec37dd8c982287367d1c2b6d0a0e6", "lat": 39.0549835, "fusion_lon": 0.0, "fusion_lat": 0.0, "type": "electric_bike", "name": "b55ec37dd8c982287367d1c2b6d0a0e6", "is_disabled": 0, "rental_uris": {"ios": "https://dc.lft.to/lastmile_qr_scan", "android": "https://dc.lft.to/lastmile_qr_scan"}, "is_reserved": 0}, {"lon": -77.057378, "bike_id": "ad3e0dcbacc875e9b04b844b34616fa5", "lat": 38.933882, "fusion_lon": 0.0, "fusion_lat": 0.0, "type": "electric_scooter", "name": "ad3e0dcbacc875e9b04b844b34616fa5", "is_disabled": 0, "rental_uris": {"ios": "https://dc.lft.to/lastmile_qr_scan", "android": "https://dc.lft.to/lastmile_qr_scan"}, "is_reserved": 0}, {"lon": -77.03877033333333, "bike_id": "d80e4ccf7ab5076d51dc588536a35da8", "lat": 38.948675, "fusion_lon": 0.0, "fusion_lat": 0.0, "type": "electric_scooter", "name": "d80e4ccf7ab5076d51dc588536a35da8", "is_disabled": 0, "rental_uris": {"ios": "https://dc.lft.to/lastmile_qr_scan", "android": "https://dc.lft.to/lastmile_qr_scan"}, "is_reserved": 0}, {"lon": -76.96135033333333, "bike_id": "d1793504aaaeebc5ef6a0d70e7d9d51b", "lat": 38.942104666666665, "fusion_lon": 0.0, "fusion_lat": 0.0, "type": "electric_bike", "name": "d1793504aaaeebc5ef6a0d70e7d9d51b", "is_disabled": 0, "rental_uris": {"ios": "https://dc.lft.to/lastmile_qr_scan", "android": "https://dc.lft.to/lastmile_qr_scan"}, "is_reserved": 0}, {"lon": -77.02756483333333, "bike_id": "f725e9d4d4e896a20c57345774e20142", "lat": 38.965691166666666, "fusion_lon": 0.0, "fusion_lat": 0.0, "type": "electric_bike", "name": "f725e9d4d4e896a20c57345774e20142", "is_disabled": 0, "rental_uris": {"ios": "https://dc.lft.to/lastmile_qr_scan", "android": "https://dc.lft.to/lastmile_qr_scan"}, "is_reserved": 0}, {"lon": -77.05589083333334, "bike_id": "0e4b75b201591e362338afb232fb0114", "lat": 38.931437833333334, "fusion_lon": 0.0, "fusion_lat": 0.0, "type": "electric_scooter", "name": "0e4b75b201591e362338afb232fb0114", "is_disabled": 0, "rental_uris": {"ios": "https://dc.lft.to/lastmile_qr_scan", "android": "https://dc.lft.to/lastmile_qr_scan"}, "is_reserved": 0}, {"lon": -76.988266, "bike_id": "4097025b83c0ad94acb3145820abf002", "lat": 38.890738666666664, "fusion_lon": 0.0, "fusion_lat": 0.0, "type": "electric_scooter", "name": "4097025b83c0ad94acb3145820abf002", "is_disabled": 0, "rental_uris": {"ios": "https://dc.lft.to/lastmile_qr_scan", "android": "https://dc.lft.to/lastmile_qr_scan"}, "is_reserved": 0}, {"lon": -77.12733083333333, "bike_id": "4a07156e219209a3af7d07281f9d94d6", "lat": 38.8955615, "fusion_lon": 0.0, "fusion_lat": 0.0, "type": "electric_bike", "name": "4a07156e219209a3af7d07281f9d94d6", "is_disabled": 0, "rental_uris": {"ios": "https://dc.lft.to/lastmile_qr_scan", "android": "https://dc.lft.to/lastmile_qr_scan"}, "is_reserved": 0}, {"lon": -76.95649916666666, "bike_id": "702e738994e43ef1959ae2499a8e8f24", "lat": 38.8961955, "fusion_lon": 0.0, "fusion_lat": 0.0, "type": "electric_scooter", "name": "702e738994e43ef1959ae2499a8e8f24", "is_disabled": 0, "rental_uris": {"ios": "https://dc.lft.to/lastmile_qr_scan", "android": "https://dc.lft.to/lastmile_qr_scan"}, "is_reserved": 0}, {"lon": -77.0397455, "bike_id": "e6e4ed6d46148c7b5dbc11ed5ae85778", "lat": 38.9038045, "fusion_lon": 0.0, "fusion_lat": 0.0, "type": "electric_scooter", "name": "e6e4ed6d46148c7b5dbc11ed5ae85778", "is_disabled": 0, "rental_uris": {"ios": "https://dc.lft.to/lastmile_qr_scan", "android": "https://dc.lft.to/lastmile_qr_scan"}, "is_reserved": 0}, {"lon": -77.0286405, "bike_id": "f3e34310dc6f32fc4f11da4e13cf9e65", "lat": 38.88774433333333, "fusion_lon": 0.0, "fusion_lat": 0.0, "type": "electric_scooter", "name": "f3e34310dc6f32fc4f11da4e13cf9e65", "is_disabled": 0, "rental_uris": {"ios": "https://dc.lft.to/lastmile_qr_scan", "android": "https://dc.lft.to/lastmile_qr_scan"}, "is_reserved": 0}, {"lon": -77.16625316666666, "bike_id": "a68c15659f9ffb102fc35b7f3fa3b38b", "lat": 38.888341, "fusion_lon": 0.0, "fusion_lat": 0.0, "type": "electric_bike", "name": "a68c15659f9ffb102fc35b7f3fa3b38b", "is_disabled": 0, "rental_uris": {"ios": "https://dc.lft.to/lastmile_qr_scan", "android": "https://dc.lft.to/lastmile_qr_scan"}, "is_reserved": 0}, {"lon": -77.00058966666667, "bike_id": "19c762231aed36581f81ad75cdffee2b", "lat": 38.87653666666667, "fusion_lon": 0.0, "fusion_lat": 0.0, "type": "electric_scooter", "name": "19c762231aed36581f81ad75cdffee2b", "is_disabled": 0, "rental_uris": {"ios": "https://dc.lft.to/lastmile_qr_scan", "android": "https://dc.lft.to/lastmile_qr_scan"}, "is_reserved": 0}, {"lon": -77.11151183333334, "bike_id": "ce368a28d71fbecbd6a97e2001c58a74", "lat": 38.855229, "fusion_lon": 0.0, "fusion_lat": 0.0, "type": "electric_bike", "name": "ce368a28d71fbecbd6a97e2001c58a74", "is_disabled": 0, "rental_uris": {"ios": "https://dc.lft.to/lastmile_qr_scan", "android": "https://dc.lft.to/lastmile_qr_scan"}, "is_reserved": 0}, {"lon": -77.04687516666667, "bike_id": "2826f3fa60ecd47e77a1b4b7a270b320", "lat": 39.02395883333333, "fusion_lon": 0.0, "fusion_lat": 0.0, "type": "electric_bike", "name": "2826f3fa60ecd47e77a1b4b7a270b320", "is_disabled": 0, "rental_uris": {"ios": "https://dc.lft.to/lastmile_qr_scan", "android": "https://dc.lft.to/lastmile_qr_scan"}, "is_reserved": 0}, {"lon": -77.033341, "bike_id": "fc2669b7657869b04bc12a013940d672", "lat": 38.9027675, "fusion_lon": 0.0, "fusion_lat": 0.0, "type": "electric_scooter", "name": "fc2669b7657869b04bc12a013940d672", "is_disabled": 0, "rental_uris": {"ios": "https://dc.lft.to/lastmile_qr_scan", "android": "https://dc.lft.to/lastmile_qr_scan"}, "is_reserved": 0}, {"lon": -77.10490233333333, "bike_id": "408efd377046776bf84736298df0530a", "lat": 38.856033, "fusion_lon": 0.0, "fusion_lat": 0.0, "type": "electric_bike", "name": "408efd377046776bf84736298df0530a", "is_disabled": 0, "rental_uris": {"ios": "https://dc.lft.to/lastmile_qr_scan", "android": "https://dc.lft.to/lastmile_qr_scan"}, "is_reserved": 0}, {"lon": -77.01212116666666, "bike_id": "07bc6b9750cb66be0602176122ed82e1", "lat": 38.87183566666667, "fusion_lon": 0.0, "fusion_lat": 0.0, "type": "electric_scooter", "name": "07bc6b9750cb66be0602176122ed82e1", "is_disabled": 0, "rental_uris": {"ios": "https://dc.lft.to/lastmile_qr_scan", "android": "https://dc.lft.to/lastmile_qr_scan"}, "is_reserved": 0}, {"lon": -77.02787083333334, "bike_id": "6ef7dfe9f206b221150819240e9fdefc", "lat": 38.93419333333333, "fusion_lon": 0.0, "fusion_lat": 0.0, "type": "electric_scooter", "name": "6ef7dfe9f206b221150819240e9fdefc", "is_disabled": 0, "rental_uris": {"ios": "https://dc.lft.to/lastmile_qr_scan", "android": "https://dc.lft.to/lastmile_qr_scan"}, "is_reserved": 0}, {"lon": -77.02954266666667, "bike_id": "3db5e91980efbb98b9b6fa511f9a675a", "lat": 38.908003666666666, "fusion_lon": 0.0, "fusion_lat": 0.0, "type": "electric_scooter", "name": "3db5e91980efbb98b9b6fa511f9a675a", "is_disabled": 0, "rental_uris": {"ios": "https://dc.lft.to/lastmile_qr_scan", "android": "https://dc.lft.to/lastmile_qr_scan"}, "is_reserved": 0}, {"lon": -77.027852, "bike_id": "d6d47456829ef71e139191858f031f20", "lat": 38.94195066666666, "fusion_lon": 0.0, "fusion_lat": 0.0, "type": "electric_scooter", "name": "d6d47456829ef71e139191858f031f20", "is_disabled": 0, "rental_uris": {"ios": "https://dc.lft.to/lastmile_qr_scan", "android": "https://dc.lft.to/lastmile_qr_scan"}, "is_reserved": 0}, {"lon": -77.0524075, "bike_id": "a34b9bf00f4b1efe714151f9e6606711", "lat": 38.927368, "fusion_lon": 0.0, "fusion_lat": 0.0, "type": "electric_scooter", "name": "a34b9bf00f4b1efe714151f9e6606711", "is_disabled": 0, "rental_uris": {"ios": "https://dc.lft.to/lastmile_qr_scan", "android": "https://dc.lft.to/lastmile_qr_scan"}, "is_reserved": 0}, {"lon": -77.02453033333333, "bike_id": "6c1bc544117b4de50b3554683f1b40e0", "lat": 38.9380285, "fusion_lon": 0.0, "fusion_lat": 0.0, "type": "electric_scooter", "name": "6c1bc544117b4de50b3554683f1b40e0", "is_disabled": 0, "rental_uris": {"ios": "https://dc.lft.to/lastmile_qr_scan", "android": "https://dc.lft.to/lastmile_qr_scan"}, "is_reserved": 0}, {"lon": -77.022111, "bike_id": "23b7a961aa7cef6f9da7d2cbebf1912d", "lat": 38.91415833333333, "fusion_lon": 0.0, "fusion_lat": 0.0, "type": "electric_scooter", "name": "23b7a961aa7cef6f9da7d2cbebf1912d", "is_disabled": 0, "rental_uris": {"ios": "https://dc.lft.to/lastmile_qr_scan", "android": "https://dc.lft.to/lastmile_qr_scan"}, "is_reserved": 0}, {"lon": -77.0572555, "bike_id": "4a7e96d6df0598ea184651dfbbfaf397", "lat": 38.93356033333333, "fusion_lon": 0.0, "fusion_lat": 0.0, "type": "electric_scooter", "name": "4a7e96d6df0598ea184651dfbbfaf397", "is_disabled": 0, "rental_uris": {"ios": "https://dc.lft.to/lastmile_qr_scan", "android": "https://dc.lft.to/lastmile_qr_scan"}, "is_reserved": 0}, {"lon": -77.0193215, "bike_id": "a6fb117c393f3a8e2f8462628fcd47cd", "lat": 38.93464516666667, "fusion_lon": 0.0, "fusion_lat": 0.0, "type": "electric_scooter", "name": "a6fb117c393f3a8e2f8462628fcd47cd", "is_disabled": 0, "rental_uris": {"ios": "https://dc.lft.to/lastmile_qr_scan", "android": "https://dc.lft.to/lastmile_qr_scan"}, "is_reserved": 0}, {"lon": -76.97303233333334, "bike_id": "56b10e7ede291ae5462581ae44c31e32", "lat": 38.91985016666667, "fusion_lon": 0.0, "fusion_lat": 0.0, "type": "electric_scooter", "name": "56b10e7ede291ae5462581ae44c31e32", "is_disabled": 0, "rental_uris": {"ios": "https://dc.lft.to/lastmile_qr_scan", "android": "https://dc.lft.to/lastmile_qr_scan"}, "is_reserved": 0}, {"lon": -77.072922, "bike_id": "87e44c20e808630d331d2d639ac88789", "lat": 38.92466866666667, "fusion_lon": 0.0, "fusion_lat": 0.0, "type": "electric_scooter", "name": "87e44c20e808630d331d2d639ac88789", "is_disabled": 0, "rental_uris": {"ios": "https://dc.lft.to/lastmile_qr_scan", "android": "https://dc.lft.to/lastmile_qr_scan"}, "is_reserved": 0}, {"lon": -76.97327666666666, "bike_id": "80aebfcadc28508b2e977aab487da3da", "lat": 38.8657025, "fusion_lon": 0.0, "fusion_lat": 0.0, "type": "electric_scooter", "name": "80aebfcadc28508b2e977aab487da3da", "is_disabled": 0, "rental_uris": {"ios": "https://dc.lft.to/lastmile_qr_scan", "android": "https://dc.lft.to/lastmile_qr_scan"}, "is_reserved": 0}, {"lon": -77.044802, "bike_id": "7c2405c63c09cbc2d34c26c71ba28a5c", "lat": 38.9157585, "fusion_lon": 0.0, "fusion_lat": 0.0, "type": "electric_scooter", "name": "7c2405c63c09cbc2d34c26c71ba28a5c", "is_disabled": 0, "rental_uris": {"ios": "https://dc.lft.to/lastmile_qr_scan", "android": "https://dc.lft.to/lastmile_qr_scan"}, "is_reserved": 0}, {"lon": -77.01583083333334, "bike_id": "295c9b07cd002f0a058dbbf6e8077cef", "lat": 38.886136666666665, "fusion_lon": 0.0, "fusion_lat": 0.0, "type": "electric_scooter", "name": "295c9b07cd002f0a058dbbf6e8077cef", "is_disabled": 0, "rental_uris": {"ios": "https://dc.lft.to/lastmile_qr_scan", "android": "https://dc.lft.to/lastmile_qr_scan"}, "is_reserved": 0}, {"lon": -76.982266, "bike_id": "a339b5a8612ddee3cfb59f8facf70e73", "lat": 38.88650633333334, "fusion_lon": 0.0, "fusion_lat": 0.0, "type": "electric_scooter", "name": "a339b5a8612ddee3cfb59f8facf70e73", "is_disabled": 0, "rental_uris": {"ios": "https://dc.lft.to/lastmile_qr_scan", "android": "https://dc.lft.to/lastmile_qr_scan"}, "is_reserved": 0}, {"lon": -77.02369383333334, "bike_id": "8c36e23b9fe72b46a929fcee70a57246", "lat": 38.9020245, "fusion_lon": 0.0, "fusion_lat": 0.0, "type": "electric_scooter", "name": "8c36e23b9fe72b46a929fcee70a57246", "is_disabled": 0, "rental_uris": {"ios": "https://dc.lft.to/lastmile_qr_scan", "android": "https://dc.lft.to/lastmile_qr_scan"}, "is_reserved": 0}, {"lon": -77.03830083333334, "bike_id": "fa010ff2ca9ecfce12539d762860b6e0", "lat": 38.91014333333333, "fusion_lon": 0.0, "fusion_lat": 0.0, "type": "electric_scooter", "name": "fa010ff2ca9ecfce12539d762860b6e0", "is_disabled": 0, "rental_uris": {"ios": "https://dc.lft.to/lastmile_qr_scan", "android": "https://dc.lft.to/lastmile_qr_scan"}, "is_reserved": 0}, {"lon": -77.006446, "bike_id": "69db8adbc9ab811f574c70295163751a", "lat": 38.88078566666667, "fusion_lon": 0.0, "fusion_lat": 0.0, "type": "electric_scooter", "name": "69db8adbc9ab811f574c70295163751a", "is_disabled": 0, "rental_uris": {"ios": "https://dc.lft.to/lastmile_qr_scan", "android": "https://dc.lft.to/lastmile_qr_scan"}, "is_reserved": 0}, {"lon": -77.05464033333334, "bike_id": "70ee91ef4c65c5ceef1008da58b0613f", "lat": 38.89792383333333, "fusion_lon": 0.0, "fusion_lat": 0.0, "type": "electric_scooter", "name": "70ee91ef4c65c5ceef1008da58b0613f", "is_disabled": 0, "rental_uris": {"ios": "https://dc.lft.to/lastmile_qr_scan", "android": "https://dc.lft.to/lastmile_qr_scan"}, "is_reserved": 0}, {"lon": -77.02609216666667, "bike_id": "5841dffaa01d7b00a19020603906fd12", "lat": 38.929848166666666, "fusion_lon": 0.0, "fusion_lat": 0.0, "type": "electric_scooter", "name": "5841dffaa01d7b00a19020603906fd12", "is_disabled": 0, "rental_uris": {"ios": "https://dc.lft.to/lastmile_qr_scan", "android": "https://dc.lft.to/lastmile_qr_scan"}, "is_reserved": 0}, {"lon": -77.01595583333334, "bike_id": "9c9acdb313eef761084565aeeef2ce84", "lat": 38.87218083333333, "fusion_lon": 0.0, "fusion_lat": 0.0, "type": "electric_scooter", "name": "9c9acdb313eef761084565aeeef2ce84", "is_disabled": 0, "rental_uris": {"ios": "https://dc.lft.to/lastmile_qr_scan", "android": "https://dc.lft.to/lastmile_qr_scan"}, "is_reserved": 0}, {"lon": -77.02800233333333, "bike_id": "a99100b0b99858819662d8d7a24b6ca4", "lat": 38.9620815, "fusion_lon": 0.0, "fusion_lat": 0.0, "type": "electric_scooter", "name": "a99100b0b99858819662d8d7a24b6ca4", "is_disabled": 0, "rental_uris": {"ios": "https://dc.lft.to/lastmile_qr_scan", "android": "https://dc.lft.to/lastmile_qr_scan"}, "is_reserved": 0}, {"lon": -77.04334216666666, "bike_id": "b0b30036620b567d84119a8c2601d768", "lat": 38.9081445, "fusion_lon": 0.0, "fusion_lat": 0.0, "type": "electric_scooter", "name": "b0b30036620b567d84119a8c2601d768", "is_disabled": 0, "rental_uris": {"ios": "https://dc.lft.to/lastmile_qr_scan", "android": "https://dc.lft.to/lastmile_qr_scan"}, "is_reserved": 0}, {"lon": -77.03344066666666, "bike_id": "b2437cb56058366012a57d5b7255050d", "lat": 38.898387166666666, "fusion_lon": 0.0, "fusion_lat": 0.0, "type": "electric_scooter", "name": "b2437cb56058366012a57d5b7255050d", "is_disabled": 0, "rental_uris": {"ios": "https://dc.lft.to/lastmile_qr_scan", "android": "https://dc.lft.to/lastmile_qr_scan"}, "is_reserved": 0}, {"lon": -77.05098466666666, "bike_id": "00c15d898af3db3c64665064b3193d03", "lat": 38.9230615, "fusion_lon": 0.0, "fusion_lat": 0.0, "type": "electric_scooter", "name": "00c15d898af3db3c64665064b3193d03", "is_disabled": 0, "rental_uris": {"ios": "https://dc.lft.to/lastmile_qr_scan", "android": "https://dc.lft.to/lastmile_qr_scan"}, "is_reserved": 0}, {"lon": -77.02168133333333, "bike_id": "98ddb3363f10ff505f1abc7c4ab9c59f", "lat": 38.926179833333336, "fusion_lon": 0.0, "fusion_lat": 0.0, "type": "electric_scooter", "name": "98ddb3363f10ff505f1abc7c4ab9c59f", "is_disabled": 0, "rental_uris": {"ios": "https://dc.lft.to/lastmile_qr_scan", "android": "https://dc.lft.to/lastmile_qr_scan"}, "is_reserved": 0}, {"lon": -77.022066, "bike_id": "6c6dd75d65a410e794d1f166edad33b4", "lat": 38.95099733333333, "fusion_lon": 0.0, "fusion_lat": 0.0, "type": "electric_scooter", "name": "6c6dd75d65a410e794d1f166edad33b4", "is_disabled": 0, "rental_uris": {"ios": "https://dc.lft.to/lastmile_qr_scan", "android": "https://dc.lft.to/lastmile_qr_scan"}, "is_reserved": 0}, {"lon": -77.00542583333333, "bike_id": "fe87b9855288db6163455e2a0ca3c7bf", "lat": 38.87660366666667, "fusion_lon": 0.0, "fusion_lat": 0.0, "type": "electric_scooter", "name": "fe87b9855288db6163455e2a0ca3c7bf", "is_disabled": 0, "rental_uris": {"ios": "https://dc.lft.to/lastmile_qr_scan", "android": "https://dc.lft.to/lastmile_qr_scan"}, "is_reserved": 0}, {"lon": -77.02421633333333, "bike_id": "7f9112d53846e1b763cdbf0bd76d55ac", "lat": 38.92600816666667, "fusion_lon": 0.0, "fusion_lat": 0.0, "type": "electric_bike", "name": "7f9112d53846e1b763cdbf0bd76d55ac", "is_disabled": 0, "rental_uris": {"ios": "https://dc.lft.to/lastmile_qr_scan", "android": "https://dc.lft.to/lastmile_qr_scan"}, "is_reserved": 0}, {"lon": -77.026097, "bike_id": "4e0488322fa914d92c583bf4808d81fc", "lat": 38.91403, "fusion_lon": 0.0, "fusion_lat": 0.0, "type": "electric_scooter", "name": "4e0488322fa914d92c583bf4808d81fc", "is_disabled": 0, "rental_uris": {"ios": "https://dc.lft.to/lastmile_qr_scan", "android": "https://dc.lft.to/lastmile_qr_scan"}, "is_reserved": 0}, {"lon": -77.045259, "bike_id": "386ddcea7234d19d0254477608d1de0d", "lat": 38.91329483333333, "fusion_lon": 0.0, "fusion_lat": 0.0, "type": "electric_scooter", "name": "386ddcea7234d19d0254477608d1de0d", "is_disabled": 0, "rental_uris": {"ios": "https://dc.lft.to/lastmile_qr_scan", "android": "https://dc.lft.to/lastmile_qr_scan"}, "is_reserved": 0}, {"lon": -77.020099, "bike_id": "7ab87aea46f259aaaf6bf880bc567f84", "lat": 38.92407933333333, "fusion_lon": 0.0, "fusion_lat": 0.0, "type": "electric_scooter", "name": "7ab87aea46f259aaaf6bf880bc567f84", "is_disabled": 0, "rental_uris": {"ios": "https://dc.lft.to/lastmile_qr_scan", "android": "https://dc.lft.to/lastmile_qr_scan"}, "is_reserved": 0}, {"lon": -77.051953, "bike_id": "b3e9ea60afe888337ef0c90bcf6cbbe7", "lat": 38.903159333333335, "fusion_lon": 0.0, "fusion_lat": 0.0, "type": "electric_scooter", "name": "b3e9ea60afe888337ef0c90bcf6cbbe7", "is_disabled": 0, "rental_uris": {"ios": "https://dc.lft.to/lastmile_qr_scan", "android": "https://dc.lft.to/lastmile_qr_scan"}, "is_reserved": 0}, {"lon": -76.98389033333333, "bike_id": "2b2ce431d809c1dd872946aa535efc88", "lat": 38.904709833333335, "fusion_lon": 0.0, "fusion_lat": 0.0, "type": "electric_scooter", "name": "2b2ce431d809c1dd872946aa535efc88", "is_disabled": 0, "rental_uris": {"ios": "https://dc.lft.to/lastmile_qr_scan", "android": "https://dc.lft.to/lastmile_qr_scan"}, "is_reserved": 0}, {"lon": -77.0477615, "bike_id": "87e55cb9c35ff81c4f0af70b4f4258d6", "lat": 38.908642666666665, "fusion_lon": 0.0, "fusion_lat": 0.0, "type": "electric_scooter", "name": "87e55cb9c35ff81c4f0af70b4f4258d6", "is_disabled": 0, "rental_uris": {"ios": "https://dc.lft.to/lastmile_qr_scan", "android": "https://dc.lft.to/lastmile_qr_scan"}, "is_reserved": 0}, {"lon": -77.101515, "bike_id": "dbea38c451232de9df00b76cad9ce588", "lat": 38.92528133333333, "fusion_lon": 0.0, "fusion_lat": 0.0, "type": "electric_scooter", "name": "dbea38c451232de9df00b76cad9ce588", "is_disabled": 0, "rental_uris": {"ios": "https://dc.lft.to/lastmile_qr_scan", "android": "https://dc.lft.to/lastmile_qr_scan"}, "is_reserved": 0}, {"lon": -76.93455333333333, "bike_id": "f410c2668c1ef0b8f00695ff8172427f", "lat": 38.96957716666667, "fusion_lon": 0.0, "fusion_lat": 0.0, "type": "electric_bike", "name": "f410c2668c1ef0b8f00695ff8172427f", "is_disabled": 0, "rental_uris": {"ios": "https://dc.lft.to/lastmile_qr_scan", "android": "https://dc.lft.to/lastmile_qr_scan"}, "is_reserved": 0}, {"lon": -77.02416416666667, "bike_id": "a0af356cc148a400f9b35cdc0c312279", "lat": 38.9336335, "fusion_lon": 0.0, "fusion_lat": 0.0, "type": "electric_bike", "name": "a0af356cc148a400f9b35cdc0c312279", "is_disabled": 0, "rental_uris": {"ios": "https://dc.lft.to/lastmile_qr_scan", "android": "https://dc.lft.to/lastmile_qr_scan"}, "is_reserved": 0}, {"lon": -76.980119, "bike_id": "6d5c218956b51bd995fa3e7b053b8807", "lat": 38.853183, "fusion_lon": 0.0, "fusion_lat": 0.0, "type": "electric_bike", "name": "6d5c218956b51bd995fa3e7b053b8807", "is_disabled": 0, "rental_uris": {"ios": "https://dc.lft.to/lastmile_qr_scan", "android": "https://dc.lft.to/lastmile_qr_scan"}, "is_reserved": 0}, {"lon": -77.02636883333334, "bike_id": "2b07290f3c6bff4337761208969c6ddc", "lat": 38.89821833333333, "fusion_lon": 0.0, "fusion_lat": 0.0, "type": "electric_scooter", "name": "2b07290f3c6bff4337761208969c6ddc", "is_disabled": 0, "rental_uris": {"ios": "https://dc.lft.to/lastmile_qr_scan", "android": "https://dc.lft.to/lastmile_qr_scan"}, "is_reserved": 0}, {"lon": -77.0284455, "bike_id": "78d94dfc98625bb05fee0e8934c7fba2", "lat": 38.93243616666667, "fusion_lon": 0.0, "fusion_lat": 0.0, "type": "electric_scooter", "name": "78d94dfc98625bb05fee0e8934c7fba2", "is_disabled": 0, "rental_uris": {"ios": "https://dc.lft.to/lastmile_qr_scan", "android": "https://dc.lft.to/lastmile_qr_scan"}, "is_reserved": 0}, {"lon": -77.02375766666667, "bike_id": "a4c3959c481b67b31b0de6394dcb9fd8", "lat": 38.902068666666665, "fusion_lon": 0.0, "fusion_lat": 0.0, "type": "electric_scooter", "name": "a4c3959c481b67b31b0de6394dcb9fd8", "is_disabled": 0, "rental_uris": {"ios": "https://dc.lft.to/lastmile_qr_scan", "android": "https://dc.lft.to/lastmile_qr_scan"}, "is_reserved": 0}, {"lon": -77.03270083333334, "bike_id": "e22adea791442f139b52cad9f8d394c2", "lat": 38.920027166666664, "fusion_lon": 0.0, "fusion_lat": 0.0, "type": "electric_scooter", "name": "e22adea791442f139b52cad9f8d394c2", "is_disabled": 0, "rental_uris": {"ios": "https://dc.lft.to/lastmile_qr_scan", "android": "https://dc.lft.to/lastmile_qr_scan"}, "is_reserved": 0}, {"lon": -77.029618, "bike_id": "c503799446a9d482402e6501e36b5b08", "lat": 38.92292316666666, "fusion_lon": 0.0, "fusion_lat": 0.0, "type": "electric_scooter", "name": "c503799446a9d482402e6501e36b5b08", "is_disabled": 0, "rental_uris": {"ios": "https://dc.lft.to/lastmile_qr_scan", "android": "https://dc.lft.to/lastmile_qr_scan"}, "is_reserved": 0}, {"lon": -77.02765433333333, "bike_id": "37feb138a13cffa1a1b387a790253a37", "lat": 38.95425633333333, "fusion_lon": 0.0, "fusion_lat": 0.0, "type": "electric_scooter", "name": "37feb138a13cffa1a1b387a790253a37", "is_disabled": 0, "rental_uris": {"ios": "https://dc.lft.to/lastmile_qr_scan", "android": "https://dc.lft.to/lastmile_qr_scan"}, "is_reserved": 0}, {"lon": -77.04311666666666, "bike_id": "ba7dc4eaf2823e77f741c1e24caa1532", "lat": 38.92358516666667, "fusion_lon": 0.0, "fusion_lat": 0.0, "type": "electric_scooter", "name": "ba7dc4eaf2823e77f741c1e24caa1532", "is_disabled": 0, "rental_uris": {"ios": "https://dc.lft.to/lastmile_qr_scan", "android": "https://dc.lft.to/lastmile_qr_scan"}, "is_reserved": 0}, {"lon": -76.96602583333333, "bike_id": "5e7a904336adbf0f4ad615f7c3fa19a6", "lat": 38.87109433333333, "fusion_lon": 0.0, "fusion_lat": 0.0, "type": "electric_scooter", "name": "5e7a904336adbf0f4ad615f7c3fa19a6", "is_disabled": 0, "rental_uris": {"ios": "https://dc.lft.to/lastmile_qr_scan", "android": "https://dc.lft.to/lastmile_qr_scan"}, "is_reserved": 0}, {"lon": -77.02028283333334, "bike_id": "27882de562e5ab5453a7034b8f8eacdd", "lat": 38.905621, "fusion_lon": 0.0, "fusion_lat": 0.0, "type": "electric_scooter", "name": "27882de562e5ab5453a7034b8f8eacdd", "is_disabled": 0, "rental_uris": {"ios": "https://dc.lft.to/lastmile_qr_scan", "android": "https://dc.lft.to/lastmile_qr_scan"}, "is_reserved": 0}, {"lon": -77.0262895, "bike_id": "a3c75220c794cc922c01cf0d85d3e459", "lat": 38.96230283333333, "fusion_lon": 0.0, "fusion_lat": 0.0, "type": "electric_bike", "name": "a3c75220c794cc922c01cf0d85d3e459", "is_disabled": 0, "rental_uris": {"ios": "https://dc.lft.to/lastmile_qr_scan", "android": "https://dc.lft.to/lastmile_qr_scan"}, "is_reserved": 0}, {"lon": -77.04017283333333, "bike_id": "089e5a6ef0fec20c7ab88070ca0e818e", "lat": 38.92171233333333, "fusion_lon": 0.0, "fusion_lat": 0.0, "type": "electric_scooter", "name": "089e5a6ef0fec20c7ab88070ca0e818e", "is_disabled": 0, "rental_uris": {"ios": "https://dc.lft.to/lastmile_qr_scan", "android": "https://dc.lft.to/lastmile_qr_scan"}, "is_reserved": 0}, {"lon": -77.0445505, "bike_id": "34f238a92511078caf9ccc79061cd85e", "lat": 38.9184715, "fusion_lon": 0.0, "fusion_lat": 0.0, "type": "electric_scooter", "name": "34f238a92511078caf9ccc79061cd85e", "is_disabled": 0, "rental_uris": {"ios": "https://dc.lft.to/lastmile_qr_scan", "android": "https://dc.lft.to/lastmile_qr_scan"}, "is_reserved": 0}, {"lon": -77.02293816666666, "bike_id": "82975b5a5445a7382fbda2117d2ad163", "lat": 38.922249, "fusion_lon": 0.0, "fusion_lat": 0.0, "type": "electric_scooter", "name": "82975b5a5445a7382fbda2117d2ad163", "is_disabled": 0, "rental_uris": {"ios": "https://dc.lft.to/lastmile_qr_scan", "android": "https://dc.lft.to/lastmile_qr_scan"}, "is_reserved": 0}, {"lon": -77.00821283333333, "bike_id": "4348b21ddac0407f480f3feba49eeddb", "lat": 38.8761935, "fusion_lon": 0.0, "fusion_lat": 0.0, "type": "electric_scooter", "name": "4348b21ddac0407f480f3feba49eeddb", "is_disabled": 0, "rental_uris": {"ios": "https://dc.lft.to/lastmile_qr_scan", "android": "https://dc.lft.to/lastmile_qr_scan"}, "is_reserved": 0}, {"lon": -77.03454133333334, "bike_id": "21922d7cc94734b24d2956fe5a0b22d1", "lat": 38.93438533333333, "fusion_lon": 0.0, "fusion_lat": 0.0, "type": "electric_scooter", "name": "21922d7cc94734b24d2956fe5a0b22d1", "is_disabled": 0, "rental_uris": {"ios": "https://dc.lft.to/lastmile_qr_scan", "android": "https://dc.lft.to/lastmile_qr_scan"}, "is_reserved": 0}, {"lon": -76.9622025, "bike_id": "7413fa6766cfb2a5f2ecbcc8b9e11027", "lat": 38.87785566666667, "fusion_lon": 0.0, "fusion_lat": 0.0, "type": "electric_scooter", "name": "7413fa6766cfb2a5f2ecbcc8b9e11027", "is_disabled": 0, "rental_uris": {"ios": "https://dc.lft.to/lastmile_qr_scan", "android": "https://dc.lft.to/lastmile_qr_scan"}, "is_reserved": 0}, {"lon": -77.07319033333333, "bike_id": "070413332b9b755bbdd0c321e4e26ed2", "lat": 38.913958, "fusion_lon": 0.0, "fusion_lat": 0.0, "type": "electric_scooter", "name": "070413332b9b755bbdd0c321e4e26ed2", "is_disabled": 0, "rental_uris": {"ios": "https://dc.lft.to/lastmile_qr_scan", "android": "https://dc.lft.to/lastmile_qr_scan"}, "is_reserved": 0}, {"lon": -77.0332075, "bike_id": "dfc1e5bdf1fdf8b58965eba832dd3f2a", "lat": 38.93896183333333, "fusion_lon": 0.0, "fusion_lat": 0.0, "type": "electric_scooter", "name": "dfc1e5bdf1fdf8b58965eba832dd3f2a", "is_disabled": 0, "rental_uris": {"ios": "https://dc.lft.to/lastmile_qr_scan", "android": "https://dc.lft.to/lastmile_qr_scan"}, "is_reserved": 0}, {"lon": -77.0424105, "bike_id": "dd9dff9940fec044993c6b90deb446eb", "lat": 38.92427216666667, "fusion_lon": 0.0, "fusion_lat": 0.0, "type": "electric_scooter", "name": "dd9dff9940fec044993c6b90deb446eb", "is_disabled": 0, "rental_uris": {"ios": "https://dc.lft.to/lastmile_qr_scan", "android": "https://dc.lft.to/lastmile_qr_scan"}, "is_reserved": 0}, {"lon": -77.03368816666666, "bike_id": "ba2cc5ee6e993f92f979e639ea0006a6", "lat": 38.935211, "fusion_lon": 0.0, "fusion_lat": 0.0, "type": "electric_scooter", "name": "ba2cc5ee6e993f92f979e639ea0006a6", "is_disabled": 0, "rental_uris": {"ios": "https://dc.lft.to/lastmile_qr_scan", "android": "https://dc.lft.to/lastmile_qr_scan"}, "is_reserved": 0}, {"lon": -77.038637, "bike_id": "424ce891fee9a5c10052e33d88eedaad", "lat": 38.91255366666667, "fusion_lon": 0.0, "fusion_lat": 0.0, "type": "electric_scooter", "name": "424ce891fee9a5c10052e33d88eedaad", "is_disabled": 0, "rental_uris": {"ios": "https://dc.lft.to/lastmile_qr_scan", "android": "https://dc.lft.to/lastmile_qr_scan"}, "is_reserved": 0}, {"lon": -77.04546283333333, "bike_id": "efec7a7aba9fd914b4838b37dc140b1e", "lat": 38.934030166666666, "fusion_lon": 0.0, "fusion_lat": 0.0, "type": "electric_scooter", "name": "efec7a7aba9fd914b4838b37dc140b1e", "is_disabled": 0, "rental_uris": {"ios": "https://dc.lft.to/lastmile_qr_scan", "android": "https://dc.lft.to/lastmile_qr_scan"}, "is_reserved": 0}, {"lon": -77.0234325, "bike_id": "ea8f0dfeee40b4a17fd3e5bebe6c748d", "lat": 38.917692333333335, "fusion_lon": 0.0, "fusion_lat": 0.0, "type": "electric_scooter", "name": "ea8f0dfeee40b4a17fd3e5bebe6c748d", "is_disabled": 0, "rental_uris": {"ios": "https://dc.lft.to/lastmile_qr_scan", "android": "https://dc.lft.to/lastmile_qr_scan"}, "is_reserved": 0}, {"lon": -77.03869216666666, "bike_id": "cecf4084ebd85a59caceb553aaaf6b82", "lat": 38.915543166666666, "fusion_lon": 0.0, "fusion_lat": 0.0, "type": "electric_scooter", "name": "cecf4084ebd85a59caceb553aaaf6b82", "is_disabled": 0, "rental_uris": {"ios": "https://dc.lft.to/lastmile_qr_scan", "android": "https://dc.lft.to/lastmile_qr_scan"}, "is_reserved": 0}, {"lon": -77.03359466666667, "bike_id": "67a6c3e2ce6215f43b57a03b6cbb031f", "lat": 38.8983405, "fusion_lon": 0.0, "fusion_lat": 0.0, "type": "electric_scooter", "name": "67a6c3e2ce6215f43b57a03b6cbb031f", "is_disabled": 0, "rental_uris": {"ios": "https://dc.lft.to/lastmile_qr_scan", "android": "https://dc.lft.to/lastmile_qr_scan"}, "is_reserved": 0}, {"lon": -77.017301, "bike_id": "75e66507adb22fbef30e34adeac3f3f9", "lat": 38.90374116666667, "fusion_lon": 0.0, "fusion_lat": 0.0, "type": "electric_scooter", "name": "75e66507adb22fbef30e34adeac3f3f9", "is_disabled": 0, "rental_uris": {"ios": "https://dc.lft.to/lastmile_qr_scan", "android": "https://dc.lft.to/lastmile_qr_scan"}, "is_reserved": 0}, {"lon": -77.0227945, "bike_id": "5e5d2d7c6c2f676b82475007b39e09c1", "lat": 38.92690133333333, "fusion_lon": 0.0, "fusion_lat": 0.0, "type": "electric_scooter", "name": "5e5d2d7c6c2f676b82475007b39e09c1", "is_disabled": 0, "rental_uris": {"ios": "https://dc.lft.to/lastmile_qr_scan", "android": "https://dc.lft.to/lastmile_qr_scan"}, "is_reserved": 0}, {"lon": -77.03204266666667, "bike_id": "8ec663a25983931dc105c73f37cfeabe", "lat": 38.89663616666667, "fusion_lon": 0.0, "fusion_lat": 0.0, "type": "electric_scooter", "name": "8ec663a25983931dc105c73f37cfeabe", "is_disabled": 0, "rental_uris": {"ios": "https://dc.lft.to/lastmile_qr_scan", "android": "https://dc.lft.to/lastmile_qr_scan"}, "is_reserved": 0}, {"lon": -76.97652833333333, "bike_id": "277cf725dc05ac4e6ec1d20b52cf3a55", "lat": 38.88779316666667, "fusion_lon": 0.0, "fusion_lat": 0.0, "type": "electric_scooter", "name": "277cf725dc05ac4e6ec1d20b52cf3a55", "is_disabled": 0, "rental_uris": {"ios": "https://dc.lft.to/lastmile_qr_scan", "android": "https://dc.lft.to/lastmile_qr_scan"}, "is_reserved": 0}, {"lon": -77.01655483333333, "bike_id": "44c0e9ce53ea0657f78c3bc8cbee2c68", "lat": 38.88102383333333, "fusion_lon": 0.0, "fusion_lat": 0.0, "type": "electric_scooter", "name": "44c0e9ce53ea0657f78c3bc8cbee2c68", "is_disabled": 0, "rental_uris": {"ios": "https://dc.lft.to/lastmile_qr_scan", "android": "https://dc.lft.to/lastmile_qr_scan"}, "is_reserved": 0}, {"lon": -77.02401583333334, "bike_id": "570a4b97d54e1846f165d907ebb45cc7", "lat": 38.91701583333333, "fusion_lon": 0.0, "fusion_lat": 0.0, "type": "electric_scooter", "name": "570a4b97d54e1846f165d907ebb45cc7", "is_disabled": 0, "rental_uris": {"ios": "https://dc.lft.to/lastmile_qr_scan", "android": "https://dc.lft.to/lastmile_qr_scan"}, "is_reserved": 0}, {"lon": -77.03833766666666, "bike_id": "0a2719d971b7624e7965bb540d6421b1", "lat": 38.910944666666666, "fusion_lon": 0.0, "fusion_lat": 0.0, "type": "electric_scooter", "name": "0a2719d971b7624e7965bb540d6421b1", "is_disabled": 0, "rental_uris": {"ios": "https://dc.lft.to/lastmile_qr_scan", "android": "https://dc.lft.to/lastmile_qr_scan"}, "is_reserved": 0}, {"lon": -77.04631866666666, "bike_id": "d5863f17164795c65f80f47afdb2d34c", "lat": 38.91912083333333, "fusion_lon": 0.0, "fusion_lat": 0.0, "type": "electric_scooter", "name": "d5863f17164795c65f80f47afdb2d34c", "is_disabled": 0, "rental_uris": {"ios": "https://dc.lft.to/lastmile_qr_scan", "android": "https://dc.lft.to/lastmile_qr_scan"}, "is_reserved": 0}, {"lon": -77.03315933333333, "bike_id": "31bd04904ac4a0b83c344baf02577e10", "lat": 38.9139815, "fusion_lon": 0.0, "fusion_lat": 0.0, "type": "electric_scooter", "name": "31bd04904ac4a0b83c344baf02577e10", "is_disabled": 0, "rental_uris": {"ios": "https://dc.lft.to/lastmile_qr_scan", "android": "https://dc.lft.to/lastmile_qr_scan"}, "is_reserved": 0}, {"lon": -77.08459916666666, "bike_id": "e136bd2500b09121580762cb6cb76f9e", "lat": 38.8482115, "fusion_lon": 0.0, "fusion_lat": 0.0, "type": "electric_bike", "name": "e136bd2500b09121580762cb6cb76f9e", "is_disabled": 0, "rental_uris": {"ios": "https://dc.lft.to/lastmile_qr_scan", "android": "https://dc.lft.to/lastmile_qr_scan"}, "is_reserved": 0}, {"lon": -77.034047, "bike_id": "7555ae161a1db9b8dedca4350c702696", "lat": 38.92252966666667, "fusion_lon": 0.0, "fusion_lat": 0.0, "type": "electric_scooter", "name": "7555ae161a1db9b8dedca4350c702696", "is_disabled": 0, "rental_uris": {"ios": "https://dc.lft.to/lastmile_qr_scan", "android": "https://dc.lft.to/lastmile_qr_scan"}, "is_reserved": 0}, {"lon": -77.05340133333333, "bike_id": "e2c5cfb0b6313069a2d38b690784417b", "lat": 38.9035915, "fusion_lon": 0.0, "fusion_lat": 0.0, "type": "electric_scooter", "name": "e2c5cfb0b6313069a2d38b690784417b", "is_disabled": 0, "rental_uris": {"ios": "https://dc.lft.to/lastmile_qr_scan", "android": "https://dc.lft.to/lastmile_qr_scan"}, "is_reserved": 0}, {"lon": -77.03264983333334, "bike_id": "cfe11d5351ff7f588bcf76880542cd9f", "lat": 38.91998366666667, "fusion_lon": 0.0, "fusion_lat": 0.0, "type": "electric_scooter", "name": "cfe11d5351ff7f588bcf76880542cd9f", "is_disabled": 0, "rental_uris": {"ios": "https://dc.lft.to/lastmile_qr_scan", "android": "https://dc.lft.to/lastmile_qr_scan"}, "is_reserved": 0}, {"lon": -77.02413, "bike_id": "a272b15c9c35d4509ff43566b5356a6f", "lat": 38.90972283333333, "fusion_lon": 0.0, "fusion_lat": 0.0, "type": "electric_scooter", "name": "a272b15c9c35d4509ff43566b5356a6f", "is_disabled": 0, "rental_uris": {"ios": "https://dc.lft.to/lastmile_qr_scan", "android": "https://dc.lft.to/lastmile_qr_scan"}, "is_reserved": 0}, {"lon": -77.01325516666667, "bike_id": "b3fd486c9b1f6d8a8f6d55a6fcf738b2", "lat": 38.879257, "fusion_lon": 0.0, "fusion_lat": 0.0, "type": "electric_scooter", "name": "b3fd486c9b1f6d8a8f6d55a6fcf738b2", "is_disabled": 0, "rental_uris": {"ios": "https://dc.lft.to/lastmile_qr_scan", "android": "https://dc.lft.to/lastmile_qr_scan"}, "is_reserved": 0}, {"lon": -77.055334, "bike_id": "e625eff738be6051b5fcd7d2001b3845", "lat": 38.93429066666667, "fusion_lon": 0.0, "fusion_lat": 0.0, "type": "electric_scooter", "name": "e625eff738be6051b5fcd7d2001b3845", "is_disabled": 0, "rental_uris": {"ios": "https://dc.lft.to/lastmile_qr_scan", "android": "https://dc.lft.to/lastmile_qr_scan"}, "is_reserved": 0}, {"lon": -77.03499666666667, "bike_id": "2d26a0f2ec447b77baae7ea7068845f2", "lat": 38.93751483333333, "fusion_lon": 0.0, "fusion_lat": 0.0, "type": "electric_scooter", "name": "2d26a0f2ec447b77baae7ea7068845f2", "is_disabled": 0, "rental_uris": {"ios": "https://dc.lft.to/lastmile_qr_scan", "android": "https://dc.lft.to/lastmile_qr_scan"}, "is_reserved": 0}, {"lon": -77.038647, "bike_id": "9170f2eb1f89a09d0cf3bd84b2d60021", "lat": 38.91554683333333, "fusion_lon": 0.0, "fusion_lat": 0.0, "type": "electric_scooter", "name": "9170f2eb1f89a09d0cf3bd84b2d60021", "is_disabled": 0, "rental_uris": {"ios": "https://dc.lft.to/lastmile_qr_scan", "android": "https://dc.lft.to/lastmile_qr_scan"}, "is_reserved": 0}, {"lon": -76.98836916666667, "bike_id": "cb87a56df8f0fccd5b5e8c78d30963cc", "lat": 38.90075, "fusion_lon": 0.0, "fusion_lat": 0.0, "type": "electric_scooter", "name": "cb87a56df8f0fccd5b5e8c78d30963cc", "is_disabled": 0, "rental_uris": {"ios": "https://dc.lft.to/lastmile_qr_scan", "android": "https://dc.lft.to/lastmile_qr_scan"}, "is_reserved": 0}, {"lon": -77.006146, "bike_id": "e0398b1e8f7c0bcff370cb202aab10ae", "lat": 38.90626816666666, "fusion_lon": 0.0, "fusion_lat": 0.0, "type": "electric_scooter", "name": "e0398b1e8f7c0bcff370cb202aab10ae", "is_disabled": 0, "rental_uris": {"ios": "https://dc.lft.to/lastmile_qr_scan", "android": "https://dc.lft.to/lastmile_qr_scan"}, "is_reserved": 0}, {"lon": -77.03808633333334, "bike_id": "f9a3bacf687c768924824724d7f2c73f", "lat": 38.90264766666667, "fusion_lon": 0.0, "fusion_lat": 0.0, "type": "electric_scooter", "name": "f9a3bacf687c768924824724d7f2c73f", "is_disabled": 0, "rental_uris": {"ios": "https://dc.lft.to/lastmile_qr_scan", "android": "https://dc.lft.to/lastmile_qr_scan"}, "is_reserved": 0}, {"lon": -77.02369016666667, "bike_id": "53ccc3b9d4530bce98bd2656d6baa22e", "lat": 38.93770033333333, "fusion_lon": 0.0, "fusion_lat": 0.0, "type": "electric_scooter", "name": "53ccc3b9d4530bce98bd2656d6baa22e", "is_disabled": 0, "rental_uris": {"ios": "https://dc.lft.to/lastmile_qr_scan", "android": "https://dc.lft.to/lastmile_qr_scan"}, "is_reserved": 0}, {"lon": -77.013804, "bike_id": "2861c0d398f23cd5fa51924544a2c223", "lat": 38.9149685, "fusion_lon": 0.0, "fusion_lat": 0.0, "type": "electric_scooter", "name": "2861c0d398f23cd5fa51924544a2c223", "is_disabled": 0, "rental_uris": {"ios": "https://dc.lft.to/lastmile_qr_scan", "android": "https://dc.lft.to/lastmile_qr_scan"}, "is_reserved": 0}, {"lon": -77.03939483333333, "bike_id": "ac8a8dabc81655f6816ccdbff84060d6", "lat": 38.91562833333333, "fusion_lon": 0.0, "fusion_lat": 0.0, "type": "electric_scooter", "name": "ac8a8dabc81655f6816ccdbff84060d6", "is_disabled": 0, "rental_uris": {"ios": "https://dc.lft.to/lastmile_qr_scan", "android": "https://dc.lft.to/lastmile_qr_scan"}, "is_reserved": 0}, {"lon": -77.03250266666667, "bike_id": "f87e1c8e347cc7b70b81e95d62eaa12f", "lat": 38.9376985, "fusion_lon": 0.0, "fusion_lat": 0.0, "type": "electric_scooter", "name": "f87e1c8e347cc7b70b81e95d62eaa12f", "is_disabled": 0, "rental_uris": {"ios": "https://dc.lft.to/lastmile_qr_scan", "android": "https://dc.lft.to/lastmile_qr_scan"}, "is_reserved": 0}, {"lon": -77.04339416666667, "bike_id": "f5f32760057beef2419dade6c8fabea5", "lat": 38.90787866666667, "fusion_lon": 0.0, "fusion_lat": 0.0, "type": "electric_scooter", "name": "f5f32760057beef2419dade6c8fabea5", "is_disabled": 0, "rental_uris": {"ios": "https://dc.lft.to/lastmile_qr_scan", "android": "https://dc.lft.to/lastmile_qr_scan"}, "is_reserved": 0}, {"lon": -77.03857666666667, "bike_id": "93bd76813145c92a9e3d6c4b035ef5f1", "lat": 38.9313315, "fusion_lon": 0.0, "fusion_lat": 0.0, "type": "electric_scooter", "name": "93bd76813145c92a9e3d6c4b035ef5f1", "is_disabled": 0, "rental_uris": {"ios": "https://dc.lft.to/lastmile_qr_scan", "android": "https://dc.lft.to/lastmile_qr_scan"}, "is_reserved": 0}, {"lon": -77.04901016666666, "bike_id": "57c8b99ecc27fa69fe4baf152ce190b0", "lat": 38.90347416666667, "fusion_lon": 0.0, "fusion_lat": 0.0, "type": "electric_scooter", "name": "57c8b99ecc27fa69fe4baf152ce190b0", "is_disabled": 0, "rental_uris": {"ios": "https://dc.lft.to/lastmile_qr_scan", "android": "https://dc.lft.to/lastmile_qr_scan"}, "is_reserved": 0}, {"lon": -77.01653533333334, "bike_id": "2550ca65f768a4ead6362b5d0db73efd", "lat": 38.928995, "fusion_lon": 0.0, "fusion_lat": 0.0, "type": "electric_scooter", "name": "2550ca65f768a4ead6362b5d0db73efd", "is_disabled": 0, "rental_uris": {"ios": "https://dc.lft.to/lastmile_qr_scan", "android": "https://dc.lft.to/lastmile_qr_scan"}, "is_reserved": 0}, {"lon": -76.9954595, "bike_id": "f7759199d3932610446751000d42ceec", "lat": 38.8626535, "fusion_lon": 0.0, "fusion_lat": 0.0, "type": "electric_scooter", "name": "f7759199d3932610446751000d42ceec", "is_disabled": 0, "rental_uris": {"ios": "https://dc.lft.to/lastmile_qr_scan", "android": "https://dc.lft.to/lastmile_qr_scan"}, "is_reserved": 0}, {"lon": -76.99534516666667, "bike_id": "2c13cc00f088730951831ae44f3bae1d", "lat": 38.92673116666667, "fusion_lon": 0.0, "fusion_lat": 0.0, "type": "electric_scooter", "name": "2c13cc00f088730951831ae44f3bae1d", "is_disabled": 0, "rental_uris": {"ios": "https://dc.lft.to/lastmile_qr_scan", "android": "https://dc.lft.to/lastmile_qr_scan"}, "is_reserved": 0}, {"lon": -77.02342383333334, "bike_id": "8c4c43e3e3e7f696d011adb68424835a", "lat": 38.935353166666665, "fusion_lon": 0.0, "fusion_lat": 0.0, "type": "electric_scooter", "name": "8c4c43e3e3e7f696d011adb68424835a", "is_disabled": 0, "rental_uris": {"ios": "https://dc.lft.to/lastmile_qr_scan", "android": "https://dc.lft.to/lastmile_qr_scan"}, "is_reserved": 0}, {"lon": -77.026089, "bike_id": "7229cd060b9e9ebb0bff2c783bb0fc18", "lat": 38.896233333333335, "fusion_lon": 0.0, "fusion_lat": 0.0, "type": "electric_scooter", "name": "7229cd060b9e9ebb0bff2c783bb0fc18", "is_disabled": 0, "rental_uris": {"ios": "https://dc.lft.to/lastmile_qr_scan", "android": "https://dc.lft.to/lastmile_qr_scan"}, "is_reserved": 0}, {"lon": -76.93733533333334, "bike_id": "3a4bc7833388bd7db5aa82bf18211900", "lat": 38.890125833333336, "fusion_lon": 0.0, "fusion_lat": 0.0, "type": "electric_scooter", "name": "3a4bc7833388bd7db5aa82bf18211900", "is_disabled": 0, "rental_uris": {"ios": "https://dc.lft.to/lastmile_qr_scan", "android": "https://dc.lft.to/lastmile_qr_scan"}, "is_reserved": 0}, {"lon": -77.02991033333333, "bike_id": "473326044a9713a281e9170a1fe87edc", "lat": 38.92471483333333, "fusion_lon": 0.0, "fusion_lat": 0.0, "type": "electric_scooter", "name": "473326044a9713a281e9170a1fe87edc", "is_disabled": 0, "rental_uris": {"ios": "https://dc.lft.to/lastmile_qr_scan", "android": "https://dc.lft.to/lastmile_qr_scan"}, "is_reserved": 0}, {"lon": -76.93128466666667, "bike_id": "b8e4b3555a467572714c2fd8f95a54e3", "lat": 38.876144333333336, "fusion_lon": 0.0, "fusion_lat": 0.0, "type": "electric_scooter", "name": "b8e4b3555a467572714c2fd8f95a54e3", "is_disabled": 0, "rental_uris": {"ios": "https://dc.lft.to/lastmile_qr_scan", "android": "https://dc.lft.to/lastmile_qr_scan"}, "is_reserved": 0}, {"lon": -77.0543435, "bike_id": "703c1453388c6173a981be86bc36eae7", "lat": 38.928638166666666, "fusion_lon": 0.0, "fusion_lat": 0.0, "type": "electric_scooter", "name": "703c1453388c6173a981be86bc36eae7", "is_disabled": 0, "rental_uris": {"ios": "https://dc.lft.to/lastmile_qr_scan", "android": "https://dc.lft.to/lastmile_qr_scan"}, "is_reserved": 0}, {"lon": -77.031778, "bike_id": "256fe0ac1fbfcc4fc459f75169e980aa", "lat": 38.89195483333334, "fusion_lon": 0.0, "fusion_lat": 0.0, "type": "electric_scooter", "name": "256fe0ac1fbfcc4fc459f75169e980aa", "is_disabled": 0, "rental_uris": {"ios": "https://dc.lft.to/lastmile_qr_scan", "android": "https://dc.lft.to/lastmile_qr_scan"}, "is_reserved": 0}, {"lon": -76.9819685, "bike_id": "fc71a584ca892b33082dbd68451c7945", "lat": 38.899406666666664, "fusion_lon": 0.0, "fusion_lat": 0.0, "type": "electric_scooter", "name": "fc71a584ca892b33082dbd68451c7945", "is_disabled": 0, "rental_uris": {"ios": "https://dc.lft.to/lastmile_qr_scan", "android": "https://dc.lft.to/lastmile_qr_scan"}, "is_reserved": 0}, {"lon": -77.028394, "bike_id": "78aa780076eb4d3b74fe1aee6c4de0c8", "lat": 38.892233166666664, "fusion_lon": 0.0, "fusion_lat": 0.0, "type": "electric_scooter", "name": "78aa780076eb4d3b74fe1aee6c4de0c8", "is_disabled": 0, "rental_uris": {"ios": "https://dc.lft.to/lastmile_qr_scan", "android": "https://dc.lft.to/lastmile_qr_scan"}, "is_reserved": 0}, {"lon": -77.049163, "bike_id": "f1165f2dc6943c1cf5fcca6736d18f8f", "lat": 38.9036745, "fusion_lon": 0.0, "fusion_lat": 0.0, "type": "electric_scooter", "name": "f1165f2dc6943c1cf5fcca6736d18f8f", "is_disabled": 0, "rental_uris": {"ios": "https://dc.lft.to/lastmile_qr_scan", "android": "https://dc.lft.to/lastmile_qr_scan"}, "is_reserved": 0}, {"lon": -76.95187066666666, "bike_id": "c71732186f1245be01cb6a1fc7bdcb82", "lat": 38.90742866666667, "fusion_lon": 0.0, "fusion_lat": 0.0, "type": "electric_scooter", "name": "c71732186f1245be01cb6a1fc7bdcb82", "is_disabled": 0, "rental_uris": {"ios": "https://dc.lft.to/lastmile_qr_scan", "android": "https://dc.lft.to/lastmile_qr_scan"}, "is_reserved": 0}, {"lon": -76.97995333333333, "bike_id": "8db8b8542ea7fa563c13215b83225854", "lat": 38.906782166666666, "fusion_lon": 0.0, "fusion_lat": 0.0, "type": "electric_scooter", "name": "8db8b8542ea7fa563c13215b83225854", "is_disabled": 0, "rental_uris": {"ios": "https://dc.lft.to/lastmile_qr_scan", "android": "https://dc.lft.to/lastmile_qr_scan"}, "is_reserved": 0}, {"lon": -77.03158466666666, "bike_id": "5701fcc8a31ab49d84f8f0c873649d2a", "lat": 38.89220066666667, "fusion_lon": 0.0, "fusion_lat": 0.0, "type": "electric_scooter", "name": "5701fcc8a31ab49d84f8f0c873649d2a", "is_disabled": 0, "rental_uris": {"ios": "https://dc.lft.to/lastmile_qr_scan", "android": "https://dc.lft.to/lastmile_qr_scan"}, "is_reserved": 0}, {"lon": -76.982647, "bike_id": "33eea7520728117f2f2334bfb54ce105", "lat": 38.9085965, "fusion_lon": 0.0, "fusion_lat": 0.0, "type": "electric_scooter", "name": "33eea7520728117f2f2334bfb54ce105", "is_disabled": 0, "rental_uris": {"ios": "https://dc.lft.to/lastmile_qr_scan", "android": "https://dc.lft.to/lastmile_qr_scan"}, "is_reserved": 0}, {"lon": -76.98716916666666, "bike_id": "d372f662a658f7926f67b3a5f2362900", "lat": 38.866277, "fusion_lon": 0.0, "fusion_lat": 0.0, "type": "electric_scooter", "name": "d372f662a658f7926f67b3a5f2362900", "is_disabled": 0, "rental_uris": {"ios": "https://dc.lft.to/lastmile_qr_scan", "android": "https://dc.lft.to/lastmile_qr_scan"}, "is_reserved": 0}, {"lon": -77.03670283333334, "bike_id": "ad1efe70f9eb07a3605072350f687536", "lat": 38.909652666666666, "fusion_lon": 0.0, "fusion_lat": 0.0, "type": "electric_scooter", "name": "ad1efe70f9eb07a3605072350f687536", "is_disabled": 0, "rental_uris": {"ios": "https://dc.lft.to/lastmile_qr_scan", "android": "https://dc.lft.to/lastmile_qr_scan"}, "is_reserved": 0}, {"lon": -77.03261383333333, "bike_id": "bb7d47e80bd846becba75608e05201a6", "lat": 38.93522766666667, "fusion_lon": 0.0, "fusion_lat": 0.0, "type": "electric_scooter", "name": "bb7d47e80bd846becba75608e05201a6", "is_disabled": 0, "rental_uris": {"ios": "https://dc.lft.to/lastmile_qr_scan", "android": "https://dc.lft.to/lastmile_qr_scan"}, "is_reserved": 0}, {"lon": -76.98230083333333, "bike_id": "0785316200142f79c644c20e434118be", "lat": 38.916632, "fusion_lon": 0.0, "fusion_lat": 0.0, "type": "electric_scooter", "name": "0785316200142f79c644c20e434118be", "is_disabled": 0, "rental_uris": {"ios": "https://dc.lft.to/lastmile_qr_scan", "android": "https://dc.lft.to/lastmile_qr_scan"}, "is_reserved": 0}, {"lon": -77.01763483333333, "bike_id": "ddfe61a6ec9b15cd0f41b4703682227d", "lat": 38.902596333333335, "fusion_lon": 0.0, "fusion_lat": 0.0, "type": "electric_scooter", "name": "ddfe61a6ec9b15cd0f41b4703682227d", "is_disabled": 0, "rental_uris": {"ios": "https://dc.lft.to/lastmile_qr_scan", "android": "https://dc.lft.to/lastmile_qr_scan"}, "is_reserved": 0}, {"lon": -76.98953483333334, "bike_id": "547b2015f1f382480db8e810f9f02e16", "lat": 38.85690183333333, "fusion_lon": 0.0, "fusion_lat": 0.0, "type": "electric_scooter", "name": "547b2015f1f382480db8e810f9f02e16", "is_disabled": 0, "rental_uris": {"ios": "https://dc.lft.to/lastmile_qr_scan", "android": "https://dc.lft.to/lastmile_qr_scan"}, "is_reserved": 0}, {"lon": -77.00550983333333, "bike_id": "0067bdbdc61262de5bca51a5532b3aef", "lat": 38.87468966666667, "fusion_lon": 0.0, "fusion_lat": 0.0, "type": "electric_scooter", "name": "0067bdbdc61262de5bca51a5532b3aef", "is_disabled": 0, "rental_uris": {"ios": "https://dc.lft.to/lastmile_qr_scan", "android": "https://dc.lft.to/lastmile_qr_scan"}, "is_reserved": 0}, {"lon": -76.9882425, "bike_id": "2094f52f46ad88a21392e2e530573299", "lat": 38.89075783333333, "fusion_lon": 0.0, "fusion_lat": 0.0, "type": "electric_scooter", "name": "2094f52f46ad88a21392e2e530573299", "is_disabled": 0, "rental_uris": {"ios": "https://dc.lft.to/lastmile_qr_scan", "android": "https://dc.lft.to/lastmile_qr_scan"}, "is_reserved": 0}, {"lon": -77.01956016666666, "bike_id": "1498c942b431f3db4fe657e4624da9ff", "lat": 38.95234333333333, "fusion_lon": 0.0, "fusion_lat": 0.0, "type": "electric_scooter", "name": "1498c942b431f3db4fe657e4624da9ff", "is_disabled": 0, "rental_uris": {"ios": "https://dc.lft.to/lastmile_qr_scan", "android": "https://dc.lft.to/lastmile_qr_scan"}, "is_reserved": 0}, {"lon": -77.0073585, "bike_id": "74340d8065baa3851e8269c4937d30af", "lat": 38.876551666666664, "fusion_lon": 0.0, "fusion_lat": 0.0, "type": "electric_scooter", "name": "74340d8065baa3851e8269c4937d30af", "is_disabled": 0, "rental_uris": {"ios": "https://dc.lft.to/lastmile_qr_scan", "android": "https://dc.lft.to/lastmile_qr_scan"}, "is_reserved": 0}, {"lon": -76.99593166666666, "bike_id": "29dcaf71cc95927fc02c101e5e880da2", "lat": 38.8570035, "fusion_lon": 0.0, "fusion_lat": 0.0, "type": "electric_scooter", "name": "29dcaf71cc95927fc02c101e5e880da2", "is_disabled": 0, "rental_uris": {"ios": "https://dc.lft.to/lastmile_qr_scan", "android": "https://dc.lft.to/lastmile_qr_scan"}, "is_reserved": 0}, {"lon": -77.053702, "bike_id": "cb34ff048cf57fd46a23b9fd46f3b7ff", "lat": 38.92735416666667, "fusion_lon": 0.0, "fusion_lat": 0.0, "type": "electric_scooter", "name": "cb34ff048cf57fd46a23b9fd46f3b7ff", "is_disabled": 0, "rental_uris": {"ios": "https://dc.lft.to/lastmile_qr_scan", "android": "https://dc.lft.to/lastmile_qr_scan"}, "is_reserved": 0}, {"lon": -77.03185666666667, "bike_id": "d9ffa1f3596d15a39b3c4e20a67b2cd0", "lat": 38.920155, "fusion_lon": 0.0, "fusion_lat": 0.0, "type": "electric_bike", "name": "d9ffa1f3596d15a39b3c4e20a67b2cd0", "is_disabled": 0, "rental_uris": {"ios": "https://dc.lft.to/lastmile_qr_scan", "android": "https://dc.lft.to/lastmile_qr_scan"}, "is_reserved": 0}, {"lon": -77.04599083333333, "bike_id": "f76ea2e43cdc89c5c5960d48e0c00f4d", "lat": 38.91603883333333, "fusion_lon": 0.0, "fusion_lat": 0.0, "type": "electric_scooter", "name": "f76ea2e43cdc89c5c5960d48e0c00f4d", "is_disabled": 0, "rental_uris": {"ios": "https://dc.lft.to/lastmile_qr_scan", "android": "https://dc.lft.to/lastmile_qr_scan"}, "is_reserved": 0}, {"lon": -77.0303525, "bike_id": "fa7622658e92f88b487982ca3457a804", "lat": 38.89815933333333, "fusion_lon": 0.0, "fusion_lat": 0.0, "type": "electric_scooter", "name": "fa7622658e92f88b487982ca3457a804", "is_disabled": 0, "rental_uris": {"ios": "https://dc.lft.to/lastmile_qr_scan", "android": "https://dc.lft.to/lastmile_qr_scan"}, "is_reserved": 0}, {"lon": -77.0136315, "bike_id": "ecf3302d716ce1e02475d973ac987b31", "lat": 38.887067, "fusion_lon": 0.0, "fusion_lat": 0.0, "type": "electric_scooter", "name": "ecf3302d716ce1e02475d973ac987b31", "is_disabled": 0, "rental_uris": {"ios": "https://dc.lft.to/lastmile_qr_scan", "android": "https://dc.lft.to/lastmile_qr_scan"}, "is_reserved": 0}, {"lon": -77.0258125, "bike_id": "dd06f5d0a26d4b475d71f4c7212fefec", "lat": 38.92732016666667, "fusion_lon": 0.0, "fusion_lat": 0.0, "type": "electric_scooter", "name": "dd06f5d0a26d4b475d71f4c7212fefec", "is_disabled": 0, "rental_uris": {"ios": "https://dc.lft.to/lastmile_qr_scan", "android": "https://dc.lft.to/lastmile_qr_scan"}, "is_reserved": 0}, {"lon": -77.0239985, "bike_id": "baa67d0bcfcef23d0264e6c06de3625f", "lat": 38.91992, "fusion_lon": 0.0, "fusion_lat": 0.0, "type": "electric_scooter", "name": "baa67d0bcfcef23d0264e6c06de3625f", "is_disabled": 0, "rental_uris": {"ios": "https://dc.lft.to/lastmile_qr_scan", "android": "https://dc.lft.to/lastmile_qr_scan"}, "is_reserved": 0},