{"data": {"bikes": [{"fusion_lat": 0.0, "bike_id": "2b2bf69f5babbcb2e058bdc93615cf78", "fusion_lon": 0.0, "lon": -76.99118083333333, "lat": 38.9013505, "is_reserved": 0, "is_disabled": 0, "rental_uris": {"android": "https://dc.lft.to/lastmile_qr_scan", "ios": "https://dc.lft.to/lastmile_qr_scan"}, "name": "2b2bf69f5babbcb2e058bdc93615cf78", "type": "electric_scooter"}, {"fusion_lat": 0.0, "bike_id": "61d294b7bbf68d62732b653ff65209f4", "fusion_lon": 0.0, "lon": -77.03169633333333, "lat": 38.918116, "is_reserved": 0, "is_disabled": 0, "rental_uris": {"android": "https://dc.lft.to/lastmile_qr_scan", "ios": "https://dc.lft.to/lastmile_qr_scan"}, "name": "61d294b7bbf68d62732b653ff65209f4", "type": "electric_scooter"}, {"fusion_lat": 0.0, "bike_id": "dc597bd4b1c98cd0412d68566265ddd3", "fusion_lon": 0.0, "lon": -77.02710666666667, "lat": 38.906622166666665, "is_reserved": 0, "is_disabled": 0, "rental_uris": {"android": "https://dc.lft.to/lastmile_qr_scan", "ios": "https://dc.lft.to/lastmile_qr_scan"}, "name": "dc597bd4b1c98cd0412d68566265ddd3", "type": "electric_scooter"}, {"fusion_lat": 0.0, "bike_id": "f3a9c887dd49a02dd99aaa75e8d2aa74", "fusion_lon": 0.0, "lon": -77.03717683333333, "lat": 38.930624, "is_reserved": 0, "is_disabled": 0, "rental_uris": {"android": "https://dc.lft.to/lastmile_qr_scan", "ios": "https://dc.lft.to/lastmile_qr_scan"}, "name": "f3a9c887dd49a02dd99aaa75e8d2aa74", "type": "electric_scooter"}, {"fusion_lat": 0.0, "bike_id": "81ab6632d0a4cc46f74a2e56a856a60e", "fusion_lon": 0.0, "lon": -77.0710525, "lat": 38.9199155, "is_reserved": 0, "is_disabled": 0, "rental_uris": {"android": "https://dc.lft.to/lastmile_qr_scan", "ios": "https://dc.lft.to/lastmile_qr_scan"}, "name": "81ab6632d0a4cc46f74a2e56a856a60e", "type": "electric_scooter"}, {"fusion_lat": 0.0, "bike_id": "7335910df02e006c322c5b32498da7f4", "fusion_lon": 0.0, "lon": -77.03965016666666, "lat": 38.897808166666664, "is_reserved": 0, "is_disabled": 0, "rental_uris": {"android": "https://dc.lft.to/lastmile_qr_scan", "ios": "https://dc.lft.to/lastmile_qr_scan"}, "name": "7335910df02e006c322c5b32498da7f4", "type": "electric_scooter"}, {"fusion_lat": 0.0, "bike_id": "462aba6f7fa6952666874b82a980e5d8", "fusion_lon": 0.0, "lon": -77.0213665, "lat": 38.915547333333336, "is_reserved": 0, "is_disabled": 0, "rental_uris": {"android": "https://dc.lft.to/lastmile_qr_scan", "ios": "https://dc.lft.to/lastmile_qr_scan"}, "name": "462aba6f7fa6952666874b82a980e5d8", "type": "electric_scooter"}, {"fusion_lat": 0.0, "bike_id": "363e27c32918cce2d649976cc86c8dd1", "fusion_lon": 0.0, "lon": -76.8953495, "lat": 38.945541166666665, "is_reserved": 0, "is_disabled": 0, "rental_uris": {"android": "https://dc.lft.to/lastmile_qr_scan", "ios": "https://dc.lft.to/lastmile_qr_scan"}, "name": "363e27c32918cce2d649976cc86c8dd1", "type": "electric_bike"}, {"fusion_lat": 0.0, "bike_id": "036293fbb0379cb5f70251da94a92096", "fusion_lon": 0.0, "lon": -77.02510416666667, "lat": 38.92640466666667, "is_reserved": 0, "is_disabled": 0, "rental_uris": {"android": "https://dc.lft.to/lastmile_qr_scan", "ios": "https://dc.lft.to/lastmile_qr_scan"}, "name": "036293fbb0379cb5f70251da94a92096", "type": "electric_scooter"}, {"fusion_lat": 0.0, "bike_id": "ba702997a1a831ff88f8a8d82d23958f", "fusion_lon": 0.0, "lon": -77.052331, "lat": 38.925424666666665, "is_reserved": 0, "is_disabled": 0, "rental_uris": {"android": "https://dc.lft.to/lastmile_qr_scan", "ios": "https://dc.lft.to/lastmile_qr_scan"}, "name": "ba702997a1a831ff88f8a8d82d23958f", "type": "electric_scooter"}, {"fusion_lat": 0.0, "bike_id": "a05df47d066b3638cad70bf13f198f01", "fusion_lon": 0.0, "lon": -76.98679266666667, "lat": 38.899631, "is_reserved": 0, "is_disabled": 0, "rental_uris": {"android": "https://dc.lft.to/lastmile_qr_scan", "ios": "https://dc.lft.to/lastmile_qr_scan"}, "name": "a05df47d066b3638cad70bf13f198f01", "type": "electric_bike"}, {"fusion_lat": 0.0, "bike_id": "ddcd402b9559756cbbb065356028bcd9", "fusion_lon": 0.0, "lon": -77.02629416666667, "lat": 38.88107733333333, "is_reserved": 0, "is_disabled": 0, "rental_uris": {"android": "https://dc.lft.to/lastmile_qr_scan", "ios": "https://dc.lft.to/lastmile_qr_scan"}, "name": "ddcd402b9559756cbbb065356028bcd9", "type": "electric_scooter"}, {"fusion_lat": 0.0, "bike_id": "904c6b4afca2c8b65baec3ffe80fabb4", "fusion_lon": 0.0, "lon": -77.02559433333333, "lat": 38.941754, "is_reserved": 0, "is_disabled": 0, "rental_uris": {"android": "https://dc.lft.to/lastmile_qr_scan", "ios": "https://dc.lft.to/lastmile_qr_scan"}, "name": "904c6b4afca2c8b65baec3ffe80fabb4", "type": "electric_scooter"}, {"fusion_lat": 0.0, "bike_id": "8a0e3a08d67a26f6584fb08c95fbe7a5", "fusion_lon": 0.0, "lon": -77.043811, "lat": 38.92110483333333, "is_reserved": 0, "is_disabled": 0, "rental_uris": {"android": "https://dc.lft.to/lastmile_qr_scan", "ios": "https://dc.lft.to/lastmile_qr_scan"}, "name": "8a0e3a08d67a26f6584fb08c95fbe7a5", "type": "electric_scooter"}, {"fusion_lat": 0.0, "bike_id": "68184d9b5ccbd4265fc0a42b70486596", "fusion_lon": 0.0, "lon": -77.032848, "lat": 38.89210883333333, "is_reserved": 0, "is_disabled": 0, "rental_uris": {"android": "https://dc.lft.to/lastmile_qr_scan", "ios": "https://dc.lft.to/lastmile_qr_scan"}, "name": "68184d9b5ccbd4265fc0a42b70486596", "type": "electric_scooter"}, {"fusion_lat": 0.0, "bike_id": "ca0367ee622b9c923d25317aa1f2f659", "fusion_lon": 0.0, "lon": -77.0487015, "lat": 38.900814833333335, "is_reserved": 0, "is_disabled": 0, "rental_uris": {"android": "https://dc.lft.to/lastmile_qr_scan", "ios": "https://dc.lft.to/lastmile_qr_scan"}, "name": "ca0367ee622b9c923d25317aa1f2f659", "type": "electric_scooter"}, {"fusion_lat": 0.0, "bike_id": "914801aa5c2f7c87ac9529a91c2c9267", "fusion_lon": 0.0, "lon": -76.97808216666667, "lat": 38.90651116666667, "is_reserved": 0, "is_disabled": 0, "rental_uris": {"android": "https://dc.lft.to/lastmile_qr_scan", "ios": "https://dc.lft.to/lastmile_qr_scan"}, "name": "914801aa5c2f7c87ac9529a91c2c9267", "type": "electric_scooter"}, {"fusion_lat": 0.0, "bike_id": "7f020e438505e40e2a201275f3faa689", "fusion_lon": 0.0, "lon": -77.00747966666667, "lat": 38.876066, "is_reserved": 0, "is_disabled": 0, "rental_uris": {"android": "https://dc.lft.to/lastmile_qr_scan", "ios": "https://dc.lft.to/lastmile_qr_scan"}, "name": "7f020e438505e40e2a201275f3faa689", "type": "electric_bike"}, {"fusion_lat": 0.0, "bike_id": "f4167fb75abc4ce9acff1f14a36061c9", "fusion_lon": 0.0, "lon": -77.00033033333334, "lat": 38.874051333333334, "is_reserved": 0, "is_disabled": 0, "rental_uris": {"android": "https://dc.lft.to/lastmile_qr_scan", "ios": "https://dc.lft.to/lastmile_qr_scan"}, "name": "f4167fb75abc4ce9acff1f14a36061c9", "type": "electric_scooter"}, {"fusion_lat": 0.0, "bike_id": "f5f118b0357b4f8ae600c96586fd1409", "fusion_lon": 0.0, "lon": -76.99693516666666, "lat": 38.90827433333333, "is_reserved": 0, "is_disabled": 0, "rental_uris": {"android": "https://dc.lft.to/lastmile_qr_scan", "ios": "https://dc.lft.to/lastmile_qr_scan"}, "name": "f5f118b0357b4f8ae600c96586fd1409", "type": "electric_scooter"}, {"fusion_lat": 0.0, "bike_id": "e817fa8401f6c1ea982b3944ebb462b4", "fusion_lon": 0.0, "lon": -77.05810116666666, "lat": 38.934934, "is_reserved": 0, "is_disabled": 0, "rental_uris": {"android": "https://dc.lft.to/lastmile_qr_scan", "ios": "https://dc.lft.to/lastmile_qr_scan"}, "name": "e817fa8401f6c1ea982b3944ebb462b4", "type": "electric_scooter"}, {"fusion_lat": 0.0, "bike_id": "ad82135ce1b6301ac255e6c107704f14", "fusion_lon": 0.0, "lon": -77.03544116666667, "lat": 38.91869583333333, "is_reserved": 0, "is_disabled": 0, "rental_uris": {"android": "https://dc.lft.to/lastmile_qr_scan", "ios": "https://dc.lft.to/lastmile_qr_scan"}, "name": "ad82135ce1b6301ac255e6c107704f14", "type": "electric_scooter"}, {"fusion_lat": 0.0, "bike_id": "5103e5438f64c5fca3c3e3e2805d577c", "fusion_lon": 0.0, "lon": -77.025702, "lat": 38.9148945, "is_reserved": 0, "is_disabled": 0, "rental_uris": {"android": "https://dc.lft.to/lastmile_qr_scan", "ios": "https://dc.lft.to/lastmile_qr_scan"}, "name": "5103e5438f64c5fca3c3e3e2805d577c", "type": "electric_scooter"}, {"fusion_lat": 0.0, "bike_id": "d5dd1f73a186030ab1207fd285fe8f2e", "fusion_lon": 0.0, "lon": -77.0322025, "lat": 38.9086965, "is_reserved": 0, "is_disabled": 0, "rental_uris": {"android": "https://dc.lft.to/lastmile_qr_scan", "ios": "https://dc.lft.to/lastmile_qr_scan"}, "name": "d5dd1f73a186030ab1207fd285fe8f2e", "type": "electric_scooter"}, {"fusion_lat": 0.0, "bike_id": "b0a34a80c068bdb03d572edcff6e3d7b", "fusion_lon": 0.0, "lon": -77.00880183333334, "lat": 38.9038055, "is_reserved": 0, "is_disabled": 0, "rental_uris": {"android": "https://dc.lft.to/lastmile_qr_scan", "ios": "https://dc.lft.to/lastmile_qr_scan"}, "name": "b0a34a80c068bdb03d572edcff6e3d7b", "type": "electric_bike"}, {"fusion_lat": 0.0, "bike_id": "64fb2069211a471300c282fc91b74ae8", "fusion_lon": 0.0, "lon": -77.0285595, "lat": 38.912493833333336, "is_reserved": 0, "is_disabled": 0, "rental_uris": {"android": "https://dc.lft.to/lastmile_qr_scan", "ios": "https://dc.lft.to/lastmile_qr_scan"}, "name": "64fb2069211a471300c282fc91b74ae8", "type": "electric_scooter"}, {"fusion_lat": 0.0, "bike_id": "6303f5da27ab1d5fc64b6b77cb00ac56", "fusion_lon": 0.0, "lon": -77.06700533333333, "lat": 38.9144205, "is_reserved": 0, "is_disabled": 0, "rental_uris": {"android": "https://dc.lft.to/lastmile_qr_scan", "ios": "https://dc.lft.to/lastmile_qr_scan"}, "name": "6303f5da27ab1d5fc64b6b77cb00ac56", "type": "electric_scooter"}, {"fusion_lat": 0.0, "bike_id": "1e717d78692bafa92c26b4f855928a10", "fusion_lon": 0.0, "lon": -77.03041583333334, "lat": 38.916774333333336, "is_reserved": 0, "is_disabled": 0, "rental_uris": {"android": "https://dc.lft.to/lastmile_qr_scan", "ios": "https://dc.lft.to/lastmile_qr_scan"}, "name": "1e717d78692bafa92c26b4f855928a10", "type": "electric_scooter"}, {"fusion_lat": 0.0, "bike_id": "4d5bdc294de94ae6312b6bca1d845ca7", "fusion_lon": 0.0, "lon": -77.020549, "lat": 38.923635166666664, "is_reserved": 0, "is_disabled": 0, "rental_uris": {"android": "https://dc.lft.to/lastmile_qr_scan", "ios": "https://dc.lft.to/lastmile_qr_scan"}, "name": "4d5bdc294de94ae6312b6bca1d845ca7", "type": "electric_scooter"}, {"fusion_lat": 0.0, "bike_id": "44535add71eef21d8b185e5842e050dc", "fusion_lon": 0.0, "lon": -77.04376116666667, "lat": 38.900198833333334, "is_reserved": 0, "is_disabled": 0, "rental_uris": {"android": "https://dc.lft.to/lastmile_qr_scan", "ios": "https://dc.lft.to/lastmile_qr_scan"}, "name": "44535add71eef21d8b185e5842e050dc", "type": "electric_scooter"}, {"fusion_lat": 0.0, "bike_id": "071209b399dbc2aab8b6b7f2a10aedd8", "fusion_lon": 0.0, "lon": -77.00601583333334, "lat": 38.8718275, "is_reserved": 0, "is_disabled": 0, "rental_uris": {"android": "https://dc.lft.to/lastmile_qr_scan", "ios": "https://dc.lft.to/lastmile_qr_scan"}, "name": "071209b399dbc2aab8b6b7f2a10aedd8", "type": "electric_scooter"}, {"fusion_lat": 0.0, "bike_id": "b871ae07b86e5cc5fa229ce0a2b8daf4", "fusion_lon": 0.0, "lon": -77.03212883333333, "lat": 38.90441666666667, "is_reserved": 0, "is_disabled": 0, "rental_uris": {"android": "https://dc.lft.to/lastmile_qr_scan", "ios": "https://dc.lft.to/lastmile_qr_scan"}, "name": "b871ae07b86e5cc5fa229ce0a2b8daf4", "type": "electric_scooter"}, {"fusion_lat": 0.0, "bike_id": "726a13a66e184244e0296e421d9e13c0", "fusion_lon": 0.0, "lon": -77.01409833333334, "lat": 38.914816333333334, "is_reserved": 0, "is_disabled": 0, "rental_uris": {"android": "https://dc.lft.to/lastmile_qr_scan", "ios": "https://dc.lft.to/lastmile_qr_scan"}, "name": "726a13a66e184244e0296e421d9e13c0", "type": "electric_scooter"}, {"fusion_lat": 0.0, "bike_id": "dfaf5d45ceb3865cca29591953f73519", "fusion_lon": 0.0, "lon": -77.05498966666667, "lat": 38.92972816666666, "is_reserved": 0, "is_disabled": 0, "rental_uris": {"android": "https://dc.lft.to/lastmile_qr_scan", "ios": "https://dc.lft.to/lastmile_qr_scan"}, "name": "dfaf5d45ceb3865cca29591953f73519", "type": "electric_scooter"}, {"fusion_lat": 0.0, "bike_id": "905851d1121a59758a90fd98b39ab126", "fusion_lon": 0.0, "lon": -77.03180816666666, "lat": 38.91396266666667, "is_reserved": 0, "is_disabled": 0, "rental_uris": {"android": "https://dc.lft.to/lastmile_qr_scan", "ios": "https://dc.lft.to/lastmile_qr_scan"}, "name": "905851d1121a59758a90fd98b39ab126", "type": "electric_scooter"}, {"fusion_lat": 0.0, "bike_id": "8f25436c434331f9b6e407d1fe938edb", "fusion_lon": 0.0, "lon": -77.028409, "lat": 38.925771166666664, "is_reserved": 0, "is_disabled": 0, "rental_uris": {"android": "https://dc.lft.to/lastmile_qr_scan", "ios": "https://dc.lft.to/lastmile_qr_scan"}, "name": "8f25436c434331f9b6e407d1fe938edb", "type": "electric_scooter"}, {"fusion_lat": 0.0, "bike_id": "a76c70a841aa0ee0d395c3a1bd795683", "fusion_lon": 0.0, "lon": -77.03274683333333, "lat": 38.9199865, "is_reserved": 0, "is_disabled": 0, "rental_uris": {"android": "https://dc.lft.to/lastmile_qr_scan", "ios": "https://dc.lft.to/lastmile_qr_scan"}, "name": "a76c70a841aa0ee0d395c3a1bd795683", "type": "electric_scooter"}, {"fusion_lat": 0.0, "bike_id": "6fcf0a1612658db766a94f6ad9562062", "fusion_lon": 0.0, "lon": -77.032108, "lat": 38.89624966666667, "is_reserved": 0, "is_disabled": 0, "rental_uris": {"android": "https://dc.lft.to/lastmile_qr_scan", "ios": "https://dc.lft.to/lastmile_qr_scan"}, "name": "6fcf0a1612658db766a94f6ad9562062", "type": "electric_scooter"}, {"fusion_lat": 0.0, "bike_id": "299e3c08220d282b86cd6e4085cf7c4b", "fusion_lon": 0.0, "lon": -77.112805, "lat": 39.04753866666667, "is_reserved": 0, "is_disabled": 0, "rental_uris": {"android": "https://dc.lft.to/lastmile_qr_scan", "ios": "https://dc.lft.to/lastmile_qr_scan"}, "name": "299e3c08220d282b86cd6e4085cf7c4b", "type": "electric_bike"}, {"fusion_lat": 0.0, "bike_id": "d9dafeba3d51d364748742c7fbb8d199", "fusion_lon": 0.0, "lon": -77.02482883333333, "lat": 38.916982, "is_reserved": 0, "is_disabled": 0, "rental_uris": {"android": "https://dc.lft.to/lastmile_qr_scan", "ios": "https://dc.lft.to/lastmile_qr_scan"}, "name": "d9dafeba3d51d364748742c7fbb8d199", "type": "electric_scooter"}, {"fusion_lat": 0.0, "bike_id": "ebff33a1066eaf0a55e96a48c638513d", "fusion_lon": 0.0, "lon": -76.94973683333333, "lat": 38.893715666666665, "is_reserved": 0, "is_disabled": 0, "rental_uris": {"android": "https://dc.lft.to/lastmile_qr_scan", "ios": "https://dc.lft.to/lastmile_qr_scan"}, "name": "ebff33a1066eaf0a55e96a48c638513d", "type": "electric_scooter"}, {"fusion_lat": 0.0, "bike_id": "ec11d29d0a685e6ed49ed86776b4a683", "fusion_lon": 0.0, "lon": -76.92925816666667, "lat": 38.9027155, "is_reserved": 0, "is_disabled": 0, "rental_uris": {"android": "https://dc.lft.to/lastmile_qr_scan", "ios": "https://dc.lft.to/lastmile_qr_scan"}, "name": "ec11d29d0a685e6ed49ed86776b4a683", "type": "electric_bike"}, {"fusion_lat": 0.0, "bike_id": "826fd1aaa28a31a4d62d7abb003e59fe", "fusion_lon": 0.0, "lon": -76.93528116666667, "lat": 38.89683183333333, "is_reserved": 0, "is_disabled": 0, "rental_uris": {"android": "https://dc.lft.to/lastmile_qr_scan", "ios": "https://dc.lft.to/lastmile_qr_scan"}, "name": "826fd1aaa28a31a4d62d7abb003e59fe", "type": "electric_scooter"}, {"fusion_lat": 0.0, "bike_id": "3263fd4bbeb6e75714cb98fd0bd8f9cc", "fusion_lon": 0.0, "lon": -77.02387183333333, "lat": 38.90791816666667, "is_reserved": 0, "is_disabled": 0, "rental_uris": {"android": "https://dc.lft.to/lastmile_qr_scan", "ios": "https://dc.lft.to/lastmile_qr_scan"}, "name": "3263fd4bbeb6e75714cb98fd0bd8f9cc", "type": "electric_scooter"}, {"fusion_lat": 0.0, "bike_id": "7d1736fd05f730aed49064b6029a6061", "fusion_lon": 0.0, "lon": -77.03459316666667, "lat": 38.907333333333334, "is_reserved": 0, "is_disabled": 0, "rental_uris": {"android": "https://dc.lft.to/lastmile_qr_scan", "ios": "https://dc.lft.to/lastmile_qr_scan"}, "name": "7d1736fd05f730aed49064b6029a6061", "type": "electric_scooter"}, {"fusion_lat": 0.0, "bike_id": "0eb919651d6000ceeed865581bcda48b", "fusion_lon": 0.0, "lon": -77.00067816666666, "lat": 38.901455, "is_reserved": 0, "is_disabled": 0, "rental_uris": {"android": "https://dc.lft.to/lastmile_qr_scan", "ios": "https://dc.lft.to/lastmile_qr_scan"}, "name": "0eb919651d6000ceeed865581bcda48b", "type": "electric_scooter"}, {"fusion_lat": 0.0, "bike_id": "53e3e02514c8a7bfba070f84da6b7ad0", "fusion_lon": 0.0, "lon": -77.0195395, "lat": 38.923265, "is_reserved": 0, "is_disabled": 0, "rental_uris": {"android": "https://dc.lft.to/lastmile_qr_scan", "ios": "https://dc.lft.to/lastmile_qr_scan"}, "name": "53e3e02514c8a7bfba070f84da6b7ad0", "type": "electric_scooter"}, {"fusion_lat": 0.0, "bike_id": "481f6cc82f062a38e6de28786e455d40", "fusion_lon": 0.0, "lon": -77.0119605, "lat": 38.89660583333333, "is_reserved": 0, "is_disabled": 0, "rental_uris": {"android": "https://dc.lft.to/lastmile_qr_scan", "ios": "https://dc.lft.to/lastmile_qr_scan"}, "name": "481f6cc82f062a38e6de28786e455d40", "type": "electric_scooter"}, {"fusion_lat": 0.0, "bike_id": "adac1170f7daae2a80e238dbeba04881", "fusion_lon": 0.0, "lon": -76.9973465, "lat": 39.04233166666667, "is_reserved": 0, "is_disabled": 0, "rental_uris": {"android": "https://dc.lft.to/lastmile_qr_scan", "ios": "https://dc.lft.to/lastmile_qr_scan"}, "name": "adac1170f7daae2a80e238dbeba04881", "type": "electric_bike"}, {"fusion_lat": 0.0, "bike_id": "013bc354d021dc9f255188ef51732aab", "fusion_lon": 0.0, "lon": -77.00696416666666, "lat": 38.909145333333335, "is_reserved": 0, "is_disabled": 0, "rental_uris": {"android": "https://dc.lft.to/lastmile_qr_scan", "ios": "https://dc.lft.to/lastmile_qr_scan"}, "name": "013bc354d021dc9f255188ef51732aab", "type": "electric_scooter"}, {"fusion_lat": 0.0, "bike_id": "68b5b2b8d24faf470a5267ba1cf7981d", "fusion_lon": 0.0, "lon": -77.04359033333333, "lat": 38.910430166666664, "is_reserved": 0, "is_disabled": 0, "rental_uris": {"android": "https://dc.lft.to/lastmile_qr_scan", "ios": "https://dc.lft.to/lastmile_qr_scan"}, "name": "68b5b2b8d24faf470a5267ba1cf7981d", "type": "electric_scooter"}, {"fusion_lat": 0.0, "bike_id": "972077a2d127b28a78c55702ddc17ec3", "fusion_lon": 0.0, "lon": -77.0415675, "lat": 38.9083835, "is_reserved": 0, "is_disabled": 0, "rental_uris": {"android": "https://dc.lft.to/lastmile_qr_scan", "ios": "https://dc.lft.to/lastmile_qr_scan"}, "name": "972077a2d127b28a78c55702ddc17ec3", "type": "electric_scooter"}, {"fusion_lat": 0.0, "bike_id": "054b6527cbd0058af0f46eee4d3b6190", "fusion_lon": 0.0, "lon": -77.02400916666667, "lat": 38.88287316666667, "is_reserved": 0, "is_disabled": 0, "rental_uris": {"android": "https://dc.lft.to/lastmile_qr_scan", "ios": "https://dc.lft.to/lastmile_qr_scan"}, "name": "054b6527cbd0058af0f46eee4d3b6190", "type": "electric_scooter"}, {"fusion_lat": 0.0, "bike_id": "52a81f1c70d107301c07f08f27c48f40", "fusion_lon": 0.0, "lon": -77.0219685, "lat": 38.91173366666666, "is_reserved": 0, "is_disabled": 0, "rental_uris": {"android": "https://dc.lft.to/lastmile_qr_scan", "ios": "https://dc.lft.to/lastmile_qr_scan"}, "name": "52a81f1c70d107301c07f08f27c48f40", "type": "electric_scooter"}, {"fusion_lat": 0.0, "bike_id": "7754998694b8ed85d8db88b8847ec041", "fusion_lon": 0.0, "lon": -77.02826266666666, "lat": 38.9508005, "is_reserved": 0, "is_disabled": 0, "rental_uris": {"android": "https://dc.lft.to/lastmile_qr_scan", "ios": "https://dc.lft.to/lastmile_qr_scan"}, "name": "7754998694b8ed85d8db88b8847ec041", "type": "electric_scooter"}, {"fusion_lat": 0.0, "bike_id": "593064946ba04caa39b43507cb218343", "fusion_lon": 0.0, "lon": -77.0591285, "lat": 38.90567083333333, "is_reserved": 0, "is_disabled": 0, "rental_uris": {"android": "https://dc.lft.to/lastmile_qr_scan", "ios": "https://dc.lft.to/lastmile_qr_scan"}, "name": "593064946ba04caa39b43507cb218343", "type": "electric_scooter"}, {"fusion_lat": 0.0, "bike_id": "e257775467c110c4bca66b7d7b08cd4f", "fusion_lon": 0.0, "lon": -77.02765616666667, "lat": 38.881604833333334, "is_reserved": 0, "is_disabled": 0, "rental_uris": {"android": "https://dc.lft.to/lastmile_qr_scan", "ios": "https://dc.lft.to/lastmile_qr_scan"}, "name": "e257775467c110c4bca66b7d7b08cd4f", "type": "electric_scooter"}, {"fusion_lat": 0.0, "bike_id": "85dabbbfc03bffd143bfa93b74e0fed7", "fusion_lon": 0.0, "lon": -77.0416955, "lat": 38.915479833333336, "is_reserved": 0, "is_disabled": 0, "rental_uris": {"android": "https://dc.lft.to/lastmile_qr_scan", "ios": "https://dc.lft.to/lastmile_qr_scan"}, "name": "85dabbbfc03bffd143bfa93b74e0fed7", "type": "electric_scooter"}, {"fusion_lat": 0.0, "bike_id": "75404bb775d6a451a2abdf88606c473b", "fusion_lon": 0.0, "lon": -77.07853266666666, "lat": 38.919563333333336, "is_reserved": 0, "is_disabled": 0, "rental_uris": {"android": "https://dc.lft.to/lastmile_qr_scan", "ios": "https://dc.lft.to/lastmile_qr_scan"}, "name": "75404bb775d6a451a2abdf88606c473b", "type": "electric_bike"}, {"fusion_lat": 0.0, "bike_id": "1aa3b70b2935e6ed0370451743317aad", "fusion_lon": 0.0, "lon": -77.02017166666667, "lat": 38.914019833333334, "is_reserved": 0, "is_disabled": 0, "rental_uris": {"android": "https://dc.lft.to/lastmile_qr_scan", "ios": "https://dc.lft.to/lastmile_qr_scan"}, "name": "1aa3b70b2935e6ed0370451743317aad", "type": "electric_scooter"}, {"fusion_lat": 0.0, "bike_id": "9b144e646cea3bbe927318d1a31ade62", "fusion_lon": 0.0, "lon": -77.05004916666667, "lat": 38.89772883333333, "is_reserved": 0, "is_disabled": 0, "rental_uris": {"android": "https://dc.lft.to/lastmile_qr_scan", "ios": "https://dc.lft.to/lastmile_qr_scan"}, "name": "9b144e646cea3bbe927318d1a31ade62", "type": "electric_scooter"}, {"fusion_lat": 0.0, "bike_id": "7b4f0093536c563338048ef1785f6773", "fusion_lon": 0.0, "lon": -77.10345666666667, "lat": 38.885538833333335, "is_reserved": 0, "is_disabled": 0, "rental_uris": {"android": "https://dc.lft.to/lastmile_qr_scan", "ios": "https://dc.lft.to/lastmile_qr_scan"}, "name": "7b4f0093536c563338048ef1785f6773", "type": "electric_bike"}, {"fusion_lat": 0.0, "bike_id": "27fb5d7afe5aec08a70c787294253d8e", "fusion_lon": 0.0, "lon": -77.03914666666667, "lat": 38.91838533333333, "is_reserved": 0, "is_disabled": 0, "rental_uris": {"android": "https://dc.lft.to/lastmile_qr_scan", "ios": "https://dc.lft.to/lastmile_qr_scan"}, "name": "27fb5d7afe5aec08a70c787294253d8e", "type": "electric_scooter"}, {"fusion_lat": 0.0, "bike_id": "0df8186379da7ac857c71ccf673a2d93", "fusion_lon": 0.0, "lon": -77.0325765, "lat": 38.9289205, "is_reserved": 0, "is_disabled": 0, "rental_uris": {"android": "https://dc.lft.to/lastmile_qr_scan", "ios": "https://dc.lft.to/lastmile_qr_scan"}, "name": "0df8186379da7ac857c71ccf673a2d93", "type": "electric_scooter"}, {"fusion_lat": 0.0, "bike_id": "2e2d948a583e65ea0b844a907799c21f", "fusion_lon": 0.0, "lon": -77.04464633333333, "lat": 38.896095, "is_reserved": 0, "is_disabled": 0, "rental_uris": {"android": "https://dc.lft.to/lastmile_qr_scan", "ios": "https://dc.lft.to/lastmile_qr_scan"}, "name": "2e2d948a583e65ea0b844a907799c21f", "type": "electric_scooter"}, {"fusion_lat": 0.0, "bike_id": "e4ac7a3c49c14bbe341e6f40a86bc9c0", "fusion_lon": 0.0, "lon": -77.00207483333334, "lat": 38.902371, "is_reserved": 0, "is_disabled": 0, "rental_uris": {"android": "https://dc.lft.to/lastmile_qr_scan", "ios": "https://dc.lft.to/lastmile_qr_scan"}, "name": "e4ac7a3c49c14bbe341e6f40a86bc9c0", "type": "electric_scooter"}, {"fusion_lat": 0.0, "bike_id": "f2ac4b1facf60e6cd4aad9a80817d999", "fusion_lon": 0.0, "lon": -77.02107216666667, "lat": 38.921778833333335, "is_reserved": 0, "is_disabled": 0, "rental_uris": {"android": "https://dc.lft.to/lastmile_qr_scan", "ios": "https://dc.lft.to/lastmile_qr_scan"}, "name": "f2ac4b1facf60e6cd4aad9a80817d999", "type": "electric_scooter"}, {"fusion_lat": 0.0, "bike_id": "d73b4147c4aa3cfc052d07e782e622ac", "fusion_lon": 0.0, "lon": -76.9302805, "lat": 38.900125, "is_reserved": 0, "is_disabled": 0, "rental_uris": {"android": "https://dc.lft.to/lastmile_qr_scan", "ios": "https://dc.lft.to/lastmile_qr_scan"}, "name": "d73b4147c4aa3cfc052d07e782e622ac", "type": "electric_scooter"}, {"fusion_lat": 0.0, "bike_id": "bc05f6f4bbc8313d567fa339b90341c2", "fusion_lon": 0.0, "lon": -77.03502666666667, "lat": 38.921438333333334, "is_reserved": 0, "is_disabled": 0, "rental_uris": {"android": "https://dc.lft.to/lastmile_qr_scan", "ios": "https://dc.lft.to/lastmile_qr_scan"}, "name": "bc05f6f4bbc8313d567fa339b90341c2", "type": "electric_scooter"}, {"fusion_lat": 0.0, "bike_id": "bb684ae6d07c9b27c3970217c0003760", "fusion_lon": 0.0, "lon": -77.02420016666666, "lat": 38.91822483333333, "is_reserved": 0, "is_disabled": 0, "rental_uris": {"android": "https://dc.lft.to/lastmile_qr_scan", "ios": "https://dc.lft.to/lastmile_qr_scan"}, "name": "bb684ae6d07c9b27c3970217c0003760", "type": "electric_scooter"}, {"fusion_lat": 0.0, "bike_id": "f94034a19f7fd8fa0660b9cb290c5317", "fusion_lon": 0.0, "lon": -77.01255983333333, "lat": 38.900056, "is_reserved": 0, "is_disabled": 0, "rental_uris": {"android": "https://dc.lft.to/lastmile_qr_scan", "ios": "https://dc.lft.to/lastmile_qr_scan"}, "name": "f94034a19f7fd8fa0660b9cb290c5317", "type": "electric_scooter"}, {"fusion_lat": 0.0, "bike_id": "e679c14d03ee35a16503e23313a6ae4a", "fusion_lon": 0.0, "lon": -77.04982183333334, "lat": 38.90108633333333, "is_reserved": 0, "is_disabled": 0, "rental_uris": {"android": "https://dc.lft.to/lastmile_qr_scan", "ios": "https://dc.lft.to/lastmile_qr_scan"}, "name": "e679c14d03ee35a16503e23313a6ae4a", "type": "electric_scooter"}, {"fusion_lat": 0.0, "bike_id": "3a20cadda08270fae8e4d734b16a2fff", "fusion_lon": 0.0, "lon": -77.028154, "lat": 38.931747333333334, "is_reserved": 0, "is_disabled": 0, "rental_uris": {"android": "https://dc.lft.to/lastmile_qr_scan", "ios": "https://dc.lft.to/lastmile_qr_scan"}, "name": "3a20cadda08270fae8e4d734b16a2fff", "type": "electric_scooter"}, {"fusion_lat": 0.0, "bike_id": "b010a8bfef1470435bddf9fc265a060a", "fusion_lon": 0.0, "lon": -77.04107966666666, "lat": 38.9103605, "is_reserved": 0, "is_disabled": 0, "rental_uris": {"android": "https://dc.lft.to/lastmile_qr_scan", "ios": "https://dc.lft.to/lastmile_qr_scan"}, "name": "b010a8bfef1470435bddf9fc265a060a", "type": "electric_scooter"}, {"fusion_lat": 0.0, "bike_id": "fbf2d44c7a3eb9e95efcfa0e0f9f322e", "fusion_lon": 0.0, "lon": -77.03503683333334, "lat": 38.92138033333333, "is_reserved": 0, "is_disabled": 0, "rental_uris": {"android": "https://dc.lft.to/lastmile_qr_scan", "ios": "https://dc.lft.to/lastmile_qr_scan"}, "name": "fbf2d44c7a3eb9e95efcfa0e0f9f322e", "type": "electric_scooter"}, {"fusion_lat": 0.0, "bike_id": "4e2229bfa4d4a268be4cc0e0a45e419e", "fusion_lon": 0.0, "lon": -77.04326333333333, "lat": 38.9219595, "is_reserved": 0, "is_disabled": 0, "rental_uris": {"android": "https://dc.lft.to/lastmile_qr_scan", "ios": "https://dc.lft.to/lastmile_qr_scan"}, "name": "4e2229bfa4d4a268be4cc0e0a45e419e", "type": "electric_scooter"}, {"fusion_lat": 0.0, "bike_id": "9568f765414781504c49ef0a1ab2a169", "fusion_lon": 0.0, "lon": -77.01495133333333, "lat": 38.8922005, "is_reserved": 0, "is_disabled": 0, "rental_uris": {"android": "https://dc.lft.to/lastmile_qr_scan", "ios": "https://dc.lft.to/lastmile_qr_scan"}, "name": "9568f765414781504c49ef0a1ab2a169", "type": "electric_scooter"}, {"fusion_lat": 0.0, "bike_id": "de35bec6a83528ae7a2f68634c09ce52", "fusion_lon": 0.0, "lon": -77.02734133333334, "lat": 38.90013233333333, "is_reserved": 0, "is_disabled": 0, "rental_uris": {"android": "https://dc.lft.to/lastmile_qr_scan", "ios": "https://dc.lft.to/lastmile_qr_scan"}, "name": "de35bec6a83528ae7a2f68634c09ce52", "type": "electric_scooter"}, {"fusion_lat": 0.0, "bike_id": "89a4558f74e943b6e3c40a0d3696b6e5", "fusion_lon": 0.0, "lon": -77.069382, "lat": 38.95208366666667, "is_reserved": 0, "is_disabled": 0, "rental_uris": {"android": "https://dc.lft.to/lastmile_qr_scan", "ios": "https://dc.lft.to/lastmile_qr_scan"}, "name": "89a4558f74e943b6e3c40a0d3696b6e5", "type": "electric_scooter"}, {"fusion_lat": 0.0, "bike_id": "7dd9f4982292cf28d757a111f99adf4e", "fusion_lon": 0.0, "lon": -77.03222583333333, "lat": 38.89228883333333, "is_reserved": 0, "is_disabled": 0, "rental_uris": {"android": "https://dc.lft.to/lastmile_qr_scan", "ios": "https://dc.lft.to/lastmile_qr_scan"}, "name": "7dd9f4982292cf28d757a111f99adf4e", "type": "electric_scooter"}, {"fusion_lat": 0.0, "bike_id": "58b2b9cf43f89a862b27b78707edbe9e", "fusion_lon": 0.0, "lon": -77.047128, "lat": 38.90248366666667, "is_reserved": 0, "is_disabled": 0, "rental_uris": {"android": "https://dc.lft.to/lastmile_qr_scan", "ios": "https://dc.lft.to/lastmile_qr_scan"}, "name": "58b2b9cf43f89a862b27b78707edbe9e", "type": "electric_scooter"}, {"fusion_lat": 0.0, "bike_id": "42cd88dbe0491dc451fb6f9ae59e55bb", "fusion_lon": 0.0, "lon": -77.03584166666667, "lat": 38.992275166666666, "is_reserved": 0, "is_disabled": 0, "rental_uris": {"android": "https://dc.lft.to/lastmile_qr_scan", "ios": "https://dc.lft.to/lastmile_qr_scan"}, "name": "42cd88dbe0491dc451fb6f9ae59e55bb", "type": "electric_scooter"}, {"fusion_lat": 0.0, "bike_id": "7ab1b110434f46b737ea83038bedf400", "fusion_lon": 0.0, "lon": -77.0833155, "lat": 38.8543985, "is_reserved": 0, "is_disabled": 0, "rental_uris": {"android": "https://dc.lft.to/lastmile_qr_scan", "ios": "https://dc.lft.to/lastmile_qr_scan"}, "name": "7ab1b110434f46b737ea83038bedf400", "type": "electric_bike"}, {"fusion_lat": 0.0, "bike_id": "ade889501281f451d08b46297d800328", "fusion_lon": 0.0, "lon": -77.03841016666667, "lat": 38.9041225, "is_reserved": 0, "is_disabled": 0, "rental_uris": {"android": "https://dc.lft.to/lastmile_qr_scan", "ios": "https://dc.lft.to/lastmile_qr_scan"}, "name": "ade889501281f451d08b46297d800328", "type": "electric_scooter"}, {"fusion_lat": 0.0, "bike_id": "9da48e5dd878a630d5dd2feb2a877ebc", "fusion_lon": 0.0, "lon": -76.97824866666667, "lat": 38.84370533333333, "is_reserved": 0, "is_disabled": 0, "rental_uris": {"android": "https://dc.lft.to/lastmile_qr_scan", "ios": "https://dc.lft.to/lastmile_qr_scan"}, "name": "9da48e5dd878a630d5dd2feb2a877ebc", "type": "electric_bike"}, {"fusion_lat": 0.0, "bike_id": "4d40e5d0e72b71ab7c6a77a4e82d014d", "fusion_lon": 0.0, "lon": -77.03460733333333, "lat": 38.926354, "is_reserved": 0, "is_disabled": 0, "rental_uris": {"android": "https://dc.lft.to/lastmile_qr_scan", "ios": "https://dc.lft.to/lastmile_qr_scan"}, "name": "4d40e5d0e72b71ab7c6a77a4e82d014d", "type": "electric_scooter"}, {"fusion_lat": 0.0, "bike_id": "3a5828a63903921d58229b7a847af6aa", "fusion_lon": 0.0, "lon": -77.0201855, "lat": 38.91402183333334, "is_reserved": 0, "is_disabled": 0, "rental_uris": {"android": "https://dc.lft.to/lastmile_qr_scan", "ios": "https://dc.lft.to/lastmile_qr_scan"}, "name": "3a5828a63903921d58229b7a847af6aa", "type": "electric_scooter"}, {"fusion_lat": 0.0, "bike_id": "61ef4873f18323fa2c65aa0abb4aa3e1", "fusion_lon": 0.0, "lon": -77.04351016666666, "lat": 38.901259333333336, "is_reserved": 0, "is_disabled": 0, "rental_uris": {"android": "https://dc.lft.to/lastmile_qr_scan", "ios": "https://dc.lft.to/lastmile_qr_scan"}, "name": "61ef4873f18323fa2c65aa0abb4aa3e1", "type": "electric_scooter"}, {"fusion_lat": 0.0, "bike_id": "c51fdd9dbfaa7fc35bfb125085506b25", "fusion_lon": 0.0, "lon": -76.99881666666667, "lat": 38.907554833333336, "is_reserved": 0, "is_disabled": 0, "rental_uris": {"android": "https://dc.lft.to/lastmile_qr_scan", "ios": "https://dc.lft.to/lastmile_qr_scan"}, "name": "c51fdd9dbfaa7fc35bfb125085506b25", "type": "electric_scooter"}, {"fusion_lat": 0.0, "bike_id": "0d204a8fa8ecb6d8d4259418efa76681", "fusion_lon": 0.0, "lon": -77.032929, "lat": 38.90976966666667, "is_reserved": 0, "is_disabled": 0, "rental_uris": {"android": "https://dc.lft.to/lastmile_qr_scan", "ios": "https://dc.lft.to/lastmile_qr_scan"}, "name": "0d204a8fa8ecb6d8d4259418efa76681", "type": "electric_scooter"}, {"fusion_lat": 0.0, "bike_id": "998e6c2b25150fff125ceaf90cb10839", "fusion_lon": 0.0, "lon": -76.98761216666666, "lat": 38.85768066666667, "is_reserved": 0, "is_disabled": 0, "rental_uris": {"android": "https://dc.lft.to/lastmile_qr_scan", "ios": "https://dc.lft.to/lastmile_qr_scan"}, "name": "998e6c2b25150fff125ceaf90cb10839", "type": "electric_bike"}, {"fusion_lat": 0.0, "bike_id": "dbfd72287d6662b10e095677d712ab3f", "fusion_lon": 0.0, "lon": -77.0318475, "lat": 38.90871466666667, "is_reserved": 0, "is_disabled": 0, "rental_uris": {"android": "https://dc.lft.to/lastmile_qr_scan", "ios": "https://dc.lft.to/lastmile_qr_scan"}, "name": "dbfd72287d6662b10e095677d712ab3f", "type": "electric_scooter"}, {"fusion_lat": 0.0, "bike_id": "e6f38ec510edd252dd927c0400e32438", "fusion_lon": 0.0, "lon": -77.108307, "lat": 38.8120195, "is_reserved": 0, "is_disabled": 0, "rental_uris": {"android": "https://dc.lft.to/lastmile_qr_scan", "ios": "https://dc.lft.to/lastmile_qr_scan"}, "name": "e6f38ec510edd252dd927c0400e32438", "type": "electric_bike"}, {"fusion_lat": 0.0, "bike_id": "c26645a59cfd95174bcc3bfc7845287d", "fusion_lon": 0.0, "lon": -77.1008405, "lat": 38.9595545, "is_reserved": 0, "is_disabled": 0, "rental_uris": {"android": "https://dc.lft.to/lastmile_qr_scan", "ios": "https://dc.lft.to/lastmile_qr_scan"}, "name": "c26645a59cfd95174bcc3bfc7845287d", "type": "electric_bike"}, {"fusion_lat": 0.0, "bike_id": "935fb1e0a9029bf19f2fc05d7a0853b3", "fusion_lon": 0.0, "lon": -76.98922483333334, "lat": 38.86566933333334, "is_reserved": 0, "is_disabled": 0, "rental_uris": {"android": "https://dc.lft.to/lastmile_qr_scan", "ios": "https://dc.lft.to/lastmile_qr_scan"}, "name": "935fb1e0a9029bf19f2fc05d7a0853b3", "type": "electric_scooter"}, {"fusion_lat": 0.0, "bike_id": "6dc2a099fd9fae289ce0aac8d0737cae", "fusion_lon": 0.0, "lon": -77.0329065, "lat": 38.928488333333334, "is_reserved": 0, "is_disabled": 0, "rental_uris": {"android": "https://dc.lft.to/lastmile_qr_scan", "ios": "https://dc.lft.to/lastmile_qr_scan"}, "name": "6dc2a099fd9fae289ce0aac8d0737cae", "type": "electric_scooter"}, {"fusion_lat": 0.0, "bike_id": "5983293a0787628a884ad0f1e44efc47", "fusion_lon": 0.0, "lon": -77.021742, "lat": 38.8872475, "is_reserved": 0, "is_disabled": 0, "rental_uris": {"android": "https://dc.lft.to/lastmile_qr_scan", "ios": "https://dc.lft.to/lastmile_qr_scan"}, "name": "5983293a0787628a884ad0f1e44efc47", "type": "electric_scooter"}, {"fusion_lat": 0.0, "bike_id": "07cc157c4ca38b90367f2a5b3fda4092", "fusion_lon": 0.0, "lon": -77.02776583333333, "lat": 38.926821, "is_reserved": 0, "is_disabled": 0, "rental_uris": {"android": "https://dc.lft.to/lastmile_qr_scan", "ios": "https://dc.lft.to/lastmile_qr_scan"}, "name": "07cc157c4ca38b90367f2a5b3fda4092", "type": "electric_scooter"}, {"fusion_lat": 0.0, "bike_id": "2845fb359b586316de63c2c7ab9095b0", "fusion_lon": 0.0, "lon": -76.9989805, "lat": 38.907309833333336, "is_reserved": 0, "is_disabled": 0, "rental_uris": {"android": "https://dc.lft.to/lastmile_qr_scan", "ios": "https://dc.lft.to/lastmile_qr_scan"}, "name": "2845fb359b586316de63c2c7ab9095b0", "type": "electric_scooter"}, {"fusion_lat": 0.0, "bike_id": "36fa9a5ae2d3e1c390e78ec33e2ec9b1", "fusion_lon": 0.0, "lon": -77.045774, "lat": 38.90954516666667, "is_reserved": 0, "is_disabled": 0, "rental_uris": {"android": "https://dc.lft.to/lastmile_qr_scan", "ios": "https://dc.lft.to/lastmile_qr_scan"}, "name": "36fa9a5ae2d3e1c390e78ec33e2ec9b1", "type": "electric_scooter"}, {"fusion_lat": 0.0, "bike_id": "db21efe0a70d38028b91a88f553eeb4f", "fusion_lon": 0.0, "lon": -77.06251, "lat": 38.94414916666667, "is_reserved": 0, "is_disabled": 0, "rental_uris": {"android": "https://dc.lft.to/lastmile_qr_scan", "ios": "https://dc.lft.to/lastmile_qr_scan"}, "name": "db21efe0a70d38028b91a88f553eeb4f", "type": "electric_scooter"}, {"fusion_lat": 0.0, "bike_id": "7807e3d8d1be2d57587d53c8fad8626b", "fusion_lon": 0.0, "lon": -77.03536516666667, "lat": 38.926376833333336, "is_reserved": 0, "is_disabled": 0, "rental_uris": {"android": "https://dc.lft.to/lastmile_qr_scan", "ios": "https://dc.lft.to/lastmile_qr_scan"}, "name": "7807e3d8d1be2d57587d53c8fad8626b", "type": "electric_scooter"}, {"fusion_lat": 0.0, "bike_id": "fbdb560e489beacdf96d4de00d18c516", "fusion_lon": 0.0, "lon": -76.9428935, "lat": 38.938691, "is_reserved": 0, "is_disabled": 0, "rental_uris": {"android": "https://dc.lft.to/lastmile_qr_scan", "ios": "https://dc.lft.to/lastmile_qr_scan"}, "name": "fbdb560e489beacdf96d4de00d18c516", "type": "electric_bike"}, {"fusion_lat": 0.0, "bike_id": "32124c1040b7668ce5fd28e0fd6f014c", "fusion_lon": 0.0, "lon": -76.99969783333333, "lat": 38.908368833333334, "is_reserved": 0, "is_disabled": 0, "rental_uris": {"android": "https://dc.lft.to/lastmile_qr_scan", "ios": "https://dc.lft.to/lastmile_qr_scan"}, "name": "32124c1040b7668ce5fd28e0fd6f014c", "type": "electric_scooter"}, {"fusion_lat": 0.0, "bike_id": "b9c6c49d5da7a996ac353c62185014e4", "fusion_lon": 0.0, "lon": -76.95518083333333, "lat": 38.884677333333336, "is_reserved": 0, "is_disabled": 0, "rental_uris": {"android": "https://dc.lft.to/lastmile_qr_scan", "ios": "https://dc.lft.to/lastmile_qr_scan"}, "name": "b9c6c49d5da7a996ac353c62185014e4", "type": "electric_scooter"}, {"fusion_lat": 0.0, "bike_id": "274c061cdddb0c680e414dbf8e455389", "fusion_lon": 0.0, "lon": -76.99029533333334, "lat": 38.891765, "is_reserved": 0, "is_disabled": 0, "rental_uris": {"android": "https://dc.lft.to/lastmile_qr_scan", "ios": "https://dc.lft.to/lastmile_qr_scan"}, "name": "274c061cdddb0c680e414dbf8e455389", "type": "electric_scooter"}, {"fusion_lat": 0.0, "bike_id": "25d4bce985ad0a264eee67ce979eeb08", "fusion_lon": 0.0, "lon": -76.93620816666666, "lat": 38.89688616666667, "is_reserved": 0, "is_disabled": 0, "rental_uris": {"android": "https://dc.lft.to/lastmile_qr_scan", "ios": "https://dc.lft.to/lastmile_qr_scan"}, "name": "25d4bce985ad0a264eee67ce979eeb08", "type": "electric_scooter"}, {"fusion_lat": 0.0, "bike_id": "a72ba81ec9d4be5f2d43448fb5639d1d", "fusion_lon": 0.0, "lon": -77.03656066666667, "lat": 38.92343733333333, "is_reserved": 0, "is_disabled": 0, "rental_uris": {"android": "https://dc.lft.to/lastmile_qr_scan", "ios": "https://dc.lft.to/lastmile_qr_scan"}, "name": "a72ba81ec9d4be5f2d43448fb5639d1d", "type": "electric_scooter"}, {"fusion_lat": 0.0, "bike_id": "f362550761019a742d1a5af9d3464d9f", "fusion_lon": 0.0, "lon": -77.0262295, "lat": 38.962248333333335, "is_reserved": 0, "is_disabled": 0, "rental_uris": {"android": "https://dc.lft.to/lastmile_qr_scan", "ios": "https://dc.lft.to/lastmile_qr_scan"}, "name": "f362550761019a742d1a5af9d3464d9f", "type": "electric_bike"}, {"fusion_lat": 0.0, "bike_id": "a5618fc550d92c8e8d78630e05d61de4", "fusion_lon": 0.0, "lon": -77.013457, "lat": 38.95616, "is_reserved": 0, "is_disabled": 0, "rental_uris": {"android": "https://dc.lft.to/lastmile_qr_scan", "ios": "https://dc.lft.to/lastmile_qr_scan"}, "name": "a5618fc550d92c8e8d78630e05d61de4", "type": "electric_scooter"}, {"fusion_lat": 0.0, "bike_id": "56118365ef2895aba22f2517bfbeb2ab", "fusion_lon": 0.0, "lon": -77.03445733333334, "lat": 38.90648, "is_reserved": 0, "is_disabled": 0, "rental_uris": {"android": "https://dc.lft.to/lastmile_qr_scan", "ios": "https://dc.lft.to/lastmile_qr_scan"}, "name": "56118365ef2895aba22f2517bfbeb2ab", "type": "electric_scooter"}, {"fusion_lat": 0.0, "bike_id": "840cc0a2c4bbbc908a48508ef7f014a1", "fusion_lon": 0.0, "lon": -77.0504575, "lat": 38.905244, "is_reserved": 0, "is_disabled": 0, "rental_uris": {"android": "https://dc.lft.to/lastmile_qr_scan", "ios": "https://dc.lft.to/lastmile_qr_scan"}, "name": "840cc0a2c4bbbc908a48508ef7f014a1", "type": "electric_scooter"}, {"fusion_lat": 0.0, "bike_id": "5e7f8e9f94a88629c86634090f650cc7", "fusion_lon": 0.0, "lon": -77.02884483333334, "lat": 38.9327695, "is_reserved": 0, "is_disabled": 0, "rental_uris": {"android": "https://dc.lft.to/lastmile_qr_scan", "ios": "https://dc.lft.to/lastmile_qr_scan"}, "name": "5e7f8e9f94a88629c86634090f650cc7", "type": "electric_scooter"}, {"fusion_lat": 0.0, "bike_id": "0d56398ff930ef9b518eabfbef785097", "fusion_lon": 0.0, "lon": -76.93375133333333, "lat": 38.89906333333333, "is_reserved": 0, "is_disabled": 0, "rental_uris": {"android": "https://dc.lft.to/lastmile_qr_scan", "ios": "https://dc.lft.to/lastmile_qr_scan"}, "name": "0d56398ff930ef9b518eabfbef785097", "type": "electric_scooter"}, {"fusion_lat": 0.0, "bike_id": "521902713646804b4af47664082d3b27", "fusion_lon": 0.0, "lon": -77.05327933333334, "lat": 38.906546166666665, "is_reserved": 0, "is_disabled": 0, "rental_uris": {"android": "https://dc.lft.to/lastmile_qr_scan", "ios": "https://dc.lft.to/lastmile_qr_scan"}, "name": "521902713646804b4af47664082d3b27", "type": "electric_scooter"}, {"fusion_lat": 0.0, "bike_id": "44731f00381b3c761df0dea15718d996", "fusion_lon": 0.0, "lon": -77.01984616666667, "lat": 38.9156165, "is_reserved": 0, "is_disabled": 0, "rental_uris": {"android": "https://dc.lft.to/lastmile_qr_scan", "ios": "https://dc.lft.to/lastmile_qr_scan"}, "name": "44731f00381b3c761df0dea15718d996", "type": "electric_scooter"}, {"fusion_lat": 0.0, "bike_id": "397318797b5962ebba879ff0ef3ba5dc", "fusion_lon": 0.0, "lon": -77.0531065, "lat": 38.915499833333335, "is_reserved": 0, "is_disabled": 0, "rental_uris": {"android": "https://dc.lft.to/lastmile_qr_scan", "ios": "https://dc.lft.to/lastmile_qr_scan"}, "name": "397318797b5962ebba879ff0ef3ba5dc", "type": "electric_scooter"}, {"fusion_lat": 0.0, "bike_id": "ea3694c001e2120e6180788a91253740", "fusion_lon": 0.0, "lon": -76.9487845, "lat": 38.894281, "is_reserved": 0, "is_disabled": 0, "rental_uris": {"android": "https://dc.lft.to/lastmile_qr_scan", "ios": "https://dc.lft.to/lastmile_qr_scan"}, "name": "ea3694c001e2120e6180788a91253740", "type": "electric_scooter"}, {"fusion_lat": 0.0, "bike_id": "848095030e2ae598e9b5578394c44ada", "fusion_lon": 0.0, "lon": -77.02704433333334, "lat": 38.949922, "is_reserved": 0, "is_disabled": 0, "rental_uris": {"android": "https://dc.lft.to/lastmile_qr_scan", "ios": "https://dc.lft.to/lastmile_qr_scan"}, "name": "848095030e2ae598e9b5578394c44ada", "type": "electric_scooter"}, {"fusion_lat": 0.0, "bike_id": "a3c1a93f4706177efd6ae893bfdaf406", "fusion_lon": 0.0, "lon": -77.0399345, "lat": 38.9078315, "is_reserved": 0, "is_disabled": 0, "rental_uris": {"android": "https://dc.lft.to/lastmile_qr_scan", "ios": "https://dc.lft.to/lastmile_qr_scan"}, "name": "a3c1a93f4706177efd6ae893bfdaf406", "type": "electric_scooter"}, {"fusion_lat": 0.0, "bike_id": "9044535b81fb094213bf498d8f7806d8", "fusion_lon": 0.0, "lon": -76.99869366666667, "lat": 38.88639083333333, "is_reserved": 0, "is_disabled": 0, "rental_uris": {"android": "https://dc.lft.to/lastmile_qr_scan", "ios": "https://dc.lft.to/lastmile_qr_scan"}, "name": "9044535b81fb094213bf498d8f7806d8", "type": "electric_scooter"}, {"fusion_lat": 0.0, "bike_id": "b3b229389878a42a58906eccadd890de", "fusion_lon": 0.0, "lon": -76.98833233333333, "lat": 38.90033433333333, "is_reserved": 0, "is_disabled": 0, "rental_uris": {"android": "https://dc.lft.to/lastmile_qr_scan", "ios": "https://dc.lft.to/lastmile_qr_scan"}, "name": "b3b229389878a42a58906eccadd890de", "type": "electric_scooter"}, {"fusion_lat": 0.0, "bike_id": "98fed63337d395bebf6de925d387be1c", "fusion_lon": 0.0, "lon": -76.99564833333334, "lat": 38.85176716666667, "is_reserved": 0, "is_disabled": 0, "rental_uris": {"android": "https://dc.lft.to/lastmile_qr_scan", "ios": "https://dc.lft.to/lastmile_qr_scan"}, "name": "98fed63337d395bebf6de925d387be1c", "type": "electric_bike"}, {"fusion_lat": 0.0, "bike_id": "7cbc430bb5870a3af3ed9b935dfe4046", "fusion_lon": 0.0, "lon": -77.03757833333333, "lat": 38.9077955, "is_reserved": 0, "is_disabled": 0, "rental_uris": {"android": "https://dc.lft.to/lastmile_qr_scan", "ios": "https://dc.lft.to/lastmile_qr_scan"}, "name": "7cbc430bb5870a3af3ed9b935dfe4046", "type": "electric_scooter"}, {"fusion_lat": 0.0, "bike_id": "b86ae71d2ec1fa34952ba6d3df444f3a", "fusion_lon": 0.0, "lon": -77.04275583333333, "lat": 38.9095875, "is_reserved": 0, "is_disabled": 0, "rental_uris": {"android": "https://dc.lft.to/lastmile_qr_scan", "ios": "https://dc.lft.to/lastmile_qr_scan"}, "name": "b86ae71d2ec1fa34952ba6d3df444f3a", "type": "electric_scooter"}, {"fusion_lat": 0.0, "bike_id": "0fcb8185aacd3a107b1da04d39295e00", "fusion_lon": 0.0, "lon": -77.00542183333333, "lat": 38.87463133333333, "is_reserved": 0, "is_disabled": 0, "rental_uris": {"android": "https://dc.lft.to/lastmile_qr_scan", "ios": "https://dc.lft.to/lastmile_qr_scan"}, "name": "0fcb8185aacd3a107b1da04d39295e00", "type": "electric_scooter"}, {"fusion_lat": 0.0, "bike_id": "e1cc6e79c58fc8cd59945fc5d9efd253", "fusion_lon": 0.0, "lon": -77.03919083333334, "lat": 38.92799333333333, "is_reserved": 0, "is_disabled": 0, "rental_uris": {"android": "https://dc.lft.to/lastmile_qr_scan", "ios": "https://dc.lft.to/lastmile_qr_scan"}, "name": "e1cc6e79c58fc8cd59945fc5d9efd253", "type": "electric_scooter"}, {"fusion_lat": 0.0, "bike_id": "b0157497065fd85fb014f6d102b1e23e", "fusion_lon": 0.0, "lon": -76.99506333333333, "lat": 38.933646833333334, "is_reserved": 0, "is_disabled": 0, "rental_uris": {"android": "https://dc.lft.to/lastmile_qr_scan", "ios": "https://dc.lft.to/lastmile_qr_scan"}, "name": "b0157497065fd85fb014f6d102b1e23e", "type": "electric_scooter"}, {"fusion_lat": 0.0, "bike_id": "ec890feba1a637ef1c076d8c3047d069", "fusion_lon": 0.0, "lon": -76.97613966666667, "lat": 38.9264795, "is_reserved": 0, "is_disabled": 0, "rental_uris": {"android": "https://dc.lft.to/lastmile_qr_scan", "ios": "https://dc.lft.to/lastmile_qr_scan"}, "name": "ec890feba1a637ef1c076d8c3047d069", "type": "electric_scooter"}, {"fusion_lat": 0.0, "bike_id": "75e15052978251ca2227641df91991dc", "fusion_lon": 0.0, "lon": -77.069325, "lat": 38.955566, "is_reserved": 0, "is_disabled": 0, "rental_uris": {"android": "https://dc.lft.to/lastmile_qr_scan", "ios": "https://dc.lft.to/lastmile_qr_scan"}, "name": "75e15052978251ca2227641df91991dc", "type": "electric_bike"}, {"fusion_lat": 0.0, "bike_id": "f65c239198590cfbbc2a882c3bdb83b5", "fusion_lon": 0.0, "lon": -77.01821566666666, "lat": 38.92268966666666, "is_reserved": 0, "is_disabled": 0, "rental_uris": {"android": "https://dc.lft.to/lastmile_qr_scan", "ios": "https://dc.lft.to/lastmile_qr_scan"}, "name": "f65c239198590cfbbc2a882c3bdb83b5", "type": "electric_scooter"}, {"fusion_lat": 0.0, "bike_id": "9e645a42e03f4f9462918087e5b54b86", "fusion_lon": 0.0, "lon": -77.04161116666667, "lat": 38.914937, "is_reserved": 0, "is_disabled": 0, "rental_uris": {"android": "https://dc.lft.to/lastmile_qr_scan", "ios": "https://dc.lft.to/lastmile_qr_scan"}, "name": "9e645a42e03f4f9462918087e5b54b86", "type": "electric_scooter"}, {"fusion_lat": 0.0, "bike_id": "b321aa041f3e0b43690935432b0e515d", "fusion_lon": 0.0, "lon": -76.9773935, "lat": 38.86507016666667, "is_reserved": 0, "is_disabled": 0, "rental_uris": {"android": "https://dc.lft.to/lastmile_qr_scan", "ios": "https://dc.lft.to/lastmile_qr_scan"}, "name": "b321aa041f3e0b43690935432b0e515d", "type": "electric_bike"}, {"fusion_lat": 0.0, "bike_id": "1d28619e4c615c6a990bc23de95b37f7", "fusion_lon": 0.0, "lon": -76.9523265, "lat": 38.8909795, "is_reserved": 0, "is_disabled": 0, "rental_uris": {"android": "https://dc.lft.to/lastmile_qr_scan", "ios": "https://dc.lft.to/lastmile_qr_scan"}, "name": "1d28619e4c615c6a990bc23de95b37f7", "type": "electric_scooter"}, {"fusion_lat": 0.0, "bike_id": "66034285eb80428a85eeb272de07cdbd", "fusion_lon": 0.0, "lon": -77.005253, "lat": 38.880563, "is_reserved": 0, "is_disabled": 0, "rental_uris": {"android": "https://dc.lft.to/lastmile_qr_scan", "ios": "https://dc.lft.to/lastmile_qr_scan"}, "name": "66034285eb80428a85eeb272de07cdbd", "type": "electric_scooter"}, {"fusion_lat": 0.0, "bike_id": "466d0e803818e8b4c7f1221aebdae0ff", "fusion_lon": 0.0, "lon": -77.08807133333333, "lat": 38.91173933333334, "is_reserved": 0, "is_disabled": 0, "rental_uris": {"android": "https://dc.lft.to/lastmile_qr_scan", "ios": "https://dc.lft.to/lastmile_qr_scan"}, "name": "466d0e803818e8b4c7f1221aebdae0ff", "type": "electric_bike"}, {"fusion_lat": 0.0, "bike_id": "d1aaad2125a4f7befb9f541b235a5021", "fusion_lon": 0.0, "lon": -77.0408285, "lat": 38.9106455, "is_reserved": 0, "is_disabled": 0, "rental_uris": {"android": "https://dc.lft.to/lastmile_qr_scan", "ios": "https://dc.lft.to/lastmile_qr_scan"}, "name": "d1aaad2125a4f7befb9f541b235a5021", "type": "electric_scooter"}, {"fusion_lat": 0.0, "bike_id": "be0b93467eafd6290fbdbeed89b14ac6", "fusion_lon": 0.0, "lon": -76.99242233333334, "lat": 38.89493866666667, "is_reserved": 0, "is_disabled": 0, "rental_uris": {"android": "https://dc.lft.to/lastmile_qr_scan", "ios": "https://dc.lft.to/lastmile_qr_scan"}, "name": "be0b93467eafd6290fbdbeed89b14ac6", "type": "electric_scooter"}, {"fusion_lat": 0.0, "bike_id": "371cd5916462fd21ed5cbf9b2a6ceebf", "fusion_lon": 0.0, "lon": -77.03697083333333, "lat": 38.9182455, "is_reserved": 0, "is_disabled": 0, "rental_uris": {"android": "https://dc.lft.to/lastmile_qr_scan", "ios": "https://dc.lft.to/lastmile_qr_scan"}, "name": "371cd5916462fd21ed5cbf9b2a6ceebf", "type": "electric_scooter"}, {"fusion_lat": 0.0, "bike_id": "59d3fe3e00893d377a755707f31a21ec", "fusion_lon": 0.0, "lon": -76.99775966666667, "lat": 38.8442405, "is_reserved": 0, "is_disabled": 0, "rental_uris": {"android": "https://dc.lft.to/lastmile_qr_scan", "ios": "https://dc.lft.to/lastmile_qr_scan"}, "name": "59d3fe3e00893d377a755707f31a21ec", "type": "electric_scooter"}, {"fusion_lat": 0.0, "bike_id": "e1d9d364979edb394df195e7731aed8b", "fusion_lon": 0.0, "lon": -76.9970825, "lat": 38.84535916666667, "is_reserved": 0, "is_disabled": 0, "rental_uris": {"android": "https://dc.lft.to/lastmile_qr_scan", "ios": "https://dc.lft.to/lastmile_qr_scan"}, "name": "e1d9d364979edb394df195e7731aed8b", "type": "electric_scooter"}, {"fusion_lat": 0.0, "bike_id": "5a2fed07137dc5835774d27c793c4f7d", "fusion_lon": 0.0, "lon": -76.98947283333334, "lat": 38.867015333333335, "is_reserved": 0, "is_disabled": 0, "rental_uris": {"android": "https://dc.lft.to/lastmile_qr_scan", "ios": "https://dc.lft.to/lastmile_qr_scan"}, "name": "5a2fed07137dc5835774d27c793c4f7d", "type": "electric_bike"}, {"fusion_lat": 0.0, "bike_id": "1d58b2db0fba157ab4afbf13de2912f1", "fusion_lon": 0.0, "lon": -77.031814, "lat": 38.896252, "is_reserved": 0, "is_disabled": 0, "rental_uris": {"android": "https://dc.lft.to/lastmile_qr_scan", "ios": "https://dc.lft.to/lastmile_qr_scan"}, "name": "1d58b2db0fba157ab4afbf13de2912f1", "type": "electric_scooter"}, {"fusion_lat": 0.0, "bike_id": "1035b1664cbacc0903e9f61f2005fa80", "fusion_lon": 0.0, "lon": -77.02417533333333, "lat": 38.918209166666664, "is_reserved": 0, "is_disabled": 0, "rental_uris": {"android": "https://dc.lft.to/lastmile_qr_scan", "ios": "https://dc.lft.to/lastmile_qr_scan"}, "name": "1035b1664cbacc0903e9f61f2005fa80", "type": "electric_scooter"}, {"fusion_lat": 0.0, "bike_id": "65a897d6c0aa2803fc816cb397ef0fa7", "fusion_lon": 0.0, "lon": -77.04891316666667, "lat": 38.89225233333333, "is_reserved": 0, "is_disabled": 0, "rental_uris": {"android": "https://dc.lft.to/lastmile_qr_scan", "ios": "https://dc.lft.to/lastmile_qr_scan"}, "name": "65a897d6c0aa2803fc816cb397ef0fa7", "type": "electric_scooter"}, {"fusion_lat": 0.0, "bike_id": "3bf09c1c42d268a7d550cdf4b8734a31", "fusion_lon": 0.0, "lon": -77.03502183333333, "lat": 38.92143, "is_reserved": 0, "is_disabled": 0, "rental_uris": {"android": "https://dc.lft.to/lastmile_qr_scan", "ios": "https://dc.lft.to/lastmile_qr_scan"}, "name": "3bf09c1c42d268a7d550cdf4b8734a31", "type": "electric_scooter"}, {"fusion_lat": 0.0, "bike_id": "af936d20ddeb30fc3b4a36ec0b4c622c", "fusion_lon": 0.0, "lon": -77.01138033333334, "lat": 38.89365866666667, "is_reserved": 0, "is_disabled": 0, "rental_uris": {"android": "https://dc.lft.to/lastmile_qr_scan", "ios": "https://dc.lft.to/lastmile_qr_scan"}, "name": "af936d20ddeb30fc3b4a36ec0b4c622c", "type": "electric_scooter"}, {"fusion_lat": 0.0, "bike_id": "fb18c7d8e34c6aab9c7efd4c15702816", "fusion_lon": 0.0, "lon": -77.05043866666666, "lat": 38.90517416666667, "is_reserved": 0, "is_disabled": 0, "rental_uris": {"android": "https://dc.lft.to/lastmile_qr_scan", "ios": "https://dc.lft.to/lastmile_qr_scan"}, "name": "fb18c7d8e34c6aab9c7efd4c15702816", "type": "electric_scooter"}, {"fusion_lat": 0.0, "bike_id": "1cbde2043374b943cb16b24c63d71ce3", "fusion_lon": 0.0, "lon": -77.03202116666667, "lat": 38.9162915, "is_reserved": 0, "is_disabled": 0, "rental_uris": {"android": "https://dc.lft.to/lastmile_qr_scan", "ios": "https://dc.lft.to/lastmile_qr_scan"}, "name": "1cbde2043374b943cb16b24c63d71ce3", "type": "electric_scooter"}, {"fusion_lat": 0.0, "bike_id": "0218c9c6b91afb884a904817a0aab7fd", "fusion_lon": 0.0, "lon": -76.93192083333334, "lat": 38.898821166666664, "is_reserved": 0, "is_disabled": 0, "rental_uris": {"android": "https://dc.lft.to/lastmile_qr_scan", "ios": "https://dc.lft.to/lastmile_qr_scan"}, "name": "0218c9c6b91afb884a904817a0aab7fd", "type": "electric_scooter"}, {"fusion_lat": 0.0, "bike_id": "913cc919fa21b08a82eda7c31fad5946", "fusion_lon": 0.0, "lon": -77.04577433333333, "lat": 38.9095235, "is_reserved": 0, "is_disabled": 0, "rental_uris": {"android": "https://dc.lft.to/lastmile_qr_scan", "ios": "https://dc.lft.to/lastmile_qr_scan"}, "name": "913cc919fa21b08a82eda7c31fad5946", "type": "electric_scooter"}, {"fusion_lat": 0.0, "bike_id": "0c2365a0fcce1b7e84d224ddbf1552b7", "fusion_lon": 0.0, "lon": -77.02167633333333, "lat": 38.90844666666667, "is_reserved": 0, "is_disabled": 0, "rental_uris": {"android": "https://dc.lft.to/lastmile_qr_scan", "ios": "https://dc.lft.to/lastmile_qr_scan"}, "name": "0c2365a0fcce1b7e84d224ddbf1552b7", "type": "electric_scooter"}, {"fusion_lat": 0.0, "bike_id": "95dfb68aa376b9bd16743cf1d7724909", "fusion_lon": 0.0, "lon": -77.02271816666666, "lat": 38.92418516666667, "is_reserved": 0, "is_disabled": 0, "rental_uris": {"android": "https://dc.lft.to/lastmile_qr_scan", "ios": "https://dc.lft.to/lastmile_qr_scan"}, "name": "95dfb68aa376b9bd16743cf1d7724909", "type": "electric_scooter"}, {"fusion_lat": 0.0, "bike_id": "8f77bb1b0880434e92ac3928f47662de", "fusion_lon": 0.0, "lon": -77.00338183333334, "lat": 38.903582, "is_reserved": 0, "is_disabled": 0, "rental_uris": {"android": "https://dc.lft.to/lastmile_qr_scan", "ios": "https://dc.lft.to/lastmile_qr_scan"}, "name": "8f77bb1b0880434e92ac3928f47662de", "type": "electric_scooter"}, {"fusion_lat": 0.0, "bike_id": "f05e60652acde2c4172d3ea6deec4116", "fusion_lon": 0.0, "lon": -77.0319985, "lat": 38.9135445, "is_reserved": 0, "is_disabled": 0, "rental_uris": {"android": "https://dc.lft.to/lastmile_qr_scan", "ios": "https://dc.lft.to/lastmile_qr_scan"}, "name": "f05e60652acde2c4172d3ea6deec4116", "type": "electric_scooter"}, {"fusion_lat": 0.0, "bike_id": "2dd05c9518b15b151e4d6feb91e24685", "fusion_lon": 0.0, "lon": -77.01633533333333, "lat": 38.92898366666667, "is_reserved": 0, "is_disabled": 0, "rental_uris": {"android": "https://dc.lft.to/lastmile_qr_scan", "ios": "https://dc.lft.to/lastmile_qr_scan"}, "name": "2dd05c9518b15b151e4d6feb91e24685", "type": "electric_scooter"}, {"fusion_lat": 0.0, "bike_id": "e1cff759f1a7e34ed3aca15d673c3199", "fusion_lon": 0.0, "lon": -77.03104466666667, "lat": 38.93241583333333, "is_reserved": 0, "is_disabled": 0, "rental_uris": {"android": "https://dc.lft.to/lastmile_qr_scan", "ios": "https://dc.lft.to/lastmile_qr_scan"}, "name": "e1cff759f1a7e34ed3aca15d673c3199", "type": "electric_scooter"}, {"fusion_lat": 0.0, "bike_id": "af9e61ba2299e635153ba1c46dd89e42", "fusion_lon": 0.0, "lon": -77.03181466666666, "lat": 38.89424066666667, "is_reserved": 0, "is_disabled": 0, "rental_uris": {"android": "https://dc.lft.to/lastmile_qr_scan", "ios": "https://dc.lft.to/lastmile_qr_scan"}, "name": "af9e61ba2299e635153ba1c46dd89e42", "type": "electric_scooter"}, {"fusion_lat": 0.0, "bike_id": "504efceeeef2f3c204ba340159ce09e8", "fusion_lon": 0.0, "lon": -77.0442495, "lat": 38.921210333333335, "is_reserved": 0, "is_disabled": 0, "rental_uris": {"android": "https://dc.lft.to/lastmile_qr_scan", "ios": "https://dc.lft.to/lastmile_qr_scan"}, "name": "504efceeeef2f3c204ba340159ce09e8", "type": "electric_scooter"}, {"fusion_lat": 0.0, "bike_id": "0e5d1b9a5e8d6cb48d4a40d88374c8dd", "fusion_lon": 0.0, "lon": -76.931412, "lat": 38.8784355, "is_reserved": 0, "is_disabled": 0, "rental_uris": {"android": "https://dc.lft.to/lastmile_qr_scan", "ios": "https://dc.lft.to/lastmile_qr_scan"}, "name": "0e5d1b9a5e8d6cb48d4a40d88374c8dd", "type": "electric_scooter"}, {"fusion_lat": 0.0, "bike_id": "ad0fd13c865a85b08fe31a1d216315de", "fusion_lon": 0.0, "lon": -77.07291183333334, "lat": 38.930959666666666, "is_reserved": 0, "is_disabled": 0, "rental_uris": {"android": "https://dc.lft.to/lastmile_qr_scan", "ios": "https://dc.lft.to/lastmile_qr_scan"}, "name": "ad0fd13c865a85b08fe31a1d216315de", "type": "electric_scooter"}, {"fusion_lat": 0.0, "bike_id": "79981c3c351040215f17af6f1936a06b", "fusion_lon": 0.0, "lon": -77.03359333333333, "lat": 38.92796166666667, "is_reserved": 0, "is_disabled": 0, "rental_uris": {"android": "https://dc.lft.to/lastmile_qr_scan", "ios": "https://dc.lft.to/lastmile_qr_scan"}, "name": "79981c3c351040215f17af6f1936a06b", "type": "electric_scooter"}, {"fusion_lat": 0.0, "bike_id": "c13ec1a7f84df0477e36b065c125c7be", "fusion_lon": 0.0, "lon": -77.03220116666667, "lat": 38.892270333333336, "is_reserved": 0, "is_disabled": 0, "rental_uris": {"android": "https://dc.lft.to/lastmile_qr_scan", "ios": "https://dc.lft.to/lastmile_qr_scan"}, "name": "c13ec1a7f84df0477e36b065c125c7be", "type": "electric_scooter"}, {"fusion_lat": 0.0, "bike_id": "6a3f34022d52afc22f7f6f298dcd13f3", "fusion_lon": 0.0, "lon": -77.03393883333334, "lat": 38.934621166666666, "is_reserved": 0, "is_disabled": 0, "rental_uris": {"android": "https://dc.lft.to/lastmile_qr_scan", "ios": "https://dc.lft.to/lastmile_qr_scan"}, "name": "6a3f34022d52afc22f7f6f298dcd13f3", "type": "electric_scooter"}, {"fusion_lat": 0.0, "bike_id": "44f8c6655189b9d538fb0551f432575b", "fusion_lon": 0.0, "lon": -77.03276783333334, "lat": 38.956268, "is_reserved": 0, "is_disabled": 0, "rental_uris": {"android": "https://dc.lft.to/lastmile_qr_scan", "ios": "https://dc.lft.to/lastmile_qr_scan"}, "name": "44f8c6655189b9d538fb0551f432575b", "type": "electric_scooter"}, {"fusion_lat": 0.0, "bike_id": "97db2425f3c5cec0e7883ee6f17b33e4", "fusion_lon": 0.0, "lon": -76.97322316666667, "lat": 38.865168833333335, "is_reserved": 0, "is_disabled": 0, "rental_uris": {"android": "https://dc.lft.to/lastmile_qr_scan", "ios": "https://dc.lft.to/lastmile_qr_scan"}, "name": "97db2425f3c5cec0e7883ee6f17b33e4", "type": "electric_bike"}, {"fusion_lat": 0.0, "bike_id": "c1f311d25f68beb0f2d90fa6afbb2fa0", "fusion_lon": 0.0, "lon": -76.98561916666667, "lat": 38.909140666666666, "is_reserved": 0, "is_disabled": 0, "rental_uris": {"android": "https://dc.lft.to/lastmile_qr_scan", "ios": "https://dc.lft.to/lastmile_qr_scan"}, "name": "c1f311d25f68beb0f2d90fa6afbb2fa0", "type": "electric_scooter"}, {"fusion_lat": 0.0, "bike_id": "16932ef2bada69278d0c9cc89b75d842", "fusion_lon": 0.0, "lon": -76.99500483333334, "lat": 38.8828525, "is_reserved": 0, "is_disabled": 0, "rental_uris": {"android": "https://dc.lft.to/lastmile_qr_scan", "ios": "https://dc.lft.to/lastmile_qr_scan"}, "name": "16932ef2bada69278d0c9cc89b75d842", "type": "electric_scooter"}, {"fusion_lat": 0.0, "bike_id": "2739222544b60a7228729a75ccf95c5c", "fusion_lon": 0.0, "lon": -77.03076133333333, "lat": 38.916986333333334, "is_reserved": 0, "is_disabled": 0, "rental_uris": {"android": "https://dc.lft.to/lastmile_qr_scan", "ios": "https://dc.lft.to/lastmile_qr_scan"}, "name": "2739222544b60a7228729a75ccf95c5c", "type": "electric_scooter"}, {"fusion_lat": 0.0, "bike_id": "963353ed8af8c1e437040b7c4cf62b63", "fusion_lon": 0.0, "lon": -76.98498433333333, "lat": 38.86669633333333, "is_reserved": 0, "is_disabled": 0, "rental_uris": {"android": "https://dc.lft.to/lastmile_qr_scan", "ios": "https://dc.lft.to/lastmile_qr_scan"}, "name": "963353ed8af8c1e437040b7c4cf62b63", "type": "electric_scooter"}, {"fusion_lat": 0.0, "bike_id": "a9848b12f51774176a8234fc28e4e712", "fusion_lon": 0.0, "lon": -77.02976816666667, "lat": 38.90479466666667, "is_reserved": 0, "is_disabled": 0, "rental_uris": {"android": "https://dc.lft.to/lastmile_qr_scan", "ios": "https://dc.lft.to/lastmile_qr_scan"}, "name": "a9848b12f51774176a8234fc28e4e712", "type": "electric_scooter"}, {"fusion_lat": 0.0, "bike_id": "1413b9e442d14cc3e8b8d2de14a4bc7a", "fusion_lon": 0.0, "lon": -77.00779333333334, "lat": 38.914926666666666, "is_reserved": 0, "is_disabled": 0, "rental_uris": {"android": "https://dc.lft.to/lastmile_qr_scan", "ios": "https://dc.lft.to/lastmile_qr_scan"}, "name": "1413b9e442d14cc3e8b8d2de14a4bc7a", "type": "electric_scooter"}, {"fusion_lat": 0.0, "bike_id": "900417e3ead60761893b09f2d4dc2c07", "fusion_lon": 0.0, "lon": -77.05392083333334, "lat": 38.927972, "is_reserved": 0, "is_disabled": 0, "rental_uris": {"android": "https://dc.lft.to/lastmile_qr_scan", "ios": "https://dc.lft.to/lastmile_qr_scan"}, "name": "900417e3ead60761893b09f2d4dc2c07", "type": "electric_scooter"}, {"fusion_lat": 0.0, "bike_id": "f4264f07f6a40e946472a443b55ac0ea", "fusion_lon": 0.0, "lon": -77.04314866666667, "lat": 38.908863333333336, "is_reserved": 0, "is_disabled": 0, "rental_uris": {"android": "https://dc.lft.to/lastmile_qr_scan", "ios": "https://dc.lft.to/lastmile_qr_scan"}, "name": "f4264f07f6a40e946472a443b55ac0ea", "type": "electric_scooter"}, {"fusion_lat": 0.0, "bike_id": "21236ac423e04fc3e4b5da7880bf3523", "fusion_lon": 0.0, "lon": -77.0386115, "lat": 38.911964833333336, "is_reserved": 0, "is_disabled": 0, "rental_uris": {"android": "https://dc.lft.to/lastmile_qr_scan", "ios": "https://dc.lft.to/lastmile_qr_scan"}, "name": "21236ac423e04fc3e4b5da7880bf3523", "type": "electric_scooter"}, {"fusion_lat": 0.0, "bike_id": "28a4833a869e4ef331a2c0a5ad1be275", "fusion_lon": 0.0, "lon": -76.9961665, "lat": 38.90895833333333, "is_reserved": 0, "is_disabled": 0, "rental_uris": {"android": "https://dc.lft.to/lastmile_qr_scan", "ios": "https://dc.lft.to/lastmile_qr_scan"}, "name": "28a4833a869e4ef331a2c0a5ad1be275", "type": "electric_scooter"}, {"fusion_lat": 0.0, "bike_id": "200817d0be5ff9556c4e00c013d46092", "fusion_lon": 0.0, "lon": -77.05191133333334, "lat": 38.9032775, "is_reserved": 0, "is_disabled": 0, "rental_uris": {"android": "https://dc.lft.to/lastmile_qr_scan", "ios": "https://dc.lft.to/lastmile_qr_scan"}, "name": "200817d0be5ff9556c4e00c013d46092", "type": "electric_scooter"}, {"fusion_lat": 0.0, "bike_id": "41616b5fd0c9d94f906485506ddd3815", "fusion_lon": 0.0, "lon": -76.95464283333334, "lat": 38.88647366666667, "is_reserved": 0, "is_disabled": 0, "rental_uris": {"android": "https://dc.lft.to/lastmile_qr_scan", "ios": "https://dc.lft.to/lastmile_qr_scan"}, "name": "41616b5fd0c9d94f906485506ddd3815", "type": "electric_scooter"}, {"fusion_lat": 0.0, "bike_id": "12634cf60b2ebd5305e2391636c2af0b", "fusion_lon": 0.0, "lon": -77.04161583333334, "lat": 38.904989, "is_reserved": 0, "is_disabled": 0, "rental_uris": {"android": "https://dc.lft.to/lastmile_qr_scan", "ios": "https://dc.lft.to/lastmile_qr_scan"}, "name": "12634cf60b2ebd5305e2391636c2af0b", "type": "electric_scooter"}, {"fusion_lat": 0.0, "bike_id": "bdbe338564b4bafcdeada7ebf78dcf6f", "fusion_lon": 0.0, "lon": -77.03698316666667, "lat": 38.9266325, "is_reserved": 0, "is_disabled": 0, "rental_uris": {"android": "https://dc.lft.to/lastmile_qr_scan", "ios": "https://dc.lft.to/lastmile_qr_scan"}, "name": "bdbe338564b4bafcdeada7ebf78dcf6f", "type": "electric_scooter"}, {"fusion_lat": 0.0, "bike_id": "5921bd2221dffeb8ac7b7a351e72762b", "fusion_lon": 0.0, "lon": -77.039377, "lat": 38.89885233333333, "is_reserved": 0, "is_disabled": 0, "rental_uris": {"android": "https://dc.lft.to/lastmile_qr_scan", "ios": "https://dc.lft.to/lastmile_qr_scan"}, "name": "5921bd2221dffeb8ac7b7a351e72762b", "type": "electric_scooter"}, {"fusion_lat": 0.0, "bike_id": "37a401cc34f5fe60649435e092cd8ca8", "fusion_lon": 0.0, "lon": -77.0467315, "lat": 38.89229666666667, "is_reserved": 0, "is_disabled": 0, "rental_uris": {"android": "https://dc.lft.to/lastmile_qr_scan", "ios": "https://dc.lft.to/lastmile_qr_scan"}, "name": "37a401cc34f5fe60649435e092cd8ca8", "type": "electric_scooter"}, {"fusion_lat": 0.0, "bike_id": "713c46f6f166585f7684c3d187b42fe4", "fusion_lon": 0.0, "lon": -77.03295733333333, "lat": 38.9102545, "is_reserved": 0, "is_disabled": 0, "rental_uris": {"android": "https://dc.lft.to/lastmile_qr_scan", "ios": "https://dc.lft.to/lastmile_qr_scan"}, "name": "713c46f6f166585f7684c3d187b42fe4", "type": "electric_scooter"}, {"fusion_lat": 0.0, "bike_id": "e925e494ae69f16aa32f8034405ff859", "fusion_lon": 0.0, "lon": -77.03448583333333, "lat": 38.90975133333333, "is_reserved": 0, "is_disabled": 0, "rental_uris": {"android": "https://dc.lft.to/lastmile_qr_scan", "ios": "https://dc.lft.to/lastmile_qr_scan"}, "name": "e925e494ae69f16aa32f8034405ff859", "type": "electric_scooter"}, {"fusion_lat": 0.0, "bike_id": "8d7a2f1b15ae66764f7898a9b32dfc44", "fusion_lon": 0.0, "lon": -76.99592333333334, "lat": 38.95072566666666, "is_reserved": 0, "is_disabled": 0, "rental_uris": {"android": "https://dc.lft.to/lastmile_qr_scan", "ios": "https://dc.lft.to/lastmile_qr_scan"}, "name": "8d7a2f1b15ae66764f7898a9b32dfc44", "type": "electric_bike"}, {"fusion_lat": 0.0, "bike_id": "62448b0ca16b07011fda883af7a74b17", "fusion_lon": 0.0, "lon": -77.04469433333334, "lat": 38.90523233333333, "is_reserved": 0, "is_disabled": 0, "rental_uris": {"android": "https://dc.lft.to/lastmile_qr_scan", "ios": "https://dc.lft.to/lastmile_qr_scan"}, "name": "62448b0ca16b07011fda883af7a74b17", "type": "electric_scooter"}, {"fusion_lat": 0.0, "bike_id": "61f87afb9fc67d1b99f9cdaeb467475e", "fusion_lon": 0.0, "lon": -77.02090966666667, "lat": 38.9291535, "is_reserved": 0, "is_disabled": 0, "rental_uris": {"android": "https://dc.lft.to/lastmile_qr_scan", "ios": "https://dc.lft.to/lastmile_qr_scan"}, "name": "61f87afb9fc67d1b99f9cdaeb467475e", "type": "electric_scooter"}, {"fusion_lat": 0.0, "bike_id": "0667145a0628ec93f2d658f3229dc5b5", "fusion_lon": 0.0, "lon": -77.05004466666666, "lat": 38.891985166666664, "is_reserved": 0, "is_disabled": 0, "rental_uris": {"android": "https://dc.lft.to/lastmile_qr_scan", "ios": "https://dc.lft.to/lastmile_qr_scan"}, "name": "0667145a0628ec93f2d658f3229dc5b5", "type": "electric_scooter"}, {"fusion_lat": 0.0, "bike_id": "02bdb81c6ec0ed85b9691f325a8b2ba1", "fusion_lon": 0.0, "lon": -76.95048916666667, "lat": 38.893038833333335, "is_reserved": 0, "is_disabled": 0, "rental_uris": {"android": "https://dc.lft.to/lastmile_qr_scan", "ios": "https://dc.lft.to/lastmile_qr_scan"}, "name": "02bdb81c6ec0ed85b9691f325a8b2ba1", "type": "electric_scooter"}, {"fusion_lat": 0.0, "bike_id": "991363f554e740a21d0950dee3921ff1", "fusion_lon": 0.0, "lon": -76.97856316666666, "lat": 38.90721166666667, "is_reserved": 0, "is_disabled": 0, "rental_uris": {"android": "https://dc.lft.to/lastmile_qr_scan", "ios": "https://dc.lft.to/lastmile_qr_scan"}, "name": "991363f554e740a21d0950dee3921ff1", "type": "electric_scooter"}, {"fusion_lat": 0.0, "bike_id": "93331addccac8acf5030ac8fe3cdbea5", "fusion_lon": 0.0, "lon": -77.05386066666667, "lat": 38.9275565, "is_reserved": 0, "is_disabled": 0, "rental_uris": {"android": "https://dc.lft.to/lastmile_qr_scan", "ios": "https://dc.lft.to/lastmile_qr_scan"}, "name": "93331addccac8acf5030ac8fe3cdbea5", "type": "electric_scooter"}, {"fusion_lat": 0.0, "bike_id": "febe1a995fac8950c94d37abe2b66e4e", "fusion_lon": 0.0, "lon": -77.0504155, "lat": 38.9236705, "is_reserved": 0, "is_disabled": 0, "rental_uris": {"android": "https://dc.lft.to/lastmile_qr_scan", "ios": "https://dc.lft.to/lastmile_qr_scan"}, "name": "febe1a995fac8950c94d37abe2b66e4e", "type": "electric_scooter"}, {"fusion_lat": 0.0, "bike_id": "fa68de96cae473513278cdd9b194fa13", "fusion_lon": 0.0, "lon": -77.03555166666666, "lat": 38.93376966666666, "is_reserved": 0, "is_disabled": 0, "rental_uris": {"android": "https://dc.lft.to/lastmile_qr_scan", "ios": "https://dc.lft.to/lastmile_qr_scan"}, "name": "fa68de96cae473513278cdd9b194fa13", "type": "electric_scooter"}, {"fusion_lat": 0.0, "bike_id": "99a17535820410f396131f4fcf2c98a4", "fusion_lon": 0.0, "lon": -77.032913, "lat": 38.95650066666666, "is_reserved": 0, "is_disabled": 0, "rental_uris": {"android": "https://dc.lft.to/lastmile_qr_scan", "ios": "https://dc.lft.to/lastmile_qr_scan"}, "name": "99a17535820410f396131f4fcf2c98a4", "type": "electric_scooter"}, {"fusion_lat": 0.0, "bike_id": "d8e50140d2f818e4d00f1c56f9ad99ca", "fusion_lon": 0.0, "lon": -76.99313783333334, "lat": 38.920209666666665, "is_reserved": 0, "is_disabled": 0, "rental_uris": {"android": "https://dc.lft.to/lastmile_qr_scan", "ios": "https://dc.lft.to/lastmile_qr_scan"}, "name": "d8e50140d2f818e4d00f1c56f9ad99ca", "type": "electric_scooter"}, {"fusion_lat": 0.0, "bike_id": "52d8e736f49810f9865af6dc0646fbaf", "fusion_lon": 0.0, "lon": -77.027243, "lat": 38.897360166666665, "is_reserved": 0, "is_disabled": 0, "rental_uris": {"android": "https://dc.lft.to/lastmile_qr_scan", "ios": "https://dc.lft.to/lastmile_qr_scan"}, "name": "52d8e736f49810f9865af6dc0646fbaf", "type": "electric_scooter"}, {"fusion_lat": 0.0, "bike_id": "b6e3d6befd56a4c1af966bfcb609c17f", "fusion_lon": 0.0, "lon": -77.03882816666666, "lat": 38.921245166666665, "is_reserved": 0, "is_disabled": 0, "rental_uris": {"android": "https://dc.lft.to/lastmile_qr_scan", "ios": "https://dc.lft.to/lastmile_qr_scan"}, "name": "b6e3d6befd56a4c1af966bfcb609c17f", "type": "electric_scooter"}, {"fusion_lat": 0.0, "bike_id": "77ca0564a6e59cfb49f382905763c063", "fusion_lon": 0.0, "lon": -77.03578116666667, "lat": 38.92332916666667, "is_reserved": 0, "is_disabled": 0, "rental_uris": {"android": "https://dc.lft.to/lastmile_qr_scan", "ios": "https://dc.lft.to/lastmile_qr_scan"}, "name": "77ca0564a6e59cfb49f382905763c063", "type": "electric_scooter"}, {"fusion_lat": 0.0, "bike_id": "c18520e1a4c85afd0da5b009dd431960", "fusion_lon": 0.0, "lon": -76.95745216666667, "lat": 38.8842765, "is_reserved": 0, "is_disabled": 0, "rental_uris": {"android": "https://dc.lft.to/lastmile_qr_scan", "ios": "https://dc.lft.to/lastmile_qr_scan"}, "name": "c18520e1a4c85afd0da5b009dd431960", "type": "electric_scooter"}, {"fusion_lat": 0.0, "bike_id": "d1499226cf466d27b47a8bed85c808cb", "fusion_lon": 0.0, "lon": -76.92877783333333, "lat": 38.97837066666666, "is_reserved": 0, "is_disabled": 0, "rental_uris": {"android": "https://dc.lft.to/lastmile_qr_scan", "ios": "https://dc.lft.to/lastmile_qr_scan"}, "name": "d1499226cf466d27b47a8bed85c808cb", "type": "electric_bike"}, {"fusion_lat": 0.0, "bike_id": "c135976e36596c5cea0a576b14207ffd", "fusion_lon": 0.0, "lon": -76.93176466666667, "lat": 38.898847, "is_reserved": 0, "is_disabled": 0, "rental_uris": {"android": "https://dc.lft.to/lastmile_qr_scan", "ios": "https://dc.lft.to/lastmile_qr_scan"}, "name": "c135976e36596c5cea0a576b14207ffd", "type": "electric_scooter"}, {"fusion_lat": 0.0, "bike_id": "88426bfecf4b745c6c93c5b8cb6eaa40", "fusion_lon": 0.0, "lon": -77.04161983333333, "lat": 38.90313666666667, "is_reserved": 0, "is_disabled": 0, "rental_uris": {"android": "https://dc.lft.to/lastmile_qr_scan", "ios": "https://dc.lft.to/lastmile_qr_scan"}, "name": "88426bfecf4b745c6c93c5b8cb6eaa40", "type": "electric_scooter"}, {"fusion_lat": 0.0, "bike_id": "c4eb20233f23008146e442f5a2c94833", "fusion_lon": 0.0, "lon": -76.93020566666667, "lat": 38.8965005, "is_reserved": 0, "is_disabled": 0, "rental_uris": {"android": "https://dc.lft.to/lastmile_qr_scan", "ios": "https://dc.lft.to/lastmile_qr_scan"}, "name": "c4eb20233f23008146e442f5a2c94833", "type": "electric_bike"}, {"fusion_lat": 0.0, "bike_id": "15e802eb5f75e1a5f87454a4a7166eea", "fusion_lon": 0.0, "lon": -77.0255775, "lat": 38.9385, "is_reserved": 0, "is_disabled": 0, "rental_uris": {"android": "https://dc.lft.to/lastmile_qr_scan", "ios": "https://dc.lft.to/lastmile_qr_scan"}, "name": "15e802eb5f75e1a5f87454a4a7166eea", "type": "electric_scooter"}, {"fusion_lat": 0.0, "bike_id": "a6fdcad4e5469d259eb637ef48b3ac11", "fusion_lon": 0.0, "lon": -77.00648, "lat": 38.8389165, "is_reserved": 0, "is_disabled": 0, "rental_uris": {"android": "https://dc.lft.to/lastmile_qr_scan", "ios": "https://dc.lft.to/lastmile_qr_scan"}, "name": "a6fdcad4e5469d259eb637ef48b3ac11", "type": "electric_scooter"}, {"fusion_lat": 0.0, "bike_id": "d473f87055a7ed97a4d1643e8a4faa80", "fusion_lon": 0.0, "lon": -77.0326395, "lat": 38.930960166666665, "is_reserved": 0, "is_disabled": 0, "rental_uris": {"android": "https://dc.lft.to/lastmile_qr_scan", "ios": "https://dc.lft.to/lastmile_qr_scan"}, "name": "d473f87055a7ed97a4d1643e8a4faa80", "type": "electric_scooter"}, {"fusion_lat": 0.0, "bike_id": "1ca853d2f5a995a9ace230395ee26d59", "fusion_lon": 0.0, "lon": -77.08023216666666, "lat": 38.95056433333333, "is_reserved": 0, "is_disabled": 0, "rental_uris": {"android": "https://dc.lft.to/lastmile_qr_scan", "ios": "https://dc.lft.to/lastmile_qr_scan"}, "name": "1ca853d2f5a995a9ace230395ee26d59", "type": "electric_scooter"}, {"fusion_lat": 0.0, "bike_id": "1e5bbc7c208459e2c85451a0dbc77ddf", "fusion_lon": 0.0, "lon": -77.02187416666666, "lat": 38.905724, "is_reserved": 0, "is_disabled": 0, "rental_uris": {"android": "https://dc.lft.to/lastmile_qr_scan", "ios": "https://dc.lft.to/lastmile_qr_scan"}, "name": "1e5bbc7c208459e2c85451a0dbc77ddf", "type": "electric_scooter"}, {"fusion_lat": 0.0, "bike_id": "01834c5c100c8a62755ab294eb4bdbfb", "fusion_lon": 0.0, "lon": -77.05705383333333, "lat": 38.926057, "is_reserved": 0, "is_disabled": 0, "rental_uris": {"android": "https://dc.lft.to/lastmile_qr_scan", "ios": "https://dc.lft.to/lastmile_qr_scan"}, "name": "01834c5c100c8a62755ab294eb4bdbfb", "type": "electric_bike"}, {"fusion_lat": 0.0, "bike_id": "ac249f58e625a38dd9aad753a977491f", "fusion_lon": 0.0, "lon": -77.02932016666666, "lat": 38.8991115, "is_reserved": 0, "is_disabled": 0, "rental_uris": {"android": "https://dc.lft.to/lastmile_qr_scan", "ios": "https://dc.lft.to/lastmile_qr_scan"}, "name": "ac249f58e625a38dd9aad753a977491f", "type": "electric_scooter"}, {"fusion_lat": 0.0, "bike_id": "78b6b800aa77014d98353913ec2becfe", "fusion_lon": 0.0, "lon": -77.0197985, "lat": 38.92376683333333, "is_reserved": 0, "is_disabled": 0, "rental_uris": {"android": "https://dc.lft.to/lastmile_qr_scan", "ios": "https://dc.lft.to/lastmile_qr_scan"}, "name": "78b6b800aa77014d98353913ec2becfe", "type": "electric_scooter"}, {"fusion_lat": 0.0, "bike_id": "d97d56e7c81f78f16eb0168458973aea", "fusion_lon": 0.0, "lon": -77.035415, "lat": 38.925801166666666, "is_reserved": 0, "is_disabled": 0, "rental_uris": {"android": "https://dc.lft.to/lastmile_qr_scan", "ios": "https://dc.lft.to/lastmile_qr_scan"}, "name": "d97d56e7c81f78f16eb0168458973aea", "type": "electric_scooter"}, {"fusion_lat": 0.0, "bike_id": "716e45d0c1ed4b4eff497b1e79d30d0c", "fusion_lon": 0.0, "lon": -76.97750933333333, "lat": 38.8648645, "is_reserved": 0, "is_disabled": 0, "rental_uris": {"android": "https://dc.lft.to/lastmile_qr_scan", "ios": "https://dc.lft.to/lastmile_qr_scan"}, "name": "716e45d0c1ed4b4eff497b1e79d30d0c", "type": "electric_bike"}, {"fusion_lat": 0.0, "bike_id": "93daad17900b1f51d66e67f68bd13be3", "fusion_lon": 0.0, "lon": -76.9992705, "lat": 38.8431165, "is_reserved": 0, "is_disabled": 0, "rental_uris": {"android": "https://dc.lft.to/lastmile_qr_scan", "ios": "https://dc.lft.to/lastmile_qr_scan"}, "name": "93daad17900b1f51d66e67f68bd13be3", "type": "electric_scooter"}, {"fusion_lat": 0.0, "bike_id": "8c9999307b729e1e4e9e6d5b9209870a", "fusion_lon": 0.0, "lon": -77.04719916666667, "lat": 38.89726783333333, "is_reserved": 0, "is_disabled": 0, "rental_uris": {"android": "https://dc.lft.to/lastmile_qr_scan", "ios": "https://dc.lft.to/lastmile_qr_scan"}, "name": "8c9999307b729e1e4e9e6d5b9209870a", "type": "electric_scooter"}, {"fusion_lat": 0.0, "bike_id": "fa577a82bdf96309fa62cd879e1a8a49", "fusion_lon": 0.0, "lon": -77.02561916666667, "lat": 38.9254975, "is_reserved": 0, "is_disabled": 0, "rental_uris": {"android": "https://dc.lft.to/lastmile_qr_scan", "ios": "https://dc.lft.to/lastmile_qr_scan"}, "name": "fa577a82bdf96309fa62cd879e1a8a49", "type": "electric_scooter"}, {"fusion_lat": 0.0, "bike_id": "65bdd936df63ff8a0462169ee4ea1e1f", "fusion_lon": 0.0, "lon": -77.0337495, "lat": 38.921583166666665, "is_reserved": 0, "is_disabled": 0, "rental_uris": {"android": "https://dc.lft.to/lastmile_qr_scan", "ios": "https://dc.lft.to/lastmile_qr_scan"}, "name": "65bdd936df63ff8a0462169ee4ea1e1f", "type": "electric_scooter"}, {"fusion_lat": 0.0, "bike_id": "632e797b77fb2e451fcf53f7af27067d", "fusion_lon": 0.0, "lon": -77.06107516666667, "lat": 38.939380666666665, "is_reserved": 0, "is_disabled": 0, "rental_uris": {"android": "https://dc.lft.to/lastmile_qr_scan", "ios": "https://dc.lft.to/lastmile_qr_scan"}, "name": "632e797b77fb2e451fcf53f7af27067d", "type": "electric_scooter"}, {"fusion_lat": 0.0, "bike_id": "f4d0bf00eed40167d4bb4cdd1405edd2", "fusion_lon": 0.0, "lon": -77.0612705, "lat": 38.9433025, "is_reserved": 0, "is_disabled": 0, "rental_uris": {"android": "https://dc.lft.to/lastmile_qr_scan", "ios": "https://dc.lft.to/lastmile_qr_scan"}, "name": "f4d0bf00eed40167d4bb4cdd1405edd2", "type": "electric_scooter"}, {"fusion_lat": 0.0, "bike_id": "8bf5509d7af539465159aac2cc468e6e", "fusion_lon": 0.0, "lon": -77.02969966666667, "lat": 38.91723133333333, "is_reserved": 0, "is_disabled": 0, "rental_uris": {"android": "https://dc.lft.to/lastmile_qr_scan", "ios": "https://dc.lft.to/lastmile_qr_scan"}, "name": "8bf5509d7af539465159aac2cc468e6e", "type": "electric_scooter"}, {"fusion_lat": 0.0, "bike_id": "82417403db4eab62a8160ed7c8dc6f2d", "fusion_lon": 0.0, "lon": -76.98371116666667, "lat": 38.88966766666667, "is_reserved": 0, "is_disabled": 0, "rental_uris": {"android": "https://dc.lft.to/lastmile_qr_scan", "ios": "https://dc.lft.to/lastmile_qr_scan"}, "name": "82417403db4eab62a8160ed7c8dc6f2d", "type": "electric_scooter"}, {"fusion_lat": 0.0, "bike_id": "244f12bb9b582bf6a80c3d8feb4f427a", "fusion_lon": 0.0, "lon": -77.032132, "lat": 38.9162105, "is_reserved": 0, "is_disabled": 0, "rental_uris": {"android": "https://dc.lft.to/lastmile_qr_scan", "ios": "https://dc.lft.to/lastmile_qr_scan"}, "name": "244f12bb9b582bf6a80c3d8feb4f427a", "type": "electric_scooter"}, {"fusion_lat": 0.0, "bike_id": "7b0d332f2726986659e481f2175a89f8", "fusion_lon": 0.0, "lon": -77.03160216666667, "lat": 38.90328066666667, "is_reserved": 0, "is_disabled": 0, "rental_uris": {"android": "https://dc.lft.to/lastmile_qr_scan", "ios": "https://dc.lft.to/lastmile_qr_scan"}, "name": "7b0d332f2726986659e481f2175a89f8", "type": "electric_scooter"}, {"fusion_lat": 0.0, "bike_id": "9541294cb47579c73b94bb677cfea8ff", "fusion_lon": 0.0, "lon": -77.05184616666666, "lat": 38.92425766666667, "is_reserved": 0, "is_disabled": 0, "rental_uris": {"android": "https://dc.lft.to/lastmile_qr_scan", "ios": "https://dc.lft.to/lastmile_qr_scan"}, "name": "9541294cb47579c73b94bb677cfea8ff", "type": "electric_scooter"}, {"fusion_lat": 0.0, "bike_id": "caab656fce45bb138d741170e11905a6", "fusion_lon": 0.0, "lon": -76.97740116666667, "lat": 38.8714755, "is_reserved": 0, "is_disabled": 0, "rental_uris": {"android": "https://dc.lft.to/lastmile_qr_scan", "ios": "https://dc.lft.to/lastmile_qr_scan"}, "name": "caab656fce45bb138d741170e11905a6", "type": "electric_scooter"}, {"fusion_lat": 0.0, "bike_id": "b3c73ab8f514b1b006c66e49a48557d9", "fusion_lon": 0.0, "lon": -77.0560925, "lat": 38.931667166666664, "is_reserved": 0, "is_disabled": 0, "rental_uris": {"android": "https://dc.lft.to/lastmile_qr_scan", "ios": "https://dc.lft.to/lastmile_qr_scan"}, "name": "b3c73ab8f514b1b006c66e49a48557d9", "type": "electric_scooter"}, {"fusion_lat": 0.0, "bike_id": "f4e3326ab952e3fc01a2745d4a395269", "fusion_lon": 0.0, "lon": -77.05146833333333, "lat": 38.923676, "is_reserved": 0, "is_disabled": 0, "rental_uris": {"android": "https://dc.lft.to/lastmile_qr_scan", "ios": "https://dc.lft.to/lastmile_qr_scan"}, "name": "f4e3326ab952e3fc01a2745d4a395269", "type": "electric_scooter"}, {"fusion_lat": 0.0, "bike_id": "62df0a70cd76d6240662d15d47538b11", "fusion_lon": 0.0, "lon": -77.0446665, "lat": 38.90497633333333, "is_reserved": 0, "is_disabled": 0, "rental_uris": {"android": "https://dc.lft.to/lastmile_qr_scan", "ios": "https://dc.lft.to/lastmile_qr_scan"}, "name": "62df0a70cd76d6240662d15d47538b11", "type": "electric_scooter"}, {"fusion_lat": 0.0, "bike_id": "2f6de590db481bfba3813a1855827f11", "fusion_lon": 0.0, "lon": -77.02827333333333, "lat": 38.887273, "is_reserved": 0, "is_disabled": 0, "rental_uris": {"android": "https://dc.lft.to/lastmile_qr_scan", "ios": "https://dc.lft.to/lastmile_qr_scan"}, "name": "2f6de590db481bfba3813a1855827f11", "type": "electric_scooter"}, {"fusion_lat": 0.0, "bike_id": "496bfbd2905ec975cef01ab6d0e73d20", "fusion_lon": 0.0, "lon": -77.0078805, "lat": 38.87480733333334, "is_reserved": 0, "is_disabled": 0, "rental_uris": {"android": "https://dc.lft.to/lastmile_qr_scan", "ios": "https://dc.lft.to/lastmile_qr_scan"}, "name": "496bfbd2905ec975cef01ab6d0e73d20", "type": "electric_bike"}, {"fusion_lat": 0.0, "bike_id": "b65118810d437693843bba32885e3033", "fusion_lon": 0.0, "lon": -77.02574283333334, "lat": 38.896110166666666, "is_reserved": 0, "is_disabled": 0, "rental_uris": {"android": "https://dc.lft.to/lastmile_qr_scan", "ios": "https://dc.lft.to/lastmile_qr_scan"}, "name": "b65118810d437693843bba32885e3033", "type": "electric_scooter"}, {"fusion_lat": 0.0, "bike_id": "fca9ad8c2178717ec8d83693138338a9", "fusion_lon": 0.0, "lon": -77.04715616666667, "lat": 38.8996785, "is_reserved": 0, "is_disabled": 0, "rental_uris": {"android": "https://dc.lft.to/lastmile_qr_scan", "ios": "https://dc.lft.to/lastmile_qr_scan"}, "name": "fca9ad8c2178717ec8d83693138338a9", "type": "electric_scooter"}, {"fusion_lat": 0.0, "bike_id": "c856db4b16da65b01567d8ce26aa0c8a", "fusion_lon": 0.0, "lon": -77.01218416666667, "lat": 38.870802, "is_reserved": 0, "is_disabled": 0, "rental_uris": {"android": "https://dc.lft.to/lastmile_qr_scan", "ios": "https://dc.lft.to/lastmile_qr_scan"}, "name": "c856db4b16da65b01567d8ce26aa0c8a", "type": "electric_bike"}, {"fusion_lat": 0.0, "bike_id": "2faf342506150acd540277925a0d4108", "fusion_lon": 0.0, "lon": -77.04280683333333, "lat": 38.9000935, "is_reserved": 0, "is_disabled": 0, "rental_uris": {"android": "https://dc.lft.to/lastmile_qr_scan", "ios": "https://dc.lft.to/lastmile_qr_scan"}, "name": "2faf342506150acd540277925a0d4108", "type": "electric_scooter"}, {"fusion_lat": 0.0, "bike_id": "f80ee01ee21b00de26543f9a725a70ec", "fusion_lon": 0.0, "lon": -77.0227025, "lat": 38.92473866666667, "is_reserved": 0, "is_disabled": 0, "rental_uris": {"android": "https://dc.lft.to/lastmile_qr_scan", "ios": "https://dc.lft.to/lastmile_qr_scan"}, "name": "f80ee01ee21b00de26543f9a725a70ec", "type": "electric_scooter"}, {"fusion_lat": 0.0, "bike_id": "80f3972fa0fc419f552bdb0c9037af73", "fusion_lon": 0.0, "lon": -77.033906, "lat": 38.90265766666667, "is_reserved": 0, "is_disabled": 0, "rental_uris": {"android": "https://dc.lft.to/lastmile_qr_scan", "ios": "https://dc.lft.to/lastmile_qr_scan"}, "name": "80f3972fa0fc419f552bdb0c9037af73", "type": "electric_scooter"}, {"fusion_lat": 0.0, "bike_id": "b3bb04a53128516e4355b4be4dbe32ca", "fusion_lon": 0.0, "lon": -77.04234466666666, "lat": 38.91257683333333, "is_reserved": 0, "is_disabled": 0, "rental_uris": {"android": "https://dc.lft.to/lastmile_qr_scan", "ios": "https://dc.lft.to/lastmile_qr_scan"}, "name": "b3bb04a53128516e4355b4be4dbe32ca", "type": "electric_scooter"}, {"fusion_lat": 0.0, "bike_id": "d49437fbc8b5dcd187ed3b677e08e0e6", "fusion_lon": 0.0, "lon": -77.02338166666667, "lat": 38.9176975, "is_reserved": 0, "is_disabled": 0, "rental_uris": {"android": "https://dc.lft.to/lastmile_qr_scan", "ios": "https://dc.lft.to/lastmile_qr_scan"}, "name": "d49437fbc8b5dcd187ed3b677e08e0e6", "type": "electric_scooter"}, {"fusion_lat": 0.0, "bike_id": "9f675f929cacac1fda6c47ce447ea9f2", "fusion_lon": 0.0, "lon": -77.016048, "lat": 38.91766166666667, "is_reserved": 0, "is_disabled": 0, "rental_uris": {"android": "https://dc.lft.to/lastmile_qr_scan", "ios": "https://dc.lft.to/lastmile_qr_scan"}, "name": "9f675f929cacac1fda6c47ce447ea9f2", "type": "electric_scooter"}, {"fusion_lat": 0.0, "bike_id": "d7ff23bc5a727b77f06aaf48c64315e0", "fusion_lon": 0.0, "lon": -77.03360466666666, "lat": 38.909755833333335, "is_reserved": 0, "is_disabled": 0, "rental_uris": {"android": "https://dc.lft.to/lastmile_qr_scan", "ios": "https://dc.lft.to/lastmile_qr_scan"}, "name": "d7ff23bc5a727b77f06aaf48c64315e0", "type": "electric_scooter"}, {"fusion_lat": 0.0, "bike_id": "50e404b0ea96ec95bcc8e32719f67f1d", "fusion_lon": 0.0, "lon": -77.0240695, "lat": 38.91666933333333, "is_reserved": 0, "is_disabled": 0, "rental_uris": {"android": "https://dc.lft.to/lastmile_qr_scan", "ios": "https://dc.lft.to/lastmile_qr_scan"}, "name": "50e404b0ea96ec95bcc8e32719f67f1d", "type": "electric_scooter"}, {"fusion_lat": 0.0, "bike_id": "edc2e8ba75c5fe4fe1b7ac92c5c66878", "fusion_lon": 0.0, "lon": -77.05856966666667, "lat": 38.9360865, "is_reserved": 0, "is_disabled": 0, "rental_uris": {"android": "https://dc.lft.to/lastmile_qr_scan", "ios": "https://dc.lft.to/lastmile_qr_scan"}, "name": "edc2e8ba75c5fe4fe1b7ac92c5c66878", "type": "electric_scooter"}, {"fusion_lat": 0.0, "bike_id": "cd6a0b1155b9f9cbb3ff2ed3d0cf2492", "fusion_lon": 0.0, "lon": -77.00503783333333, "lat": 38.9126985, "is_reserved": 0, "is_disabled": 0, "rental_uris": {"android": "https://dc.lft.to/lastmile_qr_scan", "ios": "https://dc.lft.to/lastmile_qr_scan"}, "name": "cd6a0b1155b9f9cbb3ff2ed3d0cf2492", "type": "electric_scooter"}, {"fusion_lat": 0.0, "bike_id": "40b6647d9da7ce38de1923fa7189ebdd", "fusion_lon": 0.0, "lon": -77.034046, "lat": 38.92317383333334, "is_reserved": 0, "is_disabled": 0, "rental_uris": {"android": "https://dc.lft.to/lastmile_qr_scan", "ios": "https://dc.lft.to/lastmile_qr_scan"}, "name": "40b6647d9da7ce38de1923fa7189ebdd", "type": "electric_scooter"}, {"fusion_lat": 0.0, "bike_id": "999a3ed503e99dae2feb3c2375a45af2", "fusion_lon": 0.0, "lon": -77.02676066666666, "lat": 38.92473366666667, "is_reserved": 0, "is_disabled": 0, "rental_uris": {"android": "https://dc.lft.to/lastmile_qr_scan", "ios": "https://dc.lft.to/lastmile_qr_scan"}, "name": "999a3ed503e99dae2feb3c2375a45af2", "type": "electric_scooter"}, {"fusion_lat": 0.0, "bike_id": "72ca685db9a7c3b34b4ed8149feaae5d", "fusion_lon": 0.0, "lon": -77.022727, "lat": 38.92525833333333, "is_reserved": 0, "is_disabled": 0, "rental_uris": {"android": "https://dc.lft.to/lastmile_qr_scan", "ios": "https://dc.lft.to/lastmile_qr_scan"}, "name": "72ca685db9a7c3b34b4ed8149feaae5d", "type": "electric_scooter"}, {"fusion_lat": 0.0, "bike_id": "f8b12c2d11adc61ef8f9a080ef3508e2", "fusion_lon": 0.0, "lon": -77.03641383333333, "lat": 38.9131255, "is_reserved": 0, "is_disabled": 0, "rental_uris": {"android": "https://dc.lft.to/lastmile_qr_scan", "ios": "https://dc.lft.to/lastmile_qr_scan"}, "name": "f8b12c2d11adc61ef8f9a080ef3508e2", "type": "electric_scooter"}, {"fusion_lat": 0.0, "bike_id": "e942358ad48ab06e5fcfaf95192270b7", "fusion_lon": 0.0, "lon": -77.0205035, "lat": 38.90966933333333, "is_reserved": 0, "is_disabled": 0, "rental_uris": {"android": "https://dc.lft.to/lastmile_qr_scan", "ios": "https://dc.lft.to/lastmile_qr_scan"}, "name": "e942358ad48ab06e5fcfaf95192270b7", "type": "electric_scooter"}, {"fusion_lat": 0.0, "bike_id": "9257953458563587a15aaebc8befdef5", "fusion_lon": 0.0, "lon": -77.03061283333334, "lat": 38.88044566666667, "is_reserved": 0, "is_disabled": 0, "rental_uris": {"android": "https://dc.lft.to/lastmile_qr_scan", "ios": "https://dc.lft.to/lastmile_qr_scan"}, "name": "9257953458563587a15aaebc8befdef5", "type": "electric_scooter"}, {"fusion_lat": 0.0, "bike_id": "88cb84a1fa68fc1a1963dc3bca30282a", "fusion_lon": 0.0, "lon": -77.02216666666666, "lat": 38.89220266666667, "is_reserved": 0, "is_disabled": 0, "rental_uris": {"android": "https://dc.lft.to/lastmile_qr_scan", "ios": "https://dc.lft.to/lastmile_qr_scan"}, "name": "88cb84a1fa68fc1a1963dc3bca30282a", "type": "electric_scooter"}, {"fusion_lat": 0.0, "bike_id": "684e6112107fd8014e2e5d38dcf03f34", "fusion_lon": 0.0, "lon": -76.98339266666666, "lat": 38.934969833333334, "is_reserved": 0, "is_disabled": 0, "rental_uris": {"android": "https://dc.lft.to/lastmile_qr_scan", "ios": "https://dc.lft.to/lastmile_qr_scan"}, "name": "684e6112107fd8014e2e5d38dcf03f34", "type": "electric_bike"}, {"fusion_lat": 0.0, "bike_id": "da87bd476b7a7123b922ed2cd784c246", "fusion_lon": 0.0, "lon": -77.004519, "lat": 38.8766225, "is_reserved": 0, "is_disabled": 0, "rental_uris": {"android": "https://dc.lft.to/lastmile_qr_scan", "ios": "https://dc.lft.to/lastmile_qr_scan"}, "name": "da87bd476b7a7123b922ed2cd784c246", "type": "electric_scooter"}, {"fusion_lat": 0.0, "bike_id": "79f43a0f7daacabf61582ec0eb97b9b2", "fusion_lon": 0.0, "lon": -76.99942033333333, "lat": 38.906257333333336, "is_reserved": 0, "is_disabled": 0, "rental_uris": {"android": "https://dc.lft.to/lastmile_qr_scan", "ios": "https://dc.lft.to/lastmile_qr_scan"}, "name": "79f43a0f7daacabf61582ec0eb97b9b2", "type": "electric_scooter"}, {"fusion_lat": 0.0, "bike_id": "96437ce4201bdf24f7ee5e04a6503972", "fusion_lon": 0.0, "lon": -76.99381416666667, "lat": 38.891938, "is_reserved": 0, "is_disabled": 0, "rental_uris": {"android": "https://dc.lft.to/lastmile_qr_scan", "ios": "https://dc.lft.to/lastmile_qr_scan"}, "name": "96437ce4201bdf24f7ee5e04a6503972", "type": "electric_scooter"}, {"fusion_lat": 0.0, "bike_id": "9e86e418cdc5dec912c50fb019db7218", "fusion_lon": 0.0, "lon": -77.02757233333334, "lat": 38.89229183333333, "is_reserved": 0, "is_disabled": 0, "rental_uris": {"android": "https://dc.lft.to/lastmile_qr_scan", "ios": "https://dc.lft.to/lastmile_qr_scan"}, "name": "9e86e418cdc5dec912c50fb019db7218", "type": "electric_scooter"}, {"fusion_lat": 0.0, "bike_id": "fd785ac674ee7fd6d1622dd6b8a7133a", "fusion_lon": 0.0, "lon": -76.94883, "lat": 38.89508333333333, "is_reserved": 0, "is_disabled": 0, "rental_uris": {"android": "https://dc.lft.to/lastmile_qr_scan", "ios": "https://dc.lft.to/lastmile_qr_scan"}, "name": "fd785ac674ee7fd6d1622dd6b8a7133a", "type": "electric_scooter"}, {"fusion_lat": 0.0, "bike_id": "4f2ce959f4a0e8f27755323972cc730c", "fusion_lon": 0.0, "lon": -77.04655183333334, "lat": 38.89771366666667, "is_reserved": 0, "is_disabled": 0, "rental_uris": {"android": "https://dc.lft.to/lastmile_qr_scan", "ios": "https://dc.lft.to/lastmile_qr_scan"}, "name": "4f2ce959f4a0e8f27755323972cc730c", "type": "electric_scooter"}, {"fusion_lat": 0.0, "bike_id": "418c28206e117a82cd92edb98f0d48d1", "fusion_lon": 0.0, "lon": -77.02233616666666, "lat": 38.89220433333333, "is_reserved": 0, "is_disabled": 0, "rental_uris": {"android": "https://dc.lft.to/lastmile_qr_scan", "ios": "https://dc.lft.to/lastmile_qr_scan"}, "name": "418c28206e117a82cd92edb98f0d48d1", "type": "electric_scooter"}, {"fusion_lat": 0.0, "bike_id": "7b4bd83eed2ff79acf1a4cb1b8e9aef8", "fusion_lon": 0.0, "lon": -77.01548566666666, "lat": 38.883369333333334, "is_reserved": 0, "is_disabled": 0, "rental_uris": {"android": "https://dc.lft.to/lastmile_qr_scan", "ios": "https://dc.lft.to/lastmile_qr_scan"}, "name": "7b4bd83eed2ff79acf1a4cb1b8e9aef8", "type": "electric_scooter"}, {"fusion_lat": 0.0, "bike_id": "f3ad0403ed8f205de31f6bd3da5d48e0", "fusion_lon": 0.0, "lon": -77.04032866666667, "lat": 38.90601983333333, "is_reserved": 0, "is_disabled": 0, "rental_uris": {"android": "https://dc.lft.to/lastmile_qr_scan", "ios": "https://dc.lft.to/lastmile_qr_scan"}, "name": "f3ad0403ed8f205de31f6bd3da5d48e0", "type": "electric_scooter"}, {"fusion_lat": 0.0, "bike_id": "51334275cb8e76d8c77a377c297a8706", "fusion_lon": 0.0, "lon": -77.00894416666667, "lat": 38.89893266666667, "is_reserved": 0, "is_disabled": 0, "rental_uris": {"android": "https://dc.lft.to/lastmile_qr_scan", "ios": "https://dc.lft.to/lastmile_qr_scan"}, "name": "51334275cb8e76d8c77a377c297a8706", "type": "electric_scooter"}, {"fusion_lat": 0.0, "bike_id": "c8fa393323375ee7754626866a0c825a", "fusion_lon": 0.0, "lon": -77.02665366666666, "lat": 38.92821283333333, "is_reserved": 0, "is_disabled": 0, "rental_uris": {"android": "https://dc.lft.to/lastmile_qr_scan", "ios": "https://dc.lft.to/lastmile_qr_scan"}, "name": "c8fa393323375ee7754626866a0c825a", "type": "electric_scooter"}, {"fusion_lat": 0.0, "bike_id": "3d19f83161eb61b5be37a7884fb3525b", "fusion_lon": 0.0, "lon": -77.03796433333333, "lat": 38.921906666666665, "is_reserved": 0, "is_disabled": 0, "rental_uris": {"android": "https://dc.lft.to/lastmile_qr_scan", "ios": "https://dc.lft.to/lastmile_qr_scan"}, "name": "3d19f83161eb61b5be37a7884fb3525b", "type": "electric_bike"}, {"fusion_lat": 0.0, "bike_id": "0e5949451aa48e7363d3913abf91953a", "fusion_lon": 0.0, "lon": -77.08169433333333, "lat": 38.855727, "is_reserved": 0, "is_disabled": 0, "rental_uris": {"android": "https://dc.lft.to/lastmile_qr_scan", "ios": "https://dc.lft.to/lastmile_qr_scan"}, "name": "0e5949451aa48e7363d3913abf91953a", "type": "electric_bike"}, {"fusion_lat": 0.0, "bike_id": "50783d42248758498411816a3e5e28d3", "fusion_lon": 0.0, "lon": -77.034409, "lat": 38.90666916666667, "is_reserved": 0, "is_disabled": 0, "rental_uris": {"android": "https://dc.lft.to/lastmile_qr_scan", "ios": "https://dc.lft.to/lastmile_qr_scan"}, "name": "50783d42248758498411816a3e5e28d3", "type": "electric_scooter"}, {"fusion_lat": 0.0, "bike_id": "1b0e805bcc620112aca3896d2c79aea8", "fusion_lon": 0.0, "lon": -77.00128883333333, "lat": 38.87378266666666, "is_reserved": 0, "is_disabled": 0, "rental_uris": {"android": "https://dc.lft.to/lastmile_qr_scan", "ios": "https://dc.lft.to/lastmile_qr_scan"}, "name": "1b0e805bcc620112aca3896d2c79aea8", "type": "electric_scooter"}, {"fusion_lat": 0.0, "bike_id": "f9670bb6a865b1233b1a4cab23f51d21", "fusion_lon": 0.0, "lon": -77.05910316666667, "lat": 38.9030425, "is_reserved": 0, "is_disabled": 0, "rental_uris": {"android": "https://dc.lft.to/lastmile_qr_scan", "ios": "https://dc.lft.to/lastmile_qr_scan"}, "name": "f9670bb6a865b1233b1a4cab23f51d21", "type": "electric_scooter"}, {"fusion_lat": 0.0, "bike_id": "8dbcba543da59a446eee8ae7760f922a", "fusion_lon": 0.0, "lon": -76.992939, "lat": 38.92104166666667, "is_reserved": 0, "is_disabled": 0, "rental_uris": {"android": "https://dc.lft.to/lastmile_qr_scan", "ios": "https://dc.lft.to/lastmile_qr_scan"}, "name": "8dbcba543da59a446eee8ae7760f922a", "type": "electric_scooter"}, {"fusion_lat": 0.0, "bike_id": "006b88cf23a92979328a276bda2c0b47", "fusion_lon": 0.0, "lon": -77.0310565, "lat": 38.915630666666665, "is_reserved": 0, "is_disabled": 0, "rental_uris": {"android": "https://dc.lft.to/lastmile_qr_scan", "ios": "https://dc.lft.to/lastmile_qr_scan"}, "name": "006b88cf23a92979328a276bda2c0b47", "type": "electric_scooter"}, {"fusion_lat": 0.0, "bike_id": "79f89208750ac9402acbf4ef00ea89c6", "fusion_lon": 0.0, "lon": -76.993516, "lat": 38.84506116666667, "is_reserved": 0, "is_disabled": 0, "rental_uris": {"android": "https://dc.lft.to/lastmile_qr_scan", "ios": "https://dc.lft.to/lastmile_qr_scan"}, "name": "79f89208750ac9402acbf4ef00ea89c6", "type": "electric_bike"}, {"fusion_lat": 0.0, "bike_id": "c31a27a32d97eb43d98ca006e0623357", "fusion_lon": 0.0, "lon": -76.983486, "lat": 38.91537983333333, "is_reserved": 0, "is_disabled": 0, "rental_uris": {"android": "https://dc.lft.to/lastmile_qr_scan", "ios": "https://dc.lft.to/lastmile_qr_scan"}, "name": "c31a27a32d97eb43d98ca006e0623357", "type": "electric_scooter"}, {"fusion_lat": 0.0, "bike_id": "5a18c0faabb7e66d0f97d47206648454", "fusion_lon": 0.0, "lon": -77.07135716666667, "lat": 38.9297545, "is_reserved": 0, "is_disabled": 0, "rental_uris": {"android": "https://dc.lft.to/lastmile_qr_scan", "ios": "https://dc.lft.to/lastmile_qr_scan"}, "name": "5a18c0faabb7e66d0f97d47206648454", "type": "electric_bike"}, {"fusion_lat": 0.0, "bike_id": "83213731b07a87fbf14b2fcec0759afa", "fusion_lon": 0.0, "lon": -77.02646833333333, "lat": 38.9385565, "is_reserved": 0, "is_disabled": 0, "rental_uris": {"android": "https://dc.lft.to/lastmile_qr_scan", "ios": "https://dc.lft.to/lastmile_qr_scan"}, "name": "83213731b07a87fbf14b2fcec0759afa", "type": "electric_scooter"}, {"fusion_lat": 0.0, "bike_id": "bc191c8b79b636aa9bb10c5362cf9675", "fusion_lon": 0.0, "lon": -77.04383466666667, "lat": 38.9209515, "is_reserved": 0, "is_disabled": 0, "rental_uris": {"android": "https://dc.lft.to/lastmile_qr_scan", "ios": "https://dc.lft.to/lastmile_qr_scan"}, "name": "bc191c8b79b636aa9bb10c5362cf9675", "type": "electric_scooter"}, {"fusion_lat": 0.0, "bike_id": "135a9f740bc37fe07d5d4aba7f40c899", "fusion_lon": 0.0, "lon": -76.97765816666667, "lat": 38.9515245, "is_reserved": 0, "is_disabled": 0, "rental_uris": {"android": "https://dc.lft.to/lastmile_qr_scan", "ios": "https://dc.lft.to/lastmile_qr_scan"}, "name": "135a9f740bc37fe07d5d4aba7f40c899", "type": "electric_bike"}, {"fusion_lat": 0.0, "bike_id": "eabe209f75b889cc4afb306b44dc16dc", "fusion_lon": 0.0, "lon": -77.02587883333334, "lat": 38.94201133333333, "is_reserved": 0, "is_disabled": 0, "rental_uris": {"android": "https://dc.lft.to/lastmile_qr_scan", "ios": "https://dc.lft.to/lastmile_qr_scan"}, "name": "eabe209f75b889cc4afb306b44dc16dc", "type": "electric_scooter"}, {"fusion_lat": 0.0, "bike_id": "9954e771a9825057c22e54cf3415b99e", "fusion_lon": 0.0, "lon": -77.03328883333333, "lat": 38.90941383333333, "is_reserved": 0, "is_disabled": 0, "rental_uris": {"android": "https://dc.lft.to/lastmile_qr_scan", "ios": "https://dc.lft.to/lastmile_qr_scan"}, "name": "9954e771a9825057c22e54cf3415b99e", "type": "electric_scooter"}, {"fusion_lat": 0.0, "bike_id": "6d13fb8e127224e2ca7b351aa8df9cd6", "fusion_lon": 0.0, "lon": -77.00724483333333, "lat": 38.884919, "is_reserved": 0, "is_disabled": 0, "rental_uris": {"android": "https://dc.lft.to/lastmile_qr_scan", "ios": "https://dc.lft.to/lastmile_qr_scan"}, "name": "6d13fb8e127224e2ca7b351aa8df9cd6", "type": "electric_scooter"}, {"fusion_lat": 0.0, "bike_id": "49ede3cb8d83f852c82f869395d553da", "fusion_lon": 0.0, "lon": -77.0363305, "lat": 38.92744016666666, "is_reserved": 0, "is_disabled": 0, "rental_uris": {"android": "https://dc.lft.to/lastmile_qr_scan", "ios": "https://dc.lft.to/lastmile_qr_scan"}, "name": "49ede3cb8d83f852c82f869395d553da", "type": "electric_scooter"}, {"fusion_lat": 0.0, "bike_id": "1a1dfb0e24f5eb5cf061032e0e50a4e1", "fusion_lon": 0.0, "lon": -77.02951283333333, "lat": 38.91682266666667, "is_reserved": 0, "is_disabled": 0, "rental_uris": {"android": "https://dc.lft.to/lastmile_qr_scan", "ios": "https://dc.lft.to/lastmile_qr_scan"}, "name": "1a1dfb0e24f5eb5cf061032e0e50a4e1", "type": "electric_scooter"}, {"fusion_lat": 0.0, "bike_id": "6e96b441578e13723e75c17305839407", "fusion_lon": 0.0, "lon": -76.99959566666666, "lat": 38.9215015, "is_reserved": 0, "is_disabled": 0, "rental_uris": {"android": "https://dc.lft.to/lastmile_qr_scan", "ios": "https://dc.lft.to/lastmile_qr_scan"}, "name": "6e96b441578e13723e75c17305839407", "type": "electric_scooter"}, {"fusion_lat": 0.0, "bike_id": "e23a44e92dbe7664e040d9b7166acfd7", "fusion_lon": 0.0, "lon": -77.02356733333333, "lat": 38.892241166666665, "is_reserved": 0, "is_disabled": 0, "rental_uris": {"android": "https://dc.lft.to/lastmile_qr_scan", "ios": "https://dc.lft.to/lastmile_qr_scan"}, "name": "e23a44e92dbe7664e040d9b7166acfd7", "type": "electric_scooter"},