{"data": {"bikes": [{"is_reserved": 0, "type": "electric_scooter", "bike_id": "d2662456d58a57955582420295e534cd", "lat": 38.9233215, "lon": -77.05391583333333, "rental_uris": {"android": "https://dc.lft.to/lastmile_qr_scan", "ios": "https://dc.lft.to/lastmile_qr_scan"}, "is_disabled": 0, "fusion_lat": 0.0, "name": "d2662456d58a57955582420295e534cd", "fusion_lon": 0.0}, {"is_reserved": 0, "type": "electric_scooter", "bike_id": "4fae57a50fb9bae6d0344efe8dd78d7b", "lat": 38.902504, "lon": -77.033406, "rental_uris": {"android": "https://dc.lft.to/lastmile_qr_scan", "ios": "https://dc.lft.to/lastmile_qr_scan"}, "is_disabled": 0, "fusion_lat": 0.0, "name": "4fae57a50fb9bae6d0344efe8dd78d7b", "fusion_lon": 0.0}, {"is_reserved": 0, "type": "electric_scooter", "bike_id": "7916185e3cc73314557a477b62d722d7", "lat": 38.930040166666664, "lon": -77.037995, "rental_uris": {"android": "https://dc.lft.to/lastmile_qr_scan", "ios": "https://dc.lft.to/lastmile_qr_scan"}, "is_disabled": 0, "fusion_lat": 0.0, "name": "7916185e3cc73314557a477b62d722d7", "fusion_lon": 0.0}, {"is_reserved": 0, "type": "electric_scooter", "bike_id": "1424b401d8d77586ed0472504e866971", "lat": 38.9260705, "lon": -77.03661033333333, "rental_uris": {"android": "https://dc.lft.to/lastmile_qr_scan", "ios": "https://dc.lft.to/lastmile_qr_scan"}, "is_disabled": 0, "fusion_lat": 0.0, "name": "1424b401d8d77586ed0472504e866971", "fusion_lon": 0.0}, {"is_reserved": 0, "type": "electric_scooter", "bike_id": "906125c9c6149559e047bd6ae75b98b7", "lat": 38.9003565, "lon": -77.0020485, "rental_uris": {"android": "https://dc.lft.to/lastmile_qr_scan", "ios": "https://dc.lft.to/lastmile_qr_scan"}, "is_disabled": 0, "fusion_lat": 0.0, "name": "906125c9c6149559e047bd6ae75b98b7", "fusion_lon": 0.0}, {"is_reserved": 0, "type": "electric_scooter", "bike_id": "791b9d03a2ac3365b4bb56bbbdc2cfae", "lat": 38.90170283333333, "lon": -77.02471466666667, "rental_uris": {"android": "https://dc.lft.to/lastmile_qr_scan", "ios": "https://dc.lft.to/lastmile_qr_scan"}, "is_disabled": 0, "fusion_lat": 0.0, "name": "791b9d03a2ac3365b4bb56bbbdc2cfae", "fusion_lon": 0.0}, {"is_reserved": 0, "type": "electric_scooter", "bike_id": "82c1e5da61c037c2ebbe96ab17ad5f89", "lat": 38.89923533333334, "lon": -77.02747466666666, "rental_uris": {"android": "https://dc.lft.to/lastmile_qr_scan", "ios": "https://dc.lft.to/lastmile_qr_scan"}, "is_disabled": 0, "fusion_lat": 0.0, "name": "82c1e5da61c037c2ebbe96ab17ad5f89", "fusion_lon": 0.0}, {"is_reserved": 0, "type": "electric_scooter", "bike_id": "276edcf426cb5e101cae125e17064e66", "lat": 38.9181925, "lon": -77.04545316666666, "rental_uris": {"android": "https://dc.lft.to/lastmile_qr_scan", "ios": "https://dc.lft.to/lastmile_qr_scan"}, "is_disabled": 0, "fusion_lat": 0.0, "name": "276edcf426cb5e101cae125e17064e66", "fusion_lon": 0.0}, {"is_reserved": 0, "type": "electric_scooter", "bike_id": "6a0f5a0f8cbc10f6ee773c35a8693a12", "lat": 38.92098583333333, "lon": -77.03166683333333, "rental_uris": {"android": "https://dc.lft.to/lastmile_qr_scan", "ios": "https://dc.lft.to/lastmile_qr_scan"}, "is_disabled": 0, "fusion_lat": 0.0, "name": "6a0f5a0f8cbc10f6ee773c35a8693a12", "fusion_lon": 0.0}, {"is_reserved": 0, "type": "electric_scooter", "bike_id": "492a50d555331e6c6532aac501403de6", "lat": 38.920186, "lon": -77.01056516666667, "rental_uris": {"android": "https://dc.lft.to/lastmile_qr_scan", "ios": "https://dc.lft.to/lastmile_qr_scan"}, "is_disabled": 0, "fusion_lat": 0.0, "name": "492a50d555331e6c6532aac501403de6", "fusion_lon": 0.0}, {"is_reserved": 0, "type": "electric_scooter", "bike_id": "aff8dde0f1e23b009ff68db535224b32", "lat": 38.93463083333333, "lon": -77.05806833333334, "rental_uris": {"android": "https://dc.lft.to/lastmile_qr_scan", "ios": "https://dc.lft.to/lastmile_qr_scan"}, "is_disabled": 0, "fusion_lat": 0.0, "name": "aff8dde0f1e23b009ff68db535224b32", "fusion_lon": 0.0}, {"is_reserved": 0, "type": "electric_scooter", "bike_id": "0fe80abc4bcaf3e75149aa6fc1be2507", "lat": 38.930662166666664, "lon": -77.02839266666666, "rental_uris": {"android": "https://dc.lft.to/lastmile_qr_scan", "ios": "https://dc.lft.to/lastmile_qr_scan"}, "is_disabled": 0, "fusion_lat": 0.0, "name": "0fe80abc4bcaf3e75149aa6fc1be2507", "fusion_lon": 0.0}, {"is_reserved": 0, "type": "electric_bike", "bike_id": "4aa5934b45035c7446b4377905908bcb", "lat": 38.9742775, "lon": -77.01260566666667, "rental_uris": {"android": "https://dc.lft.to/lastmile_qr_scan", "ios": "https://dc.lft.to/lastmile_qr_scan"}, "is_disabled": 0, "fusion_lat": 0.0, "name": "4aa5934b45035c7446b4377905908bcb", "fusion_lon": 0.0}, {"is_reserved": 0, "type": "electric_scooter", "bike_id": "78b88b131d57b0cc3d5e491ae4149911", "lat": 38.903474, "lon": -77.02572733333334, "rental_uris": {"android": "https://dc.lft.to/lastmile_qr_scan", "ios": "https://dc.lft.to/lastmile_qr_scan"}, "is_disabled": 0, "fusion_lat": 0.0, "name": "78b88b131d57b0cc3d5e491ae4149911", "fusion_lon": 0.0}, {"is_reserved": 0, "type": "electric_bike", "bike_id": "1c8b50e0cf1c0787f67e75389070254b", "lat": 38.90274, "lon": -77.0136475, "rental_uris": {"android": "https://dc.lft.to/lastmile_qr_scan", "ios": "https://dc.lft.to/lastmile_qr_scan"}, "is_disabled": 0, "fusion_lat": 0.0, "name": "1c8b50e0cf1c0787f67e75389070254b", "fusion_lon": 0.0}, {"is_reserved": 0, "type": "electric_scooter", "bike_id": "5f66c00931a015f646fee964b49f10bd", "lat": 38.93242333333333, "lon": -77.040858, "rental_uris": {"android": "https://dc.lft.to/lastmile_qr_scan", "ios": "https://dc.lft.to/lastmile_qr_scan"}, "is_disabled": 0, "fusion_lat": 0.0, "name": "5f66c00931a015f646fee964b49f10bd", "fusion_lon": 0.0}, {"is_reserved": 0, "type": "electric_bike", "bike_id": "73b673089f94b3dbe0d3ae064cc231dd", "lat": 38.911755666666664, "lon": -77.00264616666666, "rental_uris": {"android": "https://dc.lft.to/lastmile_qr_scan", "ios": "https://dc.lft.to/lastmile_qr_scan"}, "is_disabled": 0, "fusion_lat": 0.0, "name": "73b673089f94b3dbe0d3ae064cc231dd", "fusion_lon": 0.0}, {"is_reserved": 0, "type": "electric_scooter", "bike_id": "ace85462d7feb5559a5e28b4da10b8e2", "lat": 38.93528933333333, "lon": -77.03266216666667, "rental_uris": {"android": "https://dc.lft.to/lastmile_qr_scan", "ios": "https://dc.lft.to/lastmile_qr_scan"}, "is_disabled": 0, "fusion_lat": 0.0, "name": "ace85462d7feb5559a5e28b4da10b8e2", "fusion_lon": 0.0}, {"is_reserved": 0, "type": "electric_scooter", "bike_id": "472c3ef98a22191ac667f7854750e97a", "lat": 38.93108516666667, "lon": -77.02479016666666, "rental_uris": {"android": "https://dc.lft.to/lastmile_qr_scan", "ios": "https://dc.lft.to/lastmile_qr_scan"}, "is_disabled": 0, "fusion_lat": 0.0, "name": "472c3ef98a22191ac667f7854750e97a", "fusion_lon": 0.0}, {"is_reserved": 0, "type": "electric_scooter", "bike_id": "f1c13876648120481941c934fb0c18b0", "lat": 38.91117216666667, "lon": -77.018285, "rental_uris": {"android": "https://dc.lft.to/lastmile_qr_scan", "ios": "https://dc.lft.to/lastmile_qr_scan"}, "is_disabled": 0, "fusion_lat": 0.0, "name": "f1c13876648120481941c934fb0c18b0", "fusion_lon": 0.0}, {"is_reserved": 0, "type": "electric_scooter", "bike_id": "82b15bf5df8ce6bf9a518933f0af5221", "lat": 38.90178916666667, "lon": -77.0245565, "rental_uris": {"android": "https://dc.lft.to/lastmile_qr_scan", "ios": "https://dc.lft.to/lastmile_qr_scan"}, "is_disabled": 0, "fusion_lat": 0.0, "name": "82b15bf5df8ce6bf9a518933f0af5221", "fusion_lon": 0.0}, {"is_reserved": 0, "type": "electric_scooter", "bike_id": "1f0a91a7e034ec0c4a537e9030e06a19", "lat": 38.933307166666665, "lon": -77.02909266666667, "rental_uris": {"android": "https://dc.lft.to/lastmile_qr_scan", "ios": "https://dc.lft.to/lastmile_qr_scan"}, "is_disabled": 0, "fusion_lat": 0.0, "name": "1f0a91a7e034ec0c4a537e9030e06a19", "fusion_lon": 0.0}, {"is_reserved": 0, "type": "electric_scooter", "bike_id": "57351b74b3823e183585ca3d7df3d1a3", "lat": 38.898451, "lon": -77.02217383333333, "rental_uris": {"android": "https://dc.lft.to/lastmile_qr_scan", "ios": "https://dc.lft.to/lastmile_qr_scan"}, "is_disabled": 0, "fusion_lat": 0.0, "name": "57351b74b3823e183585ca3d7df3d1a3", "fusion_lon": 0.0}, {"is_reserved": 0, "type": "electric_scooter", "bike_id": "366ed01a379a4f5a0122b45e26cb43f0", "lat": 38.9192355, "lon": -77.04807916666667, "rental_uris": {"android": "https://dc.lft.to/lastmile_qr_scan", "ios": "https://dc.lft.to/lastmile_qr_scan"}, "is_disabled": 0, "fusion_lat": 0.0, "name": "366ed01a379a4f5a0122b45e26cb43f0", "fusion_lon": 0.0}, {"is_reserved": 0, "type": "electric_scooter", "bike_id": "979ea874e0a85c4fa21f7dd910733af9", "lat": 38.9302915, "lon": -77.0236705, "rental_uris": {"android": "https://dc.lft.to/lastmile_qr_scan", "ios": "https://dc.lft.to/lastmile_qr_scan"}, "is_disabled": 0, "fusion_lat": 0.0, "name": "979ea874e0a85c4fa21f7dd910733af9", "fusion_lon": 0.0}, {"is_reserved": 0, "type": "electric_scooter", "bike_id": "315d50b9996474991a086377e95c227f", "lat": 38.90618116666667, "lon": -77.06510833333333, "rental_uris": {"android": "https://dc.lft.to/lastmile_qr_scan", "ios": "https://dc.lft.to/lastmile_qr_scan"}, "is_disabled": 0, "fusion_lat": 0.0, "name": "315d50b9996474991a086377e95c227f", "fusion_lon": 0.0}, {"is_reserved": 0, "type": "electric_scooter", "bike_id": "c83048d5fa22f3979e76a8b00623d819", "lat": 38.926043166666666, "lon": -77.02159816666666, "rental_uris": {"android": "https://dc.lft.to/lastmile_qr_scan", "ios": "https://dc.lft.to/lastmile_qr_scan"}, "is_disabled": 0, "fusion_lat": 0.0, "name": "c83048d5fa22f3979e76a8b00623d819", "fusion_lon": 0.0}, {"is_reserved": 0, "type": "electric_scooter", "bike_id": "672e1f5ea773162e26f52d75d9e2d1b9", "lat": 38.9071855, "lon": -77.04789183333334, "rental_uris": {"android": "https://dc.lft.to/lastmile_qr_scan", "ios": "https://dc.lft.to/lastmile_qr_scan"}, "is_disabled": 0, "fusion_lat": 0.0, "name": "672e1f5ea773162e26f52d75d9e2d1b9", "fusion_lon": 0.0}, {"is_reserved": 0, "type": "electric_scooter", "bike_id": "3c0b8ef477f11819096ff859d72cf4fb", "lat": 38.92204916666667, "lon": -77.03896816666666, "rental_uris": {"android": "https://dc.lft.to/lastmile_qr_scan", "ios": "https://dc.lft.to/lastmile_qr_scan"}, "is_disabled": 0, "fusion_lat": 0.0, "name": "3c0b8ef477f11819096ff859d72cf4fb", "fusion_lon": 0.0}, {"is_reserved": 0, "type": "electric_scooter", "bike_id": "f9255059047d64e4cf592fd4e9d91428", "lat": 38.92453233333333, "lon": -77.02032366666667, "rental_uris": {"android": "https://dc.lft.to/lastmile_qr_scan", "ios": "https://dc.lft.to/lastmile_qr_scan"}, "is_disabled": 0, "fusion_lat": 0.0, "name": "f9255059047d64e4cf592fd4e9d91428", "fusion_lon": 0.0}, {"is_reserved": 0, "type": "electric_scooter", "bike_id": "57023f36708be54c6fe5e9877a70ddee", "lat": 38.892454, "lon": -77.03349366666667, "rental_uris": {"android": "https://dc.lft.to/lastmile_qr_scan", "ios": "https://dc.lft.to/lastmile_qr_scan"}, "is_disabled": 0, "fusion_lat": 0.0, "name": "57023f36708be54c6fe5e9877a70ddee", "fusion_lon": 0.0}, {"is_reserved": 0, "type": "electric_scooter", "bike_id": "3fc43bedd8db67d0599863826c2a6cea", "lat": 38.91641283333333, "lon": -77.001981, "rental_uris": {"android": "https://dc.lft.to/lastmile_qr_scan", "ios": "https://dc.lft.to/lastmile_qr_scan"}, "is_disabled": 0, "fusion_lat": 0.0, "name": "3fc43bedd8db67d0599863826c2a6cea", "fusion_lon": 0.0}, {"is_reserved": 0, "type": "electric_scooter", "bike_id": "7865ab0a264b3c6d551592e9a7bac31c", "lat": 38.917368333333336, "lon": -77.04177466666667, "rental_uris": {"android": "https://dc.lft.to/lastmile_qr_scan", "ios": "https://dc.lft.to/lastmile_qr_scan"}, "is_disabled": 0, "fusion_lat": 0.0, "name": "7865ab0a264b3c6d551592e9a7bac31c", "fusion_lon": 0.0}, {"is_reserved": 0, "type": "electric_bike", "bike_id": "6fe833b004d8c015d8bb218c49b79273", "lat": 38.84566183333333, "lon": -76.9705735, "rental_uris": {"android": "https://dc.lft.to/lastmile_qr_scan", "ios": "https://dc.lft.to/lastmile_qr_scan"}, "is_disabled": 0, "fusion_lat": 0.0, "name": "6fe833b004d8c015d8bb218c49b79273", "fusion_lon": 0.0}, {"is_reserved": 0, "type": "electric_scooter", "bike_id": "3f8237f95f287f19dee8dbef02ad3dc7", "lat": 38.940793166666666, "lon": -77.029065, "rental_uris": {"android": "https://dc.lft.to/lastmile_qr_scan", "ios": "https://dc.lft.to/lastmile_qr_scan"}, "is_disabled": 0, "fusion_lat": 0.0, "name": "3f8237f95f287f19dee8dbef02ad3dc7", "fusion_lon": 0.0}, {"is_reserved": 0, "type": "electric_bike", "bike_id": "9a878543fe077e44436432c929af328d", "lat": 38.838150166666665, "lon": -77.09524566666667, "rental_uris": {"android": "https://dc.lft.to/lastmile_qr_scan", "ios": "https://dc.lft.to/lastmile_qr_scan"}, "is_disabled": 0, "fusion_lat": 0.0, "name": "9a878543fe077e44436432c929af328d", "fusion_lon": 0.0}, {"is_reserved": 0, "type": "electric_scooter", "bike_id": "27b08cd1029eda0790eefe1b6dfa6b8a", "lat": 38.91484966666667, "lon": -77.0181605, "rental_uris": {"android": "https://dc.lft.to/lastmile_qr_scan", "ios": "https://dc.lft.to/lastmile_qr_scan"}, "is_disabled": 0, "fusion_lat": 0.0, "name": "27b08cd1029eda0790eefe1b6dfa6b8a", "fusion_lon": 0.0}, {"is_reserved": 0, "type": "electric_scooter", "bike_id": "34ba3f7dc9f8a987483f89bf88033267", "lat": 38.8762895, "lon": -77.01244166666666, "rental_uris": {"android": "https://dc.lft.to/lastmile_qr_scan", "ios": "https://dc.lft.to/lastmile_qr_scan"}, "is_disabled": 0, "fusion_lat": 0.0, "name": "34ba3f7dc9f8a987483f89bf88033267", "fusion_lon": 0.0}, {"is_reserved": 0, "type": "electric_bike", "bike_id": "9cc259748d092c386022b58a64347f21", "lat": 38.89884933333333, "lon": -77.021446, "rental_uris": {"android": "https://dc.lft.to/lastmile_qr_scan", "ios": "https://dc.lft.to/lastmile_qr_scan"}, "is_disabled": 0, "fusion_lat": 0.0, "name": "9cc259748d092c386022b58a64347f21", "fusion_lon": 0.0}, {"is_reserved": 0, "type": "electric_scooter", "bike_id": "f0476ccfa2979198d3ffe6e1dc72118f", "lat": 38.934169, "lon": -77.02038883333333, "rental_uris": {"android": "https://dc.lft.to/lastmile_qr_scan", "ios": "https://dc.lft.to/lastmile_qr_scan"}, "is_disabled": 0, "fusion_lat": 0.0, "name": "f0476ccfa2979198d3ffe6e1dc72118f", "fusion_lon": 0.0}, {"is_reserved": 0, "type": "electric_scooter", "bike_id": "364f6c3dbc2ba9c79acbdc783a1a9ca1", "lat": 38.909735833333336, "lon": -77.02416866666667, "rental_uris": {"android": "https://dc.lft.to/lastmile_qr_scan", "ios": "https://dc.lft.to/lastmile_qr_scan"}, "is_disabled": 0, "fusion_lat": 0.0, "name": "364f6c3dbc2ba9c79acbdc783a1a9ca1", "fusion_lon": 0.0}, {"is_reserved": 0, "type": "electric_scooter", "bike_id": "69b1a73ec963b81c1299e8eab3d4450c", "lat": 38.89896266666667, "lon": -77.0161735, "rental_uris": {"android": "https://dc.lft.to/lastmile_qr_scan", "ios": "https://dc.lft.to/lastmile_qr_scan"}, "is_disabled": 0, "fusion_lat": 0.0, "name": "69b1a73ec963b81c1299e8eab3d4450c", "fusion_lon": 0.0}, {"is_reserved": 0, "type": "electric_scooter", "bike_id": "dae5ba5aae38bce279bc8a2d61658a41", "lat": 38.91068416666667, "lon": -77.04385416666666, "rental_uris": {"android": "https://dc.lft.to/lastmile_qr_scan", "ios": "https://dc.lft.to/lastmile_qr_scan"}, "is_disabled": 0, "fusion_lat": 0.0, "name": "dae5ba5aae38bce279bc8a2d61658a41", "fusion_lon": 0.0}, {"is_reserved": 0, "type": "electric_scooter", "bike_id": "c1e6301be346cd5cd51234f2f5c54d72", "lat": 38.925875833333336, "lon": -77.04098733333333, "rental_uris": {"android": "https://dc.lft.to/lastmile_qr_scan", "ios": "https://dc.lft.to/lastmile_qr_scan"}, "is_disabled": 0, "fusion_lat": 0.0, "name": "c1e6301be346cd5cd51234f2f5c54d72", "fusion_lon": 0.0}, {"is_reserved": 0, "type": "electric_scooter", "bike_id": "1b4b6eabce8976f5a43058c4f2d4ff81", "lat": 38.924795833333334, "lon": -77.02722883333334, "rental_uris": {"android": "https://dc.lft.to/lastmile_qr_scan", "ios": "https://dc.lft.to/lastmile_qr_scan"}, "is_disabled": 0, "fusion_lat": 0.0, "name": "1b4b6eabce8976f5a43058c4f2d4ff81", "fusion_lon": 0.0}, {"is_reserved": 0, "type": "electric_scooter", "bike_id": "dc06463d69e3e8b351cac736f3f457ed", "lat": 38.91556633333333, "lon": -77.030963, "rental_uris": {"android": "https://dc.lft.to/lastmile_qr_scan", "ios": "https://dc.lft.to/lastmile_qr_scan"}, "is_disabled": 0, "fusion_lat": 0.0, "name": "dc06463d69e3e8b351cac736f3f457ed", "fusion_lon": 0.0}, {"is_reserved": 0, "type": "electric_scooter", "bike_id": "4eac4594bd48e34932ba04150dec1dc1", "lat": 38.89915416666667, "lon": -77.00364483333334, "rental_uris": {"android": "https://dc.lft.to/lastmile_qr_scan", "ios": "https://dc.lft.to/lastmile_qr_scan"}, "is_disabled": 0, "fusion_lat": 0.0, "name": "4eac4594bd48e34932ba04150dec1dc1", "fusion_lon": 0.0}, {"is_reserved": 0, "type": "electric_scooter", "bike_id": "e807a13f2958a83e36f0f578efa908fa", "lat": 38.90971483333333, "lon": -77.04777116666666, "rental_uris": {"android": "https://dc.lft.to/lastmile_qr_scan", "ios": "https://dc.lft.to/lastmile_qr_scan"}, "is_disabled": 0, "fusion_lat": 0.0, "name": "e807a13f2958a83e36f0f578efa908fa", "fusion_lon": 0.0}, {"is_reserved": 0, "type": "electric_scooter", "bike_id": "a593d6844205d3003f92507f8063b941", "lat": 38.90405783333333, "lon": -77.00430333333334, "rental_uris": {"android": "https://dc.lft.to/lastmile_qr_scan", "ios": "https://dc.lft.to/lastmile_qr_scan"}, "is_disabled": 0, "fusion_lat": 0.0, "name": "a593d6844205d3003f92507f8063b941", "fusion_lon": 0.0}, {"is_reserved": 0, "type": "electric_scooter", "bike_id": "6c35e505ef23480054dad9cc345b55e4", "lat": 38.90033566666666, "lon": -76.9963185, "rental_uris": {"android": "https://dc.lft.to/lastmile_qr_scan", "ios": "https://dc.lft.to/lastmile_qr_scan"}, "is_disabled": 0, "fusion_lat": 0.0, "name": "6c35e505ef23480054dad9cc345b55e4", "fusion_lon": 0.0}, {"is_reserved": 0, "type": "electric_scooter", "bike_id": "ffa6234955a8447c5cc1b6537510b464", "lat": 38.920323833333335, "lon": -77.02713, "rental_uris": {"android": "https://dc.lft.to/lastmile_qr_scan", "ios": "https://dc.lft.to/lastmile_qr_scan"}, "is_disabled": 0, "fusion_lat": 0.0, "name": "ffa6234955a8447c5cc1b6537510b464", "fusion_lon": 0.0}, {"is_reserved": 0, "type": "electric_scooter", "bike_id": "102b1fdc8947438b8be44e731d890e27", "lat": 38.93041183333333, "lon": -77.02960583333333, "rental_uris": {"android": "https://dc.lft.to/lastmile_qr_scan", "ios": "https://dc.lft.to/lastmile_qr_scan"}, "is_disabled": 0, "fusion_lat": 0.0, "name": "102b1fdc8947438b8be44e731d890e27", "fusion_lon": 0.0}, {"is_reserved": 0, "type": "electric_scooter", "bike_id": "f5f906e9ee7e747879a2d2b1acff24ae", "lat": 38.91773716666667, "lon": -77.047495, "rental_uris": {"android": "https://dc.lft.to/lastmile_qr_scan", "ios": "https://dc.lft.to/lastmile_qr_scan"}, "is_disabled": 0, "fusion_lat": 0.0, "name": "f5f906e9ee7e747879a2d2b1acff24ae", "fusion_lon": 0.0}, {"is_reserved": 0, "type": "electric_scooter", "bike_id": "0151a281d8f153b599776b871bcfeb15", "lat": 38.9200005, "lon": -77.0322515, "rental_uris": {"android": "https://dc.lft.to/lastmile_qr_scan", "ios": "https://dc.lft.to/lastmile_qr_scan"}, "is_disabled": 0, "fusion_lat": 0.0, "name": "0151a281d8f153b599776b871bcfeb15", "fusion_lon": 0.0}, {"is_reserved": 0, "type": "electric_scooter", "bike_id": "a7818c119dbd45d86b8c66959e031e4e", "lat": 38.929113, "lon": -77.022082, "rental_uris": {"android": "https://dc.lft.to/lastmile_qr_scan", "ios": "https://dc.lft.to/lastmile_qr_scan"}, "is_disabled": 0, "fusion_lat": 0.0, "name": "a7818c119dbd45d86b8c66959e031e4e", "fusion_lon": 0.0}, {"is_reserved": 0, "type": "electric_scooter", "bike_id": "f9f45e01238d14009293d0e9d1e12d06", "lat": 38.90117433333333, "lon": -77.03174633333333, "rental_uris": {"android": "https://dc.lft.to/lastmile_qr_scan", "ios": "https://dc.lft.to/lastmile_qr_scan"}, "is_disabled": 0, "fusion_lat": 0.0, "name": "f9f45e01238d14009293d0e9d1e12d06", "fusion_lon": 0.0}, {"is_reserved": 0, "type": "electric_scooter", "bike_id": "d8579801946584102193df7a40281c75", "lat": 38.89565116666667, "lon": -77.01104766666667, "rental_uris": {"android": "https://dc.lft.to/lastmile_qr_scan", "ios": "https://dc.lft.to/lastmile_qr_scan"}, "is_disabled": 0, "fusion_lat": 0.0, "name": "d8579801946584102193df7a40281c75", "fusion_lon": 0.0}, {"is_reserved": 0, "type": "electric_scooter", "bike_id": "ecc7d32306610f844c01f46e2287d28d", "lat": 38.91393933333333, "lon": -77.0198005, "rental_uris": {"android": "https://dc.lft.to/lastmile_qr_scan", "ios": "https://dc.lft.to/lastmile_qr_scan"}, "is_disabled": 0, "fusion_lat": 0.0, "name": "ecc7d32306610f844c01f46e2287d28d", "fusion_lon": 0.0}, {"is_reserved": 0, "type": "electric_scooter", "bike_id": "eeda22a9ee89f7f9e2d71f83619bbdc5", "lat": 38.89957716666667, "lon": -77.05090366666667, "rental_uris": {"android": "https://dc.lft.to/lastmile_qr_scan", "ios": "https://dc.lft.to/lastmile_qr_scan"}, "is_disabled": 0, "fusion_lat": 0.0, "name": "eeda22a9ee89f7f9e2d71f83619bbdc5", "fusion_lon": 0.0}, {"is_reserved": 0, "type": "electric_scooter", "bike_id": "8dc69b2e685a16c1f73c937bdbfbeb89", "lat": 38.92234366666667, "lon": -77.0233035, "rental_uris": {"android": "https://dc.lft.to/lastmile_qr_scan", "ios": "https://dc.lft.to/lastmile_qr_scan"}, "is_disabled": 0, "fusion_lat": 0.0, "name": "8dc69b2e685a16c1f73c937bdbfbeb89", "fusion_lon": 0.0}, {"is_reserved": 0, "type": "electric_scooter", "bike_id": "b502c75be2f1b11932d996589953f675", "lat": 38.97381983333333, "lon": -77.01810616666667, "rental_uris": {"android": "https://dc.lft.to/lastmile_qr_scan", "ios": "https://dc.lft.to/lastmile_qr_scan"}, "is_disabled": 0, "fusion_lat": 0.0, "name": "b502c75be2f1b11932d996589953f675", "fusion_lon": 0.0}, {"is_reserved": 0, "type": "electric_scooter", "bike_id": "85edecd6758735f60444bf62569feda1", "lat": 38.92489466666667, "lon": -77.02270216666666, "rental_uris": {"android": "https://dc.lft.to/lastmile_qr_scan", "ios": "https://dc.lft.to/lastmile_qr_scan"}, "is_disabled": 0, "fusion_lat": 0.0, "name": "85edecd6758735f60444bf62569feda1", "fusion_lon": 0.0}, {"is_reserved": 0, "type": "electric_scooter", "bike_id": "5b516db79a1cd54fa5c2d149460eca76", "lat": 38.938430333333336, "lon": -77.08535383333333, "rental_uris": {"android": "https://dc.lft.to/lastmile_qr_scan", "ios": "https://dc.lft.to/lastmile_qr_scan"}, "is_disabled": 0, "fusion_lat": 0.0, "name": "5b516db79a1cd54fa5c2d149460eca76", "fusion_lon": 0.0}, {"is_reserved": 0, "type": "electric_bike", "bike_id": "0386b248c609802fdd93ba1605448d64", "lat": 38.783986666666664, "lon": -77.1206115, "rental_uris": {"android": "https://dc.lft.to/lastmile_qr_scan", "ios": "https://dc.lft.to/lastmile_qr_scan"}, "is_disabled": 0, "fusion_lat": 0.0, "name": "0386b248c609802fdd93ba1605448d64", "fusion_lon": 0.0}, {"is_reserved": 0, "type": "electric_scooter", "bike_id": "d456d2e2da9739ba4b0c255280fe44aa", "lat": 38.909158833333336, "lon": -77.04411133333333, "rental_uris": {"android": "https://dc.lft.to/lastmile_qr_scan", "ios": "https://dc.lft.to/lastmile_qr_scan"}, "is_disabled": 0, "fusion_lat": 0.0, "name": "d456d2e2da9739ba4b0c255280fe44aa", "fusion_lon": 0.0}, {"is_reserved": 0, "type": "electric_scooter", "bike_id": "541181849c7296838f6ff1294d6da695", "lat": 38.920964, "lon": -77.03176066666667, "rental_uris": {"android": "https://dc.lft.to/lastmile_qr_scan", "ios": "https://dc.lft.to/lastmile_qr_scan"}, "is_disabled": 0, "fusion_lat": 0.0, "name": "541181849c7296838f6ff1294d6da695", "fusion_lon": 0.0}, {"is_reserved": 0, "type": "electric_scooter", "bike_id": "67cb758cdaf6694a06810ed719ec11b7", "lat": 38.9039555, "lon": -77.0314055, "rental_uris": {"android": "https://dc.lft.to/lastmile_qr_scan", "ios": "https://dc.lft.to/lastmile_qr_scan"}, "is_disabled": 0, "fusion_lat": 0.0, "name": "67cb758cdaf6694a06810ed719ec11b7", "fusion_lon": 0.0}, {"is_reserved": 0, "type": "electric_scooter", "bike_id": "a5c92ead5a0e06e1eb486791a59bbede", "lat": 38.907157, "lon": -77.027129, "rental_uris": {"android": "https://dc.lft.to/lastmile_qr_scan", "ios": "https://dc.lft.to/lastmile_qr_scan"}, "is_disabled": 0, "fusion_lat": 0.0, "name": "a5c92ead5a0e06e1eb486791a59bbede", "fusion_lon": 0.0}, {"is_reserved": 0, "type": "electric_scooter", "bike_id": "d3b39e2eb85209d5141eeadff1d1137d", "lat": 38.89948533333333, "lon": -76.98198466666666, "rental_uris": {"android": "https://dc.lft.to/lastmile_qr_scan", "ios": "https://dc.lft.to/lastmile_qr_scan"}, "is_disabled": 0, "fusion_lat": 0.0, "name": "d3b39e2eb85209d5141eeadff1d1137d", "fusion_lon": 0.0}, {"is_reserved": 0, "type": "electric_scooter", "bike_id": "a7b505e8afb61603d58653304163180a", "lat": 38.904002166666665, "lon": -77.05386883333334, "rental_uris": {"android": "https://dc.lft.to/lastmile_qr_scan", "ios": "https://dc.lft.to/lastmile_qr_scan"}, "is_disabled": 0, "fusion_lat": 0.0, "name": "a7b505e8afb61603d58653304163180a", "fusion_lon": 0.0}, {"is_reserved": 0, "type": "electric_scooter", "bike_id": "6c9b85246c103688340bb803d9e09a3e", "lat": 38.883206666666666, "lon": -77.00948616666666, "rental_uris": {"android": "https://dc.lft.to/lastmile_qr_scan", "ios": "https://dc.lft.to/lastmile_qr_scan"}, "is_disabled": 0, "fusion_lat": 0.0, "name": "6c9b85246c103688340bb803d9e09a3e", "fusion_lon": 0.0}, {"is_reserved": 0, "type": "electric_scooter", "bike_id": "c66ba5be4da37dbc9179efb1b22ae659", "lat": 38.90626366666667, "lon": -77.070359, "rental_uris": {"android": "https://dc.lft.to/lastmile_qr_scan", "ios": "https://dc.lft.to/lastmile_qr_scan"}, "is_disabled": 0, "fusion_lat": 0.0, "name": "c66ba5be4da37dbc9179efb1b22ae659", "fusion_lon": 0.0}, {"is_reserved": 0, "type": "electric_scooter", "bike_id": "e572c00f2ad0dbf002e3b3c86837d09b", "lat": 38.881879, "lon": -77.01767433333333, "rental_uris": {"android": "https://dc.lft.to/lastmile_qr_scan", "ios": "https://dc.lft.to/lastmile_qr_scan"}, "is_disabled": 0, "fusion_lat": 0.0, "name": "e572c00f2ad0dbf002e3b3c86837d09b", "fusion_lon": 0.0}, {"is_reserved": 0, "type": "electric_scooter", "bike_id": "4fca36a217d3678c442cdbe1f7cfdf34", "lat": 38.920793333333336, "lon": -77.07460016666667, "rental_uris": {"android": "https://dc.lft.to/lastmile_qr_scan", "ios": "https://dc.lft.to/lastmile_qr_scan"}, "is_disabled": 0, "fusion_lat": 0.0, "name": "4fca36a217d3678c442cdbe1f7cfdf34", "fusion_lon": 0.0}, {"is_reserved": 0, "type": "electric_scooter", "bike_id": "7c577a27754b706bb4f263a9d6ad3bd4", "lat": 38.91263, "lon": -77.0302715, "rental_uris": {"android": "https://dc.lft.to/lastmile_qr_scan", "ios": "https://dc.lft.to/lastmile_qr_scan"}, "is_disabled": 0, "fusion_lat": 0.0, "name": "7c577a27754b706bb4f263a9d6ad3bd4", "fusion_lon": 0.0}, {"is_reserved": 0, "type": "electric_scooter", "bike_id": "946b08c44241952b14ced0acb4b4acc5", "lat": 38.92107016666667, "lon": -77.03007783333334, "rental_uris": {"android": "https://dc.lft.to/lastmile_qr_scan", "ios": "https://dc.lft.to/lastmile_qr_scan"}, "is_disabled": 0, "fusion_lat": 0.0, "name": "946b08c44241952b14ced0acb4b4acc5", "fusion_lon": 0.0}, {"is_reserved": 0, "type": "electric_scooter", "bike_id": "cf9ca739d8e00e3af64504ac5b4fdd9c", "lat": 38.90541416666667, "lon": -77.06286933333334, "rental_uris": {"android": "https://dc.lft.to/lastmile_qr_scan", "ios": "https://dc.lft.to/lastmile_qr_scan"}, "is_disabled": 0, "fusion_lat": 0.0, "name": "cf9ca739d8e00e3af64504ac5b4fdd9c", "fusion_lon": 0.0}, {"is_reserved": 0, "type": "electric_scooter", "bike_id": "1b045606941e598fda6495644fd2e3fe", "lat": 38.8954935, "lon": -77.01116766666667, "rental_uris": {"android": "https://dc.lft.to/lastmile_qr_scan", "ios": "https://dc.lft.to/lastmile_qr_scan"}, "is_disabled": 0, "fusion_lat": 0.0, "name": "1b045606941e598fda6495644fd2e3fe", "fusion_lon": 0.0}, {"is_reserved": 0, "type": "electric_scooter", "bike_id": "2293dde6d4b5501527f2d802908a9f06", "lat": 38.899531, "lon": -77.026859, "rental_uris": {"android": "https://dc.lft.to/lastmile_qr_scan", "ios": "https://dc.lft.to/lastmile_qr_scan"}, "is_disabled": 0, "fusion_lat": 0.0, "name": "2293dde6d4b5501527f2d802908a9f06", "fusion_lon": 0.0}, {"is_reserved": 0, "type": "electric_scooter", "bike_id": "3b2027f627790d70071aecec1d55f3e5", "lat": 38.924097, "lon": -77.0298345, "rental_uris": {"android": "https://dc.lft.to/lastmile_qr_scan", "ios": "https://dc.lft.to/lastmile_qr_scan"}, "is_disabled": 0, "fusion_lat": 0.0, "name": "3b2027f627790d70071aecec1d55f3e5", "fusion_lon": 0.0}, {"is_reserved": 0, "type": "electric_scooter", "bike_id": "7e497a041ef371e2608b44ba740f0c87", "lat": 38.900382, "lon": -77.00200283333334, "rental_uris": {"android": "https://dc.lft.to/lastmile_qr_scan", "ios": "https://dc.lft.to/lastmile_qr_scan"}, "is_disabled": 0, "fusion_lat": 0.0, "name": "7e497a041ef371e2608b44ba740f0c87", "fusion_lon": 0.0}, {"is_reserved": 0, "type": "electric_scooter", "bike_id": "d720a15227d0806398e88eabcaece637", "lat": 38.88909433333333, "lon": -76.97733566666666, "rental_uris": {"android": "https://dc.lft.to/lastmile_qr_scan", "ios": "https://dc.lft.to/lastmile_qr_scan"}, "is_disabled": 0, "fusion_lat": 0.0, "name": "d720a15227d0806398e88eabcaece637", "fusion_lon": 0.0}, {"is_reserved": 0, "type": "electric_scooter", "bike_id": "579848691a3f261d910f0278e553fb45", "lat": 38.9133005, "lon": -77.05000783333334, "rental_uris": {"android": "https://dc.lft.to/lastmile_qr_scan", "ios": "https://dc.lft.to/lastmile_qr_scan"}, "is_disabled": 0, "fusion_lat": 0.0, "name": "579848691a3f261d910f0278e553fb45", "fusion_lon": 0.0}, {"is_reserved": 0, "type": "electric_scooter", "bike_id": "a5f0f23e90054beb50fe6de4c73ec1f6", "lat": 38.90688133333333, "lon": -77.01017083333333, "rental_uris": {"android": "https://dc.lft.to/lastmile_qr_scan", "ios": "https://dc.lft.to/lastmile_qr_scan"}, "is_disabled": 0, "fusion_lat": 0.0, "name": "a5f0f23e90054beb50fe6de4c73ec1f6", "fusion_lon": 0.0}, {"is_reserved": 0, "type": "electric_scooter", "bike_id": "71467bab095ee8fea66ccf5f58c390c9", "lat": 38.904251333333335, "lon": -77.025069, "rental_uris": {"android": "https://dc.lft.to/lastmile_qr_scan", "ios": "https://dc.lft.to/lastmile_qr_scan"}, "is_disabled": 0, "fusion_lat": 0.0, "name": "71467bab095ee8fea66ccf5f58c390c9", "fusion_lon": 0.0}, {"is_reserved": 0, "type": "electric_scooter", "bike_id": "42fe573eb3f29bd2705729e3cd56fede", "lat": 38.920299, "lon": -77.01031283333333, "rental_uris": {"android": "https://dc.lft.to/lastmile_qr_scan", "ios": "https://dc.lft.to/lastmile_qr_scan"}, "is_disabled": 0, "fusion_lat": 0.0, "name": "42fe573eb3f29bd2705729e3cd56fede", "fusion_lon": 0.0}, {"is_reserved": 0, "type": "electric_scooter", "bike_id": "2782fd9c24d15d0911edccfba60f01e9", "lat": 38.89225016666666, "lon": -77.02221133333333, "rental_uris": {"android": "https://dc.lft.to/lastmile_qr_scan", "ios": "https://dc.lft.to/lastmile_qr_scan"}, "is_disabled": 0, "fusion_lat": 0.0, "name": "2782fd9c24d15d0911edccfba60f01e9", "fusion_lon": 0.0}, {"is_reserved": 0, "type": "electric_scooter", "bike_id": "d5c97170123d4ad44c8eed842ff819dd", "lat": 38.911202333333335, "lon": -77.04506083333334, "rental_uris": {"android": "https://dc.lft.to/lastmile_qr_scan", "ios": "https://dc.lft.to/lastmile_qr_scan"}, "is_disabled": 0, "fusion_lat": 0.0, "name": "d5c97170123d4ad44c8eed842ff819dd", "fusion_lon": 0.0}, {"is_reserved": 0, "type": "electric_scooter", "bike_id": "141e305a4c5c5e4fdae36cdcbb484ce3", "lat": 38.89615633333333, "lon": -77.0468025, "rental_uris": {"android": "https://dc.lft.to/lastmile_qr_scan", "ios": "https://dc.lft.to/lastmile_qr_scan"}, "is_disabled": 0, "fusion_lat": 0.0, "name": "141e305a4c5c5e4fdae36cdcbb484ce3", "fusion_lon": 0.0}, {"is_reserved": 0, "type": "electric_scooter", "bike_id": "7dd4835337ace177edfaaae25d4fa938", "lat": 38.92581716666667, "lon": -76.99490133333333, "rental_uris": {"android": "https://dc.lft.to/lastmile_qr_scan", "ios": "https://dc.lft.to/lastmile_qr_scan"}, "is_disabled": 0, "fusion_lat": 0.0, "name": "7dd4835337ace177edfaaae25d4fa938", "fusion_lon": 0.0}, {"is_reserved": 0, "type": "electric_scooter", "bike_id": "80abc03ed370807fa0fdd24e30de0798", "lat": 38.911355666666665, "lon": -77.04407216666667, "rental_uris": {"android": "https://dc.lft.to/lastmile_qr_scan", "ios": "https://dc.lft.to/lastmile_qr_scan"}, "is_disabled": 0, "fusion_lat": 0.0, "name": "80abc03ed370807fa0fdd24e30de0798", "fusion_lon": 0.0}, {"is_reserved": 0, "type": "electric_scooter", "bike_id": "49455a84bad3076261ae8cbf00590cd2", "lat": 38.94698733333333, "lon": -77.07453333333333, "rental_uris": {"android": "https://dc.lft.to/lastmile_qr_scan", "ios": "https://dc.lft.to/lastmile_qr_scan"}, "is_disabled": 0, "fusion_lat": 0.0, "name": "49455a84bad3076261ae8cbf00590cd2", "fusion_lon": 0.0}, {"is_reserved": 0, "type": "electric_scooter", "bike_id": "bde48500c52965d2b4e608f80c010eab", "lat": 38.8975605, "lon": -77.00200216666667, "rental_uris": {"android": "https://dc.lft.to/lastmile_qr_scan", "ios": "https://dc.lft.to/lastmile_qr_scan"}, "is_disabled": 0, "fusion_lat": 0.0, "name": "bde48500c52965d2b4e608f80c010eab", "fusion_lon": 0.0}, {"is_reserved": 0, "type": "electric_scooter", "bike_id": "34eea41f1ee18e35262a90626e38ca5d", "lat": 38.89929433333333, "lon": -76.978314, "rental_uris": {"android": "https://dc.lft.to/lastmile_qr_scan", "ios": "https://dc.lft.to/lastmile_qr_scan"}, "is_disabled": 0, "fusion_lat": 0.0, "name": "34eea41f1ee18e35262a90626e38ca5d", "fusion_lon": 0.0}, {"is_reserved": 0, "type": "electric_scooter", "bike_id": "b5434bb33ee4ef7b60e82c4df0081657", "lat": 38.9173, "lon": -77.032149, "rental_uris": {"android": "https://dc.lft.to/lastmile_qr_scan", "ios": "https://dc.lft.to/lastmile_qr_scan"}, "is_disabled": 0, "fusion_lat": 0.0, "name": "b5434bb33ee4ef7b60e82c4df0081657", "fusion_lon": 0.0}, {"is_reserved": 0, "type": "electric_scooter", "bike_id": "8e871e77717608f821b9e5bc60f434d7", "lat": 38.927632833333334, "lon": -77.06886116666666, "rental_uris": {"android": "https://dc.lft.to/lastmile_qr_scan", "ios": "https://dc.lft.to/lastmile_qr_scan"}, "is_disabled": 0, "fusion_lat": 0.0, "name": "8e871e77717608f821b9e5bc60f434d7", "fusion_lon": 0.0}, {"is_reserved": 0, "type": "electric_scooter", "bike_id": "ad39f0fe28173202120ba13aae7eb55e", "lat": 38.9159585, "lon": -77.02203416666667, "rental_uris": {"android": "https://dc.lft.to/lastmile_qr_scan", "ios": "https://dc.lft.to/lastmile_qr_scan"}, "is_disabled": 0, "fusion_lat": 0.0, "name": "ad39f0fe28173202120ba13aae7eb55e", "fusion_lon": 0.0}, {"is_reserved": 0, "type": "electric_scooter", "bike_id": "f2d21076b21903fc24442e0b223d2d76", "lat": 38.899106833333335, "lon": -76.93368133333334, "rental_uris": {"android": "https://dc.lft.to/lastmile_qr_scan", "ios": "https://dc.lft.to/lastmile_qr_scan"}, "is_disabled": 0, "fusion_lat": 0.0, "name": "f2d21076b21903fc24442e0b223d2d76", "fusion_lon": 0.0}, {"is_reserved": 0, "type": "electric_scooter", "bike_id": "0a67ef98c52942c77857a6e70415ad2d", "lat": 38.946637333333335, "lon": -77.032812, "rental_uris": {"android": "https://dc.lft.to/lastmile_qr_scan", "ios": "https://dc.lft.to/lastmile_qr_scan"}, "is_disabled": 0, "fusion_lat": 0.0, "name": "0a67ef98c52942c77857a6e70415ad2d", "fusion_lon": 0.0}, {"is_reserved": 0, "type": "electric_scooter", "bike_id": "55b47537540fd23388333c9268749ac5", "lat": 38.90040833333333, "lon": -76.99158933333334, "rental_uris": {"android": "https://dc.lft.to/lastmile_qr_scan", "ios": "https://dc.lft.to/lastmile_qr_scan"}, "is_disabled": 0, "fusion_lat": 0.0, "name": "55b47537540fd23388333c9268749ac5", "fusion_lon": 0.0}, {"is_reserved": 0, "type": "electric_scooter", "bike_id": "492dc7c28b9b81513b523b0cd7a74f1b", "lat": 38.91233716666667, "lon": -77.045742, "rental_uris": {"android": "https://dc.lft.to/lastmile_qr_scan", "ios": "https://dc.lft.to/lastmile_qr_scan"}, "is_disabled": 0, "fusion_lat": 0.0, "name": "492dc7c28b9b81513b523b0cd7a74f1b", "fusion_lon": 0.0}, {"is_reserved": 0, "type": "electric_scooter", "bike_id": "af301b7520be541a933d1055b1fc22b2", "lat": 38.9390285, "lon": -77.03323766666666, "rental_uris": {"android": "https://dc.lft.to/lastmile_qr_scan", "ios": "https://dc.lft.to/lastmile_qr_scan"}, "is_disabled": 0, "fusion_lat": 0.0, "name": "af301b7520be541a933d1055b1fc22b2", "fusion_lon": 0.0}, {"is_reserved": 0, "type": "electric_scooter", "bike_id": "5c3000d1bdd0a9811e01de5b69c2f4ef", "lat": 38.90303, "lon": -77.00219266666667, "rental_uris": {"android": "https://dc.lft.to/lastmile_qr_scan", "ios": "https://dc.lft.to/lastmile_qr_scan"}, "is_disabled": 0, "fusion_lat": 0.0, "name": "5c3000d1bdd0a9811e01de5b69c2f4ef", "fusion_lon": 0.0}, {"is_reserved": 0, "type": "electric_scooter", "bike_id": "7f252c7a231be75e0179a63036e925b5", "lat": 38.9000265, "lon": -77.02295716666667, "rental_uris": {"android": "https://dc.lft.to/lastmile_qr_scan", "ios": "https://dc.lft.to/lastmile_qr_scan"}, "is_disabled": 0, "fusion_lat": 0.0, "name": "7f252c7a231be75e0179a63036e925b5", "fusion_lon": 0.0}, {"is_reserved": 0, "type": "electric_scooter", "bike_id": "013de117ec4182532f08fe7736e3fd51", "lat": 38.885416666666664, "lon": -77.021774, "rental_uris": {"android": "https://dc.lft.to/lastmile_qr_scan", "ios": "https://dc.lft.to/lastmile_qr_scan"}, "is_disabled": 0, "fusion_lat": 0.0, "name": "013de117ec4182532f08fe7736e3fd51", "fusion_lon": 0.0}, {"is_reserved": 0, "type": "electric_scooter", "bike_id": "e41d1c2da990aefb8515b10cce219953", "lat": 38.89484616666667, "lon": -77.0497455, "rental_uris": {"android": "https://dc.lft.to/lastmile_qr_scan", "ios": "https://dc.lft.to/lastmile_qr_scan"}, "is_disabled": 0, "fusion_lat": 0.0, "name": "e41d1c2da990aefb8515b10cce219953", "fusion_lon": 0.0}, {"is_reserved": 0, "type": "electric_scooter", "bike_id": "fec7897511ff9166fcc1ac0fe2c9de58", "lat": 38.89236616666667, "lon": -77.0320895, "rental_uris": {"android": "https://dc.lft.to/lastmile_qr_scan", "ios": "https://dc.lft.to/lastmile_qr_scan"}, "is_disabled": 0, "fusion_lat": 0.0, "name": "fec7897511ff9166fcc1ac0fe2c9de58", "fusion_lon": 0.0}, {"is_reserved": 0, "type": "electric_scooter", "bike_id": "9214f52cdb790f5c3e8a34f22fde40cb", "lat": 38.92581283333333, "lon": -77.02945583333333, "rental_uris": {"android": "https://dc.lft.to/lastmile_qr_scan", "ios": "https://dc.lft.to/lastmile_qr_scan"}, "is_disabled": 0, "fusion_lat": 0.0, "name": "9214f52cdb790f5c3e8a34f22fde40cb", "fusion_lon": 0.0}, {"is_reserved": 0, "type": "electric_scooter", "bike_id": "0565f73f045cec64343a3a4bc1dfa451", "lat": 38.91627183333333, "lon": -77.00765466666667, "rental_uris": {"android": "https://dc.lft.to/lastmile_qr_scan", "ios": "https://dc.lft.to/lastmile_qr_scan"}, "is_disabled": 0, "fusion_lat": 0.0, "name": "0565f73f045cec64343a3a4bc1dfa451", "fusion_lon": 0.0}, {"is_reserved": 0, "type": "electric_scooter", "bike_id": "b7a1cf302ca216a3442f7d6b51256b7e", "lat": 38.916649166666666, "lon": -77.03853683333334, "rental_uris": {"android": "https://dc.lft.to/lastmile_qr_scan", "ios": "https://dc.lft.to/lastmile_qr_scan"}, "is_disabled": 0, "fusion_lat": 0.0, "name": "b7a1cf302ca216a3442f7d6b51256b7e", "fusion_lon": 0.0}, {"is_reserved": 0, "type": "electric_bike", "bike_id": "9044c64eaa057b2205d65a937b05f243", "lat": 38.902395, "lon": -77.05911233333333, "rental_uris": {"android": "https://dc.lft.to/lastmile_qr_scan", "ios": "https://dc.lft.to/lastmile_qr_scan"}, "is_disabled": 0, "fusion_lat": 0.0, "name": "9044c64eaa057b2205d65a937b05f243", "fusion_lon": 0.0}, {"is_reserved": 0, "type": "electric_scooter", "bike_id": "0be9a6d28eee3844fb9811f97483f5c4", "lat": 38.9002955, "lon": -76.98858266666667, "rental_uris": {"android": "https://dc.lft.to/lastmile_qr_scan", "ios": "https://dc.lft.to/lastmile_qr_scan"}, "is_disabled": 0, "fusion_lat": 0.0, "name": "0be9a6d28eee3844fb9811f97483f5c4", "fusion_lon": 0.0}, {"is_reserved": 0, "type": "electric_scooter", "bike_id": "04c025365a9b357d5fcbc9f8e96bd5ab", "lat": 38.9290515, "lon": -77.03279733333333, "rental_uris": {"android": "https://dc.lft.to/lastmile_qr_scan", "ios": "https://dc.lft.to/lastmile_qr_scan"}, "is_disabled": 0, "fusion_lat": 0.0, "name": "04c025365a9b357d5fcbc9f8e96bd5ab", "fusion_lon": 0.0}, {"is_reserved": 0, "type": "electric_scooter", "bike_id": "2aabd6a31dd524f16febcadf813ed070", "lat": 38.905703, "lon": -76.98139433333333, "rental_uris": {"android": "https://dc.lft.to/lastmile_qr_scan", "ios": "https://dc.lft.to/lastmile_qr_scan"}, "is_disabled": 0, "fusion_lat": 0.0, "name": "2aabd6a31dd524f16febcadf813ed070", "fusion_lon": 0.0}, {"is_reserved": 0, "type": "electric_scooter", "bike_id": "435e769d14f1bc3fe467bfb8f3531978", "lat": 38.91851583333333, "lon": -77.045245, "rental_uris": {"android": "https://dc.lft.to/lastmile_qr_scan", "ios": "https://dc.lft.to/lastmile_qr_scan"}, "is_disabled": 0, "fusion_lat": 0.0, "name": "435e769d14f1bc3fe467bfb8f3531978", "fusion_lon": 0.0}, {"is_reserved": 0, "type": "electric_scooter", "bike_id": "8b0269a2adfcd272b69f48d572747cd2", "lat": 38.917874, "lon": -77.0230815, "rental_uris": {"android": "https://dc.lft.to/lastmile_qr_scan", "ios": "https://dc.lft.to/lastmile_qr_scan"}, "is_disabled": 0, "fusion_lat": 0.0, "name": "8b0269a2adfcd272b69f48d572747cd2", "fusion_lon": 0.0}, {"is_reserved": 0, "type": "electric_scooter", "bike_id": "2383a1dd7b31e4ff97c5a95b008206ed", "lat": 38.919897166666665, "lon": -77.02186716666667, "rental_uris": {"android": "https://dc.lft.to/lastmile_qr_scan", "ios": "https://dc.lft.to/lastmile_qr_scan"}, "is_disabled": 0, "fusion_lat": 0.0, "name": "2383a1dd7b31e4ff97c5a95b008206ed", "fusion_lon": 0.0}, {"is_reserved": 0, "type": "electric_scooter", "bike_id": "8e0546e2f43cf1192fdee40acaf7539d", "lat": 38.905382833333334, "lon": -77.04160266666666, "rental_uris": {"android": "https://dc.lft.to/lastmile_qr_scan", "ios": "https://dc.lft.to/lastmile_qr_scan"}, "is_disabled": 0, "fusion_lat": 0.0, "name": "8e0546e2f43cf1192fdee40acaf7539d", "fusion_lon": 0.0}, {"is_reserved": 0, "type": "electric_scooter", "bike_id": "ed8d76f672faa6260394e787c4967d35", "lat": 38.89231783333334, "lon": -77.04901533333333, "rental_uris": {"android": "https://dc.lft.to/lastmile_qr_scan", "ios": "https://dc.lft.to/lastmile_qr_scan"}, "is_disabled": 0, "fusion_lat": 0.0, "name": "ed8d76f672faa6260394e787c4967d35", "fusion_lon": 0.0}, {"is_reserved": 0, "type": "electric_scooter", "bike_id": "56a5f64d06c221bba6451a6735563137", "lat": 38.9242165, "lon": -77.020061, "rental_uris": {"android": "https://dc.lft.to/lastmile_qr_scan", "ios": "https://dc.lft.to/lastmile_qr_scan"}, "is_disabled": 0, "fusion_lat": 0.0, "name": "56a5f64d06c221bba6451a6735563137", "fusion_lon": 0.0}, {"is_reserved": 0, "type": "electric_scooter", "bike_id": "a296ba8a1ed3dc1db7775c4bdf1ca668", "lat": 38.89521933333333, "lon": -77.02920783333333, "rental_uris": {"android": "https://dc.lft.to/lastmile_qr_scan", "ios": "https://dc.lft.to/lastmile_qr_scan"}, "is_disabled": 0, "fusion_lat": 0.0, "name": "a296ba8a1ed3dc1db7775c4bdf1ca668", "fusion_lon": 0.0}, {"is_reserved": 0, "type": "electric_scooter", "bike_id": "b6438e2ae0e811bef292c0e8a16c01f7", "lat": 38.90034383333333, "lon": -76.98861616666667, "rental_uris": {"android": "https://dc.lft.to/lastmile_qr_scan", "ios": "https://dc.lft.to/lastmile_qr_scan"}, "is_disabled": 0, "fusion_lat": 0.0, "name": "b6438e2ae0e811bef292c0e8a16c01f7", "fusion_lon": 0.0}, {"is_reserved": 0, "type": "electric_scooter", "bike_id": "c7f680a8f0a878db427392139d8a3b6a", "lat": 38.9219485, "lon": -76.99622466666666, "rental_uris": {"android": "https://dc.lft.to/lastmile_qr_scan", "ios": "https://dc.lft.to/lastmile_qr_scan"}, "is_disabled": 0, "fusion_lat": 0.0, "name": "c7f680a8f0a878db427392139d8a3b6a", "fusion_lon": 0.0}, {"is_reserved": 0, "type": "electric_scooter", "bike_id": "ad5c35727f1b585f40154a07f76e6d45", "lat": 38.8996795, "lon": -77.026137, "rental_uris": {"android": "https://dc.lft.to/lastmile_qr_scan", "ios": "https://dc.lft.to/lastmile_qr_scan"}, "is_disabled": 0, "fusion_lat": 0.0, "name": "ad5c35727f1b585f40154a07f76e6d45", "fusion_lon": 0.0}, {"is_reserved": 0, "type": "electric_bike", "bike_id": "faf0c77a4bc56dafdbed149ea7c31dba", "lat": 38.8495025, "lon": -77.11751, "rental_uris": {"android": "https://dc.lft.to/lastmile_qr_scan", "ios": "https://dc.lft.to/lastmile_qr_scan"}, "is_disabled": 0, "fusion_lat": 0.0, "name": "faf0c77a4bc56dafdbed149ea7c31dba", "fusion_lon": 0.0}, {"is_reserved": 0, "type": "electric_scooter", "bike_id": "011bed1e16a06c32962e580b3de74308", "lat": 38.91997716666667, "lon": -77.03225183333333, "rental_uris": {"android": "https://dc.lft.to/lastmile_qr_scan", "ios": "https://dc.lft.to/lastmile_qr_scan"}, "is_disabled": 0, "fusion_lat": 0.0, "name": "011bed1e16a06c32962e580b3de74308", "fusion_lon": 0.0}, {"is_reserved": 0, "type": "electric_scooter", "bike_id": "8630e7f2686b3dd2f0f557680c54f1d3", "lat": 38.90484933333333, "lon": -77.025958, "rental_uris": {"android": "https://dc.lft.to/lastmile_qr_scan", "ios": "https://dc.lft.to/lastmile_qr_scan"}, "is_disabled": 0, "fusion_lat": 0.0, "name": "8630e7f2686b3dd2f0f557680c54f1d3", "fusion_lon": 0.0}, {"is_reserved": 0, "type": "electric_scooter", "bike_id": "173c6051d07a452254d875b817c31a3f", "lat": 38.952734166666666, "lon": -77.02393316666667, "rental_uris": {"android": "https://dc.lft.to/lastmile_qr_scan", "ios": "https://dc.lft.to/lastmile_qr_scan"}, "is_disabled": 0, "fusion_lat": 0.0, "name": "173c6051d07a452254d875b817c31a3f", "fusion_lon": 0.0}, {"is_reserved": 0, "type": "electric_scooter", "bike_id": "b3e457c519b87cab81dc9e7446fe38a5", "lat": 38.92395883333333, "lon": -77.0505435, "rental_uris": {"android": "https://dc.lft.to/lastmile_qr_scan", "ios": "https://dc.lft.to/lastmile_qr_scan"}, "is_disabled": 0, "fusion_lat": 0.0, "name": "b3e457c519b87cab81dc9e7446fe38a5", "fusion_lon": 0.0}, {"is_reserved": 0, "type": "electric_scooter", "bike_id": "6bdcb0e19b093b378b3c5639f96ee0a5", "lat": 38.911959333333336, "lon": -77.00446833333334, "rental_uris": {"android": "https://dc.lft.to/lastmile_qr_scan", "ios": "https://dc.lft.to/lastmile_qr_scan"}, "is_disabled": 0, "fusion_lat": 0.0, "name": "6bdcb0e19b093b378b3c5639f96ee0a5", "fusion_lon": 0.0}, {"is_reserved": 0, "type": "electric_scooter", "bike_id": "8792774363ba11374c1c67708f7a028f", "lat": 38.926122666666664, "lon": -77.0394785, "rental_uris": {"android": "https://dc.lft.to/lastmile_qr_scan", "ios": "https://dc.lft.to/lastmile_qr_scan"}, "is_disabled": 0, "fusion_lat": 0.0, "name": "8792774363ba11374c1c67708f7a028f", "fusion_lon": 0.0}, {"is_reserved": 0, "type": "electric_bike", "bike_id": "00b6549316bb465f735598760a7286da", "lat": 38.94923133333333, "lon": -77.007958, "rental_uris": {"android": "https://dc.lft.to/lastmile_qr_scan", "ios": "https://dc.lft.to/lastmile_qr_scan"}, "is_disabled": 0, "fusion_lat": 0.0, "name": "00b6549316bb465f735598760a7286da", "fusion_lon": 0.0}, {"is_reserved": 0, "type": "electric_bike", "bike_id": "d9a9960dc5b063b53206dd79d2ee78aa", "lat": 38.8945735, "lon": -77.01999233333333, "rental_uris": {"android": "https://dc.lft.to/lastmile_qr_scan", "ios": "https://dc.lft.to/lastmile_qr_scan"}, "is_disabled": 0, "fusion_lat": 0.0, "name": "d9a9960dc5b063b53206dd79d2ee78aa", "fusion_lon": 0.0}, {"is_reserved": 0, "type": "electric_scooter", "bike_id": "15bfd79910685da497d789f8b31351b9", "lat": 38.951903333333334, "lon": -77.02612583333334, "rental_uris": {"android": "https://dc.lft.to/lastmile_qr_scan", "ios": "https://dc.lft.to/lastmile_qr_scan"}, "is_disabled": 0, "fusion_lat": 0.0, "name": "15bfd79910685da497d789f8b31351b9", "fusion_lon": 0.0}, {"is_reserved": 0, "type": "electric_scooter", "bike_id": "b1040b375ec1b86ddd8568948320511e", "lat": 38.91629966666667, "lon": -77.01569716666667, "rental_uris": {"android": "https://dc.lft.to/lastmile_qr_scan", "ios": "https://dc.lft.to/lastmile_qr_scan"}, "is_disabled": 0, "fusion_lat": 0.0, "name": "b1040b375ec1b86ddd8568948320511e", "fusion_lon": 0.0}, {"is_reserved": 0, "type": "electric_scooter", "bike_id": "e53099e997b6a69614078768a0c9a67d", "lat": 38.90567683333333, "lon": -77.00600316666667, "rental_uris": {"android": "https://dc.lft.to/lastmile_qr_scan", "ios": "https://dc.lft.to/lastmile_qr_scan"}, "is_disabled": 0, "fusion_lat": 0.0, "name": "e53099e997b6a69614078768a0c9a67d", "fusion_lon": 0.0}, {"is_reserved": 0, "type": "electric_bike", "bike_id": "b1e56d47db015863eea5cfee2f13fda1", "lat": 38.995513833333334, "lon": -77.0741195, "rental_uris": {"android": "https://dc.lft.to/lastmile_qr_scan", "ios": "https://dc.lft.to/lastmile_qr_scan"}, "is_disabled": 0, "fusion_lat": 0.0, "name": "b1e56d47db015863eea5cfee2f13fda1", "fusion_lon": 0.0}, {"is_reserved": 0, "type": "electric_scooter", "bike_id": "4c01366f3210a04746a8da1ecea4509d", "lat": 38.919418666666665, "lon": -77.041705, "rental_uris": {"android": "https://dc.lft.to/lastmile_qr_scan", "ios": "https://dc.lft.to/lastmile_qr_scan"}, "is_disabled": 0, "fusion_lat": 0.0, "name": "4c01366f3210a04746a8da1ecea4509d", "fusion_lon": 0.0}, {"is_reserved": 0, "type": "electric_scooter", "bike_id": "8fa4c8b468a154eebce9c0f83e3505a3", "lat": 38.90481833333333, "lon": -77.06278533333334, "rental_uris": {"android": "https://dc.lft.to/lastmile_qr_scan", "ios": "https://dc.lft.to/lastmile_qr_scan"}, "is_disabled": 0, "fusion_lat": 0.0, "name": "8fa4c8b468a154eebce9c0f83e3505a3", "fusion_lon": 0.0}, {"is_reserved": 0, "type": "electric_scooter", "bike_id": "17fd345444bc68167f9df663b6f2d155", "lat": 38.933927833333335, "lon": -77.023841, "rental_uris": {"android": "https://dc.lft.to/lastmile_qr_scan", "ios": "https://dc.lft.to/lastmile_qr_scan"}, "is_disabled": 0, "fusion_lat": 0.0, "name": "17fd345444bc68167f9df663b6f2d155", "fusion_lon": 0.0}, {"is_reserved": 0, "type": "electric_scooter", "bike_id": "2fbae6317d7f4219df7e4bc2501058cb", "lat": 38.914322, "lon": -77.01999516666666, "rental_uris": {"android": "https://dc.lft.to/lastmile_qr_scan", "ios": "https://dc.lft.to/lastmile_qr_scan"}, "is_disabled": 0, "fusion_lat": 0.0, "name": "2fbae6317d7f4219df7e4bc2501058cb", "fusion_lon": 0.0}, {"is_reserved": 0, "type": "electric_bike", "bike_id": "b5f3f363e16264f76c005acb7eecc95e", "lat": 38.905224, "lon": -77.0649755, "rental_uris": {"android": "https://dc.lft.to/lastmile_qr_scan", "ios": "https://dc.lft.to/lastmile_qr_scan"}, "is_disabled": 0, "fusion_lat": 0.0, "name": "b5f3f363e16264f76c005acb7eecc95e", "fusion_lon": 0.0}, {"is_reserved": 0, "type": "electric_scooter", "bike_id": "acae467d768db61decce43497ff3c03f", "lat": 38.92455283333334, "lon": -77.02133416666666, "rental_uris": {"android": "https://dc.lft.to/lastmile_qr_scan", "ios": "https://dc.lft.to/lastmile_qr_scan"}, "is_disabled": 0, "fusion_lat": 0.0, "name": "acae467d768db61decce43497ff3c03f", "fusion_lon": 0.0}, {"is_reserved": 0, "type": "electric_scooter", "bike_id": "571adb37922341b8e3e0e2df25b897b1", "lat": 38.92440633333333, "lon": -77.020302, "rental_uris": {"android": "https://dc.lft.to/lastmile_qr_scan", "ios": "https://dc.lft.to/lastmile_qr_scan"}, "is_disabled": 0, "fusion_lat": 0.0, "name": "571adb37922341b8e3e0e2df25b897b1", "fusion_lon": 0.0}, {"is_reserved": 0, "type": "electric_scooter", "bike_id": "5d3d7e5a0d762a6614fd8a8b6ec57e4d", "lat": 38.900167, "lon": -77.027417, "rental_uris": {"android": "https://dc.lft.to/lastmile_qr_scan", "ios": "https://dc.lft.to/lastmile_qr_scan"}, "is_disabled": 0, "fusion_lat": 0.0, "name": "5d3d7e5a0d762a6614fd8a8b6ec57e4d", "fusion_lon": 0.0}, {"is_reserved": 0, "type": "electric_scooter", "bike_id": "d9fcf38e63d94f2b4f9e88e1901dcfe6", "lat": 38.956334, "lon": -77.03560333333333, "rental_uris": {"android": "https://dc.lft.to/lastmile_qr_scan", "ios": "https://dc.lft.to/lastmile_qr_scan"}, "is_disabled": 0, "fusion_lat": 0.0, "name": "d9fcf38e63d94f2b4f9e88e1901dcfe6", "fusion_lon": 0.0}, {"is_reserved": 0, "type": "electric_scooter", "bike_id": "8515dc95905e4e161115f5867146eee5", "lat": 38.93410183333334, "lon": -77.03259816666667, "rental_uris": {"android": "https://dc.lft.to/lastmile_qr_scan", "ios": "https://dc.lft.to/lastmile_qr_scan"}, "is_disabled": 0, "fusion_lat": 0.0, "name": "8515dc95905e4e161115f5867146eee5", "fusion_lon": 0.0}, {"is_reserved": 0, "type": "electric_scooter", "bike_id": "70b45844ec424cacb7808d267def5744", "lat": 38.917201, "lon": -77.072804, "rental_uris": {"android": "https://dc.lft.to/lastmile_qr_scan", "ios": "https://dc.lft.to/lastmile_qr_scan"}, "is_disabled": 0, "fusion_lat": 0.0, "name": "70b45844ec424cacb7808d267def5744", "fusion_lon": 0.0}, {"is_reserved": 0, "type": "electric_scooter", "bike_id": "ff0b0c2f9816914c751cfc337a38a11b", "lat": 38.90347916666666, "lon": -77.02562766666667, "rental_uris": {"android": "https://dc.lft.to/lastmile_qr_scan", "ios": "https://dc.lft.to/lastmile_qr_scan"}, "is_disabled": 0, "fusion_lat": 0.0, "name": "ff0b0c2f9816914c751cfc337a38a11b", "fusion_lon": 0.0}, {"is_reserved": 0, "type": "electric_scooter", "bike_id": "dbb65712b011849384d12f3d0ed01d72", "lat": 38.9679405, "lon": -77.024349, "rental_uris": {"android": "https://dc.lft.to/lastmile_qr_scan", "ios": "https://dc.lft.to/lastmile_qr_scan"}, "is_disabled": 0, "fusion_lat": 0.0, "name": "dbb65712b011849384d12f3d0ed01d72", "fusion_lon": 0.0}, {"is_reserved": 0, "type": "electric_scooter", "bike_id": "3dfc66e87259c8e61e58131a5c0165fe", "lat": 38.927684666666664, "lon": -77.02779533333333, "rental_uris": {"android": "https://dc.lft.to/lastmile_qr_scan", "ios": "https://dc.lft.to/lastmile_qr_scan"}, "is_disabled": 0, "fusion_lat": 0.0, "name": "3dfc66e87259c8e61e58131a5c0165fe", "fusion_lon": 0.0}, {"is_reserved": 0, "type": "electric_scooter", "bike_id": "cb2971034463274195a0679f383c0594", "lat": 38.905636666666666, "lon": -77.0416805, "rental_uris": {"android": "https://dc.lft.to/lastmile_qr_scan", "ios": "https://dc.lft.to/lastmile_qr_scan"}, "is_disabled": 0, "fusion_lat": 0.0, "name": "cb2971034463274195a0679f383c0594", "fusion_lon": 0.0}, {"is_reserved": 0, "type": "electric_scooter", "bike_id": "240ef917033e3f3d6a849983e4813fa1", "lat": 38.92440666666667, "lon": -77.0201775, "rental_uris": {"android": "https://dc.lft.to/lastmile_qr_scan", "ios": "https://dc.lft.to/lastmile_qr_scan"}, "is_disabled": 0, "fusion_lat": 0.0, "name": "240ef917033e3f3d6a849983e4813fa1", "fusion_lon": 0.0}, {"is_reserved": 0, "type": "electric_bike", "bike_id": "f61c4af6360816c81214442018a07b1c", "lat": 38.874267333333336, "lon": -77.08564816666667, "rental_uris": {"android": "https://dc.lft.to/lastmile_qr_scan", "ios": "https://dc.lft.to/lastmile_qr_scan"}, "is_disabled": 0, "fusion_lat": 0.0, "name": "f61c4af6360816c81214442018a07b1c", "fusion_lon": 0.0}, {"is_reserved": 0, "type": "electric_scooter", "bike_id": "ec6428b09bdb62fbe11689e3389aef75", "lat": 38.918361, "lon": -77.031875, "rental_uris": {"android": "https://dc.lft.to/lastmile_qr_scan", "ios": "https://dc.lft.to/lastmile_qr_scan"}, "is_disabled": 0, "fusion_lat": 0.0, "name": "ec6428b09bdb62fbe11689e3389aef75", "fusion_lon": 0.0}, {"is_reserved": 0, "type": "electric_scooter", "bike_id": "004982201f9270b24bb587d767dc66e6", "lat": 38.91123416666667, "lon": -77.03149966666666, "rental_uris": {"android": "https://dc.lft.to/lastmile_qr_scan", "ios": "https://dc.lft.to/lastmile_qr_scan"}, "is_disabled": 0, "fusion_lat": 0.0, "name": "004982201f9270b24bb587d767dc66e6", "fusion_lon": 0.0}, {"is_reserved": 0, "type": "electric_bike", "bike_id": "b1c0169bb41b2fe62852a7939859a8fb", "lat": 38.863332, "lon": -76.98727016666666, "rental_uris": {"android": "https://dc.lft.to/lastmile_qr_scan", "ios": "https://dc.lft.to/lastmile_qr_scan"}, "is_disabled": 0, "fusion_lat": 0.0, "name": "b1c0169bb41b2fe62852a7939859a8fb", "fusion_lon": 0.0}, {"is_reserved": 0, "type": "electric_bike", "bike_id": "22d7207b1facd9f251aa1fe47bcb8c51", "lat": 39.000019333333334, "lon": -76.91805783333334, "rental_uris": {"android": "https://dc.lft.to/lastmile_qr_scan", "ios": "https://dc.lft.to/lastmile_qr_scan"}, "is_disabled": 0, "fusion_lat": 0.0, "name": "22d7207b1facd9f251aa1fe47bcb8c51", "fusion_lon": 0.0}, {"is_reserved": 0, "type": "electric_scooter", "bike_id": "531d54d4a059d4a7bd57750c47f5855f", "lat": 38.909756333333334, "lon": -77.03246916666667, "rental_uris": {"android": "https://dc.lft.to/lastmile_qr_scan", "ios": "https://dc.lft.to/lastmile_qr_scan"}, "is_disabled": 0, "fusion_lat": 0.0, "name": "531d54d4a059d4a7bd57750c47f5855f", "fusion_lon": 0.0}, {"is_reserved": 0, "type": "electric_scooter", "bike_id": "188220e82b9ac659c58ca92556267f2b", "lat": 38.903867, "lon": -77.03031816666666, "rental_uris": {"android": "https://dc.lft.to/lastmile_qr_scan", "ios": "https://dc.lft.to/lastmile_qr_scan"}, "is_disabled": 0, "fusion_lat": 0.0, "name": "188220e82b9ac659c58ca92556267f2b", "fusion_lon": 0.0}, {"is_reserved": 0, "type": "electric_scooter", "bike_id": "7f7ee050f07d7c576d6606f4192a36cb", "lat": 38.92986916666667, "lon": -77.03790466666666, "rental_uris": {"android": "https://dc.lft.to/lastmile_qr_scan", "ios": "https://dc.lft.to/lastmile_qr_scan"}, "is_disabled": 0, "fusion_lat": 0.0, "name": "7f7ee050f07d7c576d6606f4192a36cb", "fusion_lon": 0.0}, {"is_reserved": 0, "type": "electric_bike", "bike_id": "a896d5ec6a6f5e3ef5fec805b012d8a6", "lat": 39.010942, "lon": -77.04951983333333, "rental_uris": {"android": "https://dc.lft.to/lastmile_qr_scan", "ios": "https://dc.lft.to/lastmile_qr_scan"}, "is_disabled": 0, "fusion_lat": 0.0, "name": "a896d5ec6a6f5e3ef5fec805b012d8a6", "fusion_lon": 0.0}, {"is_reserved": 0, "type": "electric_scooter", "bike_id": "a6b19dcd5a6ea7fb8f238451fd90ad8a", "lat": 38.908428666666666, "lon": -77.0345605, "rental_uris": {"android": "https://dc.lft.to/lastmile_qr_scan", "ios": "https://dc.lft.to/lastmile_qr_scan"}, "is_disabled": 0, "fusion_lat": 0.0, "name": "a6b19dcd5a6ea7fb8f238451fd90ad8a", "fusion_lon": 0.0}, {"is_reserved": 0, "type": "electric_scooter", "bike_id": "f45015faeb4fff492da0b26c43632e82", "lat": 38.89691466666667, "lon": -77.01205233333333, "rental_uris": {"android": "https://dc.lft.to/lastmile_qr_scan", "ios": "https://dc.lft.to/lastmile_qr_scan"}, "is_disabled": 0, "fusion_lat": 0.0, "name": "f45015faeb4fff492da0b26c43632e82", "fusion_lon": 0.0}, {"is_reserved": 0, "type": "electric_scooter", "bike_id": "ac0084d44306f22db0622dc6f0a765a8", "lat": 38.918003666666664, "lon": -77.02706483333333, "rental_uris": {"android": "https://dc.lft.to/lastmile_qr_scan", "ios": "https://dc.lft.to/lastmile_qr_scan"}, "is_disabled": 0, "fusion_lat": 0.0, "name": "ac0084d44306f22db0622dc6f0a765a8", "fusion_lon": 0.0}, {"is_reserved": 0, "type": "electric_scooter", "bike_id": "8a696c2c696078cfff1a76c2c5fdf555", "lat": 38.925499333333335, "lon": -76.99953783333333, "rental_uris": {"android": "https://dc.lft.to/lastmile_qr_scan", "ios": "https://dc.lft.to/lastmile_qr_scan"}, "is_disabled": 0, "fusion_lat": 0.0, "name": "8a696c2c696078cfff1a76c2c5fdf555", "fusion_lon": 0.0}, {"is_reserved": 0, "type": "electric_scooter", "bike_id": "d5701f7f5badca9513688cd15e20b81c", "lat": 38.9039275, "lon": -77.031371, "rental_uris": {"android": "https://dc.lft.to/lastmile_qr_scan", "ios": "https://dc.lft.to/lastmile_qr_scan"}, "is_disabled": 0, "fusion_lat": 0.0, "name": "d5701f7f5badca9513688cd15e20b81c", "fusion_lon": 0.0}, {"is_reserved": 0, "type": "electric_scooter", "bike_id": "01170af435c535de3315882fbc04f8e9", "lat": 38.8974645, "lon": -77.024369, "rental_uris": {"android": "https://dc.lft.to/lastmile_qr_scan", "ios": "https://dc.lft.to/lastmile_qr_scan"}, "is_disabled": 0, "fusion_lat": 0.0, "name": "01170af435c535de3315882fbc04f8e9", "fusion_lon": 0.0}, {"is_reserved": 0, "type": "electric_scooter", "bike_id": "0ec7782a562cbc2b0113e9d64cfc60f7", "lat": 38.919561, "lon": -77.04458183333334, "rental_uris": {"android": "https://dc.lft.to/lastmile_qr_scan", "ios": "https://dc.lft.to/lastmile_qr_scan"}, "is_disabled": 0, "fusion_lat": 0.0, "name": "0ec7782a562cbc2b0113e9d64cfc60f7", "fusion_lon": 0.0}, {"is_reserved": 0, "type": "electric_scooter", "bike_id": "0e7914e1daf72f6c70a7811ae615973c", "lat": 38.89184266666667, "lon": -77.01590516666667, "rental_uris": {"android": "https://dc.lft.to/lastmile_qr_scan", "ios": "https://dc.lft.to/lastmile_qr_scan"}, "is_disabled": 0, "fusion_lat": 0.0, "name": "0e7914e1daf72f6c70a7811ae615973c", "fusion_lon": 0.0}, {"is_reserved": 0, "type": "electric_bike", "bike_id": "f6bae17b41734cad2b28b3411856a05c", "lat": 38.864662333333335, "lon": -76.97752933333334, "rental_uris": {"android": "https://dc.lft.to/lastmile_qr_scan", "ios": "https://dc.lft.to/lastmile_qr_scan"}, "is_disabled": 0, "fusion_lat": 0.0, "name": "f6bae17b41734cad2b28b3411856a05c", "fusion_lon": 0.0}, {"is_reserved": 0, "type": "electric_bike", "bike_id": "58c0090c5df401d192d19f033e7f7bfc", "lat": 38.943159, "lon": -76.99014366666667, "rental_uris": {"android": "https://dc.lft.to/lastmile_qr_scan", "ios": "https://dc.lft.to/lastmile_qr_scan"}, "is_disabled": 0, "fusion_lat": 0.0, "name": "58c0090c5df401d192d19f033e7f7bfc", "fusion_lon": 0.0}, {"is_reserved": 0, "type": "electric_scooter", "bike_id": "38aba0ddef078ab8e7742b562b22a1ab", "lat": 38.90600966666667, "lon": -77.05137583333334, "rental_uris": {"android": "https://dc.lft.to/lastmile_qr_scan", "ios": "https://dc.lft.to/lastmile_qr_scan"}, "is_disabled": 0, "fusion_lat": 0.0, "name": "38aba0ddef078ab8e7742b562b22a1ab", "fusion_lon": 0.0}, {"is_reserved": 0, "type": "electric_scooter", "bike_id": "fe9e74ada87ba0cbba0cb6f84350bae6", "lat": 38.8986595, "lon": -76.97763516666667, "rental_uris": {"android": "https://dc.lft.to/lastmile_qr_scan", "ios": "https://dc.lft.to/lastmile_qr_scan"}, "is_disabled": 0, "fusion_lat": 0.0, "name": "fe9e74ada87ba0cbba0cb6f84350bae6", "fusion_lon": 0.0}, {"is_reserved": 0, "type": "electric_bike", "bike_id": "0bf89f16f61956679a2ee37decd1e084", "lat": 38.87211883333333, "lon": -77.11738883333334, "rental_uris": {"android": "https://dc.lft.to/lastmile_qr_scan", "ios": "https://dc.lft.to/lastmile_qr_scan"}, "is_disabled": 0, "fusion_lat": 0.0, "name": "0bf89f16f61956679a2ee37decd1e084", "fusion_lon": 0.0}, {"is_reserved": 0, "type": "electric_scooter", "bike_id": "ce57d74542c9b940eea41b9985c8a14b", "lat": 38.946978666666666, "lon": -77.02248, "rental_uris": {"android": "https://dc.lft.to/lastmile_qr_scan", "ios": "https://dc.lft.to/lastmile_qr_scan"}, "is_disabled": 0, "fusion_lat": 0.0, "name": "ce57d74542c9b940eea41b9985c8a14b", "fusion_lon": 0.0}, {"is_reserved": 0, "type": "electric_bike", "bike_id": "235476660158fb61bd66725f722f66c5", "lat": 38.8578815, "lon": -76.987554, "rental_uris": {"android": "https://dc.lft.to/lastmile_qr_scan", "ios": "https://dc.lft.to/lastmile_qr_scan"}, "is_disabled": 0, "fusion_lat": 0.0, "name": "235476660158fb61bd66725f722f66c5", "fusion_lon": 0.0}, {"is_reserved": 0, "type": "electric_scooter", "bike_id": "f133827311ee2ab39f9128055a493fbf", "lat": 38.90397433333333, "lon": -76.98941116666667, "rental_uris": {"android": "https://dc.lft.to/lastmile_qr_scan", "ios": "https://dc.lft.to/lastmile_qr_scan"}, "is_disabled": 0, "fusion_lat": 0.0, "name": "f133827311ee2ab39f9128055a493fbf", "fusion_lon": 0.0}, {"is_reserved": 0, "type": "electric_scooter", "bike_id": "9412407c919ff2eabe062837e8ea907a", "lat": 38.900044, "lon": -77.01878066666667, "rental_uris": {"android": "https://dc.lft.to/lastmile_qr_scan", "ios": "https://dc.lft.to/lastmile_qr_scan"}, "is_disabled": 0, "fusion_lat": 0.0, "name": "9412407c919ff2eabe062837e8ea907a", "fusion_lon": 0.0}, {"is_reserved": 0, "type": "electric_scooter", "bike_id": "787091eca5dd5829271b654000766885", "lat": 38.893485, "lon": -77.0282705, "rental_uris": {"android": "https://dc.lft.to/lastmile_qr_scan", "ios": "https://dc.lft.to/lastmile_qr_scan"}, "is_disabled": 0, "fusion_lat": 0.0, "name": "787091eca5dd5829271b654000766885", "fusion_lon": 0.0}, {"is_reserved": 0, "type": "electric_scooter", "bike_id": "559830d8d4915f4acc1b67030dc79edb", "lat": 38.90860383333333, "lon": -77.0433555, "rental_uris": {"android": "https://dc.lft.to/lastmile_qr_scan", "ios": "https://dc.lft.to/lastmile_qr_scan"}, "is_disabled": 0, "fusion_lat": 0.0, "name": "559830d8d4915f4acc1b67030dc79edb", "fusion_lon": 0.0}, {"is_reserved": 0, "type": "electric_scooter", "bike_id": "8084cb4abeb0862cf0604299fa9a36fa", "lat": 38.8982845, "lon": -77.04810983333333, "rental_uris": {"android": "https://dc.lft.to/lastmile_qr_scan", "ios": "https://dc.lft.to/lastmile_qr_scan"}, "is_disabled": 0, "fusion_lat": 0.0, "name": "8084cb4abeb0862cf0604299fa9a36fa", "fusion_lon": 0.0}, {"is_reserved": 0, "type": "electric_scooter", "bike_id": "82812da0d5743b2d31a18366ae0272e7", "lat": 38.899724, "lon": -77.02621083333334, "rental_uris": {"android": "https://dc.lft.to/lastmile_qr_scan", "ios": "https://dc.lft.to/lastmile_qr_scan"}, "is_disabled": 0, "fusion_lat": 0.0, "name": "82812da0d5743b2d31a18366ae0272e7", "fusion_lon": 0.0}, {"is_reserved": 0, "type": "electric_scooter", "bike_id": "41994b7cef0b149194274ee3395d3bd1", "lat": 38.901407, "lon": -77.0161605, "rental_uris": {"android": "https://dc.lft.to/lastmile_qr_scan", "ios": "https://dc.lft.to/lastmile_qr_scan"}, "is_disabled": 0, "fusion_lat": 0.0, "name": "41994b7cef0b149194274ee3395d3bd1", "fusion_lon": 0.0}, {"is_reserved": 0, "type": "electric_scooter", "bike_id": "b460e1d4816628233efe4f349121d534", "lat": 38.93153316666667, "lon": -77.0784045, "rental_uris": {"android": "https://dc.lft.to/lastmile_qr_scan", "ios": "https://dc.lft.to/lastmile_qr_scan"}, "is_disabled": 0, "fusion_lat": 0.0, "name": "b460e1d4816628233efe4f349121d534", "fusion_lon": 0.0}, {"is_reserved": 0, "type": "electric_scooter", "bike_id": "742b575d257b51e9ae9bd5094688e35f", "lat": 38.915172, "lon": -77.00333883333333, "rental_uris": {"android": "https://dc.lft.to/lastmile_qr_scan", "ios": "https://dc.lft.to/lastmile_qr_scan"}, "is_disabled": 0, "fusion_lat": 0.0, "name": "742b575d257b51e9ae9bd5094688e35f", "fusion_lon": 0.0}, {"is_reserved": 0, "type": "electric_scooter", "bike_id": "12b49a5d81c4d87dedef7edbd06c248a", "lat": 38.900697666666666, "lon": -77.04535083333333, "rental_uris": {"android": "https://dc.lft.to/lastmile_qr_scan", "ios": "https://dc.lft.to/lastmile_qr_scan"}, "is_disabled": 0, "fusion_lat": 0.0, "name": "12b49a5d81c4d87dedef7edbd06c248a", "fusion_lon": 0.0}, {"is_reserved": 0, "type": "electric_scooter", "bike_id": "f96102f708cef733294c6646388f90ab", "lat": 38.924504666666664, "lon": -77.0402455, "rental_uris": {"android": "https://dc.lft.to/lastmile_qr_scan", "ios": "https://dc.lft.to/lastmile_qr_scan"}, "is_disabled": 0, "fusion_lat": 0.0, "name": "f96102f708cef733294c6646388f90ab", "fusion_lon": 0.0}, {"is_reserved": 0, "type": "electric_scooter", "bike_id": "91e02b4c588fcbfa90d4a476800dea40", "lat": 38.883822, "lon": -77.0461265, "rental_uris": {"android": "https://dc.lft.to/lastmile_qr_scan", "ios": "https://dc.lft.to/lastmile_qr_scan"}, "is_disabled": 0, "fusion_lat": 0.0, "name": "91e02b4c588fcbfa90d4a476800dea40", "fusion_lon": 0.0}, {"is_reserved": 0, "type": "electric_bike", "bike_id": "2d5ed9d84937a45ff4a258c96e0ea645", "lat": 38.9122635, "lon": -77.06596916666666, "rental_uris": {"android": "https://dc.lft.to/lastmile_qr_scan", "ios": "https://dc.lft.to/lastmile_qr_scan"}, "is_disabled": 0, "fusion_lat": 0.0, "name": "2d5ed9d84937a45ff4a258c96e0ea645", "fusion_lon": 0.0}, {"is_reserved": 0, "type": "electric_scooter", "bike_id": "ded8d627a240633ba69d6555fc9ffa95", "lat": 38.892256, "lon": -77.022268, "rental_uris": {"android": "https://dc.lft.to/lastmile_qr_scan", "ios": "https://dc.lft.to/lastmile_qr_scan"}, "is_disabled": 0, "fusion_lat": 0.0, "name": "ded8d627a240633ba69d6555fc9ffa95", "fusion_lon": 0.0}, {"is_reserved": 0, "type": "electric_scooter", "bike_id": "580c6b0cbe1efea67d1c3cf0ee0d3b51", "lat": 38.898775666666666, "lon": -77.0196805, "rental_uris": {"android": "https://dc.lft.to/lastmile_qr_scan", "ios": "https://dc.lft.to/lastmile_qr_scan"}, "is_disabled": 0, "fusion_lat": 0.0, "name": "580c6b0cbe1efea67d1c3cf0ee0d3b51", "fusion_lon": 0.0}, {"is_reserved": 0, "type": "electric_scooter", "bike_id": "19e6b28936a1ee7e1aa4edc800b50f85", "lat": 38.907328, "lon": -77.04494116666666, "rental_uris": {"android": "https://dc.lft.to/lastmile_qr_scan", "ios": "https://dc.lft.to/lastmile_qr_scan"}, "is_disabled": 0, "fusion_lat": 0.0, "name": "19e6b28936a1ee7e1aa4edc800b50f85", "fusion_lon": 0.0}, {"is_reserved": 0, "type": "electric_scooter", "bike_id": "c71af58e358b111eb6080e301248cf6c", "lat": 38.9071815, "lon": -77.04752416666666, "rental_uris": {"android": "https://dc.lft.to/lastmile_qr_scan", "ios": "https://dc.lft.to/lastmile_qr_scan"}, "is_disabled": 0, "fusion_lat": 0.0, "name": "c71af58e358b111eb6080e301248cf6c", "fusion_lon": 0.0}, {"is_reserved": 0, "type": "electric_scooter", "bike_id": "ba2002b7d89470b307e4b9b03879c723", "lat": 38.929174, "lon": -77.021931, "rental_uris": {"android": "https://dc.lft.to/lastmile_qr_scan", "ios": "https://dc.lft.to/lastmile_qr_scan"}, "is_disabled": 0, "fusion_lat": 0.0, "name": "ba2002b7d89470b307e4b9b03879c723", "fusion_lon": 0.0}, {"is_reserved": 0, "type": "electric_bike", "bike_id": "80aa0f8b4ac01e24fc2829ddf6f64cd3", "lat": 38.912503666666666, "lon": -77.04653766666667, "rental_uris": {"android": "https://dc.lft.to/lastmile_qr_scan", "ios": "https://dc.lft.to/lastmile_qr_scan"}, "is_disabled": 0, "fusion_lat": 0.0, "name": "80aa0f8b4ac01e24fc2829ddf6f64cd3", "fusion_lon": 0.0}, {"is_reserved": 0, "type": "electric_scooter", "bike_id": "380a82ee2e96cd4fc17ff6dc3803357d", "lat": 38.91819516666666, "lon": -77.03956983333333, "rental_uris": {"android": "https://dc.lft.to/lastmile_qr_scan", "ios": "https://dc.lft.to/lastmile_qr_scan"}, "is_disabled": 0, "fusion_lat": 0.0, "name": "380a82ee2e96cd4fc17ff6dc3803357d", "fusion_lon": 0.0}, {"is_reserved": 0, "type": "electric_scooter", "bike_id": "8837cc3d9e13166a7db08a33b43f4e92", "lat": 38.889961666666665, "lon": -77.00155066666666, "rental_uris": {"android": "https://dc.lft.to/lastmile_qr_scan", "ios": "https://dc.lft.to/lastmile_qr_scan"}, "is_disabled": 0, "fusion_lat": 0.0, "name": "8837cc3d9e13166a7db08a33b43f4e92", "fusion_lon": 0.0}, {"is_reserved": 0, "type": "electric_bike", "bike_id": "1aaf1bc6cca87ee006ed1ce954639eec", "lat": 38.875017, "lon": -77.13690033333333, "rental_uris": {"android": "https://dc.lft.to/lastmile_qr_scan", "ios": "https://dc.lft.to/lastmile_qr_scan"}, "is_disabled": 0, "fusion_lat": 0.0, "name": "1aaf1bc6cca87ee006ed1ce954639eec", "fusion_lon": 0.0}, {"is_reserved": 0, "type": "electric_scooter", "bike_id": "4dd9d581008200e7a31751552119529f", "lat": 38.927565, "lon": -77.024543, "rental_uris": {"android": "https://dc.lft.to/lastmile_qr_scan", "ios": "https://dc.lft.to/lastmile_qr_scan"}, "is_disabled": 0, "fusion_lat": 0.0, "name": "4dd9d581008200e7a31751552119529f", "fusion_lon": 0.0}, {"is_reserved": 0, "type": "electric_scooter", "bike_id": "14f0d8c9794a84c3e2a401287bf9a654", "lat": 38.9284215, "lon": -77.05502033333333, "rental_uris": {"android": "https://dc.lft.to/lastmile_qr_scan", "ios": "https://dc.lft.to/lastmile_qr_scan"}, "is_disabled": 0, "fusion_lat": 0.0, "name": "14f0d8c9794a84c3e2a401287bf9a654", "fusion_lon": 0.0}, {"is_reserved": 0, "type": "electric_scooter", "bike_id": "4e8893d1f2c0fa534ca9fedca3ebab68", "lat": 38.90733633333333, "lon": -77.01092183333333, "rental_uris": {"android": "https://dc.lft.to/lastmile_qr_scan", "ios": "https://dc.lft.to/lastmile_qr_scan"}, "is_disabled": 0, "fusion_lat": 0.0, "name": "4e8893d1f2c0fa534ca9fedca3ebab68", "fusion_lon": 0.0}, {"is_reserved": 0, "type": "electric_scooter", "bike_id": "9175e1480d5af8dcb31fdcb73634f04c", "lat": 38.919872, "lon": -77.04166383333333, "rental_uris": {"android": "https://dc.lft.to/lastmile_qr_scan", "ios": "https://dc.lft.to/lastmile_qr_scan"}, "is_disabled": 0, "fusion_lat": 0.0, "name": "9175e1480d5af8dcb31fdcb73634f04c", "fusion_lon": 0.0}, {"is_reserved": 0, "type": "electric_scooter", "bike_id": "02a82bf871d5041ce8f7effc395ecbbc", "lat": 38.90102983333333, "lon": -77.04869916666667, "rental_uris": {"android": "https://dc.lft.to/lastmile_qr_scan", "ios": "https://dc.lft.to/lastmile_qr_scan"}, "is_disabled": 0, "fusion_lat": 0.0, "name": "02a82bf871d5041ce8f7effc395ecbbc", "fusion_lon": 0.0}, {"is_reserved": 0, "type": "electric_scooter", "bike_id": "772eb71bb12212bd15dff35c2ff05a50", "lat": 38.919528, "lon": -77.01352016666667, "rental_uris": {"android": "https://dc.lft.to/lastmile_qr_scan", "ios": "https://dc.lft.to/lastmile_qr_scan"}, "is_disabled": 0, "fusion_lat": 0.0, "name": "772eb71bb12212bd15dff35c2ff05a50", "fusion_lon": 0.0}, {"is_reserved": 0, "type": "electric_scooter", "bike_id": "2eb084a1924cecebe1c3847a94e27b62", "lat": 38.940819833333336, "lon": -77.05492933333333, "rental_uris": {"android": "https://dc.lft.to/lastmile_qr_scan", "ios": "https://dc.lft.to/lastmile_qr_scan"}, "is_disabled": 0, "fusion_lat": 0.0, "name": "2eb084a1924cecebe1c3847a94e27b62", "fusion_lon": 0.0}, {"is_reserved": 0, "type": "electric_scooter", "bike_id": "dd0fced212b25ff4b45b905b0b527c7b", "lat": 38.922021666666666, "lon": -77.0469745, "rental_uris": {"android": "https://dc.lft.to/lastmile_qr_scan", "ios": "https://dc.lft.to/lastmile_qr_scan"}, "is_disabled": 0, "fusion_lat": 0.0, "name": "dd0fced212b25ff4b45b905b0b527c7b", "fusion_lon": 0.0}, {"is_reserved": 0, "type": "electric_scooter", "bike_id": "05ca49a29b2bbdfd8fb74a2ae43c04fb", "lat": 38.87711, "lon": -76.99629766666666, "rental_uris": {"android": "https://dc.lft.to/lastmile_qr_scan", "ios": "https://dc.lft.to/lastmile_qr_scan"}, "is_disabled": 0, "fusion_lat": 0.0, "name": "05ca49a29b2bbdfd8fb74a2ae43c04fb", "fusion_lon": 0.0}, {"is_reserved": 0, "type": "electric_scooter", "bike_id": "27e74a7008bcfa5e96e724203c3a0ad2", "lat": 38.8852545, "lon": -76.99609666666667, "rental_uris": {"android": "https://dc.lft.to/lastmile_qr_scan", "ios": "https://dc.lft.to/lastmile_qr_scan"}, "is_disabled": 0, "fusion_lat": 0.0, "name": "27e74a7008bcfa5e96e724203c3a0ad2", "fusion_lon": 0.0}, {"is_reserved": 0, "type": "electric_scooter", "bike_id": "3333719b53839d98b5aac9b01b81f198", "lat": 38.910408, "lon": -77.038346, "rental_uris": {"android": "https://dc.lft.to/lastmile_qr_scan", "ios": "https://dc.lft.to/lastmile_qr_scan"}, "is_disabled": 0, "fusion_lat": 0.0, "name": "3333719b53839d98b5aac9b01b81f198", "fusion_lon": 0.0}, {"is_reserved": 0, "type": "electric_scooter", "bike_id": "454695549619d3807e083e3ea8543778", "lat": 38.90358833333333, "lon": -77.03189816666666, "rental_uris": {"android": "https://dc.lft.to/lastmile_qr_scan", "ios": "https://dc.lft.to/lastmile_qr_scan"}, "is_disabled": 0, "fusion_lat": 0.0, "name": "454695549619d3807e083e3ea8543778", "fusion_lon": 0.0}, {"is_reserved": 0, "type": "electric_scooter", "bike_id": "3c9bd122302e933aa4b4b15338a9d03e", "lat": 38.89879633333334, "lon": -76.93183066666667, "rental_uris": {"android": "https://dc.lft.to/lastmile_qr_scan", "ios": "https://dc.lft.to/lastmile_qr_scan"}, "is_disabled": 0, "fusion_lat": 0.0, "name": "3c9bd122302e933aa4b4b15338a9d03e", "fusion_lon": 0.0}, {"is_reserved": 0, "type": "electric_scooter", "bike_id": "1b01fdef83ef7e663bbe72797bae9970", "lat": 38.92628, "lon": -77.03626966666667, "rental_uris": {"android": "https://dc.lft.to/lastmile_qr_scan", "ios": "https://dc.lft.to/lastmile_qr_scan"}, "is_disabled": 0, "fusion_lat": 0.0, "name": "1b01fdef83ef7e663bbe72797bae9970", "fusion_lon": 0.0}, {"is_reserved": 0, "type": "electric_scooter", "bike_id": "687248fa1be267416ae9be2cce81c421", "lat": 38.917479666666665, "lon": -77.02800766666667, "rental_uris": {"android": "https://dc.lft.to/lastmile_qr_scan", "ios": "https://dc.lft.to/lastmile_qr_scan"}, "is_disabled": 0, "fusion_lat": 0.0, "name": "687248fa1be267416ae9be2cce81c421", "fusion_lon": 0.0}, {"is_reserved": 0, "type": "electric_scooter", "bike_id": "cb54f837ff306a03923abf1e2ad5e142", "lat": 38.91632333333333, "lon": -77.04583683333334, "rental_uris": {"android": "https://dc.lft.to/lastmile_qr_scan", "ios": "https://dc.lft.to/lastmile_qr_scan"}, "is_disabled": 0, "fusion_lat": 0.0, "name": "cb54f837ff306a03923abf1e2ad5e142", "fusion_lon": 0.0}, {"is_reserved": 0, "type": "electric_scooter", "bike_id": "aebecf0b8f2035284f3b2266179d6f4c", "lat": 38.94227716666666, "lon": -77.07146183333333, "rental_uris": {"android": "https://dc.lft.to/lastmile_qr_scan", "ios": "https://dc.lft.to/lastmile_qr_scan"}, "is_disabled": 0, "fusion_lat": 0.0, "name": "aebecf0b8f2035284f3b2266179d6f4c", "fusion_lon": 0.0}, {"is_reserved": 0, "type": "electric_scooter", "bike_id": "f2fcaacc606ccd6529205bdde26c19f1", "lat": 38.906875666666664, "lon": -77.06253216666667, "rental_uris": {"android": "https://dc.lft.to/lastmile_qr_scan", "ios": "https://dc.lft.to/lastmile_qr_scan"}, "is_disabled": 0, "fusion_lat": 0.0, "name": "f2fcaacc606ccd6529205bdde26c19f1", "fusion_lon": 0.0}, {"is_reserved": 0, "type": "electric_scooter", "bike_id": "cef6960d325bd87ec77fb6aadc3fcf44", "lat": 38.90660533333333, "lon": -77.00899633333333, "rental_uris": {"android": "https://dc.lft.to/lastmile_qr_scan", "ios": "https://dc.lft.to/lastmile_qr_scan"}, "is_disabled": 0, "fusion_lat": 0.0, "name": "cef6960d325bd87ec77fb6aadc3fcf44", "fusion_lon": 0.0}, {"is_reserved": 0, "type": "electric_scooter", "bike_id": "65b14d4692276add341f506eedfd2c8c", "lat": 38.92769233333333, "lon": -77.0278125, "rental_uris": {"android": "https://dc.lft.to/lastmile_qr_scan", "ios": "https://dc.lft.to/lastmile_qr_scan"}, "is_disabled": 0, "fusion_lat": 0.0, "name": "65b14d4692276add341f506eedfd2c8c", "fusion_lon": 0.0}, {"is_reserved": 0, "type": "electric_bike", "bike_id": "e24cd79bd56c34db1fc8ffc9fd47867a", "lat": 38.843398666666666, "lon": -76.99734066666667, "rental_uris": {"android": "https://dc.lft.to/lastmile_qr_scan", "ios": "https://dc.lft.to/lastmile_qr_scan"}, "is_disabled": 0, "fusion_lat": 0.0, "name": "e24cd79bd56c34db1fc8ffc9fd47867a", "fusion_lon": 0.0}, {"is_reserved": 0, "type": "electric_scooter", "bike_id": "9485720fca67bba74f058bb2e3c475d0", "lat": 38.92006116666667, "lon": -76.98504816666667, "rental_uris": {"android": "https://dc.lft.to/lastmile_qr_scan", "ios": "https://dc.lft.to/lastmile_qr_scan"}, "is_disabled": 0, "fusion_lat": 0.0, "name": "9485720fca67bba74f058bb2e3c475d0", "fusion_lon": 0.0}, {"is_reserved": 0, "type": "electric_scooter", "bike_id": "14cbb5ca85d0cdc3d14335669992ebc8", "lat": 38.92416583333333, "lon": -77.035417, "rental_uris": {"android": "https://dc.lft.to/lastmile_qr_scan", "ios": "https://dc.lft.to/lastmile_qr_scan"}, "is_disabled": 0, "fusion_lat": 0.0, "name": "14cbb5ca85d0cdc3d14335669992ebc8", "fusion_lon": 0.0}, {"is_reserved": 0, "type": "electric_scooter", "bike_id": "91191d5e282e18df7fa714e850ddd8a0", "lat": 38.915791666666664, "lon": -77.01998633333334, "rental_uris": {"android": "https://dc.lft.to/lastmile_qr_scan", "ios": "https://dc.lft.to/lastmile_qr_scan"}, "is_disabled": 0, "fusion_lat": 0.0, "name": "91191d5e282e18df7fa714e850ddd8a0", "fusion_lon": 0.0}, {"is_reserved": 0, "type": "electric_scooter", "bike_id": "1014247b96ef2c69c74e0a1cbf42769b", "lat": 38.92609933333333, "lon": -77.0517935, "rental_uris": {"android": "https://dc.lft.to/lastmile_qr_scan", "ios": "https://dc.lft.to/lastmile_qr_scan"}, "is_disabled": 0, "fusion_lat": 0.0, "name": "1014247b96ef2c69c74e0a1cbf42769b", "fusion_lon": 0.0}, {"is_reserved": 0, "type": "electric_scooter", "bike_id": "11b3d70737dc074dcda8064bbf5ef478", "lat": 38.908358, "lon": -76.98720966666667, "rental_uris": {"android": "https://dc.lft.to/lastmile_qr_scan", "ios": "https://dc.lft.to/lastmile_qr_scan"}, "is_disabled": 0, "fusion_lat": 0.0, "name": "11b3d70737dc074dcda8064bbf5ef478", "fusion_lon": 0.0}, {"is_reserved": 0, "type": "electric_scooter", "bike_id": "87768d4674f79b70873758b4373c7057", "lat": 38.91814333333333, "lon": -77.03176266666667, "rental_uris": {"android": "https://dc.lft.to/lastmile_qr_scan", "ios": "https://dc.lft.to/lastmile_qr_scan"}, "is_disabled": 0, "fusion_lat": 0.0, "name": "87768d4674f79b70873758b4373c7057", "fusion_lon": 0.0}, {"is_reserved": 0, "type": "electric_scooter", "bike_id": "d4a8b25a9ba465136bf538cc03cc3a42", "lat": 38.88637716666667, "lon": -77.01534333333333, "rental_uris": {"android": "https://dc.lft.to/lastmile_qr_scan", "ios": "https://dc.lft.to/lastmile_qr_scan"}, "is_disabled": 0, "fusion_lat": 0.0, "name": "d4a8b25a9ba465136bf538cc03cc3a42", "fusion_lon": 0.0}, {"is_reserved": 0, "type": "electric_scooter", "bike_id": "81747e3caf358e9f6bacb9e113663226", "lat": 38.905926666666666, "lon": -77.00621416666667, "rental_uris": {"android": "https://dc.lft.to/lastmile_qr_scan", "ios": "https://dc.lft.to/lastmile_qr_scan"}, "is_disabled": 0, "fusion_lat": 0.0, "name": "81747e3caf358e9f6bacb9e113663226", "fusion_lon": 0.0}, {"is_reserved": 0, "type": "electric_scooter", "bike_id": "50b2e3303e1a58dbb3d0fcdc28fcbe59", "lat": 38.88605183333333, "lon": -77.00402733333334, "rental_uris": {"android": "https://dc.lft.to/lastmile_qr_scan", "ios": "https://dc.lft.to/lastmile_qr_scan"}, "is_disabled": 0, "fusion_lat": 0.0, "name": "50b2e3303e1a58dbb3d0fcdc28fcbe59", "fusion_lon": 0.0}, {"is_reserved": 0, "type": "electric_scooter", "bike_id": "71a36d6826cc90fd781bc113c2c7e71e", "lat": 38.930701, "lon": -77.03197066666667, "rental_uris": {"android": "https://dc.lft.to/lastmile_qr_scan", "ios": "https://dc.lft.to/lastmile_qr_scan"}, "is_disabled": 0, "fusion_lat": 0.0, "name": "71a36d6826cc90fd781bc113c2c7e71e", "fusion_lon": 0.0}, {"is_reserved": 0, "type": "electric_bike", "bike_id": "e6e3aa3a17d0fd2b92babb72e6021faa", "lat": 38.99107083333333, "lon": -76.88153216666667, "rental_uris": {"android": "https://dc.lft.to/lastmile_qr_scan", "ios": "https://dc.lft.to/lastmile_qr_scan"}, "is_disabled": 0, "fusion_lat": 0.0, "name": "e6e3aa3a17d0fd2b92babb72e6021faa", "fusion_lon": 0.0}, {"is_reserved": 0, "type": "electric_scooter", "bike_id": "e76bef729efc1f14b66e4554e0baf18b", "lat": 38.94202033333333, "lon": -77.02517466666667, "rental_uris": {"android": "https://dc.lft.to/lastmile_qr_scan", "ios": "https://dc.lft.to/lastmile_qr_scan"}, "is_disabled": 0, "fusion_lat": 0.0, "name": "e76bef729efc1f14b66e4554e0baf18b", "fusion_lon": 0.0}, {"is_reserved": 0, "type": "electric_scooter", "bike_id": "2effdc0d54dccb012abea960a00d4524", "lat": 38.9156995, "lon": -77.02970983333333, "rental_uris": {"android": "https://dc.lft.to/lastmile_qr_scan", "ios": "https://dc.lft.to/lastmile_qr_scan"}, "is_disabled": 0, "fusion_lat": 0.0, "name": "2effdc0d54dccb012abea960a00d4524", "fusion_lon": 0.0}, {"is_reserved": 0, "type": "electric_scooter", "bike_id": "e80d1f102c2d7a7a31598278107ddd22", "lat": 38.89793266666667, "lon": -77.02703083333333, "rental_uris": {"android": "https://dc.lft.to/lastmile_qr_scan", "ios": "https://dc.lft.to/lastmile_qr_scan"}, "is_disabled": 0, "fusion_lat": 0.0, "name": "e80d1f102c2d7a7a31598278107ddd22", "fusion_lon": 0.0}, {"is_reserved": 0, "type": "electric_scooter", "bike_id": "1dedbca70e2eb0d2898fe1c043f31e31", "lat": 38.89726233333333, "lon": -77.02169466666666, "rental_uris": {"android": "https://dc.lft.to/lastmile_qr_scan", "ios": "https://dc.lft.to/lastmile_qr_scan"}, "is_disabled": 0, "fusion_lat": 0.0, "name": "1dedbca70e2eb0d2898fe1c043f31e31", "fusion_lon": 0.0}, {"is_reserved": 0, "type": "electric_scooter", "bike_id": "c67e36d4401919ee3f2722bfc19d057e", "lat": 38.925873333333335, "lon": -77.029381, "rental_uris": {"android": "https://dc.lft.to/lastmile_qr_scan", "ios": "https://dc.lft.to/lastmile_qr_scan"}, "is_disabled": 0, "fusion_lat": 0.0, "name": "c67e36d4401919ee3f2722bfc19d057e", "fusion_lon": 0.0}, {"is_reserved": 0, "type": "electric_scooter", "bike_id": "b7a6e7f46c3c99e83d58a446e7861c60", "lat": 38.930221333333336, "lon": -77.0378665, "rental_uris": {"android": "https://dc.lft.to/lastmile_qr_scan", "ios": "https://dc.lft.to/lastmile_qr_scan"}, "is_disabled": 0, "fusion_lat": 0.0, "name": "b7a6e7f46c3c99e83d58a446e7861c60", "fusion_lon": 0.0}, {"is_reserved": 0, "type": "electric_scooter", "bike_id": "ef449452354390a306651991cb2f1e63", "lat": 38.914107666666666, "lon": -77.02727216666666, "rental_uris": {"android": "https://dc.lft.to/lastmile_qr_scan", "ios": "https://dc.lft.to/lastmile_qr_scan"}, "is_disabled": 0, "fusion_lat": 0.0, "name": "ef449452354390a306651991cb2f1e63", "fusion_lon": 0.0}, {"is_reserved": 0, "type": "electric_scooter", "bike_id": "1d1eed9253cb8ab0b2f17a9dcdecf6a0", "lat": 38.95091933333333, "lon": -77.0253385, "rental_uris": {"android": "https://dc.lft.to/lastmile_qr_scan", "ios": "https://dc.lft.to/lastmile_qr_scan"}, "is_disabled": 0, "fusion_lat": 0.0, "name": "1d1eed9253cb8ab0b2f17a9dcdecf6a0", "fusion_lon": 0.0}, {"is_reserved": 0, "type": "electric_scooter", "bike_id": "6bc6ba4b2e3f80678c00cd26e1626f1a", "lat": 38.934696, "lon": -77.02768216666666, "rental_uris": {"android": "https://dc.lft.to/lastmile_qr_scan", "ios": "https://dc.lft.to/lastmile_qr_scan"}, "is_disabled": 0, "fusion_lat": 0.0, "name": "6bc6ba4b2e3f80678c00cd26e1626f1a", "fusion_lon": 0.0}, {"is_reserved": 0, "type": "electric_scooter", "bike_id": "15ceda4a79103c43bcb5190a075be56e", "lat": 38.907225333333336, "lon": -77.02938033333334, "rental_uris": {"android": "https://dc.lft.to/lastmile_qr_scan", "ios": "https://dc.lft.to/lastmile_qr_scan"}, "is_disabled": 0, "fusion_lat": 0.0, "name": "15ceda4a79103c43bcb5190a075be56e", "fusion_lon": 0.0}, {"is_reserved": 0, "type": "electric_scooter", "bike_id": "8ccb0889f36f3811d21f89e5e7342397", "lat": 38.892231, "lon": -77.02311516666667, "rental_uris": {"android": "https://dc.lft.to/lastmile_qr_scan", "ios": "https://dc.lft.to/lastmile_qr_scan"}, "is_disabled": 0, "fusion_lat": 0.0, "name": "8ccb0889f36f3811d21f89e5e7342397", "fusion_lon": 0.0}, {"is_reserved": 0, "type": "electric_scooter", "bike_id": "27ce3c03733c6bd9652bd7d723ca889f", "lat": 38.91932216666667, "lon": -77.03238, "rental_uris": {"android": "https://dc.lft.to/lastmile_qr_scan", "ios": "https://dc.lft.to/lastmile_qr_scan"}, "is_disabled": 0, "fusion_lat": 0.0, "name": "27ce3c03733c6bd9652bd7d723ca889f", "fusion_lon": 0.0}, {"is_reserved": 0, "type": "electric_scooter", "bike_id": "9f98b604502e018d7121312bdcfb365f", "lat": 38.925705666666666, "lon": -76.9700455, "rental_uris": {"android": "https://dc.lft.to/lastmile_qr_scan", "ios": "https://dc.lft.to/lastmile_qr_scan"}, "is_disabled": 0, "fusion_lat": 0.0, "name": "9f98b604502e018d7121312bdcfb365f", "fusion_lon": 0.0}, {"is_reserved": 0, "type": "electric_scooter", "bike_id": "3b92bf6a1d627e787273fb6a98cb45ee", "lat": 38.900454833333335, "lon": -76.9916155, "rental_uris": {"android": "https://dc.lft.to/lastmile_qr_scan", "ios": "https://dc.lft.to/lastmile_qr_scan"}, "is_disabled": 0, "fusion_lat": 0.0, "name": "3b92bf6a1d627e787273fb6a98cb45ee", "fusion_lon": 0.0}, {"is_reserved": 0, "type": "electric_scooter", "bike_id": "e71881306c40cc30b189dcd3b855760b", "lat": 38.9118, "lon": -77.00498266666666, "rental_uris": {"android": "https://dc.lft.to/lastmile_qr_scan", "ios": "https://dc.lft.to/lastmile_qr_scan"}, "is_disabled": 0, "fusion_lat": 0.0, "name": "e71881306c40cc30b189dcd3b855760b", "fusion_lon": 0.0}, {"is_reserved": 0, "type": "electric_scooter", "bike_id": "5051d858ce474ebbaa142f10f7216c4e", "lat": 38.92304033333333, "lon": -76.99767666666666, "rental_uris": {"android": "https://dc.lft.to/lastmile_qr_scan", "ios": "https://dc.lft.to/lastmile_qr_scan"}, "is_disabled": 0, "fusion_lat": 0.0, "name": "5051d858ce474ebbaa142f10f7216c4e", "fusion_lon": 0.0}, {"is_reserved": 0, "type": "electric_scooter", "bike_id": "719f2fa9b6ba775685fbc7e4363202b6", "lat": 38.89941316666667, "lon": -77.03196533333333, "rental_uris": {"android": "https://dc.lft.to/lastmile_qr_scan", "ios": "https://dc.lft.to/lastmile_qr_scan"}, "is_disabled": 0, "fusion_lat": 0.0, "name": "719f2fa9b6ba775685fbc7e4363202b6", "fusion_lon": 0.0}, {"is_reserved": 0, "type": "electric_scooter", "bike_id": "ac37bc45f6f0d6c3fa48724ab089ea18", "lat": 38.92967983333333, "lon": -77.02343366666666, "rental_uris": {"android": "https://dc.lft.to/lastmile_qr_scan", "ios": "https://dc.lft.to/lastmile_qr_scan"}, "is_disabled": 0, "fusion_lat": 0.0, "name": "ac37bc45f6f0d6c3fa48724ab089ea18", "fusion_lon": 0.0}, {"is_reserved": 0, "type": "electric_scooter", "bike_id": "ab73d5f6af3301bcfe0b1bfa870f85a6", "lat": 38.94732283333333, "lon": -77.02460783333333, "rental_uris": {"android": "https://dc.lft.to/lastmile_qr_scan", "ios": "https://dc.lft.to/lastmile_qr_scan"}, "is_disabled": 0, "fusion_lat": 0.0, "name": "ab73d5f6af3301bcfe0b1bfa870f85a6", "fusion_lon": 0.0}, {"is_reserved": 0, "type": "electric_scooter", "bike_id": "2b7b89eb46fcaf2cdbfabd60deb665ca", "lat": 38.8936545, "lon": -76.94103766666667, "rental_uris": {"android": "https://dc.lft.to/lastmile_qr_scan", "ios": "https://dc.lft.to/lastmile_qr_scan"}, "is_disabled": 0, "fusion_lat": 0.0, "name": "2b7b89eb46fcaf2cdbfabd60deb665ca", "fusion_lon": 0.0}, {"is_reserved": 0, "type": "electric_scooter", "bike_id": "1bd50ed8a77881d8ffed1a969ae1eb3e", "lat": 38.922420333333335, "lon": -77.02121483333333, "rental_uris": {"android": "https://dc.lft.to/lastmile_qr_scan", "ios": "https://dc.lft.to/lastmile_qr_scan"}, "is_disabled": 0, "fusion_lat": 0.0, "name": "1bd50ed8a77881d8ffed1a969ae1eb3e", "fusion_lon": 0.0}, {"is_reserved": 0, "type": "electric_scooter", "bike_id": "1ff8c05186c7830fc47a2df9c1c62035", "lat": 38.9337525, "lon": -77.05725133333334, "rental_uris": {"android": "https://dc.lft.to/lastmile_qr_scan", "ios": "https://dc.lft.to/lastmile_qr_scan"}, "is_disabled": 0, "fusion_lat": 0.0, "name": "1ff8c05186c7830fc47a2df9c1c62035", "fusion_lon": 0.0}, {"is_reserved": 0, "type": "electric_scooter", "bike_id": "8173c6b2614eec6476d94993d92d57e5", "lat": 38.89530333333333, "lon": -77.0295375, "rental_uris": {"android": "https://dc.lft.to/lastmile_qr_scan", "ios": "https://dc.lft.to/lastmile_qr_scan"}, "is_disabled": 0, "fusion_lat": 0.0, "name": "8173c6b2614eec6476d94993d92d57e5", "fusion_lon": 0.0}, {"is_reserved": 0, "type": "electric_bike", "bike_id": "7bf4a14b752def89a787a27d930e03a6", "lat": 38.951382, "lon": -76.9659575, "rental_uris": {"android": "https://dc.lft.to/lastmile_qr_scan", "ios": "https://dc.lft.to/lastmile_qr_scan"}, "is_disabled": 0, "fusion_lat": 0.0, "name": "7bf4a14b752def89a787a27d930e03a6", "fusion_lon": 0.0}, {"is_reserved": 0, "type": "electric_scooter", "bike_id": "7c7b2c213096799e8a49a277147b395e", "lat": 38.894870166666664, "lon": -76.99564283333333, "rental_uris": {"android": "https://dc.lft.to/lastmile_qr_scan", "ios": "https://dc.lft.to/lastmile_qr_scan"}, "is_disabled": 0, "fusion_lat": 0.0, "name": "7c7b2c213096799e8a49a277147b395e", "fusion_lon": 0.0}, {"is_reserved": 0, "type": "electric_bike", "bike_id": "5e85b9873d38bf31287a48a2f348c820", "lat": 38.89903066666667, "lon": -76.93348716666667, "rental_uris": {"android": "https://dc.lft.to/lastmile_qr_scan", "ios": "https://dc.lft.to/lastmile_qr_scan"}, "is_disabled": 0, "fusion_lat": 0.0, "name": "5e85b9873d38bf31287a48a2f348c820", "fusion_lon": 0.0}, {"is_reserved": 0, "type": "electric_scooter", "bike_id": "f1571a74a1cae5c483dd2b3234366527", "lat": 38.9127195, "lon": -77.038644, "rental_uris": {"android": "https://dc.lft.to/lastmile_qr_scan", "ios": "https://dc.lft.to/lastmile_qr_scan"}, "is_disabled": 0, "fusion_lat": 0.0, "name": "f1571a74a1cae5c483dd2b3234366527", "fusion_lon": 0.0}, {"is_reserved": 0, "type": "electric_scooter", "bike_id": "8d1fbe73643237a392ec72d373d62ee1", "lat": 38.898354833333336, "lon": -77.02822733333333, "rental_uris": {"android": "https://dc.lft.to/lastmile_qr_scan", "ios": "https://dc.lft.to/lastmile_qr_scan"}, "is_disabled": 0, "fusion_lat": 0.0, "name": "8d1fbe73643237a392ec72d373d62ee1", "fusion_lon": 0.0}, {"is_reserved": 0, "type": "electric_scooter", "bike_id": "d3967bd4b4475252885f5c0da96a0303", "lat": 38.904152, "lon": -77.02655383333334, "rental_uris": {"android": "https://dc.lft.to/lastmile_qr_scan", "ios": "https://dc.lft.to/lastmile_qr_scan"}, "is_disabled": 0, "fusion_lat": 0.0, "name": "d3967bd4b4475252885f5c0da96a0303", "fusion_lon": 0.0}, {"is_reserved": 0, "type": "electric_scooter", "bike_id": "b2646b690ed3714cf0d18ef7291e2116", "lat": 38.905776, "lon": -77.02408516666667, "rental_uris": {"android": "https://dc.lft.to/lastmile_qr_scan", "ios": "https://dc.lft.to/lastmile_qr_scan"}, "is_disabled": 0, "fusion_lat": 0.0, "name": "b2646b690ed3714cf0d18ef7291e2116", "fusion_lon": 0.0}, {"is_reserved": 0, "type": "electric_bike", "bike_id": "f650b2421fcc1592c2540fc32f19bbd5", "lat": 38.93765916666667, "lon": -77.03630616666666, "rental_uris": {"android": "https://dc.lft.to/lastmile_qr_scan", "ios": "https://dc.lft.to/lastmile_qr_scan"}, "is_disabled": 0, "fusion_lat": 0.0, "name": "f650b2421fcc1592c2540fc32f19bbd5", "fusion_lon": 0.0}, {"is_reserved": 0, "type": "electric_scooter", "bike_id": "fa9d9e8fd88ed68b1041393160c6b7ef", "lat": 38.9099915, "lon": -77.04006833333334, "rental_uris": {"android": "https://dc.lft.to/lastmile_qr_scan", "ios": "https://dc.lft.to/lastmile_qr_scan"}, "is_disabled": 0, "fusion_lat": 0.0, "name": "fa9d9e8fd88ed68b1041393160c6b7ef", "fusion_lon": 0.0}, {"is_reserved": 0, "type": "electric_scooter", "bike_id": "79fb9a2d888a9f1fdffe5e05e8f3f097", "lat": 38.878485166666664, "lon": -77.01961033333333, "rental_uris": {"android": "https://dc.lft.to/lastmile_qr_scan", "ios": "https://dc.lft.to/lastmile_qr_scan"}, "is_disabled": 0, "fusion_lat": 0.0, "name": "79fb9a2d888a9f1fdffe5e05e8f3f097", "fusion_lon": 0.0}, {"is_reserved": 0, "type": "electric_scooter", "bike_id": "79a1b7aa20e10cbffb466ee84ed847c9", "lat": 38.9243415, "lon": -77.03420883333334, "rental_uris": {"android": "https://dc.lft.to/lastmile_qr_scan", "ios": "https://dc.lft.to/lastmile_qr_scan"}, "is_disabled": 0, "fusion_lat": 0.0, "name": "79a1b7aa20e10cbffb466ee84ed847c9", "fusion_lon": 0.0}, {"is_reserved": 0, "type": "electric_scooter", "bike_id": "878d89434de8b63a4fc7de2cec31ea42", "lat": 38.89515083333333, "lon": -76.97899733333334, "rental_uris": {"android": "https://dc.lft.to/lastmile_qr_scan", "ios": "https://dc.lft.to/lastmile_qr_scan"}, "is_disabled": 0, "fusion_lat": 0.0, "name": "878d89434de8b63a4fc7de2cec31ea42", "fusion_lon": 0.0}, {"is_reserved": 0, "type": "electric_scooter", "bike_id": "7827be705c40918b378e35a3cbe408c9", "lat": 38.9090835, "lon": -76.99616466666667, "rental_uris": {"android": "https://dc.lft.to/lastmile_qr_scan", "ios": "https://dc.lft.to/lastmile_qr_scan"}, "is_disabled": 0, "fusion_lat": 0.0, "name": "7827be705c40918b378e35a3cbe408c9", "fusion_lon": 0.0}, {"is_reserved": 0, "type": "electric_scooter", "bike_id": "2c66ebf0d5e30e3368f52dd25084b1de", "lat": 38.9304335, "lon": -77.05536966666666, "rental_uris": {"android": "https://dc.lft.to/lastmile_qr_scan", "ios": "https://dc.lft.to/lastmile_qr_scan"}, "is_disabled": 0, "fusion_lat": 0.0, "name": "2c66ebf0d5e30e3368f52dd25084b1de", "fusion_lon": 0.0}, {"is_reserved": 0, "type": "electric_scooter", "bike_id": "0cad1063b0934f8e55b4706c89d14f87", "lat": 38.92635883333333, "lon": -77.04246933333333, "rental_uris": {"android": "https://dc.lft.to/lastmile_qr_scan", "ios": "https://dc.lft.to/lastmile_qr_scan"}, "is_disabled": 0, "fusion_lat": 0.0, "name": "0cad1063b0934f8e55b4706c89d14f87", "fusion_lon": 0.0}, {"is_reserved": 0, "type": "electric_scooter", "bike_id": "eb17b7395ab2ce968d0491409bc1a4ca", "lat": 38.883940333333335, "lon": -77.019484, "rental_uris": {"android": "https://dc.lft.to/lastmile_qr_scan", "ios": "https://dc.lft.to/lastmile_qr_scan"}, "is_disabled": 0, "fusion_lat": 0.0, "name": "eb17b7395ab2ce968d0491409bc1a4ca", "fusion_lon": 0.0}, {"is_reserved": 0, "type": "electric_scooter", "bike_id": "665cae212d7e0ac09a94a5c4af89ab6d", "lat": 38.943317666666665, "lon": -77.0125595, "rental_uris": {"android": "https://dc.lft.to/lastmile_qr_scan", "ios": "https://dc.lft.to/lastmile_qr_scan"}, "is_disabled": 0, "fusion_lat": 0.0, "name": "665cae212d7e0ac09a94a5c4af89ab6d", "fusion_lon": 0.0}, {"is_reserved": 0, "type": "electric_scooter", "bike_id": "e3f232f4157cf33ab6ddf0116ca39170", "lat": 38.91194516666667, "lon": -77.03754066666667, "rental_uris": {"android": "https://dc.lft.to/lastmile_qr_scan", "ios": "https://dc.lft.to/lastmile_qr_scan"}, "is_disabled": 0, "fusion_lat": 0.0, "name": "e3f232f4157cf33ab6ddf0116ca39170", "fusion_lon": 0.0}, {"is_reserved": 0, "type": "electric_scooter", "bike_id": "9ea7604b55814c14a98af9258d4db8fe", "lat": 38.9141795, "lon": -77.018814, "rental_uris": {"android": "https://dc.lft.to/lastmile_qr_scan", "ios": "https://dc.lft.to/lastmile_qr_scan"}, "is_disabled": 0, "fusion_lat": 0.0, "name": "9ea7604b55814c14a98af9258d4db8fe", "fusion_lon": 0.0}, {"is_reserved": 0, "type": "electric_scooter", "bike_id": "ad37fb98da0b1c139ba8edb78929c901", "lat": 38.936416666666666, "lon": -77.036565, "rental_uris": {"android": "https://dc.lft.to/lastmile_qr_scan", "ios": "https://dc.lft.to/lastmile_qr_scan"}, "is_disabled": 0, "fusion_lat": 0.0, "name": "ad37fb98da0b1c139ba8edb78929c901", "fusion_lon": 0.0}, {"is_reserved": 0, "type": "electric_scooter", "bike_id": "ea00055786c7065d21c7da4eebb35b73", "lat": 38.8889255, "lon": -77.0430555, "rental_uris": {"android": "https://dc.lft.to/lastmile_qr_scan", "ios": "https://dc.lft.to/lastmile_qr_scan"}, "is_disabled": 0, "fusion_lat": 0.0, "name": "ea00055786c7065d21c7da4eebb35b73", "fusion_lon": 0.0}, {"is_reserved": 0, "type": "electric_scooter", "bike_id": "507b7d370424e309d1f8be2667fc76b6", "lat": 38.918016, "lon": -77.02706433333333, "rental_uris": {"android": "https://dc.lft.to/lastmile_qr_scan", "ios": "https://dc.lft.to/lastmile_qr_scan"}, "is_disabled": 0, "fusion_lat": 0.0, "name": "507b7d370424e309d1f8be2667fc76b6", "fusion_lon": 0.0}, {"is_reserved": 0, "type": "electric_scooter", "bike_id": "5bcd362ac4a57a421dad0f826a8613bf", "lat": 38.919258666666664, "lon": -77.0311065, "rental_uris": {"android": "https://dc.lft.to/lastmile_qr_scan", "ios": "https://dc.lft.to/lastmile_qr_scan"}, "is_disabled": 0, "fusion_lat": 0.0, "name": "5bcd362ac4a57a421dad0f826a8613bf", "fusion_lon": 0.0}, {"is_reserved": 0, "type": "electric_scooter", "bike_id": "4d7c87661fa28100e2be9bba6442fb45", "lat": 38.90121233333333, "lon": -77.033844, "rental_uris": {"android": "https://dc.lft.to/lastmile_qr_scan", "ios": "https://dc.lft.to/lastmile_qr_scan"}, "is_disabled": 0, "fusion_lat": 0.0, "name": "4d7c87661fa28100e2be9bba6442fb45", "fusion_lon": 0.0}, {"is_reserved": 0, "type": "electric_scooter", "bike_id": "153a0186fbb901862eb3e4e95b634f28", "lat": 38.8962865, "lon": -76.95691916666667, "rental_uris": {"android": "https://dc.lft.to/lastmile_qr_scan", "ios": "https://dc.lft.to/lastmile_qr_scan"}, "is_disabled": 0, "fusion_lat": 0.0, "name": "153a0186fbb901862eb3e4e95b634f28", "fusion_lon": 0.0}, {"is_reserved": 0, "type": "electric_scooter", "bike_id": "2937050e813f64e0dc36c35b4ed4ad13", "lat": 38.910361, "lon": -77.03713533333334, "rental_uris": {"android": "https://dc.lft.to/lastmile_qr_scan", "ios": "https://dc.lft.to/lastmile_qr_scan"}, "is_disabled": 0, "fusion_lat": 0.0, "name": "2937050e813f64e0dc36c35b4ed4ad13", "fusion_lon": 0.0}, {"is_reserved": 0, "type": "electric_scooter", "bike_id": "2e0aa486bc8bed0f1b2b345c0d77c87b", "lat": 38.87158083333333, "lon": -77.01352683333333, "rental_uris": {"android": "https://dc.lft.to/lastmile_qr_scan", "ios": "https://dc.lft.to/lastmile_qr_scan"}, "is_disabled": 0, "fusion_lat": 0.0, "name": "2e0aa486bc8bed0f1b2b345c0d77c87b", "fusion_lon": 0.0}, {"is_reserved": 0, "type": "electric_bike", "bike_id": "a25479ea20e3589f41ad4b263b608d7d", "lat": 38.98184066666666, "lon": -76.98208783333334, "rental_uris": {"android": "https://dc.lft.to/lastmile_qr_scan", "ios": "https://dc.lft.to/lastmile_qr_scan"}, "is_disabled": 0, "fusion_lat": 0.0, "name": "a25479ea20e3589f41ad4b263b608d7d", "fusion_lon": 0.0}, {"is_reserved": 0, "type": "electric_scooter", "bike_id": "af7f4e19992ff4d601016a7933e70eac", "lat": 38.903650166666665, "lon": -77.03196166666666, "rental_uris": {"android": "https://dc.lft.to/lastmile_qr_scan", "ios": "https://dc.lft.to/lastmile_qr_scan"},