{"data": {"bikes": [{"name": "7c049715e2bc71536a7df4ed3234ac53", "is_reserved": 0, "type": "electric_scooter", "rental_uris": {"ios": "https://dc.lft.to/lastmile_qr_scan", "android": "https://dc.lft.to/lastmile_qr_scan"}, "lat": 38.91110116666667, "lon": -77.04830983333333, "bike_id": "7c049715e2bc71536a7df4ed3234ac53", "fusion_lat": 0.0, "is_disabled": 0, "fusion_lon": 0.0}, {"name": "aaf63fbd4af4d21a2849839af4161745", "is_reserved": 0, "type": "electric_scooter", "rental_uris": {"ios": "https://dc.lft.to/lastmile_qr_scan", "android": "https://dc.lft.to/lastmile_qr_scan"}, "lat": 38.8948855, "lon": -77.01123583333333, "bike_id": "aaf63fbd4af4d21a2849839af4161745", "fusion_lat": 0.0, "is_disabled": 0, "fusion_lon": 0.0}, {"name": "27f358da20470c727550e8350c4e1b0d", "is_reserved": 0, "type": "electric_scooter", "rental_uris": {"ios": "https://dc.lft.to/lastmile_qr_scan", "android": "https://dc.lft.to/lastmile_qr_scan"}, "lat": 38.91274533333333, "lon": -77.03996916666667, "bike_id": "27f358da20470c727550e8350c4e1b0d", "fusion_lat": 0.0, "is_disabled": 0, "fusion_lon": 0.0}, {"name": "3343f6e74bb9c1b20833888705fc0887", "is_reserved": 0, "type": "electric_scooter", "rental_uris": {"ios": "https://dc.lft.to/lastmile_qr_scan", "android": "https://dc.lft.to/lastmile_qr_scan"}, "lat": 38.915516333333336, "lon": -77.02977816666667, "bike_id": "3343f6e74bb9c1b20833888705fc0887", "fusion_lat": 0.0, "is_disabled": 0, "fusion_lon": 0.0}, {"name": "33731f13abc31b2f76a5700cb9b004ba", "is_reserved": 0, "type": "electric_scooter", "rental_uris": {"ios": "https://dc.lft.to/lastmile_qr_scan", "android": "https://dc.lft.to/lastmile_qr_scan"}, "lat": 38.9006765, "lon": -77.05073683333333, "bike_id": "33731f13abc31b2f76a5700cb9b004ba", "fusion_lat": 0.0, "is_disabled": 0, "fusion_lon": 0.0}, {"name": "4679ccf5ff35159d70b3de6476758c03", "is_reserved": 0, "type": "electric_scooter", "rental_uris": {"ios": "https://dc.lft.to/lastmile_qr_scan", "android": "https://dc.lft.to/lastmile_qr_scan"}, "lat": 38.957238, "lon": -77.00240366666667, "bike_id": "4679ccf5ff35159d70b3de6476758c03", "fusion_lat": 0.0, "is_disabled": 0, "fusion_lon": 0.0}, {"name": "c4f0eba64b4da2f678bb958c1a40c477", "is_reserved": 0, "type": "electric_scooter", "rental_uris": {"ios": "https://dc.lft.to/lastmile_qr_scan", "android": "https://dc.lft.to/lastmile_qr_scan"}, "lat": 38.91428033333333, "lon": -77.03211616666667, "bike_id": "c4f0eba64b4da2f678bb958c1a40c477", "fusion_lat": 0.0, "is_disabled": 0, "fusion_lon": 0.0}, {"name": "02a9907736af247567771451002e3872", "is_reserved": 0, "type": "electric_scooter", "rental_uris": {"ios": "https://dc.lft.to/lastmile_qr_scan", "android": "https://dc.lft.to/lastmile_qr_scan"}, "lat": 38.921154666666666, "lon": -76.99409833333333, "bike_id": "02a9907736af247567771451002e3872", "fusion_lat": 0.0, "is_disabled": 0, "fusion_lon": 0.0}, {"name": "d5f882fc36d3f45e8bd814778152d4c0", "is_reserved": 0, "type": "electric_scooter", "rental_uris": {"ios": "https://dc.lft.to/lastmile_qr_scan", "android": "https://dc.lft.to/lastmile_qr_scan"}, "lat": 38.895271, "lon": -77.03209783333334, "bike_id": "d5f882fc36d3f45e8bd814778152d4c0", "fusion_lat": 0.0, "is_disabled": 0, "fusion_lon": 0.0}, {"name": "08873f0ee4a525e99da01602298dc0e9", "is_reserved": 0, "type": "electric_scooter", "rental_uris": {"ios": "https://dc.lft.to/lastmile_qr_scan", "android": "https://dc.lft.to/lastmile_qr_scan"}, "lat": 38.86257166666667, "lon": -76.9954635, "bike_id": "08873f0ee4a525e99da01602298dc0e9", "fusion_lat": 0.0, "is_disabled": 0, "fusion_lon": 0.0}, {"name": "ee05da9146c8eb2fb84b22dfd114c3a8", "is_reserved": 0, "type": "electric_bike", "rental_uris": {"ios": "https://dc.lft.to/lastmile_qr_scan", "android": "https://dc.lft.to/lastmile_qr_scan"}, "lat": 38.951255833333335, "lon": -76.969335, "bike_id": "ee05da9146c8eb2fb84b22dfd114c3a8", "fusion_lat": 0.0, "is_disabled": 0, "fusion_lon": 0.0}, {"name": "dc3319db1315455869f87d3e9630fa39", "is_reserved": 0, "type": "electric_scooter", "rental_uris": {"ios": "https://dc.lft.to/lastmile_qr_scan", "android": "https://dc.lft.to/lastmile_qr_scan"}, "lat": 38.920804, "lon": -77.02369833333333, "bike_id": "dc3319db1315455869f87d3e9630fa39", "fusion_lat": 0.0, "is_disabled": 0, "fusion_lon": 0.0}, {"name": "ce3faa301eb15dc38368ed2265d4e621", "is_reserved": 0, "type": "electric_bike", "rental_uris": {"ios": "https://dc.lft.to/lastmile_qr_scan", "android": "https://dc.lft.to/lastmile_qr_scan"}, "lat": 38.9101505, "lon": -77.2279845, "bike_id": "ce3faa301eb15dc38368ed2265d4e621", "fusion_lat": 0.0, "is_disabled": 0, "fusion_lon": 0.0}, {"name": "e6e38113890dbc2fdbb285c41d5b95e8", "is_reserved": 0, "type": "electric_bike", "rental_uris": {"ios": "https://dc.lft.to/lastmile_qr_scan", "android": "https://dc.lft.to/lastmile_qr_scan"}, "lat": 38.838147, "lon": -77.09524633333334, "bike_id": "e6e38113890dbc2fdbb285c41d5b95e8", "fusion_lat": 0.0, "is_disabled": 0, "fusion_lon": 0.0}, {"name": "b77f5d12eaaeb21151244ab600dae470", "is_reserved": 0, "type": "electric_scooter", "rental_uris": {"ios": "https://dc.lft.to/lastmile_qr_scan", "android": "https://dc.lft.to/lastmile_qr_scan"}, "lat": 38.9036445, "lon": -77.0434935, "bike_id": "b77f5d12eaaeb21151244ab600dae470", "fusion_lat": 0.0, "is_disabled": 0, "fusion_lon": 0.0}, {"name": "c97d553f86788448494bca6dda08cf23", "is_reserved": 0, "type": "electric_scooter", "rental_uris": {"ios": "https://dc.lft.to/lastmile_qr_scan", "android": "https://dc.lft.to/lastmile_qr_scan"}, "lat": 38.97503016666667, "lon": -77.01692683333333, "bike_id": "c97d553f86788448494bca6dda08cf23", "fusion_lat": 0.0, "is_disabled": 0, "fusion_lon": 0.0}, {"name": "bc8d826aab86fe1367e6093ba776c6c2", "is_reserved": 0, "type": "electric_scooter", "rental_uris": {"ios": "https://dc.lft.to/lastmile_qr_scan", "android": "https://dc.lft.to/lastmile_qr_scan"}, "lat": 38.9056715, "lon": -77.04285783333333, "bike_id": "bc8d826aab86fe1367e6093ba776c6c2", "fusion_lat": 0.0, "is_disabled": 0, "fusion_lon": 0.0}, {"name": "226be3d70449cbb64a242fd4185748f9", "is_reserved": 0, "type": "electric_scooter", "rental_uris": {"ios": "https://dc.lft.to/lastmile_qr_scan", "android": "https://dc.lft.to/lastmile_qr_scan"}, "lat": 38.89079266666667, "lon": -76.98828633333333, "bike_id": "226be3d70449cbb64a242fd4185748f9", "fusion_lat": 0.0, "is_disabled": 0, "fusion_lon": 0.0}, {"name": "aecc781d06377f54296e9be103f00290", "is_reserved": 0, "type": "electric_scooter", "rental_uris": {"ios": "https://dc.lft.to/lastmile_qr_scan", "android": "https://dc.lft.to/lastmile_qr_scan"}, "lat": 38.9105365, "lon": -77.0409225, "bike_id": "aecc781d06377f54296e9be103f00290", "fusion_lat": 0.0, "is_disabled": 0, "fusion_lon": 0.0}, {"name": "ee22ec75029e3d65908d6a24ceaa5df6", "is_reserved": 0, "type": "electric_scooter", "rental_uris": {"ios": "https://dc.lft.to/lastmile_qr_scan", "android": "https://dc.lft.to/lastmile_qr_scan"}, "lat": 38.8909265, "lon": -76.99607433333334, "bike_id": "ee22ec75029e3d65908d6a24ceaa5df6", "fusion_lat": 0.0, "is_disabled": 0, "fusion_lon": 0.0}, {"name": "a76ea4ee996ed1436892945b65442c09", "is_reserved": 0, "type": "electric_scooter", "rental_uris": {"ios": "https://dc.lft.to/lastmile_qr_scan", "android": "https://dc.lft.to/lastmile_qr_scan"}, "lat": 38.86701883333333, "lon": -76.98709116666667, "bike_id": "a76ea4ee996ed1436892945b65442c09", "fusion_lat": 0.0, "is_disabled": 0, "fusion_lon": 0.0}, {"name": "5ddfacefc7d0840aa629dc647b5c3719", "is_reserved": 0, "type": "electric_scooter", "rental_uris": {"ios": "https://dc.lft.to/lastmile_qr_scan", "android": "https://dc.lft.to/lastmile_qr_scan"}, "lat": 38.90777466666667, "lon": -76.99711683333334, "bike_id": "5ddfacefc7d0840aa629dc647b5c3719", "fusion_lat": 0.0, "is_disabled": 0, "fusion_lon": 0.0}, {"name": "50562d5d0f43a844a8d89bfd8fef102e", "is_reserved": 0, "type": "electric_scooter", "rental_uris": {"ios": "https://dc.lft.to/lastmile_qr_scan", "android": "https://dc.lft.to/lastmile_qr_scan"}, "lat": 38.9281535, "lon": -77.05392333333333, "bike_id": "50562d5d0f43a844a8d89bfd8fef102e", "fusion_lat": 0.0, "is_disabled": 0, "fusion_lon": 0.0}, {"name": "d66a1a29fd44b67d491505f9d351ae36", "is_reserved": 0, "type": "electric_scooter", "rental_uris": {"ios": "https://dc.lft.to/lastmile_qr_scan", "android": "https://dc.lft.to/lastmile_qr_scan"}, "lat": 38.91548133333333, "lon": -77.011881, "bike_id": "d66a1a29fd44b67d491505f9d351ae36", "fusion_lat": 0.0, "is_disabled": 0, "fusion_lon": 0.0}, {"name": "46dca046ba09a805b8366a894c3c43ea", "is_reserved": 0, "type": "electric_scooter", "rental_uris": {"ios": "https://dc.lft.to/lastmile_qr_scan", "android": "https://dc.lft.to/lastmile_qr_scan"}, "lat": 38.885951166666665, "lon": -77.01762683333334, "bike_id": "46dca046ba09a805b8366a894c3c43ea", "fusion_lat": 0.0, "is_disabled": 0, "fusion_lon": 0.0}, {"name": "b68bfcd7bab97d50a4da61b4147c13a7", "is_reserved": 0, "type": "electric_scooter", "rental_uris": {"ios": "https://dc.lft.to/lastmile_qr_scan", "android": "https://dc.lft.to/lastmile_qr_scan"}, "lat": 38.86365933333333, "lon": -76.99065033333333, "bike_id": "b68bfcd7bab97d50a4da61b4147c13a7", "fusion_lat": 0.0, "is_disabled": 0, "fusion_lon": 0.0}, {"name": "e293787779da7fe61e96e6cffce811c1", "is_reserved": 0, "type": "electric_scooter", "rental_uris": {"ios": "https://dc.lft.to/lastmile_qr_scan", "android": "https://dc.lft.to/lastmile_qr_scan"}, "lat": 38.8939105, "lon": -76.95022666666667, "bike_id": "e293787779da7fe61e96e6cffce811c1", "fusion_lat": 0.0, "is_disabled": 0, "fusion_lon": 0.0}, {"name": "708850c8a5d3a23d6e119baf2833a7a4", "is_reserved": 0, "type": "electric_scooter", "rental_uris": {"ios": "https://dc.lft.to/lastmile_qr_scan", "android": "https://dc.lft.to/lastmile_qr_scan"}, "lat": 38.896225333333334, "lon": -77.0220415, "bike_id": "708850c8a5d3a23d6e119baf2833a7a4", "fusion_lat": 0.0, "is_disabled": 0, "fusion_lon": 0.0}, {"name": "d86c1a7ba0e24a73897cfd736cf7edb0", "is_reserved": 0, "type": "electric_scooter", "rental_uris": {"ios": "https://dc.lft.to/lastmile_qr_scan", "android": "https://dc.lft.to/lastmile_qr_scan"}, "lat": 38.90419033333333, "lon": -77.0342935, "bike_id": "d86c1a7ba0e24a73897cfd736cf7edb0", "fusion_lat": 0.0, "is_disabled": 0, "fusion_lon": 0.0}, {"name": "74a8d6d0d6accc9acc4b8eebf7066ac2", "is_reserved": 0, "type": "electric_scooter", "rental_uris": {"ios": "https://dc.lft.to/lastmile_qr_scan", "android": "https://dc.lft.to/lastmile_qr_scan"}, "lat": 38.928288, "lon": -77.054426, "bike_id": "74a8d6d0d6accc9acc4b8eebf7066ac2", "fusion_lat": 0.0, "is_disabled": 0, "fusion_lon": 0.0}, {"name": "128a8426ae8df34f2747d7470d0ea7d3", "is_reserved": 0, "type": "electric_scooter", "rental_uris": {"ios": "https://dc.lft.to/lastmile_qr_scan", "android": "https://dc.lft.to/lastmile_qr_scan"}, "lat": 38.945024, "lon": -77.0386545, "bike_id": "128a8426ae8df34f2747d7470d0ea7d3", "fusion_lat": 0.0, "is_disabled": 0, "fusion_lon": 0.0}, {"name": "6416dc591cd82a516c232b2b56501b48", "is_reserved": 0, "type": "electric_scooter", "rental_uris": {"ios": "https://dc.lft.to/lastmile_qr_scan", "android": "https://dc.lft.to/lastmile_qr_scan"}, "lat": 38.895553, "lon": -76.9487715, "bike_id": "6416dc591cd82a516c232b2b56501b48", "fusion_lat": 0.0, "is_disabled": 0, "fusion_lon": 0.0}, {"name": "2c8415d859f17fcd1a3e508c8641aeda", "is_reserved": 0, "type": "electric_scooter", "rental_uris": {"ios": "https://dc.lft.to/lastmile_qr_scan", "android": "https://dc.lft.to/lastmile_qr_scan"}, "lat": 38.9028265, "lon": -76.98195683333333, "bike_id": "2c8415d859f17fcd1a3e508c8641aeda", "fusion_lat": 0.0, "is_disabled": 0, "fusion_lon": 0.0}, {"name": "adaf6f066a4022407758c4273d313d3a", "is_reserved": 0, "type": "electric_scooter", "rental_uris": {"ios": "https://dc.lft.to/lastmile_qr_scan", "android": "https://dc.lft.to/lastmile_qr_scan"}, "lat": 38.9240855, "lon": -77.025367, "bike_id": "adaf6f066a4022407758c4273d313d3a", "fusion_lat": 0.0, "is_disabled": 0, "fusion_lon": 0.0}, {"name": "3ed9a6c5962f3cfb6b614b8b81513aea", "is_reserved": 0, "type": "electric_scooter", "rental_uris": {"ios": "https://dc.lft.to/lastmile_qr_scan", "android": "https://dc.lft.to/lastmile_qr_scan"}, "lat": 38.92482416666667, "lon": -77.02550633333334, "bike_id": "3ed9a6c5962f3cfb6b614b8b81513aea", "fusion_lat": 0.0, "is_disabled": 0, "fusion_lon": 0.0}, {"name": "a0846e7737b4c8a831f264dd0c4d2a14", "is_reserved": 0, "type": "electric_scooter", "rental_uris": {"ios": "https://dc.lft.to/lastmile_qr_scan", "android": "https://dc.lft.to/lastmile_qr_scan"}, "lat": 38.90230416666667, "lon": -77.05909033333333, "bike_id": "a0846e7737b4c8a831f264dd0c4d2a14", "fusion_lat": 0.0, "is_disabled": 0, "fusion_lon": 0.0}, {"name": "9363d3a3a004f3efe3bb57527c05a31f", "is_reserved": 0, "type": "electric_scooter", "rental_uris": {"ios": "https://dc.lft.to/lastmile_qr_scan", "android": "https://dc.lft.to/lastmile_qr_scan"}, "lat": 38.9232835, "lon": -77.04310683333334, "bike_id": "9363d3a3a004f3efe3bb57527c05a31f", "fusion_lat": 0.0, "is_disabled": 0, "fusion_lon": 0.0}, {"name": "a9350d280d200253e9c74becb3e78c89", "is_reserved": 0, "type": "electric_scooter", "rental_uris": {"ios": "https://dc.lft.to/lastmile_qr_scan", "android": "https://dc.lft.to/lastmile_qr_scan"}, "lat": 38.929731833333335, "lon": -77.032127, "bike_id": "a9350d280d200253e9c74becb3e78c89", "fusion_lat": 0.0, "is_disabled": 0, "fusion_lon": 0.0}, {"name": "508452dbc5e2b94bef231d32881a21a8", "is_reserved": 0, "type": "electric_scooter", "rental_uris": {"ios": "https://dc.lft.to/lastmile_qr_scan", "android": "https://dc.lft.to/lastmile_qr_scan"}, "lat": 38.93940833333333, "lon": -77.03596716666667, "bike_id": "508452dbc5e2b94bef231d32881a21a8", "fusion_lat": 0.0, "is_disabled": 0, "fusion_lon": 0.0}, {"name": "f92e6616ddd26823eeb1d2af73106627", "is_reserved": 0, "type": "electric_bike", "rental_uris": {"ios": "https://dc.lft.to/lastmile_qr_scan", "android": "https://dc.lft.to/lastmile_qr_scan"}, "lat": 38.952444666666665, "lon": -76.97672266666666, "bike_id": "f92e6616ddd26823eeb1d2af73106627", "fusion_lat": 0.0, "is_disabled": 0, "fusion_lon": 0.0}, {"name": "8174d63b4158a909b1f08e42f82334f3", "is_reserved": 0, "type": "electric_scooter", "rental_uris": {"ios": "https://dc.lft.to/lastmile_qr_scan", "android": "https://dc.lft.to/lastmile_qr_scan"}, "lat": 38.905224833333335, "lon": -76.98307199999999, "bike_id": "8174d63b4158a909b1f08e42f82334f3", "fusion_lat": 0.0, "is_disabled": 0, "fusion_lon": 0.0}, {"name": "4b967f11c1e02a476508d302ff11ee79", "is_reserved": 0, "type": "electric_scooter", "rental_uris": {"ios": "https://dc.lft.to/lastmile_qr_scan", "android": "https://dc.lft.to/lastmile_qr_scan"}, "lat": 38.92683916666667, "lon": -77.02998616666666, "bike_id": "4b967f11c1e02a476508d302ff11ee79", "fusion_lat": 0.0, "is_disabled": 0, "fusion_lon": 0.0}, {"name": "762e8c7d48ca2ae83482629108e41de8", "is_reserved": 0, "type": "electric_scooter", "rental_uris": {"ios": "https://dc.lft.to/lastmile_qr_scan", "android": "https://dc.lft.to/lastmile_qr_scan"}, "lat": 38.9252735, "lon": -77.03846716666666, "bike_id": "762e8c7d48ca2ae83482629108e41de8", "fusion_lat": 0.0, "is_disabled": 0, "fusion_lon": 0.0}, {"name": "8b75b9f8fe6356da7de8264b0c914b46", "is_reserved": 0, "type": "electric_scooter", "rental_uris": {"ios": "https://dc.lft.to/lastmile_qr_scan", "android": "https://dc.lft.to/lastmile_qr_scan"}, "lat": 38.88122283333333, "lon": -77.014048, "bike_id": "8b75b9f8fe6356da7de8264b0c914b46", "fusion_lat": 0.0, "is_disabled": 0, "fusion_lon": 0.0}, {"name": "c3b442dea064ca5248365c99486580bc", "is_reserved": 0, "type": "electric_scooter", "rental_uris": {"ios": "https://dc.lft.to/lastmile_qr_scan", "android": "https://dc.lft.to/lastmile_qr_scan"}, "lat": 38.886413833333336, "lon": -76.99608816666667, "bike_id": "c3b442dea064ca5248365c99486580bc", "fusion_lat": 0.0, "is_disabled": 0, "fusion_lon": 0.0}, {"name": "28d4f736f9cc95b02c5e4cd12f9a12ad", "is_reserved": 0, "type": "electric_scooter", "rental_uris": {"ios": "https://dc.lft.to/lastmile_qr_scan", "android": "https://dc.lft.to/lastmile_qr_scan"}, "lat": 38.93202266666667, "lon": -77.03859216666666, "bike_id": "28d4f736f9cc95b02c5e4cd12f9a12ad", "fusion_lat": 0.0, "is_disabled": 0, "fusion_lon": 0.0}, {"name": "4a487695ace0a206ee1819c7eb752058", "is_reserved": 0, "type": "electric_scooter", "rental_uris": {"ios": "https://dc.lft.to/lastmile_qr_scan", "android": "https://dc.lft.to/lastmile_qr_scan"}, "lat": 38.91109816666667, "lon": -77.03182066666666, "bike_id": "4a487695ace0a206ee1819c7eb752058", "fusion_lat": 0.0, "is_disabled": 0, "fusion_lon": 0.0}, {"name": "54544a3bdd9e9d77fe5051aed9e2a927", "is_reserved": 0, "type": "electric_scooter", "rental_uris": {"ios": "https://dc.lft.to/lastmile_qr_scan", "android": "https://dc.lft.to/lastmile_qr_scan"}, "lat": 38.92325833333334, "lon": -77.0462005, "bike_id": "54544a3bdd9e9d77fe5051aed9e2a927", "fusion_lat": 0.0, "is_disabled": 0, "fusion_lon": 0.0}, {"name": "70be99939163fcbc44d0e79b3385618d", "is_reserved": 0, "type": "electric_scooter", "rental_uris": {"ios": "https://dc.lft.to/lastmile_qr_scan", "android": "https://dc.lft.to/lastmile_qr_scan"}, "lat": 38.90360916666667, "lon": -77.03858533333333, "bike_id": "70be99939163fcbc44d0e79b3385618d", "fusion_lat": 0.0, "is_disabled": 0, "fusion_lon": 0.0}, {"name": "82e352bc5f57e70e08ee77fd903276b1", "is_reserved": 0, "type": "electric_scooter", "rental_uris": {"ios": "https://dc.lft.to/lastmile_qr_scan", "android": "https://dc.lft.to/lastmile_qr_scan"}, "lat": 38.900186833333336, "lon": -77.0332795, "bike_id": "82e352bc5f57e70e08ee77fd903276b1", "fusion_lat": 0.0, "is_disabled": 0, "fusion_lon": 0.0}, {"name": "346c516daacc87ecd7fb9c8b535860b4", "is_reserved": 0, "type": "electric_scooter", "rental_uris": {"ios": "https://dc.lft.to/lastmile_qr_scan", "android": "https://dc.lft.to/lastmile_qr_scan"}, "lat": 38.91577566666667, "lon": -77.03179983333334, "bike_id": "346c516daacc87ecd7fb9c8b535860b4", "fusion_lat": 0.0, "is_disabled": 0, "fusion_lon": 0.0}, {"name": "171aaf187f21618fc1c39bc68c1e4271", "is_reserved": 0, "type": "electric_scooter", "rental_uris": {"ios": "https://dc.lft.to/lastmile_qr_scan", "android": "https://dc.lft.to/lastmile_qr_scan"}, "lat": 38.936728333333335, "lon": -77.03594216666667, "bike_id": "171aaf187f21618fc1c39bc68c1e4271", "fusion_lat": 0.0, "is_disabled": 0, "fusion_lon": 0.0}, {"name": "12948a1e55017af2e6ec2035a886a75e", "is_reserved": 0, "type": "electric_scooter", "rental_uris": {"ios": "https://dc.lft.to/lastmile_qr_scan", "android": "https://dc.lft.to/lastmile_qr_scan"}, "lat": 38.89720616666666, "lon": -77.02436766666666, "bike_id": "12948a1e55017af2e6ec2035a886a75e", "fusion_lat": 0.0, "is_disabled": 0, "fusion_lon": 0.0}, {"name": "fb2251b274fbca3ff4bb26a0dad873ea", "is_reserved": 0, "type": "electric_scooter", "rental_uris": {"ios": "https://dc.lft.to/lastmile_qr_scan", "android": "https://dc.lft.to/lastmile_qr_scan"}, "lat": 38.878957166666666, "lon": -77.02331866666667, "bike_id": "fb2251b274fbca3ff4bb26a0dad873ea", "fusion_lat": 0.0, "is_disabled": 0, "fusion_lon": 0.0}, {"name": "f08e44495009d00dd5f7fa8bdf371d04", "is_reserved": 0, "type": "electric_scooter", "rental_uris": {"ios": "https://dc.lft.to/lastmile_qr_scan", "android": "https://dc.lft.to/lastmile_qr_scan"}, "lat": 38.928019, "lon": -77.054142, "bike_id": "f08e44495009d00dd5f7fa8bdf371d04", "fusion_lat": 0.0, "is_disabled": 0, "fusion_lon": 0.0}, {"name": "334068ad7d3d2a896cc632cdad46beba", "is_reserved": 0, "type": "electric_scooter", "rental_uris": {"ios": "https://dc.lft.to/lastmile_qr_scan", "android": "https://dc.lft.to/lastmile_qr_scan"}, "lat": 38.94305766666667, "lon": -77.05927516666667, "bike_id": "334068ad7d3d2a896cc632cdad46beba", "fusion_lat": 0.0, "is_disabled": 0, "fusion_lon": 0.0}, {"name": "24ca3a687847393e713a99dd55b1d445", "is_reserved": 0, "type": "electric_scooter", "rental_uris": {"ios": "https://dc.lft.to/lastmile_qr_scan", "android": "https://dc.lft.to/lastmile_qr_scan"}, "lat": 38.863109333333334, "lon": -76.99143533333333, "bike_id": "24ca3a687847393e713a99dd55b1d445", "fusion_lat": 0.0, "is_disabled": 0, "fusion_lon": 0.0}, {"name": "b0e29054d16e336fe75d1956f1739a8d", "is_reserved": 0, "type": "electric_scooter", "rental_uris": {"ios": "https://dc.lft.to/lastmile_qr_scan", "android": "https://dc.lft.to/lastmile_qr_scan"}, "lat": 38.91851833333333, "lon": -77.031882, "bike_id": "b0e29054d16e336fe75d1956f1739a8d", "fusion_lat": 0.0, "is_disabled": 0, "fusion_lon": 0.0}, {"name": "4ac4b396a41c6ab19814dfc542ce01f6", "is_reserved": 0, "type": "electric_scooter", "rental_uris": {"ios": "https://dc.lft.to/lastmile_qr_scan", "android": "https://dc.lft.to/lastmile_qr_scan"}, "lat": 38.88654866666667, "lon": -77.0151795, "bike_id": "4ac4b396a41c6ab19814dfc542ce01f6", "fusion_lat": 0.0, "is_disabled": 0, "fusion_lon": 0.0}, {"name": "e791728b1f5d49a10555aed3e161a6a5", "is_reserved": 0, "type": "electric_scooter", "rental_uris": {"ios": "https://dc.lft.to/lastmile_qr_scan", "android": "https://dc.lft.to/lastmile_qr_scan"}, "lat": 38.914914333333336, "lon": -77.01717433333333, "bike_id": "e791728b1f5d49a10555aed3e161a6a5", "fusion_lat": 0.0, "is_disabled": 0, "fusion_lon": 0.0}, {"name": "a25d304b55c75f53518d415a9e214bea", "is_reserved": 0, "type": "electric_scooter", "rental_uris": {"ios": "https://dc.lft.to/lastmile_qr_scan", "android": "https://dc.lft.to/lastmile_qr_scan"}, "lat": 38.88035716666667, "lon": -77.00366483333333, "bike_id": "a25d304b55c75f53518d415a9e214bea", "fusion_lat": 0.0, "is_disabled": 0, "fusion_lon": 0.0}, {"name": "b489c5f321c2570c666cf6c8c31fd989", "is_reserved": 0, "type": "electric_scooter", "rental_uris": {"ios": "https://dc.lft.to/lastmile_qr_scan", "android": "https://dc.lft.to/lastmile_qr_scan"}, "lat": 38.8305255, "lon": -77.0125155, "bike_id": "b489c5f321c2570c666cf6c8c31fd989", "fusion_lat": 0.0, "is_disabled": 0, "fusion_lon": 0.0}, {"name": "d9c220490da19c95bd9219af3c553e63", "is_reserved": 0, "type": "electric_scooter", "rental_uris": {"ios": "https://dc.lft.to/lastmile_qr_scan", "android": "https://dc.lft.to/lastmile_qr_scan"}, "lat": 38.885361333333336, "lon": -76.99828333333333, "bike_id": "d9c220490da19c95bd9219af3c553e63", "fusion_lat": 0.0, "is_disabled": 0, "fusion_lon": 0.0}, {"name": "aadef44cf7fddcd9accf35916bae58a3", "is_reserved": 0, "type": "electric_scooter", "rental_uris": {"ios": "https://dc.lft.to/lastmile_qr_scan", "android": "https://dc.lft.to/lastmile_qr_scan"}, "lat": 38.92407866666667, "lon": -77.04488766666667, "bike_id": "aadef44cf7fddcd9accf35916bae58a3", "fusion_lat": 0.0, "is_disabled": 0, "fusion_lon": 0.0}, {"name": "4deb76a4130ef981900a7aad81ffe341", "is_reserved": 0, "type": "electric_scooter", "rental_uris": {"ios": "https://dc.lft.to/lastmile_qr_scan", "android": "https://dc.lft.to/lastmile_qr_scan"}, "lat": 38.906494333333335, "lon": -77.00596883333333, "bike_id": "4deb76a4130ef981900a7aad81ffe341", "fusion_lat": 0.0, "is_disabled": 0, "fusion_lon": 0.0}, {"name": "8f0b5c13fc4f7962e65ca6da71d55133", "is_reserved": 0, "type": "electric_scooter", "rental_uris": {"ios": "https://dc.lft.to/lastmile_qr_scan", "android": "https://dc.lft.to/lastmile_qr_scan"}, "lat": 38.9361455, "lon": -77.05589833333333, "bike_id": "8f0b5c13fc4f7962e65ca6da71d55133", "fusion_lat": 0.0, "is_disabled": 0, "fusion_lon": 0.0}, {"name": "8580340b9830756b76a9fd906fca6cd5", "is_reserved": 0, "type": "electric_scooter", "rental_uris": {"ios": "https://dc.lft.to/lastmile_qr_scan", "android": "https://dc.lft.to/lastmile_qr_scan"}, "lat": 38.92317416666667, "lon": -77.03524283333333, "bike_id": "8580340b9830756b76a9fd906fca6cd5", "fusion_lat": 0.0, "is_disabled": 0, "fusion_lon": 0.0}, {"name": "0940f892c0a7cc3413276a2ce30c9299", "is_reserved": 0, "type": "electric_scooter", "rental_uris": {"ios": "https://dc.lft.to/lastmile_qr_scan", "android": "https://dc.lft.to/lastmile_qr_scan"}, "lat": 38.93753366666667, "lon": -77.02488783333334, "bike_id": "0940f892c0a7cc3413276a2ce30c9299", "fusion_lat": 0.0, "is_disabled": 0, "fusion_lon": 0.0}, {"name": "c1fd5c80adfd31360b7f29710aeac91b", "is_reserved": 0, "type": "electric_scooter", "rental_uris": {"ios": "https://dc.lft.to/lastmile_qr_scan", "android": "https://dc.lft.to/lastmile_qr_scan"}, "lat": 38.90027533333333, "lon": -76.998444, "bike_id": "c1fd5c80adfd31360b7f29710aeac91b", "fusion_lat": 0.0, "is_disabled": 0, "fusion_lon": 0.0}, {"name": "dcbb549ea38738207c1e657a707f38b6", "is_reserved": 0, "type": "electric_scooter", "rental_uris": {"ios": "https://dc.lft.to/lastmile_qr_scan", "android": "https://dc.lft.to/lastmile_qr_scan"}, "lat": 38.938944, "lon": -77.03265066666667, "bike_id": "dcbb549ea38738207c1e657a707f38b6", "fusion_lat": 0.0, "is_disabled": 0, "fusion_lon": 0.0}, {"name": "48a4856f6bd109194baf154b62252a1a", "is_reserved": 0, "type": "electric_scooter", "rental_uris": {"ios": "https://dc.lft.to/lastmile_qr_scan", "android": "https://dc.lft.to/lastmile_qr_scan"}, "lat": 38.933912, "lon": -77.05743066666666, "bike_id": "48a4856f6bd109194baf154b62252a1a", "fusion_lat": 0.0, "is_disabled": 0, "fusion_lon": 0.0}, {"name": "2cc0b6ef3c45496f807b36f1ee27e90f", "is_reserved": 0, "type": "electric_scooter", "rental_uris": {"ios": "https://dc.lft.to/lastmile_qr_scan", "android": "https://dc.lft.to/lastmile_qr_scan"}, "lat": 38.900399166666666, "lon": -76.99646733333333, "bike_id": "2cc0b6ef3c45496f807b36f1ee27e90f", "fusion_lat": 0.0, "is_disabled": 0, "fusion_lon": 0.0}, {"name": "39cf59ce9c1377c5ea8b7af66b036313", "is_reserved": 0, "type": "electric_bike", "rental_uris": {"ios": "https://dc.lft.to/lastmile_qr_scan", "android": "https://dc.lft.to/lastmile_qr_scan"}, "lat": 38.936496166666664, "lon": -77.02069266666666, "bike_id": "39cf59ce9c1377c5ea8b7af66b036313", "fusion_lat": 0.0, "is_disabled": 0, "fusion_lon": 0.0}, {"name": "9ee4e6d8266415cde425624181cfa18f", "is_reserved": 0, "type": "electric_scooter", "rental_uris": {"ios": "https://dc.lft.to/lastmile_qr_scan", "android": "https://dc.lft.to/lastmile_qr_scan"}, "lat": 38.91765516666667, "lon": -77.01497283333333, "bike_id": "9ee4e6d8266415cde425624181cfa18f", "fusion_lat": 0.0, "is_disabled": 0, "fusion_lon": 0.0}, {"name": "17c0a7fde77590dffb8d376cf5835e10", "is_reserved": 0, "type": "electric_scooter", "rental_uris": {"ios": "https://dc.lft.to/lastmile_qr_scan", "android": "https://dc.lft.to/lastmile_qr_scan"}, "lat": 38.895525, "lon": -76.94878033333333, "bike_id": "17c0a7fde77590dffb8d376cf5835e10", "fusion_lat": 0.0, "is_disabled": 0, "fusion_lon": 0.0}, {"name": "8ec37bb50414727523b4193c5fefe0a8", "is_reserved": 0, "type": "electric_scooter", "rental_uris": {"ios": "https://dc.lft.to/lastmile_qr_scan", "android": "https://dc.lft.to/lastmile_qr_scan"}, "lat": 38.925476, "lon": -77.05290816666667, "bike_id": "8ec37bb50414727523b4193c5fefe0a8", "fusion_lat": 0.0, "is_disabled": 0, "fusion_lon": 0.0}, {"name": "16b283803475996b68b466ef4b8da0ff", "is_reserved": 0, "type": "electric_bike", "rental_uris": {"ios": "https://dc.lft.to/lastmile_qr_scan", "android": "https://dc.lft.to/lastmile_qr_scan"}, "lat": 38.97184983333333, "lon": -76.99379233333333, "bike_id": "16b283803475996b68b466ef4b8da0ff", "fusion_lat": 0.0, "is_disabled": 0, "fusion_lon": 0.0}, {"name": "a526f09fb73d7701bc6e67c5b8033934", "is_reserved": 0, "type": "electric_scooter", "rental_uris": {"ios": "https://dc.lft.to/lastmile_qr_scan", "android": "https://dc.lft.to/lastmile_qr_scan"}, "lat": 38.97369066666667, "lon": -77.018615, "bike_id": "a526f09fb73d7701bc6e67c5b8033934", "fusion_lat": 0.0, "is_disabled": 0, "fusion_lon": 0.0}, {"name": "5a861525fa0b810adfa43869208a7ef5", "is_reserved": 0, "type": "electric_scooter", "rental_uris": {"ios": "https://dc.lft.to/lastmile_qr_scan", "android": "https://dc.lft.to/lastmile_qr_scan"}, "lat": 38.89580333333333, "lon": -77.0321285, "bike_id": "5a861525fa0b810adfa43869208a7ef5", "fusion_lat": 0.0, "is_disabled": 0, "fusion_lon": 0.0}, {"name": "241ef7abcba921b09fd35d0bcc248ed9", "is_reserved": 0, "type": "electric_scooter", "rental_uris": {"ios": "https://dc.lft.to/lastmile_qr_scan", "android": "https://dc.lft.to/lastmile_qr_scan"}, "lat": 38.92550033333333, "lon": -77.03760616666666, "bike_id": "241ef7abcba921b09fd35d0bcc248ed9", "fusion_lat": 0.0, "is_disabled": 0, "fusion_lon": 0.0}, {"name": "5528ca7209b4492e40a0150ae1263122", "is_reserved": 0, "type": "electric_scooter", "rental_uris": {"ios": "https://dc.lft.to/lastmile_qr_scan", "android": "https://dc.lft.to/lastmile_qr_scan"}, "lat": 38.93298883333333, "lon": -77.02808483333334, "bike_id": "5528ca7209b4492e40a0150ae1263122", "fusion_lat": 0.0, "is_disabled": 0, "fusion_lon": 0.0}, {"name": "1b83ecfeb27bf7e9b3407650e020e0e4", "is_reserved": 0, "type": "electric_scooter", "rental_uris": {"ios": "https://dc.lft.to/lastmile_qr_scan", "android": "https://dc.lft.to/lastmile_qr_scan"}, "lat": 38.84794816666667, "lon": -76.96711733333333, "bike_id": "1b83ecfeb27bf7e9b3407650e020e0e4", "fusion_lat": 0.0, "is_disabled": 0, "fusion_lon": 0.0}, {"name": "48f52ebfc5cba513bc5770eedc4d4f34", "is_reserved": 0, "type": "electric_scooter", "rental_uris": {"ios": "https://dc.lft.to/lastmile_qr_scan", "android": "https://dc.lft.to/lastmile_qr_scan"}, "lat": 38.94186716666667, "lon": -77.02490483333334, "bike_id": "48f52ebfc5cba513bc5770eedc4d4f34", "fusion_lat": 0.0, "is_disabled": 0, "fusion_lon": 0.0}, {"name": "718594ea6b8d98befbaf927e6da36956", "is_reserved": 0, "type": "electric_scooter", "rental_uris": {"ios": "https://dc.lft.to/lastmile_qr_scan", "android": "https://dc.lft.to/lastmile_qr_scan"}, "lat": 38.92676216666667, "lon": -77.00778916666667, "bike_id": "718594ea6b8d98befbaf927e6da36956", "fusion_lat": 0.0, "is_disabled": 0, "fusion_lon": 0.0}, {"name": "0a5e247e2b0cacea527efcb303c7101d", "is_reserved": 0, "type": "electric_scooter", "rental_uris": {"ios": "https://dc.lft.to/lastmile_qr_scan", "android": "https://dc.lft.to/lastmile_qr_scan"}, "lat": 38.90543266666667, "lon": -77.022056, "bike_id": "0a5e247e2b0cacea527efcb303c7101d", "fusion_lat": 0.0, "is_disabled": 0, "fusion_lon": 0.0}, {"name": "0b42acdc270697737d380c04d1385f29", "is_reserved": 0, "type": "electric_bike", "rental_uris": {"ios": "https://dc.lft.to/lastmile_qr_scan", "android": "https://dc.lft.to/lastmile_qr_scan"}, "lat": 38.96620583333333, "lon": -76.9442375, "bike_id": "0b42acdc270697737d380c04d1385f29", "fusion_lat": 0.0, "is_disabled": 0, "fusion_lon": 0.0}, {"name": "96bf15d86b106b364ff52a14aadad80b", "is_reserved": 0, "type": "electric_scooter", "rental_uris": {"ios": "https://dc.lft.to/lastmile_qr_scan", "android": "https://dc.lft.to/lastmile_qr_scan"}, "lat": 38.902379, "lon": -77.0020405, "bike_id": "96bf15d86b106b364ff52a14aadad80b", "fusion_lat": 0.0, "is_disabled": 0, "fusion_lon": 0.0}, {"name": "83a13df0109aa1055906d32e29ab618d", "is_reserved": 0, "type": "electric_scooter", "rental_uris": {"ios": "https://dc.lft.to/lastmile_qr_scan", "android": "https://dc.lft.to/lastmile_qr_scan"}, "lat": 38.92881333333333, "lon": -77.03359566666667, "bike_id": "83a13df0109aa1055906d32e29ab618d", "fusion_lat": 0.0, "is_disabled": 0, "fusion_lon": 0.0}, {"name": "dba7dd504dc4408dc65793d3d584dff4", "is_reserved": 0, "type": "electric_bike", "rental_uris": {"ios": "https://dc.lft.to/lastmile_qr_scan", "android": "https://dc.lft.to/lastmile_qr_scan"}, "lat": 38.952023, "lon": -77.08137983333333, "bike_id": "dba7dd504dc4408dc65793d3d584dff4", "fusion_lat": 0.0, "is_disabled": 0, "fusion_lon": 0.0}, {"name": "e5598e92d2905e7ec804f108519765d8", "is_reserved": 0, "type": "electric_scooter", "rental_uris": {"ios": "https://dc.lft.to/lastmile_qr_scan", "android": "https://dc.lft.to/lastmile_qr_scan"}, "lat": 38.907157166666664, "lon": -77.05136633333333, "bike_id": "e5598e92d2905e7ec804f108519765d8", "fusion_lat": 0.0, "is_disabled": 0, "fusion_lon": 0.0}, {"name": "7017c47749ae6d4fb67b92ca5c8258b4", "is_reserved": 0, "type": "electric_bike", "rental_uris": {"ios": "https://dc.lft.to/lastmile_qr_scan", "android": "https://dc.lft.to/lastmile_qr_scan"}, "lat": 38.9012075, "lon": -77.05798083333333, "bike_id": "7017c47749ae6d4fb67b92ca5c8258b4", "fusion_lat": 0.0, "is_disabled": 0, "fusion_lon": 0.0}, {"name": "396d907b9e98410b7b223004eb819886", "is_reserved": 0, "type": "electric_scooter", "rental_uris": {"ios": "https://dc.lft.to/lastmile_qr_scan", "android": "https://dc.lft.to/lastmile_qr_scan"}, "lat": 38.9261175, "lon": -77.02166533333333, "bike_id": "396d907b9e98410b7b223004eb819886", "fusion_lat": 0.0, "is_disabled": 0, "fusion_lon": 0.0}, {"name": "ba92e43e1dbd75c087be0deed0b995d5", "is_reserved": 0, "type": "electric_scooter", "rental_uris": {"ios": "https://dc.lft.to/lastmile_qr_scan", "android": "https://dc.lft.to/lastmile_qr_scan"}, "lat": 38.866619166666666, "lon": -76.985126, "bike_id": "ba92e43e1dbd75c087be0deed0b995d5", "fusion_lat": 0.0, "is_disabled": 0, "fusion_lon": 0.0}, {"name": "52cd1931257e6aab9717090683d2384d", "is_reserved": 0, "type": "electric_bike", "rental_uris": {"ios": "https://dc.lft.to/lastmile_qr_scan", "android": "https://dc.lft.to/lastmile_qr_scan"}, "lat": 38.95545366666666, "lon": -76.9352635, "bike_id": "52cd1931257e6aab9717090683d2384d", "fusion_lat": 0.0, "is_disabled": 0, "fusion_lon": 0.0}, {"name": "96509ca3377e12c5c34e52e335517d43", "is_reserved": 0, "type": "electric_scooter", "rental_uris": {"ios": "https://dc.lft.to/lastmile_qr_scan", "android": "https://dc.lft.to/lastmile_qr_scan"}, "lat": 38.910335333333336, "lon": -76.98555916666666, "bike_id": "96509ca3377e12c5c34e52e335517d43", "fusion_lat": 0.0, "is_disabled": 0, "fusion_lon": 0.0}, {"name": "2894ee1d6c37c76c87719fd90043fe68", "is_reserved": 0, "type": "electric_scooter", "rental_uris": {"ios": "https://dc.lft.to/lastmile_qr_scan", "android": "https://dc.lft.to/lastmile_qr_scan"}, "lat": 38.9187225, "lon": -77.0448115, "bike_id": "2894ee1d6c37c76c87719fd90043fe68", "fusion_lat": 0.0, "is_disabled": 0, "fusion_lon": 0.0}, {"name": "2e3eb04a723319bee712b6a877d4d30f", "is_reserved": 0, "type": "electric_scooter", "rental_uris": {"ios": "https://dc.lft.to/lastmile_qr_scan", "android": "https://dc.lft.to/lastmile_qr_scan"}, "lat": 38.90234783333333, "lon": -77.032609, "bike_id": "2e3eb04a723319bee712b6a877d4d30f", "fusion_lat": 0.0, "is_disabled": 0, "fusion_lon": 0.0}, {"name": "3ace964ccae93f374de0ff83fc9481fb", "is_reserved": 0, "type": "electric_bike", "rental_uris": {"ios": "https://dc.lft.to/lastmile_qr_scan", "android": "https://dc.lft.to/lastmile_qr_scan"}, "lat": 38.8920015, "lon": -77.00197866666667, "bike_id": "3ace964ccae93f374de0ff83fc9481fb", "fusion_lat": 0.0, "is_disabled": 0, "fusion_lon": 0.0}, {"name": "bb2173daf2c5ade6cfaa8200614fec72", "is_reserved": 0, "type": "electric_scooter", "rental_uris": {"ios": "https://dc.lft.to/lastmile_qr_scan", "android": "https://dc.lft.to/lastmile_qr_scan"}, "lat": 38.90518183333333, "lon": -77.0636885, "bike_id": "bb2173daf2c5ade6cfaa8200614fec72", "fusion_lat": 0.0, "is_disabled": 0, "fusion_lon": 0.0}, {"name": "1aa16b0d56033f63c016c0f15b30186d", "is_reserved": 0, "type": "electric_scooter", "rental_uris": {"ios": "https://dc.lft.to/lastmile_qr_scan", "android": "https://dc.lft.to/lastmile_qr_scan"}, "lat": 38.905261333333335, "lon": -77.05153433333334, "bike_id": "1aa16b0d56033f63c016c0f15b30186d", "fusion_lat": 0.0, "is_disabled": 0, "fusion_lon": 0.0}, {"name": "9e28c12d5c4db700d3dfe5b8a74c183b", "is_reserved": 0, "type": "electric_bike", "rental_uris": {"ios": "https://dc.lft.to/lastmile_qr_scan", "android": "https://dc.lft.to/lastmile_qr_scan"}, "lat": 38.89002516666667, "lon": -77.04896266666667, "bike_id": "9e28c12d5c4db700d3dfe5b8a74c183b", "fusion_lat": 0.0, "is_disabled": 0, "fusion_lon": 0.0}, {"name": "088e2616def6292e8933d3540c8cd2ed", "is_reserved": 0, "type": "electric_scooter", "rental_uris": {"ios": "https://dc.lft.to/lastmile_qr_scan", "android": "https://dc.lft.to/lastmile_qr_scan"}, "lat": 38.898835166666665, "lon": -76.9319765, "bike_id": "088e2616def6292e8933d3540c8cd2ed", "fusion_lat": 0.0, "is_disabled": 0, "fusion_lon": 0.0}, {"name": "c6f1bbd7664e69f93d292640fcbe72b7", "is_reserved": 0, "type": "electric_scooter", "rental_uris": {"ios": "https://dc.lft.to/lastmile_qr_scan", "android": "https://dc.lft.to/lastmile_qr_scan"}, "lat": 38.917841333333335, "lon": -77.03213733333334, "bike_id": "c6f1bbd7664e69f93d292640fcbe72b7", "fusion_lat": 0.0, "is_disabled": 0, "fusion_lon": 0.0}, {"name": "26e7025e3edcee6b60882c835ac35d56", "is_reserved": 0, "type": "electric_scooter", "rental_uris": {"ios": "https://dc.lft.to/lastmile_qr_scan", "android": "https://dc.lft.to/lastmile_qr_scan"}, "lat": 38.94616216666667, "lon": -77.02349033333333, "bike_id": "26e7025e3edcee6b60882c835ac35d56", "fusion_lat": 0.0, "is_disabled": 0, "fusion_lon": 0.0}, {"name": "8d4328c36ac18fe0e3fc7b020aa0a581", "is_reserved": 0, "type": "electric_scooter", "rental_uris": {"ios": "https://dc.lft.to/lastmile_qr_scan", "android": "https://dc.lft.to/lastmile_qr_scan"}, "lat": 38.872462, "lon": -76.97722733333333, "bike_id": "8d4328c36ac18fe0e3fc7b020aa0a581", "fusion_lat": 0.0, "is_disabled": 0, "fusion_lon": 0.0}, {"name": "20246fd93f230d633d1519b0e2fd0f1f", "is_reserved": 0, "type": "electric_scooter", "rental_uris": {"ios": "https://dc.lft.to/lastmile_qr_scan", "android": "https://dc.lft.to/lastmile_qr_scan"}, "lat": 38.9215225, "lon": -77.02084233333333, "bike_id": "20246fd93f230d633d1519b0e2fd0f1f", "fusion_lat": 0.0, "is_disabled": 0, "fusion_lon": 0.0}, {"name": "d1a29412c923eac9f443a43a1e7999d1", "is_reserved": 0, "type": "electric_scooter", "rental_uris": {"ios": "https://dc.lft.to/lastmile_qr_scan", "android": "https://dc.lft.to/lastmile_qr_scan"}, "lat": 38.863605, "lon": -76.9905995, "bike_id": "d1a29412c923eac9f443a43a1e7999d1", "fusion_lat": 0.0, "is_disabled": 0, "fusion_lon": 0.0}, {"name": "9ed8120be0a7b67fce707018ab32b832", "is_reserved": 0, "type": "electric_scooter", "rental_uris": {"ios": "https://dc.lft.to/lastmile_qr_scan", "android": "https://dc.lft.to/lastmile_qr_scan"}, "lat": 38.92102083333333, "lon": -77.02418966666667, "bike_id": "9ed8120be0a7b67fce707018ab32b832", "fusion_lat": 0.0, "is_disabled": 0, "fusion_lon": 0.0}, {"name": "ee86b7b1c781b20896e0badf0607108b", "is_reserved": 0, "type": "electric_scooter", "rental_uris": {"ios": "https://dc.lft.to/lastmile_qr_scan", "android": "https://dc.lft.to/lastmile_qr_scan"}, "lat": 38.87660416666667, "lon": -77.00469166666667, "bike_id": "ee86b7b1c781b20896e0badf0607108b", "fusion_lat": 0.0, "is_disabled": 0, "fusion_lon": 0.0}, {"name": "c64bac96e4301f5be035641fbfa86ad5", "is_reserved": 0, "type": "electric_scooter", "rental_uris": {"ios": "https://dc.lft.to/lastmile_qr_scan", "android": "https://dc.lft.to/lastmile_qr_scan"}, "lat": 38.94697, "lon": -76.999195, "bike_id": "c64bac96e4301f5be035641fbfa86ad5", "fusion_lat": 0.0, "is_disabled": 0, "fusion_lon": 0.0}, {"name": "06ffdc337021ad1a76bfa222253d2343", "is_reserved": 0, "type": "electric_scooter", "rental_uris": {"ios": "https://dc.lft.to/lastmile_qr_scan", "android": "https://dc.lft.to/lastmile_qr_scan"}, "lat": 38.93086516666666, "lon": -77.02793583333333, "bike_id": "06ffdc337021ad1a76bfa222253d2343", "fusion_lat": 0.0, "is_disabled": 0, "fusion_lon": 0.0}, {"name": "0431200a7096632a9a96644f888461f5", "is_reserved": 0, "type": "electric_scooter", "rental_uris": {"ios": "https://dc.lft.to/lastmile_qr_scan", "android": "https://dc.lft.to/lastmile_qr_scan"}, "lat": 38.92181866666667, "lon": -77.0443665, "bike_id": "0431200a7096632a9a96644f888461f5", "fusion_lat": 0.0, "is_disabled": 0, "fusion_lon": 0.0}, {"name": "847c887c7ff65ecdffb20ed2aa1c02c7", "is_reserved": 0, "type": "electric_scooter", "rental_uris": {"ios": "https://dc.lft.to/lastmile_qr_scan", "android": "https://dc.lft.to/lastmile_qr_scan"}, "lat": 38.9156005, "lon": -77.031779, "bike_id": "847c887c7ff65ecdffb20ed2aa1c02c7", "fusion_lat": 0.0, "is_disabled": 0, "fusion_lon": 0.0}, {"name": "17d33dd966f4b1d7b89f652315cbe148", "is_reserved": 0, "type": "electric_bike", "rental_uris": {"ios": "https://dc.lft.to/lastmile_qr_scan", "android": "https://dc.lft.to/lastmile_qr_scan"}, "lat": 38.917891166666664, "lon": -76.971888, "bike_id": "17d33dd966f4b1d7b89f652315cbe148", "fusion_lat": 0.0, "is_disabled": 0, "fusion_lon": 0.0}, {"name": "4af0a67e4b18be15cc4c4585d836116d", "is_reserved": 0, "type": "electric_scooter", "rental_uris": {"ios": "https://dc.lft.to/lastmile_qr_scan", "android": "https://dc.lft.to/lastmile_qr_scan"}, "lat": 38.9246355, "lon": -76.99914816666667, "bike_id": "4af0a67e4b18be15cc4c4585d836116d", "fusion_lat": 0.0, "is_disabled": 0, "fusion_lon": 0.0}, {"name": "9033806b01cd22793294916d5b741962", "is_reserved": 0, "type": "electric_scooter", "rental_uris": {"ios": "https://dc.lft.to/lastmile_qr_scan", "android": "https://dc.lft.to/lastmile_qr_scan"}, "lat": 38.90376216666667, "lon": -77.05154066666667, "bike_id": "9033806b01cd22793294916d5b741962", "fusion_lat": 0.0, "is_disabled": 0, "fusion_lon": 0.0}, {"name": "b5e261b2e6f85cb4239f180ba217325c", "is_reserved": 0, "type": "electric_scooter", "rental_uris": {"ios": "https://dc.lft.to/lastmile_qr_scan", "android": "https://dc.lft.to/lastmile_qr_scan"}, "lat": 38.9290985, "lon": -77.07412833333333, "bike_id": "b5e261b2e6f85cb4239f180ba217325c", "fusion_lat": 0.0, "is_disabled": 0, "fusion_lon": 0.0}, {"name": "6bd40401709bee5390b3cd8270b8553a", "is_reserved": 0, "type": "electric_scooter", "rental_uris": {"ios": "https://dc.lft.to/lastmile_qr_scan", "android": "https://dc.lft.to/lastmile_qr_scan"}, "lat": 38.88109333333333, "lon": -77.042955, "bike_id": "6bd40401709bee5390b3cd8270b8553a", "fusion_lat": 0.0, "is_disabled": 0, "fusion_lon": 0.0}, {"name": "46db1cabc5f81a164f24cff1f12f0abd", "is_reserved": 0, "type": "electric_bike", "rental_uris": {"ios": "https://dc.lft.to/lastmile_qr_scan", "android": "https://dc.lft.to/lastmile_qr_scan"}, "lat": 38.86173766666667, "lon": -77.1314625, "bike_id": "46db1cabc5f81a164f24cff1f12f0abd", "fusion_lat": 0.0, "is_disabled": 0, "fusion_lon": 0.0}, {"name": "02bc12ba88df851cef173d3052c0abc3", "is_reserved": 0, "type": "electric_scooter", "rental_uris": {"ios": "https://dc.lft.to/lastmile_qr_scan", "android": "https://dc.lft.to/lastmile_qr_scan"}, "lat": 38.92321033333333, "lon": -77.02137766666667, "bike_id": "02bc12ba88df851cef173d3052c0abc3", "fusion_lat": 0.0, "is_disabled": 0, "fusion_lon": 0.0}, {"name": "5b74210c1e00638355aca0b328b4e45a", "is_reserved": 0, "type": "electric_scooter", "rental_uris": {"ios": "https://dc.lft.to/lastmile_qr_scan", "android": "https://dc.lft.to/lastmile_qr_scan"}, "lat": 38.90307, "lon": -77.0518725, "bike_id": "5b74210c1e00638355aca0b328b4e45a", "fusion_lat": 0.0, "is_disabled": 0, "fusion_lon": 0.0}, {"name": "610c14021e3808744c96c10a74d2f1d3", "is_reserved": 0, "type": "electric_scooter", "rental_uris": {"ios": "https://dc.lft.to/lastmile_qr_scan", "android": "https://dc.lft.to/lastmile_qr_scan"}, "lat": 38.89481983333334, "lon": -77.03128566666666, "bike_id": "610c14021e3808744c96c10a74d2f1d3", "fusion_lat": 0.0, "is_disabled": 0, "fusion_lon": 0.0}, {"name": "e013747e9f102b152d665bc860805724", "is_reserved": 0, "type": "electric_scooter", "rental_uris": {"ios": "https://dc.lft.to/lastmile_qr_scan", "android": "https://dc.lft.to/lastmile_qr_scan"}, "lat": 38.903747833333334, "lon": -77.05140366666667, "bike_id": "e013747e9f102b152d665bc860805724", "fusion_lat": 0.0, "is_disabled": 0, "fusion_lon": 0.0}, {"name": "fafa8a98d2bfe9d01f2e7c2025bebf14", "is_reserved": 0, "type": "electric_scooter", "rental_uris": {"ios": "https://dc.lft.to/lastmile_qr_scan", "android": "https://dc.lft.to/lastmile_qr_scan"}, "lat": 38.925495, "lon": -77.0330745, "bike_id": "fafa8a98d2bfe9d01f2e7c2025bebf14", "fusion_lat": 0.0, "is_disabled": 0, "fusion_lon": 0.0}, {"name": "ad5184c0fb97dc35bd673b9f79b1f3d9", "is_reserved": 0, "type": "electric_scooter", "rental_uris": {"ios": "https://dc.lft.to/lastmile_qr_scan", "android": "https://dc.lft.to/lastmile_qr_scan"}, "lat": 38.93657233333333, "lon": -77.05506333333334, "bike_id": "ad5184c0fb97dc35bd673b9f79b1f3d9", "fusion_lat": 0.0, "is_disabled": 0, "fusion_lon": 0.0}, {"name": "f3629010c9a87f97a6b326c5b7d5c584", "is_reserved": 0, "type": "electric_scooter", "rental_uris": {"ios": "https://dc.lft.to/lastmile_qr_scan", "android": "https://dc.lft.to/lastmile_qr_scan"}, "lat": 38.900193333333334, "lon": -76.99452433333333, "bike_id": "f3629010c9a87f97a6b326c5b7d5c584", "fusion_lat": 0.0, "is_disabled": 0, "fusion_lon": 0.0}, {"name": "413c379f38d2b0db8c2749dcc2b1017c", "is_reserved": 0, "type": "electric_scooter", "rental_uris": {"ios": "https://dc.lft.to/lastmile_qr_scan", "android": "https://dc.lft.to/lastmile_qr_scan"}, "lat": 38.9019185, "lon": -76.97945583333333, "bike_id": "413c379f38d2b0db8c2749dcc2b1017c", "fusion_lat": 0.0, "is_disabled": 0, "fusion_lon": 0.0}, {"name": "8b5ba45560556e152ce71e9a7461c1b8", "is_reserved": 0, "type": "electric_scooter", "rental_uris": {"ios": "https://dc.lft.to/lastmile_qr_scan", "android": "https://dc.lft.to/lastmile_qr_scan"}, "lat": 38.90765066666667, "lon": -77.05956716666667, "bike_id": "8b5ba45560556e152ce71e9a7461c1b8", "fusion_lat": 0.0, "is_disabled": 0, "fusion_lon": 0.0}, {"name": "8425cb5961065dbd6d075974fe22a19d", "is_reserved": 0, "type": "electric_scooter", "rental_uris": {"ios": "https://dc.lft.to/lastmile_qr_scan", "android": "https://dc.lft.to/lastmile_qr_scan"}, "lat": 38.89367583333333, "lon": -77.0280185, "bike_id": "8425cb5961065dbd6d075974fe22a19d", "fusion_lat": 0.0, "is_disabled": 0, "fusion_lon": 0.0}, {"name": "2bc3200df8b06e8fd77efb638a212531", "is_reserved": 0, "type": "electric_scooter", "rental_uris": {"ios": "https://dc.lft.to/lastmile_qr_scan", "android": "https://dc.lft.to/lastmile_qr_scan"}, "lat": 38.92471966666667, "lon": -77.0271315, "bike_id": "2bc3200df8b06e8fd77efb638a212531", "fusion_lat": 0.0, "is_disabled": 0, "fusion_lon": 0.0}, {"name": "67411d2c55e70233cf52563b768bcacb", "is_reserved": 0, "type": "electric_scooter", "rental_uris": {"ios": "https://dc.lft.to/lastmile_qr_scan", "android": "https://dc.lft.to/lastmile_qr_scan"}, "lat": 38.909683333333334, "lon": -77.0216375, "bike_id": "67411d2c55e70233cf52563b768bcacb", "fusion_lat": 0.0, "is_disabled": 0, "fusion_lon": 0.0}, {"name": "979f3aa6545d426130e387224e38c077", "is_reserved": 0, "type": "electric_scooter", "rental_uris": {"ios": "https://dc.lft.to/lastmile_qr_scan", "android": "https://dc.lft.to/lastmile_qr_scan"}, "lat": 38.91872816666667, "lon": -77.04479983333333, "bike_id": "979f3aa6545d426130e387224e38c077", "fusion_lat": 0.0, "is_disabled": 0, "fusion_lon": 0.0}, {"name": "94355b52dc2f7aa3b5a6ffd8e963f6ad", "is_reserved": 0, "type": "electric_scooter", "rental_uris": {"ios": "https://dc.lft.to/lastmile_qr_scan", "android": "https://dc.lft.to/lastmile_qr_scan"}, "lat": 38.896878666666666, "lon": -77.00493716666666, "bike_id": "94355b52dc2f7aa3b5a6ffd8e963f6ad", "fusion_lat": 0.0, "is_disabled": 0, "fusion_lon": 0.0}, {"name": "90b27fafe5e1cc4ad1a15794b2d3f2a1", "is_reserved": 0, "type": "electric_scooter", "rental_uris": {"ios": "https://dc.lft.to/lastmile_qr_scan", "android": "https://dc.lft.to/lastmile_qr_scan"}, "lat": 38.896824, "lon": -76.93609683333334, "bike_id": "90b27fafe5e1cc4ad1a15794b2d3f2a1", "fusion_lat": 0.0, "is_disabled": 0, "fusion_lon": 0.0}, {"name": "1ef43dc67d828284f0dc73d857c95291", "is_reserved": 0, "type": "electric_scooter", "rental_uris": {"ios": "https://dc.lft.to/lastmile_qr_scan", "android": "https://dc.lft.to/lastmile_qr_scan"}, "lat": 38.8768485, "lon": -77.01764766666666, "bike_id": "1ef43dc67d828284f0dc73d857c95291", "fusion_lat": 0.0, "is_disabled": 0, "fusion_lon": 0.0}, {"name": "a5362eba951a82b3f6fbcb1e8f838e62", "is_reserved": 0, "type": "electric_bike", "rental_uris": {"ios": "https://dc.lft.to/lastmile_qr_scan", "android": "https://dc.lft.to/lastmile_qr_scan"}, "lat": 38.855268, "lon": -77.1202595, "bike_id": "a5362eba951a82b3f6fbcb1e8f838e62", "fusion_lat": 0.0, "is_disabled": 0, "fusion_lon": 0.0}, {"name": "dd5255ae3aa128a6019e2571e446b325", "is_reserved": 0, "type": "electric_scooter", "rental_uris": {"ios": "https://dc.lft.to/lastmile_qr_scan", "android": "https://dc.lft.to/lastmile_qr_scan"}, "lat": 38.896706333333334, "lon": -77.03351633333334, "bike_id": "dd5255ae3aa128a6019e2571e446b325", "fusion_lat": 0.0, "is_disabled": 0, "fusion_lon": 0.0}, {"name": "6b724a9c2764d0870c312cb86b115c8b", "is_reserved": 0, "type": "electric_scooter", "rental_uris": {"ios": "https://dc.lft.to/lastmile_qr_scan", "android": "https://dc.lft.to/lastmile_qr_scan"}, "lat": 38.90053616666667, "lon": -77.0022435, "bike_id": "6b724a9c2764d0870c312cb86b115c8b", "fusion_lat": 0.0, "is_disabled": 0, "fusion_lon": 0.0}, {"name": "8151211dafc8846784f08d15bf7e6a22", "is_reserved": 0, "type": "electric_scooter", "rental_uris": {"ios": "https://dc.lft.to/lastmile_qr_scan", "android": "https://dc.lft.to/lastmile_qr_scan"}, "lat": 38.9139275, "lon": -77.0189955, "bike_id": "8151211dafc8846784f08d15bf7e6a22", "fusion_lat": 0.0, "is_disabled": 0, "fusion_lon": 0.0}, {"name": "13d87f0e4b7b95395d2bec80d96188e1", "is_reserved": 0, "type": "electric_scooter", "rental_uris": {"ios": "https://dc.lft.to/lastmile_qr_scan", "android": "https://dc.lft.to/lastmile_qr_scan"}, "lat": 38.906541833333335, "lon": -77.0425245, "bike_id": "13d87f0e4b7b95395d2bec80d96188e1", "fusion_lat": 0.0, "is_disabled": 0, "fusion_lon": 0.0}, {"name": "26a06fe20831ea809d363ad2d5d0c3f1", "is_reserved": 0, "type": "electric_scooter", "rental_uris": {"ios": "https://dc.lft.to/lastmile_qr_scan", "android": "https://dc.lft.to/lastmile_qr_scan"}, "lat": 38.917049666666664, "lon": -77.03476033333334, "bike_id": "26a06fe20831ea809d363ad2d5d0c3f1", "fusion_lat": 0.0, "is_disabled": 0, "fusion_lon": 0.0}, {"name": "fc9a9535ab9d932b3f36be22dd9a1fc7", "is_reserved": 0, "type": "electric_scooter", "rental_uris": {"ios": "https://dc.lft.to/lastmile_qr_scan", "android": "https://dc.lft.to/lastmile_qr_scan"}, "lat": 38.91636716666667, "lon": -77.03188433333334, "bike_id": "fc9a9535ab9d932b3f36be22dd9a1fc7", "fusion_lat": 0.0, "is_disabled": 0, "fusion_lon": 0.0}, {"name": "67b3652789a288e0d80ac99bb46d27be", "is_reserved": 0, "type": "electric_scooter", "rental_uris": {"ios": "https://dc.lft.to/lastmile_qr_scan", "android": "https://dc.lft.to/lastmile_qr_scan"}, "lat": 38.930073, "lon": -77.03231416666667, "bike_id": "67b3652789a288e0d80ac99bb46d27be", "fusion_lat": 0.0, "is_disabled": 0, "fusion_lon": 0.0}, {"name": "9bc7a3e10f80de5f0c87697a51dd61e9", "is_reserved": 0, "type": "electric_scooter", "rental_uris": {"ios": "https://dc.lft.to/lastmile_qr_scan", "android": "https://dc.lft.to/lastmile_qr_scan"}, "lat": 38.903876833333335, "lon": -77.039522, "bike_id": "9bc7a3e10f80de5f0c87697a51dd61e9", "fusion_lat": 0.0, "is_disabled": 0, "fusion_lon": 0.0}, {"name": "bfec74f10b2a54e04ac44004933df622", "is_reserved": 0, "type": "electric_scooter", "rental_uris": {"ios": "https://dc.lft.to/lastmile_qr_scan", "android": "https://dc.lft.to/lastmile_qr_scan"}, "lat": 38.912264, "lon": -77.031927, "bike_id": "bfec74f10b2a54e04ac44004933df622", "fusion_lat": 0.0, "is_disabled": 0, "fusion_lon": 0.0}, {"name": "cfa074b88c9636169ed9245e20aca9c8", "is_reserved": 0, "type": "electric_scooter", "rental_uris": {"ios": "https://dc.lft.to/lastmile_qr_scan", "android": "https://dc.lft.to/lastmile_qr_scan"}, "lat": 38.901581666666665, "lon": -77.04674016666667, "bike_id": "cfa074b88c9636169ed9245e20aca9c8", "fusion_lat": 0.0, "is_disabled": 0, "fusion_lon": 0.0}, {"name": "daac320d47f1ffffefd3c90cf8868a95", "is_reserved": 0, "type": "electric_scooter", "rental_uris": {"ios": "https://dc.lft.to/lastmile_qr_scan", "android": "https://dc.lft.to/lastmile_qr_scan"}, "lat": 38.91711033333333, "lon": -77.040769, "bike_id": "daac320d47f1ffffefd3c90cf8868a95", "fusion_lat": 0.0, "is_disabled": 0, "fusion_lon": 0.0}, {"name": "0a7fe601640f1024a0f2effa970e1aed", "is_reserved": 0, "type": "electric_scooter", "rental_uris": {"ios": "https://dc.lft.to/lastmile_qr_scan", "android": "https://dc.lft.to/lastmile_qr_scan"}, "lat": 38.903410666666666, "lon": -77.02899833333333, "bike_id": "0a7fe601640f1024a0f2effa970e1aed", "fusion_lat": 0.0, "is_disabled": 0, "fusion_lon": 0.0}, {"name": "1e3c4aed1232bba9cb036c884849e4f4", "is_reserved": 0, "type": "electric_scooter", "rental_uris": {"ios": "https://dc.lft.to/lastmile_qr_scan", "android": "https://dc.lft.to/lastmile_qr_scan"}, "lat": 38.93272366666667, "lon": -77.03488083333333, "bike_id": "1e3c4aed1232bba9cb036c884849e4f4", "fusion_lat": 0.0, "is_disabled": 0, "fusion_lon": 0.0}, {"name": "aace92652af1d158426f316728578f97", "is_reserved": 0, "type": "electric_scooter", "rental_uris": {"ios": "https://dc.lft.to/lastmile_qr_scan", "android": "https://dc.lft.to/lastmile_qr_scan"}, "lat": 38.923516, "lon": -77.05430666666666, "bike_id": "aace92652af1d158426f316728578f97", "fusion_lat": 0.0, "is_disabled": 0, "fusion_lon": 0.0}, {"name": "f8a0398abff950f1f402fcb934ef210c", "is_reserved": 0, "type": "electric_scooter", "rental_uris": {"ios": "https://dc.lft.to/lastmile_qr_scan", "android": "https://dc.lft.to/lastmile_qr_scan"}, "lat": 38.924069833333334, "lon": -77.02743333333333, "bike_id": "f8a0398abff950f1f402fcb934ef210c", "fusion_lat": 0.0, "is_disabled": 0, "fusion_lon": 0.0}, {"name": "255efa22208376376c191c983128676f", "is_reserved": 0, "type": "electric_scooter", "rental_uris": {"ios": "https://dc.lft.to/lastmile_qr_scan", "android": "https://dc.lft.to/lastmile_qr_scan"}, "lat": 38.9308365, "lon": -77.02796283333333, "bike_id": "255efa22208376376c191c983128676f", "fusion_lat": 0.0, "is_disabled": 0, "fusion_lon": 0.0}, {"name": "3b74e2f9bc659ae54a61ee0925a2f9be", "is_reserved": 0, "type": "electric_scooter", "rental_uris": {"ios": "https://dc.lft.to/lastmile_qr_scan", "android": "https://dc.lft.to/lastmile_qr_scan"}, "lat": 38.9480585, "lon": -77.079088, "bike_id": "3b74e2f9bc659ae54a61ee0925a2f9be", "fusion_lat": 0.0, "is_disabled": 0, "fusion_lon": 0.0}, {"name": "f3cc72e7ed1f92f31442576e2f42d228", "is_reserved": 0, "type": "electric_scooter", "rental_uris": {"ios": "https://dc.lft.to/lastmile_qr_scan", "android": "https://dc.lft.to/lastmile_qr_scan"}, "lat": 38.90370266666667, "lon": -77.03440666666667, "bike_id": "f3cc72e7ed1f92f31442576e2f42d228", "fusion_lat": 0.0, "is_disabled": 0, "fusion_lon": 0.0}, {"name": "55edd587724d15f0c161a713d9ab8ba4", "is_reserved": 0, "type": "electric_scooter", "rental_uris": {"ios": "https://dc.lft.to/lastmile_qr_scan", "android": "https://dc.lft.to/lastmile_qr_scan"}, "lat": 38.95248616666667, "lon": -77.00701766666667, "bike_id": "55edd587724d15f0c161a713d9ab8ba4", "fusion_lat": 0.0, "is_disabled": 0, "fusion_lon": 0.0}, {"name": "f4e0aaf551883083fca3f3d2b80e500d", "is_reserved": 0, "type": "electric_scooter", "rental_uris": {"ios": "https://dc.lft.to/lastmile_qr_scan", "android": "https://dc.lft.to/lastmile_qr_scan"}, "lat": 38.90136566666666, "lon": -77.03316333333333, "bike_id": "f4e0aaf551883083fca3f3d2b80e500d", "fusion_lat": 0.0, "is_disabled": 0, "fusion_lon": 0.0}, {"name": "ae9e95d9a09faa4c8f6338edd4c0111a", "is_reserved": 0, "type": "electric_scooter", "rental_uris": {"ios": "https://dc.lft.to/lastmile_qr_scan", "android": "https://dc.lft.to/lastmile_qr_scan"}, "lat": 38.915583, "lon": -77.02175033333333, "bike_id": "ae9e95d9a09faa4c8f6338edd4c0111a", "fusion_lat": 0.0, "is_disabled": 0, "fusion_lon": 0.0}, {"name": "6d3edff0f81fbd8f3c86f2ac5cdee77d", "is_reserved": 0, "type": "electric_scooter", "rental_uris": {"ios": "https://dc.lft.to/lastmile_qr_scan", "android": "https://dc.lft.to/lastmile_qr_scan"}, "lat": 38.927264666666666, "lon": -77.036696, "bike_id": "6d3edff0f81fbd8f3c86f2ac5cdee77d", "fusion_lat": 0.0, "is_disabled": 0, "fusion_lon": 0.0}, {"name": "cd5d992716ef02d645176f7fe0901e05", "is_reserved": 0, "type": "electric_scooter", "rental_uris": {"ios": "https://dc.lft.to/lastmile_qr_scan", "android": "https://dc.lft.to/lastmile_qr_scan"}, "lat": 38.924617166666664, "lon": -77.02715766666667, "bike_id": "cd5d992716ef02d645176f7fe0901e05", "fusion_lat": 0.0, "is_disabled": 0, "fusion_lon": 0.0}, {"name": "f14861c3e20c1491f9bbe78869745866", "is_reserved": 0, "type": "electric_bike", "rental_uris": {"ios": "https://dc.lft.to/lastmile_qr_scan", "android": "https://dc.lft.to/lastmile_qr_scan"}, "lat": 38.937583833333335, "lon": -76.99036266666667, "bike_id": "f14861c3e20c1491f9bbe78869745866", "fusion_lat": 0.0, "is_disabled": 0, "fusion_lon": 0.0}, {"name": "c262aa3338f4217bab5e467ffc7e623e", "is_reserved": 0, "type": "electric_scooter", "rental_uris": {"ios": "https://dc.lft.to/lastmile_qr_scan", "android": "https://dc.lft.to/lastmile_qr_scan"}, "lat": 38.892348166666665, "lon": -77.01518383333334, "bike_id": "c262aa3338f4217bab5e467ffc7e623e", "fusion_lat": 0.0, "is_disabled": 0, "fusion_lon": 0.0}, {"name": "e75417a254d7b16fb1caca1d6d654acb", "is_reserved": 0, "type": "electric_scooter", "rental_uris": {"ios": "https://dc.lft.to/lastmile_qr_scan", "android": "https://dc.lft.to/lastmile_qr_scan"}, "lat": 38.928551, "lon": -77.0139755, "bike_id": "e75417a254d7b16fb1caca1d6d654acb", "fusion_lat": 0.0, "is_disabled": 0, "fusion_lon": 0.0}, {"name": "b469045f6260074e2008ffb7fab808da", "is_reserved": 0, "type": "electric_scooter", "rental_uris": {"ios": "https://dc.lft.to/lastmile_qr_scan", "android": "https://dc.lft.to/lastmile_qr_scan"}, "lat": 38.885939666666665, "lon": -77.01766733333334, "bike_id": "b469045f6260074e2008ffb7fab808da", "fusion_lat": 0.0, "is_disabled": 0, "fusion_lon": 0.0}, {"name": "b855fa5da21fbc4183e07e6772b85b64", "is_reserved": 0, "type": "electric_scooter", "rental_uris": {"ios": "https://dc.lft.to/lastmile_qr_scan", "android": "https://dc.lft.to/lastmile_qr_scan"}, "lat": 38.92153283333333, "lon": -77.03485216666667, "bike_id": "b855fa5da21fbc4183e07e6772b85b64", "fusion_lat": 0.0, "is_disabled": 0, "fusion_lon": 0.0}, {"name": "36809f44c10b1d85ac86ee63f293809f", "is_reserved": 0, "type": "electric_scooter", "rental_uris": {"ios": "https://dc.lft.to/lastmile_qr_scan", "android": "https://dc.lft.to/lastmile_qr_scan"}, "lat": 38.90422983333333, "lon": -77.031071, "bike_id": "36809f44c10b1d85ac86ee63f293809f", "fusion_lat": 0.0, "is_disabled": 0, "fusion_lon": 0.0}, {"name": "a0934b875c6886d5bcddd2924ce391c4", "is_reserved": 0, "type": "electric_scooter", "rental_uris": {"ios": "https://dc.lft.to/lastmile_qr_scan", "android": "https://dc.lft.to/lastmile_qr_scan"}, "lat": 38.90371833333333, "lon": -77.06596716666667, "bike_id": "a0934b875c6886d5bcddd2924ce391c4", "fusion_lat": 0.0, "is_disabled": 0, "fusion_lon": 0.0}, {"name": "a5740e00b5ed620f478d9037221c12f5", "is_reserved": 0, "type": "electric_bike", "rental_uris": {"ios": "https://dc.lft.to/lastmile_qr_scan", "android": "https://dc.lft.to/lastmile_qr_scan"}, "lat": 38.965385, "lon": -77.03428433333333, "bike_id": "a5740e00b5ed620f478d9037221c12f5", "fusion_lat": 0.0, "is_disabled": 0, "fusion_lon": 0.0}, {"name": "723e664da8c24c744a815c2434007ff7", "is_reserved": 0, "type": "electric_scooter", "rental_uris": {"ios": "https://dc.lft.to/lastmile_qr_scan", "android": "https://dc.lft.to/lastmile_qr_scan"}, "lat": 38.9482575, "lon": -76.999063, "bike_id": "723e664da8c24c744a815c2434007ff7", "fusion_lat": 0.0, "is_disabled": 0, "fusion_lon": 0.0}, {"name": "61122546085a011ca41e1b75f848d56f", "is_reserved": 0, "type": "electric_scooter", "rental_uris": {"ios": "https://dc.lft.to/lastmile_qr_scan", "android": "https://dc.lft.to/lastmile_qr_scan"}, "lat": 38.9232215, "lon": -77.03666383333334, "bike_id": "61122546085a011ca41e1b75f848d56f", "fusion_lat": 0.0, "is_disabled": 0, "fusion_lon": 0.0}, {"name": "6ed321cb28192c60773df75e235eeda2", "is_reserved": 0, "type": "electric_scooter", "rental_uris": {"ios": "https://dc.lft.to/lastmile_qr_scan", "android": "https://dc.lft.to/lastmile_qr_scan"}, "lat": 38.91564833333333, "lon": -77.01170633333334, "bike_id": "6ed321cb28192c60773df75e235eeda2", "fusion_lat": 0.0, "is_disabled": 0, "fusion_lon": 0.0}, {"name": "fa16b97b96fdad34262ce9de3f91ec7f", "is_reserved": 0, "type": "electric_scooter", "rental_uris": {"ios": "https://dc.lft.to/lastmile_qr_scan", "android": "https://dc.lft.to/lastmile_qr_scan"}, "lat": 38.9131705, "lon": -77.033341, "bike_id": "fa16b97b96fdad34262ce9de3f91ec7f", "fusion_lat": 0.0, "is_disabled": 0, "fusion_lon": 0.0}, {"name": "1bbe344c7b7f004bd384e7759a14770f", "is_reserved": 0, "type": "electric_scooter", "rental_uris": {"ios": "https://dc.lft.to/lastmile_qr_scan", "android": "https://dc.lft.to/lastmile_qr_scan"}, "lat": 38.88642633333333, "lon": -76.95476433333333, "bike_id": "1bbe344c7b7f004bd384e7759a14770f", "fusion_lat": 0.0, "is_disabled": 0, "fusion_lon": 0.0}, {"name": "3495b5c15dea76d4bef1464ab9e7f32f", "is_reserved": 0, "type": "electric_scooter", "rental_uris": {"ios": "https://dc.lft.to/lastmile_qr_scan", "android": "https://dc.lft.to/lastmile_qr_scan"}, "lat": 38.8998425, "lon": -76.93992033333333, "bike_id": "3495b5c15dea76d4bef1464ab9e7f32f", "fusion_lat": 0.0, "is_disabled": 0, "fusion_lon": 0.0}, {"name": "4b5d5591373a5e6031a3c2c83e04a740", "is_reserved": 0, "type": "electric_scooter", "rental_uris": {"ios": "https://dc.lft.to/lastmile_qr_scan", "android": "https://dc.lft.to/lastmile_qr_scan"}, "lat": 38.9023775, "lon": -77.00198616666667, "bike_id": "4b5d5591373a5e6031a3c2c83e04a740", "fusion_lat": 0.0, "is_disabled": 0, "fusion_lon": 0.0}, {"name": "363f2b1b2904155f13399f160a2e9a33", "is_reserved": 0, "type": "electric_scooter", "rental_uris": {"ios": "https://dc.lft.to/lastmile_qr_scan", "android": "https://dc.lft.to/lastmile_qr_scan"}, "lat": 38.86732516666667, "lon": -76.986596, "bike_id": "363f2b1b2904155f13399f160a2e9a33", "fusion_lat": 0.0, "is_disabled": 0, "fusion_lon": 0.0}, {"name": "068a4173721d397f71ff5f64f73e9c8f", "is_reserved": 0, "type": "electric_scooter", "rental_uris": {"ios": "https://dc.lft.to/lastmile_qr_scan", "android": "https://dc.lft.to/lastmile_qr_scan"}, "lat": 38.923221833333336, "lon": -77.03914033333334, "bike_id": "068a4173721d397f71ff5f64f73e9c8f", "fusion_lat": 0.0, "is_disabled": 0, "fusion_lon": 0.0}, {"name": "972edf2b58187a00165af7e74914da97", "is_reserved": 0, "type": "electric_scooter", "rental_uris": {"ios": "https://dc.lft.to/lastmile_qr_scan", "android": "https://dc.lft.to/lastmile_qr_scan"}, "lat": 38.8588395, "lon": -76.99008383333333, "bike_id": "972edf2b58187a00165af7e74914da97", "fusion_lat": 0.0, "is_disabled": 0, "fusion_lon": 0.0}, {"name": "59ba8476eab28ceffb9e12106459ba2f", "is_reserved": 0, "type": "electric_bike", "rental_uris": {"ios": "https://dc.lft.to/lastmile_qr_scan", "android": "https://dc.lft.to/lastmile_qr_scan"}, "lat": 38.8908285, "lon": -77.1832035, "bike_id": "59ba8476eab28ceffb9e12106459ba2f", "fusion_lat": 0.0, "is_disabled": 0, "fusion_lon": 0.0}, {"name": "3a8cd6eb990cb46439d922c780734ca6", "is_reserved": 0, "type": "electric_scooter", "rental_uris": {"ios": "https://dc.lft.to/lastmile_qr_scan", "android": "https://dc.lft.to/lastmile_qr_scan"}, "lat": 38.91769333333333, "lon": -77.03171666666667, "bike_id": "3a8cd6eb990cb46439d922c780734ca6", "fusion_lat": 0.0, "is_disabled": 0, "fusion_lon": 0.0}, {"name": "7c7dedf373dbe979e8def52e882e9e19", "is_reserved": 0, "type": "electric_scooter", "rental_uris": {"ios": "https://dc.lft.to/lastmile_qr_scan", "android": "https://dc.lft.to/lastmile_qr_scan"}, "lat": 38.91915, "lon": -77.0316865, "bike_id": "7c7dedf373dbe979e8def52e882e9e19", "fusion_lat": 0.0, "is_disabled": 0, "fusion_lon": 0.0}, {"name": "b4f84ab170ad97fbfd9772500810da5a", "is_reserved": 0, "type": "electric_scooter", "rental_uris": {"ios": "https://dc.lft.to/lastmile_qr_scan", "android": "https://dc.lft.to/lastmile_qr_scan"}, "lat": 38.91418933333333, "lon": -77.01807333333333, "bike_id": "b4f84ab170ad97fbfd9772500810da5a", "fusion_lat": 0.0, "is_disabled": 0, "fusion_lon": 0.0}, {"name": "c877621f5dc8f9e15f58eb92589c4dd1", "is_reserved": 0, "type": "electric_scooter", "rental_uris": {"ios": "https://dc.lft.to/lastmile_qr_scan", "android": "https://dc.lft.to/lastmile_qr_scan"}, "lat": 38.908729666666666, "lon": -77.06399316666666, "bike_id": "c877621f5dc8f9e15f58eb92589c4dd1", "fusion_lat": 0.0, "is_disabled": 0, "fusion_lon": 0.0}, {"name": "dcc05d220b564a75745a130bb899a0bf", "is_reserved": 0, "type": "electric_scooter", "rental_uris": {"ios": "https://dc.lft.to/lastmile_qr_scan", "android": "https://dc.lft.to/lastmile_qr_scan"}, "lat": 38.928220833333334, "lon": -77.02878533333333, "bike_id": "dcc05d220b564a75745a130bb899a0bf", "fusion_lat": 0.0, "is_disabled": 0, "fusion_lon": 0.0}, {"name": "0e22c50bf7c4a4b335a1df92a71fad96", "is_reserved": 0, "type": "electric_scooter", "rental_uris": {"ios": "https://dc.lft.to/lastmile_qr_scan", "android": "https://dc.lft.to/lastmile_qr_scan"}, "lat": 38.89847866666667, "lon": -77.03275, "bike_id": "0e22c50bf7c4a4b335a1df92a71fad96", "fusion_lat": 0.0, "is_disabled": 0, "fusion_lon": 0.0}, {"name": "fa9a4fcdca464a5dfc966ae378898892", "is_reserved": 0, "type": "electric_scooter", "rental_uris": {"ios": "https://dc.lft.to/lastmile_qr_scan", "android": "https://dc.lft.to/lastmile_qr_scan"}, "lat": 38.896137333333336, "lon": -77.00923616666667, "bike_id": "fa9a4fcdca464a5dfc966ae378898892", "fusion_lat": 0.0, "is_disabled": 0, "fusion_lon": 0.0}, {"name": "7f866b86c4b4e4a8e3db79f859d353b0", "is_reserved": 0, "type": "electric_scooter", "rental_uris": {"ios": "https://dc.lft.to/lastmile_qr_scan", "android": "https://dc.lft.to/lastmile_qr_scan"}, "lat": 38.9273315, "lon": -77.0368845, "bike_id": "7f866b86c4b4e4a8e3db79f859d353b0", "fusion_lat": 0.0, "is_disabled": 0, "fusion_lon": 0.0}, {"name": "4cef15b881ba30040fb1fa5efeb7e3f8", "is_reserved": 0, "type": "electric_bike", "rental_uris": {"ios": "https://dc.lft.to/lastmile_qr_scan", "android": "https://dc.lft.to/lastmile_qr_scan"}, "lat": 38.9994675, "lon": -77.03166533333334, "bike_id": "4cef15b881ba30040fb1fa5efeb7e3f8", "fusion_lat": 0.0, "is_disabled": 0, "fusion_lon": 0.0}, {"name": "edb03ddaa0f945b3b7595ce0ec50bf55", "is_reserved": 0, "type": "electric_scooter", "rental_uris": {"ios": "https://dc.lft.to/lastmile_qr_scan", "android": "https://dc.lft.to/lastmile_qr_scan"}, "lat": 38.90155083333333, "lon": -77.02603216666667, "bike_id": "edb03ddaa0f945b3b7595ce0ec50bf55", "fusion_lat": 0.0, "is_disabled": 0, "fusion_lon": 0.0}, {"name": "48dabe8585808ec0465028f431c16b38", "is_reserved": 0, "type": "electric_scooter", "rental_uris": {"ios": "https://dc.lft.to/lastmile_qr_scan", "android": "https://dc.lft.to/lastmile_qr_scan"}, "lat": 38.899834166666665, "lon": -77.03176966666666, "bike_id": "48dabe8585808ec0465028f431c16b38", "fusion_lat": 0.0, "is_disabled": 0, "fusion_lon": 0.0}, {"name": "a752c12f363464fe771f419846c2f20c", "is_reserved": 0, "type": "electric_scooter", "rental_uris": {"ios": "https://dc.lft.to/lastmile_qr_scan", "android": "https://dc.lft.to/lastmile_qr_scan"}, "lat": 38.862625333333334, "lon": -76.99549766666667, "bike_id": "a752c12f363464fe771f419846c2f20c", "fusion_lat": 0.0, "is_disabled": 0, "fusion_lon": 0.0}, {"name": "992b05b5b744a05d2f1bcd0b1c09b79a", "is_reserved": 0, "type": "electric_scooter", "rental_uris": {"ios": "https://dc.lft.to/lastmile_qr_scan", "android": "https://dc.lft.to/lastmile_qr_scan"}, "lat": 38.923299, "lon": -77.04322333333333, "bike_id": "992b05b5b744a05d2f1bcd0b1c09b79a", "fusion_lat": 0.0, "is_disabled": 0, "fusion_lon": 0.0}, {"name": "30c48192260426a15cd4cfeedd176753", "is_reserved": 0, "type": "electric_scooter", "rental_uris": {"ios": "https://dc.lft.to/lastmile_qr_scan", "android": "https://dc.lft.to/lastmile_qr_scan"}, "lat": 38.91443116666667, "lon": -77.02191983333333, "bike_id": "30c48192260426a15cd4cfeedd176753", "fusion_lat": 0.0, "is_disabled": 0, "fusion_lon": 0.0}, {"name": "831444494a886b8b860fbf470d7a8872", "is_reserved": 0, "type": "electric_scooter", "rental_uris": {"ios": "https://dc.lft.to/lastmile_qr_scan", "android": "https://dc.lft.to/lastmile_qr_scan"}, "lat": 38.844369, "lon": -76.99814166666667, "bike_id": "831444494a886b8b860fbf470d7a8872", "fusion_lat": 0.0, "is_disabled": 0, "fusion_lon": 0.0}, {"name": "5524d35e57c6d4912f383b1d4df83a44", "is_reserved": 0, "type": "electric_bike", "rental_uris": {"ios": "https://dc.lft.to/lastmile_qr_scan", "android": "https://dc.lft.to/lastmile_qr_scan"}, "lat": 38.862515, "lon": -77.0865855, "bike_id": "5524d35e57c6d4912f383b1d4df83a44", "fusion_lat": 0.0, "is_disabled": 0, "fusion_lon": 0.0}, {"name": "21bba4d894c71df868c205871696b001", "is_reserved": 0, "type": "electric_scooter", "rental_uris": {"ios": "https://dc.lft.to/lastmile_qr_scan", "android": "https://dc.lft.to/lastmile_qr_scan"}, "lat": 38.9167515, "lon": -77.02288333333334, "bike_id": "21bba4d894c71df868c205871696b001", "fusion_lat": 0.0, "is_disabled": 0, "fusion_lon": 0.0}, {"name": "49edfcb315beff09c9940123b0188691", "is_reserved": 0, "type": "electric_scooter", "rental_uris": {"ios": "https://dc.lft.to/lastmile_qr_scan", "android": "https://dc.lft.to/lastmile_qr_scan"}, "lat": 38.8832285, "lon": -77.01763616666666, "bike_id": "49edfcb315beff09c9940123b0188691", "fusion_lat": 0.0, "is_disabled": 0, "fusion_lon": 0.0}, {"name": "9fde3dee4e11e09bc52cb7e3e85e76de", "is_reserved": 0, "type": "electric_scooter", "rental_uris": {"ios": "https://dc.lft.to/lastmile_qr_scan", "android": "https://dc.lft.to/lastmile_qr_scan"}, "lat": 38.884208, "lon": -77.03050916666666, "bike_id": "9fde3dee4e11e09bc52cb7e3e85e76de", "fusion_lat": 0.0, "is_disabled": 0, "fusion_lon": 0.0}, {"name": "f6e08768c4498724fd51851c2a83611e", "is_reserved": 0, "type": "electric_scooter", "rental_uris": {"ios": "https://dc.lft.to/lastmile_qr_scan", "android": "https://dc.lft.to/lastmile_qr_scan"}, "lat": 38.92160766666667, "lon": -77.04696066666666, "bike_id": "f6e08768c4498724fd51851c2a83611e", "fusion_lat": 0.0, "is_disabled": 0, "fusion_lon": 0.0}, {"name": "26d4cd6e3bf528e6dbd8ca5ac8a0723d", "is_reserved": 0, "type": "electric_bike", "rental_uris": {"ios": "https://dc.lft.to/lastmile_qr_scan", "android": "https://dc.lft.to/lastmile_qr_scan"}, "lat": 38.96627133333333, "lon": -76.99465416666666, "bike_id": "26d4cd6e3bf528e6dbd8ca5ac8a0723d", "fusion_lat": 0.0, "is_disabled": 0, "fusion_lon": 0.0}, {"name": "a616c087294d86a754abe0ca1cef4131", "is_reserved": 0, "type": "electric_scooter", "rental_uris": {"ios": "https://dc.lft.to/lastmile_qr_scan", "android": "https://dc.lft.to/lastmile_qr_scan"}, "lat": 38.915634, "lon": -77.01170816666666, "bike_id": "a616c087294d86a754abe0ca1cef4131", "fusion_lat": 0.0, "is_disabled": 0, "fusion_lon": 0.0}, {"name": "1c88248e22b88eb2d33becf4b3c027d6", "is_reserved": 0, "type": "electric_scooter", "rental_uris": {"ios": "https://dc.lft.to/lastmile_qr_scan", "android": "https://dc.lft.to/lastmile_qr_scan"}, "lat": 38.897341833333336, "lon": -77.00374083333334, "bike_id": "1c88248e22b88eb2d33becf4b3c027d6", "fusion_lat": 0.0, "is_disabled": 0, "fusion_lon": 0.0}, {"name": "961ccf9559687ef4d519c25e11d067b9", "is_reserved": 0, "type": "electric_scooter", "rental_uris": {"ios": "https://dc.lft.to/lastmile_qr_scan", "android": "https://dc.lft.to/lastmile_qr_scan"}, "lat": 38.912688333333335, "lon": -77.03917783333333, "bike_id": "961ccf9559687ef4d519c25e11d067b9", "fusion_lat": 0.0, "is_disabled": 0, "fusion_lon": 0.0}, {"name": "5a98248bdf1844dd5e983d64dfd9d66f", "is_reserved": 0, "type": "electric_scooter", "rental_uris": {"ios": "https://dc.lft.to/lastmile_qr_scan", "android": "https://dc.lft.to/lastmile_qr_scan"}, "lat": 38.911795, "lon": -77.038695, "bike_id": "5a98248bdf1844dd5e983d64dfd9d66f", "fusion_lat": 0.0, "is_disabled": 0, "fusion_lon": 0.0}, {"name": "af90282538b6118d73d020c3af930952", "is_reserved": 0, "type": "electric_scooter", "rental_uris": {"ios": "https://dc.lft.to/lastmile_qr_scan", "android": "https://dc.lft.to/lastmile_qr_scan"}, "lat": 38.8907775, "lon": -76.98822583333333, "bike_id": "af90282538b6118d73d020c3af930952", "fusion_lat": 0.0, "is_disabled": 0, "fusion_lon": 0.0}, {"name": "9ac3cdf0068bed6945c102706f95dc8d", "is_reserved": 0, "type": "electric_scooter", "rental_uris": {"ios": "https://dc.lft.to/lastmile_qr_scan", "android": "https://dc.lft.to/lastmile_qr_scan"}, "lat": 38.8568855, "lon": -76.99596316666667, "bike_id": "9ac3cdf0068bed6945c102706f95dc8d", "fusion_lat": 0.0, "is_disabled": 0, "fusion_lon": 0.0}, {"name": "3f4a794fd934e5369f94c4bc8ab31970", "is_reserved": 0, "type": "electric_scooter", "rental_uris": {"ios": "https://dc.lft.to/lastmile_qr_scan", "android": "https://dc.lft.to/lastmile_qr_scan"}, "lat": 38.919512833333336, "lon": -77.07981466666666, "bike_id": "3f4a794fd934e5369f94c4bc8ab31970", "fusion_lat": 0.0, "is_disabled": 0, "fusion_lon": 0.0}, {"name": "999a67ec3dd12b5f6702e9ed8da6d713", "is_reserved": 0, "type": "electric_scooter", "rental_uris": {"ios": "https://dc.lft.to/lastmile_qr_scan", "android": "https://dc.lft.to/lastmile_qr_scan"}, "lat": 38.8965145, "lon": -77.00914983333334, "bike_id": "999a67ec3dd12b5f6702e9ed8da6d713", "fusion_lat": 0.0, "is_disabled": 0, "fusion_lon": 0.0}, {"name": "4aade8a3e9562622e9cf592a4da69698", "is_reserved": 0, "type": "electric_scooter", "rental_uris": {"ios": "https://dc.lft.to/lastmile_qr_scan", "android": "https://dc.lft.to/lastmile_qr_scan"}, "lat": 38.917991, "lon": -77.03202466666667, "bike_id": "4aade8a3e9562622e9cf592a4da69698", "fusion_lat": 0.0, "is_disabled": 0, "fusion_lon": 0.0}, {"name": "e3c589c75efd0e9f50c28d0e482d8979", "is_reserved": 0, "type": "electric_scooter", "rental_uris": {"ios": "https://dc.lft.to/lastmile_qr_scan", "android": "https://dc.lft.to/lastmile_qr_scan"}, "lat": 38.930961, "lon": -77.03816083333334, "bike_id": "e3c589c75efd0e9f50c28d0e482d8979", "fusion_lat": 0.0, "is_disabled": 0, "fusion_lon": 0.0}, {"name": "fe74aa21af2df1f54b895aa4314e884a", "is_reserved": 0, "type": "electric_scooter", "rental_uris": {"ios": "https://dc.lft.to/lastmile_qr_scan", "android": "https://dc.lft.to/lastmile_qr_scan"}, "lat": 38.902224333333336, "lon": -77.016952, "bike_id": "fe74aa21af2df1f54b895aa4314e884a", "fusion_lat": 0.0, "is_disabled": 0, "fusion_lon": 0.0}, {"name": "505240312d4e1b32dc431662c04ccd49", "is_reserved": 0, "type": "electric_scooter", "rental_uris": {"ios": "https://dc.lft.to/lastmile_qr_scan", "android": "https://dc.lft.to/lastmile_qr_scan"}, "lat": 38.94803366666667, "lon": -77.0788885, "bike_id": "505240312d4e1b32dc431662c04ccd49", "fusion_lat": 0.0, "is_disabled": 0, "fusion_lon": 0.0}, {"name": "b102c3a4db583c9abd7f47ab535a302b", "is_reserved": 0, "type": "electric_scooter", "rental_uris": {"ios": "https://dc.lft.to/lastmile_qr_scan", "android": "https://dc.lft.to/lastmile_qr_scan"}, "lat": 38.907726333333336, "lon": -77.00178916666667, "bike_id": "b102c3a4db583c9abd7f47ab535a302b", "fusion_lat": 0.0, "is_disabled": 0, "fusion_lon": 0.0}, {"name": "d89e170867d9b0c91f2ff5b760083377", "is_reserved": 0, "type": "electric_scooter", "rental_uris": {"ios": "https://dc.lft.to/lastmile_qr_scan", "android": "https://dc.lft.to/lastmile_qr_scan"}, "lat": 38.88709933333333, "lon": -77.01362216666666, "bike_id": "d89e170867d9b0c91f2ff5b760083377", "fusion_lat": 0.0, "is_disabled": 0, "fusion_lon": 0.0}, {"name": "35f2e531b2fbfdd9b9e5250a2cf70233", "is_reserved": 0, "type": "electric_scooter", "rental_uris": {"ios": "https://dc.lft.to/lastmile_qr_scan", "android": "https://dc.lft.to/lastmile_qr_scan"}, "lat": 38.922726833333336, "lon": -77.01981416666666, "bike_id": "35f2e531b2fbfdd9b9e5250a2cf70233", "fusion_lat": 0.0, "is_disabled": 0, "fusion_lon": 0.0}, {"name": "94801fd15c95e1f29a4dd96e90427f96", "is_reserved": 0, "type": "electric_scooter", "rental_uris": {"ios": "https://dc.lft.to/lastmile_qr_scan", "android": "https://dc.lft.to/lastmile_qr_scan"}, "lat": 38.91488366666667, "lon": -77.02555416666667, "bike_id": "94801fd15c95e1f29a4dd96e90427f96", "fusion_lat": 0.0, "is_disabled": 0, "fusion_lon": 0.0}, {"name": "7948e5af23bc8787b0256616b880ba5a", "is_reserved": 0, "type": "electric_scooter", "rental_uris": {"ios": "https://dc.lft.to/lastmile_qr_scan", "android": "https://dc.lft.to/lastmile_qr_scan"}, "lat": 38.900316833333335, "lon": -76.9984445, "bike_id": "7948e5af23bc8787b0256616b880ba5a", "fusion_lat": 0.0, "is_disabled": 0, "fusion_lon": 0.0}, {"name": "4deb7fa24168da33c89cf337eba97002", "is_reserved": 0, "type": "electric_scooter", "rental_uris": {"ios": "https://dc.lft.to/lastmile_qr_scan", "android": "https://dc.lft.to/lastmile_qr_scan"}, "lat": 38.91812983333333, "lon": -77.040029, "bike_id": "4deb7fa24168da33c89cf337eba97002", "fusion_lat": 0.0, "is_disabled": 0, "fusion_lon": 0.0}, {"name": "b8cd949bf35f3f7c58d1490a0d2d055e", "is_reserved": 0, "type": "electric_scooter", "rental_uris": {"ios": "https://dc.lft.to/lastmile_qr_scan", "android": "https://dc.lft.to/lastmile_qr_scan"}, "lat": 38.9737145, "lon": -77.01854783333333, "bike_id": "b8cd949bf35f3f7c58d1490a0d2d055e", "fusion_lat": 0.0, "is_disabled": 0, "fusion_lon": 0.0}, {"name": "3f5c9fb587b7ba9a82bd3b66371b0884", "is_reserved": 0, "type": "electric_bike", "rental_uris": {"ios": "https://dc.lft.to/lastmile_qr_scan", "android": "https://dc.lft.to/lastmile_qr_scan"}, "lat": 38.9294105, "lon": -77.0377695, "bike_id": "3f5c9fb587b7ba9a82bd3b66371b0884", "fusion_lat": 0.0, "is_disabled": 0, "fusion_lon": 0.0}, {"name": "7e01b168774276461489c91992c6666b", "is_reserved": 0, "type": "electric_bike", "rental_uris": {"ios": "https://dc.lft.to/lastmile_qr_scan", "android": "https://dc.lft.to/lastmile_qr_scan"}, "lat": 38.928676, "lon": -77.03242466666667, "bike_id": "7e01b168774276461489c91992c6666b", "fusion_lat": 0.0, "is_disabled": 0, "fusion_lon": 0.0}, {"name": "22e528ec34caa584a342d89e00ed4d74", "is_reserved": 0, "type": "electric_scooter", "rental_uris": {"ios": "https://dc.lft.to/lastmile_qr_scan", "android": "https://dc.lft.to/lastmile_qr_scan"}, "lat": 38.916611, "lon": -77.04387133333333, "bike_id": "22e528ec34caa584a342d89e00ed4d74", "fusion_lat": 0.0, "is_disabled": 0, "fusion_lon": 0.0}, {"name": "6adfed532561790a452cdd7c94165fa2", "is_reserved": 0, "type": "electric_scooter", "rental_uris": {"ios": "https://dc.lft.to/lastmile_qr_scan", "android": "https://dc.lft.to/lastmile_qr_scan"}, "lat": 38.9205305, "lon": -77.0334985, "bike_id": "6adfed532561790a452cdd7c94165fa2", "fusion_lat": 0.0, "is_disabled": 0, "fusion_lon": 0.0}, {"name": "1c683c0cdc0f773eb5482ef7814c81c7", "is_reserved": 0, "type": "electric_scooter", "rental_uris": {"ios": "https://dc.lft.to/lastmile_qr_scan", "android": "https://dc.lft.to/lastmile_qr_scan"}, "lat": 38.90389866666666, "lon": -77.0318955, "bike_id": "1c683c0cdc0f773eb5482ef7814c81c7", "fusion_lat": 0.0, "is_disabled": 0, "fusion_lon": 0.0}, {"name": "12aaf88949f2c0550914b6b288ddf898", "is_reserved": 0, "type": "electric_scooter", "rental_uris": {"ios": "https://dc.lft.to/lastmile_qr_scan", "android": "https://dc.lft.to/lastmile_qr_scan"}, "lat": 38.890522833333335, "lon": -76.9375535, "bike_id": "12aaf88949f2c0550914b6b288ddf898", "fusion_lat": 0.0, "is_disabled": 0, "fusion_lon": 0.0}, {"name": "400b8d96de87444a7848b38d93a23d6f", "is_reserved": 0, "type": "electric_bike", "rental_uris": {"ios": "https://dc.lft.to/lastmile_qr_scan", "android": "https://dc.lft.to/lastmile_qr_scan"}, "lat": 38.954868, "lon": -76.98861133333334, "bike_id": "400b8d96de87444a7848b38d93a23d6f", "fusion_lat": 0.0, "is_disabled": 0, "fusion_lon": 0.0}, {"name": "2c2049b3d60130e781241c79347dc012", "is_reserved": 0, "type": "electric_scooter", "rental_uris": {"ios": "https://dc.lft.to/lastmile_qr_scan", "android": "https://dc.lft.to/lastmile_qr_scan"}, "lat": 38.87143533333333, "lon": -76.993357, "bike_id": "2c2049b3d60130e781241c79347dc012", "fusion_lat": 0.0, "is_disabled": 0, "fusion_lon": 0.0}, {"name": "801d752c0c6268e7cef9040a9697d22f", "is_reserved": 0, "type": "electric_scooter", "rental_uris": {"ios": "https://dc.lft.to/lastmile_qr_scan", "android": "https://dc.lft.to/lastmile_qr_scan"}, "lat": 38.8837605, "lon": -76.9951915, "bike_id": "801d752c0c6268e7cef9040a9697d22f", "fusion_lat": 0.0, "is_disabled": 0, "fusion_lon": 0.0}, {"name": "beb78bc14d535255c56cebb013fe7c0f", "is_reserved": 0, "type": "electric_scooter", "rental_uris": {"ios": "https://dc.lft.to/lastmile_qr_scan", "android": "https://dc.lft.to/lastmile_qr_scan"}, "lat": 38.935645, "lon": -77.05819516666666, "bike_id": "beb78bc14d535255c56cebb013fe7c0f", "fusion_lat": 0.0, "is_disabled": 0, "fusion_lon": 0.0}, {"name": "f506a7207dc76b4216c1dd9519612896", "is_reserved": 0, "type": "electric_bike", "rental_uris": {"ios": "https://dc.lft.to/lastmile_qr_scan", "android": "https://dc.lft.to/lastmile_qr_scan"}, "lat": 38.8701285, "lon": -76.96021983333333, "bike_id": "f506a7207dc76b4216c1dd9519612896", "fusion_lat": 0.0, "is_disabled": 0, "fusion_lon": 0.0}, {"name": "d5c88b2d68e41b808800b7e3942212d2", "is_reserved": 0, "type": "electric_bike", "rental_uris": {"ios": "https://dc.lft.to/lastmile_qr_scan", "android": "https://dc.lft.to/lastmile_qr_scan"}, "lat": 38.94266483333333, "lon": -77.02840833333333, "bike_id": "d5c88b2d68e41b808800b7e3942212d2", "fusion_lat": 0.0, "is_disabled": 0, "fusion_lon": 0.0}, {"name": "84428dde54b669d989ebd12c67ff17ee", "is_reserved": 0, "type": "electric_bike", "rental_uris": {"ios": "https://dc.lft.to/lastmile_qr_scan", "android": "https://dc.lft.to/lastmile_qr_scan"}, "lat": 38.884093666666665, "lon": -76.96061016666667, "bike_id": "84428dde54b669d989ebd12c67ff17ee", "fusion_lat": 0.0, "is_disabled": 0, "fusion_lon": 0.0}, {"name": "b4aeabfbb3202d7ed8ddc340b1758e93", "is_reserved": 0, "type": "electric_scooter", "rental_uris": {"ios": "https://dc.lft.to/lastmile_qr_scan", "android": "https://dc.lft.to/lastmile_qr_scan"}, "lat": 38.92697416666667, "lon": -77.020922, "bike_id": "b4aeabfbb3202d7ed8ddc340b1758e93", "fusion_lat": 0.0, "is_disabled": 0, "fusion_lon": 0.0}, {"name": "601efd4f588a898bc1895f7f12386b9e", "is_reserved": 0, "type": "electric_scooter", "rental_uris": {"ios": "https://dc.lft.to/lastmile_qr_scan", "android": "https://dc.lft.to/lastmile_qr_scan"}, "lat": 38.93520133333333, "lon": -77.0726365, "bike_id": "601efd4f588a898bc1895f7f12386b9e", "fusion_lat": 0.0, "is_disabled": 0, "fusion_lon": 0.0}, {"name": "c9490024523c0511274bc8d73960f40b", "is_reserved": 0, "type": "electric_scooter", "rental_uris": {"ios": "https://dc.lft.to/lastmile_qr_scan", "android": "https://dc.lft.to/lastmile_qr_scan"}, "lat": 38.898872, "lon": -77.03158066666667, "bike_id": "c9490024523c0511274bc8d73960f40b", "fusion_lat": 0.0, "is_disabled": 0, "fusion_lon": 0.0}, {"name": "8a0461e7d46933867e952585dcbcb127", "is_reserved": 0, "type": "electric_scooter", "rental_uris": {"ios": "https://dc.lft.to/lastmile_qr_scan", "android": "https://dc.lft.to/lastmile_qr_scan"}, "lat": 38.86359566666667, "lon": -76.99066433333333, "bike_id": "8a0461e7d46933867e952585dcbcb127", "fusion_lat": 0.0, "is_disabled": 0, "fusion_lon": 0.0}, {"name": "e72bd62238336379f2885391bb1bbc50", "is_reserved": 0, "type": "electric_bike", "rental_uris": {"ios": "https://dc.lft.to/lastmile_qr_scan", "android": "https://dc.lft.to/lastmile_qr_scan"}, "lat": 38.854190833333334, "lon": -77.12080866666666, "bike_id": "e72bd62238336379f2885391bb1bbc50", "fusion_lat": 0.0, "is_disabled": 0, "fusion_lon": 0.0}, {"name": "a0bf33bc894c2060f35c11c8f54cb669", "is_reserved": 0, "type": "electric_scooter", "rental_uris": {"ios": "https://dc.lft.to/lastmile_qr_scan", "android": "https://dc.lft.to/lastmile_qr_scan"}, "lat": 38.915539833333334, "lon": -77.0317115, "bike_id": "a0bf33bc894c2060f35c11c8f54cb669", "fusion_lat": 0.0, "is_disabled": 0, "fusion_lon": 0.0}, {"name": "90cef7a66789739462fae0f5c65d14da", "is_reserved": 0, "type": "electric_bike", "rental_uris": {"ios": "https://dc.lft.to/lastmile_qr_scan", "android": "https://dc.lft.to/lastmile_qr_scan"}, "lat": 38.8443185, "lon": -77.08582733333333, "bike_id": "90cef7a66789739462fae0f5c65d14da", "fusion_lat": 0.0, "is_disabled": 0, "fusion_lon": 0.0}, {"name": "e1061f6736861651a77e79859ace152c", "is_reserved": 0, "type": "electric_bike", "rental_uris": {"ios": "https://dc.lft.to/lastmile_qr_scan", "android": "https://dc.lft.to/lastmile_qr_scan"}, "lat": 38.895019166666664, "lon": -76.92199933333333, "bike_id": "e1061f6736861651a77e79859ace152c", "fusion_lat": 0.0, "is_disabled": 0, "fusion_lon": 0.0}, {"name": "70f434ab845cba446190d30f5fcf9eba", "is_reserved": 0, "type": "electric_scooter", "rental_uris": {"ios": "https://dc.lft.to/lastmile_qr_scan", "android": "https://dc.lft.to/lastmile_qr_scan"}, "lat": 38.902859166666666, "lon": -76.990373, "bike_id": "70f434ab845cba446190d30f5fcf9eba", "fusion_lat": 0.0, "is_disabled": 0, "fusion_lon": 0.0}, {"name": "24f83398112b5c343f397a86cd584193", "is_reserved": 0, "type": "electric_scooter", "rental_uris": {"ios": "https://dc.lft.to/lastmile_qr_scan", "android": "https://dc.lft.to/lastmile_qr_scan"}, "lat": 38.944254666666666, "lon": -77.063333, "bike_id": "24f83398112b5c343f397a86cd584193", "fusion_lat": 0.0, "is_disabled": 0, "fusion_lon": 0.0}, {"name": "84727d50f34b8abd028fb25d3fd07a35", "is_reserved": 0, "type": "electric_scooter", "rental_uris": {"ios": "https://dc.lft.to/lastmile_qr_scan", "android": "https://dc.lft.to/lastmile_qr_scan"}, "lat": 38.91183316666667, "lon": -77.0388275, "bike_id": "84727d50f34b8abd028fb25d3fd07a35", "fusion_lat": 0.0, "is_disabled": 0, "fusion_lon": 0.0}, {"name": "f25a3d65c22842a52839fd949587b9c9", "is_reserved": 0, "type": "electric_bike", "rental_uris": {"ios": "https://dc.lft.to/lastmile_qr_scan", "android": "https://dc.lft.to/lastmile_qr_scan"}, "lat": 38.88049083333333, "lon": -76.98632016666667, "bike_id": "f25a3d65c22842a52839fd949587b9c9", "fusion_lat": 0.0, "is_disabled": 0, "fusion_lon": 0.0}, {"name": "7212214479b1d36ccb91dfc770171c9c", "is_reserved": 0, "type": "electric_scooter", "rental_uris": {"ios": "https://dc.lft.to/lastmile_qr_scan", "android": "https://dc.lft.to/lastmile_qr_scan"}, "lat": 38.9003025, "lon": -77.011629, "bike_id": "7212214479b1d36ccb91dfc770171c9c", "fusion_lat": 0.0, "is_disabled": 0, "fusion_lon": 0.0}, {"name": "3b3f7f343ae8bf244c850fd325cb3671", "is_reserved": 0, "type": "electric_scooter", "rental_uris": {"ios": "https://dc.lft.to/lastmile_qr_scan", "android": "https://dc.lft.to/lastmile_qr_scan"}, "lat": 38.94421416666667, "lon": -77.06330833333334, "bike_id": "3b3f7f343ae8bf244c850fd325cb3671", "fusion_lat": 0.0, "is_disabled": 0, "fusion_lon": 0.0}, {"name": "b1a35b07b7bfbb3c641e056b5897f4c8", "is_reserved": 0, "type": "electric_scooter", "rental_uris": {"ios": "https://dc.lft.to/lastmile_qr_scan", "android": "https://dc.lft.to/lastmile_qr_scan"}, "lat": 38.906610666666666, "lon": -77.02707333333333, "bike_id": "b1a35b07b7bfbb3c641e056b5897f4c8", "fusion_lat": 0.0, "is_disabled": 0, "fusion_lon": 0.0}, {"name": "ae3dc0f8d51a680c80d34aa2a06db409", "is_reserved": 0, "type": "electric_scooter", "rental_uris": {"ios": "https://dc.lft.to/lastmile_qr_scan", "android": "https://dc.lft.to/lastmile_qr_scan"}, "lat": 38.89226266666667, "lon": -77.0465535, "bike_id": "ae3dc0f8d51a680c80d34aa2a06db409", "fusion_lat": 0.0, "is_disabled": 0, "fusion_lon": 0.0}, {"name": "444ac431cbfbd7889ede8a5a9d1f7dd8", "is_reserved": 0, "type": "electric_scooter", "rental_uris": {"ios": "https://dc.lft.to/lastmile_qr_scan", "android": "https://dc.lft.to/lastmile_qr_scan"}, "lat": 38.88265966666667, "lon": -77.0037075, "bike_id": "444ac431cbfbd7889ede8a5a9d1f7dd8", "fusion_lat": 0.0, "is_disabled": 0, "fusion_lon": 0.0}, {"name": "d3c3768cbd1aa9907d2c8c46b57400e8", "is_reserved": 0, "type": "electric_bike", "rental_uris": {"ios": "https://dc.lft.to/lastmile_qr_scan", "android": "https://dc.lft.to/lastmile_qr_scan"}, "lat": 38.8735675, "lon": -77.10644483333333, "bike_id": "d3c3768cbd1aa9907d2c8c46b57400e8", "fusion_lat": 0.0, "is_disabled": 0, "fusion_lon": 0.0}, {"name": "7615e20681b5f8c4725becbdbe6ef00d", "is_reserved": 0, "type": "electric_scooter", "rental_uris": {"ios": "https://dc.lft.to/lastmile_qr_scan", "android": "https://dc.lft.to/lastmile_qr_scan"}, "lat": 38.90030983333333, "lon": -76.99911116666667, "bike_id": "7615e20681b5f8c4725becbdbe6ef00d", "fusion_lat": 0.0, "is_disabled": 0, "fusion_lon": 0.0}, {"name": "9a501c9959a1a8222373ed8e2dab6dba", "is_reserved": 0, "type": "electric_scooter", "rental_uris": {"ios": "https://dc.lft.to/lastmile_qr_scan", "android": "https://dc.lft.to/lastmile_qr_scan"}, "lat": 38.90029783333333, "lon": -76.98879566666666, "bike_id": "9a501c9959a1a8222373ed8e2dab6dba", "fusion_lat": 0.0, "is_disabled": 0, "fusion_lon": 0.0}, {"name": "093892095acd4555cf19acf3510dde27", "is_reserved": 0, "type": "electric_scooter", "rental_uris": {"ios": "https://dc.lft.to/lastmile_qr_scan", "android": "https://dc.lft.to/lastmile_qr_scan"}, "lat": 38.91837316666667, "lon": -77.02318083333333, "bike_id": "093892095acd4555cf19acf3510dde27", "fusion_lat": 0.0, "is_disabled": 0, "fusion_lon": 0.0}, {"name": "9523aad25549ea8d7f8868a030ffa999", "is_reserved": 0, "type": "electric_scooter", "rental_uris": {"ios": "https://dc.lft.to/lastmile_qr_scan", "android": "https://dc.lft.to/lastmile_qr_scan"}, "lat": 38.90264333333333, "lon": -77.06163683333334, "bike_id": "9523aad25549ea8d7f8868a030ffa999", "fusion_lat": 0.0, "is_disabled": 0, "fusion_lon": 0.0}, {"name": "a37471a428f9f147edb2aa0e09cb3013", "is_reserved": 0, "type": "electric_scooter", "rental_uris": {"ios": "https://dc.lft.to/lastmile_qr_scan", "android": "https://dc.lft.to/lastmile_qr_scan"}, "lat": 38.88495483333333, "lon": -77.007264, "bike_id": "a37471a428f9f147edb2aa0e09cb3013", "fusion_lat": 0.0, "is_disabled": 0, "fusion_lon": 0.0}, {"name": "ea4d5439e486ee2395a863f090be1b84", "is_reserved": 0, "type": "electric_scooter", "rental_uris": {"ios": "https://dc.lft.to/lastmile_qr_scan", "android": "https://dc.lft.to/lastmile_qr_scan"}, "lat": 38.920868166666665, "lon": -77.023679, "bike_id": "ea4d5439e486ee2395a863f090be1b84", "fusion_lat": 0.0, "is_disabled": 0, "fusion_lon": 0.0}, {"name": "6be21bbe6b2a42650f6abcf97783ffb7", "is_reserved": 0, "type": "electric_scooter", "rental_uris": {"ios": "https://dc.lft.to/lastmile_qr_scan", "android": "https://dc.lft.to/lastmile_qr_scan"}, "lat": 38.90261866666667, "lon": -77.0164025, "bike_id": "6be21bbe6b2a42650f6abcf97783ffb7", "fusion_lat": 0.0, "is_disabled": 0, "fusion_lon": 0.0}, {"name": "300102a03e73811f91a16d8404c61053", "is_reserved": 0, "type": "electric_bike", "rental_uris": {"ios": "https://dc.lft.to/lastmile_qr_scan", "android": "https://dc.lft.to/lastmile_qr_scan"}, "lat": 38.867498, "lon": -77.1171035, "bike_id": "300102a03e73811f91a16d8404c61053", "fusion_lat": 0.0, "is_disabled": 0, "fusion_lon": 0.0}, {"name": "833d6e6162074b48ed9be99aa5d9e139", "is_reserved": 0, "type": "electric_scooter", "rental_uris": {"ios": "https://dc.lft.to/lastmile_qr_scan", "android": "https://dc.lft.to/lastmile_qr_scan"}, "lat": 38.87669533333333, "lon": -77.01588633333333, "bike_id": "833d6e6162074b48ed9be99aa5d9e139", "fusion_lat": 0.0, "is_disabled": 0, "fusion_lon": 0.0}, {"name": "19355edb3579c6d2e8fbb03318b3ae63", "is_reserved": 0, "type": "electric_scooter", "rental_uris": {"ios": "https://dc.lft.to/lastmile_qr_scan", "android": "https://dc.lft.to/lastmile_qr_scan"}, "lat": 38.918771, "lon": -77.0431455, "bike_id": "19355edb3579c6d2e8fbb03318b3ae63", "fusion_lat": 0.0, "is_disabled": 0, "fusion_lon": 0.0}, {"name": "fd94deff00887de11613f48086ba4288", "is_reserved": 0, "type": "electric_scooter", "rental_uris": {"ios": "https://dc.lft.to/lastmile_qr_scan", "android": "https://dc.lft.to/lastmile_qr_scan"}, "lat": 38.96155983333333, "lon": -77.03254683333333, "bike_id": "fd94deff00887de11613f48086ba4288", "fusion_lat": 0.0, "is_disabled": 0, "fusion_lon": 0.0}, {"name": "9f925c8038c69d57a32425319dbd1e54", "is_reserved": 0, "type": "electric_scooter", "rental_uris": {"ios": "https://dc.lft.to/lastmile_qr_scan", "android": "https://dc.lft.to/lastmile_qr_scan"}, "lat": 38.899983666666664, "lon": -77.027061, "bike_id": "9f925c8038c69d57a32425319dbd1e54", "fusion_lat": 0.0, "is_disabled": 0, "fusion_lon": 0.0}, {"name": "c1df7757c014b27a6fff082169699508", "is_reserved": 0, "type": "electric_scooter", "rental_uris": {"ios": "https://dc.lft.to/lastmile_qr_scan", "android": "https://dc.lft.to/lastmile_qr_scan"}, "lat": 38.92321166666667, "lon": -77.04632583333333, "bike_id": "c1df7757c014b27a6fff082169699508", "fusion_lat": 0.0, "is_disabled": 0, "fusion_lon": 0.0}, {"name": "51b28c4db909ed9db7c17db241fe706c", "is_reserved": 0, "type": "electric_scooter", "rental_uris": {"ios": "https://dc.lft.to/lastmile_qr_scan", "android": "https://dc.lft.to/lastmile_qr_scan"}, "lat": 38.92425433333333, "lon": -77.04480816666667, "bike_id": "51b28c4db909ed9db7c17db241fe706c", "fusion_lat": 0.0, "is_disabled": 0, "fusion_lon": 0.0}, {"name": "23f5bbc9cea5124826ca2fcde623e839", "is_reserved": 0, "type": "electric_bike", "rental_uris": {"ios": "https://dc.lft.to/lastmile_qr_scan", "android": "https://dc.lft.to/lastmile_qr_scan"}, "lat": 38.87287533333333, "lon": -77.23322166666667, "bike_id": "23f5bbc9cea5124826ca2fcde623e839", "fusion_lat": 0.0, "is_disabled": 0, "fusion_lon": 0.0}, {"name": "b0f229c200ef390217e3c874fd183e7e", "is_reserved": 0, "type": "electric_scooter", "rental_uris": {"ios": "https://dc.lft.to/lastmile_qr_scan", "android": "https://dc.lft.to/lastmile_qr_scan"}, "lat": 38.89049516666667, "lon": -76.93753583333333, "bike_id": "b0f229c200ef390217e3c874fd183e7e", "fusion_lat": 0.0, "is_disabled": 0, "fusion_lon": 0.0}, {"name": "90a72ac20c9f23955f84780d61cdc7f4", "is_reserved": 0, "type": "electric_scooter", "rental_uris": {"ios": "https://dc.lft.to/lastmile_qr_scan", "android": "https://dc.lft.to/lastmile_qr_scan"}, "lat": 38.90823183333333, "lon": -77.0434815, "bike_id": "90a72ac20c9f23955f84780d61cdc7f4", "fusion_lat": 0.0, "is_disabled": 0, "fusion_lon": 0.0}, {"name": "cd92d8ce32289e0bb42326c2c9e21a70", "is_reserved": 0, "type": "electric_scooter", "rental_uris": {"ios": "https://dc.lft.to/lastmile_qr_scan", "android": "https://dc.lft.to/lastmile_qr_scan"}, "lat": 38.9242385, "lon": -77.0212765, "bike_id": "cd92d8ce32289e0bb42326c2c9e21a70", "fusion_lat": 0.0, "is_disabled": 0, "fusion_lon": 0.0}, {"name": "e9ac262c09c4af5832440571ff891b4b", "is_reserved": 0, "type": "electric_scooter", "rental_uris": {"ios": "https://dc.lft.to/lastmile_qr_scan", "android": "https://dc.lft.to/lastmile_qr_scan"}, "lat": 38.917889333333335, "lon": -77.01215416666666, "bike_id": "e9ac262c09c4af5832440571ff891b4b", "fusion_lat": 0.0, "is_disabled": 0, "fusion_lon": 0.0}, {"name": "b684b9818fb5f8c00e904faf5f907381", "is_reserved": 0, "type": "electric_scooter", "rental_uris": {"ios": "https://dc.lft.to/lastmile_qr_scan", "android": "https://dc.lft.to/lastmile_qr_scan"}, "lat": 38.91690916666667, "lon": -77.03125833333333, "bike_id": "b684b9818fb5f8c00e904faf5f907381", "fusion_lat": 0.0, "is_disabled": 0, "fusion_lon": 0.0}, {"name": "a3ca158f6bb5096d820bf19b4bac7e86", "is_reserved": 0, "type": "electric_bike", "rental_uris": {"ios": "https://dc.lft.to/lastmile_qr_scan", "android": "https://dc.lft.to/lastmile_qr_scan"}, "lat": 38.9146825, "lon": -76.9812045, "bike_id": "a3ca158f6bb5096d820bf19b4bac7e86", "fusion_lat": 0.0, "is_disabled": 0, "fusion_lon": 0.0}, {"name": "6fb9939b2564b1c10563aa1048e0909e", "is_reserved": 0, "type": "electric_scooter", "rental_uris": {"ios": "https://dc.lft.to/lastmile_qr_scan", "android": "https://dc.lft.to/lastmile_qr_scan"}, "lat": 38.9110445, "lon": -77.0444205, "bike_id": "6fb9939b2564b1c10563aa1048e0909e", "fusion_lat": 0.0, "is_disabled": 0, "fusion_lon": 0.0}, {"name": "950c5ecb8e3d03553c99b54b4b825c59", "is_reserved": 0, "type": "electric_scooter", "rental_uris": {"ios": "https://dc.lft.to/lastmile_qr_scan", "android": "https://dc.lft.to/lastmile_qr_scan"}, "lat": 38.912212333333336, "lon": -77.02796583333334, "bike_id": "950c5ecb8e3d03553c99b54b4b825c59", "fusion_lat": 0.0, "is_disabled": 0, "fusion_lon": 0.0}, {"name": "879923a42c3f90bc474ff4f83ec97bf6", "is_reserved": 0, "type": "electric_scooter", "rental_uris": {"ios": "https://dc.lft.to/lastmile_qr_scan", "android": "https://dc.lft.to/lastmile_qr_scan"}, "lat": 38.910327, "lon": -77.032907, "bike_id": "879923a42c3f90bc474ff4f83ec97bf6", "fusion_lat": 0.0, "is_disabled": 0, "fusion_lon": 0.0}, {"name": "90c9a12a835bf88c502eb932619ca698", "is_reserved": 0, "type": "electric_scooter", "rental_uris": {"ios": "https://dc.lft.to/lastmile_qr_scan", "android": "https://dc.lft.to/lastmile_qr_scan"}, "lat": 38.85367683333333, "lon": -76.98533533333334, "bike_id": "90c9a12a835bf88c502eb932619ca698", "fusion_lat": 0.0, "is_disabled": 0, "fusion_lon": 0.0}, {"name": "6c07db2cf3b1b2f779d55c6fa0bcdb05", "is_reserved": 0, "type": "electric_bike", "rental_uris": {"ios": "https://dc.lft.to/lastmile_qr_scan", "android": "https://dc.lft.to/lastmile_qr_scan"}, "lat": 38.91326816666667, "lon": -76.98386766666667, "bike_id": "6c07db2cf3b1b2f779d55c6fa0bcdb05", "fusion_lat": 0.0, "is_disabled": 0, "fusion_lon": 0.0}, {"name": "832a54a4714c1ed0d87ec34a274337c8", "is_reserved": 0, "type": "electric_scooter", "rental_uris": {"ios": "https://dc.lft.to/lastmile_qr_scan", "android": "https://dc.lft.to/lastmile_qr_scan"}, "lat": 38.892255666666664, "lon": -77.0432685, "bike_id": "832a54a4714c1ed0d87ec34a274337c8", "fusion_lat": 0.0, "is_disabled": 0, "fusion_lon": 0.0}, {"name": "1d5ff6a979db96e5d93739cfd2a06387", "is_reserved": 0, "type": "electric_scooter", "rental_uris": {"ios": "https://dc.lft.to/lastmile_qr_scan", "android": "https://dc.lft.to/lastmile_qr_scan"}, "lat": 38.916974833333335, "lon": -77.03781166666667, "bike_id": "1d5ff6a979db96e5d93739cfd2a06387", "fusion_lat": 0.0, "is_disabled": 0, "fusion_lon": 0.0}, {"name": "f5e6d00ce796efd10893e898b4f50a58", "is_reserved": 0, "type": "electric_scooter", "rental_uris": {"ios": "https://dc.lft.to/lastmile_qr_scan", "android": "https://dc.lft.to/lastmile_qr_scan"}, "lat": 38.93858433333333, "lon": -77.024932, "bike_id": "f5e6d00ce796efd10893e898b4f50a58", "fusion_lat": 0.0, "is_disabled": 0, "fusion_lon": 0.0}, {"name": "7d8f0ca85ad776cda06e59a5fd2c526e", "is_reserved": 0, "type": "electric_scooter", "rental_uris": {"ios": "https://dc.lft.to/lastmile_qr_scan", "android": "https://dc.lft.to/lastmile_qr_scan"}, "lat": 38.94263983333333, "lon": -77.025318, "bike_id": "7d8f0ca85ad776cda06e59a5fd2c526e", "fusion_lat": 0.0, "is_disabled": 0, "fusion_lon": 0.0}, {"name": "cde9d98a9e951911dcc140129c31b0d2", "is_reserved": 0, "type": "electric_scooter", "rental_uris": {"ios": "https://dc.lft.to/lastmile_qr_scan", "android": "https://dc.lft.to/lastmile_qr_scan"}, "lat": 38.9192375, "lon": -77.03363033333333, "bike_id": "cde9d98a9e951911dcc140129c31b0d2", "fusion_lat": 0.0, "is_disabled": 0, "fusion_lon": 0.0}, {"name": "c15da2b5476e8565bf069916a850b7c1", "is_reserved": 0, "type": "electric_scooter", "rental_uris": {"ios": "https://dc.lft.to/lastmile_qr_scan", "android": "https://dc.lft.to/lastmile_qr_scan"}, "lat": 38.875901166666665, "lon": -77.0199895, "bike_id": "c15da2b5476e8565bf069916a850b7c1", "fusion_lat": 0.0, "is_disabled": 0, "fusion_lon": 0.0}, {"name": "57a62f35001bef5dda6641203e9a5d42", "is_reserved": 0, "type": "electric_scooter", "rental_uris": {"ios": "https://dc.lft.to/lastmile_qr_scan", "android": "https://dc.lft.to/lastmile_qr_scan"}, "lat": 38.9079855, "lon": -77.04274233333334, "bike_id": "57a62f35001bef5dda6641203e9a5d42", "fusion_lat": 0.0, "is_disabled": 0, "fusion_lon": 0.0}, {"name": "ba6173769f744419de6684e6da63b644", "is_reserved": 0, "type": "electric_scooter", "rental_uris": {"ios": "https://dc.lft.to/lastmile_qr_scan", "android": "https://dc.lft.to/lastmile_qr_scan"},