{"data": {"bikes": [{"is_reserved": 0, "fusion_lon": 0.0, "fusion_lat": 0.0, "name": "5356868bf7f52453fc73ccf79c0c44cd", "type": "electric_bike", "is_disabled": 0, "lat": 38.94898716666667, "rental_uris": {"android": "https://dc.lft.to/lastmile_qr_scan", "ios": "https://dc.lft.to/lastmile_qr_scan"}, "bike_id": "5356868bf7f52453fc73ccf79c0c44cd", "lon": -77.03444683333333}, {"is_reserved": 0, "fusion_lon": 0.0, "fusion_lat": 0.0, "name": "1281c0f8deda6d0653a500e0d0e5fc19", "type": "electric_scooter", "is_disabled": 0, "lat": 38.90223483333333, "rental_uris": {"android": "https://dc.lft.to/lastmile_qr_scan", "ios": "https://dc.lft.to/lastmile_qr_scan"}, "bike_id": "1281c0f8deda6d0653a500e0d0e5fc19", "lon": -77.04417733333334}, {"is_reserved": 0, "fusion_lon": 0.0, "fusion_lat": 0.0, "name": "4c251e8eaf18160514e02b35e819dab4", "type": "electric_scooter", "is_disabled": 0, "lat": 38.901248, "rental_uris": {"android": "https://dc.lft.to/lastmile_qr_scan", "ios": "https://dc.lft.to/lastmile_qr_scan"}, "bike_id": "4c251e8eaf18160514e02b35e819dab4", "lon": -77.0401965}, {"is_reserved": 0, "fusion_lon": 0.0, "fusion_lat": 0.0, "name": "3c50d406671eb43c225d5950e84ca433", "type": "electric_scooter", "is_disabled": 0, "lat": 38.92667616666667, "rental_uris": {"android": "https://dc.lft.to/lastmile_qr_scan", "ios": "https://dc.lft.to/lastmile_qr_scan"}, "bike_id": "3c50d406671eb43c225d5950e84ca433", "lon": -77.0228475}, {"is_reserved": 0, "fusion_lon": 0.0, "fusion_lat": 0.0, "name": "167dc8be50cb4ad131f22937af3f82f5", "type": "electric_scooter", "is_disabled": 0, "lat": 38.8962685, "rental_uris": {"android": "https://dc.lft.to/lastmile_qr_scan", "ios": "https://dc.lft.to/lastmile_qr_scan"}, "bike_id": "167dc8be50cb4ad131f22937af3f82f5", "lon": -77.02202283333334}, {"is_reserved": 0, "fusion_lon": 0.0, "fusion_lat": 0.0, "name": "4ce1b60d6d6a47989f77515260cdb215", "type": "electric_scooter", "is_disabled": 0, "lat": 38.91571916666667, "rental_uris": {"android": "https://dc.lft.to/lastmile_qr_scan", "ios": "https://dc.lft.to/lastmile_qr_scan"}, "bike_id": "4ce1b60d6d6a47989f77515260cdb215", "lon": -77.031916}, {"is_reserved": 0, "fusion_lon": 0.0, "fusion_lat": 0.0, "name": "ad7c07fa6ae23384743f307d0602db48", "type": "electric_scooter", "is_disabled": 0, "lat": 38.890362333333336, "rental_uris": {"android": "https://dc.lft.to/lastmile_qr_scan", "ios": "https://dc.lft.to/lastmile_qr_scan"}, "bike_id": "ad7c07fa6ae23384743f307d0602db48", "lon": -76.93752366666666}, {"is_reserved": 0, "fusion_lon": 0.0, "fusion_lat": 0.0, "name": "83e014d3aea14eb1616e5b5e71081cca", "type": "electric_bike", "is_disabled": 0, "lat": 38.964665333333336, "rental_uris": {"android": "https://dc.lft.to/lastmile_qr_scan", "ios": "https://dc.lft.to/lastmile_qr_scan"}, "bike_id": "83e014d3aea14eb1616e5b5e71081cca", "lon": -77.035669}, {"is_reserved": 0, "fusion_lon": 0.0, "fusion_lat": 0.0, "name": "e270f4eef5ca6a266e0c81907f410a62", "type": "electric_scooter", "is_disabled": 0, "lat": 38.91659933333333, "rental_uris": {"android": "https://dc.lft.to/lastmile_qr_scan", "ios": "https://dc.lft.to/lastmile_qr_scan"}, "bike_id": "e270f4eef5ca6a266e0c81907f410a62", "lon": -77.03850033333333}, {"is_reserved": 0, "fusion_lon": 0.0, "fusion_lat": 0.0, "name": "9de6ddad5a5b67a1828f7dba44a2aeb0", "type": "electric_bike", "is_disabled": 0, "lat": 38.812023833333335, "rental_uris": {"android": "https://dc.lft.to/lastmile_qr_scan", "ios": "https://dc.lft.to/lastmile_qr_scan"}, "bike_id": "9de6ddad5a5b67a1828f7dba44a2aeb0", "lon": -77.10836433333333}, {"is_reserved": 0, "fusion_lon": 0.0, "fusion_lat": 0.0, "name": "fa8570a3aa12bd18f555461cb8fc57a4", "type": "electric_scooter", "is_disabled": 0, "lat": 38.90975683333333, "rental_uris": {"android": "https://dc.lft.to/lastmile_qr_scan", "ios": "https://dc.lft.to/lastmile_qr_scan"}, "bike_id": "fa8570a3aa12bd18f555461cb8fc57a4", "lon": -77.02689566666666}, {"is_reserved": 0, "fusion_lon": 0.0, "fusion_lat": 0.0, "name": "455d4af355f09044edab5e654c9312d4", "type": "electric_scooter", "is_disabled": 0, "lat": 38.91490983333333, "rental_uris": {"android": "https://dc.lft.to/lastmile_qr_scan", "ios": "https://dc.lft.to/lastmile_qr_scan"}, "bike_id": "455d4af355f09044edab5e654c9312d4", "lon": -77.01994616666667}, {"is_reserved": 0, "fusion_lon": 0.0, "fusion_lat": 0.0, "name": "83a4dfa85eca2df0875a61d171b5dc73", "type": "electric_scooter", "is_disabled": 0, "lat": 38.9073795, "rental_uris": {"android": "https://dc.lft.to/lastmile_qr_scan", "ios": "https://dc.lft.to/lastmile_qr_scan"}, "bike_id": "83a4dfa85eca2df0875a61d171b5dc73", "lon": -76.98632033333334}, {"is_reserved": 0, "fusion_lon": 0.0, "fusion_lat": 0.0, "name": "75de269e26cabdf4574ea5f01c1850c2", "type": "electric_scooter", "is_disabled": 0, "lat": 38.903705, "rental_uris": {"android": "https://dc.lft.to/lastmile_qr_scan", "ios": "https://dc.lft.to/lastmile_qr_scan"}, "bike_id": "75de269e26cabdf4574ea5f01c1850c2", "lon": -77.04240966666667}, {"is_reserved": 0, "fusion_lon": 0.0, "fusion_lat": 0.0, "name": "47e9da647ebed90a0376d479325c36bc", "type": "electric_scooter", "is_disabled": 0, "lat": 38.87703833333333, "rental_uris": {"android": "https://dc.lft.to/lastmile_qr_scan", "ios": "https://dc.lft.to/lastmile_qr_scan"}, "bike_id": "47e9da647ebed90a0376d479325c36bc", "lon": -77.01730983333333}, {"is_reserved": 0, "fusion_lon": 0.0, "fusion_lat": 0.0, "name": "2d829f6ff3f3156f45af103647fbec4e", "type": "electric_scooter", "is_disabled": 0, "lat": 38.91919033333333, "rental_uris": {"android": "https://dc.lft.to/lastmile_qr_scan", "ios": "https://dc.lft.to/lastmile_qr_scan"}, "bike_id": "2d829f6ff3f3156f45af103647fbec4e", "lon": -77.03174116666666}, {"is_reserved": 0, "fusion_lon": 0.0, "fusion_lat": 0.0, "name": "842f34fb1eb55dbd9d12817357294127", "type": "electric_scooter", "is_disabled": 0, "lat": 38.89362666666667, "rental_uris": {"android": "https://dc.lft.to/lastmile_qr_scan", "ios": "https://dc.lft.to/lastmile_qr_scan"}, "bike_id": "842f34fb1eb55dbd9d12817357294127", "lon": -76.9864465}, {"is_reserved": 0, "fusion_lon": 0.0, "fusion_lat": 0.0, "name": "3adba2a1cd5d3a87236ecf1cb8156fc8", "type": "electric_scooter", "is_disabled": 0, "lat": 38.93111066666667, "rental_uris": {"android": "https://dc.lft.to/lastmile_qr_scan", "ios": "https://dc.lft.to/lastmile_qr_scan"}, "bike_id": "3adba2a1cd5d3a87236ecf1cb8156fc8", "lon": -77.03035316666667}, {"is_reserved": 0, "fusion_lon": 0.0, "fusion_lat": 0.0, "name": "f36166b138014a037959a05f26ebe3c9", "type": "electric_scooter", "is_disabled": 0, "lat": 38.9034265, "rental_uris": {"android": "https://dc.lft.to/lastmile_qr_scan", "ios": "https://dc.lft.to/lastmile_qr_scan"}, "bike_id": "f36166b138014a037959a05f26ebe3c9", "lon": -76.98273383333333}, {"is_reserved": 0, "fusion_lon": 0.0, "fusion_lat": 0.0, "name": "69c3b45aa705773d33fd35d3b0e63577", "type": "electric_scooter", "is_disabled": 0, "lat": 38.91868683333333, "rental_uris": {"android": "https://dc.lft.to/lastmile_qr_scan", "ios": "https://dc.lft.to/lastmile_qr_scan"}, "bike_id": "69c3b45aa705773d33fd35d3b0e63577", "lon": -77.04447283333333}, {"is_reserved": 0, "fusion_lon": 0.0, "fusion_lat": 0.0, "name": "5864f62021c32930d4cb026082f50934", "type": "electric_bike", "is_disabled": 0, "lat": 38.962244166666665, "rental_uris": {"android": "https://dc.lft.to/lastmile_qr_scan", "ios": "https://dc.lft.to/lastmile_qr_scan"}, "bike_id": "5864f62021c32930d4cb026082f50934", "lon": -77.02630483333333}, {"is_reserved": 0, "fusion_lon": 0.0, "fusion_lat": 0.0, "name": "9c201b7f856643b91380becc19c66776", "type": "electric_scooter", "is_disabled": 0, "lat": 38.92739983333333, "rental_uris": {"android": "https://dc.lft.to/lastmile_qr_scan", "ios": "https://dc.lft.to/lastmile_qr_scan"}, "bike_id": "9c201b7f856643b91380becc19c66776", "lon": -77.02536516666666}, {"is_reserved": 0, "fusion_lon": 0.0, "fusion_lat": 0.0, "name": "67f0958d74b9464a5a71f633c045b4ad", "type": "electric_scooter", "is_disabled": 0, "lat": 38.90969616666667, "rental_uris": {"android": "https://dc.lft.to/lastmile_qr_scan", "ios": "https://dc.lft.to/lastmile_qr_scan"}, "bike_id": "67f0958d74b9464a5a71f633c045b4ad", "lon": -77.03214866666667}, {"is_reserved": 0, "fusion_lon": 0.0, "fusion_lat": 0.0, "name": "9fc1763476aec5984acf2cea1d95a8b5", "type": "electric_scooter", "is_disabled": 0, "lat": 38.888287166666665, "rental_uris": {"android": "https://dc.lft.to/lastmile_qr_scan", "ios": "https://dc.lft.to/lastmile_qr_scan"}, "bike_id": "9fc1763476aec5984acf2cea1d95a8b5", "lon": -76.99365583333334}, {"is_reserved": 0, "fusion_lon": 0.0, "fusion_lat": 0.0, "name": "0ebb304961cbebd9243cc563f691024f", "type": "electric_scooter", "is_disabled": 0, "lat": 38.863806833333335, "rental_uris": {"android": "https://dc.lft.to/lastmile_qr_scan", "ios": "https://dc.lft.to/lastmile_qr_scan"}, "bike_id": "0ebb304961cbebd9243cc563f691024f", "lon": -76.98926266666666}, {"is_reserved": 0, "fusion_lon": 0.0, "fusion_lat": 0.0, "name": "6527f0af092c18d8cb874e3a553f5a3e", "type": "electric_scooter", "is_disabled": 0, "lat": 38.93702483333333, "rental_uris": {"android": "https://dc.lft.to/lastmile_qr_scan", "ios": "https://dc.lft.to/lastmile_qr_scan"}, "bike_id": "6527f0af092c18d8cb874e3a553f5a3e", "lon": -77.02404833333334}, {"is_reserved": 0, "fusion_lon": 0.0, "fusion_lat": 0.0, "name": "2f03e378566ef48f6ec227bd0e157b8c", "type": "electric_scooter", "is_disabled": 0, "lat": 38.9076245, "rental_uris": {"android": "https://dc.lft.to/lastmile_qr_scan", "ios": "https://dc.lft.to/lastmile_qr_scan"}, "bike_id": "2f03e378566ef48f6ec227bd0e157b8c", "lon": -77.03462766666667}, {"is_reserved": 0, "fusion_lon": 0.0, "fusion_lat": 0.0, "name": "5cce3d2d958825efb2b43bdad52a7598", "type": "electric_scooter", "is_disabled": 0, "lat": 38.9008175, "rental_uris": {"android": "https://dc.lft.to/lastmile_qr_scan", "ios": "https://dc.lft.to/lastmile_qr_scan"}, "bike_id": "5cce3d2d958825efb2b43bdad52a7598", "lon": -76.99364283333334}, {"is_reserved": 0, "fusion_lon": 0.0, "fusion_lat": 0.0, "name": "259628ad99e6dc63eafe39f9b5ed4179", "type": "electric_scooter", "is_disabled": 0, "lat": 38.91714016666667, "rental_uris": {"android": "https://dc.lft.to/lastmile_qr_scan", "ios": "https://dc.lft.to/lastmile_qr_scan"}, "bike_id": "259628ad99e6dc63eafe39f9b5ed4179", "lon": -77.03857816666667}, {"is_reserved": 0, "fusion_lon": 0.0, "fusion_lat": 0.0, "name": "85dc3ab140bf634390088ddf98949cdd", "type": "electric_scooter", "is_disabled": 0, "lat": 38.92066116666667, "rental_uris": {"android": "https://dc.lft.to/lastmile_qr_scan", "ios": "https://dc.lft.to/lastmile_qr_scan"}, "bike_id": "85dc3ab140bf634390088ddf98949cdd", "lon": -77.02248133333333}, {"is_reserved": 0, "fusion_lon": 0.0, "fusion_lat": 0.0, "name": "1195a0d7eb978accdcb95caf4aaa79e4", "type": "electric_scooter", "is_disabled": 0, "lat": 38.92156, "rental_uris": {"android": "https://dc.lft.to/lastmile_qr_scan", "ios": "https://dc.lft.to/lastmile_qr_scan"}, "bike_id": "1195a0d7eb978accdcb95caf4aaa79e4", "lon": -77.033833}, {"is_reserved": 0, "fusion_lon": 0.0, "fusion_lat": 0.0, "name": "e858aaf3b8903bf68c280e5ae31d01f7", "type": "electric_scooter", "is_disabled": 0, "lat": 38.88918983333333, "rental_uris": {"android": "https://dc.lft.to/lastmile_qr_scan", "ios": "https://dc.lft.to/lastmile_qr_scan"}, "bike_id": "e858aaf3b8903bf68c280e5ae31d01f7", "lon": -76.991908}, {"is_reserved": 0, "fusion_lon": 0.0, "fusion_lat": 0.0, "name": "3dde1a7bc5700ee64be596d9659116e3", "type": "electric_scooter", "is_disabled": 0, "lat": 38.885691666666666, "rental_uris": {"android": "https://dc.lft.to/lastmile_qr_scan", "ios": "https://dc.lft.to/lastmile_qr_scan"}, "bike_id": "3dde1a7bc5700ee64be596d9659116e3", "lon": -77.01996166666666}, {"is_reserved": 0, "fusion_lon": 0.0, "fusion_lat": 0.0, "name": "1f84d03f61cf8c1b9d1de07cdc55d80b", "type": "electric_scooter", "is_disabled": 0, "lat": 38.9004505, "rental_uris": {"android": "https://dc.lft.to/lastmile_qr_scan", "ios": "https://dc.lft.to/lastmile_qr_scan"}, "bike_id": "1f84d03f61cf8c1b9d1de07cdc55d80b", "lon": -77.04334483333334}, {"is_reserved": 0, "fusion_lon": 0.0, "fusion_lat": 0.0, "name": "8225944c1367fa9ec2da586fae8d6c29", "type": "electric_scooter", "is_disabled": 0, "lat": 38.91692033333333, "rental_uris": {"android": "https://dc.lft.to/lastmile_qr_scan", "ios": "https://dc.lft.to/lastmile_qr_scan"}, "bike_id": "8225944c1367fa9ec2da586fae8d6c29", "lon": -77.01158033333333}, {"is_reserved": 0, "fusion_lon": 0.0, "fusion_lat": 0.0, "name": "ec99f45216f7a3fa7afcee2b545677c5", "type": "electric_scooter", "is_disabled": 0, "lat": 38.89866333333333, "rental_uris": {"android": "https://dc.lft.to/lastmile_qr_scan", "ios": "https://dc.lft.to/lastmile_qr_scan"}, "bike_id": "ec99f45216f7a3fa7afcee2b545677c5", "lon": -76.946609}, {"is_reserved": 0, "fusion_lon": 0.0, "fusion_lat": 0.0, "name": "e55d29453dae556bf8dffeb0bff878b7", "type": "electric_bike", "is_disabled": 0, "lat": 38.87674583333333, "rental_uris": {"android": "https://dc.lft.to/lastmile_qr_scan", "ios": "https://dc.lft.to/lastmile_qr_scan"}, "bike_id": "e55d29453dae556bf8dffeb0bff878b7", "lon": -77.01431883333333}, {"is_reserved": 0, "fusion_lon": 0.0, "fusion_lat": 0.0, "name": "baddcc5ae218e521eac4c1959a79ed28", "type": "electric_scooter", "is_disabled": 0, "lat": 38.92265033333334, "rental_uris": {"android": "https://dc.lft.to/lastmile_qr_scan", "ios": "https://dc.lft.to/lastmile_qr_scan"}, "bike_id": "baddcc5ae218e521eac4c1959a79ed28", "lon": -77.018234}, {"is_reserved": 0, "fusion_lon": 0.0, "fusion_lat": 0.0, "name": "4bedae671185e41a994eea129717413a", "type": "electric_bike", "is_disabled": 0, "lat": 38.896565833333334, "rental_uris": {"android": "https://dc.lft.to/lastmile_qr_scan", "ios": "https://dc.lft.to/lastmile_qr_scan"}, "bike_id": "4bedae671185e41a994eea129717413a", "lon": -76.930097}, {"is_reserved": 0, "fusion_lon": 0.0, "fusion_lat": 0.0, "name": "caabf380038a1ad77680dbc8ca1ff7b7", "type": "electric_bike", "is_disabled": 0, "lat": 38.903262833333336, "rental_uris": {"android": "https://dc.lft.to/lastmile_qr_scan", "ios": "https://dc.lft.to/lastmile_qr_scan"}, "bike_id": "caabf380038a1ad77680dbc8ca1ff7b7", "lon": -76.97535766666667}, {"is_reserved": 0, "fusion_lon": 0.0, "fusion_lat": 0.0, "name": "ab4890a9b4975f634b1eae149b558366", "type": "electric_scooter", "is_disabled": 0, "lat": 38.929793333333336, "rental_uris": {"android": "https://dc.lft.to/lastmile_qr_scan", "ios": "https://dc.lft.to/lastmile_qr_scan"}, "bike_id": "ab4890a9b4975f634b1eae149b558366", "lon": -77.01450816666667}, {"is_reserved": 0, "fusion_lon": 0.0, "fusion_lat": 0.0, "name": "5a867df4b000473fb58d41a4fba8ea30", "type": "electric_scooter", "is_disabled": 0, "lat": 38.917665666666664, "rental_uris": {"android": "https://dc.lft.to/lastmile_qr_scan", "ios": "https://dc.lft.to/lastmile_qr_scan"}, "bike_id": "5a867df4b000473fb58d41a4fba8ea30", "lon": -77.03634283333334}, {"is_reserved": 0, "fusion_lon": 0.0, "fusion_lat": 0.0, "name": "b39e565a959150861c9d8ffcf7288c81", "type": "electric_bike", "is_disabled": 0, "lat": 38.967402166666666, "rental_uris": {"android": "https://dc.lft.to/lastmile_qr_scan", "ios": "https://dc.lft.to/lastmile_qr_scan"}, "bike_id": "b39e565a959150861c9d8ffcf7288c81", "lon": -76.9604725}, {"is_reserved": 0, "fusion_lon": 0.0, "fusion_lat": 0.0, "name": "edd1fbd4c1b8d0b378be543c992d89df", "type": "electric_scooter", "is_disabled": 0, "lat": 38.92005183333333, "rental_uris": {"android": "https://dc.lft.to/lastmile_qr_scan", "ios": "https://dc.lft.to/lastmile_qr_scan"}, "bike_id": "edd1fbd4c1b8d0b378be543c992d89df", "lon": -77.04167083333333}, {"is_reserved": 0, "fusion_lon": 0.0, "fusion_lat": 0.0, "name": "95c15d0639e812543788627cb73ec2d6", "type": "electric_scooter", "is_disabled": 0, "lat": 38.92678516666667, "rental_uris": {"android": "https://dc.lft.to/lastmile_qr_scan", "ios": "https://dc.lft.to/lastmile_qr_scan"}, "bike_id": "95c15d0639e812543788627cb73ec2d6", "lon": -77.043527}, {"is_reserved": 0, "fusion_lon": 0.0, "fusion_lat": 0.0, "name": "d1a81d03f0fabf1e028973836e3f10c0", "type": "electric_scooter", "is_disabled": 0, "lat": 38.886038666666664, "rental_uris": {"android": "https://dc.lft.to/lastmile_qr_scan", "ios": "https://dc.lft.to/lastmile_qr_scan"}, "bike_id": "d1a81d03f0fabf1e028973836e3f10c0", "lon": -76.99510866666667}, {"is_reserved": 0, "fusion_lon": 0.0, "fusion_lat": 0.0, "name": "236d98bbfe3c231e29c88606eeee4fc8", "type": "electric_bike", "is_disabled": 0, "lat": 39.05798633333333, "rental_uris": {"android": "https://dc.lft.to/lastmile_qr_scan", "ios": "https://dc.lft.to/lastmile_qr_scan"}, "bike_id": "236d98bbfe3c231e29c88606eeee4fc8", "lon": -77.15025283333334}, {"is_reserved": 0, "fusion_lon": 0.0, "fusion_lat": 0.0, "name": "cd52137d65f26a68257c419dbc939108", "type": "electric_scooter", "is_disabled": 0, "lat": 38.8951735, "rental_uris": {"android": "https://dc.lft.to/lastmile_qr_scan", "ios": "https://dc.lft.to/lastmile_qr_scan"}, "bike_id": "cd52137d65f26a68257c419dbc939108", "lon": -77.03955816666667}, {"is_reserved": 0, "fusion_lon": 0.0, "fusion_lat": 0.0, "name": "16f59708ba7f5b06842c07cde2e1df18", "type": "electric_scooter", "is_disabled": 0, "lat": 38.92326216666667, "rental_uris": {"android": "https://dc.lft.to/lastmile_qr_scan", "ios": "https://dc.lft.to/lastmile_qr_scan"}, "bike_id": "16f59708ba7f5b06842c07cde2e1df18", "lon": -77.0354}, {"is_reserved": 0, "fusion_lon": 0.0, "fusion_lat": 0.0, "name": "869ce4f99d33a67b14e914d5b4a1ae3c", "type": "electric_scooter", "is_disabled": 0, "lat": 38.924484166666666, "rental_uris": {"android": "https://dc.lft.to/lastmile_qr_scan", "ios": "https://dc.lft.to/lastmile_qr_scan"}, "bike_id": "869ce4f99d33a67b14e914d5b4a1ae3c", "lon": -77.05750466666667}, {"is_reserved": 0, "fusion_lon": 0.0, "fusion_lat": 0.0, "name": "d43296cfabc5e5581ad62f4dd0089f22", "type": "electric_scooter", "is_disabled": 0, "lat": 38.91055583333333, "rental_uris": {"android": "https://dc.lft.to/lastmile_qr_scan", "ios": "https://dc.lft.to/lastmile_qr_scan"}, "bike_id": "d43296cfabc5e5581ad62f4dd0089f22", "lon": -77.04096233333334}, {"is_reserved": 0, "fusion_lon": 0.0, "fusion_lat": 0.0, "name": "6d25d10635e47fe5d174235eff9a1c3b", "type": "electric_scooter", "is_disabled": 0, "lat": 38.925888, "rental_uris": {"android": "https://dc.lft.to/lastmile_qr_scan", "ios": "https://dc.lft.to/lastmile_qr_scan"}, "bike_id": "6d25d10635e47fe5d174235eff9a1c3b", "lon": -77.026844}, {"is_reserved": 0, "fusion_lon": 0.0, "fusion_lat": 0.0, "name": "b6394816fca02ff1d16a90f487a9dceb", "type": "electric_scooter", "is_disabled": 0, "lat": 38.93049633333333, "rental_uris": {"android": "https://dc.lft.to/lastmile_qr_scan", "ios": "https://dc.lft.to/lastmile_qr_scan"}, "bike_id": "b6394816fca02ff1d16a90f487a9dceb", "lon": -77.03796816666667}, {"is_reserved": 0, "fusion_lon": 0.0, "fusion_lat": 0.0, "name": "bc2f7f85d057609d60691acf25032f08", "type": "electric_scooter", "is_disabled": 0, "lat": 38.953278166666664, "rental_uris": {"android": "https://dc.lft.to/lastmile_qr_scan", "ios": "https://dc.lft.to/lastmile_qr_scan"}, "bike_id": "bc2f7f85d057609d60691acf25032f08", "lon": -77.0707115}, {"is_reserved": 0, "fusion_lon": 0.0, "fusion_lat": 0.0, "name": "9676f6103e6811251af2220ca9a7a8b3", "type": "electric_scooter", "is_disabled": 0, "lat": 38.90285566666667, "rental_uris": {"android": "https://dc.lft.to/lastmile_qr_scan", "ios": "https://dc.lft.to/lastmile_qr_scan"}, "bike_id": "9676f6103e6811251af2220ca9a7a8b3", "lon": -77.05811483333333}, {"is_reserved": 0, "fusion_lon": 0.0, "fusion_lat": 0.0, "name": "69eb57bb766a675a9207c0409d1707e9", "type": "electric_scooter", "is_disabled": 0, "lat": 38.903569, "rental_uris": {"android": "https://dc.lft.to/lastmile_qr_scan", "ios": "https://dc.lft.to/lastmile_qr_scan"}, "bike_id": "69eb57bb766a675a9207c0409d1707e9", "lon": -77.04012416666667}, {"is_reserved": 0, "fusion_lon": 0.0, "fusion_lat": 0.0, "name": "31f05a36b037b9c5c0df0d55728545b7", "type": "electric_scooter", "is_disabled": 0, "lat": 38.90414466666667, "rental_uris": {"android": "https://dc.lft.to/lastmile_qr_scan", "ios": "https://dc.lft.to/lastmile_qr_scan"}, "bike_id": "31f05a36b037b9c5c0df0d55728545b7", "lon": -77.05332383333334}, {"is_reserved": 0, "fusion_lon": 0.0, "fusion_lat": 0.0, "name": "1aeb7d52c61a799403b11ce8ab4e1ea2", "type": "electric_scooter", "is_disabled": 0, "lat": 38.922022, "rental_uris": {"android": "https://dc.lft.to/lastmile_qr_scan", "ios": "https://dc.lft.to/lastmile_qr_scan"}, "bike_id": "1aeb7d52c61a799403b11ce8ab4e1ea2", "lon": -77.04016666666666}, {"is_reserved": 0, "fusion_lon": 0.0, "fusion_lat": 0.0, "name": "aa20a5ca232289e7804d67970aeb5504", "type": "electric_scooter", "is_disabled": 0, "lat": 38.862568, "rental_uris": {"android": "https://dc.lft.to/lastmile_qr_scan", "ios": "https://dc.lft.to/lastmile_qr_scan"}, "bike_id": "aa20a5ca232289e7804d67970aeb5504", "lon": -76.99515216666667}, {"is_reserved": 0, "fusion_lon": 0.0, "fusion_lat": 0.0, "name": "5345b4a7496b4d10ac2b92c99f190539", "type": "electric_scooter", "is_disabled": 0, "lat": 38.88738583333333, "rental_uris": {"android": "https://dc.lft.to/lastmile_qr_scan", "ios": "https://dc.lft.to/lastmile_qr_scan"}, "bike_id": "5345b4a7496b4d10ac2b92c99f190539", "lon": -77.0221345}, {"is_reserved": 0, "fusion_lon": 0.0, "fusion_lat": 0.0, "name": "9b04ab0cd92a2de15b1a4f4a173829fc", "type": "electric_scooter", "is_disabled": 0, "lat": 38.88595883333333, "rental_uris": {"android": "https://dc.lft.to/lastmile_qr_scan", "ios": "https://dc.lft.to/lastmile_qr_scan"}, "bike_id": "9b04ab0cd92a2de15b1a4f4a173829fc", "lon": -76.99098066666667}, {"is_reserved": 0, "fusion_lon": 0.0, "fusion_lat": 0.0, "name": "2f6a8a3e571ca8cf4907b4459de5c23c", "type": "electric_scooter", "is_disabled": 0, "lat": 38.91552033333333, "rental_uris": {"android": "https://dc.lft.to/lastmile_qr_scan", "ios": "https://dc.lft.to/lastmile_qr_scan"}, "bike_id": "2f6a8a3e571ca8cf4907b4459de5c23c", "lon": -77.02207}, {"is_reserved": 0, "fusion_lon": 0.0, "fusion_lat": 0.0, "name": "d9e8da1e44e41224a7c27579301f60bd", "type": "electric_scooter", "is_disabled": 0, "lat": 38.9224605, "rental_uris": {"android": "https://dc.lft.to/lastmile_qr_scan", "ios": "https://dc.lft.to/lastmile_qr_scan"}, "bike_id": "d9e8da1e44e41224a7c27579301f60bd", "lon": -77.0308005}, {"is_reserved": 0, "fusion_lon": 0.0, "fusion_lat": 0.0, "name": "0ff6ec5a3695026971a6d50b1d573d7c", "type": "electric_scooter", "is_disabled": 0, "lat": 38.923412, "rental_uris": {"android": "https://dc.lft.to/lastmile_qr_scan", "ios": "https://dc.lft.to/lastmile_qr_scan"}, "bike_id": "0ff6ec5a3695026971a6d50b1d573d7c", "lon": -77.051221}, {"is_reserved": 0, "fusion_lon": 0.0, "fusion_lat": 0.0, "name": "6b87d3c681c2dc8580b4d3334de3e714", "type": "electric_scooter", "is_disabled": 0, "lat": 38.91790016666667, "rental_uris": {"android": "https://dc.lft.to/lastmile_qr_scan", "ios": "https://dc.lft.to/lastmile_qr_scan"}, "bike_id": "6b87d3c681c2dc8580b4d3334de3e714", "lon": -77.02321466666666}, {"is_reserved": 0, "fusion_lon": 0.0, "fusion_lat": 0.0, "name": "553ff4c7d86bfb5101e375a5535c1313", "type": "electric_scooter", "is_disabled": 0, "lat": 38.904617, "rental_uris": {"android": "https://dc.lft.to/lastmile_qr_scan", "ios": "https://dc.lft.to/lastmile_qr_scan"}, "bike_id": "553ff4c7d86bfb5101e375a5535c1313", "lon": -77.04481733333333}, {"is_reserved": 0, "fusion_lon": 0.0, "fusion_lat": 0.0, "name": "f9c41ad6a492da015ecb832c348160c8", "type": "electric_scooter", "is_disabled": 0, "lat": 38.881032, "rental_uris": {"android": "https://dc.lft.to/lastmile_qr_scan", "ios": "https://dc.lft.to/lastmile_qr_scan"}, "bike_id": "f9c41ad6a492da015ecb832c348160c8", "lon": -77.01683866666667}, {"is_reserved": 0, "fusion_lon": 0.0, "fusion_lat": 0.0, "name": "16d8a53f3918e00bec592052c35d597d", "type": "electric_scooter", "is_disabled": 0, "lat": 38.89625133333333, "rental_uris": {"android": "https://dc.lft.to/lastmile_qr_scan", "ios": "https://dc.lft.to/lastmile_qr_scan"}, "bike_id": "16d8a53f3918e00bec592052c35d597d", "lon": -77.032078}, {"is_reserved": 0, "fusion_lon": 0.0, "fusion_lat": 0.0, "name": "56a62b8cc12fc2f2870129224e0cab9b", "type": "electric_scooter", "is_disabled": 0, "lat": 38.9178575, "rental_uris": {"android": "https://dc.lft.to/lastmile_qr_scan", "ios": "https://dc.lft.to/lastmile_qr_scan"}, "bike_id": "56a62b8cc12fc2f2870129224e0cab9b", "lon": -77.02587516666667}, {"is_reserved": 0, "fusion_lon": 0.0, "fusion_lat": 0.0, "name": "da8bed53d3d6c4c0202e895089b626d0", "type": "electric_scooter", "is_disabled": 0, "lat": 38.902591666666666, "rental_uris": {"android": "https://dc.lft.to/lastmile_qr_scan", "ios": "https://dc.lft.to/lastmile_qr_scan"}, "bike_id": "da8bed53d3d6c4c0202e895089b626d0", "lon": -77.03148566666667}, {"is_reserved": 0, "fusion_lon": 0.0, "fusion_lat": 0.0, "name": "7d3caf42aade2f42a3e628d9bc49d779", "type": "electric_scooter", "is_disabled": 0, "lat": 38.90808066666666, "rental_uris": {"android": "https://dc.lft.to/lastmile_qr_scan", "ios": "https://dc.lft.to/lastmile_qr_scan"}, "bike_id": "7d3caf42aade2f42a3e628d9bc49d779", "lon": -77.03445266666667}, {"is_reserved": 0, "fusion_lon": 0.0, "fusion_lat": 0.0, "name": "9d815eb5738a398d704cdfa686cfa733", "type": "electric_scooter", "is_disabled": 0, "lat": 38.89014683333333, "rental_uris": {"android": "https://dc.lft.to/lastmile_qr_scan", "ios": "https://dc.lft.to/lastmile_qr_scan"}, "bike_id": "9d815eb5738a398d704cdfa686cfa733", "lon": -76.93736433333333}, {"is_reserved": 0, "fusion_lon": 0.0, "fusion_lat": 0.0, "name": "c628f7463b24548d4a475ee9042cd429", "type": "electric_scooter", "is_disabled": 0, "lat": 38.93453983333333, "rental_uris": {"android": "https://dc.lft.to/lastmile_qr_scan", "ios": "https://dc.lft.to/lastmile_qr_scan"}, "bike_id": "c628f7463b24548d4a475ee9042cd429", "lon": -77.03751766666667}, {"is_reserved": 0, "fusion_lon": 0.0, "fusion_lat": 0.0, "name": "c1804139beed4cfb8331b627fb0156eb", "type": "electric_scooter", "is_disabled": 0, "lat": 38.907423333333334, "rental_uris": {"android": "https://dc.lft.to/lastmile_qr_scan", "ios": "https://dc.lft.to/lastmile_qr_scan"}, "bike_id": "c1804139beed4cfb8331b627fb0156eb", "lon": -77.04140833333334}, {"is_reserved": 0, "fusion_lon": 0.0, "fusion_lat": 0.0, "name": "e2c260ff91bdc9b961141c22054a1d7a", "type": "electric_scooter", "is_disabled": 0, "lat": 38.900216, "rental_uris": {"android": "https://dc.lft.to/lastmile_qr_scan", "ios": "https://dc.lft.to/lastmile_qr_scan"}, "bike_id": "e2c260ff91bdc9b961141c22054a1d7a", "lon": -76.988639}, {"is_reserved": 0, "fusion_lon": 0.0, "fusion_lat": 0.0, "name": "c663dff3fa280666823cff31fde8d38e", "type": "electric_bike", "is_disabled": 0, "lat": 38.88112266666667, "rental_uris": {"android": "https://dc.lft.to/lastmile_qr_scan", "ios": "https://dc.lft.to/lastmile_qr_scan"}, "bike_id": "c663dff3fa280666823cff31fde8d38e", "lon": -77.01656116666666}, {"is_reserved": 0, "fusion_lon": 0.0, "fusion_lat": 0.0, "name": "1c1a51cfc7a9e68634d22d9707892d60", "type": "electric_scooter", "is_disabled": 0, "lat": 38.899282, "rental_uris": {"android": "https://dc.lft.to/lastmile_qr_scan", "ios": "https://dc.lft.to/lastmile_qr_scan"}, "bike_id": "1c1a51cfc7a9e68634d22d9707892d60", "lon": -77.00351366666666}, {"is_reserved": 0, "fusion_lon": 0.0, "fusion_lat": 0.0, "name": "169daedc4cf05829762f68dd45b87b04", "type": "electric_scooter", "is_disabled": 0, "lat": 38.93622583333333, "rental_uris": {"android": "https://dc.lft.to/lastmile_qr_scan", "ios": "https://dc.lft.to/lastmile_qr_scan"}, "bike_id": "169daedc4cf05829762f68dd45b87b04", "lon": -77.05893716666667}, {"is_reserved": 0, "fusion_lon": 0.0, "fusion_lat": 0.0, "name": "293840759d5d1db91754e0c6152ecd13", "type": "electric_scooter", "is_disabled": 0, "lat": 38.92247033333334, "rental_uris": {"android": "https://dc.lft.to/lastmile_qr_scan", "ios": "https://dc.lft.to/lastmile_qr_scan"}, "bike_id": "293840759d5d1db91754e0c6152ecd13", "lon": -77.0295375}, {"is_reserved": 0, "fusion_lon": 0.0, "fusion_lat": 0.0, "name": "e0ea6564e6ebfe1262b53a1dddd08335", "type": "electric_scooter", "is_disabled": 0, "lat": 38.9282295, "rental_uris": {"android": "https://dc.lft.to/lastmile_qr_scan", "ios": "https://dc.lft.to/lastmile_qr_scan"}, "bike_id": "e0ea6564e6ebfe1262b53a1dddd08335", "lon": -77.0225515}, {"is_reserved": 0, "fusion_lon": 0.0, "fusion_lat": 0.0, "name": "28f62042e056c0ca996a783d7ed946cb", "type": "electric_scooter", "is_disabled": 0, "lat": 38.90984783333333, "rental_uris": {"android": "https://dc.lft.to/lastmile_qr_scan", "ios": "https://dc.lft.to/lastmile_qr_scan"}, "bike_id": "28f62042e056c0ca996a783d7ed946cb", "lon": -77.0486825}, {"is_reserved": 0, "fusion_lon": 0.0, "fusion_lat": 0.0, "name": "4e74b3f6ae4a32aecb43ef474c0c6683", "type": "electric_scooter", "is_disabled": 0, "lat": 38.904334666666664, "rental_uris": {"android": "https://dc.lft.to/lastmile_qr_scan", "ios": "https://dc.lft.to/lastmile_qr_scan"}, "bike_id": "4e74b3f6ae4a32aecb43ef474c0c6683", "lon": -77.02590666666667}, {"is_reserved": 0, "fusion_lon": 0.0, "fusion_lat": 0.0, "name": "120853beabc62770904e07128191e590", "type": "electric_scooter", "is_disabled": 0, "lat": 38.8699595, "rental_uris": {"android": "https://dc.lft.to/lastmile_qr_scan", "ios": "https://dc.lft.to/lastmile_qr_scan"}, "bike_id": "120853beabc62770904e07128191e590", "lon": -76.975918}, {"is_reserved": 0, "fusion_lon": 0.0, "fusion_lat": 0.0, "name": "0c0ad1f57326dd51166708c37985479e", "type": "electric_scooter", "is_disabled": 0, "lat": 38.905603666666664, "rental_uris": {"android": "https://dc.lft.to/lastmile_qr_scan", "ios": "https://dc.lft.to/lastmile_qr_scan"}, "bike_id": "0c0ad1f57326dd51166708c37985479e", "lon": -77.00592716666667}, {"is_reserved": 0, "fusion_lon": 0.0, "fusion_lat": 0.0, "name": "af1eb531899e7405df03152fd4595c7e", "type": "electric_scooter", "is_disabled": 0, "lat": 38.90261133333333, "rental_uris": {"android": "https://dc.lft.to/lastmile_qr_scan", "ios": "https://dc.lft.to/lastmile_qr_scan"}, "bike_id": "af1eb531899e7405df03152fd4595c7e", "lon": -76.995568}, {"is_reserved": 0, "fusion_lon": 0.0, "fusion_lat": 0.0, "name": "e4f5847eec07c5ff69e7baa459060f03", "type": "electric_scooter", "is_disabled": 0, "lat": 38.98461783333333, "rental_uris": {"android": "https://dc.lft.to/lastmile_qr_scan", "ios": "https://dc.lft.to/lastmile_qr_scan"}, "bike_id": "e4f5847eec07c5ff69e7baa459060f03", "lon": -77.02644883333333}, {"is_reserved": 0, "fusion_lon": 0.0, "fusion_lat": 0.0, "name": "08a0ef2ee6b9cbb2e2e539c0c2083a34", "type": "electric_scooter", "is_disabled": 0, "lat": 38.9323185, "rental_uris": {"android": "https://dc.lft.to/lastmile_qr_scan", "ios": "https://dc.lft.to/lastmile_qr_scan"}, "bike_id": "08a0ef2ee6b9cbb2e2e539c0c2083a34", "lon": -77.038622}, {"is_reserved": 0, "fusion_lon": 0.0, "fusion_lat": 0.0, "name": "715a48a81a2933961853070b48f48f25", "type": "electric_scooter", "is_disabled": 0, "lat": 38.92105683333333, "rental_uris": {"android": "https://dc.lft.to/lastmile_qr_scan", "ios": "https://dc.lft.to/lastmile_qr_scan"}, "bike_id": "715a48a81a2933961853070b48f48f25", "lon": -77.04096916666667}, {"is_reserved": 0, "fusion_lon": 0.0, "fusion_lat": 0.0, "name": "2fe88fd667fd6c646eb3795848951c36", "type": "electric_scooter", "is_disabled": 0, "lat": 38.887239666666666, "rental_uris": {"android": "https://dc.lft.to/lastmile_qr_scan", "ios": "https://dc.lft.to/lastmile_qr_scan"}, "bike_id": "2fe88fd667fd6c646eb3795848951c36", "lon": -77.02827233333333}, {"is_reserved": 0, "fusion_lon": 0.0, "fusion_lat": 0.0, "name": "ef2842440086c62aeb93c71c35dda3db", "type": "electric_bike", "is_disabled": 0, "lat": 39.05283816666667, "rental_uris": {"android": "https://dc.lft.to/lastmile_qr_scan", "ios": "https://dc.lft.to/lastmile_qr_scan"}, "bike_id": "ef2842440086c62aeb93c71c35dda3db", "lon": -77.08070816666667}, {"is_reserved": 0, "fusion_lon": 0.0, "fusion_lat": 0.0, "name": "d52bade9fda0eeadd9c5672da47b2e27", "type": "electric_scooter", "is_disabled": 0, "lat": 38.8782835, "rental_uris": {"android": "https://dc.lft.to/lastmile_qr_scan", "ios": "https://dc.lft.to/lastmile_qr_scan"}, "bike_id": "d52bade9fda0eeadd9c5672da47b2e27", "lon": -76.9630785}, {"is_reserved": 0, "fusion_lon": 0.0, "fusion_lat": 0.0, "name": "b10db3bb25342527b5488e39a89e3ff4", "type": "electric_scooter", "is_disabled": 0, "lat": 38.911207833333336, "rental_uris": {"android": "https://dc.lft.to/lastmile_qr_scan", "ios": "https://dc.lft.to/lastmile_qr_scan"}, "bike_id": "b10db3bb25342527b5488e39a89e3ff4", "lon": -77.038343}, {"is_reserved": 0, "fusion_lon": 0.0, "fusion_lat": 0.0, "name": "49e8d006b0a72845f088a27f8c1e2ad7", "type": "electric_scooter", "is_disabled": 0, "lat": 38.91625283333333, "rental_uris": {"android": "https://dc.lft.to/lastmile_qr_scan", "ios": "https://dc.lft.to/lastmile_qr_scan"}, "bike_id": "49e8d006b0a72845f088a27f8c1e2ad7", "lon": -77.03167533333334}, {"is_reserved": 0, "fusion_lon": 0.0, "fusion_lat": 0.0, "name": "18e56234c877e93523f002b206d01c4b", "type": "electric_scooter", "is_disabled": 0, "lat": 38.86654216666667, "rental_uris": {"android": "https://dc.lft.to/lastmile_qr_scan", "ios": "https://dc.lft.to/lastmile_qr_scan"}, "bike_id": "18e56234c877e93523f002b206d01c4b", "lon": -76.9888575}, {"is_reserved": 0, "fusion_lon": 0.0, "fusion_lat": 0.0, "name": "01577138587c0772760479d5ac297b8c", "type": "electric_scooter", "is_disabled": 0, "lat": 38.8951425, "rental_uris": {"android": "https://dc.lft.to/lastmile_qr_scan", "ios": "https://dc.lft.to/lastmile_qr_scan"}, "bike_id": "01577138587c0772760479d5ac297b8c", "lon": -77.0286735}, {"is_reserved": 0, "fusion_lon": 0.0, "fusion_lat": 0.0, "name": "3714c9be902a1637f12d861f39bb08bc", "type": "electric_scooter", "is_disabled": 0, "lat": 38.91948333333333, "rental_uris": {"android": "https://dc.lft.to/lastmile_qr_scan", "ios": "https://dc.lft.to/lastmile_qr_scan"}, "bike_id": "3714c9be902a1637f12d861f39bb08bc", "lon": -77.02526066666667}, {"is_reserved": 0, "fusion_lon": 0.0, "fusion_lat": 0.0, "name": "dbc2a656c7c600c231675676455f7659", "type": "electric_bike", "is_disabled": 0, "lat": 38.941527, "rental_uris": {"android": "https://dc.lft.to/lastmile_qr_scan", "ios": "https://dc.lft.to/lastmile_qr_scan"}, "bike_id": "dbc2a656c7c600c231675676455f7659", "lon": -77.00195483333333}, {"is_reserved": 0, "fusion_lon": 0.0, "fusion_lat": 0.0, "name": "0645d3ca4baeb32ee9f137265109f472", "type": "electric_scooter", "is_disabled": 0, "lat": 38.948687666666665, "rental_uris": {"android": "https://dc.lft.to/lastmile_qr_scan", "ios": "https://dc.lft.to/lastmile_qr_scan"}, "bike_id": "0645d3ca4baeb32ee9f137265109f472", "lon": -77.03888816666667}, {"is_reserved": 0, "fusion_lon": 0.0, "fusion_lat": 0.0, "name": "c34b0732c411f360b10e305b1e14b33e", "type": "electric_scooter", "is_disabled": 0, "lat": 38.87847383333333, "rental_uris": {"android": "https://dc.lft.to/lastmile_qr_scan", "ios": "https://dc.lft.to/lastmile_qr_scan"}, "bike_id": "c34b0732c411f360b10e305b1e14b33e", "lon": -77.03019666666667}, {"is_reserved": 0, "fusion_lon": 0.0, "fusion_lat": 0.0, "name": "016d154d4b16a43ac2f50d27f4642813", "type": "electric_scooter", "is_disabled": 0, "lat": 38.914703333333335, "rental_uris": {"android": "https://dc.lft.to/lastmile_qr_scan", "ios": "https://dc.lft.to/lastmile_qr_scan"}, "bike_id": "016d154d4b16a43ac2f50d27f4642813", "lon": -77.03213316666667}, {"is_reserved": 0, "fusion_lon": 0.0, "fusion_lat": 0.0, "name": "a32082b38a8cc132ffa11d43f2daea3f", "type": "electric_scooter", "is_disabled": 0, "lat": 38.91573483333333, "rental_uris": {"android": "https://dc.lft.to/lastmile_qr_scan", "ios": "https://dc.lft.to/lastmile_qr_scan"}, "bike_id": "a32082b38a8cc132ffa11d43f2daea3f", "lon": -77.01245983333334}, {"is_reserved": 0, "fusion_lon": 0.0, "fusion_lat": 0.0, "name": "1d8890765836cce5012fcbd5e9082bac", "type": "electric_scooter", "is_disabled": 0, "lat": 38.90179233333333, "rental_uris": {"android": "https://dc.lft.to/lastmile_qr_scan", "ios": "https://dc.lft.to/lastmile_qr_scan"}, "bike_id": "1d8890765836cce5012fcbd5e9082bac", "lon": -77.02301}, {"is_reserved": 0, "fusion_lon": 0.0, "fusion_lat": 0.0, "name": "3eaf83c7f8123fe63f9bcb64db9f85a0", "type": "electric_scooter", "is_disabled": 0, "lat": 38.935631, "rental_uris": {"android": "https://dc.lft.to/lastmile_qr_scan", "ios": "https://dc.lft.to/lastmile_qr_scan"}, "bike_id": "3eaf83c7f8123fe63f9bcb64db9f85a0", "lon": -77.07310733333334}, {"is_reserved": 0, "fusion_lon": 0.0, "fusion_lat": 0.0, "name": "59059ca40f254b6b0090c5cb64ce5ecb", "type": "electric_bike", "is_disabled": 0, "lat": 39.0147955, "rental_uris": {"android": "https://dc.lft.to/lastmile_qr_scan", "ios": "https://dc.lft.to/lastmile_qr_scan"}, "bike_id": "59059ca40f254b6b0090c5cb64ce5ecb", "lon": -77.054931}, {"is_reserved": 0, "fusion_lon": 0.0, "fusion_lat": 0.0, "name": "473e2f5abd495b65da0a92e9bb4e25f4", "type": "electric_scooter", "is_disabled": 0, "lat": 38.90265, "rental_uris": {"android": "https://dc.lft.to/lastmile_qr_scan", "ios": "https://dc.lft.to/lastmile_qr_scan"}, "bike_id": "473e2f5abd495b65da0a92e9bb4e25f4", "lon": -77.017688}, {"is_reserved": 0, "fusion_lon": 0.0, "fusion_lat": 0.0, "name": "94f6c340e3f399ed072081c95ad88f1c", "type": "electric_scooter", "is_disabled": 0, "lat": 38.912669, "rental_uris": {"android": "https://dc.lft.to/lastmile_qr_scan", "ios": "https://dc.lft.to/lastmile_qr_scan"}, "bike_id": "94f6c340e3f399ed072081c95ad88f1c", "lon": -77.02866016666667}, {"is_reserved": 0, "fusion_lon": 0.0, "fusion_lat": 0.0, "name": "7a558f13e334b978057e9bfccb0ccb9a", "type": "electric_bike", "is_disabled": 0, "lat": 38.967451833333335, "rental_uris": {"android": "https://dc.lft.to/lastmile_qr_scan", "ios": "https://dc.lft.to/lastmile_qr_scan"}, "bike_id": "7a558f13e334b978057e9bfccb0ccb9a", "lon": -76.9818745}, {"is_reserved": 0, "fusion_lon": 0.0, "fusion_lat": 0.0, "name": "a1f90938307628e40ce61e773e67d8cc", "type": "electric_scooter", "is_disabled": 0, "lat": 38.915584833333334, "rental_uris": {"android": "https://dc.lft.to/lastmile_qr_scan", "ios": "https://dc.lft.to/lastmile_qr_scan"}, "bike_id": "a1f90938307628e40ce61e773e67d8cc", "lon": -77.04104733333334}, {"is_reserved": 0, "fusion_lon": 0.0, "fusion_lat": 0.0, "name": "fb1e6a6af96e69f8f9362f2daf470904", "type": "electric_scooter", "is_disabled": 0, "lat": 38.91797066666667, "rental_uris": {"android": "https://dc.lft.to/lastmile_qr_scan", "ios": "https://dc.lft.to/lastmile_qr_scan"}, "bike_id": "fb1e6a6af96e69f8f9362f2daf470904", "lon": -77.04019633333333}, {"is_reserved": 0, "fusion_lon": 0.0, "fusion_lat": 0.0, "name": "359ac78adc16779ceacd766befb43c57", "type": "electric_scooter", "is_disabled": 0, "lat": 38.91192516666667, "rental_uris": {"android": "https://dc.lft.to/lastmile_qr_scan", "ios": "https://dc.lft.to/lastmile_qr_scan"}, "bike_id": "359ac78adc16779ceacd766befb43c57", "lon": -77.038351}, {"is_reserved": 0, "fusion_lon": 0.0, "fusion_lat": 0.0, "name": "b55c5481a452f620dae07af0816df87d", "type": "electric_scooter", "is_disabled": 0, "lat": 38.927461666666666, "rental_uris": {"android": "https://dc.lft.to/lastmile_qr_scan", "ios": "https://dc.lft.to/lastmile_qr_scan"}, "bike_id": "b55c5481a452f620dae07af0816df87d", "lon": -77.0326805}, {"is_reserved": 0, "fusion_lon": 0.0, "fusion_lat": 0.0, "name": "e81e7b2bf0459355f9d8b6bb045e5c9d", "type": "electric_scooter", "is_disabled": 0, "lat": 38.883246166666666, "rental_uris": {"android": "https://dc.lft.to/lastmile_qr_scan", "ios": "https://dc.lft.to/lastmile_qr_scan"}, "bike_id": "e81e7b2bf0459355f9d8b6bb045e5c9d", "lon": -77.02020533333334}, {"is_reserved": 0, "fusion_lon": 0.0, "fusion_lat": 0.0, "name": "54839dfd85574a8a6154d2c0da520c1a", "type": "electric_scooter", "is_disabled": 0, "lat": 38.926586, "rental_uris": {"android": "https://dc.lft.to/lastmile_qr_scan", "ios": "https://dc.lft.to/lastmile_qr_scan"}, "bike_id": "54839dfd85574a8a6154d2c0da520c1a", "lon": -77.03727333333333}, {"is_reserved": 0, "fusion_lon": 0.0, "fusion_lat": 0.0, "name": "c596cadb5f3ac680557bf85bb8f1b5e3", "type": "electric_bike", "is_disabled": 0, "lat": 39.02434383333333, "rental_uris": {"android": "https://dc.lft.to/lastmile_qr_scan", "ios": "https://dc.lft.to/lastmile_qr_scan"}, "bike_id": "c596cadb5f3ac680557bf85bb8f1b5e3", "lon": -77.13101116666667}, {"is_reserved": 0, "fusion_lon": 0.0, "fusion_lat": 0.0, "name": "203f595076261469b3275df533d2ea11", "type": "electric_scooter", "is_disabled": 0, "lat": 38.89226683333333, "rental_uris": {"android": "https://dc.lft.to/lastmile_qr_scan", "ios": "https://dc.lft.to/lastmile_qr_scan"}, "bike_id": "203f595076261469b3275df533d2ea11", "lon": -77.045022}, {"is_reserved": 0, "fusion_lon": 0.0, "fusion_lat": 0.0, "name": "8a7af8c9d665445757e571b2ea43be0b", "type": "electric_scooter", "is_disabled": 0, "lat": 38.906357166666666, "rental_uris": {"android": "https://dc.lft.to/lastmile_qr_scan", "ios": "https://dc.lft.to/lastmile_qr_scan"}, "bike_id": "8a7af8c9d665445757e571b2ea43be0b", "lon": -77.04786466666667}, {"is_reserved": 0, "fusion_lon": 0.0, "fusion_lat": 0.0, "name": "3c3df8cbd886a97b29ed2f6603622344", "type": "electric_scooter", "is_disabled": 0, "lat": 38.922314666666665, "rental_uris": {"android": "https://dc.lft.to/lastmile_qr_scan", "ios": "https://dc.lft.to/lastmile_qr_scan"}, "bike_id": "3c3df8cbd886a97b29ed2f6603622344", "lon": -77.02329516666667}, {"is_reserved": 0, "fusion_lon": 0.0, "fusion_lat": 0.0, "name": "ac302cea1951e6d682df647a48d286a1", "type": "electric_scooter", "is_disabled": 0, "lat": 38.863989833333335, "rental_uris": {"android": "https://dc.lft.to/lastmile_qr_scan", "ios": "https://dc.lft.to/lastmile_qr_scan"}, "bike_id": "ac302cea1951e6d682df647a48d286a1", "lon": -76.97445033333334}, {"is_reserved": 0, "fusion_lon": 0.0, "fusion_lat": 0.0, "name": "c90e59b6ddb2c55b8297c9f72267e617", "type": "electric_scooter", "is_disabled": 0, "lat": 38.860692, "rental_uris": {"android": "https://dc.lft.to/lastmile_qr_scan", "ios": "https://dc.lft.to/lastmile_qr_scan"}, "bike_id": "c90e59b6ddb2c55b8297c9f72267e617", "lon": -76.96887866666667}, {"is_reserved": 0, "fusion_lon": 0.0, "fusion_lat": 0.0, "name": "367a9a02ccab607eccc12fc1355061d2", "type": "electric_scooter", "is_disabled": 0, "lat": 38.90661883333333, "rental_uris": {"android": "https://dc.lft.to/lastmile_qr_scan", "ios": "https://dc.lft.to/lastmile_qr_scan"}, "bike_id": "367a9a02ccab607eccc12fc1355061d2", "lon": -77.038468}, {"is_reserved": 0, "fusion_lon": 0.0, "fusion_lat": 0.0, "name": "7470983332f7c5ac7990edd62d303071", "type": "electric_scooter", "is_disabled": 0, "lat": 38.887842166666665, "rental_uris": {"android": "https://dc.lft.to/lastmile_qr_scan", "ios": "https://dc.lft.to/lastmile_qr_scan"}, "bike_id": "7470983332f7c5ac7990edd62d303071", "lon": -76.95524933333333}, {"is_reserved": 0, "fusion_lon": 0.0, "fusion_lat": 0.0, "name": "3494b84e5c8a030ef2ddbc01904a08dd", "type": "electric_scooter", "is_disabled": 0, "lat": 38.88756433333333, "rental_uris": {"android": "https://dc.lft.to/lastmile_qr_scan", "ios": "https://dc.lft.to/lastmile_qr_scan"}, "bike_id": "3494b84e5c8a030ef2ddbc01904a08dd", "lon": -77.0154335}, {"is_reserved": 0, "fusion_lon": 0.0, "fusion_lat": 0.0, "name": "72e692f645d3b139274d44d0e858cd0c", "type": "electric_bike", "is_disabled": 0, "lat": 38.94793466666667, "rental_uris": {"android": "https://dc.lft.to/lastmile_qr_scan", "ios": "https://dc.lft.to/lastmile_qr_scan"}, "bike_id": "72e692f645d3b139274d44d0e858cd0c", "lon": -76.97215466666667}, {"is_reserved": 0, "fusion_lon": 0.0, "fusion_lat": 0.0, "name": "4be2ea829aee0d4e7f58d4a5daee0d6e", "type": "electric_scooter", "is_disabled": 0, "lat": 38.92994383333333, "rental_uris": {"android": "https://dc.lft.to/lastmile_qr_scan", "ios": "https://dc.lft.to/lastmile_qr_scan"}, "bike_id": "4be2ea829aee0d4e7f58d4a5daee0d6e", "lon": -77.04429733333333}, {"is_reserved": 0, "fusion_lon": 0.0, "fusion_lat": 0.0, "name": "6e41b1d83baa35547ad789507566cf78", "type": "electric_scooter", "is_disabled": 0, "lat": 38.905596, "rental_uris": {"android": "https://dc.lft.to/lastmile_qr_scan", "ios": "https://dc.lft.to/lastmile_qr_scan"}, "bike_id": "6e41b1d83baa35547ad789507566cf78", "lon": -77.04467}, {"is_reserved": 0, "fusion_lon": 0.0, "fusion_lat": 0.0, "name": "7439414c76010737639d937b0c08dac8", "type": "electric_bike", "is_disabled": 0, "lat": 38.854156, "rental_uris": {"android": "https://dc.lft.to/lastmile_qr_scan", "ios": "https://dc.lft.to/lastmile_qr_scan"}, "bike_id": "7439414c76010737639d937b0c08dac8", "lon": -77.12078283333334}, {"is_reserved": 0, "fusion_lon": 0.0, "fusion_lat": 0.0, "name": "9e96d871e8c21e9f1f52136f695ed3db", "type": "electric_scooter", "is_disabled": 0, "lat": 38.917295833333334, "rental_uris": {"android": "https://dc.lft.to/lastmile_qr_scan", "ios": "https://dc.lft.to/lastmile_qr_scan"}, "bike_id": "9e96d871e8c21e9f1f52136f695ed3db", "lon": -77.0684675}, {"is_reserved": 0, "fusion_lon": 0.0, "fusion_lat": 0.0, "name": "026cf45273523d7d7d156a44b4e2a9e9", "type": "electric_scooter", "is_disabled": 0, "lat": 38.89900866666667, "rental_uris": {"android": "https://dc.lft.to/lastmile_qr_scan", "ios": "https://dc.lft.to/lastmile_qr_scan"}, "bike_id": "026cf45273523d7d7d156a44b4e2a9e9", "lon": -76.99158283333334}, {"is_reserved": 0, "fusion_lon": 0.0, "fusion_lat": 0.0, "name": "337e546bf9f6d0f02d883639420ce7c2", "type": "electric_scooter", "is_disabled": 0, "lat": 38.89930283333333, "rental_uris": {"android": "https://dc.lft.to/lastmile_qr_scan", "ios": "https://dc.lft.to/lastmile_qr_scan"}, "bike_id": "337e546bf9f6d0f02d883639420ce7c2", "lon": -76.9457025}, {"is_reserved": 0, "fusion_lon": 0.0, "fusion_lat": 0.0, "name": "078f65d3037e43d4360c91fae13d3746", "type": "electric_scooter", "is_disabled": 0, "lat": 38.904919666666665, "rental_uris": {"android": "https://dc.lft.to/lastmile_qr_scan", "ios": "https://dc.lft.to/lastmile_qr_scan"}, "bike_id": "078f65d3037e43d4360c91fae13d3746", "lon": -76.97928983333334}, {"is_reserved": 0, "fusion_lon": 0.0, "fusion_lat": 0.0, "name": "e391ebcc926d280802669af981e63314", "type": "electric_scooter", "is_disabled": 0, "lat": 38.871233333333336, "rental_uris": {"android": "https://dc.lft.to/lastmile_qr_scan", "ios": "https://dc.lft.to/lastmile_qr_scan"}, "bike_id": "e391ebcc926d280802669af981e63314", "lon": -77.00759966666666}, {"is_reserved": 0, "fusion_lon": 0.0, "fusion_lat": 0.0, "name": "9a92cf56bc7c05fa32467038c934a5e4", "type": "electric_scooter", "is_disabled": 0, "lat": 38.899139166666664, "rental_uris": {"android": "https://dc.lft.to/lastmile_qr_scan", "ios": "https://dc.lft.to/lastmile_qr_scan"}, "bike_id": "9a92cf56bc7c05fa32467038c934a5e4", "lon": -76.9338425}, {"is_reserved": 0, "fusion_lon": 0.0, "fusion_lat": 0.0, "name": "d37222008a00488127ad8d443be18c07", "type": "electric_scooter", "is_disabled": 0, "lat": 38.905838333333335, "rental_uris": {"android": "https://dc.lft.to/lastmile_qr_scan", "ios": "https://dc.lft.to/lastmile_qr_scan"}, "bike_id": "d37222008a00488127ad8d443be18c07", "lon": -77.02383916666666}, {"is_reserved": 0, "fusion_lon": 0.0, "fusion_lat": 0.0, "name": "2a8b023cd713fff9c4735b27c1879261", "type": "electric_bike", "is_disabled": 0, "lat": 38.96616016666667, "rental_uris": {"android": "https://dc.lft.to/lastmile_qr_scan", "ios": "https://dc.lft.to/lastmile_qr_scan"}, "bike_id": "2a8b023cd713fff9c4735b27c1879261", "lon": -77.03433633333333}, {"is_reserved": 0, "fusion_lon": 0.0, "fusion_lat": 0.0, "name": "e0b47c478ab9fd04a2c8604d9bfdd95e", "type": "electric_bike", "is_disabled": 0, "lat": 38.8935325, "rental_uris": {"android": "https://dc.lft.to/lastmile_qr_scan", "ios": "https://dc.lft.to/lastmile_qr_scan"}, "bike_id": "e0b47c478ab9fd04a2c8604d9bfdd95e", "lon": -77.18741333333334}, {"is_reserved": 0, "fusion_lon": 0.0, "fusion_lat": 0.0, "name": "80ebcab5eccaeb3f9e4634691d5b6e89", "type": "electric_scooter", "is_disabled": 0, "lat": 38.91706633333333, "rental_uris": {"android": "https://dc.lft.to/lastmile_qr_scan", "ios": "https://dc.lft.to/lastmile_qr_scan"}, "bike_id": "80ebcab5eccaeb3f9e4634691d5b6e89", "lon": -77.02293816666666}, {"is_reserved": 0, "fusion_lon": 0.0, "fusion_lat": 0.0, "name": "fbe6612a1219b5a0927bdbeca7c722bb", "type": "electric_scooter", "is_disabled": 0, "lat": 38.92165083333333, "rental_uris": {"android": "https://dc.lft.to/lastmile_qr_scan", "ios": "https://dc.lft.to/lastmile_qr_scan"}, "bike_id": "fbe6612a1219b5a0927bdbeca7c722bb", "lon": -77.04342733333333}, {"is_reserved": 0, "fusion_lon": 0.0, "fusion_lat": 0.0, "name": "949969bbd4940c0123ff292281d540c5", "type": "electric_scooter", "is_disabled": 0, "lat": 38.9081015, "rental_uris": {"android": "https://dc.lft.to/lastmile_qr_scan", "ios": "https://dc.lft.to/lastmile_qr_scan"}, "bike_id": "949969bbd4940c0123ff292281d540c5", "lon": -77.03447216666666}, {"is_reserved": 0, "fusion_lon": 0.0, "fusion_lat": 0.0, "name": "fcc7a71a9e83ae0f289dbbe51a35bbba", "type": "electric_scooter", "is_disabled": 0, "lat": 38.897418333333334, "rental_uris": {"android": "https://dc.lft.to/lastmile_qr_scan", "ios": "https://dc.lft.to/lastmile_qr_scan"}, "bike_id": "fcc7a71a9e83ae0f289dbbe51a35bbba", "lon": -77.0473165}, {"is_reserved": 0, "fusion_lon": 0.0, "fusion_lat": 0.0, "name": "4913dd66c8dc91aeb2049380da59422e", "type": "electric_scooter", "is_disabled": 0, "lat": 38.893831166666665, "rental_uris": {"android": "https://dc.lft.to/lastmile_qr_scan", "ios": "https://dc.lft.to/lastmile_qr_scan"}, "bike_id": "4913dd66c8dc91aeb2049380da59422e", "lon": -77.02250583333333}, {"is_reserved": 0, "fusion_lon": 0.0, "fusion_lat": 0.0, "name": "c464b7f0db8d977ac2faf7c40bd68f82", "type": "electric_scooter", "is_disabled": 0, "lat": 38.912823333333336, "rental_uris": {"android": "https://dc.lft.to/lastmile_qr_scan", "ios": "https://dc.lft.to/lastmile_qr_scan"}, "bike_id": "c464b7f0db8d977ac2faf7c40bd68f82", "lon": -77.04505016666667}, {"is_reserved": 0, "fusion_lon": 0.0, "fusion_lat": 0.0, "name": "28666dfb46e5c5634efd0eb995172525", "type": "electric_scooter", "is_disabled": 0, "lat": 38.9325015, "rental_uris": {"android": "https://dc.lft.to/lastmile_qr_scan", "ios": "https://dc.lft.to/lastmile_qr_scan"}, "bike_id": "28666dfb46e5c5634efd0eb995172525", "lon": -77.03854516666667}, {"is_reserved": 0, "fusion_lon": 0.0, "fusion_lat": 0.0, "name": "ce7a90542c1276025ccf8fb8e1f9f127", "type": "electric_scooter", "is_disabled": 0, "lat": 38.91264483333333, "rental_uris": {"android": "https://dc.lft.to/lastmile_qr_scan", "ios": "https://dc.lft.to/lastmile_qr_scan"}, "bike_id": "ce7a90542c1276025ccf8fb8e1f9f127", "lon": -77.03177816666667}, {"is_reserved": 0, "fusion_lon": 0.0, "fusion_lat": 0.0, "name": "e21d5910f86808da4ff0f608a3a7d13f", "type": "electric_scooter", "is_disabled": 0, "lat": 38.88334566666666, "rental_uris": {"android": "https://dc.lft.to/lastmile_qr_scan", "ios": "https://dc.lft.to/lastmile_qr_scan"}, "bike_id": "e21d5910f86808da4ff0f608a3a7d13f", "lon": -77.01688433333334}, {"is_reserved": 0, "fusion_lon": 0.0, "fusion_lat": 0.0, "name": "5c4e4593d9d17e8f482131b9a175e67b", "type": "electric_bike", "is_disabled": 0, "lat": 38.80708083333333, "rental_uris": {"android": "https://dc.lft.to/lastmile_qr_scan", "ios": "https://dc.lft.to/lastmile_qr_scan"}, "bike_id": "5c4e4593d9d17e8f482131b9a175e67b", "lon": -77.06170516666667}, {"is_reserved": 0, "fusion_lon": 0.0, "fusion_lat": 0.0, "name": "e878bd12589c14602065375e9e569769", "type": "electric_scooter", "is_disabled": 0, "lat": 38.900291, "rental_uris": {"android": "https://dc.lft.to/lastmile_qr_scan", "ios": "https://dc.lft.to/lastmile_qr_scan"}, "bike_id": "e878bd12589c14602065375e9e569769", "lon": -77.04393533333334}, {"is_reserved": 0, "fusion_lon": 0.0, "fusion_lat": 0.0, "name": "03c40ffcd4d0c3dac464d32508472749", "type": "electric_scooter", "is_disabled": 0, "lat": 38.90983266666667, "rental_uris": {"android": "https://dc.lft.to/lastmile_qr_scan", "ios": "https://dc.lft.to/lastmile_qr_scan"}, "bike_id": "03c40ffcd4d0c3dac464d32508472749", "lon": -77.04871383333334}, {"is_reserved": 0, "fusion_lon": 0.0, "fusion_lat": 0.0, "name": "d06a0544501d4f9f7b12e16725edccc3", "type": "electric_scooter", "is_disabled": 0, "lat": 38.89763633333333, "rental_uris": {"android": "https://dc.lft.to/lastmile_qr_scan", "ios": "https://dc.lft.to/lastmile_qr_scan"}, "bike_id": "d06a0544501d4f9f7b12e16725edccc3", "lon": -77.04661016666667}, {"is_reserved": 0, "fusion_lon": 0.0, "fusion_lat": 0.0, "name": "2fdab7bc13aa0b22f7440896d6484b56", "type": "electric_scooter", "is_disabled": 0, "lat": 38.90207983333333, "rental_uris": {"android": "https://dc.lft.to/lastmile_qr_scan", "ios": "https://dc.lft.to/lastmile_qr_scan"}, "bike_id": "2fdab7bc13aa0b22f7440896d6484b56", "lon": -76.97602966666666}, {"is_reserved": 0, "fusion_lon": 0.0, "fusion_lat": 0.0, "name": "bb57b7c7953701df3d4c5b1b1316f493", "type": "electric_bike", "is_disabled": 0, "lat": 38.8076185, "rental_uris": {"android": "https://dc.lft.to/lastmile_qr_scan", "ios": "https://dc.lft.to/lastmile_qr_scan"}, "bike_id": "bb57b7c7953701df3d4c5b1b1316f493", "lon": -77.094692}, {"is_reserved": 0, "fusion_lon": 0.0, "fusion_lat": 0.0, "name": "4be457b383e9fe026ba22bc8a594145b", "type": "electric_scooter", "is_disabled": 0, "lat": 38.927954, "rental_uris": {"android": "https://dc.lft.to/lastmile_qr_scan", "ios": "https://dc.lft.to/lastmile_qr_scan"}, "bike_id": "4be457b383e9fe026ba22bc8a594145b", "lon": -77.0141475}, {"is_reserved": 0, "fusion_lon": 0.0, "fusion_lat": 0.0, "name": "b8a5952c421660b4e50f9e75e071f7cc", "type": "electric_scooter", "is_disabled": 0, "lat": 38.90069166666667, "rental_uris": {"android": "https://dc.lft.to/lastmile_qr_scan", "ios": "https://dc.lft.to/lastmile_qr_scan"}, "bike_id": "b8a5952c421660b4e50f9e75e071f7cc", "lon": -77.01305233333333}, {"is_reserved": 0, "fusion_lon": 0.0, "fusion_lat": 0.0, "name": "bf7d0156cb93a81a487e0da889ea2fe0", "type": "electric_scooter", "is_disabled": 0, "lat": 38.88618483333333, "rental_uris": {"android": "https://dc.lft.to/lastmile_qr_scan", "ios": "https://dc.lft.to/lastmile_qr_scan"}, "bike_id": "bf7d0156cb93a81a487e0da889ea2fe0", "lon": -76.9558505}, {"is_reserved": 0, "fusion_lon": 0.0, "fusion_lat": 0.0, "name": "66cb61a33de1fa731b3331f03d41ab17", "type": "electric_scooter", "is_disabled": 0, "lat": 38.866982666666665, "rental_uris": {"android": "https://dc.lft.to/lastmile_qr_scan", "ios": "https://dc.lft.to/lastmile_qr_scan"}, "bike_id": "66cb61a33de1fa731b3331f03d41ab17", "lon": -76.98589933333334}, {"is_reserved": 0, "fusion_lon": 0.0, "fusion_lat": 0.0, "name": "d97939bcf82659dcd9c4e92b56997513", "type": "electric_scooter", "is_disabled": 0, "lat": 38.905568833333334, "rental_uris": {"android": "https://dc.lft.to/lastmile_qr_scan", "ios": "https://dc.lft.to/lastmile_qr_scan"}, "bike_id": "d97939bcf82659dcd9c4e92b56997513", "lon": -77.0422035}, {"is_reserved": 0, "fusion_lon": 0.0, "fusion_lat": 0.0, "name": "f32053dca5d509cf82964a26113a3001", "type": "electric_scooter", "is_disabled": 0, "lat": 38.8984325, "rental_uris": {"android": "https://dc.lft.to/lastmile_qr_scan", "ios": "https://dc.lft.to/lastmile_qr_scan"}, "bike_id": "f32053dca5d509cf82964a26113a3001", "lon": -76.98179916666666}, {"is_reserved": 0, "fusion_lon": 0.0, "fusion_lat": 0.0, "name": "9bc7371f673c38d6109c0cd6bcca3280", "type": "electric_scooter", "is_disabled": 0, "lat": 38.88303916666667, "rental_uris": {"android": "https://dc.lft.to/lastmile_qr_scan", "ios": "https://dc.lft.to/lastmile_qr_scan"}, "bike_id": "9bc7371f673c38d6109c0cd6bcca3280", "lon": -77.03141366666667}, {"is_reserved": 0, "fusion_lon": 0.0, "fusion_lat": 0.0, "name": "f58303cd8aedc7ae20d2c6dcf586523c", "type": "electric_scooter", "is_disabled": 0, "lat": 38.8955005, "rental_uris": {"android": "https://dc.lft.to/lastmile_qr_scan", "ios": "https://dc.lft.to/lastmile_qr_scan"}, "bike_id": "f58303cd8aedc7ae20d2c6dcf586523c", "lon": -77.032619}, {"is_reserved": 0, "fusion_lon": 0.0, "fusion_lat": 0.0, "name": "1a15895e93ca5a4c4582e91aee9ae1a4", "type": "electric_bike", "is_disabled": 0, "lat": 38.934838166666665, "rental_uris": {"android": "https://dc.lft.to/lastmile_qr_scan", "ios": "https://dc.lft.to/lastmile_qr_scan"}, "bike_id": "1a15895e93ca5a4c4582e91aee9ae1a4", "lon": -77.03020116666667}, {"is_reserved": 0, "fusion_lon": 0.0, "fusion_lat": 0.0, "name": "dafed0fb7c12e2d5a4a3951b2a072633", "type": "electric_scooter", "is_disabled": 0, "lat": 38.88727883333333, "rental_uris": {"android": "https://dc.lft.to/lastmile_qr_scan", "ios": "https://dc.lft.to/lastmile_qr_scan"}, "bike_id": "dafed0fb7c12e2d5a4a3951b2a072633", "lon": -77.028337}, {"is_reserved": 0, "fusion_lon": 0.0, "fusion_lat": 0.0, "name": "1cb7e15e83fa546f0bba7051dcf8eac0", "type": "electric_scooter", "is_disabled": 0, "lat": 38.900175833333336, "rental_uris": {"android": "https://dc.lft.to/lastmile_qr_scan", "ios": "https://dc.lft.to/lastmile_qr_scan"}, "bike_id": "1cb7e15e83fa546f0bba7051dcf8eac0", "lon": -77.03366833333334}, {"is_reserved": 0, "fusion_lon": 0.0, "fusion_lat": 0.0, "name": "38724b584726351f00743e6fc5ed8978", "type": "electric_scooter", "is_disabled": 0, "lat": 38.882232333333334, "rental_uris": {"android": "https://dc.lft.to/lastmile_qr_scan", "ios": "https://dc.lft.to/lastmile_qr_scan"}, "bike_id": "38724b584726351f00743e6fc5ed8978", "lon": -76.9898455}, {"is_reserved": 0, "fusion_lon": 0.0, "fusion_lat": 0.0, "name": "cc6a478ec14e698ff5baa2649a1d4900", "type": "electric_scooter", "is_disabled": 0, "lat": 38.91080383333333, "rental_uris": {"android": "https://dc.lft.to/lastmile_qr_scan", "ios": "https://dc.lft.to/lastmile_qr_scan"}, "bike_id": "cc6a478ec14e698ff5baa2649a1d4900", "lon": -77.065451}, {"is_reserved": 0, "fusion_lon": 0.0, "fusion_lat": 0.0, "name": "4c950e838f1980da09d0b38c59715872", "type": "electric_scooter", "is_disabled": 0, "lat": 38.90418866666667, "rental_uris": {"android": "https://dc.lft.to/lastmile_qr_scan", "ios": "https://dc.lft.to/lastmile_qr_scan"}, "bike_id": "4c950e838f1980da09d0b38c59715872", "lon": -77.01696566666666}, {"is_reserved": 0, "fusion_lon": 0.0, "fusion_lat": 0.0, "name": "52ecb1d336e9a6931e21984cbcd069f6", "type": "electric_scooter", "is_disabled": 0, "lat": 38.905005833333334, "rental_uris": {"android": "https://dc.lft.to/lastmile_qr_scan", "ios": "https://dc.lft.to/lastmile_qr_scan"}, "bike_id": "52ecb1d336e9a6931e21984cbcd069f6", "lon": -76.9742295}, {"is_reserved": 0, "fusion_lon": 0.0, "fusion_lat": 0.0, "name": "4fac413034d984b9d79d9425936472dd", "type": "electric_scooter", "is_disabled": 0, "lat": 38.9181805, "rental_uris": {"android": "https://dc.lft.to/lastmile_qr_scan", "ios": "https://dc.lft.to/lastmile_qr_scan"}, "bike_id": "4fac413034d984b9d79d9425936472dd", "lon": -77.03452916666667}, {"is_reserved": 0, "fusion_lon": 0.0, "fusion_lat": 0.0, "name": "eff0fb6833e0d530c0fc0fc2bf61c980", "type": "electric_scooter", "is_disabled": 0, "lat": 38.93093666666667, "rental_uris": {"android": "https://dc.lft.to/lastmile_qr_scan", "ios": "https://dc.lft.to/lastmile_qr_scan"}, "bike_id": "eff0fb6833e0d530c0fc0fc2bf61c980", "lon": -77.02663283333334}, {"is_reserved": 0, "fusion_lon": 0.0, "fusion_lat": 0.0, "name": "0602130b0b577b0175972083fe6a910c", "type": "electric_scooter", "is_disabled": 0, "lat": 38.897355, "rental_uris": {"android": "https://dc.lft.to/lastmile_qr_scan", "ios": "https://dc.lft.to/lastmile_qr_scan"}, "bike_id": "0602130b0b577b0175972083fe6a910c", "lon": -77.0336755}, {"is_reserved": 0, "fusion_lon": 0.0, "fusion_lat": 0.0, "name": "b24951e37ced59d314b3124576df6780", "type": "electric_scooter", "is_disabled": 0, "lat": 38.90381583333333, "rental_uris": {"android": "https://dc.lft.to/lastmile_qr_scan", "ios": "https://dc.lft.to/lastmile_qr_scan"}, "bike_id": "b24951e37ced59d314b3124576df6780", "lon": -77.029922}, {"is_reserved": 0, "fusion_lon": 0.0, "fusion_lat": 0.0, "name": "04f69581557cd29339d657d305d4e2bc", "type": "electric_bike", "is_disabled": 0, "lat": 38.8961645, "rental_uris": {"android": "https://dc.lft.to/lastmile_qr_scan", "ios": "https://dc.lft.to/lastmile_qr_scan"}, "bike_id": "04f69581557cd29339d657d305d4e2bc", "lon": -76.90741416666667}, {"is_reserved": 0, "fusion_lon": 0.0, "fusion_lat": 0.0, "name": "31b6b7cb3f94281c51cfa3db8774c6bd", "type": "electric_scooter", "is_disabled": 0, "lat": 38.93323133333333, "rental_uris": {"android": "https://dc.lft.to/lastmile_qr_scan", "ios": "https://dc.lft.to/lastmile_qr_scan"}, "bike_id": "31b6b7cb3f94281c51cfa3db8774c6bd", "lon": -77.03426566666667}, {"is_reserved": 0, "fusion_lon": 0.0, "fusion_lat": 0.0, "name": "da11c22ae8897a16e575cc6b843fbae5", "type": "electric_scooter", "is_disabled": 0, "lat": 38.897346, "rental_uris": {"android": "https://dc.lft.to/lastmile_qr_scan", "ios": "https://dc.lft.to/lastmile_qr_scan"}, "bike_id": "da11c22ae8897a16e575cc6b843fbae5", "lon": -77.05571483333334}, {"is_reserved": 0, "fusion_lon": 0.0, "fusion_lat": 0.0, "name": "0137f2d568d28a5e8b2142c0c2a1aba9", "type": "electric_scooter", "is_disabled": 0, "lat": 38.88529966666667, "rental_uris": {"android": "https://dc.lft.to/lastmile_qr_scan", "ios": "https://dc.lft.to/lastmile_qr_scan"}, "bike_id": "0137f2d568d28a5e8b2142c0c2a1aba9", "lon": -76.98272883333334}, {"is_reserved": 0, "fusion_lon": 0.0, "fusion_lat": 0.0, "name": "372c62f967aaff0789f43fd452d312c7", "type": "electric_scooter", "is_disabled": 0, "lat": 38.879238666666666, "rental_uris": {"android": "https://dc.lft.to/lastmile_qr_scan", "ios": "https://dc.lft.to/lastmile_qr_scan"}, "bike_id": "372c62f967aaff0789f43fd452d312c7", "lon": -77.00749883333333}, {"is_reserved": 0, "fusion_lon": 0.0, "fusion_lat": 0.0, "name": "fab45730ba7585db358dab5caaae2876", "type": "electric_scooter", "is_disabled": 0, "lat": 38.908206166666666, "rental_uris": {"android": "https://dc.lft.to/lastmile_qr_scan", "ios": "https://dc.lft.to/lastmile_qr_scan"}, "bike_id": "fab45730ba7585db358dab5caaae2876", "lon": -77.0432755}, {"is_reserved": 0, "fusion_lon": 0.0, "fusion_lat": 0.0, "name": "723d8959059e0b215d1868b230290aac", "type": "electric_scooter", "is_disabled": 0, "lat": 38.9167525, "rental_uris": {"android": "https://dc.lft.to/lastmile_qr_scan", "ios": "https://dc.lft.to/lastmile_qr_scan"}, "bike_id": "723d8959059e0b215d1868b230290aac", "lon": -77.0344305}, {"is_reserved": 0, "fusion_lon": 0.0, "fusion_lat": 0.0, "name": "c4ca954ccd847ea5655e7b79555f0f5d", "type": "electric_scooter", "is_disabled": 0, "lat": 38.9286915, "rental_uris": {"android": "https://dc.lft.to/lastmile_qr_scan", "ios": "https://dc.lft.to/lastmile_qr_scan"}, "bike_id": "c4ca954ccd847ea5655e7b79555f0f5d", "lon": -77.03326366666667}, {"is_reserved": 0, "fusion_lon": 0.0, "fusion_lat": 0.0, "name": "2963696e9af564e95550626d3b4b7065", "type": "electric_scooter", "is_disabled": 0, "lat": 38.911163, "rental_uris": {"android": "https://dc.lft.to/lastmile_qr_scan", "ios": "https://dc.lft.to/lastmile_qr_scan"}, "bike_id": "2963696e9af564e95550626d3b4b7065", "lon": -77.03153366666666}, {"is_reserved": 0, "fusion_lon": 0.0, "fusion_lat": 0.0, "name": "4ef1b12ad69424629e6462b42f7a9b14", "type": "electric_bike", "is_disabled": 0, "lat": 38.85891616666667, "rental_uris": {"android": "https://dc.lft.to/lastmile_qr_scan", "ios": "https://dc.lft.to/lastmile_qr_scan"}, "bike_id": "4ef1b12ad69424629e6462b42f7a9b14", "lon": -77.1186105}, {"is_reserved": 0, "fusion_lon": 0.0, "fusion_lat": 0.0, "name": "eec66650c947a3ff5b0b7fddc46f8f44", "type": "electric_scooter", "is_disabled": 0, "lat": 38.921654833333335, "rental_uris": {"android": "https://dc.lft.to/lastmile_qr_scan", "ios": "https://dc.lft.to/lastmile_qr_scan"}, "bike_id": "eec66650c947a3ff5b0b7fddc46f8f44", "lon": -77.03339816666667}, {"is_reserved": 0, "fusion_lon": 0.0, "fusion_lat": 0.0, "name": "9694a43ddc65c39228dc5e789e14606a", "type": "electric_scooter", "is_disabled": 0, "lat": 38.9082825, "rental_uris": {"android": "https://dc.lft.to/lastmile_qr_scan", "ios": "https://dc.lft.to/lastmile_qr_scan"}, "bike_id": "9694a43ddc65c39228dc5e789e14606a", "lon": -76.992417}, {"is_reserved": 0, "fusion_lon": 0.0, "fusion_lat": 0.0, "name": "f8492371b1d5fa0b2e3a87d90f8ec251", "type": "electric_scooter", "is_disabled": 0, "lat": 38.91780716666667, "rental_uris": {"android": "https://dc.lft.to/lastmile_qr_scan", "ios": "https://dc.lft.to/lastmile_qr_scan"}, "bike_id": "f8492371b1d5fa0b2e3a87d90f8ec251", "lon": -77.02317183333334}, {"is_reserved": 0, "fusion_lon": 0.0, "fusion_lat": 0.0, "name": "0a761be5bade18a2a6160ffe305a17e6", "type": "electric_scooter", "is_disabled": 0, "lat": 38.90799, "rental_uris": {"android": "https://dc.lft.to/lastmile_qr_scan", "ios": "https://dc.lft.to/lastmile_qr_scan"}, "bike_id": "0a761be5bade18a2a6160ffe305a17e6", "lon": -77.03856}, {"is_reserved": 0, "fusion_lon": 0.0, "fusion_lat": 0.0, "name": "f7cb2ca0194b70c3f840f985bf7a6592", "type": "electric_scooter", "is_disabled": 0, "lat": 38.90715433333333, "rental_uris": {"android": "https://dc.lft.to/lastmile_qr_scan", "ios": "https://dc.lft.to/lastmile_qr_scan"}, "bike_id": "f7cb2ca0194b70c3f840f985bf7a6592", "lon": -77.03818766666667}, {"is_reserved": 0, "fusion_lon": 0.0, "fusion_lat": 0.0, "name": "a65f803ceb0dd363463c923e129123d0", "type": "electric_scooter", "is_disabled": 0, "lat": 38.89229533333334, "rental_uris": {"android": "https://dc.lft.to/lastmile_qr_scan", "ios": "https://dc.lft.to/lastmile_qr_scan"}, "bike_id": "a65f803ceb0dd363463c923e129123d0", "lon": -77.03201433333334}, {"is_reserved": 0, "fusion_lon": 0.0, "fusion_lat": 0.0, "name": "23be9aefa702b4220fb88eb48cb992d5", "type": "electric_scooter", "is_disabled": 0, "lat": 38.945189, "rental_uris": {"android": "https://dc.lft.to/lastmile_qr_scan", "ios": "https://dc.lft.to/lastmile_qr_scan"}, "bike_id": "23be9aefa702b4220fb88eb48cb992d5", "lon": -77.03319316666666}, {"is_reserved": 0, "fusion_lon": 0.0, "fusion_lat": 0.0, "name": "2a7fd3f42e99647265290d6dc51e6d93", "type": "electric_scooter", "is_disabled": 0, "lat": 38.92247483333333, "rental_uris": {"android": "https://dc.lft.to/lastmile_qr_scan", "ios": "https://dc.lft.to/lastmile_qr_scan"}, "bike_id": "2a7fd3f42e99647265290d6dc51e6d93", "lon": -77.030649}, {"is_reserved": 0, "fusion_lon": 0.0, "fusion_lat": 0.0, "name": "370fc602048745bce050e019dfc92ddf", "type": "electric_scooter", "is_disabled": 0, "lat": 38.90983283333333, "rental_uris": {"android": "https://dc.lft.to/lastmile_qr_scan", "ios": "https://dc.lft.to/lastmile_qr_scan"}, "bike_id": "370fc602048745bce050e019dfc92ddf", "lon": -77.048788}, {"is_reserved": 0, "fusion_lon": 0.0, "fusion_lat": 0.0, "name": "1f5b24a3367abb22e3ea67cecfbb4695", "type": "electric_bike", "is_disabled": 0, "lat": 38.932383, "rental_uris": {"android": "https://dc.lft.to/lastmile_qr_scan", "ios": "https://dc.lft.to/lastmile_qr_scan"}, "bike_id": "1f5b24a3367abb22e3ea67cecfbb4695", "lon": -77.02362466666666}, {"is_reserved": 0, "fusion_lon": 0.0, "fusion_lat": 0.0, "name": "9bb3e050046c05327ee7d61fc1a9454c", "type": "electric_scooter", "is_disabled": 0, "lat": 38.90849133333333, "rental_uris": {"android": "https://dc.lft.to/lastmile_qr_scan", "ios": "https://dc.lft.to/lastmile_qr_scan"}, "bike_id": "9bb3e050046c05327ee7d61fc1a9454c", "lon": -77.03850466666667}, {"is_reserved": 0, "fusion_lon": 0.0, "fusion_lat": 0.0, "name": "f31954862ea9fd0a58330b6375678065", "type": "electric_bike", "is_disabled": 0, "lat": 38.823684, "rental_uris": {"android": "https://dc.lft.to/lastmile_qr_scan", "ios": "https://dc.lft.to/lastmile_qr_scan"}, "bike_id": "f31954862ea9fd0a58330b6375678065", "lon": -77.00218533333333}, {"is_reserved": 0, "fusion_lon": 0.0, "fusion_lat": 0.0, "name": "ae27a01b22924f39f28f91dc96d52915", "type": "electric_scooter", "is_disabled": 0, "lat": 38.913635666666664, "rental_uris": {"android": "https://dc.lft.to/lastmile_qr_scan", "ios": "https://dc.lft.to/lastmile_qr_scan"}, "bike_id": "ae27a01b22924f39f28f91dc96d52915", "lon": -77.04554266666666}, {"is_reserved": 0, "fusion_lon": 0.0, "fusion_lat": 0.0, "name": "ea0ed88c71b10dcf6c8c7a2bc2678a1f", "type": "electric_scooter", "is_disabled": 0, "lat": 38.956155833333334, "rental_uris": {"android": "https://dc.lft.to/lastmile_qr_scan", "ios": "https://dc.lft.to/lastmile_qr_scan"}, "bike_id": "ea0ed88c71b10dcf6c8c7a2bc2678a1f", "lon": -77.02780566666667}, {"is_reserved": 0, "fusion_lon": 0.0, "fusion_lat": 0.0, "name": "49f2a86413a5070102e7c33f9d284e2b", "type": "electric_bike", "is_disabled": 0, "lat": 38.874104, "rental_uris": {"android": "https://dc.lft.to/lastmile_qr_scan", "ios": "https://dc.lft.to/lastmile_qr_scan"}, "bike_id": "49f2a86413a5070102e7c33f9d284e2b", "lon": -76.97170033333333}, {"is_reserved": 0, "fusion_lon": 0.0, "fusion_lat": 0.0, "name": "ed8f8a9defa61df2b9638229d57978ef", "type": "electric_scooter", "is_disabled": 0, "lat": 38.88613133333333, "rental_uris": {"android": "https://dc.lft.to/lastmile_qr_scan", "ios": "https://dc.lft.to/lastmile_qr_scan"}, "bike_id": "ed8f8a9defa61df2b9638229d57978ef", "lon": -77.00133283333334}, {"is_reserved": 0, "fusion_lon": 0.0, "fusion_lat": 0.0, "name": "dd1151f0f2eff44a41b324b91752ec38", "type": "electric_bike", "is_disabled": 0, "lat": 38.95735666666667, "rental_uris": {"android": "https://dc.lft.to/lastmile_qr_scan", "ios": "https://dc.lft.to/lastmile_qr_scan"}, "bike_id": "dd1151f0f2eff44a41b324b91752ec38", "lon": -77.02416866666667}, {"is_reserved": 0, "fusion_lon": 0.0, "fusion_lat": 0.0, "name": "c231f83c078a99fc141ce58f754ff18c", "type": "electric_scooter", "is_disabled": 0, "lat": 38.864713, "rental_uris": {"android": "https://dc.lft.to/lastmile_qr_scan", "ios": "https://dc.lft.to/lastmile_qr_scan"}, "bike_id": "c231f83c078a99fc141ce58f754ff18c", "lon": -76.9823275}, {"is_reserved": 0, "fusion_lon": 0.0, "fusion_lat": 0.0, "name": "3d77c96e0a9894feb15fcd8e8b871564", "type": "electric_bike", "is_disabled": 0, "lat": 38.859373, "rental_uris": {"android": "https://dc.lft.to/lastmile_qr_scan", "ios": "https://dc.lft.to/lastmile_qr_scan"}, "bike_id": "3d77c96e0a9894feb15fcd8e8b871564", "lon": -77.118259}, {"is_reserved": 0, "fusion_lon": 0.0, "fusion_lat": 0.0, "name": "7d272441e33c7b115c498c811faa5272", "type": "electric_scooter", "is_disabled": 0, "lat": 38.905708833333335, "rental_uris": {"android": "https://dc.lft.to/lastmile_qr_scan", "ios": "https://dc.lft.to/lastmile_qr_scan"}, "bike_id": "7d272441e33c7b115c498c811faa5272", "lon": -77.02212083333333}, {"is_reserved": 0, "fusion_lon": 0.0, "fusion_lat": 0.0, "name": "5a28a9bc45f9e2e5f4af4d0bb4487b84", "type": "electric_scooter", "is_disabled": 0, "lat": 38.849958, "rental_uris": {"android": "https://dc.lft.to/lastmile_qr_scan", "ios": "https://dc.lft.to/lastmile_qr_scan"}, "bike_id": "5a28a9bc45f9e2e5f4af4d0bb4487b84", "lon": -76.98347266666667}, {"is_reserved": 0, "fusion_lon": 0.0, "fusion_lat": 0.0, "name": "2f5fce3e692c70c39e52de8a07ddfd54", "type": "electric_scooter", "is_disabled": 0, "lat": 38.9017775, "rental_uris": {"android": "https://dc.lft.to/lastmile_qr_scan", "ios": "https://dc.lft.to/lastmile_qr_scan"}, "bike_id": "2f5fce3e692c70c39e52de8a07ddfd54", "lon": -76.92866766666667}, {"is_reserved": 0, "fusion_lon": 0.0, "fusion_lat": 0.0, "name": "61789acb344a4a0a01e82a1346278b7e", "type": "electric_scooter", "is_disabled": 0, "lat": 38.85854066666667, "rental_uris": {"android": "https://dc.lft.to/lastmile_qr_scan", "ios": "https://dc.lft.to/lastmile_qr_scan"}, "bike_id": "61789acb344a4a0a01e82a1346278b7e", "lon": -76.98568183333333}, {"is_reserved": 0, "fusion_lon": 0.0, "fusion_lat": 0.0, "name": "cc88ec3bb6f2a452f5762ef8309bb6fd", "type": "electric_scooter", "is_disabled": 0, "lat": 38.922814333333335, "rental_uris": {"android": "https://dc.lft.to/lastmile_qr_scan", "ios": "https://dc.lft.to/lastmile_qr_scan"}, "bike_id": "cc88ec3bb6f2a452f5762ef8309bb6fd", "lon": -77.07291316666667}, {"is_reserved": 0, "fusion_lon": 0.0, "fusion_lat": 0.0, "name": "f876ec7d5aebcf4f910abdba586d407b", "type": "electric_bike", "is_disabled": 0, "lat": 38.8360315, "rental_uris": {"android": "https://dc.lft.to/lastmile_qr_scan", "ios": "https://dc.lft.to/lastmile_qr_scan"}, "bike_id": "f876ec7d5aebcf4f910abdba586d407b", "lon": -77.0038245}, {"is_reserved": 0, "fusion_lon": 0.0, "fusion_lat": 0.0, "name": "5ce499980eaccdfa49274a13e6a49c68", "type": "electric_scooter", "is_disabled": 0, "lat": 38.90225366666667, "rental_uris": {"android": "https://dc.lft.to/lastmile_qr_scan", "ios": "https://dc.lft.to/lastmile_qr_scan"}, "bike_id": "5ce499980eaccdfa49274a13e6a49c68", "lon": -77.03941466666667}, {"is_reserved": 0, "fusion_lon": 0.0, "fusion_lat": 0.0, "name": "d0751689a965feac2bed57406bb380d5", "type": "electric_scooter", "is_disabled": 0, "lat": 38.921593666666666, "rental_uris": {"android": "https://dc.lft.to/lastmile_qr_scan", "ios": "https://dc.lft.to/lastmile_qr_scan"}, "bike_id": "d0751689a965feac2bed57406bb380d5", "lon": -77.04224666666667}, {"is_reserved": 0, "fusion_lon": 0.0, "fusion_lat": 0.0, "name": "484b9820c66cd82b3180d4a82bd1751d", "type": "electric_scooter", "is_disabled": 0, "lat": 38.8836275, "rental_uris": {"android": "https://dc.lft.to/lastmile_qr_scan", "ios": "https://dc.lft.to/lastmile_qr_scan"}, "bike_id": "484b9820c66cd82b3180d4a82bd1751d", "lon": -76.94156083333333}, {"is_reserved": 0, "fusion_lon": 0.0, "fusion_lat": 0.0, "name": "9feffb5a4bf079d4ad0d29bf635ab6e3", "type": "electric_scooter", "is_disabled": 0, "lat": 38.912657833333334, "rental_uris": {"android": "https://dc.lft.to/lastmile_qr_scan", "ios": "https://dc.lft.to/lastmile_qr_scan"}, "bike_id": "9feffb5a4bf079d4ad0d29bf635ab6e3", "lon": -77.0225525}, {"is_reserved": 0, "fusion_lon": 0.0, "fusion_lat": 0.0, "name": "8eebe11bb008a6c5dfb558163bbab550", "type": "electric_bike", "is_disabled": 0, "lat": 38.911227333333336, "rental_uris": {"android": "https://dc.lft.to/lastmile_qr_scan", "ios": "https://dc.lft.to/lastmile_qr_scan"}, "bike_id": "8eebe11bb008a6c5dfb558163bbab550", "lon": -77.086159}, {"is_reserved": 0, "fusion_lon": 0.0, "fusion_lat": 0.0, "name": "e83b49f1196ac5258a4528679b423775", "type": "electric_scooter", "is_disabled": 0, "lat": 38.892211833333334, "rental_uris": {"android": "https://dc.lft.to/lastmile_qr_scan", "ios": "https://dc.lft.to/lastmile_qr_scan"}, "bike_id": "e83b49f1196ac5258a4528679b423775", "lon": -76.99253283333333}, {"is_reserved": 0, "fusion_lon": 0.0, "fusion_lat": 0.0, "name": "5b3e3e614ad7b7dfc828fe752907734e", "type": "electric_scooter", "is_disabled": 0, "lat": 38.90486033333333, "rental_uris": {"android": "https://dc.lft.to/lastmile_qr_scan", "ios": "https://dc.lft.to/lastmile_qr_scan"}, "bike_id": "5b3e3e614ad7b7dfc828fe752907734e", "lon": -76.9822675}, {"is_reserved": 0, "fusion_lon": 0.0, "fusion_lat": 0.0, "name": "e5b3036fc6b28bfc53e283448dde989c", "type": "electric_scooter", "is_disabled": 0, "lat": 38.928668333333334, "rental_uris": {"android": "https://dc.lft.to/lastmile_qr_scan", "ios": "https://dc.lft.to/lastmile_qr_scan"}, "bike_id": "e5b3036fc6b28bfc53e283448dde989c", "lon": -77.033207}, {"is_reserved": 0, "fusion_lon": 0.0, "fusion_lat": 0.0, "name": "55d5d1a1d1475c55ef21029142d4eea6", "type": "electric_scooter", "is_disabled": 0, "lat": 38.922209333333335, "rental_uris": {"android": "https://dc.lft.to/lastmile_qr_scan", "ios": "https://dc.lft.to/lastmile_qr_scan"}, "bike_id": "55d5d1a1d1475c55ef21029142d4eea6", "lon": -77.0448275}, {"is_reserved": 0, "fusion_lon": 0.0, "fusion_lat": 0.0, "name": "5cfa3e5ba3beef83e490d8732a9f934c", "type": "electric_scooter", "is_disabled": 0, "lat": 38.91927483333333, "rental_uris": {"android": "https://dc.lft.to/lastmile_qr_scan", "ios": "https://dc.lft.to/lastmile_qr_scan"}, "bike_id": "5cfa3e5ba3beef83e490d8732a9f934c", "lon": -77.07896033333333}, {"is_reserved": 0, "fusion_lon": 0.0, "fusion_lat": 0.0, "name": "877a1d38cac10996b9e58c9ec966fcd1", "type": "electric_bike", "is_disabled": 0, "lat": 38.874258166666664, "rental_uris": {"android": "https://dc.lft.to/lastmile_qr_scan", "ios": "https://dc.lft.to/lastmile_qr_scan"}, "bike_id": "877a1d38cac10996b9e58c9ec966fcd1", "lon": -77.108285}, {"is_reserved": 0, "fusion_lon": 0.0, "fusion_lat": 0.0, "name": "32d29beb4f734ab6e6e8641c91e7ff35", "type": "electric_scooter", "is_disabled": 0, "lat": 38.917882, "rental_uris": {"android": "https://dc.lft.to/lastmile_qr_scan", "ios": "https://dc.lft.to/lastmile_qr_scan"}, "bike_id": "32d29beb4f734ab6e6e8641c91e7ff35", "lon": -77.03447016666667}, {"is_reserved": 0, "fusion_lon": 0.0, "fusion_lat": 0.0, "name": "2c5637991a2e471bd2170ff6c1c0c29f", "type": "electric_scooter", "is_disabled": 0, "lat": 38.90025966666666, "rental_uris": {"android": "https://dc.lft.to/lastmile_qr_scan", "ios": "https://dc.lft.to/lastmile_qr_scan"}, "bike_id": "2c5637991a2e471bd2170ff6c1c0c29f", "lon": -77.03305266666666}, {"is_reserved": 0, "fusion_lon": 0.0, "fusion_lat": 0.0, "name": "f09e2b6beb83159953b63ff32a3229e5", "type": "electric_scooter", "is_disabled": 0, "lat": 38.89890183333333, "rental_uris": {"android": "https://dc.lft.to/lastmile_qr_scan", "ios": "https://dc.lft.to/lastmile_qr_scan"}, "bike_id": "f09e2b6beb83159953b63ff32a3229e5", "lon": -76.97722083333333}, {"is_reserved": 0, "fusion_lon": 0.0, "fusion_lat": 0.0, "name": "3aa70e50e930c2eade31307fa112ddb0", "type": "electric_scooter", "is_disabled": 0, "lat": 38.949887333333336, "rental_uris": {"android": "https://dc.lft.to/lastmile_qr_scan", "ios": "https://dc.lft.to/lastmile_qr_scan"}, "bike_id": "3aa70e50e930c2eade31307fa112ddb0", "lon": -77.02703316666667}, {"is_reserved": 0, "fusion_lon": 0.0, "fusion_lat": 0.0, "name": "5cdd0c454ef8a85751f1b662adda00ad", "type": "electric_scooter", "is_disabled": 0, "lat": 38.9711875, "rental_uris": {"android": "https://dc.lft.to/lastmile_qr_scan", "ios": "https://dc.lft.to/lastmile_qr_scan"}, "bike_id": "5cdd0c454ef8a85751f1b662adda00ad", "lon": -77.01688716666666}, {"is_reserved": 0, "fusion_lon": 0.0, "fusion_lat": 0.0, "name": "d80a294fbbda87fe5a27b5180565600a", "type": "electric_bike", "is_disabled": 0, "lat": 38.85766566666667, "rental_uris": {"android": "https://dc.lft.to/lastmile_qr_scan", "ios": "https://dc.lft.to/lastmile_qr_scan"}, "bike_id": "d80a294fbbda87fe5a27b5180565600a", "lon": -76.9876885}, {"is_reserved": 0, "fusion_lon": 0.0, "fusion_lat": 0.0, "name": "56be16af0ceeded49fb636925c3f8a39", "type": "electric_bike", "is_disabled": 0, "lat": 38.838104666666666, "rental_uris": {"android": "https://dc.lft.to/lastmile_qr_scan", "ios": "https://dc.lft.to/lastmile_qr_scan"}, "bike_id": "56be16af0ceeded49fb636925c3f8a39", "lon": -77.09522616666666}, {"is_reserved": 0, "fusion_lon": 0.0, "fusion_lat": 0.0, "name": "addb97df32ee84e0978359b1a98712a8", "type": "electric_scooter", "is_disabled": 0, "lat": 38.93015666666667, "rental_uris": {"android": "https://dc.lft.to/lastmile_qr_scan", "ios": "https://dc.lft.to/lastmile_qr_scan"}, "bike_id": "addb97df32ee84e0978359b1a98712a8", "lon": -77.06086566666667}, {"is_reserved": 0, "fusion_lon": 0.0, "fusion_lat": 0.0, "name": "1e02bec4a9c631f767bb1814f664a174", "type": "electric_scooter", "is_disabled": 0, "lat": 38.9417835, "rental_uris": {"android": "https://dc.lft.to/lastmile_qr_scan", "ios": "https://dc.lft.to/lastmile_qr_scan"}, "bike_id": "1e02bec4a9c631f767bb1814f664a174", "lon": -77.02556416666667}, {"is_reserved": 0, "fusion_lon": 0.0, "fusion_lat": 0.0, "name": "fd9974f5d1a2c923209f01e479bc813d", "type": "electric_scooter", "is_disabled": 0, "lat": 38.866711, "rental_uris": {"android": "https://dc.lft.to/lastmile_qr_scan", "ios": "https://dc.lft.to/lastmile_qr_scan"}, "bike_id": "fd9974f5d1a2c923209f01e479bc813d", "lon": -76.985105}, {"is_reserved": 0, "fusion_lon": 0.0, "fusion_lat": 0.0, "name": "3a97a8d14f9db0b217321316c144bd8f", "type": "electric_scooter", "is_disabled": 0, "lat": 38.917386, "rental_uris": {"android": "https://dc.lft.to/lastmile_qr_scan", "ios": "https://dc.lft.to/lastmile_qr_scan"}, "bike_id": "3a97a8d14f9db0b217321316c144bd8f", "lon": -77.0269265}, {"is_reserved": 0, "fusion_lon": 0.0, "fusion_lat": 0.0, "name": "5899b3ebdc31d88e4962eae7e9dc4da9", "type": "electric_scooter", "is_disabled": 0, "lat": 38.936107166666666, "rental_uris": {"android": "https://dc.lft.to/lastmile_qr_scan", "ios": "https://dc.lft.to/lastmile_qr_scan"}, "bike_id": "5899b3ebdc31d88e4962eae7e9dc4da9", "lon": -77.0377465}, {"is_reserved": 0, "fusion_lon": 0.0, "fusion_lat": 0.0, "name": "9bba2ac4e00533590a7ddef97d1e3a28", "type": "electric_scooter", "is_disabled": 0, "lat": 38.93039783333333, "rental_uris": {"android": "https://dc.lft.to/lastmile_qr_scan", "ios": "https://dc.lft.to/lastmile_qr_scan"}, "bike_id": "9bba2ac4e00533590a7ddef97d1e3a28", "lon": -77.01230333333334}, {"is_reserved": 0, "fusion_lon": 0.0, "fusion_lat": 0.0, "name": "d7373d2ebbab777d48867ff2a4d6e857", "type": "electric_bike", "is_disabled": 0, "lat": 38.96316933333333, "rental_uris": {"android": "https://dc.lft.to/lastmile_qr_scan", "ios": "https://dc.lft.to/lastmile_qr_scan"}, "bike_id": "d7373d2ebbab777d48867ff2a4d6e857", "lon": -76.97353283333334}, {"is_reserved": 0, "fusion_lon": 0.0, "fusion_lat": 0.0, "name": "9c09b56af954d9f1596daa8797796415", "type": "electric_scooter", "is_disabled": 0, "lat": 38.928822333333336, "rental_uris": {"android": "https://dc.lft.to/lastmile_qr_scan", "ios": "https://dc.lft.to/lastmile_qr_scan"}, "bike_id": "9c09b56af954d9f1596daa8797796415", "lon": -77.036537}, {"is_reserved": 0, "fusion_lon": 0.0, "fusion_lat": 0.0, "name": "f7188959e1995765e783db246f4d6876", "type": "electric_scooter", "is_disabled": 0, "lat": 38.918129666666665, "rental_uris": {"android": "https://dc.lft.to/lastmile_qr_scan", "ios": "https://dc.lft.to/lastmile_qr_scan"}, "bike_id": "f7188959e1995765e783db246f4d6876", "lon": -77.08963316666667}, {"is_reserved": 0, "fusion_lon": 0.0, "fusion_lat": 0.0, "name": "627cca201df7bae215efab3a65c08b7b", "type": "electric_scooter", "is_disabled": 0, "lat": 38.924920166666666, "rental_uris": {"android": "https://dc.lft.to/lastmile_qr_scan", "ios": "https://dc.lft.to/lastmile_qr_scan"}, "bike_id": "627cca201df7bae215efab3a65c08b7b", "lon": -77.02694983333333}, {"is_reserved": 0, "fusion_lon": 0.0, "fusion_lat": 0.0, "name": "37454c10c4f0d190b4aaa1b6a17a4747", "type": "electric_scooter", "is_disabled": 0, "lat": 38.914623166666665, "rental_uris": {"android": "https://dc.lft.to/lastmile_qr_scan", "ios": "https://dc.lft.to/lastmile_qr_scan"}, "bike_id": "37454c10c4f0d190b4aaa1b6a17a4747", "lon": -77.01793283333333}, {"is_reserved": 0, "fusion_lon": 0.0, "fusion_lat": 0.0, "name": "17b69679aa98ffd220784a62c42bcaf9", "type": "electric_scooter", "is_disabled": 0, "lat": 38.91265583333333, "rental_uris": {"android": "https://dc.lft.to/lastmile_qr_scan", "ios": "https://dc.lft.to/lastmile_qr_scan"}, "bike_id": "17b69679aa98ffd220784a62c42bcaf9", "lon": -77.03118766666667}, {"is_reserved": 0, "fusion_lon": 0.0, "fusion_lat": 0.0, "name": "88e077b8808669c7a36aebd0c3cd160e", "type": "electric_scooter", "is_disabled": 0, "lat": 38.908749666666665, "rental_uris": {"android": "https://dc.lft.to/lastmile_qr_scan", "ios": "https://dc.lft.to/lastmile_qr_scan"}, "bike_id": "88e077b8808669c7a36aebd0c3cd160e", "lon": -77.08595883333334}, {"is_reserved": 0, "fusion_lon": 0.0, "fusion_lat": 0.0, "name": "d5eec8b1b0908ba3bd3a4569bdfb51a9", "type": "electric_bike", "is_disabled": 0, "lat": 38.9630655, "rental_uris": {"android": "https://dc.lft.to/lastmile_qr_scan", "ios": "https://dc.lft.to/lastmile_qr_scan"}, "bike_id": "d5eec8b1b0908ba3bd3a4569bdfb51a9", "lon": -77.01108566666667}, {"is_reserved": 0, "fusion_lon": 0.0, "fusion_lat": 0.0, "name": "982202622e64e048175de1638b4dbcf6", "type": "electric_scooter", "is_disabled": 0, "lat": 38.8949635, "rental_uris": {"android": "https://dc.lft.to/lastmile_qr_scan", "ios": "https://dc.lft.to/lastmile_qr_scan"}, "bike_id": "982202622e64e048175de1638b4dbcf6", "lon": -77.00210316666667}, {"is_reserved": 0, "fusion_lon": 0.0, "fusion_lat": 0.0, "name": "45249848132e52fa7c4f4fc89dfab730", "type": "electric_scooter", "is_disabled": 0, "lat": 38.91935816666667, "rental_uris": {"android": "https://dc.lft.to/lastmile_qr_scan", "ios": "https://dc.lft.to/lastmile_qr_scan"}, "bike_id": "45249848132e52fa7c4f4fc89dfab730", "lon": -77.070669}, {"is_reserved": 0, "fusion_lon": 0.0, "fusion_lat": 0.0, "name": "f86d3861fd6c9be12e5fd0da3cea96cc", "type": "electric_scooter", "is_disabled": 0, "lat": 38.9088365, "rental_uris": {"android": "https://dc.lft.to/lastmile_qr_scan", "ios": "https://dc.lft.to/lastmile_qr_scan"}, "bike_id": "f86d3861fd6c9be12e5fd0da3cea96cc", "lon": -77.000735}, {"is_reserved": 0, "fusion_lon": 0.0, "fusion_lat": 0.0, "name": "aac01c8ad9cb8b4f2b99a2c2d589c91a", "type": "electric_scooter", "is_disabled": 0, "lat": 38.924893, "rental_uris": {"android": "https://dc.lft.to/lastmile_qr_scan", "ios": "https://dc.lft.to/lastmile_qr_scan"}, "bike_id": "aac01c8ad9cb8b4f2b99a2c2d589c91a", "lon": -77.03504783333334}, {"is_reserved": 0, "fusion_lon": 0.0, "fusion_lat": 0.0, "name": "a33c6df0390d4af7905e7bffd6a9ee81", "type": "electric_scooter", "is_disabled": 0, "lat": 38.930259666666664, "rental_uris": {"android": "https://dc.lft.to/lastmile_qr_scan", "ios": "https://dc.lft.to/lastmile_qr_scan"}, "bike_id": "a33c6df0390d4af7905e7bffd6a9ee81", "lon": -77.01300583333334}, {"is_reserved": 0, "fusion_lon": 0.0, "fusion_lat": 0.0, "name": "14849a1c0386da5c1e2248290ec3a0a0", "type": "electric_scooter", "is_disabled": 0, "lat": 38.91811416666667, "rental_uris": {"android": "https://dc.lft.to/lastmile_qr_scan", "ios": "https://dc.lft.to/lastmile_qr_scan"}, "bike_id": "14849a1c0386da5c1e2248290ec3a0a0", "lon": -77.03566683333334}, {"is_reserved": 0, "fusion_lon": 0.0, "fusion_lat": 0.0, "name": "5ae6b577ae32e402b538bcbd74ef226f", "type": "electric_scooter", "is_disabled": 0, "lat": 38.900104666666664, "rental_uris": {"android": "https://dc.lft.to/lastmile_qr_scan", "ios": "https://dc.lft.to/lastmile_qr_scan"}, "bike_id": "5ae6b577ae32e402b538bcbd74ef226f", "lon": -77.0119445}, {"is_reserved": 0, "fusion_lon": 0.0, "fusion_lat": 0.0, "name": "c50d8fa2e569809932b5deeb46d71cb2", "type": "electric_scooter", "is_disabled": 0, "lat": 38.89220516666666, "rental_uris": {"android": "https://dc.lft.to/lastmile_qr_scan", "ios": "https://dc.lft.to/lastmile_qr_scan"}, "bike_id": "c50d8fa2e569809932b5deeb46d71cb2", "lon": -77.0451155}, {"is_reserved": 0, "fusion_lon": 0.0, "fusion_lat": 0.0, "name": "4264ba668170c0649ebb9ca5e81d886c", "type": "electric_scooter", "is_disabled": 0, "lat": 38.878857333333336, "rental_uris": {"android": "https://dc.lft.to/lastmile_qr_scan", "ios": "https://dc.lft.to/lastmile_qr_scan"}, "bike_id": "4264ba668170c0649ebb9ca5e81d886c", "lon": -77.023189}, {"is_reserved": 0, "fusion_lon": 0.0, "fusion_lat": 0.0, "name": "01847b40ecf0043022e9aa97eab967e3", "type": "electric_scooter", "is_disabled": 0, "lat": 38.907369333333335, "rental_uris": {"android": "https://dc.lft.to/lastmile_qr_scan", "ios": "https://dc.lft.to/lastmile_qr_scan"}, "bike_id": "01847b40ecf0043022e9aa97eab967e3", "lon": -77.02305716666666}, {"is_reserved": 0, "fusion_lon": 0.0, "fusion_lat": 0.0, "name": "845d570e68a179d573778ea39bdf7ea2", "type": "electric_scooter", "is_disabled": 0, "lat": 38.95228766666666, "rental_uris": {"android": "https://dc.lft.to/lastmile_qr_scan", "ios": "https://dc.lft.to/lastmile_qr_scan"}, "bike_id": "845d570e68a179d573778ea39bdf7ea2", "lon": -77.014239}, {"is_reserved": 0, "fusion_lon": 0.0, "fusion_lat": 0.0, "name": "3908406de49ca58b77f871bbc5956acc", "type": "electric_bike", "is_disabled": 0, "lat": 38.897876, "rental_uris": {"android": "https://dc.lft.to/lastmile_qr_scan", "ios": "https://dc.lft.to/lastmile_qr_scan"}, "bike_id": "3908406de49ca58b77f871bbc5956acc", "lon": -77.00602733333334}, {"is_reserved": 0, "fusion_lon": 0.0, "fusion_lat": 0.0, "name": "f10303b70827cf50aaa7be3510fbb935", "type": "electric_scooter", "is_disabled": 0, "lat": 38.907182666666664, "rental_uris": {"android": "https://dc.lft.to/lastmile_qr_scan", "ios": "https://dc.lft.to/lastmile_qr_scan"}, "bike_id": "f10303b70827cf50aaa7be3510fbb935", "lon": -77.03815683333333}, {"is_reserved": 0, "fusion_lon": 0.0, "fusion_lat": 0.0, "name": "2bbf967c6acac8dff9fcc607808bb919", "type": "electric_scooter", "is_disabled": 0, "lat": 38.88717916666667, "rental_uris": {"android": "https://dc.lft.to/lastmile_qr_scan", "ios": "https://dc.lft.to/lastmile_qr_scan"}, "bike_id": "2bbf967c6acac8dff9fcc607808bb919", "lon": -77.02173916666666}, {"is_reserved": 0, "fusion_lon": 0.0, "fusion_lat": 0.0, "name": "cdb68f26ae9f7a409466cb26b3d101a3", "type": "electric_scooter", "is_disabled": 0, "lat": 38.93323066666667, "rental_uris": {"android": "https://dc.lft.to/lastmile_qr_scan", "ios": "https://dc.lft.to/lastmile_qr_scan"}, "bike_id": "cdb68f26ae9f7a409466cb26b3d101a3", "lon": -77.02961116666667}, {"is_reserved": 0, "fusion_lon": 0.0, "fusion_lat": 0.0, "name": "4bf81991ea122c7140385f1b962f7893", "type": "electric_scooter", "is_disabled": 0, "lat": 38.904419, "rental_uris": {"android": "https://dc.lft.to/lastmile_qr_scan", "ios": "https://dc.lft.to/lastmile_qr_scan"}, "bike_id": "4bf81991ea122c7140385f1b962f7893", "lon": -76.98484983333333}, {"is_reserved": 0, "fusion_lon": 0.0, "fusion_lat": 0.0, "name": "3ef418d8bacedb1cf2eeddade7a27924", "type": "electric_scooter", "is_disabled": 0, "lat": 38.898269666666664, "rental_uris": {"android": "https://dc.lft.to/lastmile_qr_scan", "ios": "https://dc.lft.to/lastmile_qr_scan"}, "bike_id": "3ef418d8bacedb1cf2eeddade7a27924", "lon": -77.0241305}, {"is_reserved": 0, "fusion_lon": 0.0, "fusion_lat": 0.0, "name": "d75705de12ce87d148c982f4a787495e", "type": "electric_bike", "is_disabled": 0, "lat": 38.96816233333333, "rental_uris": {"android": "https://dc.lft.to/lastmile_qr_scan", "ios": "https://dc.lft.to/lastmile_qr_scan"}, "bike_id": "d75705de12ce87d148c982f4a787495e", "lon": -77.0722285}, {"is_reserved": 0, "fusion_lon": 0.0, "fusion_lat": 0.0, "name": "0a0b9b485d33caa3baf6c431499dbf84", "type": "electric_scooter", "is_disabled": 0, "lat": 38.896221, "rental_uris": {"android": "https://dc.lft.to/lastmile_qr_scan", "ios": "https://dc.lft.to/lastmile_qr_scan"}, "bike_id": "0a0b9b485d33caa3baf6c431499dbf84", "lon": -77.029882}, {"is_reserved": 0, "fusion_lon": 0.0, "fusion_lat": 0.0, "name": "ebd0aac3618ea2e1d3e79baa5478864e", "type": "electric_scooter", "is_disabled": 0, "lat": 38.95177183333333, "rental_uris": {"android": "https://dc.lft.to/lastmile_qr_scan", "ios": "https://dc.lft.to/lastmile_qr_scan"}, "bike_id": "ebd0aac3618ea2e1d3e79baa5478864e", "lon": -77.02734266666667}, {"is_reserved": 0, "fusion_lon": 0.0, "fusion_lat": 0.0, "name": "bb9fa2747937c21cccd0572e33f75c47", "type": "electric_scooter", "is_disabled": 0, "lat": 38.92343, "rental_uris": {"android": "https://dc.lft.to/lastmile_qr_scan", "ios": "https://dc.lft.to/lastmile_qr_scan"}, "bike_id": "bb9fa2747937c21cccd0572e33f75c47", "lon": -77.05084316666667}, {"is_reserved": 0, "fusion_lon": 0.0, "fusion_lat": 0.0, "name": "8fbd9cbbcdb58f7ea76acf4b44b8fb61", "type": "electric_scooter", "is_disabled": 0, "lat": 38.900354666666665, "rental_uris": {"android": "https://dc.lft.to/lastmile_qr_scan", "ios": "https://dc.lft.to/lastmile_qr_scan"}, "bike_id": "8fbd9cbbcdb58f7ea76acf4b44b8fb61", "lon": -76.99613766666667}, {"is_reserved": 0, "fusion_lon": 0.0, "fusion_lat": 0.0, "name": "ee7574d395ad5c34eb282a55ee7874ed", "type": "electric_scooter", "is_disabled": 0, "lat": 38.9155385, "rental_uris": {"android": "https://dc.lft.to/lastmile_qr_scan", "ios": "https://dc.lft.to/lastmile_qr_scan"}, "bike_id": "ee7574d395ad5c34eb282a55ee7874ed", "lon": -77.0220575}, {"is_reserved": 0, "fusion_lon": 0.0, "fusion_lat": 0.0, "name": "49267dc4280180ec6605c6d808c14551", "type": "electric_bike", "is_disabled": 0, "lat": 38.8887395, "rental_uris": {"android": "https://dc.lft.to/lastmile_qr_scan", "ios": "https://dc.lft.to/lastmile_qr_scan"}, "bike_id": "49267dc4280180ec6605c6d808c14551", "lon": -76.978419}, {"is_reserved": 0, "fusion_lon": 0.0, "fusion_lat": 0.0, "name": "193c7059f8b3c63e14368b03c0ab531c", "type": "electric_scooter", "is_disabled": 0, "lat": 38.923797666666665, "rental_uris": {"android": "https://dc.lft.to/lastmile_qr_scan", "ios": "https://dc.lft.to/lastmile_qr_scan"}, "bike_id": "193c7059f8b3c63e14368b03c0ab531c", "lon": -77.03020016666666}, {"is_reserved": 0, "fusion_lon": 0.0, "fusion_lat": 0.0, "name": "e3be2310dd3ba4f6ba046147b48a2608", "type": "electric_scooter", "is_disabled": 0, "lat": 38.917189, "rental_uris": {"android": "https://dc.lft.to/lastmile_qr_scan", "ios": "https://dc.lft.to/lastmile_qr_scan"}, "bike_id": "e3be2310dd3ba4f6ba046147b48a2608", "lon": -77.0385465}, {"is_reserved": 0, "fusion_lon": 0.0, "fusion_lat": 0.0, "name": "e8a2ce25803259c65b29ac2dccdb0b2b", "type": "electric_scooter", "is_disabled": 0, "lat": 38.93145966666667, "rental_uris": {"android": "https://dc.lft.to/lastmile_qr_scan", "ios": "https://dc.lft.to/lastmile_qr_scan"}, "bike_id": "e8a2ce25803259c65b29ac2dccdb0b2b", "lon": -77.0786675}, {"is_reserved": 0, "fusion_lon": 0.0, "fusion_lat": 0.0, "name": "cc6d0075f4b8964b10bd29d1230ab122", "type": "electric_bike", "is_disabled": 0, "lat": 38.94507733333333, "rental_uris": {"android": "https://dc.lft.to/lastmile_qr_scan", "ios": "https://dc.lft.to/lastmile_qr_scan"}, "bike_id": "cc6d0075f4b8964b10bd29d1230ab122", "lon": -77.00672616666667}, {"is_reserved": 0, "fusion_lon": 0.0, "fusion_lat": 0.0, "name": "1add2e6d80c193bbcc6ba33674a7ba21", "type": "electric_bike", "is_disabled": 0, "lat": 38.832393, "rental_uris": {"android": "https://dc.lft.to/lastmile_qr_scan", "ios": "https://dc.lft.to/lastmile_qr_scan"}, "bike_id": "1add2e6d80c193bbcc6ba33674a7ba21", "lon": -76.94619633333333}, {"is_reserved": 0, "fusion_lon": 0.0, "fusion_lat": 0.0, "name": "227c024ecf2ee8554146f7312cc9f110", "type": "electric_scooter", "is_disabled": 0, "lat": 38.934089666666665, "rental_uris": {"android": "https://dc.lft.to/lastmile_qr_scan", "ios": "https://dc.lft.to/lastmile_qr_scan"}, "bike_id": "227c024ecf2ee8554146f7312cc9f110", "lon": -77.032608}, {"is_reserved": 0, "fusion_lon": 0.0, "fusion_lat": 0.0, "name": "0a094c29cbadcf2e30d9bdbfe9c2e7c6", "type": "electric_scooter", "is_disabled": 0, "lat": 38.885588, "rental_uris": {"android": "https://dc.lft.to/lastmile_qr_scan", "ios": "https://dc.lft.to/lastmile_qr_scan"}, "bike_id": "0a094c29cbadcf2e30d9bdbfe9c2e7c6", "lon": -76.99794983333334}, {"is_reserved": 0, "fusion_lon": 0.0, "fusion_lat": 0.0, "name": "1332c8221519b1cb72edce86680c719f", "type": "electric_scooter", "is_disabled": 0, "lat": 38.92135733333333, "rental_uris": {"android": "https://dc.lft.to/lastmile_qr_scan", "ios": "https://dc.lft.to/lastmile_qr_scan"}, "bike_id": "1332c8221519b1cb72edce86680c719f", "lon": -77.045312}, {"is_reserved": 0, "fusion_lon": 0.0, "fusion_lat": 0.0, "name": "aaea7280bb593a3e5325f46760a7d699", "type": "electric_scooter", "is_disabled": 0, "lat": 38.93023066666667, "rental_uris": {"android": "https://dc.lft.to/lastmile_qr_scan", "ios": "https://dc.lft.to/lastmile_qr_scan"}, "bike_id": "aaea7280bb593a3e5325f46760a7d699", "lon": -77.063088}, {"is_reserved": 0, "fusion_lon": 0.0, "fusion_lat": 0.0, "name": "23064b0786aec0759b06b25e9d761e1b", "type": "electric_scooter", "is_disabled": 0, "lat": 38.902147666666664, "rental_uris": {"android": "https://dc.lft.to/lastmile_qr_scan", "ios": "https://dc.lft.to/lastmile_qr_scan"}, "bike_id": "23064b0786aec0759b06b25e9d761e1b", "lon": -77.04846233333333}, {"is_reserved": 0, "fusion_lon": 0.0, "fusion_lat": 0.0, "name": "a785cf8873c50d0f4ee3e938bda7c3ae", "type": "electric_scooter", "is_disabled": 0, "lat": 38.9217885, "rental_uris": {"android": "https://dc.lft.to/lastmile_qr_scan", "ios": "https://dc.lft.to/lastmile_qr_scan"}, "bike_id": "a785cf8873c50d0f4ee3e938bda7c3ae", "lon": -77.04343733333333}, {"is_reserved": 0, "fusion_lon": 0.0, "fusion_lat": 0.0, "name": "f2b59db79f10b2a31601d4d2f740611d", "type": "electric_scooter", "is_disabled": 0, "lat": 38.9040715, "rental_uris": {"android": "https://dc.lft.to/lastmile_qr_scan", "ios": "https://dc.lft.to/lastmile_qr_scan"}, "bike_id": "f2b59db79f10b2a31601d4d2f740611d", "lon": -76.973334}, {"is_reserved": 0, "fusion_lon": 0.0, "fusion_lat": 0.0, "name": "804ffd44c21f27dcd04af5708273e6f1", "type": "electric_scooter", "is_disabled": 0, "lat": 38.917147, "rental_uris": {"android": "https://dc.lft.to/lastmile_qr_scan", "ios": "https://dc.lft.to/lastmile_qr_scan"}, "bike_id": "804ffd44c21f27dcd04af5708273e6f1", "lon": -77.03864183333333}, {"is_reserved": 0, "fusion_lon": 0.0, "fusion_lat": 0.0, "name": "dd9574bab631daa0810676a6ab2690a0", "type": "electric_scooter", "is_disabled": 0, "lat": 38.910989666666666, "rental_uris": {"android": "https://dc.lft.to/lastmile_qr_scan", "ios": "https://dc.lft.to/lastmile_qr_scan"}, "bike_id": "dd9574bab631daa0810676a6ab2690a0", "lon": -77.02800183333333}, {"is_reserved": 0, "fusion_lon": 0.0, "fusion_lat": 0.0, "name": "18ebeb0efcf7ed65cacbc3daee1e3f9e", "type": "electric_scooter", "is_disabled": 0, "lat": 38.922871, "rental_uris": {"android": "https://dc.lft.to/lastmile_qr_scan", "ios": "https://dc.lft.to/lastmile_qr_scan"}, "bike_id": "18ebeb0efcf7ed65cacbc3daee1e3f9e", "lon": -77.0365585}, {"is_reserved": 0, "fusion_lon": 0.0, "fusion_lat": 0.0, "name": "76c8fd42f0bf04693ae53f8fc40265a4", "type": "electric_bike", "is_disabled": 0, "lat": 39.05049783333333, "rental_uris": {"android": "https://dc.lft.to/lastmile_qr_scan", "ios": "https://dc.lft.to/lastmile_qr_scan"}, "bike_id": "76c8fd42f0bf04693ae53f8fc40265a4", "lon": -77.051518}, {"is_reserved": 0, "fusion_lon": 0.0, "fusion_lat": 0.0, "name": "a576cd3df45dd46ab7a2a054d208b62e", "type": "electric_scooter", "is_disabled": 0, "lat": 38.90563233333334, "rental_uris": {"android": "https://dc.lft.to/lastmile_qr_scan", "ios": "https://dc.lft.to/lastmile_qr_scan"}, "bike_id": "a576cd3df45dd46ab7a2a054d208b62e", "lon": -77.00600233333333}, {"is_reserved": 0, "fusion_lon": 0.0, "fusion_lat": 0.0, "name": "a14907a0affe33c51717308e4f47df75", "type": "electric_scooter", "is_disabled": 0, "lat": 38.912819666666664, "rental_uris": {"android": "https://dc.lft.to/lastmile_qr_scan", "ios": "https://dc.lft.to/lastmile_qr_scan"}, "bike_id": "a14907a0affe33c51717308e4f47df75", "lon": -77.04508233333334}, {"is_reserved": 0, "fusion_lon": 0.0, "fusion_lat": 0.0, "name": "987da5bac0d17b2cb1e2c03ee3a844cc", "type": "electric_scooter", "is_disabled": 0, "lat": 38.92410316666667, "rental_uris": {"android": "https://dc.lft.to/lastmile_qr_scan", "ios": "https://dc.lft.to/lastmile_qr_scan"}, "bike_id": "987da5bac0d17b2cb1e2c03ee3a844cc", "lon": -77.020114}, {"is_reserved": 0, "fusion_lon": 0.0, "fusion_lat": 0.0, "name": "7512329f1ca77145f8286f64beafc452", "type": "electric_bike", "is_disabled": 0, "lat": 38.869413, "rental_uris": {"android": "https://dc.lft.to/lastmile_qr_scan", "ios": "https://dc.lft.to/lastmile_qr_scan"}, "bike_id": "7512329f1ca77145f8286f64beafc452", "lon": -77.09463833333334}, {"is_reserved": 0, "fusion_lon": 0.0, "fusion_lat": 0.0, "name": "75d50b0c54daf4ba13b111fe310e4ad1", "type": "electric_bike", "is_disabled": 0, "lat": 38.88403366666667, "rental_uris": {"android": "https://dc.lft.to/lastmile_qr_scan", "ios": "https://dc.lft.to/lastmile_qr_scan"}, "bike_id": "75d50b0c54daf4ba13b111fe310e4ad1", "lon": -76.96060133333333}, {"is_reserved": 0, "fusion_lon": 0.0, "fusion_lat": 0.0, "name": "972405afe3f1414938cfaefdda953269", "type": "electric_scooter", "is_disabled": 0, "lat": 38.8921885, "rental_uris": {"android": "https://dc.lft.to/lastmile_qr_scan", "ios": "https://dc.lft.to/lastmile_qr_scan"}, "bike_id": "972405afe3f1414938cfaefdda953269", "lon": -77.02348333333333},