{"data": {"bikes": [{"fusion_lat": 0.0, "name": "c356fc392621b01afd209b1985cc35bd", "is_disabled": 0, "rental_uris": {"android": "https://dc.lft.to/lastmile_qr_scan", "ios": "https://dc.lft.to/lastmile_qr_scan"}, "fusion_lon": 0.0, "lat": 38.900326, "bike_id": "c356fc392621b01afd209b1985cc35bd", "type": "electric_scooter", "is_reserved": 0, "lon": -76.998638}, {"fusion_lat": 0.0, "name": "348c6eb9031805ef1b9c7590b347c486", "is_disabled": 0, "rental_uris": {"android": "https://dc.lft.to/lastmile_qr_scan", "ios": "https://dc.lft.to/lastmile_qr_scan"}, "fusion_lon": 0.0, "lat": 38.90224533333333, "bike_id": "348c6eb9031805ef1b9c7590b347c486", "type": "electric_scooter", "is_reserved": 0, "lon": -77.060803}, {"fusion_lat": 0.0, "name": "276278ce58add6c8497203687cbda46a", "is_disabled": 0, "rental_uris": {"android": "https://dc.lft.to/lastmile_qr_scan", "ios": "https://dc.lft.to/lastmile_qr_scan"}, "fusion_lon": 0.0, "lat": 38.884798833333335, "bike_id": "276278ce58add6c8497203687cbda46a", "type": "electric_scooter", "is_reserved": 0, "lon": -76.9966745}, {"fusion_lat": 0.0, "name": "614e3c8f8407d79961ecbaa7620879b2", "is_disabled": 0, "rental_uris": {"android": "https://dc.lft.to/lastmile_qr_scan", "ios": "https://dc.lft.to/lastmile_qr_scan"}, "fusion_lon": 0.0, "lat": 38.886134166666665, "bike_id": "614e3c8f8407d79961ecbaa7620879b2", "type": "electric_scooter", "is_reserved": 0, "lon": -77.0155715}, {"fusion_lat": 0.0, "name": "a53042ceef51e959f8dacdabfe3d2dc8", "is_disabled": 0, "rental_uris": {"android": "https://dc.lft.to/lastmile_qr_scan", "ios": "https://dc.lft.to/lastmile_qr_scan"}, "fusion_lon": 0.0, "lat": 38.91553916666667, "bike_id": "a53042ceef51e959f8dacdabfe3d2dc8", "type": "electric_scooter", "is_reserved": 0, "lon": -77.01204366666667}, {"fusion_lat": 0.0, "name": "b0b0ece0db91f931e75b1e0eefe0cb32", "is_disabled": 0, "rental_uris": {"android": "https://dc.lft.to/lastmile_qr_scan", "ios": "https://dc.lft.to/lastmile_qr_scan"}, "fusion_lon": 0.0, "lat": 38.90386, "bike_id": "b0b0ece0db91f931e75b1e0eefe0cb32", "type": "electric_scooter", "is_reserved": 0, "lon": -77.05506883333334}, {"fusion_lat": 0.0, "name": "62170cb8c11fbba95bb9d20ca2cbbcbb", "is_disabled": 0, "rental_uris": {"android": "https://dc.lft.to/lastmile_qr_scan", "ios": "https://dc.lft.to/lastmile_qr_scan"}, "fusion_lon": 0.0, "lat": 38.90066066666667, "bike_id": "62170cb8c11fbba95bb9d20ca2cbbcbb", "type": "electric_scooter", "is_reserved": 0, "lon": -76.933852}, {"fusion_lat": 0.0, "name": "80ac78853f719075d9d0315424ddf758", "is_disabled": 0, "rental_uris": {"android": "https://dc.lft.to/lastmile_qr_scan", "ios": "https://dc.lft.to/lastmile_qr_scan"}, "fusion_lon": 0.0, "lat": 38.942366666666665, "bike_id": "80ac78853f719075d9d0315424ddf758", "type": "electric_scooter", "is_reserved": 0, "lon": -77.07641116666667}, {"fusion_lat": 0.0, "name": "d863fbd49d49a8ba288193eee87c9fc0", "is_disabled": 0, "rental_uris": {"android": "https://dc.lft.to/lastmile_qr_scan", "ios": "https://dc.lft.to/lastmile_qr_scan"}, "fusion_lon": 0.0, "lat": 38.9077365, "bike_id": "d863fbd49d49a8ba288193eee87c9fc0", "type": "electric_scooter", "is_reserved": 0, "lon": -77.05591766666667}, {"fusion_lat": 0.0, "name": "b865371fc8d7dbeb1411c0c00cefd56e", "is_disabled": 0, "rental_uris": {"android": "https://dc.lft.to/lastmile_qr_scan", "ios": "https://dc.lft.to/lastmile_qr_scan"}, "fusion_lon": 0.0, "lat": 38.896686, "bike_id": "b865371fc8d7dbeb1411c0c00cefd56e", "type": "electric_scooter", "is_reserved": 0, "lon": -77.03351}, {"fusion_lat": 0.0, "name": "f26484c965cb59906a53ca0feaa73737", "is_disabled": 0, "rental_uris": {"android": "https://dc.lft.to/lastmile_qr_scan", "ios": "https://dc.lft.to/lastmile_qr_scan"}, "fusion_lon": 0.0, "lat": 38.83516183333333, "bike_id": "f26484c965cb59906a53ca0feaa73737", "type": "electric_bike", "is_reserved": 0, "lon": -76.98668983333333}, {"fusion_lat": 0.0, "name": "61906c1279524d16846f264df58fb73f", "is_disabled": 0, "rental_uris": {"android": "https://dc.lft.to/lastmile_qr_scan", "ios": "https://dc.lft.to/lastmile_qr_scan"}, "fusion_lon": 0.0, "lat": 38.90235366666667, "bike_id": "61906c1279524d16846f264df58fb73f", "type": "electric_scooter", "is_reserved": 0, "lon": -77.0282015}, {"fusion_lat": 0.0, "name": "fd06b1998e33b62d09aefe21a772d229", "is_disabled": 0, "rental_uris": {"android": "https://dc.lft.to/lastmile_qr_scan", "ios": "https://dc.lft.to/lastmile_qr_scan"}, "fusion_lon": 0.0, "lat": 38.924537666666666, "bike_id": "fd06b1998e33b62d09aefe21a772d229", "type": "electric_scooter", "is_reserved": 0, "lon": -77.034294}, {"fusion_lat": 0.0, "name": "0224cda50519b2d15293fedc757b89b4", "is_disabled": 0, "rental_uris": {"android": "https://dc.lft.to/lastmile_qr_scan", "ios": "https://dc.lft.to/lastmile_qr_scan"}, "fusion_lon": 0.0, "lat": 38.897004833333334, "bike_id": "0224cda50519b2d15293fedc757b89b4", "type": "electric_scooter", "is_reserved": 0, "lon": -77.0434065}, {"fusion_lat": 0.0, "name": "e080ebcefc45a6186c26b89855f859b2", "is_disabled": 0, "rental_uris": {"android": "https://dc.lft.to/lastmile_qr_scan", "ios": "https://dc.lft.to/lastmile_qr_scan"}, "fusion_lon": 0.0, "lat": 38.911253, "bike_id": "e080ebcefc45a6186c26b89855f859b2", "type": "electric_scooter", "is_reserved": 0, "lon": -77.0209565}, {"fusion_lat": 0.0, "name": "2f5185bc8f167046c5fabcc76e7f3544", "is_disabled": 0, "rental_uris": {"android": "https://dc.lft.to/lastmile_qr_scan", "ios": "https://dc.lft.to/lastmile_qr_scan"}, "fusion_lon": 0.0, "lat": 38.91119416666667, "bike_id": "2f5185bc8f167046c5fabcc76e7f3544", "type": "electric_scooter", "is_reserved": 0, "lon": -77.02763483333334}, {"fusion_lat": 0.0, "name": "1d80cb73a1907343e386eefefb0090d4", "is_disabled": 0, "rental_uris": {"android": "https://dc.lft.to/lastmile_qr_scan", "ios": "https://dc.lft.to/lastmile_qr_scan"}, "fusion_lon": 0.0, "lat": 38.961860333333334, "bike_id": "1d80cb73a1907343e386eefefb0090d4", "type": "electric_bike", "is_reserved": 0, "lon": -77.05267133333334}, {"fusion_lat": 0.0, "name": "66b89c9926f8fefea940d31f93a8188d", "is_disabled": 0, "rental_uris": {"android": "https://dc.lft.to/lastmile_qr_scan", "ios": "https://dc.lft.to/lastmile_qr_scan"}, "fusion_lon": 0.0, "lat": 38.891196, "bike_id": "66b89c9926f8fefea940d31f93a8188d", "type": "electric_scooter", "is_reserved": 0, "lon": -76.9437935}, {"fusion_lat": 0.0, "name": "967d6df78ba637498e305c0e3a83ac0e", "is_disabled": 0, "rental_uris": {"android": "https://dc.lft.to/lastmile_qr_scan", "ios": "https://dc.lft.to/lastmile_qr_scan"}, "fusion_lon": 0.0, "lat": 38.96991833333333, "bike_id": "967d6df78ba637498e305c0e3a83ac0e", "type": "electric_scooter", "is_reserved": 0, "lon": -77.01159783333334}, {"fusion_lat": 0.0, "name": "4163e1b2f7829799b79f3d836d198523", "is_disabled": 0, "rental_uris": {"android": "https://dc.lft.to/lastmile_qr_scan", "ios": "https://dc.lft.to/lastmile_qr_scan"}, "fusion_lon": 0.0, "lat": 38.97378966666667, "bike_id": "4163e1b2f7829799b79f3d836d198523", "type": "electric_scooter", "is_reserved": 0, "lon": -77.0128175}, {"fusion_lat": 0.0, "name": "96197c9729942207c313c87ef3fc52a0", "is_disabled": 0, "rental_uris": {"android": "https://dc.lft.to/lastmile_qr_scan", "ios": "https://dc.lft.to/lastmile_qr_scan"}, "fusion_lon": 0.0, "lat": 38.909221, "bike_id": "96197c9729942207c313c87ef3fc52a0", "type": "electric_scooter", "is_reserved": 0, "lon": -77.07268616666667}, {"fusion_lat": 0.0, "name": "ce1ff3c2d323e5eee58eea25faca7952", "is_disabled": 0, "rental_uris": {"android": "https://dc.lft.to/lastmile_qr_scan", "ios": "https://dc.lft.to/lastmile_qr_scan"}, "fusion_lon": 0.0, "lat": 38.913992666666665, "bike_id": "ce1ff3c2d323e5eee58eea25faca7952", "type": "electric_scooter", "is_reserved": 0, "lon": -77.01996516666667}, {"fusion_lat": 0.0, "name": "713ff609b8b17da71448cf9b1fada45a", "is_disabled": 0, "rental_uris": {"android": "https://dc.lft.to/lastmile_qr_scan", "ios": "https://dc.lft.to/lastmile_qr_scan"}, "fusion_lon": 0.0, "lat": 38.9305985, "bike_id": "713ff609b8b17da71448cf9b1fada45a", "type": "electric_scooter", "is_reserved": 0, "lon": -77.04052566666667}, {"fusion_lat": 0.0, "name": "a871e26e77a8caa56bf5449ddaf0ed6b", "is_disabled": 0, "rental_uris": {"android": "https://dc.lft.to/lastmile_qr_scan", "ios": "https://dc.lft.to/lastmile_qr_scan"}, "fusion_lon": 0.0, "lat": 38.89737183333333, "bike_id": "a871e26e77a8caa56bf5449ddaf0ed6b", "type": "electric_bike", "is_reserved": 0, "lon": -76.9204525}, {"fusion_lat": 0.0, "name": "1d5d91e588a23f2581d1569b6251d3b6", "is_disabled": 0, "rental_uris": {"android": "https://dc.lft.to/lastmile_qr_scan", "ios": "https://dc.lft.to/lastmile_qr_scan"}, "fusion_lon": 0.0, "lat": 38.90867016666667, "bike_id": "1d5d91e588a23f2581d1569b6251d3b6", "type": "electric_scooter", "is_reserved": 0, "lon": -77.04279966666667}, {"fusion_lat": 0.0, "name": "7cc4269f70e245d5414d95979801bddb", "is_disabled": 0, "rental_uris": {"android": "https://dc.lft.to/lastmile_qr_scan", "ios": "https://dc.lft.to/lastmile_qr_scan"}, "fusion_lon": 0.0, "lat": 38.930803833333336, "bike_id": "7cc4269f70e245d5414d95979801bddb", "type": "electric_scooter", "is_reserved": 0, "lon": -77.0776255}, {"fusion_lat": 0.0, "name": "7338e6ae68058325e8cb9380782d7bcd", "is_disabled": 0, "rental_uris": {"android": "https://dc.lft.to/lastmile_qr_scan", "ios": "https://dc.lft.to/lastmile_qr_scan"}, "fusion_lon": 0.0, "lat": 38.90065966666667, "bike_id": "7338e6ae68058325e8cb9380782d7bcd", "type": "electric_scooter", "is_reserved": 0, "lon": -77.04538283333333}, {"fusion_lat": 0.0, "name": "45a501059d06ca07a0fe32be24331c9e", "is_disabled": 0, "rental_uris": {"android": "https://dc.lft.to/lastmile_qr_scan", "ios": "https://dc.lft.to/lastmile_qr_scan"}, "fusion_lon": 0.0, "lat": 38.904133333333334, "bike_id": "45a501059d06ca07a0fe32be24331c9e", "type": "electric_scooter", "is_reserved": 0, "lon": -76.9733015}, {"fusion_lat": 0.0, "name": "18f8d6592169dc46eff62999ddff2ef5", "is_disabled": 0, "rental_uris": {"android": "https://dc.lft.to/lastmile_qr_scan", "ios": "https://dc.lft.to/lastmile_qr_scan"}, "fusion_lon": 0.0, "lat": 38.90729116666667, "bike_id": "18f8d6592169dc46eff62999ddff2ef5", "type": "electric_scooter", "is_reserved": 0, "lon": -77.012236}, {"fusion_lat": 0.0, "name": "508e5d41fc1cc3b7732d57d427022475", "is_disabled": 0, "rental_uris": {"android": "https://dc.lft.to/lastmile_qr_scan", "ios": "https://dc.lft.to/lastmile_qr_scan"}, "fusion_lon": 0.0, "lat": 38.90148533333333, "bike_id": "508e5d41fc1cc3b7732d57d427022475", "type": "electric_scooter", "is_reserved": 0, "lon": -77.03356283333333}, {"fusion_lat": 0.0, "name": "fc6627e6ca24489aaa59b840feccacd9", "is_disabled": 0, "rental_uris": {"android": "https://dc.lft.to/lastmile_qr_scan", "ios": "https://dc.lft.to/lastmile_qr_scan"}, "fusion_lon": 0.0, "lat": 38.90265866666667, "bike_id": "fc6627e6ca24489aaa59b840feccacd9", "type": "electric_scooter", "is_reserved": 0, "lon": -76.97446866666667}, {"fusion_lat": 0.0, "name": "e0171715d0f240d11676aad4537040f3", "is_disabled": 0, "rental_uris": {"android": "https://dc.lft.to/lastmile_qr_scan", "ios": "https://dc.lft.to/lastmile_qr_scan"}, "fusion_lon": 0.0, "lat": 38.952346166666665, "bike_id": "e0171715d0f240d11676aad4537040f3", "type": "electric_scooter", "is_reserved": 0, "lon": -76.99007966666667}, {"fusion_lat": 0.0, "name": "279cb247838b84319012ac5ec8c33906", "is_disabled": 0, "rental_uris": {"android": "https://dc.lft.to/lastmile_qr_scan", "ios": "https://dc.lft.to/lastmile_qr_scan"}, "fusion_lon": 0.0, "lat": 38.921002, "bike_id": "279cb247838b84319012ac5ec8c33906", "type": "electric_scooter", "is_reserved": 0, "lon": -77.02399166666666}, {"fusion_lat": 0.0, "name": "7718a47777defbdb70a577dc81d11f88", "is_disabled": 0, "rental_uris": {"android": "https://dc.lft.to/lastmile_qr_scan", "ios": "https://dc.lft.to/lastmile_qr_scan"}, "fusion_lon": 0.0, "lat": 38.860194166666666, "bike_id": "7718a47777defbdb70a577dc81d11f88", "type": "electric_bike", "is_reserved": 0, "lon": -77.1280655}, {"fusion_lat": 0.0, "name": "08bdbf35f9156bcb09d11c4eddc2f10d", "is_disabled": 0, "rental_uris": {"android": "https://dc.lft.to/lastmile_qr_scan", "ios": "https://dc.lft.to/lastmile_qr_scan"}, "fusion_lon": 0.0, "lat": 38.90411116666667, "bike_id": "08bdbf35f9156bcb09d11c4eddc2f10d", "type": "electric_scooter", "is_reserved": 0, "lon": -77.02062233333334}, {"fusion_lat": 0.0, "name": "d13ef5ff2d7358f439c35d9fe1579236", "is_disabled": 0, "rental_uris": {"android": "https://dc.lft.to/lastmile_qr_scan", "ios": "https://dc.lft.to/lastmile_qr_scan"}, "fusion_lon": 0.0, "lat": 38.920703833333334, "bike_id": "d13ef5ff2d7358f439c35d9fe1579236", "type": "electric_scooter", "is_reserved": 0, "lon": -77.02424383333333}, {"fusion_lat": 0.0, "name": "7267f9bdeefe86f687f425535500e79e", "is_disabled": 0, "rental_uris": {"android": "https://dc.lft.to/lastmile_qr_scan", "ios": "https://dc.lft.to/lastmile_qr_scan"}, "fusion_lon": 0.0, "lat": 38.926849, "bike_id": "7267f9bdeefe86f687f425535500e79e", "type": "electric_scooter", "is_reserved": 0, "lon": -77.02790433333334}, {"fusion_lat": 0.0, "name": "b145766d887af687099d888f87e3c320", "is_disabled": 0, "rental_uris": {"android": "https://dc.lft.to/lastmile_qr_scan", "ios": "https://dc.lft.to/lastmile_qr_scan"}, "fusion_lon": 0.0, "lat": 38.90507233333334, "bike_id": "b145766d887af687099d888f87e3c320", "type": "electric_bike", "is_reserved": 0, "lon": -77.05908333333333}, {"fusion_lat": 0.0, "name": "88fa30faae0f6419f5ff879badd6797e", "is_disabled": 0, "rental_uris": {"android": "https://dc.lft.to/lastmile_qr_scan", "ios": "https://dc.lft.to/lastmile_qr_scan"}, "fusion_lon": 0.0, "lat": 38.909374166666666, "bike_id": "88fa30faae0f6419f5ff879badd6797e", "type": "electric_scooter", "is_reserved": 0, "lon": -77.01844916666667}, {"fusion_lat": 0.0, "name": "f834077745fc548bb3768cfaf914b3c2", "is_disabled": 0, "rental_uris": {"android": "https://dc.lft.to/lastmile_qr_scan", "ios": "https://dc.lft.to/lastmile_qr_scan"}, "fusion_lon": 0.0, "lat": 38.8877115, "bike_id": "f834077745fc548bb3768cfaf914b3c2", "type": "electric_scooter", "is_reserved": 0, "lon": -76.97744866666666}, {"fusion_lat": 0.0, "name": "40f0f232383fc25d6244eb1eadf5efc3", "is_disabled": 0, "rental_uris": {"android": "https://dc.lft.to/lastmile_qr_scan", "ios": "https://dc.lft.to/lastmile_qr_scan"}, "fusion_lon": 0.0, "lat": 38.906838666666665, "bike_id": "40f0f232383fc25d6244eb1eadf5efc3", "type": "electric_bike", "is_reserved": 0, "lon": -76.94492316666667}, {"fusion_lat": 0.0, "name": "0309e088dac0e5a3cbcd09d5d685d1e5", "is_disabled": 0, "rental_uris": {"android": "https://dc.lft.to/lastmile_qr_scan", "ios": "https://dc.lft.to/lastmile_qr_scan"}, "fusion_lon": 0.0, "lat": 38.97345516666667, "bike_id": "0309e088dac0e5a3cbcd09d5d685d1e5", "type": "electric_bike", "is_reserved": 0, "lon": -77.01797116666667}, {"fusion_lat": 0.0, "name": "9b023ebc8c17c50c0d70d4120dade8f0", "is_disabled": 0, "rental_uris": {"android": "https://dc.lft.to/lastmile_qr_scan", "ios": "https://dc.lft.to/lastmile_qr_scan"}, "fusion_lon": 0.0, "lat": 38.9015335, "bike_id": "9b023ebc8c17c50c0d70d4120dade8f0", "type": "electric_scooter", "is_reserved": 0, "lon": -76.93064616666666}, {"fusion_lat": 0.0, "name": "76b0abfdcd81f7724b7fde2b78ebce89", "is_disabled": 0, "rental_uris": {"android": "https://dc.lft.to/lastmile_qr_scan", "ios": "https://dc.lft.to/lastmile_qr_scan"}, "fusion_lon": 0.0, "lat": 38.9285385, "bike_id": "76b0abfdcd81f7724b7fde2b78ebce89", "type": "electric_scooter", "is_reserved": 0, "lon": -77.03606083333334}, {"fusion_lat": 0.0, "name": "45daffdeed35c81812e64adf72b489b8", "is_disabled": 0, "rental_uris": {"android": "https://dc.lft.to/lastmile_qr_scan", "ios": "https://dc.lft.to/lastmile_qr_scan"}, "fusion_lon": 0.0, "lat": 38.984661333333335, "bike_id": "45daffdeed35c81812e64adf72b489b8", "type": "electric_bike", "is_reserved": 0, "lon": -76.970489}, {"fusion_lat": 0.0, "name": "8d5082e59d931c21be80f0a2a8d65811", "is_disabled": 0, "rental_uris": {"android": "https://dc.lft.to/lastmile_qr_scan", "ios": "https://dc.lft.to/lastmile_qr_scan"}, "fusion_lon": 0.0, "lat": 38.89610583333334, "bike_id": "8d5082e59d931c21be80f0a2a8d65811", "type": "electric_scooter", "is_reserved": 0, "lon": -77.0093085}, {"fusion_lat": 0.0, "name": "4b2b8913aeff9cae5bf9edff0f5f7e72", "is_disabled": 0, "rental_uris": {"android": "https://dc.lft.to/lastmile_qr_scan", "ios": "https://dc.lft.to/lastmile_qr_scan"}, "fusion_lon": 0.0, "lat": 38.928802833333336, "bike_id": "4b2b8913aeff9cae5bf9edff0f5f7e72", "type": "electric_scooter", "is_reserved": 0, "lon": -77.01355133333334}, {"fusion_lat": 0.0, "name": "056fc0ba08cf612dd610c5c10f7202b7", "is_disabled": 0, "rental_uris": {"android": "https://dc.lft.to/lastmile_qr_scan", "ios": "https://dc.lft.to/lastmile_qr_scan"}, "fusion_lon": 0.0, "lat": 38.90064516666666, "bike_id": "056fc0ba08cf612dd610c5c10f7202b7", "type": "electric_scooter", "is_reserved": 0, "lon": -77.0542365}, {"fusion_lat": 0.0, "name": "a3f67c97cc2e6c09860b9d4308634053", "is_disabled": 0, "rental_uris": {"android": "https://dc.lft.to/lastmile_qr_scan", "ios": "https://dc.lft.to/lastmile_qr_scan"}, "fusion_lon": 0.0, "lat": 38.886261, "bike_id": "a3f67c97cc2e6c09860b9d4308634053", "type": "electric_scooter", "is_reserved": 0, "lon": -77.019653}, {"fusion_lat": 0.0, "name": "86a6c2e37af0147c0a68369a0d834623", "is_disabled": 0, "rental_uris": {"android": "https://dc.lft.to/lastmile_qr_scan", "ios": "https://dc.lft.to/lastmile_qr_scan"}, "fusion_lon": 0.0, "lat": 38.8861165, "bike_id": "86a6c2e37af0147c0a68369a0d834623", "type": "electric_scooter", "is_reserved": 0, "lon": -77.0124895}, {"fusion_lat": 0.0, "name": "f305c1d12a0cf0b7fe927d8c679a674d", "is_disabled": 0, "rental_uris": {"android": "https://dc.lft.to/lastmile_qr_scan", "ios": "https://dc.lft.to/lastmile_qr_scan"}, "fusion_lon": 0.0, "lat": 38.905151833333335, "bike_id": "f305c1d12a0cf0b7fe927d8c679a674d", "type": "electric_scooter", "is_reserved": 0, "lon": -77.06885833333334}, {"fusion_lat": 0.0, "name": "a47dd7568004dc0792fbeb73505bd085", "is_disabled": 0, "rental_uris": {"android": "https://dc.lft.to/lastmile_qr_scan", "ios": "https://dc.lft.to/lastmile_qr_scan"}, "fusion_lon": 0.0, "lat": 38.9000955, "bike_id": "a47dd7568004dc0792fbeb73505bd085", "type": "electric_scooter", "is_reserved": 0, "lon": -76.99641333333334}, {"fusion_lat": 0.0, "name": "0dae216c2a3cd9f3f9c59ee8a85dbcae", "is_disabled": 0, "rental_uris": {"android": "https://dc.lft.to/lastmile_qr_scan", "ios": "https://dc.lft.to/lastmile_qr_scan"}, "fusion_lon": 0.0, "lat": 38.908731, "bike_id": "0dae216c2a3cd9f3f9c59ee8a85dbcae", "type": "electric_scooter", "is_reserved": 0, "lon": -77.06407916666667}, {"fusion_lat": 0.0, "name": "4ac6005641d49965f78fce22fc0decaf", "is_disabled": 0, "rental_uris": {"android": "https://dc.lft.to/lastmile_qr_scan", "ios": "https://dc.lft.to/lastmile_qr_scan"}, "fusion_lon": 0.0, "lat": 38.932175, "bike_id": "4ac6005641d49965f78fce22fc0decaf", "type": "electric_scooter", "is_reserved": 0, "lon": -77.0351785}, {"fusion_lat": 0.0, "name": "fdd3e07950b355112a57e3d8a169a6b8", "is_disabled": 0, "rental_uris": {"android": "https://dc.lft.to/lastmile_qr_scan", "ios": "https://dc.lft.to/lastmile_qr_scan"}, "fusion_lon": 0.0, "lat": 38.885136833333334, "bike_id": "fdd3e07950b355112a57e3d8a169a6b8", "type": "electric_scooter", "is_reserved": 0, "lon": -77.02578933333334}, {"fusion_lat": 0.0, "name": "d8b1a455f151942305342d6ee4509002", "is_disabled": 0, "rental_uris": {"android": "https://dc.lft.to/lastmile_qr_scan", "ios": "https://dc.lft.to/lastmile_qr_scan"}, "fusion_lon": 0.0, "lat": 38.9185825, "bike_id": "d8b1a455f151942305342d6ee4509002", "type": "electric_scooter", "is_reserved": 0, "lon": -76.96110633333333}, {"fusion_lat": 0.0, "name": "65b85f612474389f8576be457d5fa652", "is_disabled": 0, "rental_uris": {"android": "https://dc.lft.to/lastmile_qr_scan", "ios": "https://dc.lft.to/lastmile_qr_scan"}, "fusion_lon": 0.0, "lat": 38.917259, "bike_id": "65b85f612474389f8576be457d5fa652", "type": "electric_scooter", "is_reserved": 0, "lon": -77.02901033333333}, {"fusion_lat": 0.0, "name": "c63f27e52f9b68362afcd1a4854e644c", "is_disabled": 0, "rental_uris": {"android": "https://dc.lft.to/lastmile_qr_scan", "ios": "https://dc.lft.to/lastmile_qr_scan"}, "fusion_lon": 0.0, "lat": 38.915586, "bike_id": "c63f27e52f9b68362afcd1a4854e644c", "type": "electric_scooter", "is_reserved": 0, "lon": -76.9835095}, {"fusion_lat": 0.0, "name": "6d52b943340e03bdd60b4d5674464eb7", "is_disabled": 0, "rental_uris": {"android": "https://dc.lft.to/lastmile_qr_scan", "ios": "https://dc.lft.to/lastmile_qr_scan"}, "fusion_lon": 0.0, "lat": 38.92317333333333, "bike_id": "6d52b943340e03bdd60b4d5674464eb7", "type": "electric_scooter", "is_reserved": 0, "lon": -77.029009}, {"fusion_lat": 0.0, "name": "3b8dfa3847303ab46b78584e69e3f5b8", "is_disabled": 0, "rental_uris": {"android": "https://dc.lft.to/lastmile_qr_scan", "ios": "https://dc.lft.to/lastmile_qr_scan"}, "fusion_lon": 0.0, "lat": 38.9165795, "bike_id": "3b8dfa3847303ab46b78584e69e3f5b8", "type": "electric_scooter", "is_reserved": 0, "lon": -77.0280475}, {"fusion_lat": 0.0, "name": "2cc18c4e0f672c23a27fdce073e2c25a", "is_disabled": 0, "rental_uris": {"android": "https://dc.lft.to/lastmile_qr_scan", "ios": "https://dc.lft.to/lastmile_qr_scan"}, "fusion_lon": 0.0, "lat": 38.91924216666666, "bike_id": "2cc18c4e0f672c23a27fdce073e2c25a", "type": "electric_scooter", "is_reserved": 0, "lon": -77.0097315}, {"fusion_lat": 0.0, "name": "d398f46456fb571b7e8ff3c26c7f4a81", "is_disabled": 0, "rental_uris": {"android": "https://dc.lft.to/lastmile_qr_scan", "ios": "https://dc.lft.to/lastmile_qr_scan"}, "fusion_lon": 0.0, "lat": 38.92250266666667, "bike_id": "d398f46456fb571b7e8ff3c26c7f4a81", "type": "electric_scooter", "is_reserved": 0, "lon": -77.0221745}, {"fusion_lat": 0.0, "name": "86b41eca1628ed887b22138c29b7dd8b", "is_disabled": 0, "rental_uris": {"android": "https://dc.lft.to/lastmile_qr_scan", "ios": "https://dc.lft.to/lastmile_qr_scan"}, "fusion_lon": 0.0, "lat": 38.90709233333333, "bike_id": "86b41eca1628ed887b22138c29b7dd8b", "type": "electric_scooter", "is_reserved": 0, "lon": -76.9869745}, {"fusion_lat": 0.0, "name": "ba9dde9662a194da2b1e1ab1a14c11cc", "is_disabled": 0, "rental_uris": {"android": "https://dc.lft.to/lastmile_qr_scan", "ios": "https://dc.lft.to/lastmile_qr_scan"}, "fusion_lon": 0.0, "lat": 38.930681666666665, "bike_id": "ba9dde9662a194da2b1e1ab1a14c11cc", "type": "electric_scooter", "is_reserved": 0, "lon": -77.0337325}, {"fusion_lat": 0.0, "name": "8b85674c5785302997904dc677b8188d", "is_disabled": 0, "rental_uris": {"android": "https://dc.lft.to/lastmile_qr_scan", "ios": "https://dc.lft.to/lastmile_qr_scan"}, "fusion_lon": 0.0, "lat": 38.886693, "bike_id": "8b85674c5785302997904dc677b8188d", "type": "electric_scooter", "is_reserved": 0, "lon": -77.02836783333333}, {"fusion_lat": 0.0, "name": "3ad188a30d9e3f3658cd16af3a828e0e", "is_disabled": 0, "rental_uris": {"android": "https://dc.lft.to/lastmile_qr_scan", "ios": "https://dc.lft.to/lastmile_qr_scan"}, "fusion_lon": 0.0, "lat": 38.9261395, "bike_id": "3ad188a30d9e3f3658cd16af3a828e0e", "type": "electric_scooter", "is_reserved": 0, "lon": -77.0216115}, {"fusion_lat": 0.0, "name": "c482fdebb9c57ba261d5145ce7139f5c", "is_disabled": 0, "rental_uris": {"android": "https://dc.lft.to/lastmile_qr_scan", "ios": "https://dc.lft.to/lastmile_qr_scan"}, "fusion_lon": 0.0, "lat": 38.938972666666665, "bike_id": "c482fdebb9c57ba261d5145ce7139f5c", "type": "electric_scooter", "is_reserved": 0, "lon": -77.03320233333334}, {"fusion_lat": 0.0, "name": "07a541acdf6b152ae59e7eccbbe226cd", "is_disabled": 0, "rental_uris": {"android": "https://dc.lft.to/lastmile_qr_scan", "ios": "https://dc.lft.to/lastmile_qr_scan"}, "fusion_lon": 0.0, "lat": 38.9342065, "bike_id": "07a541acdf6b152ae59e7eccbbe226cd", "type": "electric_scooter", "is_reserved": 0, "lon": -77.02844133333333}, {"fusion_lat": 0.0, "name": "483579c98d2097211215a368dc44d25b", "is_disabled": 0, "rental_uris": {"android": "https://dc.lft.to/lastmile_qr_scan", "ios": "https://dc.lft.to/lastmile_qr_scan"}, "fusion_lon": 0.0, "lat": 38.92439366666667, "bike_id": "483579c98d2097211215a368dc44d25b", "type": "electric_scooter", "is_reserved": 0, "lon": -77.03407666666666}, {"fusion_lat": 0.0, "name": "9403346a87f96ceccfd4004b77a023dc", "is_disabled": 0, "rental_uris": {"android": "https://dc.lft.to/lastmile_qr_scan", "ios": "https://dc.lft.to/lastmile_qr_scan"}, "fusion_lon": 0.0, "lat": 38.923202833333335, "bike_id": "9403346a87f96ceccfd4004b77a023dc", "type": "electric_scooter", "is_reserved": 0, "lon": -77.036729}, {"fusion_lat": 0.0, "name": "ddb857f16bab207f4e2d96ef4462edcb", "is_disabled": 0, "rental_uris": {"android": "https://dc.lft.to/lastmile_qr_scan", "ios": "https://dc.lft.to/lastmile_qr_scan"}, "fusion_lon": 0.0, "lat": 38.920915, "bike_id": "ddb857f16bab207f4e2d96ef4462edcb", "type": "electric_scooter", "is_reserved": 0, "lon": -77.023975}, {"fusion_lat": 0.0, "name": "28b61aa68d87132ce739064578222cb4", "is_disabled": 0, "rental_uris": {"android": "https://dc.lft.to/lastmile_qr_scan", "ios": "https://dc.lft.to/lastmile_qr_scan"}, "fusion_lon": 0.0, "lat": 38.937083666666666, "bike_id": "28b61aa68d87132ce739064578222cb4", "type": "electric_scooter", "is_reserved": 0, "lon": -77.06106716666666}, {"fusion_lat": 0.0, "name": "855f0b54933f3a45d6d582da0c35e6cb", "is_disabled": 0, "rental_uris": {"android": "https://dc.lft.to/lastmile_qr_scan", "ios": "https://dc.lft.to/lastmile_qr_scan"}, "fusion_lon": 0.0, "lat": 38.890114, "bike_id": "855f0b54933f3a45d6d582da0c35e6cb", "type": "electric_scooter", "is_reserved": 0, "lon": -76.93744816666667}, {"fusion_lat": 0.0, "name": "2f5f2c2fc4732ea2c2c275f767727493", "is_disabled": 0, "rental_uris": {"android": "https://dc.lft.to/lastmile_qr_scan", "ios": "https://dc.lft.to/lastmile_qr_scan"}, "fusion_lon": 0.0, "lat": 38.89226216666667, "bike_id": "2f5f2c2fc4732ea2c2c275f767727493", "type": "electric_scooter", "is_reserved": 0, "lon": -77.0318245}, {"fusion_lat": 0.0, "name": "b789333f25ad31026f4554439e566653", "is_disabled": 0, "rental_uris": {"android": "https://dc.lft.to/lastmile_qr_scan", "ios": "https://dc.lft.to/lastmile_qr_scan"}, "fusion_lon": 0.0, "lat": 38.84756866666667, "bike_id": "b789333f25ad31026f4554439e566653", "type": "electric_scooter", "is_reserved": 0, "lon": -76.99500666666667}, {"fusion_lat": 0.0, "name": "8e7fbc2eeb5c28c7990fd54894ad4960", "is_disabled": 0, "rental_uris": {"android": "https://dc.lft.to/lastmile_qr_scan", "ios": "https://dc.lft.to/lastmile_qr_scan"}, "fusion_lon": 0.0, "lat": 38.918192, "bike_id": "8e7fbc2eeb5c28c7990fd54894ad4960", "type": "electric_scooter", "is_reserved": 0, "lon": -77.0258725}, {"fusion_lat": 0.0, "name": "fc54f6d89380e8485ab6d9af75ee70bb", "is_disabled": 0, "rental_uris": {"android": "https://dc.lft.to/lastmile_qr_scan", "ios": "https://dc.lft.to/lastmile_qr_scan"}, "fusion_lon": 0.0, "lat": 38.945188, "bike_id": "fc54f6d89380e8485ab6d9af75ee70bb", "type": "electric_scooter", "is_reserved": 0, "lon": -77.0389055}, {"fusion_lat": 0.0, "name": "b51d633e878aa52c1357db5a87c0f9a2", "is_disabled": 0, "rental_uris": {"android": "https://dc.lft.to/lastmile_qr_scan", "ios": "https://dc.lft.to/lastmile_qr_scan"}, "fusion_lon": 0.0, "lat": 38.8871975, "bike_id": "b51d633e878aa52c1357db5a87c0f9a2", "type": "electric_scooter", "is_reserved": 0, "lon": -76.99685383333333}, {"fusion_lat": 0.0, "name": "cbadb65f9c7d43744ae2e00fc533c1ed", "is_disabled": 0, "rental_uris": {"android": "https://dc.lft.to/lastmile_qr_scan", "ios": "https://dc.lft.to/lastmile_qr_scan"}, "fusion_lon": 0.0, "lat": 38.89794933333334, "bike_id": "cbadb65f9c7d43744ae2e00fc533c1ed", "type": "electric_scooter", "is_reserved": 0, "lon": -77.011979}, {"fusion_lat": 0.0, "name": "ec377efcb4f26e4142d089eb1a6a956b", "is_disabled": 0, "rental_uris": {"android": "https://dc.lft.to/lastmile_qr_scan", "ios": "https://dc.lft.to/lastmile_qr_scan"}, "fusion_lon": 0.0, "lat": 38.952928166666666, "bike_id": "ec377efcb4f26e4142d089eb1a6a956b", "type": "electric_scooter", "is_reserved": 0, "lon": -77.0685395}, {"fusion_lat": 0.0, "name": "cba803ed338f501e164805b5c0fef044", "is_disabled": 0, "rental_uris": {"android": "https://dc.lft.to/lastmile_qr_scan", "ios": "https://dc.lft.to/lastmile_qr_scan"}, "fusion_lon": 0.0, "lat": 38.9289985, "bike_id": "cba803ed338f501e164805b5c0fef044", "type": "electric_bike", "is_reserved": 0, "lon": -77.23177916666667}, {"fusion_lat": 0.0, "name": "cbc048d64200c1e45d28d0aa80925726", "is_disabled": 0, "rental_uris": {"android": "https://dc.lft.to/lastmile_qr_scan", "ios": "https://dc.lft.to/lastmile_qr_scan"}, "fusion_lon": 0.0, "lat": 38.8975255, "bike_id": "cbc048d64200c1e45d28d0aa80925726", "type": "electric_scooter", "is_reserved": 0, "lon": -77.01996316666667}, {"fusion_lat": 0.0, "name": "b011618cd3af93e334d8a78329909f8e", "is_disabled": 0, "rental_uris": {"android": "https://dc.lft.to/lastmile_qr_scan", "ios": "https://dc.lft.to/lastmile_qr_scan"}, "fusion_lon": 0.0, "lat": 38.85511616666667, "bike_id": "b011618cd3af93e334d8a78329909f8e", "type": "electric_bike", "is_reserved": 0, "lon": -77.1053975}, {"fusion_lat": 0.0, "name": "ec25987af69c9473b1531ed29f716df0", "is_disabled": 0, "rental_uris": {"android": "https://dc.lft.to/lastmile_qr_scan", "ios": "https://dc.lft.to/lastmile_qr_scan"}, "fusion_lon": 0.0, "lat": 38.903153, "bike_id": "ec25987af69c9473b1531ed29f716df0", "type": "electric_scooter", "is_reserved": 0, "lon": -76.97800366666667}, {"fusion_lat": 0.0, "name": "063acf2a65b6cc9f36249f5d7f65ecbe", "is_disabled": 0, "rental_uris": {"android": "https://dc.lft.to/lastmile_qr_scan", "ios": "https://dc.lft.to/lastmile_qr_scan"}, "fusion_lon": 0.0, "lat": 38.88018483333333, "bike_id": "063acf2a65b6cc9f36249f5d7f65ecbe", "type": "electric_scooter", "is_reserved": 0, "lon": -76.93116566666667}, {"fusion_lat": 0.0, "name": "2bf508aee1b23571e192513dcedd0a1c", "is_disabled": 0, "rental_uris": {"android": "https://dc.lft.to/lastmile_qr_scan", "ios": "https://dc.lft.to/lastmile_qr_scan"}, "fusion_lon": 0.0, "lat": 38.920159, "bike_id": "2bf508aee1b23571e192513dcedd0a1c", "type": "electric_scooter", "is_reserved": 0, "lon": -76.9958465}, {"fusion_lat": 0.0, "name": "685e1e379ec49bc7e5adc9a58757b230", "is_disabled": 0, "rental_uris": {"android": "https://dc.lft.to/lastmile_qr_scan", "ios": "https://dc.lft.to/lastmile_qr_scan"}, "fusion_lon": 0.0, "lat": 38.901569, "bike_id": "685e1e379ec49bc7e5adc9a58757b230", "type": "electric_scooter", "is_reserved": 0, "lon": -77.018915}, {"fusion_lat": 0.0, "name": "2801715d14953feb4fbab504fb3c697b", "is_disabled": 0, "rental_uris": {"android": "https://dc.lft.to/lastmile_qr_scan", "ios": "https://dc.lft.to/lastmile_qr_scan"}, "fusion_lon": 0.0, "lat": 38.9148575, "bike_id": "2801715d14953feb4fbab504fb3c697b", "type": "electric_scooter", "is_reserved": 0, "lon": -77.04517983333334}, {"fusion_lat": 0.0, "name": "168213126d5bd1bbf3bd7c469da443ff", "is_disabled": 0, "rental_uris": {"android": "https://dc.lft.to/lastmile_qr_scan", "ios": "https://dc.lft.to/lastmile_qr_scan"}, "fusion_lon": 0.0, "lat": 38.919658166666665, "bike_id": "168213126d5bd1bbf3bd7c469da443ff", "type": "electric_scooter", "is_reserved": 0, "lon": -77.00111916666667}, {"fusion_lat": 0.0, "name": "e25ec1805feb5c5822a33a382170d6aa", "is_disabled": 0, "rental_uris": {"android": "https://dc.lft.to/lastmile_qr_scan", "ios": "https://dc.lft.to/lastmile_qr_scan"}, "fusion_lon": 0.0, "lat": 38.879184333333335, "bike_id": "e25ec1805feb5c5822a33a382170d6aa", "type": "electric_scooter", "is_reserved": 0, "lon": -76.99506883333333}, {"fusion_lat": 0.0, "name": "d8f126b4f78b7962d915949c853c11e2", "is_disabled": 0, "rental_uris": {"android": "https://dc.lft.to/lastmile_qr_scan", "ios": "https://dc.lft.to/lastmile_qr_scan"}, "fusion_lon": 0.0, "lat": 38.88879133333333, "bike_id": "d8f126b4f78b7962d915949c853c11e2", "type": "electric_scooter", "is_reserved": 0, "lon": -76.98453683333334}, {"fusion_lat": 0.0, "name": "b904accc4f8c2222ccae6f8be4950ee8", "is_disabled": 0, "rental_uris": {"android": "https://dc.lft.to/lastmile_qr_scan", "ios": "https://dc.lft.to/lastmile_qr_scan"}, "fusion_lon": 0.0, "lat": 38.901914833333336, "bike_id": "b904accc4f8c2222ccae6f8be4950ee8", "type": "electric_scooter", "is_reserved": 0, "lon": -76.92895666666666}, {"fusion_lat": 0.0, "name": "8ed525f1e3abadd1eed4e71212ad4438", "is_disabled": 0, "rental_uris": {"android": "https://dc.lft.to/lastmile_qr_scan", "ios": "https://dc.lft.to/lastmile_qr_scan"}, "fusion_lon": 0.0, "lat": 38.917976, "bike_id": "8ed525f1e3abadd1eed4e71212ad4438", "type": "electric_scooter", "is_reserved": 0, "lon": -77.03175866666666}, {"fusion_lat": 0.0, "name": "dbf5f86722743348ef197fdfb5f1939f", "is_disabled": 0, "rental_uris": {"android": "https://dc.lft.to/lastmile_qr_scan", "ios": "https://dc.lft.to/lastmile_qr_scan"}, "fusion_lon": 0.0, "lat": 38.887466, "bike_id": "dbf5f86722743348ef197fdfb5f1939f", "type": "electric_scooter", "is_reserved": 0, "lon": -76.99627166666667}, {"fusion_lat": 0.0, "name": "ee8b527583818788ba4ad38ebc0b0907", "is_disabled": 0, "rental_uris": {"android": "https://dc.lft.to/lastmile_qr_scan", "ios": "https://dc.lft.to/lastmile_qr_scan"}, "fusion_lon": 0.0, "lat": 38.923708166666664, "bike_id": "ee8b527583818788ba4ad38ebc0b0907", "type": "electric_scooter", "is_reserved": 0, "lon": -77.04246566666667}, {"fusion_lat": 0.0, "name": "9b59f64271fc569af5be62fedeae85af", "is_disabled": 0, "rental_uris": {"android": "https://dc.lft.to/lastmile_qr_scan", "ios": "https://dc.lft.to/lastmile_qr_scan"}, "fusion_lon": 0.0, "lat": 38.8838605, "bike_id": "9b59f64271fc569af5be62fedeae85af", "type": "electric_scooter", "is_reserved": 0, "lon": -76.99607583333334}, {"fusion_lat": 0.0, "name": "816887919ef81d64410bc96516958450", "is_disabled": 0, "rental_uris": {"android": "https://dc.lft.to/lastmile_qr_scan", "ios": "https://dc.lft.to/lastmile_qr_scan"}, "fusion_lon": 0.0, "lat": 38.9353125, "bike_id": "816887919ef81d64410bc96516958450", "type": "electric_scooter", "is_reserved": 0, "lon": -77.03082933333333}, {"fusion_lat": 0.0, "name": "75f63cda6481691960921d1824be500d", "is_disabled": 0, "rental_uris": {"android": "https://dc.lft.to/lastmile_qr_scan", "ios": "https://dc.lft.to/lastmile_qr_scan"}, "fusion_lon": 0.0, "lat": 38.89748983333333, "bike_id": "75f63cda6481691960921d1824be500d", "type": "electric_scooter", "is_reserved": 0, "lon": -77.02785266666666}, {"fusion_lat": 0.0, "name": "2ff1ef309f98931b2c114ac8c1a63d9d", "is_disabled": 0, "rental_uris": {"android": "https://dc.lft.to/lastmile_qr_scan", "ios": "https://dc.lft.to/lastmile_qr_scan"}, "fusion_lon": 0.0, "lat": 38.91660266666667, "bike_id": "2ff1ef309f98931b2c114ac8c1a63d9d", "type": "electric_scooter", "is_reserved": 0, "lon": -77.02814633333334}, {"fusion_lat": 0.0, "name": "2bd1c8cdd9973c0335b0bf8b0f9c580e", "is_disabled": 0, "rental_uris": {"android": "https://dc.lft.to/lastmile_qr_scan", "ios": "https://dc.lft.to/lastmile_qr_scan"}, "fusion_lon": 0.0, "lat": 38.90788933333333, "bike_id": "2bd1c8cdd9973c0335b0bf8b0f9c580e", "type": "electric_scooter", "is_reserved": 0, "lon": -77.0320685}, {"fusion_lat": 0.0, "name": "5c59d5a4d7dc7994efaeb2cad8b3c75d", "is_disabled": 0, "rental_uris": {"android": "https://dc.lft.to/lastmile_qr_scan", "ios": "https://dc.lft.to/lastmile_qr_scan"}, "fusion_lon": 0.0, "lat": 38.946643333333334, "bike_id": "5c59d5a4d7dc7994efaeb2cad8b3c75d", "type": "electric_bike", "is_reserved": 0, "lon": -77.00702066666666}, {"fusion_lat": 0.0, "name": "806e29da60ebc420909ca228cd5ed1b5", "is_disabled": 0, "rental_uris": {"android": "https://dc.lft.to/lastmile_qr_scan", "ios": "https://dc.lft.to/lastmile_qr_scan"}, "fusion_lon": 0.0, "lat": 38.90678333333334, "bike_id": "806e29da60ebc420909ca228cd5ed1b5", "type": "electric_scooter", "is_reserved": 0, "lon": -77.02390983333333}, {"fusion_lat": 0.0, "name": "6d02e96096c2c8ec44493cc848725dac", "is_disabled": 0, "rental_uris": {"android": "https://dc.lft.to/lastmile_qr_scan", "ios": "https://dc.lft.to/lastmile_qr_scan"}, "fusion_lon": 0.0, "lat": 38.88626766666667, "bike_id": "6d02e96096c2c8ec44493cc848725dac", "type": "electric_scooter", "is_reserved": 0, "lon": -77.019742}, {"fusion_lat": 0.0, "name": "7319ac220a96f2ffc844fdbb806d4a39", "is_disabled": 0, "rental_uris": {"android": "https://dc.lft.to/lastmile_qr_scan", "ios": "https://dc.lft.to/lastmile_qr_scan"}, "fusion_lon": 0.0, "lat": 38.862657166666665, "bike_id": "7319ac220a96f2ffc844fdbb806d4a39", "type": "electric_bike", "is_reserved": 0, "lon": -76.98347516666666}, {"fusion_lat": 0.0, "name": "7a45611888f2f286aa89469a921ccbdb", "is_disabled": 0, "rental_uris": {"android": "https://dc.lft.to/lastmile_qr_scan", "ios": "https://dc.lft.to/lastmile_qr_scan"}, "fusion_lon": 0.0, "lat": 38.887205333333334, "bike_id": "7a45611888f2f286aa89469a921ccbdb", "type": "electric_scooter", "is_reserved": 0, "lon": -77.02203966666667}, {"fusion_lat": 0.0, "name": "1a1efc71e428743123a6c47ab2a7f227", "is_disabled": 0, "rental_uris": {"android": "https://dc.lft.to/lastmile_qr_scan", "ios": "https://dc.lft.to/lastmile_qr_scan"}, "fusion_lon": 0.0, "lat": 38.90715316666667, "bike_id": "1a1efc71e428743123a6c47ab2a7f227", "type": "electric_scooter", "is_reserved": 0, "lon": -77.04211316666667}, {"fusion_lat": 0.0, "name": "e791b6db551e1abffdc54357ed61cebb", "is_disabled": 0, "rental_uris": {"android": "https://dc.lft.to/lastmile_qr_scan", "ios": "https://dc.lft.to/lastmile_qr_scan"}, "fusion_lon": 0.0, "lat": 38.99521633333333, "bike_id": "e791b6db551e1abffdc54357ed61cebb", "type": "electric_bike", "is_reserved": 0, "lon": -77.0748}, {"fusion_lat": 0.0, "name": "bd685df60a6c62ccc53028435606ce0e", "is_disabled": 0, "rental_uris": {"android": "https://dc.lft.to/lastmile_qr_scan", "ios": "https://dc.lft.to/lastmile_qr_scan"}, "fusion_lon": 0.0, "lat": 38.89732166666667, "bike_id": "bd685df60a6c62ccc53028435606ce0e", "type": "electric_scooter", "is_reserved": 0, "lon": -76.94704433333334}, {"fusion_lat": 0.0, "name": "ea0698beb076356b3dbaf720f150ca1a", "is_disabled": 0, "rental_uris": {"android": "https://dc.lft.to/lastmile_qr_scan", "ios": "https://dc.lft.to/lastmile_qr_scan"}, "fusion_lon": 0.0, "lat": 38.92355833333333, "bike_id": "ea0698beb076356b3dbaf720f150ca1a", "type": "electric_scooter", "is_reserved": 0, "lon": -77.02417583333333}, {"fusion_lat": 0.0, "name": "2129b1853889e143d9ae350381063add", "is_disabled": 0, "rental_uris": {"android": "https://dc.lft.to/lastmile_qr_scan", "ios": "https://dc.lft.to/lastmile_qr_scan"}, "fusion_lon": 0.0, "lat": 38.8957725, "bike_id": "2129b1853889e143d9ae350381063add", "type": "electric_scooter", "is_reserved": 0, "lon": -77.027189}, {"fusion_lat": 0.0, "name": "9121c3a02aa35157a9638bd1663ee2af", "is_disabled": 0, "rental_uris": {"android": "https://dc.lft.to/lastmile_qr_scan", "ios": "https://dc.lft.to/lastmile_qr_scan"}, "fusion_lon": 0.0, "lat": 38.8859955, "bike_id": "9121c3a02aa35157a9638bd1663ee2af", "type": "electric_scooter", "is_reserved": 0, "lon": -77.00344516666667}, {"fusion_lat": 0.0, "name": "7cf38e204a73efb6b028ec3959f705fd", "is_disabled": 0, "rental_uris": {"android": "https://dc.lft.to/lastmile_qr_scan", "ios": "https://dc.lft.to/lastmile_qr_scan"}, "fusion_lon": 0.0, "lat": 38.9078385, "bike_id": "7cf38e204a73efb6b028ec3959f705fd", "type": "electric_scooter", "is_reserved": 0, "lon": -77.01115333333334}, {"fusion_lat": 0.0, "name": "30d0d5afb4e01b1871fa1b604929f30f", "is_disabled": 0, "rental_uris": {"android": "https://dc.lft.to/lastmile_qr_scan", "ios": "https://dc.lft.to/lastmile_qr_scan"}, "fusion_lon": 0.0, "lat": 38.824625166666664, "bike_id": "30d0d5afb4e01b1871fa1b604929f30f", "type": "electric_bike", "is_reserved": 0, "lon": -77.0079785}, {"fusion_lat": 0.0, "name": "d30113977e3848bc9e245d572555588d", "is_disabled": 0, "rental_uris": {"android": "https://dc.lft.to/lastmile_qr_scan", "ios": "https://dc.lft.to/lastmile_qr_scan"}, "fusion_lon": 0.0, "lat": 38.913621166666665, "bike_id": "d30113977e3848bc9e245d572555588d", "type": "electric_scooter", "is_reserved": 0, "lon": -77.0455615}, {"fusion_lat": 0.0, "name": "32409c7720e2b82596ba5da3e121c6c0", "is_disabled": 0, "rental_uris": {"android": "https://dc.lft.to/lastmile_qr_scan", "ios": "https://dc.lft.to/lastmile_qr_scan"}, "fusion_lon": 0.0, "lat": 38.915518166666665, "bike_id": "32409c7720e2b82596ba5da3e121c6c0", "type": "electric_scooter", "is_reserved": 0, "lon": -77.04171516666666}, {"fusion_lat": 0.0, "name": "6ec776fece3fac5db1ea819414ae9f41", "is_disabled": 0, "rental_uris": {"android": "https://dc.lft.to/lastmile_qr_scan", "ios": "https://dc.lft.to/lastmile_qr_scan"}, "fusion_lon": 0.0, "lat": 38.903753, "bike_id": "6ec776fece3fac5db1ea819414ae9f41", "type": "electric_scooter", "is_reserved": 0, "lon": -77.03649916666667}, {"fusion_lat": 0.0, "name": "0d24c71855b5a4b155c6d9f529032384", "is_disabled": 0, "rental_uris": {"android": "https://dc.lft.to/lastmile_qr_scan", "ios": "https://dc.lft.to/lastmile_qr_scan"}, "fusion_lon": 0.0, "lat": 38.87670083333333, "bike_id": "0d24c71855b5a4b155c6d9f529032384", "type": "electric_scooter", "is_reserved": 0, "lon": -77.00719866666667}, {"fusion_lat": 0.0, "name": "681453592b4a4c7eef2eaac9dc9942d0", "is_disabled": 0, "rental_uris": {"android": "https://dc.lft.to/lastmile_qr_scan", "ios": "https://dc.lft.to/lastmile_qr_scan"}, "fusion_lon": 0.0, "lat": 38.899084333333334, "bike_id": "681453592b4a4c7eef2eaac9dc9942d0", "type": "electric_scooter", "is_reserved": 0, "lon": -76.9455055}, {"fusion_lat": 0.0, "name": "f3e63855ad7bb5a96f18e35ea53edc22", "is_disabled": 0, "rental_uris": {"android": "https://dc.lft.to/lastmile_qr_scan", "ios": "https://dc.lft.to/lastmile_qr_scan"}, "fusion_lon": 0.0, "lat": 38.881571, "bike_id": "f3e63855ad7bb5a96f18e35ea53edc22", "type": "electric_scooter", "is_reserved": 0, "lon": -77.02702083333334}, {"fusion_lat": 0.0, "name": "e916e34c38ded80744c6e73199afb83c", "is_disabled": 0, "rental_uris": {"android": "https://dc.lft.to/lastmile_qr_scan", "ios": "https://dc.lft.to/lastmile_qr_scan"}, "fusion_lon": 0.0, "lat": 38.89996583333333, "bike_id": "e916e34c38ded80744c6e73199afb83c", "type": "electric_scooter", "is_reserved": 0, "lon": -77.00708066666667}, {"fusion_lat": 0.0, "name": "9d56a1a6ec538a55f51df7aabe869199", "is_disabled": 0, "rental_uris": {"android": "https://dc.lft.to/lastmile_qr_scan", "ios": "https://dc.lft.to/lastmile_qr_scan"}, "fusion_lon": 0.0, "lat": 38.88773166666667, "bike_id": "9d56a1a6ec538a55f51df7aabe869199", "type": "electric_scooter", "is_reserved": 0, "lon": -76.97753133333333}, {"fusion_lat": 0.0, "name": "e1525129f40ef74a178488c780cc3cfa", "is_disabled": 0, "rental_uris": {"android": "https://dc.lft.to/lastmile_qr_scan", "ios": "https://dc.lft.to/lastmile_qr_scan"}, "fusion_lon": 0.0, "lat": 38.9250725, "bike_id": "e1525129f40ef74a178488c780cc3cfa", "type": "electric_scooter", "is_reserved": 0, "lon": -77.052262}, {"fusion_lat": 0.0, "name": "a4a9bff7baeead8158436515ba49664f", "is_disabled": 0, "rental_uris": {"android": "https://dc.lft.to/lastmile_qr_scan", "ios": "https://dc.lft.to/lastmile_qr_scan"}, "fusion_lon": 0.0, "lat": 38.90954766666667, "bike_id": "a4a9bff7baeead8158436515ba49664f", "type": "electric_scooter", "is_reserved": 0, "lon": -76.985488}, {"fusion_lat": 0.0, "name": "ab44c4a10ae4af932b107144edaecf92", "is_disabled": 0, "rental_uris": {"android": "https://dc.lft.to/lastmile_qr_scan", "ios": "https://dc.lft.to/lastmile_qr_scan"}, "fusion_lon": 0.0, "lat": 38.91017866666667, "bike_id": "ab44c4a10ae4af932b107144edaecf92", "type": "electric_scooter", "is_reserved": 0, "lon": -77.03852533333334}, {"fusion_lat": 0.0, "name": "df21412f512ac6f1db22c1cd50ca42d7", "is_disabled": 0, "rental_uris": {"android": "https://dc.lft.to/lastmile_qr_scan", "ios": "https://dc.lft.to/lastmile_qr_scan"}, "fusion_lon": 0.0, "lat": 38.9390075, "bike_id": "df21412f512ac6f1db22c1cd50ca42d7", "type": "electric_scooter", "is_reserved": 0, "lon": -77.033217}, {"fusion_lat": 0.0, "name": "180a2e148036de0ca4f2e86564a7583d", "is_disabled": 0, "rental_uris": {"android": "https://dc.lft.to/lastmile_qr_scan", "ios": "https://dc.lft.to/lastmile_qr_scan"}, "fusion_lon": 0.0, "lat": 38.956352333333335, "bike_id": "180a2e148036de0ca4f2e86564a7583d", "type": "electric_scooter", "is_reserved": 0, "lon": -77.0330615}, {"fusion_lat": 0.0, "name": "4bd3252707e39e71148d2fe7410648b8", "is_disabled": 0, "rental_uris": {"android": "https://dc.lft.to/lastmile_qr_scan", "ios": "https://dc.lft.to/lastmile_qr_scan"}, "fusion_lon": 0.0, "lat": 38.914619333333334, "bike_id": "4bd3252707e39e71148d2fe7410648b8", "type": "electric_scooter", "is_reserved": 0, "lon": -77.00208983333333}, {"fusion_lat": 0.0, "name": "40eba122f93a5b7b30343f5fdf17be71", "is_disabled": 0, "rental_uris": {"android": "https://dc.lft.to/lastmile_qr_scan", "ios": "https://dc.lft.to/lastmile_qr_scan"}, "fusion_lon": 0.0, "lat": 38.90810416666667, "bike_id": "40eba122f93a5b7b30343f5fdf17be71", "type": "electric_scooter", "is_reserved": 0, "lon": -77.03857766666667}, {"fusion_lat": 0.0, "name": "75a8b557be1dbffce629e5b9dd9f0acc", "is_disabled": 0, "rental_uris": {"android": "https://dc.lft.to/lastmile_qr_scan", "ios": "https://dc.lft.to/lastmile_qr_scan"}, "fusion_lon": 0.0, "lat": 38.89615883333333, "bike_id": "75a8b557be1dbffce629e5b9dd9f0acc", "type": "electric_scooter", "is_reserved": 0, "lon": -77.02956083333333}, {"fusion_lat": 0.0, "name": "85755e596eabe678f3a098a537724a7d", "is_disabled": 0, "rental_uris": {"android": "https://dc.lft.to/lastmile_qr_scan", "ios": "https://dc.lft.to/lastmile_qr_scan"}, "fusion_lon": 0.0, "lat": 38.84512866666667, "bike_id": "85755e596eabe678f3a098a537724a7d", "type": "electric_bike", "is_reserved": 0, "lon": -76.99351266666666}, {"fusion_lat": 0.0, "name": "0ce34bc0a8e76c251595689f2fc11ff7", "is_disabled": 0, "rental_uris": {"android": "https://dc.lft.to/lastmile_qr_scan", "ios": "https://dc.lft.to/lastmile_qr_scan"}, "fusion_lon": 0.0, "lat": 38.92018, "bike_id": "0ce34bc0a8e76c251595689f2fc11ff7", "type": "electric_scooter", "is_reserved": 0, "lon": -77.02503283333333}, {"fusion_lat": 0.0, "name": "4e430a2bbe08474b0d27228d120977ad", "is_disabled": 0, "rental_uris": {"android": "https://dc.lft.to/lastmile_qr_scan", "ios": "https://dc.lft.to/lastmile_qr_scan"}, "fusion_lon": 0.0, "lat": 38.95623583333333, "bike_id": "4e430a2bbe08474b0d27228d120977ad", "type": "electric_scooter", "is_reserved": 0, "lon": -77.0283635}, {"fusion_lat": 0.0, "name": "b7dd8800bb9f362be99e5abebbfe7bd5", "is_disabled": 0, "rental_uris": {"android": "https://dc.lft.to/lastmile_qr_scan", "ios": "https://dc.lft.to/lastmile_qr_scan"}, "fusion_lon": 0.0, "lat": 38.85781733333334, "bike_id": "b7dd8800bb9f362be99e5abebbfe7bd5", "type": "electric_scooter", "is_reserved": 0, "lon": -76.972966}, {"fusion_lat": 0.0, "name": "d4cfd3a0489edef37ac7d3dba34c6f55", "is_disabled": 0, "rental_uris": {"android": "https://dc.lft.to/lastmile_qr_scan", "ios": "https://dc.lft.to/lastmile_qr_scan"}, "fusion_lon": 0.0, "lat": 38.93753066666667, "bike_id": "d4cfd3a0489edef37ac7d3dba34c6f55", "type": "electric_scooter", "is_reserved": 0, "lon": -77.025283}, {"fusion_lat": 0.0, "name": "3cb0c18cd5526eee2f5efd87be468d2a", "is_disabled": 0, "rental_uris": {"android": "https://dc.lft.to/lastmile_qr_scan", "ios": "https://dc.lft.to/lastmile_qr_scan"}, "fusion_lon": 0.0, "lat": 38.903929166666664, "bike_id": "3cb0c18cd5526eee2f5efd87be468d2a", "type": "electric_scooter", "is_reserved": 0, "lon": -77.06131866666666}, {"fusion_lat": 0.0, "name": "649ad6275eb1941db4c8febd250424ce", "is_disabled": 0, "rental_uris": {"android": "https://dc.lft.to/lastmile_qr_scan", "ios": "https://dc.lft.to/lastmile_qr_scan"}, "fusion_lon": 0.0, "lat": 38.89567, "bike_id": "649ad6275eb1941db4c8febd250424ce", "type": "electric_bike", "is_reserved": 0, "lon": -77.12740516666666}, {"fusion_lat": 0.0, "name": "a386f8bc0751cf3cfca38f700819e729", "is_disabled": 0, "rental_uris": {"android": "https://dc.lft.to/lastmile_qr_scan", "ios": "https://dc.lft.to/lastmile_qr_scan"}, "fusion_lon": 0.0, "lat": 38.92528866666667, "bike_id": "a386f8bc0751cf3cfca38f700819e729", "type": "electric_scooter", "is_reserved": 0, "lon": -77.0557565}, {"fusion_lat": 0.0, "name": "b2cc1a31e912f1efca2747cf88ec1612", "is_disabled": 0, "rental_uris": {"android": "https://dc.lft.to/lastmile_qr_scan", "ios": "https://dc.lft.to/lastmile_qr_scan"}, "fusion_lon": 0.0, "lat": 38.9008675, "bike_id": "b2cc1a31e912f1efca2747cf88ec1612", "type": "electric_scooter", "is_reserved": 0, "lon": -77.047873}, {"fusion_lat": 0.0, "name": "2eb1d4f138af338115fe11604943c624", "is_disabled": 0, "rental_uris": {"android": "https://dc.lft.to/lastmile_qr_scan", "ios": "https://dc.lft.to/lastmile_qr_scan"}, "fusion_lon": 0.0, "lat": 38.94185183333333, "bike_id": "2eb1d4f138af338115fe11604943c624", "type": "electric_scooter", "is_reserved": 0, "lon": -77.02496216666667}, {"fusion_lat": 0.0, "name": "fb9ea43fb775ea82383c212cf7a7e9f8", "is_disabled": 0, "rental_uris": {"android": "https://dc.lft.to/lastmile_qr_scan", "ios": "https://dc.lft.to/lastmile_qr_scan"}, "fusion_lon": 0.0, "lat": 38.90662366666667, "bike_id": "fb9ea43fb775ea82383c212cf7a7e9f8", "type": "electric_scooter", "is_reserved": 0, "lon": -77.0295}, {"fusion_lat": 0.0, "name": "cbe10ccb002a4a459fafd55196b117f3", "is_disabled": 0, "rental_uris": {"android": "https://dc.lft.to/lastmile_qr_scan", "ios": "https://dc.lft.to/lastmile_qr_scan"}, "fusion_lon": 0.0, "lat": 38.90998583333333, "bike_id": "cbe10ccb002a4a459fafd55196b117f3", "type": "electric_scooter", "is_reserved": 0, "lon": -77.024042}, {"fusion_lat": 0.0, "name": "d63f3df359675c71de2bca2883163668", "is_disabled": 0, "rental_uris": {"android": "https://dc.lft.to/lastmile_qr_scan", "ios": "https://dc.lft.to/lastmile_qr_scan"}, "fusion_lon": 0.0, "lat": 38.9006475, "bike_id": "d63f3df359675c71de2bca2883163668", "type": "electric_scooter", "is_reserved": 0, "lon": -76.93388583333333}, {"fusion_lat": 0.0, "name": "0b031c916db275e5374b5ff0b0395cb4", "is_disabled": 0, "rental_uris": {"android": "https://dc.lft.to/lastmile_qr_scan", "ios": "https://dc.lft.to/lastmile_qr_scan"}, "fusion_lon": 0.0, "lat": 38.932465666666666, "bike_id": "0b031c916db275e5374b5ff0b0395cb4", "type": "electric_scooter", "is_reserved": 0, "lon": -77.0406405}, {"fusion_lat": 0.0, "name": "e3daf260fc5d1bd0d86079f93e6e013c", "is_disabled": 0, "rental_uris": {"android": "https://dc.lft.to/lastmile_qr_scan", "ios": "https://dc.lft.to/lastmile_qr_scan"}, "fusion_lon": 0.0, "lat": 38.89854366666667, "bike_id": "e3daf260fc5d1bd0d86079f93e6e013c", "type": "electric_scooter", "is_reserved": 0, "lon": -76.99275666666666}, {"fusion_lat": 0.0, "name": "4b47c1380bfebfb9f0b201fb6909d4dd", "is_disabled": 0, "rental_uris": {"android": "https://dc.lft.to/lastmile_qr_scan", "ios": "https://dc.lft.to/lastmile_qr_scan"}, "fusion_lon": 0.0, "lat": 38.92079966666667, "bike_id": "4b47c1380bfebfb9f0b201fb6909d4dd", "type": "electric_scooter", "is_reserved": 0, "lon": -77.024095}, {"fusion_lat": 0.0, "name": "86ee816b0185272f1bbe57494c82c9d9", "is_disabled": 0, "rental_uris": {"android": "https://dc.lft.to/lastmile_qr_scan", "ios": "https://dc.lft.to/lastmile_qr_scan"}, "fusion_lon": 0.0, "lat": 38.91397966666667, "bike_id": "86ee816b0185272f1bbe57494c82c9d9", "type": "electric_scooter", "is_reserved": 0, "lon": -77.03181466666666}, {"fusion_lat": 0.0, "name": "d7bc410e03c28b6e4119ab29061ec426", "is_disabled": 0, "rental_uris": {"android": "https://dc.lft.to/lastmile_qr_scan", "ios": "https://dc.lft.to/lastmile_qr_scan"}, "fusion_lon": 0.0, "lat": 38.90885866666667, "bike_id": "d7bc410e03c28b6e4119ab29061ec426", "type": "electric_scooter", "is_reserved": 0, "lon": -77.04321466666667}, {"fusion_lat": 0.0, "name": "4167f0cdffc9310ee6dc5458237436b4", "is_disabled": 0, "rental_uris": {"android": "https://dc.lft.to/lastmile_qr_scan", "ios": "https://dc.lft.to/lastmile_qr_scan"}, "fusion_lon": 0.0, "lat": 38.912547833333335, "bike_id": "4167f0cdffc9310ee6dc5458237436b4", "type": "electric_scooter", "is_reserved": 0, "lon": -77.03334433333333}, {"fusion_lat": 0.0, "name": "a1f4a8bf0db144928fc08f3594f80423", "is_disabled": 0, "rental_uris": {"android": "https://dc.lft.to/lastmile_qr_scan", "ios": "https://dc.lft.to/lastmile_qr_scan"}, "fusion_lon": 0.0, "lat": 38.903607, "bike_id": "a1f4a8bf0db144928fc08f3594f80423", "type": "electric_scooter", "is_reserved": 0, "lon": -77.03307916666667}, {"fusion_lat": 0.0, "name": "52efaaaaabd6125aa671950b66296339", "is_disabled": 0, "rental_uris": {"android": "https://dc.lft.to/lastmile_qr_scan", "ios": "https://dc.lft.to/lastmile_qr_scan"}, "fusion_lon": 0.0, "lat": 38.907332, "bike_id": "52efaaaaabd6125aa671950b66296339", "type": "electric_scooter", "is_reserved": 0, "lon": -77.03856116666667}, {"fusion_lat": 0.0, "name": "d9453b11bb11b915ca7296b589e26e86", "is_disabled": 0, "rental_uris": {"android": "https://dc.lft.to/lastmile_qr_scan", "ios": "https://dc.lft.to/lastmile_qr_scan"}, "fusion_lon": 0.0, "lat": 38.91569766666667, "bike_id": "d9453b11bb11b915ca7296b589e26e86", "type": "electric_scooter", "is_reserved": 0, "lon": -77.05018466666667}, {"fusion_lat": 0.0, "name": "3520c5babf357d36da9647448c3182fa", "is_disabled": 0, "rental_uris": {"android": "https://dc.lft.to/lastmile_qr_scan", "ios": "https://dc.lft.to/lastmile_qr_scan"}, "fusion_lon": 0.0, "lat": 38.92560916666667, "bike_id": "3520c5babf357d36da9647448c3182fa", "type": "electric_scooter", "is_reserved": 0, "lon": -77.022886}, {"fusion_lat": 0.0, "name": "39517bc6b5e448af8a2446240ff0d03e", "is_disabled": 0, "rental_uris": {"android": "https://dc.lft.to/lastmile_qr_scan", "ios": "https://dc.lft.to/lastmile_qr_scan"}, "fusion_lon": 0.0, "lat": 38.9349335, "bike_id": "39517bc6b5e448af8a2446240ff0d03e", "type": "electric_scooter", "is_reserved": 0, "lon": -77.03079233333334}, {"fusion_lat": 0.0, "name": "4609a26b0f38797df8010bdddadd1abc", "is_disabled": 0, "rental_uris": {"android": "https://dc.lft.to/lastmile_qr_scan", "ios": "https://dc.lft.to/lastmile_qr_scan"}, "fusion_lon": 0.0, "lat": 38.909618, "bike_id": "4609a26b0f38797df8010bdddadd1abc", "type": "electric_bike", "is_reserved": 0, "lon": -77.228902}, {"fusion_lat": 0.0, "name": "d10082526efc4de78b0e716d8656f26c", "is_disabled": 0, "rental_uris": {"android": "https://dc.lft.to/lastmile_qr_scan", "ios": "https://dc.lft.to/lastmile_qr_scan"}, "fusion_lon": 0.0, "lat": 38.89764383333333, "bike_id": "d10082526efc4de78b0e716d8656f26c", "type": "electric_scooter", "is_reserved": 0, "lon": -77.02212966666667}, {"fusion_lat": 0.0, "name": "f6726cfee6db3ad08ea8aae1097c757c", "is_disabled": 0, "rental_uris": {"android": "https://dc.lft.to/lastmile_qr_scan", "ios": "https://dc.lft.to/lastmile_qr_scan"}, "fusion_lon": 0.0, "lat": 38.896454, "bike_id": "f6726cfee6db3ad08ea8aae1097c757c", "type": "electric_scooter", "is_reserved": 0, "lon": -77.0220445}, {"fusion_lat": 0.0, "name": "f032a2369145fdac5c03ef59d9265f3a", "is_disabled": 0, "rental_uris": {"android": "https://dc.lft.to/lastmile_qr_scan", "ios": "https://dc.lft.to/lastmile_qr_scan"}, "fusion_lon": 0.0, "lat": 38.916269166666666, "bike_id": "f032a2369145fdac5c03ef59d9265f3a", "type": "electric_scooter", "is_reserved": 0, "lon": -77.02206216666667}, {"fusion_lat": 0.0, "name": "1894b1d6b704713b0988ca9c0a26f5fd", "is_disabled": 0, "rental_uris": {"android": "https://dc.lft.to/lastmile_qr_scan", "ios": "https://dc.lft.to/lastmile_qr_scan"}, "fusion_lon": 0.0, "lat": 38.925008166666665, "bike_id": "1894b1d6b704713b0988ca9c0a26f5fd", "type": "electric_scooter", "is_reserved": 0, "lon": -77.0380095}, {"fusion_lat": 0.0, "name": "06528d3bede5fddfd6f1113b03977944", "is_disabled": 0, "rental_uris": {"android": "https://dc.lft.to/lastmile_qr_scan", "ios": "https://dc.lft.to/lastmile_qr_scan"}, "fusion_lon": 0.0, "lat": 38.88896483333333, "bike_id": "06528d3bede5fddfd6f1113b03977944", "type": "electric_bike", "is_reserved": 0, "lon": -77.115263}, {"fusion_lat": 0.0, "name": "63ee348d8630b6e72bf861becce784cd", "is_disabled": 0, "rental_uris": {"android": "https://dc.lft.to/lastmile_qr_scan", "ios": "https://dc.lft.to/lastmile_qr_scan"}, "fusion_lon": 0.0, "lat": 38.89094983333333, "bike_id": "63ee348d8630b6e72bf861becce784cd", "type": "electric_scooter", "is_reserved": 0, "lon": -76.91930033333334}, {"fusion_lat": 0.0, "name": "ba091475209f730839d013cbf1133079", "is_disabled": 0, "rental_uris": {"android": "https://dc.lft.to/lastmile_qr_scan", "ios": "https://dc.lft.to/lastmile_qr_scan"}, "fusion_lon": 0.0, "lat": 38.9381475, "bike_id": "ba091475209f730839d013cbf1133079", "type": "electric_scooter", "is_reserved": 0, "lon": -76.99692516666667}, {"fusion_lat": 0.0, "name": "e48d50c2408f764cb117d03172817923", "is_disabled": 0, "rental_uris": {"android": "https://dc.lft.to/lastmile_qr_scan", "ios": "https://dc.lft.to/lastmile_qr_scan"}, "fusion_lon": 0.0, "lat": 38.94434733333333, "bike_id": "e48d50c2408f764cb117d03172817923", "type": "electric_bike", "is_reserved": 0, "lon": -77.02603516666667}, {"fusion_lat": 0.0, "name": "87e671ac8f9f7b9fa2e5f151ef280f1d", "is_disabled": 0, "rental_uris": {"android": "https://dc.lft.to/lastmile_qr_scan", "ios": "https://dc.lft.to/lastmile_qr_scan"}, "fusion_lon": 0.0, "lat": 38.9088275, "bike_id": "87e671ac8f9f7b9fa2e5f151ef280f1d", "type": "electric_scooter", "is_reserved": 0, "lon": -77.0434195}, {"fusion_lat": 0.0, "name": "a147ddd14f29fac6f9bdabeb4f87d446", "is_disabled": 0, "rental_uris": {"android": "https://dc.lft.to/lastmile_qr_scan", "ios": "https://dc.lft.to/lastmile_qr_scan"}, "fusion_lon": 0.0, "lat": 38.93238983333333, "bike_id": "a147ddd14f29fac6f9bdabeb4f87d446", "type": "electric_scooter", "is_reserved": 0, "lon": -77.03424916666667}, {"fusion_lat": 0.0, "name": "42fe955bba26b93c633d705672cfae11", "is_disabled": 0, "rental_uris": {"android": "https://dc.lft.to/lastmile_qr_scan", "ios": "https://dc.lft.to/lastmile_qr_scan"}, "fusion_lon": 0.0, "lat": 38.92614866666667, "bike_id": "42fe955bba26b93c633d705672cfae11", "type": "electric_scooter", "is_reserved": 0, "lon": -77.02163116666667}, {"fusion_lat": 0.0, "name": "c0a93e0a7c6291ccf80d4c4e9e2bcdea", "is_disabled": 0, "rental_uris": {"android": "https://dc.lft.to/lastmile_qr_scan", "ios": "https://dc.lft.to/lastmile_qr_scan"}, "fusion_lon": 0.0, "lat": 38.88578916666667, "bike_id": "c0a93e0a7c6291ccf80d4c4e9e2bcdea", "type": "electric_scooter", "is_reserved": 0, "lon": -77.01213566666667}, {"fusion_lat": 0.0, "name": "54bb409dd11c32f3fea97142a40becc7", "is_disabled": 0, "rental_uris": {"android": "https://dc.lft.to/lastmile_qr_scan", "ios": "https://dc.lft.to/lastmile_qr_scan"}, "fusion_lon": 0.0, "lat": 38.908598, "bike_id": "54bb409dd11c32f3fea97142a40becc7", "type": "electric_scooter", "is_reserved": 0, "lon": -77.04627033333334}, {"fusion_lat": 0.0, "name": "f0b9378fef745badaaebfd62f76ec32b", "is_disabled": 0, "rental_uris": {"android": "https://dc.lft.to/lastmile_qr_scan", "ios": "https://dc.lft.to/lastmile_qr_scan"}, "fusion_lon": 0.0, "lat": 38.922554833333336, "bike_id": "f0b9378fef745badaaebfd62f76ec32b", "type": "electric_scooter", "is_reserved": 0, "lon": -77.0388485}, {"fusion_lat": 0.0, "name": "44a58fba41ab87b6876ae4315e733217", "is_disabled": 0, "rental_uris": {"android": "https://dc.lft.to/lastmile_qr_scan", "ios": "https://dc.lft.to/lastmile_qr_scan"}, "fusion_lon": 0.0, "lat": 38.79861366666667, "bike_id": "44a58fba41ab87b6876ae4315e733217", "type": "electric_bike", "is_reserved": 0, "lon": -77.06300433333334}, {"fusion_lat": 0.0, "name": "36d26f2e6651ada477fff1475966b7a1", "is_disabled": 0, "rental_uris": {"android": "https://dc.lft.to/lastmile_qr_scan", "ios": "https://dc.lft.to/lastmile_qr_scan"}, "fusion_lon": 0.0, "lat": 38.898573166666665, "bike_id": "36d26f2e6651ada477fff1475966b7a1", "type": "electric_scooter", "is_reserved": 0, "lon": -76.9766535}, {"fusion_lat": 0.0, "name": "1ea9b19628b30cb3ffea47eec07343fe", "is_disabled": 0, "rental_uris": {"android": "https://dc.lft.to/lastmile_qr_scan", "ios": "https://dc.lft.to/lastmile_qr_scan"}, "fusion_lon": 0.0, "lat": 38.89674683333333, "bike_id": "1ea9b19628b30cb3ffea47eec07343fe", "type": "electric_bike", "is_reserved": 0, "lon": -76.98689433333334}, {"fusion_lat": 0.0, "name": "8a94677ecbecde978705772cf0dc7691", "is_disabled": 0, "rental_uris": {"android": "https://dc.lft.to/lastmile_qr_scan", "ios": "https://dc.lft.to/lastmile_qr_scan"}, "fusion_lon": 0.0, "lat": 38.9060445, "bike_id": "8a94677ecbecde978705772cf0dc7691", "type": "electric_scooter", "is_reserved": 0, "lon": -77.06349533333334}, {"fusion_lat": 0.0, "name": "5ef3de5ce5a7c26f857632466aa29a11", "is_disabled": 0, "rental_uris": {"android": "https://dc.lft.to/lastmile_qr_scan", "ios": "https://dc.lft.to/lastmile_qr_scan"}, "fusion_lon": 0.0, "lat": 38.88194133333333, "bike_id": "5ef3de5ce5a7c26f857632466aa29a11", "type": "electric_scooter", "is_reserved": 0, "lon": -77.02864283333334}, {"fusion_lat": 0.0, "name": "85c0147318d13bf5d0f61a9af444bce9", "is_disabled": 0, "rental_uris": {"android": "https://dc.lft.to/lastmile_qr_scan", "ios": "https://dc.lft.to/lastmile_qr_scan"}, "fusion_lon": 0.0, "lat": 38.90885333333333, "bike_id": "85c0147318d13bf5d0f61a9af444bce9", "type": "electric_scooter", "is_reserved": 0, "lon": -77.05407266666667}, {"fusion_lat": 0.0, "name": "216998462f7fb097c68632c87683dba2", "is_disabled": 0, "rental_uris": {"android": "https://dc.lft.to/lastmile_qr_scan", "ios": "https://dc.lft.to/lastmile_qr_scan"}, "fusion_lon": 0.0, "lat": 38.9394695, "bike_id": "216998462f7fb097c68632c87683dba2", "type": "electric_scooter", "is_reserved": 0, "lon": -77.0332635}, {"fusion_lat": 0.0, "name": "49200446468bdd198d4eb8c94b719158", "is_disabled": 0, "rental_uris": {"android": "https://dc.lft.to/lastmile_qr_scan", "ios": "https://dc.lft.to/lastmile_qr_scan"}, "fusion_lon": 0.0, "lat": 38.91433083333333, "bike_id": "49200446468bdd198d4eb8c94b719158", "type": "electric_scooter", "is_reserved": 0, "lon": -77.02210983333333}, {"fusion_lat": 0.0, "name": "55dcb1de9aabee6159b846deaf225ba3", "is_disabled": 0, "rental_uris": {"android": "https://dc.lft.to/lastmile_qr_scan", "ios": "https://dc.lft.to/lastmile_qr_scan"}, "fusion_lon": 0.0, "lat": 38.917104, "bike_id": "55dcb1de9aabee6159b846deaf225ba3", "type": "electric_scooter", "is_reserved": 0, "lon": -77.029621}, {"fusion_lat": 0.0, "name": "0c0d7155e6647191ac669bdf20923db6", "is_disabled": 0, "rental_uris": {"android": "https://dc.lft.to/lastmile_qr_scan", "ios": "https://dc.lft.to/lastmile_qr_scan"}, "fusion_lon": 0.0, "lat": 38.89731616666667, "bike_id": "0c0d7155e6647191ac669bdf20923db6", "type": "electric_scooter", "is_reserved": 0, "lon": -76.99138033333334}, {"fusion_lat": 0.0, "name": "dd8fdda42d3b5a5af5b06524c0acf844", "is_disabled": 0, "rental_uris": {"android": "https://dc.lft.to/lastmile_qr_scan", "ios": "https://dc.lft.to/lastmile_qr_scan"}, "fusion_lon": 0.0, "lat": 38.9208405, "bike_id": "dd8fdda42d3b5a5af5b06524c0acf844", "type": "electric_scooter", "is_reserved": 0, "lon": -77.02380766666667}, {"fusion_lat": 0.0, "name": "44cdd469e017c60d074ed0a0f5576d8d", "is_disabled": 0, "rental_uris": {"android": "https://dc.lft.to/lastmile_qr_scan", "ios": "https://dc.lft.to/lastmile_qr_scan"}, "fusion_lon": 0.0, "lat": 38.915733833333334, "bike_id": "44cdd469e017c60d074ed0a0f5576d8d", "type": "electric_scooter", "is_reserved": 0, "lon": -77.0220095}, {"fusion_lat": 0.0, "name": "bfaecfd6b85b4bdcd368c7cbbcd6dd28", "is_disabled": 0, "rental_uris": {"android": "https://dc.lft.to/lastmile_qr_scan", "ios": "https://dc.lft.to/lastmile_qr_scan"}, "fusion_lon": 0.0, "lat": 38.889894166666664, "bike_id": "bfaecfd6b85b4bdcd368c7cbbcd6dd28", "type": "electric_scooter", "is_reserved": 0, "lon": -76.9873535}, {"fusion_lat": 0.0, "name": "366230d59a9d4580bfa740ae70ee80eb", "is_disabled": 0, "rental_uris": {"android": "https://dc.lft.to/lastmile_qr_scan", "ios": "https://dc.lft.to/lastmile_qr_scan"}, "fusion_lon": 0.0, "lat": 38.91709083333333, "bike_id": "366230d59a9d4580bfa740ae70ee80eb", "type": "electric_scooter", "is_reserved": 0, "lon": -77.02817316666666}, {"fusion_lat": 0.0, "name": "28986c675b08e639b2470aa9b501e0e7", "is_disabled": 0, "rental_uris": {"android": "https://dc.lft.to/lastmile_qr_scan", "ios": "https://dc.lft.to/lastmile_qr_scan"}, "fusion_lon": 0.0, "lat": 38.937031833333336, "bike_id": "28986c675b08e639b2470aa9b501e0e7", "type": "electric_scooter", "is_reserved": 0, "lon": -77.05599433333333}, {"fusion_lat": 0.0, "name": "8cbd7ce9c59b7cb9481e906437d32980", "is_disabled": 0, "rental_uris": {"android": "https://dc.lft.to/lastmile_qr_scan", "ios": "https://dc.lft.to/lastmile_qr_scan"}, "fusion_lon": 0.0, "lat": 38.9208225, "bike_id": "8cbd7ce9c59b7cb9481e906437d32980", "type": "electric_scooter", "is_reserved": 0, "lon": -77.02305033333333}, {"fusion_lat": 0.0, "name": "f6e17cd503bdfc8589b5e10d945907e9", "is_disabled": 0, "rental_uris": {"android": "https://dc.lft.to/lastmile_qr_scan", "ios": "https://dc.lft.to/lastmile_qr_scan"}, "fusion_lon": 0.0, "lat": 38.91759733333333, "bike_id": "f6e17cd503bdfc8589b5e10d945907e9", "type": "electric_scooter", "is_reserved": 0, "lon": -77.03072183333333}, {"fusion_lat": 0.0, "name": "7bd95ce94a2a9af310ab9c2d706f6c94", "is_disabled": 0, "rental_uris": {"android": "https://dc.lft.to/lastmile_qr_scan", "ios": "https://dc.lft.to/lastmile_qr_scan"}, "fusion_lon": 0.0, "lat": 38.907476333333335, "bike_id": "7bd95ce94a2a9af310ab9c2d706f6c94", "type": "electric_scooter", "is_reserved": 0, "lon": -77.00362783333334}, {"fusion_lat": 0.0, "name": "0ee705b6089d73e9f78ca1937e9111fe", "is_disabled": 0, "rental_uris": {"android": "https://dc.lft.to/lastmile_qr_scan", "ios": "https://dc.lft.to/lastmile_qr_scan"}, "fusion_lon": 0.0, "lat": 38.903992833333334, "bike_id": "0ee705b6089d73e9f78ca1937e9111fe", "type": "electric_scooter", "is_reserved": 0, "lon": -77.0678015}, {"fusion_lat": 0.0, "name": "67791af7a825ba064e8c0766fe8b2bd0", "is_disabled": 0, "rental_uris": {"android": "https://dc.lft.to/lastmile_qr_scan", "ios": "https://dc.lft.to/lastmile_qr_scan"}, "fusion_lon": 0.0, "lat": 38.897231, "bike_id": "67791af7a825ba064e8c0766fe8b2bd0", "type": "electric_scooter", "is_reserved": 0, "lon": -77.0234425}, {"fusion_lat": 0.0, "name": "b5d8367965ced340dc9940040afb7a5f", "is_disabled": 0, "rental_uris": {"android": "https://dc.lft.to/lastmile_qr_scan", "ios": "https://dc.lft.to/lastmile_qr_scan"}, "fusion_lon": 0.0, "lat": 38.911133166666666, "bike_id": "b5d8367965ced340dc9940040afb7a5f", "type": "electric_scooter", "is_reserved": 0, "lon": -77.0812795}, {"fusion_lat": 0.0, "name": "a9ff520f4b9875076a4030e40592933c", "is_disabled": 0, "rental_uris": {"android": "https://dc.lft.to/lastmile_qr_scan", "ios": "https://dc.lft.to/lastmile_qr_scan"}, "fusion_lon": 0.0, "lat": 38.89606166666667, "bike_id": "a9ff520f4b9875076a4030e40592933c", "type": "electric_scooter", "is_reserved": 0, "lon": -77.009299}, {"fusion_lat": 0.0, "name": "cbd8904d893d556b597dd658cc9e853e", "is_disabled": 0, "rental_uris": {"android": "https://dc.lft.to/lastmile_qr_scan", "ios": "https://dc.lft.to/lastmile_qr_scan"}, "fusion_lon": 0.0, "lat": 38.921437833333336, "bike_id": "cbd8904d893d556b597dd658cc9e853e", "type": "electric_scooter", "is_reserved": 0, "lon": -77.01797883333333}, {"fusion_lat": 0.0, "name": "ea31cae0900424f30c4294a18656f9a2", "is_disabled": 0, "rental_uris": {"android": "https://dc.lft.to/lastmile_qr_scan", "ios": "https://dc.lft.to/lastmile_qr_scan"}, "fusion_lon": 0.0, "lat": 38.907624, "bike_id": "ea31cae0900424f30c4294a18656f9a2", "type": "electric_scooter", "is_reserved": 0, "lon": -77.05697233333333}, {"fusion_lat": 0.0, "name": "16436b27ba7d0a4bf0d694e15c7ea369", "is_disabled": 0, "rental_uris": {"android": "https://dc.lft.to/lastmile_qr_scan", "ios": "https://dc.lft.to/lastmile_qr_scan"}, "fusion_lon": 0.0, "lat": 38.90954166666667, "bike_id": "16436b27ba7d0a4bf0d694e15c7ea369", "type": "electric_bike", "is_reserved": 0, "lon": -76.98447716666666}, {"fusion_lat": 0.0, "name": "f2ab12c19365c7bb9775425c8e6e37ea", "is_disabled": 0, "rental_uris": {"android": "https://dc.lft.to/lastmile_qr_scan", "ios": "https://dc.lft.to/lastmile_qr_scan"}, "fusion_lon": 0.0, "lat": 38.92545883333333, "bike_id": "f2ab12c19365c7bb9775425c8e6e37ea", "type": "electric_scooter", "is_reserved": 0, "lon": -77.02582933333333}, {"fusion_lat": 0.0, "name": "9453030e95c3d2f668c67caa9090d6b4", "is_disabled": 0, "rental_uris": {"android": "https://dc.lft.to/lastmile_qr_scan", "ios": "https://dc.lft.to/lastmile_qr_scan"}, "fusion_lon": 0.0, "lat": 38.9023355, "bike_id": "9453030e95c3d2f668c67caa9090d6b4", "type": "electric_scooter", "is_reserved": 0, "lon": -77.05914483333333}, {"fusion_lat": 0.0, "name": "fec8a970ef7e386d0b74375d4bee491e", "is_disabled": 0, "rental_uris": {"android": "https://dc.lft.to/lastmile_qr_scan", "ios": "https://dc.lft.to/lastmile_qr_scan"}, "fusion_lon": 0.0, "lat": 38.902895666666666, "bike_id": "fec8a970ef7e386d0b74375d4bee491e", "type": "electric_scooter", "is_reserved": 0, "lon": -77.0269855}, {"fusion_lat": 0.0, "name": "931bf72fc9848beac7dfd649bddd874c", "is_disabled": 0, "rental_uris": {"android": "https://dc.lft.to/lastmile_qr_scan", "ios": "https://dc.lft.to/lastmile_qr_scan"}, "fusion_lon": 0.0, "lat": 38.885474, "bike_id": "931bf72fc9848beac7dfd649bddd874c", "type": "electric_scooter", "is_reserved": 0, "lon": -77.00046183333333}, {"fusion_lat": 0.0, "name": "2d34c5da9334665a2323fbb0c0356d59", "is_disabled": 0, "rental_uris": {"android": "https://dc.lft.to/lastmile_qr_scan", "ios": "https://dc.lft.to/lastmile_qr_scan"}, "fusion_lon": 0.0, "lat": 38.992332, "bike_id": "2d34c5da9334665a2323fbb0c0356d59", "type": "electric_bike", "is_reserved": 0, "lon": -76.94441083333334}, {"fusion_lat": 0.0, "name": "c96969aed6705438f58c99ef56159c86", "is_disabled": 0, "rental_uris": {"android": "https://dc.lft.to/lastmile_qr_scan", "ios": "https://dc.lft.to/lastmile_qr_scan"}, "fusion_lon": 0.0, "lat": 38.85529066666667, "bike_id": "c96969aed6705438f58c99ef56159c86", "type": "electric_bike", "is_reserved": 0, "lon": -77.12021283333333}, {"fusion_lat": 0.0, "name": "cba1cb7ad7cd690d7d701a4f9c07fbc7", "is_disabled": 0, "rental_uris": {"android": "https://dc.lft.to/lastmile_qr_scan", "ios": "https://dc.lft.to/lastmile_qr_scan"}, "fusion_lon": 0.0, "lat": 38.91797116666667, "bike_id": "cba1cb7ad7cd690d7d701a4f9c07fbc7", "type": "electric_scooter", "is_reserved": 0, "lon": -77.02304633333334}, {"fusion_lat": 0.0, "name": "597d2b6b21025543858ced4107888edf", "is_disabled": 0, "rental_uris": {"android": "https://dc.lft.to/lastmile_qr_scan", "ios": "https://dc.lft.to/lastmile_qr_scan"}, "fusion_lon": 0.0, "lat": 38.885097, "bike_id": "597d2b6b21025543858ced4107888edf", "type": "electric_scooter", "is_reserved": 0, "lon": -77.00058416666667}, {"fusion_lat": 0.0, "name": "fdb913eb06efc77f4037952d8fa60b14", "is_disabled": 0, "rental_uris": {"android": "https://dc.lft.to/lastmile_qr_scan", "ios": "https://dc.lft.to/lastmile_qr_scan"}, "fusion_lon": 0.0, "lat": 38.91518766666667, "bike_id": "fdb913eb06efc77f4037952d8fa60b14", "type": "electric_scooter", "is_reserved": 0, "lon": -77.0132705}, {"fusion_lat": 0.0, "name": "5b5ff2a77d6195c1c8d3df4e8644904f", "is_disabled": 0, "rental_uris": {"android": "https://dc.lft.to/lastmile_qr_scan", "ios": "https://dc.lft.to/lastmile_qr_scan"}, "fusion_lon": 0.0, "lat": 38.9172175, "bike_id": "5b5ff2a77d6195c1c8d3df4e8644904f", "type": "electric_scooter", "is_reserved": 0, "lon": -77.02373616666667}, {"fusion_lat": 0.0, "name": "0eeca973284f6986bc5e390c3182690a", "is_disabled": 0, "rental_uris": {"android": "https://dc.lft.to/lastmile_qr_scan", "ios": "https://dc.lft.to/lastmile_qr_scan"}, "fusion_lon": 0.0, "lat": 38.919973166666665, "bike_id": "0eeca973284f6986bc5e390c3182690a", "type": "electric_scooter", "is_reserved": 0, "lon": -77.02400533333333}, {"fusion_lat": 0.0, "name": "9bfc62febab401733f52baf0ef0b62dd", "is_disabled": 0, "rental_uris": {"android": "https://dc.lft.to/lastmile_qr_scan", "ios": "https://dc.lft.to/lastmile_qr_scan"}, "fusion_lon": 0.0, "lat": 38.917168, "bike_id": "9bfc62febab401733f52baf0ef0b62dd", "type": "electric_scooter", "is_reserved": 0, "lon": -77.02953333333333}, {"fusion_lat": 0.0, "name": "c1d8f6d6f0865b5443c7edb97658c70e", "is_disabled": 0, "rental_uris": {"android": "https://dc.lft.to/lastmile_qr_scan", "ios": "https://dc.lft.to/lastmile_qr_scan"}, "fusion_lon": 0.0, "lat": 38.898371, "bike_id": "c1d8f6d6f0865b5443c7edb97658c70e", "type": "electric_scooter", "is_reserved": 0, "lon": -77.03192016666667}, {"fusion_lat": 0.0, "name": "6a8b0a184e0e404b7ec842ded2724f8c", "is_disabled": 0, "rental_uris": {"android": "https://dc.lft.to/lastmile_qr_scan", "ios": "https://dc.lft.to/lastmile_qr_scan"}, "fusion_lon": 0.0, "lat": 38.922295166666665, "bike_id": "6a8b0a184e0e404b7ec842ded2724f8c", "type": "electric_scooter", "is_reserved": 0, "lon": -77.04648516666667}, {"fusion_lat": 0.0, "name": "f8ec768e7c6b029f33864558a505dc5b", "is_disabled": 0, "rental_uris": {"android": "https://dc.lft.to/lastmile_qr_scan", "ios": "https://dc.lft.to/lastmile_qr_scan"}, "fusion_lon": 0.0, "lat": 38.95311933333333, "bike_id": "f8ec768e7c6b029f33864558a505dc5b", "type": "electric_scooter", "is_reserved": 0, "lon": -77.02248016666667}, {"fusion_lat": 0.0, "name": "269f47613b66aa8cd75adc8c247f5a7d", "is_disabled": 0, "rental_uris": {"android": "https://dc.lft.to/lastmile_qr_scan", "ios": "https://dc.lft.to/lastmile_qr_scan"}, "fusion_lon": 0.0, "lat": 38.88262866666667, "bike_id": "269f47613b66aa8cd75adc8c247f5a7d", "type": "electric_scooter", "is_reserved": 0, "lon": -76.99486883333333}, {"fusion_lat": 0.0, "name": "f9403d19ee49eefeeb95946e10cefb93", "is_disabled": 0, "rental_uris": {"android": "https://dc.lft.to/lastmile_qr_scan", "ios": "https://dc.lft.to/lastmile_qr_scan"}, "fusion_lon": 0.0, "lat": 38.86349716666667, "bike_id": "f9403d19ee49eefeeb95946e10cefb93", "type": "electric_bike", "is_reserved": 0, "lon": -76.987219}, {"fusion_lat": 0.0, "name": "f853b22f7cd9881811b17beac242f34a", "is_disabled": 0, "rental_uris": {"android": "https://dc.lft.to/lastmile_qr_scan", "ios": "https://dc.lft.to/lastmile_qr_scan"}, "fusion_lon": 0.0, "lat": 38.90126883333333, "bike_id": "f853b22f7cd9881811b17beac242f34a", "type": "electric_scooter", "is_reserved": 0, "lon": -77.06042833333333}, {"fusion_lat": 0.0, "name": "ecd3aaaf6981a78c8a91286a6ef12633", "is_disabled": 0, "rental_uris": {"android": "https://dc.lft.to/lastmile_qr_scan", "ios": "https://dc.lft.to/lastmile_qr_scan"}, "fusion_lon": 0.0, "lat": 38.8044805, "bike_id": "ecd3aaaf6981a78c8a91286a6ef12633", "type": "electric_bike", "is_reserved": 0, "lon": -77.13228016666666}, {"fusion_lat": 0.0, "name": "89e67f92fe30b03c52bca8929d4fd68e", "is_disabled": 0, "rental_uris": {"android": "https://dc.lft.to/lastmile_qr_scan", "ios": "https://dc.lft.to/lastmile_qr_scan"}, "fusion_lon": 0.0, "lat": 38.89614233333333, "bike_id": "89e67f92fe30b03c52bca8929d4fd68e", "type": "electric_scooter", "is_reserved": 0, "lon": -76.94812783333333}, {"fusion_lat": 0.0, "name": "544adc60bfba39499474b17a2864a881", "is_disabled": 0, "rental_uris": {"android": "https://dc.lft.to/lastmile_qr_scan", "ios": "https://dc.lft.to/lastmile_qr_scan"}, "fusion_lon": 0.0, "lat": 38.908824333333335, "bike_id": "544adc60bfba39499474b17a2864a881", "type": "electric_scooter", "is_reserved": 0, "lon": -77.02292583333333}, {"fusion_lat": 0.0, "name": "099cfa073fa74280fa67caec297fcb9e", "is_disabled": 0, "rental_uris": {"android": "https://dc.lft.to/lastmile_qr_scan", "ios": "https://dc.lft.to/lastmile_qr_scan"}, "fusion_lon": 0.0, "lat": 38.911632, "bike_id": "099cfa073fa74280fa67caec297fcb9e", "type": "electric_scooter", "is_reserved": 0, "lon": -77.02384966666666}, {"fusion_lat": 0.0, "name": "19431279e4533c356b142dc58e4fb51f", "is_disabled": 0, "rental_uris": {"android": "https://dc.lft.to/lastmile_qr_scan", "ios": "https://dc.lft.to/lastmile_qr_scan"}, "fusion_lon": 0.0, "lat": 38.92749833333333, "bike_id": "19431279e4533c356b142dc58e4fb51f", "type": "electric_scooter", "is_reserved": 0, "lon": -77.02431266666666}, {"fusion_lat": 0.0, "name": "e1807bf885e892d61d4e473110a1b6b6", "is_disabled": 0, "rental_uris": {"android": "https://dc.lft.to/lastmile_qr_scan", "ios": "https://dc.lft.to/lastmile_qr_scan"}, "fusion_lon": 0.0, "lat": 38.873923, "bike_id": "e1807bf885e892d61d4e473110a1b6b6", "type": "electric_scooter", "is_reserved": 0, "lon": -77.0000985}, {"fusion_lat": 0.0, "name": "fb8fb47cf25dc7a98378fe2884beb53f", "is_disabled": 0, "rental_uris": {"android": "https://dc.lft.to/lastmile_qr_scan", "ios": "https://dc.lft.to/lastmile_qr_scan"}, "fusion_lon": 0.0, "lat": 38.914765, "bike_id": "fb8fb47cf25dc7a98378fe2884beb53f", "type": "electric_scooter", "is_reserved": 0, "lon": -77.0239505}, {"fusion_lat": 0.0, "name": "29145e7865b7d9176dc86c495a567684", "is_disabled": 0, "rental_uris": {"android": "https://dc.lft.to/lastmile_qr_scan", "ios": "https://dc.lft.to/lastmile_qr_scan"}, "fusion_lon": 0.0, "lat": 38.91699933333334, "bike_id": "29145e7865b7d9176dc86c495a567684", "type": "electric_scooter", "is_reserved": 0, "lon": -77.028927}, {"fusion_lat": 0.0, "name": "770987e64a21dae92339fb9a5d09a66c", "is_disabled": 0, "rental_uris": {"android": "https://dc.lft.to/lastmile_qr_scan", "ios": "https://dc.lft.to/lastmile_qr_scan"}, "fusion_lon": 0.0, "lat": 38.896225333333334, "bike_id": "770987e64a21dae92339fb9a5d09a66c", "type": "electric_scooter", "is_reserved": 0, "lon": -77.00921016666666}, {"fusion_lat": 0.0, "name": "0a00c7d8233a6901ff626880c7d93195", "is_disabled": 0, "rental_uris": {"android": "https://dc.lft.to/lastmile_qr_scan", "ios": "https://dc.lft.to/lastmile_qr_scan"}, "fusion_lon": 0.0, "lat": 38.93520483333333, "bike_id": "0a00c7d8233a6901ff626880c7d93195", "type": "electric_scooter", "is_reserved": 0, "lon": -77.0726145}, {"fusion_lat": 0.0, "name": "5f5f774ec259ad3bf6368eb66997f278", "is_disabled": 0, "rental_uris": {"android": "https://dc.lft.to/lastmile_qr_scan", "ios": "https://dc.lft.to/lastmile_qr_scan"}, "fusion_lon": 0.0, "lat": 39.052573333333335, "bike_id": "5f5f774ec259ad3bf6368eb66997f278", "type": "electric_bike", "is_reserved": 0, "lon": -77.08066366666667}, {"fusion_lat": 0.0, "name": "da303a94422a28655dc4accff401961b", "is_disabled": 0, "rental_uris": {"android": "https://dc.lft.to/lastmile_qr_scan", "ios": "https://dc.lft.to/lastmile_qr_scan"}, "fusion_lon": 0.0, "lat": 38.878914, "bike_id": "da303a94422a28655dc4accff401961b", "type": "electric_scooter", "is_reserved": 0, "lon": -77.02256716666666}, {"fusion_lat": 0.0, "name": "e2901b6163830b59704585ccfc9095e4", "is_disabled": 0, "rental_uris": {"android": "https://dc.lft.to/lastmile_qr_scan", "ios": "https://dc.lft.to/lastmile_qr_scan"}, "fusion_lon": 0.0, "lat": 38.8475635, "bike_id": "e2901b6163830b59704585ccfc9095e4", "type": "electric_scooter", "is_reserved": 0, "lon": -76.99499416666667}, {"fusion_lat": 0.0, "name": "cf1f5a98357ea054da9954108a2a838b", "is_disabled": 0, "rental_uris": {"android": "https://dc.lft.to/lastmile_qr_scan", "ios": "https://dc.lft.to/lastmile_qr_scan"}, "fusion_lon": 0.0, "lat": 38.89875266666667, "bike_id": "cf1f5a98357ea054da9954108a2a838b", "type": "electric_scooter", "is_reserved": 0, "lon": -76.9318495}, {"fusion_lat": 0.0, "name": "4abe0f42cddb4e0b6f87faa9004507e4", "is_disabled": 0, "rental_uris": {"android": "https://dc.lft.to/lastmile_qr_scan", "ios": "https://dc.lft.to/lastmile_qr_scan"}, "fusion_lon": 0.0, "lat": 38.883316, "bike_id": "4abe0f42cddb4e0b6f87faa9004507e4", "type": "electric_scooter", "is_reserved": 0, "lon": -77.01741016666666}, {"fusion_lat": 0.0, "name": "28fad752e18201644fbe7874df918db9", "is_disabled": 0, "rental_uris": {"android": "https://dc.lft.to/lastmile_qr_scan", "ios": "https://dc.lft.to/lastmile_qr_scan"}, "fusion_lon": 0.0, "lat": 38.9274715, "bike_id": "28fad752e18201644fbe7874df918db9", "type": "electric_scooter", "is_reserved": 0, "lon": -77.02172533333334}, {"fusion_lat": 0.0, "name": "8d541a3e9aa5f9d6a62a7920d73cd80f", "is_disabled": 0, "rental_uris": {"android": "https://dc.lft.to/lastmile_qr_scan", "ios": "https://dc.lft.to/lastmile_qr_scan"}, "fusion_lon": 0.0, "lat": 38.90858166666666, "bike_id": "8d541a3e9aa5f9d6a62a7920d73cd80f", "type": "electric_scooter", "is_reserved": 0, "lon": -77.02430016666666}, {"fusion_lat": 0.0, "name": "3be306648dcae93e9d87a465759cdd15", "is_disabled": 0, "rental_uris": {"android": "https://dc.lft.to/lastmile_qr_scan", "ios": "https://dc.lft.to/lastmile_qr_scan"}, "fusion_lon": 0.0, "lat": 38.876694666666666, "bike_id": "3be306648dcae93e9d87a465759cdd15", "type": "electric_scooter", "is_reserved": 0, "lon": -77.01760183333333}, {"fusion_lat": 0.0, "name": "63a9428a295d2d92b3a56c36ca45cae5", "is_disabled": 0, "rental_uris": {"android": "https://dc.lft.to/lastmile_qr_scan", "ios": "https://dc.lft.to/lastmile_qr_scan"}, "fusion_lon": 0.0, "lat": 38.907717833333336, "bike_id": "63a9428a295d2d92b3a56c36ca45cae5", "type": "electric_scooter", "is_reserved": 0, "lon": -77.031908}, {"fusion_lat": 0.0, "name": "cf5daf347b552de67e825c5fa8a695f8", "is_disabled": 0, "rental_uris": {"android": "https://dc.lft.to/lastmile_qr_scan", "ios": "https://dc.lft.to/lastmile_qr_scan"}, "fusion_lon": 0.0, "lat": 38.91952833333333, "bike_id": "cf5daf347b552de67e825c5fa8a695f8", "type": "electric_scooter", "is_reserved": 0, "lon": -77.01776316666667}, {"fusion_lat": 0.0, "name": "f2b0047d16b5a812f7d5e28ba86eaaae", "is_disabled": 0, "rental_uris": {"android": "https://dc.lft.to/lastmile_qr_scan", "ios": "https://dc.lft.to/lastmile_qr_scan"}, "fusion_lon": 0.0, "lat": 38.921217666666664, "bike_id": "f2b0047d16b5a812f7d5e28ba86eaaae", "type": "electric_scooter", "is_reserved": 0, "lon": -77.01207983333333}, {"fusion_lat": 0.0, "name": "409281f5518bbbdb6ff868e03ef67b88", "is_disabled": 0, "rental_uris": {"android": "https://dc.lft.to/lastmile_qr_scan", "ios": "https://dc.lft.to/lastmile_qr_scan"}, "fusion_lon": 0.0, "lat": 38.900146666666664, "bike_id": "409281f5518bbbdb6ff868e03ef67b88", "type": "electric_scooter", "is_reserved": 0, "lon": -77.0020935}, {"fusion_lat": 0.0, "name": "9ad6a33a9f9fbb5a7ad4676c759a2984", "is_disabled": 0, "rental_uris": {"android": "https://dc.lft.to/lastmile_qr_scan", "ios": "https://dc.lft.to/lastmile_qr_scan"}, "fusion_lon": 0.0, "lat": 38.90384916666667, "bike_id": "9ad6a33a9f9fbb5a7ad4676c759a2984", "type": "electric_scooter", "is_reserved": 0, "lon": -77.04603633333333}, {"fusion_lat": 0.0, "name": "96deeaaafb8a9099ff55c9dd9b92a237", "is_disabled": 0, "rental_uris": {"android": "https://dc.lft.to/lastmile_qr_scan", "ios": "https://dc.lft.to/lastmile_qr_scan"}, "fusion_lon": 0.0, "lat": 38.87908983333333, "bike_id": "96deeaaafb8a9099ff55c9dd9b92a237", "type": "electric_scooter", "is_reserved": 0, "lon": -77.00629466666666}, {"fusion_lat": 0.0, "name": "ed16d2d6d6dbced13e40e6f6cfd776fd", "is_disabled": 0, "rental_uris": {"android": "https://dc.lft.to/lastmile_qr_scan", "ios": "https://dc.lft.to/lastmile_qr_scan"}, "fusion_lon": 0.0, "lat": 38.924853666666664, "bike_id": "ed16d2d6d6dbced13e40e6f6cfd776fd", "type": "electric_scooter", "is_reserved": 0, "lon": -77.02826516666667}, {"fusion_lat": 0.0, "name": "ce06019acb076a53a12a88e504a9865b", "is_disabled": 0, "rental_uris": {"android": "https://dc.lft.to/lastmile_qr_scan", "ios": "https://dc.lft.to/lastmile_qr_scan"}, "fusion_lon": 0.0, "lat": 38.892285666666666, "bike_id": "ce06019acb076a53a12a88e504a9865b", "type": "electric_scooter", "is_reserved": 0, "lon": -77.00305766666666}, {"fusion_lat": 0.0, "name": "07c0ff782183b1cafd26b13009f8bc71", "is_disabled": 0, "rental_uris": {"android": "https://dc.lft.to/lastmile_qr_scan", "ios": "https://dc.lft.to/lastmile_qr_scan"}, "fusion_lon": 0.0, "lat": 38.89226466666667, "bike_id": "07c0ff782183b1cafd26b13009f8bc71", "type": "electric_scooter", "is_reserved": 0, "lon": -77.03219166666666}, {"fusion_lat": 0.0, "name": "6498e304bfd36dc3855652f2662b54b8", "is_disabled": 0, "rental_uris": {"android": "https://dc.lft.to/lastmile_qr_scan", "ios": "https://dc.lft.to/lastmile_qr_scan"}, "fusion_lon": 0.0, "lat": 38.91568266666667, "bike_id": "6498e304bfd36dc3855652f2662b54b8", "type": "electric_scooter", "is_reserved": 0, "lon": -77.03150716666667}, {"fusion_lat": 0.0, "name": "71212fccf9e5271400802edd198c578a", "is_disabled": 0, "rental_uris": {"android": "https://dc.lft.to/lastmile_qr_scan", "ios": "https://dc.lft.to/lastmile_qr_scan"}, "fusion_lon": 0.0, "lat": 38.956857166666666, "bike_id": "71212fccf9e5271400802edd198c578a", "type": "electric_scooter", "is_reserved": 0, "lon": -77.0325435}, {"fusion_lat": 0.0, "name": "4a706c5a571da4159d2224804da1b00b", "is_disabled": 0, "rental_uris": {"android": "https://dc.lft.to/lastmile_qr_scan", "ios": "https://dc.lft.to/lastmile_qr_scan"}, "fusion_lon": 0.0, "lat": 38.91935766666667, "bike_id": "4a706c5a571da4159d2224804da1b00b", "type": "electric_scooter", "is_reserved": 0, "lon": -77.0250285}, {"fusion_lat": 0.0, "name": "057502c32e6da7f944a98baf0939ad00", "is_disabled": 0, "rental_uris": {"android": "https://dc.lft.to/lastmile_qr_scan", "ios": "https://dc.lft.to/lastmile_qr_scan"}, "fusion_lon": 0.0, "lat": 38.9623785, "bike_id": "057502c32e6da7f944a98baf0939ad00", "type": "electric_bike", "is_reserved": 0, "lon": -76.92760333333334}, {"fusion_lat": 0.0, "name": "71555c53006c647bf43dd235011fa398", "is_disabled": 0, "rental_uris": {"android": "https://dc.lft.to/lastmile_qr_scan", "ios": "https://dc.lft.to/lastmile_qr_scan"}, "fusion_lon": 0.0, "lat": 38.89870166666667, "bike_id": "71555c53006c647bf43dd235011fa398", "type": "electric_bike", "is_reserved": 0, "lon": -77.0360715}, {"fusion_lat": 0.0, "name": "4504c71d951eb08c134b28138c6c4a6b", "is_disabled": 0, "rental_uris": {"android": "https://dc.lft.to/lastmile_qr_scan", "ios": "https://dc.lft.to/lastmile_qr_scan"}, "fusion_lon": 0.0, "lat": 38.910339666666665, "bike_id": "4504c71d951eb08c134b28138c6c4a6b", "type": "electric_scooter", "is_reserved": 0, "lon": -77.01512133333334}, {"fusion_lat": 0.0, "name": "321c5742fdd911ab3980e0d22346e148", "is_disabled": 0, "rental_uris": {"android": "https://dc.lft.to/lastmile_qr_scan", "ios": "https://dc.lft.to/lastmile_qr_scan"}, "fusion_lon": 0.0, "lat": 38.916889833333336, "bike_id": "321c5742fdd911ab3980e0d22346e148", "type": "electric_scooter", "is_reserved": 0, "lon": -77.03773483333333}, {"fusion_lat": 0.0, "name": "ec96905c9dbd6c29353d81f20ed5b206", "is_disabled": 0, "rental_uris": {"android": "https://dc.lft.to/lastmile_qr_scan", "ios": "https://dc.lft.to/lastmile_qr_scan"}, "fusion_lon": 0.0, "lat": 38.8792155, "bike_id": "ec96905c9dbd6c29353d81f20ed5b206", "type": "electric_scooter", "is_reserved": 0, "lon": -76.944837}, {"fusion_lat": 0.0, "name": "05c199ce94e6e8bb03199325ff5f360c", "is_disabled": 0, "rental_uris": {"android": "https://dc.lft.to/lastmile_qr_scan", "ios": "https://dc.lft.to/lastmile_qr_scan"}, "fusion_lon": 0.0, "lat": 38.88898566666667, "bike_id": "05c199ce94e6e8bb03199325ff5f360c", "type": "electric_scooter", "is_reserved": 0, "lon": -76.99207166666666}, {"fusion_lat": 0.0, "name": "4b49b0937d1b39b2de436e2221f4950b", "is_disabled": 0, "rental_uris": {"android": "https://dc.lft.to/lastmile_qr_scan", "ios": "https://dc.lft.to/lastmile_qr_scan"}, "fusion_lon": 0.0, "lat": 38.949523666666664, "bike_id": "4b49b0937d1b39b2de436e2221f4950b", "type": "electric_scooter", "is_reserved": 0, "lon": -77.02310933333334}, {"fusion_lat": 0.0, "name": "9184b0253b91dcdafeb80c7820a2be38", "is_disabled": 0, "rental_uris": {"android": "https://dc.lft.to/lastmile_qr_scan", "ios": "https://dc.lft.to/lastmile_qr_scan"}, "fusion_lon": 0.0, "lat": 38.9196995, "bike_id": "9184b0253b91dcdafeb80c7820a2be38", "type": "electric_scooter", "is_reserved": 0, "lon": -77.02503083333333}, {"fusion_lat": 0.0, "name": "537c053b53eeecaa4cad020b8a264661", "is_disabled": 0, "rental_uris": {"android": "https://dc.lft.to/lastmile_qr_scan", "ios": "https://dc.lft.to/lastmile_qr_scan"}, "fusion_lon": 0.0, "lat": 38.89353933333334, "bike_id": "537c053b53eeecaa4cad020b8a264661", "type": "electric_bike", "is_reserved": 0, "lon": -77.18744216666667}, {"fusion_lat": 0.0, "name": "b096c10df7cd582eb58420f7bca6561c", "is_disabled": 0, "rental_uris": {"android": "https://dc.lft.to/lastmile_qr_scan", "ios": "https://dc.lft.to/lastmile_qr_scan"}, "fusion_lon": 0.0, "lat": 38.90692833333333, "bike_id": "b096c10df7cd582eb58420f7bca6561c", "type": "electric_scooter", "is_reserved": 0, "lon": -77.0372525}, {"fusion_lat": 0.0, "name": "0ccb286b98a2ec07c7515bf5f03b749b", "is_disabled": 0, "rental_uris": {"android": "https://dc.lft.to/lastmile_qr_scan", "ios": "https://dc.lft.to/lastmile_qr_scan"}, "fusion_lon": 0.0, "lat": 38.9056345, "bike_id": "0ccb286b98a2ec07c7515bf5f03b749b", "type": "electric_scooter", "is_reserved": 0, "lon": -77.01178766666666}, {"fusion_lat": 0.0, "name": "f611d1263eabf4c01c73f19ee7bab829", "is_disabled": 0, "rental_uris": {"android": "https://dc.lft.to/lastmile_qr_scan", "ios": "https://dc.lft.to/lastmile_qr_scan"}, "fusion_lon": 0.0, "lat": 38.89811016666667, "bike_id": "f611d1263eabf4c01c73f19ee7bab829", "type": "electric_scooter", "is_reserved": 0, "lon": -77.02948783333333}, {"fusion_lat": 0.0, "name": "ca13362f8a36dc5687baaa6db80dc701", "is_disabled": 0, "rental_uris": {"android": "https://dc.lft.to/lastmile_qr_scan", "ios": "https://dc.lft.to/lastmile_qr_scan"}, "fusion_lon": 0.0, "lat": 38.922476333333336, "bike_id": "ca13362f8a36dc5687baaa6db80dc701", "type": "electric_scooter", "is_reserved": 0, "lon": -77.07474516666667}, {"fusion_lat": 0.0, "name": "7578b7eff4522bca8d572fdf93f56019", "is_disabled": 0, "rental_uris": {"android": "https://dc.lft.to/lastmile_qr_scan", "ios": "https://dc.lft.to/lastmile_qr_scan"}, "fusion_lon": 0.0, "lat": 38.931895, "bike_id": "7578b7eff4522bca8d572fdf93f56019", "type": "electric_bike", "is_reserved": 0, "lon": -77.22925916666667}, {"fusion_lat": 0.0, "name": "bdb03f509dd5e9d7b6258fa62a7d2b0a", "is_disabled": 0, "rental_uris": {"android": "https://dc.lft.to/lastmile_qr_scan", "ios": "https://dc.lft.to/lastmile_qr_scan"}, "fusion_lon": 0.0, "lat": 38.93515633333333, "bike_id": "bdb03f509dd5e9d7b6258fa62a7d2b0a", "type": "electric_scooter", "is_reserved": 0, "lon": -77.03346416666666}, {"fusion_lat": 0.0, "name": "878afdc7931ac33907838b069f413a63", "is_disabled": 0, "rental_uris": {"android": "https://dc.lft.to/lastmile_qr_scan", "ios": "https://dc.lft.to/lastmile_qr_scan"}, "fusion_lon": 0.0, "lat": 38.87882, "bike_id": "878afdc7931ac33907838b069f413a63", "type": "electric_scooter", "is_reserved": 0, "lon": -77.02314633333333}, {"fusion_lat": 0.0, "name": "b2697ee1facbde33c8e2e5a52d381d68", "is_disabled": 0, "rental_uris": {"android": "https://dc.lft.to/lastmile_qr_scan", "ios": "https://dc.lft.to/lastmile_qr_scan"}, "fusion_lon": 0.0, "lat": 38.928699333333334, "bike_id": "b2697ee1facbde33c8e2e5a52d381d68", "type": "electric_scooter", "is_reserved": 0, "lon": -77.03373433333333}, {"fusion_lat": 0.0, "name": "277a29445d8e820f01e1dec67b53bc76", "is_disabled": 0, "rental_uris": {"android": "https://dc.lft.to/lastmile_qr_scan", "ios": "https://dc.lft.to/lastmile_qr_scan"}, "fusion_lon": 0.0, "lat": 38.902836666666666, "bike_id": "277a29445d8e820f01e1dec67b53bc76", "type": "electric_scooter", "is_reserved": 0, "lon": -77.0339875}, {"fusion_lat": 0.0, "name": "940e21c31e881a90fdf3a5ff86e591a4", "is_disabled": 0, "rental_uris": {"android": "https://dc.lft.to/lastmile_qr_scan", "ios": "https://dc.lft.to/lastmile_qr_scan"}, "fusion_lon": 0.0, "lat": 38.916984666666664, "bike_id": "940e21c31e881a90fdf3a5ff86e591a4", "type": "electric_scooter", "is_reserved": 0, "lon": -77.03722666666667}, {"fusion_lat": 0.0, "name": "0f402ccb3f21d3e5765df27fd733eab0", "is_disabled": 0, "rental_uris": {"android": "https://dc.lft.to/lastmile_qr_scan", "ios": "https://dc.lft.to/lastmile_qr_scan"}, "fusion_lon": 0.0, "lat": 38.9168465, "bike_id": "0f402ccb3f21d3e5765df27fd733eab0", "type": "electric_scooter", "is_reserved": 0, "lon": -77.03854566666666}, {"fusion_lat": 0.0, "name": "915c07af0d47bb41bea53dcac734bd0f", "is_disabled": 0, "rental_uris": {"android": "https://dc.lft.to/lastmile_qr_scan", "ios": "https://dc.lft.to/lastmile_qr_scan"}, "fusion_lon": 0.0, "lat": 38.91710483333333, "bike_id": "915c07af0d47bb41bea53dcac734bd0f", "type": "electric_scooter", "is_reserved": 0, "lon": -77.02958833333334}, {"fusion_lat": 0.0, "name": "2b8c962627d50e19daa1a25c34c8606f", "is_disabled": 0, "rental_uris": {"android": "https://dc.lft.to/lastmile_qr_scan", "ios": "https://dc.lft.to/lastmile_qr_scan"}, "fusion_lon": 0.0, "lat": 38.853574333333334, "bike_id": "2b8c962627d50e19daa1a25c34c8606f", "type": "electric_bike", "is_reserved": 0, "lon": -77.13468916666666}, {"fusion_lat": 0.0, "name": "427b78ff2ede98b41496babd55e44295", "is_disabled": 0, "rental_uris": {"android": "https://dc.lft.to/lastmile_qr_scan", "ios": "https://dc.lft.to/lastmile_qr_scan"}, "fusion_lon": 0.0, "lat": 38.8475725, "bike_id": "427b78ff2ede98b41496babd55e44295", "type": "electric_scooter", "is_reserved": 0, "lon": -76.995033}, {"fusion_lat": 0.0, "name": "78012a252abf4f21f72bd06715eae4d3", "is_disabled": 0, "rental_uris": {"android": "https://dc.lft.to/lastmile_qr_scan", "ios": "https://dc.lft.to/lastmile_qr_scan"}, "fusion_lon": 0.0, "lat": 38.901480166666666, "bike_id": "78012a252abf4f21f72bd06715eae4d3", "type": "electric_scooter", "is_reserved": 0, "lon": -76.998362}, {"fusion_lat": 0.0, "name": "b12fb74ce84a4e6a7eabbe4749fe25b4", "is_disabled": 0, "rental_uris": {"android": "https://dc.lft.to/lastmile_qr_scan", "ios": "https://dc.lft.to/lastmile_qr_scan"}, "fusion_lon": 0.0, "lat": 38.92764916666667, "bike_id": "b12fb74ce84a4e6a7eabbe4749fe25b4", "type": "electric_scooter", "is_reserved": 0, "lon": -77.02321183333333}, {"fusion_lat": 0.0, "name": "671f93ef3826de944808c367ed0bc650", "is_disabled": 0, "rental_uris": {"android": "https://dc.lft.to/lastmile_qr_scan", "ios": "https://dc.lft.to/lastmile_qr_scan"}, "fusion_lon": 0.0, "lat": 38.88382166666667, "bike_id": "671f93ef3826de944808c367ed0bc650", "type": "electric_scooter", "is_reserved": 0, "lon": -77.0460955}, {"fusion_lat": 0.0, "name": "0a3be88e1fa03fa7cd886dd6a671a630", "is_disabled": 0, "rental_uris": {"android": "https://dc.lft.to/lastmile_qr_scan", "ios": "https://dc.lft.to/lastmile_qr_scan"}, "fusion_lon": 0.0, "lat": 38.9571265, "bike_id": "0a3be88e1fa03fa7cd886dd6a671a630", "type": "electric_scooter", "is_reserved": 0, "lon": -77.02403666666666}, {"fusion_lat": 0.0, "name": "3ee0517f2d9d3985edbc3187ecd192c7", "is_disabled": 0, "rental_uris": {"android": "https://dc.lft.to/lastmile_qr_scan", "ios": "https://dc.lft.to/lastmile_qr_scan"}, "fusion_lon": 0.0, "lat": 38.918107166666665, "bike_id": "3ee0517f2d9d3985edbc3187ecd192c7", "type": "electric_scooter", "is_reserved": 0, "lon": -76.99979616666667}, {"fusion_lat": 0.0, "name": "d0f872bfea2d4cb0d3248fd3681f6e8f", "is_disabled": 0, "rental_uris": {"android": "https://dc.lft.to/lastmile_qr_scan", "ios": "https://dc.lft.to/lastmile_qr_scan"}, "fusion_lon": 0.0, "lat": 38.927791666666664, "bike_id": "d0f872bfea2d4cb0d3248fd3681f6e8f", "type": "electric_scooter", "is_reserved": 0, "lon": -77.05266183333333}, {"fusion_lat": 0.0, "name": "2c601196120c21d20317be03f900f463", "is_disabled": 0, "rental_uris": {"android": "https://dc.lft.to/lastmile_qr_scan", "ios": "https://dc.lft.to/lastmile_qr_scan"}, "fusion_lon": 0.0, "lat": 38.87653233333333, "bike_id": "2c601196120c21d20317be03f900f463", "type": "electric_scooter", "is_reserved": 0, "lon": -77.00830583333334}, {"fusion_lat": 0.0, "name": "353709878cba4dde42e16396d1166fb1", "is_disabled": 0, "rental_uris": {"android": "https://dc.lft.to/lastmile_qr_scan", "ios": "https://dc.lft.to/lastmile_qr_scan"}, "fusion_lon": 0.0, "lat": 38.947024, "bike_id": "353709878cba4dde42e16396d1166fb1", "type": "electric_scooter", "is_reserved": 0, "lon": -77.01942716666667}, {"fusion_lat": 0.0, "name": "18cb07810d93da054b886197f7c74afa", "is_disabled": 0, "rental_uris": {"android": "https://dc.lft.to/lastmile_qr_scan", "ios": "https://dc.lft.to/lastmile_qr_scan"}, "fusion_lon": 0.0, "lat": 38.9143065, "bike_id": "18cb07810d93da054b886197f7c74afa", "type": "electric_scooter", "is_reserved": 0, "lon": -77.02213633333334}, {"fusion_lat": 0.0, "name": "66403a74eb050ce4d7a97275a6d0337a", "is_disabled": 0, "rental_uris": {"android": "https://dc.lft.to/lastmile_qr_scan", "ios": "https://dc.lft.to/lastmile_qr_scan"}, "fusion_lon": 0.0, "lat": 38.9207355, "bike_id": "66403a74eb050ce4d7a97275a6d0337a", "type": "electric_scooter", "is_reserved": 0, "lon": -77.00458033333334}, {"fusion_lat": 0.0, "name": "8b4c9c0ea2ba2d1e744be896f12bc59c", "is_disabled": 0, "rental_uris": {"android": "https://dc.lft.to/lastmile_qr_scan", "ios": "https://dc.lft.to/lastmile_qr_scan"}, "fusion_lon": 0.0, "lat": 38.93191816666667, "bike_id": "8b4c9c0ea2ba2d1e744be896f12bc59c", "type": "electric_scooter", "is_reserved": 0, "lon": -77.04292583333333}, {"fusion_lat": 0.0, "name": "cefedae8f04c4d128cd11315618972e4", "is_disabled": 0, "rental_uris": {"android": "https://dc.lft.to/lastmile_qr_scan", "ios": "https://dc.lft.to/lastmile_qr_scan"}, "fusion_lon": 0.0, "lat": 38.958833, "bike_id": "cefedae8f04c4d128cd11315618972e4", "type": "electric_bike", "is_reserved": 0, "lon": -77.00263633333333}, {"fusion_lat": 0.0, "name": "e72c27ab0bd11e30f7017eded2ffe403", "is_disabled": 0, "rental_uris": {"android": "https://dc.lft.to/lastmile_qr_scan", "ios": "https://dc.lft.to/lastmile_qr_scan"}, "fusion_lon": 0.0, "lat": 38.88466616666667, "bike_id": "e72c27ab0bd11e30f7017eded2ffe403", "type": "electric_scooter", "is_reserved": 0, "lon": -76.99836183333333}, {"fusion_lat": 0.0, "name": "460d116ff485b00e7a2c9d2f7990c1d0", "is_disabled": 0, "rental_uris": {"android": "https://dc.lft.to/lastmile_qr_scan", "ios": "https://dc.lft.to/lastmile_qr_scan"}, "fusion_lon": 0.0, "lat": 38.922504833333335, "bike_id": "460d116ff485b00e7a2c9d2f7990c1d0", "type": "electric_scooter", "is_reserved": 0, "lon": -77.029796}, {"fusion_lat": 0.0, "name": "6fcfab680749885b9fac2f011096fd02", "is_disabled": 0, "rental_uris": {"android": "https://dc.lft.to/lastmile_qr_scan", "ios": "https://dc.lft.to/lastmile_qr_scan"}, "fusion_lon": 0.0, "lat": 38.911242666666666, "bike_id": "6fcfab680749885b9fac2f011096fd02", "type": "electric_scooter", "is_reserved": 0, "lon": -77.02099783333334}, {"fusion_lat": 0.0, "name": "bdd2b07e8fa715f3c8a8c6e84600fddf", "is_disabled": 0, "rental_uris": {"android": "https://dc.lft.to/lastmile_qr_scan", "ios": "https://dc.lft.to/lastmile_qr_scan"}, "fusion_lon": 0.0, "lat": 38.9210335, "bike_id": "bdd2b07e8fa715f3c8a8c6e84600fddf", "type": "electric_scooter", "is_reserved": 0, "lon": -77.017807}, {"fusion_lat": 0.0, "name": "1513cb86d1da4ce9041454f730c500e2", "is_disabled": 0, "rental_uris": {"android": "https://dc.lft.to/lastmile_qr_scan", "ios": "https://dc.lft.to/lastmile_qr_scan"}, "fusion_lon": 0.0, "lat": 38.993499666666665, "bike_id": "1513cb86d1da4ce9041454f730c500e2", "type": "electric_bike", "is_reserved": 0, "lon": -77.03167033333334}, {"fusion_lat": 0.0, "name": "add2a3016fae998f125fd7dc662352e8", "is_disabled": 0, "rental_uris": {"android": "https://dc.lft.to/lastmile_qr_scan", "ios": "https://dc.lft.to/lastmile_qr_scan"}, "fusion_lon": 0.0, "lat": 38.88511733333333, "bike_id": "add2a3016fae998f125fd7dc662352e8", "type": "electric_scooter", "is_reserved": 0, "lon": -76.92948966666667}, {"fusion_lat": 0.0, "name": "ece40b9327c77306080a79a818030851", "is_disabled": 0, "rental_uris": {"android": "https://dc.lft.to/lastmile_qr_scan", "ios": "https://dc.lft.to/lastmile_qr_scan"},