{"data": {"bikes": [{"name": "17c40e9df29e5f37f7a2e03593d62b42", "fusion_lat": 0.0, "type": "electric_scooter", "lat": 38.884062, "is_reserved": 0, "is_disabled": 0, "fusion_lon": 0.0, "bike_id": "17c40e9df29e5f37f7a2e03593d62b42", "lon": -77.015255, "rental_uris": {"ios": "https://dc.lft.to/lastmile_qr_scan", "android": "https://dc.lft.to/lastmile_qr_scan"}}, {"name": "a283759e1571f732d3d84e6fdb0e2d21", "fusion_lat": 0.0, "type": "electric_scooter", "lat": 38.86678033333333, "is_reserved": 0, "is_disabled": 0, "fusion_lon": 0.0, "bike_id": "a283759e1571f732d3d84e6fdb0e2d21", "lon": -76.9847225, "rental_uris": {"ios": "https://dc.lft.to/lastmile_qr_scan", "android": "https://dc.lft.to/lastmile_qr_scan"}}, {"name": "c2c3bb5e01f2c3d5a18bad089cc37a67", "fusion_lat": 0.0, "type": "electric_scooter", "lat": 38.876711, "is_reserved": 0, "is_disabled": 0, "fusion_lon": 0.0, "bike_id": "c2c3bb5e01f2c3d5a18bad089cc37a67", "lon": -77.01782666666666, "rental_uris": {"ios": "https://dc.lft.to/lastmile_qr_scan", "android": "https://dc.lft.to/lastmile_qr_scan"}}, {"name": "e999e3a5e177ad78465d3c37c81438ee", "fusion_lat": 0.0, "type": "electric_scooter", "lat": 38.8871655, "is_reserved": 0, "is_disabled": 0, "fusion_lon": 0.0, "bike_id": "e999e3a5e177ad78465d3c37c81438ee", "lon": -77.02206333333334, "rental_uris": {"ios": "https://dc.lft.to/lastmile_qr_scan", "android": "https://dc.lft.to/lastmile_qr_scan"}}, {"name": "e74b3aabb3793b6732f12f3a8707c8c1", "fusion_lat": 0.0, "type": "electric_scooter", "lat": 38.92446283333334, "is_reserved": 0, "is_disabled": 0, "fusion_lon": 0.0, "bike_id": "e74b3aabb3793b6732f12f3a8707c8c1", "lon": -77.03351166666667, "rental_uris": {"ios": "https://dc.lft.to/lastmile_qr_scan", "android": "https://dc.lft.to/lastmile_qr_scan"}}, {"name": "6bc7336f81153966fdfd85eef0a844c7", "fusion_lat": 0.0, "type": "electric_scooter", "lat": 38.8996825, "is_reserved": 0, "is_disabled": 0, "fusion_lon": 0.0, "bike_id": "6bc7336f81153966fdfd85eef0a844c7", "lon": -77.057027, "rental_uris": {"ios": "https://dc.lft.to/lastmile_qr_scan", "android": "https://dc.lft.to/lastmile_qr_scan"}}, {"name": "f1db8cdf8577f9f5c94096f60e0a1e23", "fusion_lat": 0.0, "type": "electric_scooter", "lat": 38.93608783333333, "is_reserved": 0, "is_disabled": 0, "fusion_lon": 0.0, "bike_id": "f1db8cdf8577f9f5c94096f60e0a1e23", "lon": -77.058618, "rental_uris": {"ios": "https://dc.lft.to/lastmile_qr_scan", "android": "https://dc.lft.to/lastmile_qr_scan"}}, {"name": "5d6026338fa5779a564a15af5ca7248c", "fusion_lat": 0.0, "type": "electric_scooter", "lat": 38.885372, "is_reserved": 0, "is_disabled": 0, "fusion_lon": 0.0, "bike_id": "5d6026338fa5779a564a15af5ca7248c", "lon": -77.005757, "rental_uris": {"ios": "https://dc.lft.to/lastmile_qr_scan", "android": "https://dc.lft.to/lastmile_qr_scan"}}, {"name": "7939eda46972b35325b7799c6e2c71c2", "fusion_lat": 0.0, "type": "electric_scooter", "lat": 38.906530333333336, "is_reserved": 0, "is_disabled": 0, "fusion_lon": 0.0, "bike_id": "7939eda46972b35325b7799c6e2c71c2", "lon": -77.0386945, "rental_uris": {"ios": "https://dc.lft.to/lastmile_qr_scan", "android": "https://dc.lft.to/lastmile_qr_scan"}}, {"name": "164901437062718dacacccea6bf96f91", "fusion_lat": 0.0, "type": "electric_bike", "lat": 38.990897333333336, "is_reserved": 0, "is_disabled": 0, "fusion_lon": 0.0, "bike_id": "164901437062718dacacccea6bf96f91", "lon": -76.8749585, "rental_uris": {"ios": "https://dc.lft.to/lastmile_qr_scan", "android": "https://dc.lft.to/lastmile_qr_scan"}}, {"name": "b72a9008aee2bcc193cc370f844276d7", "fusion_lat": 0.0, "type": "electric_scooter", "lat": 38.906652333333334, "is_reserved": 0, "is_disabled": 0, "fusion_lon": 0.0, "bike_id": "b72a9008aee2bcc193cc370f844276d7", "lon": -77.0386565, "rental_uris": {"ios": "https://dc.lft.to/lastmile_qr_scan", "android": "https://dc.lft.to/lastmile_qr_scan"}}, {"name": "373cf6011f152d80b9941d5beef0612d", "fusion_lat": 0.0, "type": "electric_scooter", "lat": 38.914093666666666, "is_reserved": 0, "is_disabled": 0, "fusion_lon": 0.0, "bike_id": "373cf6011f152d80b9941d5beef0612d", "lon": -77.0399415, "rental_uris": {"ios": "https://dc.lft.to/lastmile_qr_scan", "android": "https://dc.lft.to/lastmile_qr_scan"}}, {"name": "aa11b80506fbbe125eb067333faed768", "fusion_lat": 0.0, "type": "electric_scooter", "lat": 38.89218066666667, "is_reserved": 0, "is_disabled": 0, "fusion_lon": 0.0, "bike_id": "aa11b80506fbbe125eb067333faed768", "lon": -77.03090883333333, "rental_uris": {"ios": "https://dc.lft.to/lastmile_qr_scan", "android": "https://dc.lft.to/lastmile_qr_scan"}}, {"name": "99da859af5017d49d4f4821ee926119f", "fusion_lat": 0.0, "type": "electric_bike", "lat": 38.828757333333336, "is_reserved": 0, "is_disabled": 0, "fusion_lon": 0.0, "bike_id": "99da859af5017d49d4f4821ee926119f", "lon": -77.11218616666666, "rental_uris": {"ios": "https://dc.lft.to/lastmile_qr_scan", "android": "https://dc.lft.to/lastmile_qr_scan"}}, {"name": "86037643b4a30becedb936e220022f04", "fusion_lat": 0.0, "type": "electric_scooter", "lat": 38.956269166666665, "is_reserved": 0, "is_disabled": 0, "fusion_lon": 0.0, "bike_id": "86037643b4a30becedb936e220022f04", "lon": -77.01152966666666, "rental_uris": {"ios": "https://dc.lft.to/lastmile_qr_scan", "android": "https://dc.lft.to/lastmile_qr_scan"}}, {"name": "1ab1f1905732473817201c0adcfa9829", "fusion_lat": 0.0, "type": "electric_scooter", "lat": 38.896074666666664, "is_reserved": 0, "is_disabled": 0, "fusion_lon": 0.0, "bike_id": "1ab1f1905732473817201c0adcfa9829", "lon": -76.999733, "rental_uris": {"ios": "https://dc.lft.to/lastmile_qr_scan", "android": "https://dc.lft.to/lastmile_qr_scan"}}, {"name": "fb91f009298384be11da46d4192d1c33", "fusion_lat": 0.0, "type": "electric_bike", "lat": 38.945883333333335, "is_reserved": 0, "is_disabled": 0, "fusion_lon": 0.0, "bike_id": "fb91f009298384be11da46d4192d1c33", "lon": -77.00271016666666, "rental_uris": {"ios": "https://dc.lft.to/lastmile_qr_scan", "android": "https://dc.lft.to/lastmile_qr_scan"}}, {"name": "be1b85ef9228d179040ae3fe5c518ea4", "fusion_lat": 0.0, "type": "electric_scooter", "lat": 38.87453983333333, "is_reserved": 0, "is_disabled": 0, "fusion_lon": 0.0, "bike_id": "be1b85ef9228d179040ae3fe5c518ea4", "lon": -77.0076645, "rental_uris": {"ios": "https://dc.lft.to/lastmile_qr_scan", "android": "https://dc.lft.to/lastmile_qr_scan"}}, {"name": "ed502e9a4ba3ea8b25117e46c8691260", "fusion_lat": 0.0, "type": "electric_scooter", "lat": 38.9002475, "is_reserved": 0, "is_disabled": 0, "fusion_lon": 0.0, "bike_id": "ed502e9a4ba3ea8b25117e46c8691260", "lon": -76.998696, "rental_uris": {"ios": "https://dc.lft.to/lastmile_qr_scan", "android": "https://dc.lft.to/lastmile_qr_scan"}}, {"name": "c51ff47e523286f948642bdc8f9f9b5a", "fusion_lat": 0.0, "type": "electric_scooter", "lat": 38.89354216666667, "is_reserved": 0, "is_disabled": 0, "fusion_lon": 0.0, "bike_id": "c51ff47e523286f948642bdc8f9f9b5a", "lon": -77.00331883333334, "rental_uris": {"ios": "https://dc.lft.to/lastmile_qr_scan", "android": "https://dc.lft.to/lastmile_qr_scan"}}, {"name": "eed1351d9675a64f2be6e90003e4848b", "fusion_lat": 0.0, "type": "electric_scooter", "lat": 38.92665816666667, "is_reserved": 0, "is_disabled": 0, "fusion_lon": 0.0, "bike_id": "eed1351d9675a64f2be6e90003e4848b", "lon": -77.03628883333333, "rental_uris": {"ios": "https://dc.lft.to/lastmile_qr_scan", "android": "https://dc.lft.to/lastmile_qr_scan"}}, {"name": "6fe491685eed3c03bad57ddca8db9bdc", "fusion_lat": 0.0, "type": "electric_scooter", "lat": 38.90867183333334, "is_reserved": 0, "is_disabled": 0, "fusion_lon": 0.0, "bike_id": "6fe491685eed3c03bad57ddca8db9bdc", "lon": -77.08593283333333, "rental_uris": {"ios": "https://dc.lft.to/lastmile_qr_scan", "android": "https://dc.lft.to/lastmile_qr_scan"}}, {"name": "e84b90fbff979c78a43cd635f3a9b97f", "fusion_lat": 0.0, "type": "electric_scooter", "lat": 38.93615583333333, "is_reserved": 0, "is_disabled": 0, "fusion_lon": 0.0, "bike_id": "e84b90fbff979c78a43cd635f3a9b97f", "lon": -77.05583416666667, "rental_uris": {"ios": "https://dc.lft.to/lastmile_qr_scan", "android": "https://dc.lft.to/lastmile_qr_scan"}}, {"name": "85ea054c68943195078e72d5e2466466", "fusion_lat": 0.0, "type": "electric_scooter", "lat": 38.938896166666666, "is_reserved": 0, "is_disabled": 0, "fusion_lon": 0.0, "bike_id": "85ea054c68943195078e72d5e2466466", "lon": -77.02460966666666, "rental_uris": {"ios": "https://dc.lft.to/lastmile_qr_scan", "android": "https://dc.lft.to/lastmile_qr_scan"}}, {"name": "553d69319f94d7d140ad496526532552", "fusion_lat": 0.0, "type": "electric_scooter", "lat": 38.9172505, "is_reserved": 0, "is_disabled": 0, "fusion_lon": 0.0, "bike_id": "553d69319f94d7d140ad496526532552", "lon": -77.04179016666667, "rental_uris": {"ios": "https://dc.lft.to/lastmile_qr_scan", "android": "https://dc.lft.to/lastmile_qr_scan"}}, {"name": "c3a5d43242cdca092f3775611029ac90", "fusion_lat": 0.0, "type": "electric_scooter", "lat": 38.897071333333336, "is_reserved": 0, "is_disabled": 0, "fusion_lon": 0.0, "bike_id": "c3a5d43242cdca092f3775611029ac90", "lon": -77.03339133333333, "rental_uris": {"ios": "https://dc.lft.to/lastmile_qr_scan", "android": "https://dc.lft.to/lastmile_qr_scan"}}, {"name": "27021de27b07ac990cd1bbd5d4c9e880", "fusion_lat": 0.0, "type": "electric_scooter", "lat": 38.94602833333333, "is_reserved": 0, "is_disabled": 0, "fusion_lon": 0.0, "bike_id": "27021de27b07ac990cd1bbd5d4c9e880", "lon": -77.0297775, "rental_uris": {"ios": "https://dc.lft.to/lastmile_qr_scan", "android": "https://dc.lft.to/lastmile_qr_scan"}}, {"name": "f3977bcc99f34ddbfc38fd3654ce3cbd", "fusion_lat": 0.0, "type": "electric_scooter", "lat": 38.900501, "is_reserved": 0, "is_disabled": 0, "fusion_lon": 0.0, "bike_id": "f3977bcc99f34ddbfc38fd3654ce3cbd", "lon": -77.00071366666667, "rental_uris": {"ios": "https://dc.lft.to/lastmile_qr_scan", "android": "https://dc.lft.to/lastmile_qr_scan"}}, {"name": "24c8940c17713b2e49ada6b346367528", "fusion_lat": 0.0, "type": "electric_scooter", "lat": 38.90388883333333, "is_reserved": 0, "is_disabled": 0, "fusion_lon": 0.0, "bike_id": "24c8940c17713b2e49ada6b346367528", "lon": -77.03848533333333, "rental_uris": {"ios": "https://dc.lft.to/lastmile_qr_scan", "android": "https://dc.lft.to/lastmile_qr_scan"}}, {"name": "e7679ff59634c2d21b7dfc23d36e2a67", "fusion_lat": 0.0, "type": "electric_scooter", "lat": 38.90961466666667, "is_reserved": 0, "is_disabled": 0, "fusion_lon": 0.0, "bike_id": "e7679ff59634c2d21b7dfc23d36e2a67", "lon": -77.03938683333334, "rental_uris": {"ios": "https://dc.lft.to/lastmile_qr_scan", "android": "https://dc.lft.to/lastmile_qr_scan"}}, {"name": "f862cea14dbff193c6c4eebef6affcbe", "fusion_lat": 0.0, "type": "electric_scooter", "lat": 38.91602283333334, "is_reserved": 0, "is_disabled": 0, "fusion_lon": 0.0, "bike_id": "f862cea14dbff193c6c4eebef6affcbe", "lon": -77.04155483333334, "rental_uris": {"ios": "https://dc.lft.to/lastmile_qr_scan", "android": "https://dc.lft.to/lastmile_qr_scan"}}, {"name": "63121e2de66ac8fad82b1291d4941940", "fusion_lat": 0.0, "type": "electric_scooter", "lat": 38.8835275, "is_reserved": 0, "is_disabled": 0, "fusion_lon": 0.0, "bike_id": "63121e2de66ac8fad82b1291d4941940", "lon": -76.9961175, "rental_uris": {"ios": "https://dc.lft.to/lastmile_qr_scan", "android": "https://dc.lft.to/lastmile_qr_scan"}}, {"name": "16f45685b0486429aa0d7df4f243899a", "fusion_lat": 0.0, "type": "electric_scooter", "lat": 38.890139833333336, "is_reserved": 0, "is_disabled": 0, "fusion_lon": 0.0, "bike_id": "16f45685b0486429aa0d7df4f243899a", "lon": -76.93734316666666, "rental_uris": {"ios": "https://dc.lft.to/lastmile_qr_scan", "android": "https://dc.lft.to/lastmile_qr_scan"}}, {"name": "badafffd273f3c065ca2350022e02a77", "fusion_lat": 0.0, "type": "electric_scooter", "lat": 38.923562, "is_reserved": 0, "is_disabled": 0, "fusion_lon": 0.0, "bike_id": "badafffd273f3c065ca2350022e02a77", "lon": -77.0508415, "rental_uris": {"ios": "https://dc.lft.to/lastmile_qr_scan", "android": "https://dc.lft.to/lastmile_qr_scan"}}, {"name": "8b3e155349caf46bac77cea7ea46d7bc", "fusion_lat": 0.0, "type": "electric_scooter", "lat": 38.90053283333334, "is_reserved": 0, "is_disabled": 0, "fusion_lon": 0.0, "bike_id": "8b3e155349caf46bac77cea7ea46d7bc", "lon": -77.00754616666667, "rental_uris": {"ios": "https://dc.lft.to/lastmile_qr_scan", "android": "https://dc.lft.to/lastmile_qr_scan"}}, {"name": "79dabe8747c672116d797cc1e095a64f", "fusion_lat": 0.0, "type": "electric_scooter", "lat": 38.936059, "is_reserved": 0, "is_disabled": 0, "fusion_lon": 0.0, "bike_id": "79dabe8747c672116d797cc1e095a64f", "lon": -77.05864433333333, "rental_uris": {"ios": "https://dc.lft.to/lastmile_qr_scan", "android": "https://dc.lft.to/lastmile_qr_scan"}}, {"name": "a5f385f53303e4505d5ddc82a8f46d3f", "fusion_lat": 0.0, "type": "electric_scooter", "lat": 38.900676, "is_reserved": 0, "is_disabled": 0, "fusion_lon": 0.0, "bike_id": "a5f385f53303e4505d5ddc82a8f46d3f", "lon": -77.04531316666667, "rental_uris": {"ios": "https://dc.lft.to/lastmile_qr_scan", "android": "https://dc.lft.to/lastmile_qr_scan"}}, {"name": "8d759e17c3bac7eb9a4c027ed9a1f5c1", "fusion_lat": 0.0, "type": "electric_scooter", "lat": 38.90660616666667, "is_reserved": 0, "is_disabled": 0, "fusion_lon": 0.0, "bike_id": "8d759e17c3bac7eb9a4c027ed9a1f5c1", "lon": -77.03867816666667, "rental_uris": {"ios": "https://dc.lft.to/lastmile_qr_scan", "android": "https://dc.lft.to/lastmile_qr_scan"}}, {"name": "ef43c434ea0a4649bb54bf13eb69ed1c", "fusion_lat": 0.0, "type": "electric_scooter", "lat": 38.920396333333336, "is_reserved": 0, "is_disabled": 0, "fusion_lon": 0.0, "bike_id": "ef43c434ea0a4649bb54bf13eb69ed1c", "lon": -77.07149283333334, "rental_uris": {"ios": "https://dc.lft.to/lastmile_qr_scan", "android": "https://dc.lft.to/lastmile_qr_scan"}}, {"name": "32398141f75a1bb93b9062c50077d239", "fusion_lat": 0.0, "type": "electric_scooter", "lat": 38.901307833333334, "is_reserved": 0, "is_disabled": 0, "fusion_lon": 0.0, "bike_id": "32398141f75a1bb93b9062c50077d239", "lon": -77.04213166666666, "rental_uris": {"ios": "https://dc.lft.to/lastmile_qr_scan", "android": "https://dc.lft.to/lastmile_qr_scan"}}, {"name": "53f2f44c8ea424180fc4faa50c42c842", "fusion_lat": 0.0, "type": "electric_scooter", "lat": 38.928992666666666, "is_reserved": 0, "is_disabled": 0, "fusion_lon": 0.0, "bike_id": "53f2f44c8ea424180fc4faa50c42c842", "lon": -77.054586, "rental_uris": {"ios": "https://dc.lft.to/lastmile_qr_scan", "android": "https://dc.lft.to/lastmile_qr_scan"}}, {"name": "ade59bd023bfbcedde57f7e0efa3e8b7", "fusion_lat": 0.0, "type": "electric_scooter", "lat": 38.91842466666667, "is_reserved": 0, "is_disabled": 0, "fusion_lon": 0.0, "bike_id": "ade59bd023bfbcedde57f7e0efa3e8b7", "lon": -77.02598033333334, "rental_uris": {"ios": "https://dc.lft.to/lastmile_qr_scan", "android": "https://dc.lft.to/lastmile_qr_scan"}}, {"name": "f13e11f9a6c271aced4a4e54525fe115", "fusion_lat": 0.0, "type": "electric_scooter", "lat": 38.8360705, "is_reserved": 0, "is_disabled": 0, "fusion_lon": 0.0, "bike_id": "f13e11f9a6c271aced4a4e54525fe115", "lon": -76.99356433333334, "rental_uris": {"ios": "https://dc.lft.to/lastmile_qr_scan", "android": "https://dc.lft.to/lastmile_qr_scan"}}, {"name": "6edf488eb06dbdf548ccac57893c5bba", "fusion_lat": 0.0, "type": "electric_scooter", "lat": 38.90333916666667, "is_reserved": 0, "is_disabled": 0, "fusion_lon": 0.0, "bike_id": "6edf488eb06dbdf548ccac57893c5bba", "lon": -77.06641316666666, "rental_uris": {"ios": "https://dc.lft.to/lastmile_qr_scan", "android": "https://dc.lft.to/lastmile_qr_scan"}}, {"name": "5f45d7e87257bc0c51a51e61949a8fa5", "fusion_lat": 0.0, "type": "electric_scooter", "lat": 38.901360833333335, "is_reserved": 0, "is_disabled": 0, "fusion_lon": 0.0, "bike_id": "5f45d7e87257bc0c51a51e61949a8fa5", "lon": -77.03954583333334, "rental_uris": {"ios": "https://dc.lft.to/lastmile_qr_scan", "android": "https://dc.lft.to/lastmile_qr_scan"}}, {"name": "936ec8ac01fddc3497e833127b2fe1f9", "fusion_lat": 0.0, "type": "electric_scooter", "lat": 38.903732166666664, "is_reserved": 0, "is_disabled": 0, "fusion_lon": 0.0, "bike_id": "936ec8ac01fddc3497e833127b2fe1f9", "lon": -77.01109483333333, "rental_uris": {"ios": "https://dc.lft.to/lastmile_qr_scan", "android": "https://dc.lft.to/lastmile_qr_scan"}}, {"name": "2cc6519f79e214d85798c1b7e935eb79", "fusion_lat": 0.0, "type": "electric_bike", "lat": 38.8638685, "is_reserved": 0, "is_disabled": 0, "fusion_lon": 0.0, "bike_id": "2cc6519f79e214d85798c1b7e935eb79", "lon": -76.989887, "rental_uris": {"ios": "https://dc.lft.to/lastmile_qr_scan", "android": "https://dc.lft.to/lastmile_qr_scan"}}, {"name": "d9f23fc2b7cb8577707bb76f6f44d7c6", "fusion_lat": 0.0, "type": "electric_scooter", "lat": 38.9225585, "is_reserved": 0, "is_disabled": 0, "fusion_lon": 0.0, "bike_id": "d9f23fc2b7cb8577707bb76f6f44d7c6", "lon": -77.019559, "rental_uris": {"ios": "https://dc.lft.to/lastmile_qr_scan", "android": "https://dc.lft.to/lastmile_qr_scan"}}, {"name": "bbeef90da6986c40f5a01132c2e5bb0e", "fusion_lat": 0.0, "type": "electric_bike", "lat": 38.948956333333335, "is_reserved": 0, "is_disabled": 0, "fusion_lon": 0.0, "bike_id": "bbeef90da6986c40f5a01132c2e5bb0e", "lon": -76.96369783333333, "rental_uris": {"ios": "https://dc.lft.to/lastmile_qr_scan", "android": "https://dc.lft.to/lastmile_qr_scan"}}, {"name": "c542e86531c4a3e0c8748d13d566f1ef", "fusion_lat": 0.0, "type": "electric_scooter", "lat": 38.91031483333333, "is_reserved": 0, "is_disabled": 0, "fusion_lon": 0.0, "bike_id": "c542e86531c4a3e0c8748d13d566f1ef", "lon": -77.04807616666666, "rental_uris": {"ios": "https://dc.lft.to/lastmile_qr_scan", "android": "https://dc.lft.to/lastmile_qr_scan"}}, {"name": "fdb675d737ca633a146de4735a53ff8f", "fusion_lat": 0.0, "type": "electric_bike", "lat": 38.9436615, "is_reserved": 0, "is_disabled": 0, "fusion_lon": 0.0, "bike_id": "fdb675d737ca633a146de4735a53ff8f", "lon": -77.07744683333334, "rental_uris": {"ios": "https://dc.lft.to/lastmile_qr_scan", "android": "https://dc.lft.to/lastmile_qr_scan"}}, {"name": "7aebabf0ffedcc5c49690f9ac6bd2e2f", "fusion_lat": 0.0, "type": "electric_bike", "lat": 38.99828483333334, "is_reserved": 0, "is_disabled": 0, "fusion_lon": 0.0, "bike_id": "7aebabf0ffedcc5c49690f9ac6bd2e2f", "lon": -76.8836745, "rental_uris": {"ios": "https://dc.lft.to/lastmile_qr_scan", "android": "https://dc.lft.to/lastmile_qr_scan"}}, {"name": "a60ae674fa39cf7fd90c136b3c5366f2", "fusion_lat": 0.0, "type": "electric_scooter", "lat": 38.902653666666666, "is_reserved": 0, "is_disabled": 0, "fusion_lon": 0.0, "bike_id": "a60ae674fa39cf7fd90c136b3c5366f2", "lon": -77.03461333333334, "rental_uris": {"ios": "https://dc.lft.to/lastmile_qr_scan", "android": "https://dc.lft.to/lastmile_qr_scan"}}, {"name": "154246e8e0ed07037b7e95f23122573b", "fusion_lat": 0.0, "type": "electric_scooter", "lat": 38.89875816666667, "is_reserved": 0, "is_disabled": 0, "fusion_lon": 0.0, "bike_id": "154246e8e0ed07037b7e95f23122573b", "lon": -76.931607, "rental_uris": {"ios": "https://dc.lft.to/lastmile_qr_scan", "android": "https://dc.lft.to/lastmile_qr_scan"}}, {"name": "08c9d8f28d1815ae6898521b260cca09", "fusion_lat": 0.0, "type": "electric_scooter", "lat": 38.941740833333334, "is_reserved": 0, "is_disabled": 0, "fusion_lon": 0.0, "bike_id": "08c9d8f28d1815ae6898521b260cca09", "lon": -77.04134666666667, "rental_uris": {"ios": "https://dc.lft.to/lastmile_qr_scan", "android": "https://dc.lft.to/lastmile_qr_scan"}}, {"name": "9e196abbd2a198e3834037eb9e8ce7b1", "fusion_lat": 0.0, "type": "electric_scooter", "lat": 38.9003645, "is_reserved": 0, "is_disabled": 0, "fusion_lon": 0.0, "bike_id": "9e196abbd2a198e3834037eb9e8ce7b1", "lon": -77.01183416666667, "rental_uris": {"ios": "https://dc.lft.to/lastmile_qr_scan", "android": "https://dc.lft.to/lastmile_qr_scan"}}, {"name": "602ede5fb799f92a908e0e0280dbae81", "fusion_lat": 0.0, "type": "electric_scooter", "lat": 38.911512, "is_reserved": 0, "is_disabled": 0, "fusion_lon": 0.0, "bike_id": "602ede5fb799f92a908e0e0280dbae81", "lon": -77.0443065, "rental_uris": {"ios": "https://dc.lft.to/lastmile_qr_scan", "android": "https://dc.lft.to/lastmile_qr_scan"}}, {"name": "6ee580d2b40e199e56938812b75ded80", "fusion_lat": 0.0, "type": "electric_bike", "lat": 38.964968666666664, "is_reserved": 0, "is_disabled": 0, "fusion_lon": 0.0, "bike_id": "6ee580d2b40e199e56938812b75ded80", "lon": -77.064906, "rental_uris": {"ios": "https://dc.lft.to/lastmile_qr_scan", "android": "https://dc.lft.to/lastmile_qr_scan"}}, {"name": "4b619526be01b0fbfb0fc025e90c675b", "fusion_lat": 0.0, "type": "electric_scooter", "lat": 38.896522, "is_reserved": 0, "is_disabled": 0, "fusion_lon": 0.0, "bike_id": "4b619526be01b0fbfb0fc025e90c675b", "lon": -77.02976733333334, "rental_uris": {"ios": "https://dc.lft.to/lastmile_qr_scan", "android": "https://dc.lft.to/lastmile_qr_scan"}}, {"name": "d918f3b79eebf89b4e31140f13dcfe0e", "fusion_lat": 0.0, "type": "electric_scooter", "lat": 38.920722166666664, "is_reserved": 0, "is_disabled": 0, "fusion_lon": 0.0, "bike_id": "d918f3b79eebf89b4e31140f13dcfe0e", "lon": -77.0241025, "rental_uris": {"ios": "https://dc.lft.to/lastmile_qr_scan", "android": "https://dc.lft.to/lastmile_qr_scan"}}, {"name": "d0b8aea54dedb5a435cf5e72413123ba", "fusion_lat": 0.0, "type": "electric_scooter", "lat": 38.89845483333333, "is_reserved": 0, "is_disabled": 0, "fusion_lon": 0.0, "bike_id": "d0b8aea54dedb5a435cf5e72413123ba", "lon": -77.02928266666666, "rental_uris": {"ios": "https://dc.lft.to/lastmile_qr_scan", "android": "https://dc.lft.to/lastmile_qr_scan"}}, {"name": "38da65c9a68f39f1d332e6d25f3694d7", "fusion_lat": 0.0, "type": "electric_scooter", "lat": 38.91981083333334, "is_reserved": 0, "is_disabled": 0, "fusion_lon": 0.0, "bike_id": "38da65c9a68f39f1d332e6d25f3694d7", "lon": -77.021922, "rental_uris": {"ios": "https://dc.lft.to/lastmile_qr_scan", "android": "https://dc.lft.to/lastmile_qr_scan"}}, {"name": "15fcaf7d136f9b0dd5c04fbbea80dde0", "fusion_lat": 0.0, "type": "electric_scooter", "lat": 38.8948055, "is_reserved": 0, "is_disabled": 0, "fusion_lon": 0.0, "bike_id": "15fcaf7d136f9b0dd5c04fbbea80dde0", "lon": -77.00136366666666, "rental_uris": {"ios": "https://dc.lft.to/lastmile_qr_scan", "android": "https://dc.lft.to/lastmile_qr_scan"}}, {"name": "4457eda3423aceeb585cdd022ea18396", "fusion_lat": 0.0, "type": "electric_scooter", "lat": 38.920644, "is_reserved": 0, "is_disabled": 0, "fusion_lon": 0.0, "bike_id": "4457eda3423aceeb585cdd022ea18396", "lon": -77.02960716666666, "rental_uris": {"ios": "https://dc.lft.to/lastmile_qr_scan", "android": "https://dc.lft.to/lastmile_qr_scan"}}, {"name": "c24d0dcd39609b4a9ee54ec55f6c2568", "fusion_lat": 0.0, "type": "electric_scooter", "lat": 38.90634766666667, "is_reserved": 0, "is_disabled": 0, "fusion_lon": 0.0, "bike_id": "c24d0dcd39609b4a9ee54ec55f6c2568", "lon": -77.00578116666667, "rental_uris": {"ios": "https://dc.lft.to/lastmile_qr_scan", "android": "https://dc.lft.to/lastmile_qr_scan"}}, {"name": "784264dbd7aaa30db2d0a1a2d6a18776", "fusion_lat": 0.0, "type": "electric_scooter", "lat": 38.90377516666667, "is_reserved": 0, "is_disabled": 0, "fusion_lon": 0.0, "bike_id": "784264dbd7aaa30db2d0a1a2d6a18776", "lon": -77.04506083333334, "rental_uris": {"ios": "https://dc.lft.to/lastmile_qr_scan", "android": "https://dc.lft.to/lastmile_qr_scan"}}, {"name": "61ac604fd95f0537568a3d05ac513392", "fusion_lat": 0.0, "type": "electric_scooter", "lat": 38.90584883333333, "is_reserved": 0, "is_disabled": 0, "fusion_lon": 0.0, "bike_id": "61ac604fd95f0537568a3d05ac513392", "lon": -77.04383183333333, "rental_uris": {"ios": "https://dc.lft.to/lastmile_qr_scan", "android": "https://dc.lft.to/lastmile_qr_scan"}}, {"name": "eecefbd68c9ed5aec154df302b8de534", "fusion_lat": 0.0, "type": "electric_scooter", "lat": 38.90383333333333, "is_reserved": 0, "is_disabled": 0, "fusion_lon": 0.0, "bike_id": "eecefbd68c9ed5aec154df302b8de534", "lon": -77.0321295, "rental_uris": {"ios": "https://dc.lft.to/lastmile_qr_scan", "android": "https://dc.lft.to/lastmile_qr_scan"}}, {"name": "359239b7e5b4acb3a67567883f391da6", "fusion_lat": 0.0, "type": "electric_scooter", "lat": 38.901676, "is_reserved": 0, "is_disabled": 0, "fusion_lon": 0.0, "bike_id": "359239b7e5b4acb3a67567883f391da6", "lon": -77.04504416666667, "rental_uris": {"ios": "https://dc.lft.to/lastmile_qr_scan", "android": "https://dc.lft.to/lastmile_qr_scan"}}, {"name": "d2d178c6778f3d16b49177a0c8dcc93c", "fusion_lat": 0.0, "type": "electric_scooter", "lat": 38.86211266666667, "is_reserved": 0, "is_disabled": 0, "fusion_lon": 0.0, "bike_id": "d2d178c6778f3d16b49177a0c8dcc93c", "lon": -76.99468766666666, "rental_uris": {"ios": "https://dc.lft.to/lastmile_qr_scan", "android": "https://dc.lft.to/lastmile_qr_scan"}}, {"name": "515f5ff30c00adadc161be1462790b25", "fusion_lat": 0.0, "type": "electric_scooter", "lat": 38.876734166666665, "is_reserved": 0, "is_disabled": 0, "fusion_lon": 0.0, "bike_id": "515f5ff30c00adadc161be1462790b25", "lon": -77.0178375, "rental_uris": {"ios": "https://dc.lft.to/lastmile_qr_scan", "android": "https://dc.lft.to/lastmile_qr_scan"}}, {"name": "a909c89a14bca763e441480a581ffef1", "fusion_lat": 0.0, "type": "electric_scooter", "lat": 38.89551216666667, "is_reserved": 0, "is_disabled": 0, "fusion_lon": 0.0, "bike_id": "a909c89a14bca763e441480a581ffef1", "lon": -76.94878433333334, "rental_uris": {"ios": "https://dc.lft.to/lastmile_qr_scan", "android": "https://dc.lft.to/lastmile_qr_scan"}}, {"name": "af0bc622123b2cd384905cf62ad9c652", "fusion_lat": 0.0, "type": "electric_scooter", "lat": 38.911865166666665, "is_reserved": 0, "is_disabled": 0, "fusion_lon": 0.0, "bike_id": "af0bc622123b2cd384905cf62ad9c652", "lon": -77.03256233333333, "rental_uris": {"ios": "https://dc.lft.to/lastmile_qr_scan", "android": "https://dc.lft.to/lastmile_qr_scan"}}, {"name": "5927b962db6edb3ee06c184a24782cfb", "fusion_lat": 0.0, "type": "electric_scooter", "lat": 38.92361283333334, "is_reserved": 0, "is_disabled": 0, "fusion_lon": 0.0, "bike_id": "5927b962db6edb3ee06c184a24782cfb", "lon": -77.05086683333333, "rental_uris": {"ios": "https://dc.lft.to/lastmile_qr_scan", "android": "https://dc.lft.to/lastmile_qr_scan"}}, {"name": "218879c9207a10088f42463809809dcd", "fusion_lat": 0.0, "type": "electric_scooter", "lat": 38.902849, "is_reserved": 0, "is_disabled": 0, "fusion_lon": 0.0, "bike_id": "218879c9207a10088f42463809809dcd", "lon": -77.03668166666667, "rental_uris": {"ios": "https://dc.lft.to/lastmile_qr_scan", "android": "https://dc.lft.to/lastmile_qr_scan"}}, {"name": "75e781b2e2afeb0b96179da1d389a0c1", "fusion_lat": 0.0, "type": "electric_scooter", "lat": 38.89249983333333, "is_reserved": 0, "is_disabled": 0, "fusion_lon": 0.0, "bike_id": "75e781b2e2afeb0b96179da1d389a0c1", "lon": -77.01948733333333, "rental_uris": {"ios": "https://dc.lft.to/lastmile_qr_scan", "android": "https://dc.lft.to/lastmile_qr_scan"}}, {"name": "eb41afe9e3509cb1f2adbff71b9f4a18", "fusion_lat": 0.0, "type": "electric_scooter", "lat": 38.898961166666666, "is_reserved": 0, "is_disabled": 0, "fusion_lon": 0.0, "bike_id": "eb41afe9e3509cb1f2adbff71b9f4a18", "lon": -77.015321, "rental_uris": {"ios": "https://dc.lft.to/lastmile_qr_scan", "android": "https://dc.lft.to/lastmile_qr_scan"}}, {"name": "4fd91168ab8a603afd219e47ab987368", "fusion_lat": 0.0, "type": "electric_scooter", "lat": 38.910477666666665, "is_reserved": 0, "is_disabled": 0, "fusion_lon": 0.0, "bike_id": "4fd91168ab8a603afd219e47ab987368", "lon": -77.03184166666666, "rental_uris": {"ios": "https://dc.lft.to/lastmile_qr_scan", "android": "https://dc.lft.to/lastmile_qr_scan"}}, {"name": "d061804f6882c6cf8529a4286285fa88", "fusion_lat": 0.0, "type": "electric_scooter", "lat": 38.91684566666667, "is_reserved": 0, "is_disabled": 0, "fusion_lon": 0.0, "bike_id": "d061804f6882c6cf8529a4286285fa88", "lon": -77.0297425, "rental_uris": {"ios": "https://dc.lft.to/lastmile_qr_scan", "android": "https://dc.lft.to/lastmile_qr_scan"}}, {"name": "408bfb8d1542783b657aa21599694d78", "fusion_lat": 0.0, "type": "electric_scooter", "lat": 38.899931, "is_reserved": 0, "is_disabled": 0, "fusion_lon": 0.0, "bike_id": "408bfb8d1542783b657aa21599694d78", "lon": -77.02705966666667, "rental_uris": {"ios": "https://dc.lft.to/lastmile_qr_scan", "android": "https://dc.lft.to/lastmile_qr_scan"}}, {"name": "de546885678142d24ce4eeb454dfd8ef", "fusion_lat": 0.0, "type": "electric_scooter", "lat": 38.90532666666667, "is_reserved": 0, "is_disabled": 0, "fusion_lon": 0.0, "bike_id": "de546885678142d24ce4eeb454dfd8ef", "lon": -77.0652435, "rental_uris": {"ios": "https://dc.lft.to/lastmile_qr_scan", "android": "https://dc.lft.to/lastmile_qr_scan"}}, {"name": "918b8a28c04b8bdc62f22c3366818d2a", "fusion_lat": 0.0, "type": "electric_scooter", "lat": 38.91102866666667, "is_reserved": 0, "is_disabled": 0, "fusion_lon": 0.0, "bike_id": "918b8a28c04b8bdc62f22c3366818d2a", "lon": -77.0105655, "rental_uris": {"ios": "https://dc.lft.to/lastmile_qr_scan", "android": "https://dc.lft.to/lastmile_qr_scan"}}, {"name": "cb1be2b0a119107035f175387a337a04", "fusion_lat": 0.0, "type": "electric_scooter", "lat": 38.89561466666667, "is_reserved": 0, "is_disabled": 0, "fusion_lon": 0.0, "bike_id": "cb1be2b0a119107035f175387a337a04", "lon": -77.01107383333333, "rental_uris": {"ios": "https://dc.lft.to/lastmile_qr_scan", "android": "https://dc.lft.to/lastmile_qr_scan"}}, {"name": "ca1489178e58d56d77d83204e25a9a08", "fusion_lat": 0.0, "type": "electric_scooter", "lat": 38.89239383333334, "is_reserved": 0, "is_disabled": 0, "fusion_lon": 0.0, "bike_id": "ca1489178e58d56d77d83204e25a9a08", "lon": -77.0318405, "rental_uris": {"ios": "https://dc.lft.to/lastmile_qr_scan", "android": "https://dc.lft.to/lastmile_qr_scan"}}, {"name": "cad25c2a442e2b4c89e84e9a256caaec", "fusion_lat": 0.0, "type": "electric_scooter", "lat": 38.9007095, "is_reserved": 0, "is_disabled": 0, "fusion_lon": 0.0, "bike_id": "cad25c2a442e2b4c89e84e9a256caaec", "lon": -77.048947, "rental_uris": {"ios": "https://dc.lft.to/lastmile_qr_scan", "android": "https://dc.lft.to/lastmile_qr_scan"}}, {"name": "0a85c8b4fa5075b00be790f26d7f412e", "fusion_lat": 0.0, "type": "electric_scooter", "lat": 38.923133666666665, "is_reserved": 0, "is_disabled": 0, "fusion_lon": 0.0, "bike_id": "0a85c8b4fa5075b00be790f26d7f412e", "lon": -77.03956783333334, "rental_uris": {"ios": "https://dc.lft.to/lastmile_qr_scan", "android": "https://dc.lft.to/lastmile_qr_scan"}}, {"name": "c59a9dab81bb7d21cae9c416bd43d8eb", "fusion_lat": 0.0, "type": "electric_scooter", "lat": 38.950877, "is_reserved": 0, "is_disabled": 0, "fusion_lon": 0.0, "bike_id": "c59a9dab81bb7d21cae9c416bd43d8eb", "lon": -77.028364, "rental_uris": {"ios": "https://dc.lft.to/lastmile_qr_scan", "android": "https://dc.lft.to/lastmile_qr_scan"}}, {"name": "d782e2538b7a6841e96a89f7afca095b", "fusion_lat": 0.0, "type": "electric_scooter", "lat": 38.907168666666664, "is_reserved": 0, "is_disabled": 0, "fusion_lon": 0.0, "bike_id": "d782e2538b7a6841e96a89f7afca095b", "lon": -77.04797566666667, "rental_uris": {"ios": "https://dc.lft.to/lastmile_qr_scan", "android": "https://dc.lft.to/lastmile_qr_scan"}}, {"name": "c0074d04557daa04c22ce01943c4f957", "fusion_lat": 0.0, "type": "electric_scooter", "lat": 38.92242133333333, "is_reserved": 0, "is_disabled": 0, "fusion_lon": 0.0, "bike_id": "c0074d04557daa04c22ce01943c4f957", "lon": -77.0308895, "rental_uris": {"ios": "https://dc.lft.to/lastmile_qr_scan", "android": "https://dc.lft.to/lastmile_qr_scan"}}, {"name": "a71e1fd62453267197cc4f0363b7e38a", "fusion_lat": 0.0, "type": "electric_scooter", "lat": 38.902730166666665, "is_reserved": 0, "is_disabled": 0, "fusion_lon": 0.0, "bike_id": "a71e1fd62453267197cc4f0363b7e38a", "lon": -77.01541233333333, "rental_uris": {"ios": "https://dc.lft.to/lastmile_qr_scan", "android": "https://dc.lft.to/lastmile_qr_scan"}}, {"name": "ca9150b2800fd72a0a8c987f9a31fe11", "fusion_lat": 0.0, "type": "electric_scooter", "lat": 38.9055795, "is_reserved": 0, "is_disabled": 0, "fusion_lon": 0.0, "bike_id": "ca9150b2800fd72a0a8c987f9a31fe11", "lon": -77.0379415, "rental_uris": {"ios": "https://dc.lft.to/lastmile_qr_scan", "android": "https://dc.lft.to/lastmile_qr_scan"}}, {"name": "33d4881751065a11e12fe4ee43d2759d", "fusion_lat": 0.0, "type": "electric_scooter", "lat": 38.942091, "is_reserved": 0, "is_disabled": 0, "fusion_lon": 0.0, "bike_id": "33d4881751065a11e12fe4ee43d2759d", "lon": -77.01497333333333, "rental_uris": {"ios": "https://dc.lft.to/lastmile_qr_scan", "android": "https://dc.lft.to/lastmile_qr_scan"}}, {"name": "4b9c12e4384c6cdce4a62b4886e59625", "fusion_lat": 0.0, "type": "electric_scooter", "lat": 38.905195166666665, "is_reserved": 0, "is_disabled": 0, "fusion_lon": 0.0, "bike_id": "4b9c12e4384c6cdce4a62b4886e59625", "lon": -77.06935816666666, "rental_uris": {"ios": "https://dc.lft.to/lastmile_qr_scan", "android": "https://dc.lft.to/lastmile_qr_scan"}}, {"name": "4820e7173d45940dd33e61b8cc7f1c21", "fusion_lat": 0.0, "type": "electric_scooter", "lat": 38.9206405, "is_reserved": 0, "is_disabled": 0, "fusion_lon": 0.0, "bike_id": "4820e7173d45940dd33e61b8cc7f1c21", "lon": -76.97810116666666, "rental_uris": {"ios": "https://dc.lft.to/lastmile_qr_scan", "android": "https://dc.lft.to/lastmile_qr_scan"}}, {"name": "20296faa3827cc3b9a7fb1dd60d45213", "fusion_lat": 0.0, "type": "electric_scooter", "lat": 38.923435166666664, "is_reserved": 0, "is_disabled": 0, "fusion_lon": 0.0, "bike_id": "20296faa3827cc3b9a7fb1dd60d45213", "lon": -77.019, "rental_uris": {"ios": "https://dc.lft.to/lastmile_qr_scan", "android": "https://dc.lft.to/lastmile_qr_scan"}}, {"name": "4d9123625be0daf2912de170e9fcda52", "fusion_lat": 0.0, "type": "electric_bike", "lat": 38.878780166666665, "is_reserved": 0, "is_disabled": 0, "fusion_lon": 0.0, "bike_id": "4d9123625be0daf2912de170e9fcda52", "lon": -77.02319966666667, "rental_uris": {"ios": "https://dc.lft.to/lastmile_qr_scan", "android": "https://dc.lft.to/lastmile_qr_scan"}}, {"name": "95ac82a167eb8ca80e96dfc65bc0e32c", "fusion_lat": 0.0, "type": "electric_scooter", "lat": 38.926268, "is_reserved": 0, "is_disabled": 0, "fusion_lon": 0.0, "bike_id": "95ac82a167eb8ca80e96dfc65bc0e32c", "lon": -77.035014, "rental_uris": {"ios": "https://dc.lft.to/lastmile_qr_scan", "android": "https://dc.lft.to/lastmile_qr_scan"}}, {"name": "1c53eb0bd4cef31f720c5c3e887744e5", "fusion_lat": 0.0, "type": "electric_scooter", "lat": 38.911789666666664, "is_reserved": 0, "is_disabled": 0, "fusion_lon": 0.0, "bike_id": "1c53eb0bd4cef31f720c5c3e887744e5", "lon": -77.069242, "rental_uris": {"ios": "https://dc.lft.to/lastmile_qr_scan", "android": "https://dc.lft.to/lastmile_qr_scan"}}, {"name": "f5db26951360b1ad9b23e396d1d95297", "fusion_lat": 0.0, "type": "electric_scooter", "lat": 38.902686, "is_reserved": 0, "is_disabled": 0, "fusion_lon": 0.0, "bike_id": "f5db26951360b1ad9b23e396d1d95297", "lon": -77.04604, "rental_uris": {"ios": "https://dc.lft.to/lastmile_qr_scan", "android": "https://dc.lft.to/lastmile_qr_scan"}}, {"name": "05fe5429f5a027947a028e9f4b2f332d", "fusion_lat": 0.0, "type": "electric_scooter", "lat": 38.91532683333333, "is_reserved": 0, "is_disabled": 0, "fusion_lon": 0.0, "bike_id": "05fe5429f5a027947a028e9f4b2f332d", "lon": -77.012147, "rental_uris": {"ios": "https://dc.lft.to/lastmile_qr_scan", "android": "https://dc.lft.to/lastmile_qr_scan"}}, {"name": "b4ff36424d9ea2ad049a518b94b72757", "fusion_lat": 0.0, "type": "electric_scooter", "lat": 38.90963683333333, "is_reserved": 0, "is_disabled": 0, "fusion_lon": 0.0, "bike_id": "b4ff36424d9ea2ad049a518b94b72757", "lon": -77.011255, "rental_uris": {"ios": "https://dc.lft.to/lastmile_qr_scan", "android": "https://dc.lft.to/lastmile_qr_scan"}}, {"name": "e60b13a6a276dbda12fc0587ce53a827", "fusion_lat": 0.0, "type": "electric_scooter", "lat": 38.89904466666667, "is_reserved": 0, "is_disabled": 0, "fusion_lon": 0.0, "bike_id": "e60b13a6a276dbda12fc0587ce53a827", "lon": -77.03332933333333, "rental_uris": {"ios": "https://dc.lft.to/lastmile_qr_scan", "android": "https://dc.lft.to/lastmile_qr_scan"}}, {"name": "5839a45e58d2c97d09f6c46314c821a1", "fusion_lat": 0.0, "type": "electric_scooter", "lat": 38.917202833333334, "is_reserved": 0, "is_disabled": 0, "fusion_lon": 0.0, "bike_id": "5839a45e58d2c97d09f6c46314c821a1", "lon": -77.0081285, "rental_uris": {"ios": "https://dc.lft.to/lastmile_qr_scan", "android": "https://dc.lft.to/lastmile_qr_scan"}}, {"name": "0b25bc5529bfe5974e9fb364a4b635e6", "fusion_lat": 0.0, "type": "electric_scooter", "lat": 38.900292666666665, "is_reserved": 0, "is_disabled": 0, "fusion_lon": 0.0, "bike_id": "0b25bc5529bfe5974e9fb364a4b635e6", "lon": -77.03205433333333, "rental_uris": {"ios": "https://dc.lft.to/lastmile_qr_scan", "android": "https://dc.lft.to/lastmile_qr_scan"}}, {"name": "4f8fbeed2cffe899843e5d4c92191aef", "fusion_lat": 0.0, "type": "electric_scooter", "lat": 38.865375, "is_reserved": 0, "is_disabled": 0, "fusion_lon": 0.0, "bike_id": "4f8fbeed2cffe899843e5d4c92191aef", "lon": -76.98710233333334, "rental_uris": {"ios": "https://dc.lft.to/lastmile_qr_scan", "android": "https://dc.lft.to/lastmile_qr_scan"}}, {"name": "f3ab0fd50ae745a69fac558d0867b91f", "fusion_lat": 0.0, "type": "electric_scooter", "lat": 38.8833215, "is_reserved": 0, "is_disabled": 0, "fusion_lon": 0.0, "bike_id": "f3ab0fd50ae745a69fac558d0867b91f", "lon": -77.0153815, "rental_uris": {"ios": "https://dc.lft.to/lastmile_qr_scan", "android": "https://dc.lft.to/lastmile_qr_scan"}}, {"name": "c1081eb27082c202d4160164a0641769", "fusion_lat": 0.0, "type": "electric_scooter", "lat": 38.902365333333336, "is_reserved": 0, "is_disabled": 0, "fusion_lon": 0.0, "bike_id": "c1081eb27082c202d4160164a0641769", "lon": -77.04373083333333, "rental_uris": {"ios": "https://dc.lft.to/lastmile_qr_scan", "android": "https://dc.lft.to/lastmile_qr_scan"}}, {"name": "51da6b3803dd42f80e8820c81ff07c99", "fusion_lat": 0.0, "type": "electric_scooter", "lat": 38.911926333333334, "is_reserved": 0, "is_disabled": 0, "fusion_lon": 0.0, "bike_id": "51da6b3803dd42f80e8820c81ff07c99", "lon": -76.99619966666667, "rental_uris": {"ios": "https://dc.lft.to/lastmile_qr_scan", "android": "https://dc.lft.to/lastmile_qr_scan"}}, {"name": "b27b744f8ed45b63772e8a712d959a91", "fusion_lat": 0.0, "type": "electric_scooter", "lat": 38.89834033333333, "is_reserved": 0, "is_disabled": 0, "fusion_lon": 0.0, "bike_id": "b27b744f8ed45b63772e8a712d959a91", "lon": -76.94641883333334, "rental_uris": {"ios": "https://dc.lft.to/lastmile_qr_scan", "android": "https://dc.lft.to/lastmile_qr_scan"}}, {"name": "65952f9ba45bb973e136e6b429926430", "fusion_lat": 0.0, "type": "electric_scooter", "lat": 38.961135, "is_reserved": 0, "is_disabled": 0, "fusion_lon": 0.0, "bike_id": "65952f9ba45bb973e136e6b429926430", "lon": -77.0281365, "rental_uris": {"ios": "https://dc.lft.to/lastmile_qr_scan", "android": "https://dc.lft.to/lastmile_qr_scan"}}, {"name": "bbf0ff7193a77246f8b29e6e204578f2", "fusion_lat": 0.0, "type": "electric_scooter", "lat": 38.88498366666666, "is_reserved": 0, "is_disabled": 0, "fusion_lon": 0.0, "bike_id": "bbf0ff7193a77246f8b29e6e204578f2", "lon": -77.00726383333334, "rental_uris": {"ios": "https://dc.lft.to/lastmile_qr_scan", "android": "https://dc.lft.to/lastmile_qr_scan"}}, {"name": "6c44e8c86ac60d581bda61442828329e", "fusion_lat": 0.0, "type": "electric_scooter", "lat": 38.921502833333335, "is_reserved": 0, "is_disabled": 0, "fusion_lon": 0.0, "bike_id": "6c44e8c86ac60d581bda61442828329e", "lon": -77.035111, "rental_uris": {"ios": "https://dc.lft.to/lastmile_qr_scan", "android": "https://dc.lft.to/lastmile_qr_scan"}}, {"name": "c8b2252e7ea0852ef2b73895e5c5486c", "fusion_lat": 0.0, "type": "electric_scooter", "lat": 38.90682066666667, "is_reserved": 0, "is_disabled": 0, "fusion_lon": 0.0, "bike_id": "c8b2252e7ea0852ef2b73895e5c5486c", "lon": -77.03649533333333, "rental_uris": {"ios": "https://dc.lft.to/lastmile_qr_scan", "android": "https://dc.lft.to/lastmile_qr_scan"}}, {"name": "90b82949e6ffa5f138bf846661c923c4", "fusion_lat": 0.0, "type": "electric_scooter", "lat": 38.92318616666667, "is_reserved": 0, "is_disabled": 0, "fusion_lon": 0.0, "bike_id": "90b82949e6ffa5f138bf846661c923c4", "lon": -77.0452085, "rental_uris": {"ios": "https://dc.lft.to/lastmile_qr_scan", "android": "https://dc.lft.to/lastmile_qr_scan"}}, {"name": "f5ee9ee028a41d6665d467df86c65c85", "fusion_lat": 0.0, "type": "electric_scooter", "lat": 38.9199485, "is_reserved": 0, "is_disabled": 0, "fusion_lon": 0.0, "bike_id": "f5ee9ee028a41d6665d467df86c65c85", "lon": -77.0218775, "rental_uris": {"ios": "https://dc.lft.to/lastmile_qr_scan", "android": "https://dc.lft.to/lastmile_qr_scan"}}, {"name": "8d4b4325e146bb1a8453579784363c46", "fusion_lat": 0.0, "type": "electric_scooter", "lat": 38.919468333333334, "is_reserved": 0, "is_disabled": 0, "fusion_lon": 0.0, "bike_id": "8d4b4325e146bb1a8453579784363c46", "lon": -77.01349566666667, "rental_uris": {"ios": "https://dc.lft.to/lastmile_qr_scan", "android": "https://dc.lft.to/lastmile_qr_scan"}}, {"name": "78bd58f69576475194b7349be1f8c7cd", "fusion_lat": 0.0, "type": "electric_scooter", "lat": 38.88742283333333, "is_reserved": 0, "is_disabled": 0, "fusion_lon": 0.0, "bike_id": "78bd58f69576475194b7349be1f8c7cd", "lon": -77.025682, "rental_uris": {"ios": "https://dc.lft.to/lastmile_qr_scan", "android": "https://dc.lft.to/lastmile_qr_scan"}}, {"name": "4014174c4420b0826fa350a35c12a8b2", "fusion_lat": 0.0, "type": "electric_scooter", "lat": 38.90134116666667, "is_reserved": 0, "is_disabled": 0, "fusion_lon": 0.0, "bike_id": "4014174c4420b0826fa350a35c12a8b2", "lon": -77.04752483333333, "rental_uris": {"ios": "https://dc.lft.to/lastmile_qr_scan", "android": "https://dc.lft.to/lastmile_qr_scan"}}, {"name": "5a4070924e8426f8918a5942e30ed16a", "fusion_lat": 0.0, "type": "electric_scooter", "lat": 38.941861, "is_reserved": 0, "is_disabled": 0, "fusion_lon": 0.0, "bike_id": "5a4070924e8426f8918a5942e30ed16a", "lon": -77.024904, "rental_uris": {"ios": "https://dc.lft.to/lastmile_qr_scan", "android": "https://dc.lft.to/lastmile_qr_scan"}}, {"name": "f0016e2dcc2306a07565d388b15c12ab", "fusion_lat": 0.0, "type": "electric_scooter", "lat": 38.923735666666666, "is_reserved": 0, "is_disabled": 0, "fusion_lon": 0.0, "bike_id": "f0016e2dcc2306a07565d388b15c12ab", "lon": -77.01912083333333, "rental_uris": {"ios": "https://dc.lft.to/lastmile_qr_scan", "android": "https://dc.lft.to/lastmile_qr_scan"}}, {"name": "3d70370122c74c5c0d58e30780d154fc", "fusion_lat": 0.0, "type": "electric_scooter", "lat": 38.86206033333333, "is_reserved": 0, "is_disabled": 0, "fusion_lon": 0.0, "bike_id": "3d70370122c74c5c0d58e30780d154fc", "lon": -76.99464816666666, "rental_uris": {"ios": "https://dc.lft.to/lastmile_qr_scan", "android": "https://dc.lft.to/lastmile_qr_scan"}}, {"name": "0125b794dd9d722a2cf308a9cf9807a8", "fusion_lat": 0.0, "type": "electric_scooter", "lat": 38.8775345, "is_reserved": 0, "is_disabled": 0, "fusion_lon": 0.0, "bike_id": "0125b794dd9d722a2cf308a9cf9807a8", "lon": -76.97243833333333, "rental_uris": {"ios": "https://dc.lft.to/lastmile_qr_scan", "android": "https://dc.lft.to/lastmile_qr_scan"}}, {"name": "7d4cefcbf0a82c4381619f0934160c6b", "fusion_lat": 0.0, "type": "electric_scooter", "lat": 38.92898533333333, "is_reserved": 0, "is_disabled": 0, "fusion_lon": 0.0, "bike_id": "7d4cefcbf0a82c4381619f0934160c6b", "lon": -77.024959, "rental_uris": {"ios": "https://dc.lft.to/lastmile_qr_scan", "android": "https://dc.lft.to/lastmile_qr_scan"}}, {"name": "29a538e547ac200018783016e897afc5", "fusion_lat": 0.0, "type": "electric_scooter", "lat": 38.8960015, "is_reserved": 0, "is_disabled": 0, "fusion_lon": 0.0, "bike_id": "29a538e547ac200018783016e897afc5", "lon": -77.01816783333334, "rental_uris": {"ios": "https://dc.lft.to/lastmile_qr_scan", "android": "https://dc.lft.to/lastmile_qr_scan"}}, {"name": "c48cf982986006d8ad199d102804fd3d", "fusion_lat": 0.0, "type": "electric_scooter", "lat": 38.919083666666666, "is_reserved": 0, "is_disabled": 0, "fusion_lon": 0.0, "bike_id": "c48cf982986006d8ad199d102804fd3d", "lon": -77.034395, "rental_uris": {"ios": "https://dc.lft.to/lastmile_qr_scan", "android": "https://dc.lft.to/lastmile_qr_scan"}}, {"name": "505892969acc7a7414e85ab1a9b56a6a", "fusion_lat": 0.0, "type": "electric_scooter", "lat": 38.91480766666667, "is_reserved": 0, "is_disabled": 0, "fusion_lon": 0.0, "bike_id": "505892969acc7a7414e85ab1a9b56a6a", "lon": -77.04601316666667, "rental_uris": {"ios": "https://dc.lft.to/lastmile_qr_scan", "android": "https://dc.lft.to/lastmile_qr_scan"}}, {"name": "85413f0db835a0f1e60079ede9314081", "fusion_lat": 0.0, "type": "electric_scooter", "lat": 38.948371, "is_reserved": 0, "is_disabled": 0, "fusion_lon": 0.0, "bike_id": "85413f0db835a0f1e60079ede9314081", "lon": -77.025513, "rental_uris": {"ios": "https://dc.lft.to/lastmile_qr_scan", "android": "https://dc.lft.to/lastmile_qr_scan"}}, {"name": "06e903baa8a078f758760ee218890db0", "fusion_lat": 0.0, "type": "electric_scooter", "lat": 38.90814066666667, "is_reserved": 0, "is_disabled": 0, "fusion_lon": 0.0, "bike_id": "06e903baa8a078f758760ee218890db0", "lon": -77.03943233333334, "rental_uris": {"ios": "https://dc.lft.to/lastmile_qr_scan", "android": "https://dc.lft.to/lastmile_qr_scan"}}, {"name": "7dfb3eadd6756833413256473cb0c275", "fusion_lat": 0.0, "type": "electric_scooter", "lat": 38.9095925, "is_reserved": 0, "is_disabled": 0, "fusion_lon": 0.0, "bike_id": "7dfb3eadd6756833413256473cb0c275", "lon": -77.03420883333334, "rental_uris": {"ios": "https://dc.lft.to/lastmile_qr_scan", "android": "https://dc.lft.to/lastmile_qr_scan"}}, {"name": "d0adffba4beeb573931ec730eb502996", "fusion_lat": 0.0, "type": "electric_scooter", "lat": 38.926486, "is_reserved": 0, "is_disabled": 0, "fusion_lon": 0.0, "bike_id": "d0adffba4beeb573931ec730eb502996", "lon": -77.037148, "rental_uris": {"ios": "https://dc.lft.to/lastmile_qr_scan", "android": "https://dc.lft.to/lastmile_qr_scan"}}, {"name": "379ee5feeae696883c84ce8283f20005", "fusion_lat": 0.0, "type": "electric_scooter", "lat": 38.909667, "is_reserved": 0, "is_disabled": 0, "fusion_lon": 0.0, "bike_id": "379ee5feeae696883c84ce8283f20005", "lon": -77.01118566666666, "rental_uris": {"ios": "https://dc.lft.to/lastmile_qr_scan", "android": "https://dc.lft.to/lastmile_qr_scan"}}, {"name": "f135491492a50c9a1714a83dda6008eb", "fusion_lat": 0.0, "type": "electric_scooter", "lat": 38.901283, "is_reserved": 0, "is_disabled": 0, "fusion_lon": 0.0, "bike_id": "f135491492a50c9a1714a83dda6008eb", "lon": -77.06052366666667, "rental_uris": {"ios": "https://dc.lft.to/lastmile_qr_scan", "android": "https://dc.lft.to/lastmile_qr_scan"}}, {"name": "66760cd1957386e756bdd3dbc2fce55f", "fusion_lat": 0.0, "type": "electric_scooter", "lat": 38.900179333333334, "is_reserved": 0, "is_disabled": 0, "fusion_lon": 0.0, "bike_id": "66760cd1957386e756bdd3dbc2fce55f", "lon": -77.03332716666667, "rental_uris": {"ios": "https://dc.lft.to/lastmile_qr_scan", "android": "https://dc.lft.to/lastmile_qr_scan"}}, {"name": "01cf4348374e965bfab00940c4cd7937", "fusion_lat": 0.0, "type": "electric_scooter", "lat": 38.90258716666666, "is_reserved": 0, "is_disabled": 0, "fusion_lon": 0.0, "bike_id": "01cf4348374e965bfab00940c4cd7937", "lon": -77.0345355, "rental_uris": {"ios": "https://dc.lft.to/lastmile_qr_scan", "android": "https://dc.lft.to/lastmile_qr_scan"}}, {"name": "1f355622febac09b4a7c97346ffa623a", "fusion_lat": 0.0, "type": "electric_bike", "lat": 38.959293333333335, "is_reserved": 0, "is_disabled": 0, "fusion_lon": 0.0, "bike_id": "1f355622febac09b4a7c97346ffa623a", "lon": -76.92538033333334, "rental_uris": {"ios": "https://dc.lft.to/lastmile_qr_scan", "android": "https://dc.lft.to/lastmile_qr_scan"}}, {"name": "8d70260b694996e1b6085e9696ba6bfe", "fusion_lat": 0.0, "type": "electric_scooter", "lat": 38.89554283333333, "is_reserved": 0, "is_disabled": 0, "fusion_lon": 0.0, "bike_id": "8d70260b694996e1b6085e9696ba6bfe", "lon": -77.04666466666667, "rental_uris": {"ios": "https://dc.lft.to/lastmile_qr_scan", "android": "https://dc.lft.to/lastmile_qr_scan"}}, {"name": "df77a279eaf41f9222992481364e4991", "fusion_lat": 0.0, "type": "electric_bike", "lat": 38.87752033333334, "is_reserved": 0, "is_disabled": 0, "fusion_lon": 0.0, "bike_id": "df77a279eaf41f9222992481364e4991", "lon": -76.97981533333333, "rental_uris": {"ios": "https://dc.lft.to/lastmile_qr_scan", "android": "https://dc.lft.to/lastmile_qr_scan"}}, {"name": "96861095213b4c126dcce1978c5079ed", "fusion_lat": 0.0, "type": "electric_scooter", "lat": 38.928188, "is_reserved": 0, "is_disabled": 0, "fusion_lon": 0.0, "bike_id": "96861095213b4c126dcce1978c5079ed", "lon": -77.02254316666667, "rental_uris": {"ios": "https://dc.lft.to/lastmile_qr_scan", "android": "https://dc.lft.to/lastmile_qr_scan"}}, {"name": "8453ed187fd996e92c66539babd52dae", "fusion_lat": 0.0, "type": "electric_scooter", "lat": 38.8695925, "is_reserved": 0, "is_disabled": 0, "fusion_lon": 0.0, "bike_id": "8453ed187fd996e92c66539babd52dae", "lon": -77.01374133333333, "rental_uris": {"ios": "https://dc.lft.to/lastmile_qr_scan", "android": "https://dc.lft.to/lastmile_qr_scan"}}, {"name": "1b62ad5b9af8405b8fed5d4c53879699", "fusion_lat": 0.0, "type": "electric_scooter", "lat": 38.90367966666667, "is_reserved": 0, "is_disabled": 0, "fusion_lon": 0.0, "bike_id": "1b62ad5b9af8405b8fed5d4c53879699", "lon": -77.021943, "rental_uris": {"ios": "https://dc.lft.to/lastmile_qr_scan", "android": "https://dc.lft.to/lastmile_qr_scan"}}, {"name": "62c55d3376ee5917a018b2a225c2b554", "fusion_lat": 0.0, "type": "electric_scooter", "lat": 38.92482616666667, "is_reserved": 0, "is_disabled": 0, "fusion_lon": 0.0, "bike_id": "62c55d3376ee5917a018b2a225c2b554", "lon": -77.02714033333334, "rental_uris": {"ios": "https://dc.lft.to/lastmile_qr_scan", "android": "https://dc.lft.to/lastmile_qr_scan"}}, {"name": "1d6e664a1b52cd0f9ce502a05e80b798", "fusion_lat": 0.0, "type": "electric_scooter", "lat": 38.896431666666665, "is_reserved": 0, "is_disabled": 0, "fusion_lon": 0.0, "bike_id": "1d6e664a1b52cd0f9ce502a05e80b798", "lon": -77.0092815, "rental_uris": {"ios": "https://dc.lft.to/lastmile_qr_scan", "android": "https://dc.lft.to/lastmile_qr_scan"}}, {"name": "40d3149192bc390da1d923194b77308a", "fusion_lat": 0.0, "type": "electric_scooter", "lat": 38.9058025, "is_reserved": 0, "is_disabled": 0, "fusion_lon": 0.0, "bike_id": "40d3149192bc390da1d923194b77308a", "lon": -77.00294733333334, "rental_uris": {"ios": "https://dc.lft.to/lastmile_qr_scan", "android": "https://dc.lft.to/lastmile_qr_scan"}}, {"name": "57c84240531a6e0af4f7bce82de4aad9", "fusion_lat": 0.0, "type": "electric_bike", "lat": 38.95357166666667, "is_reserved": 0, "is_disabled": 0, "fusion_lon": 0.0, "bike_id": "57c84240531a6e0af4f7bce82de4aad9", "lon": -76.98090416666666, "rental_uris": {"ios": "https://dc.lft.to/lastmile_qr_scan", "android": "https://dc.lft.to/lastmile_qr_scan"}}, {"name": "ec5dbfdb292df56d255458f1ac8d9894", "fusion_lat": 0.0, "type": "electric_scooter", "lat": 38.97499366666667, "is_reserved": 0, "is_disabled": 0, "fusion_lon": 0.0, "bike_id": "ec5dbfdb292df56d255458f1ac8d9894", "lon": -77.01686116666667, "rental_uris": {"ios": "https://dc.lft.to/lastmile_qr_scan", "android": "https://dc.lft.to/lastmile_qr_scan"}}, {"name": "0234ff590f2903e253743749fc907f92", "fusion_lat": 0.0, "type": "electric_scooter", "lat": 38.91230183333333, "is_reserved": 0, "is_disabled": 0, "fusion_lon": 0.0, "bike_id": "0234ff590f2903e253743749fc907f92", "lon": -77.04872283333333, "rental_uris": {"ios": "https://dc.lft.to/lastmile_qr_scan", "android": "https://dc.lft.to/lastmile_qr_scan"}}, {"name": "7cdc5c0924ef0284b94588e7552d89e1", "fusion_lat": 0.0, "type": "electric_scooter", "lat": 38.9221405, "is_reserved": 0, "is_disabled": 0, "fusion_lon": 0.0, "bike_id": "7cdc5c0924ef0284b94588e7552d89e1", "lon": -77.04237583333334, "rental_uris": {"ios": "https://dc.lft.to/lastmile_qr_scan", "android": "https://dc.lft.to/lastmile_qr_scan"}}, {"name": "d3947ef297e87fb169e0ec32aa76a0e5", "fusion_lat": 0.0, "type": "electric_scooter", "lat": 38.8955145, "is_reserved": 0, "is_disabled": 0, "fusion_lon": 0.0, "bike_id": "d3947ef297e87fb169e0ec32aa76a0e5", "lon": -76.948852, "rental_uris": {"ios": "https://dc.lft.to/lastmile_qr_scan", "android": "https://dc.lft.to/lastmile_qr_scan"}}, {"name": "364f32e0b97518e59786750fedf304eb", "fusion_lat": 0.0, "type": "electric_bike", "lat": 38.9395635, "is_reserved": 0, "is_disabled": 0, "fusion_lon": 0.0, "bike_id": "364f32e0b97518e59786750fedf304eb", "lon": -77.360968, "rental_uris": {"ios": "https://dc.lft.to/lastmile_qr_scan", "android": "https://dc.lft.to/lastmile_qr_scan"}}, {"name": "46ba621e9babc453d94bc212e6e9785b", "fusion_lat": 0.0, "type": "electric_scooter", "lat": 38.89981816666667, "is_reserved": 0, "is_disabled": 0, "fusion_lon": 0.0, "bike_id": "46ba621e9babc453d94bc212e6e9785b", "lon": -77.02955566666667, "rental_uris": {"ios": "https://dc.lft.to/lastmile_qr_scan", "android": "https://dc.lft.to/lastmile_qr_scan"}}, {"name": "8df369779fa0bccc662e439d7ee6a918", "fusion_lat": 0.0, "type": "electric_scooter", "lat": 38.9025485, "is_reserved": 0, "is_disabled": 0, "fusion_lon": 0.0, "bike_id": "8df369779fa0bccc662e439d7ee6a918", "lon": -77.044683, "rental_uris": {"ios": "https://dc.lft.to/lastmile_qr_scan", "android": "https://dc.lft.to/lastmile_qr_scan"}}, {"name": "05ad7690dabaf83a741e5fc757df99af", "fusion_lat": 0.0, "type": "electric_scooter", "lat": 38.95524666666667, "is_reserved": 0, "is_disabled": 0, "fusion_lon": 0.0, "bike_id": "05ad7690dabaf83a741e5fc757df99af", "lon": -77.06995133333334, "rental_uris": {"ios": "https://dc.lft.to/lastmile_qr_scan", "android": "https://dc.lft.to/lastmile_qr_scan"}}, {"name": "a0c88f98f84b167a69eaa21a80434e65", "fusion_lat": 0.0, "type": "electric_scooter", "lat": 38.9212455, "is_reserved": 0, "is_disabled": 0, "fusion_lon": 0.0, "bike_id": "a0c88f98f84b167a69eaa21a80434e65", "lon": -77.03892933333333, "rental_uris": {"ios": "https://dc.lft.to/lastmile_qr_scan", "android": "https://dc.lft.to/lastmile_qr_scan"}}, {"name": "3d4b55e63ac44c130641035e24048c44", "fusion_lat": 0.0, "type": "electric_scooter", "lat": 38.92331816666667, "is_reserved": 0, "is_disabled": 0, "fusion_lon": 0.0, "bike_id": "3d4b55e63ac44c130641035e24048c44", "lon": -77.04305116666667, "rental_uris": {"ios": "https://dc.lft.to/lastmile_qr_scan", "android": "https://dc.lft.to/lastmile_qr_scan"}}, {"name": "167278db7113381df03b8193321341b9", "fusion_lat": 0.0, "type": "electric_scooter", "lat": 38.91940116666667, "is_reserved": 0, "is_disabled": 0, "fusion_lon": 0.0, "bike_id": "167278db7113381df03b8193321341b9", "lon": -77.04542266666667, "rental_uris": {"ios": "https://dc.lft.to/lastmile_qr_scan", "android": "https://dc.lft.to/lastmile_qr_scan"}}, {"name": "098dbb996061516951d2817bb0f788d9", "fusion_lat": 0.0, "type": "electric_scooter", "lat": 38.904840166666666, "is_reserved": 0, "is_disabled": 0, "fusion_lon": 0.0, "bike_id": "098dbb996061516951d2817bb0f788d9", "lon": -77.046722, "rental_uris": {"ios": "https://dc.lft.to/lastmile_qr_scan", "android": "https://dc.lft.to/lastmile_qr_scan"}}, {"name": "329779224254a1adb7fdecb7041f2c9e", "fusion_lat": 0.0, "type": "electric_bike", "lat": 38.899611166666666, "is_reserved": 0, "is_disabled": 0, "fusion_lon": 0.0, "bike_id": "329779224254a1adb7fdecb7041f2c9e", "lon": -77.047187, "rental_uris": {"ios": "https://dc.lft.to/lastmile_qr_scan", "android": "https://dc.lft.to/lastmile_qr_scan"}}, {"name": "b00f88afc299d5c3949b80bdcbfc1ae1", "fusion_lat": 0.0, "type": "electric_scooter", "lat": 38.892243, "is_reserved": 0, "is_disabled": 0, "fusion_lon": 0.0, "bike_id": "b00f88afc299d5c3949b80bdcbfc1ae1", "lon": -77.03097916666667, "rental_uris": {"ios": "https://dc.lft.to/lastmile_qr_scan", "android": "https://dc.lft.to/lastmile_qr_scan"}}, {"name": "207736bc3c09bf55312fb1a1dfc6bf29", "fusion_lat": 0.0, "type": "electric_scooter", "lat": 38.86073116666667, "is_reserved": 0, "is_disabled": 0, "fusion_lon": 0.0, "bike_id": "207736bc3c09bf55312fb1a1dfc6bf29", "lon": -76.96743033333334, "rental_uris": {"ios": "https://dc.lft.to/lastmile_qr_scan", "android": "https://dc.lft.to/lastmile_qr_scan"}}, {"name": "2ea6d8d4b6d2ab31e3212ad3bfe4aa75", "fusion_lat": 0.0, "type": "electric_bike", "lat": 38.91852633333333, "is_reserved": 0, "is_disabled": 0, "fusion_lon": 0.0, "bike_id": "2ea6d8d4b6d2ab31e3212ad3bfe4aa75", "lon": -76.96090766666667, "rental_uris": {"ios": "https://dc.lft.to/lastmile_qr_scan", "android": "https://dc.lft.to/lastmile_qr_scan"}}, {"name": "a83e0b45566ca14ed7d0ca749c9e9a02", "fusion_lat": 0.0, "type": "electric_scooter", "lat": 38.88743083333333, "is_reserved": 0, "is_disabled": 0, "fusion_lon": 0.0, "bike_id": "a83e0b45566ca14ed7d0ca749c9e9a02", "lon": -77.02833516666666, "rental_uris": {"ios": "https://dc.lft.to/lastmile_qr_scan", "android": "https://dc.lft.to/lastmile_qr_scan"}}, {"name": "982431ffb92880ef721a444c6d18516a", "fusion_lat": 0.0, "type": "electric_scooter", "lat": 38.90279666666667, "is_reserved": 0, "is_disabled": 0, "fusion_lon": 0.0, "bike_id": "982431ffb92880ef721a444c6d18516a", "lon": -77.03036166666666, "rental_uris": {"ios": "https://dc.lft.to/lastmile_qr_scan", "android": "https://dc.lft.to/lastmile_qr_scan"}}, {"name": "8a6e0d62c2612306544ee1b6097f03e8", "fusion_lat": 0.0, "type": "electric_bike", "lat": 38.824447166666666, "is_reserved": 0, "is_disabled": 0, "fusion_lon": 0.0, "bike_id": "8a6e0d62c2612306544ee1b6097f03e8", "lon": -77.070415, "rental_uris": {"ios": "https://dc.lft.to/lastmile_qr_scan", "android": "https://dc.lft.to/lastmile_qr_scan"}}, {"name": "521a2859fe1cd3bfafb9f2d308f78afb", "fusion_lat": 0.0, "type": "electric_scooter", "lat": 38.90027583333333, "is_reserved": 0, "is_disabled": 0, "fusion_lon": 0.0, "bike_id": "521a2859fe1cd3bfafb9f2d308f78afb", "lon": -77.03713416666666, "rental_uris": {"ios": "https://dc.lft.to/lastmile_qr_scan", "android": "https://dc.lft.to/lastmile_qr_scan"}}, {"name": "cb0a096502cb5fedc8ba8dd0c418c38b", "fusion_lat": 0.0, "type": "electric_scooter", "lat": 38.9068165, "is_reserved": 0, "is_disabled": 0, "fusion_lon": 0.0, "bike_id": "cb0a096502cb5fedc8ba8dd0c418c38b", "lon": -77.05582566666666, "rental_uris": {"ios": "https://dc.lft.to/lastmile_qr_scan", "android": "https://dc.lft.to/lastmile_qr_scan"}}, {"name": "6a839622b10ca7263d9a879b65e0662f", "fusion_lat": 0.0, "type": "electric_scooter", "lat": 38.920897, "is_reserved": 0, "is_disabled": 0, "fusion_lon": 0.0, "bike_id": "6a839622b10ca7263d9a879b65e0662f", "lon": -77.02233583333333, "rental_uris": {"ios": "https://dc.lft.to/lastmile_qr_scan", "android": "https://dc.lft.to/lastmile_qr_scan"}}, {"name": "1031247378aae9b0d38b5e430d520dce", "fusion_lat": 0.0, "type": "electric_scooter", "lat": 38.8962935, "is_reserved": 0, "is_disabled": 0, "fusion_lon": 0.0, "bike_id": "1031247378aae9b0d38b5e430d520dce", "lon": -77.02964933333334, "rental_uris": {"ios": "https://dc.lft.to/lastmile_qr_scan", "android": "https://dc.lft.to/lastmile_qr_scan"}}, {"name": "785d60be93cb5eba1c9873d314478970", "fusion_lat": 0.0, "type": "electric_bike", "lat": 38.92644333333333, "is_reserved": 0, "is_disabled": 0, "fusion_lon": 0.0, "bike_id": "785d60be93cb5eba1c9873d314478970", "lon": -77.0283925, "rental_uris": {"ios": "https://dc.lft.to/lastmile_qr_scan", "android": "https://dc.lft.to/lastmile_qr_scan"}}, {"name": "a17a3275e5952ac04ae6233e6061177e", "fusion_lat": 0.0, "type": "electric_scooter", "lat": 38.923081333333336, "is_reserved": 0, "is_disabled": 0, "fusion_lon": 0.0, "bike_id": "a17a3275e5952ac04ae6233e6061177e", "lon": -77.029754, "rental_uris": {"ios": "https://dc.lft.to/lastmile_qr_scan", "android": "https://dc.lft.to/lastmile_qr_scan"}}, {"name": "460ddfdbdd60d6d4a6dd04b2daeab222", "fusion_lat": 0.0, "type": "electric_scooter", "lat": 38.91720733333333, "is_reserved": 0, "is_disabled": 0, "fusion_lon": 0.0, "bike_id": "460ddfdbdd60d6d4a6dd04b2daeab222", "lon": -77.03836633333333, "rental_uris": {"ios": "https://dc.lft.to/lastmile_qr_scan", "android": "https://dc.lft.to/lastmile_qr_scan"}}, {"name": "110eae2be51f2d958ea32ad0c96d7b4f", "fusion_lat": 0.0, "type": "electric_scooter", "lat": 38.89917766666667, "is_reserved": 0, "is_disabled": 0, "fusion_lon": 0.0, "bike_id": "110eae2be51f2d958ea32ad0c96d7b4f", "lon": -76.93383016666667, "rental_uris": {"ios": "https://dc.lft.to/lastmile_qr_scan", "android": "https://dc.lft.to/lastmile_qr_scan"}}, {"name": "2d652cea89fafac41ae8ca841e32c035", "fusion_lat": 0.0, "type": "electric_scooter", "lat": 38.92045983333333, "is_reserved": 0, "is_disabled": 0, "fusion_lon": 0.0, "bike_id": "2d652cea89fafac41ae8ca841e32c035", "lon": -77.03472066666667, "rental_uris": {"ios": "https://dc.lft.to/lastmile_qr_scan", "android": "https://dc.lft.to/lastmile_qr_scan"}}, {"name": "ed16f6545d90ce352bf80b50ac950918", "fusion_lat": 0.0, "type": "electric_scooter", "lat": 38.925191833333336, "is_reserved": 0, "is_disabled": 0, "fusion_lon": 0.0, "bike_id": "ed16f6545d90ce352bf80b50ac950918", "lon": -77.00210866666667, "rental_uris": {"ios": "https://dc.lft.to/lastmile_qr_scan", "android": "https://dc.lft.to/lastmile_qr_scan"}}, {"name": "d6e85bcaf646010238de46f010f45fe7", "fusion_lat": 0.0, "type": "electric_scooter", "lat": 38.89620566666667, "is_reserved": 0, "is_disabled": 0, "fusion_lon": 0.0, "bike_id": "d6e85bcaf646010238de46f010f45fe7", "lon": -77.04659333333333, "rental_uris": {"ios": "https://dc.lft.to/lastmile_qr_scan", "android": "https://dc.lft.to/lastmile_qr_scan"}}, {"name": "8bcda59d61497bce71d959cbfb68addc", "fusion_lat": 0.0, "type": "electric_scooter", "lat": 38.90246533333333, "is_reserved": 0, "is_disabled": 0, "fusion_lon": 0.0, "bike_id": "8bcda59d61497bce71d959cbfb68addc", "lon": -77.04626066666667, "rental_uris": {"ios": "https://dc.lft.to/lastmile_qr_scan", "android": "https://dc.lft.to/lastmile_qr_scan"}}, {"name": "761e93ba651813d8a28f3f03c4ac2f66", "fusion_lat": 0.0, "type": "electric_scooter", "lat": 38.89675783333333, "is_reserved": 0, "is_disabled": 0, "fusion_lon": 0.0, "bike_id": "761e93ba651813d8a28f3f03c4ac2f66", "lon": -76.996225, "rental_uris": {"ios": "https://dc.lft.to/lastmile_qr_scan", "android": "https://dc.lft.to/lastmile_qr_scan"}}, {"name": "023460fc7b81368836adad46aad3e4c8", "fusion_lat": 0.0, "type": "electric_scooter", "lat": 38.924816666666665, "is_reserved": 0, "is_disabled": 0, "fusion_lon": 0.0, "bike_id": "023460fc7b81368836adad46aad3e4c8", "lon": -77.02272716666667, "rental_uris": {"ios": "https://dc.lft.to/lastmile_qr_scan", "android": "https://dc.lft.to/lastmile_qr_scan"}}, {"name": "595053a0ae1eee57b2d3d61c6582cf51", "fusion_lat": 0.0, "type": "electric_scooter", "lat": 38.897524, "is_reserved": 0, "is_disabled": 0, "fusion_lon": 0.0, "bike_id": "595053a0ae1eee57b2d3d61c6582cf51", "lon": -77.00764733333334, "rental_uris": {"ios": "https://dc.lft.to/lastmile_qr_scan", "android": "https://dc.lft.to/lastmile_qr_scan"}}, {"name": "30fa8d64b4ca41489d56f51349b5ee4f", "fusion_lat": 0.0, "type": "electric_scooter", "lat": 38.896196, "is_reserved": 0, "is_disabled": 0, "fusion_lon": 0.0, "bike_id": "30fa8d64b4ca41489d56f51349b5ee4f", "lon": -77.05068733333333, "rental_uris": {"ios": "https://dc.lft.to/lastmile_qr_scan", "android": "https://dc.lft.to/lastmile_qr_scan"}}, {"name": "0d157e989974b7036b072c3848a83525", "fusion_lat": 0.0, "type": "electric_scooter", "lat": 38.9312145, "is_reserved": 0, "is_disabled": 0, "fusion_lon": 0.0, "bike_id": "0d157e989974b7036b072c3848a83525", "lon": -77.0360115, "rental_uris": {"ios": "https://dc.lft.to/lastmile_qr_scan", "android": "https://dc.lft.to/lastmile_qr_scan"}}, {"name": "c7d40374326c090ca13f6ec2e95401a9", "fusion_lat": 0.0, "type": "electric_scooter", "lat": 38.898841166666664, "is_reserved": 0, "is_disabled": 0, "fusion_lon": 0.0, "bike_id": "c7d40374326c090ca13f6ec2e95401a9", "lon": -77.03342316666667, "rental_uris": {"ios": "https://dc.lft.to/lastmile_qr_scan", "android": "https://dc.lft.to/lastmile_qr_scan"}}, {"name": "54176bf4fe0a94628aa8b2859fd62f2c", "fusion_lat": 0.0, "type": "electric_scooter", "lat": 38.9390095, "is_reserved": 0, "is_disabled": 0, "fusion_lon": 0.0, "bike_id": "54176bf4fe0a94628aa8b2859fd62f2c", "lon": -77.032824, "rental_uris": {"ios": "https://dc.lft.to/lastmile_qr_scan", "android": "https://dc.lft.to/lastmile_qr_scan"}}, {"name": "84509792b9c08952e707f3f9943c328d", "fusion_lat": 0.0, "type": "electric_scooter", "lat": 38.899483000000004, "is_reserved": 0, "is_disabled": 0, "fusion_lon": 0.0, "bike_id": "84509792b9c08952e707f3f9943c328d", "lon": -77.0320935, "rental_uris": {"ios": "https://dc.lft.to/lastmile_qr_scan", "android": "https://dc.lft.to/lastmile_qr_scan"}}, {"name": "ee674c8de365cdcf4f07a4a0e3f85bed", "fusion_lat": 0.0, "type": "electric_scooter", "lat": 38.87285883333333, "is_reserved": 0, "is_disabled": 0, "fusion_lon": 0.0, "bike_id": "ee674c8de365cdcf4f07a4a0e3f85bed", "lon": -77.009854, "rental_uris": {"ios": "https://dc.lft.to/lastmile_qr_scan", "android": "https://dc.lft.to/lastmile_qr_scan"}}, {"name": "3e4a74400bfd98ffb0f294f96789a0f6", "fusion_lat": 0.0, "type": "electric_scooter", "lat": 38.926712333333334, "is_reserved": 0, "is_disabled": 0, "fusion_lon": 0.0, "bike_id": "3e4a74400bfd98ffb0f294f96789a0f6", "lon": -77.01496666666667, "rental_uris": {"ios": "https://dc.lft.to/lastmile_qr_scan", "android": "https://dc.lft.to/lastmile_qr_scan"}}, {"name": "ce2ebe5485cec8eb38cfc1dc29f7d57c", "fusion_lat": 0.0, "type": "electric_bike", "lat": 38.89774166666667, "is_reserved": 0, "is_disabled": 0, "fusion_lon": 0.0, "bike_id": "ce2ebe5485cec8eb38cfc1dc29f7d57c", "lon": -76.904327, "rental_uris": {"ios": "https://dc.lft.to/lastmile_qr_scan", "android": "https://dc.lft.to/lastmile_qr_scan"}}, {"name": "40d64fcefc6737e91c581a6086aad080", "fusion_lat": 0.0, "type": "electric_scooter", "lat": 38.93246116666667, "is_reserved": 0, "is_disabled": 0, "fusion_lon": 0.0, "bike_id": "40d64fcefc6737e91c581a6086aad080", "lon": -77.03247516666667, "rental_uris": {"ios": "https://dc.lft.to/lastmile_qr_scan", "android": "https://dc.lft.to/lastmile_qr_scan"}}, {"name": "5f2712913cde72ba34b8d17ffff53346", "fusion_lat": 0.0, "type": "electric_bike", "lat": 38.946228833333336, "is_reserved": 0, "is_disabled": 0, "fusion_lon": 0.0, "bike_id": "5f2712913cde72ba34b8d17ffff53346", "lon": -76.94629216666667, "rental_uris": {"ios": "https://dc.lft.to/lastmile_qr_scan", "android": "https://dc.lft.to/lastmile_qr_scan"}}, {"name": "493a0edf40154b4c64b9676fda6d1561", "fusion_lat": 0.0, "type": "electric_scooter", "lat": 38.902765, "is_reserved": 0, "is_disabled": 0, "fusion_lon": 0.0, "bike_id": "493a0edf40154b4c64b9676fda6d1561", "lon": -77.03855583333333, "rental_uris": {"ios": "https://dc.lft.to/lastmile_qr_scan", "android": "https://dc.lft.to/lastmile_qr_scan"}}, {"name": "6dcc08e113829618a056429aaf43e580", "fusion_lat": 0.0, "type": "electric_scooter", "lat": 38.93113833333334, "is_reserved": 0, "is_disabled": 0, "fusion_lon": 0.0, "bike_id": "6dcc08e113829618a056429aaf43e580", "lon": -77.02083366666666, "rental_uris": {"ios": "https://dc.lft.to/lastmile_qr_scan", "android": "https://dc.lft.to/lastmile_qr_scan"}}, {"name": "bfe7b5cf979247d07bf9d76e7ec46b82", "fusion_lat": 0.0, "type": "electric_scooter", "lat": 38.905771666666666, "is_reserved": 0, "is_disabled": 0, "fusion_lon": 0.0, "bike_id": "bfe7b5cf979247d07bf9d76e7ec46b82", "lon": -77.04381516666666, "rental_uris": {"ios": "https://dc.lft.to/lastmile_qr_scan", "android": "https://dc.lft.to/lastmile_qr_scan"}}, {"name": "03e56b7a82eec5102700bec4dfb9dea4", "fusion_lat": 0.0, "type": "electric_scooter", "lat": 38.94288866666667, "is_reserved": 0, "is_disabled": 0, "fusion_lon": 0.0, "bike_id": "03e56b7a82eec5102700bec4dfb9dea4", "lon": -77.02168783333333, "rental_uris": {"ios": "https://dc.lft.to/lastmile_qr_scan", "android": "https://dc.lft.to/lastmile_qr_scan"}}, {"name": "85d1090e7a5ba31b47f818d956395029", "fusion_lat": 0.0, "type": "electric_scooter", "lat": 38.92069716666666, "is_reserved": 0, "is_disabled": 0, "fusion_lon": 0.0, "bike_id": "85d1090e7a5ba31b47f818d956395029", "lon": -77.02407816666667, "rental_uris": {"ios": "https://dc.lft.to/lastmile_qr_scan", "android": "https://dc.lft.to/lastmile_qr_scan"}}, {"name": "575da9f37d94a45856d753572bfec098", "fusion_lat": 0.0, "type": "electric_scooter", "lat": 38.90980316666667, "is_reserved": 0, "is_disabled": 0, "fusion_lon": 0.0, "bike_id": "575da9f37d94a45856d753572bfec098", "lon": -77.06713816666667, "rental_uris": {"ios": "https://dc.lft.to/lastmile_qr_scan", "android": "https://dc.lft.to/lastmile_qr_scan"}}, {"name": "42ac312437ec8925bdc45f964ce9fe69", "fusion_lat": 0.0, "type": "electric_scooter", "lat": 38.903724833333335, "is_reserved": 0, "is_disabled": 0, "fusion_lon": 0.0, "bike_id": "42ac312437ec8925bdc45f964ce9fe69", "lon": -77.03201083333333, "rental_uris": {"ios": "https://dc.lft.to/lastmile_qr_scan", "android": "https://dc.lft.to/lastmile_qr_scan"}}, {"name": "d4fa1da5eb5cefbca82ab0ca5b350766", "fusion_lat": 0.0, "type": "electric_scooter", "lat": 38.896530166666665, "is_reserved": 0, "is_disabled": 0, "fusion_lon": 0.0, "bike_id": "d4fa1da5eb5cefbca82ab0ca5b350766", "lon": -76.948501, "rental_uris": {"ios": "https://dc.lft.to/lastmile_qr_scan", "android": "https://dc.lft.to/lastmile_qr_scan"}}, {"name": "dd978ee7573661db675d52def38b38ef", "fusion_lat": 0.0, "type": "electric_scooter", "lat": 38.90802716666666, "is_reserved": 0, "is_disabled": 0, "fusion_lon": 0.0, "bike_id": "dd978ee7573661db675d52def38b38ef", "lon": -77.0004685, "rental_uris": {"ios": "https://dc.lft.to/lastmile_qr_scan", "android": "https://dc.lft.to/lastmile_qr_scan"}}, {"name": "e1ae73a98f8040b0fa852a25225fa953", "fusion_lat": 0.0, "type": "electric_scooter", "lat": 38.918768166666666, "is_reserved": 0, "is_disabled": 0, "fusion_lon": 0.0, "bike_id": "e1ae73a98f8040b0fa852a25225fa953", "lon": -77.02304466666666, "rental_uris": {"ios": "https://dc.lft.to/lastmile_qr_scan", "android": "https://dc.lft.to/lastmile_qr_scan"}}, {"name": "78fee1f6b22d8b6893885f6c7d30d138", "fusion_lat": 0.0, "type": "electric_scooter", "lat": 38.9184445, "is_reserved": 0, "is_disabled": 0, "fusion_lon": 0.0, "bike_id": "78fee1f6b22d8b6893885f6c7d30d138", "lon": -77.02278916666667, "rental_uris": {"ios": "https://dc.lft.to/lastmile_qr_scan", "android": "https://dc.lft.to/lastmile_qr_scan"}}, {"name": "e97fe97434a530bee920f4495e6998db", "fusion_lat": 0.0, "type": "electric_scooter", "lat": 38.89233216666667, "is_reserved": 0, "is_disabled": 0, "fusion_lon": 0.0, "bike_id": "e97fe97434a530bee920f4495e6998db", "lon": -77.05003316666667, "rental_uris": {"ios": "https://dc.lft.to/lastmile_qr_scan", "android": "https://dc.lft.to/lastmile_qr_scan"}}, {"name": "3e040efc8b8a6e4ef9c4cd0cedfa990e", "fusion_lat": 0.0, "type": "electric_scooter", "lat": 38.90623766666667, "is_reserved": 0, "is_disabled": 0, "fusion_lon": 0.0, "bike_id": "3e040efc8b8a6e4ef9c4cd0cedfa990e", "lon": -77.0638965, "rental_uris": {"ios": "https://dc.lft.to/lastmile_qr_scan", "android": "https://dc.lft.to/lastmile_qr_scan"}}, {"name": "fb5b1d7d7a7f719c37d568f12ebda9a8", "fusion_lat": 0.0, "type": "electric_scooter", "lat": 38.9125135, "is_reserved": 0, "is_disabled": 0, "fusion_lon": 0.0, "bike_id": "fb5b1d7d7a7f719c37d568f12ebda9a8", "lon": -77.0095245, "rental_uris": {"ios": "https://dc.lft.to/lastmile_qr_scan", "android": "https://dc.lft.to/lastmile_qr_scan"}}, {"name": "24d182c40fb7aacf6a3a031aba262352", "fusion_lat": 0.0, "type": "electric_scooter", "lat": 38.93680716666667, "is_reserved": 0, "is_disabled": 0, "fusion_lon": 0.0, "bike_id": "24d182c40fb7aacf6a3a031aba262352", "lon": -77.03163116666667, "rental_uris": {"ios": "https://dc.lft.to/lastmile_qr_scan", "android": "https://dc.lft.to/lastmile_qr_scan"}}, {"name": "2654ec0d889abf58a6e9a1f171b5c081", "fusion_lat": 0.0, "type": "electric_bike", "lat": 38.965908, "is_reserved": 0, "is_disabled": 0, "fusion_lon": 0.0, "bike_id": "2654ec0d889abf58a6e9a1f171b5c081", "lon": -76.97957383333333, "rental_uris": {"ios": "https://dc.lft.to/lastmile_qr_scan", "android": "https://dc.lft.to/lastmile_qr_scan"}}, {"name": "c921635b604ce8450ab38a6e6333d309", "fusion_lat": 0.0, "type": "electric_scooter", "lat": 38.935267333333336, "is_reserved": 0, "is_disabled": 0, "fusion_lon": 0.0, "bike_id": "c921635b604ce8450ab38a6e6333d309", "lon": -77.02851983333333, "rental_uris": {"ios": "https://dc.lft.to/lastmile_qr_scan", "android": "https://dc.lft.to/lastmile_qr_scan"}}, {"name": "ed639dd9d441677de65b06108b677376", "fusion_lat": 0.0, "type": "electric_bike", "lat": 38.8935145, "is_reserved": 0, "is_disabled": 0, "fusion_lon": 0.0, "bike_id": "ed639dd9d441677de65b06108b677376", "lon": -77.18738683333333, "rental_uris": {"ios": "https://dc.lft.to/lastmile_qr_scan", "android": "https://dc.lft.to/lastmile_qr_scan"}}, {"name": "de01d9d2aa1ac60c47beea22e6338b74", "fusion_lat": 0.0, "type": "electric_scooter", "lat": 38.874234333333334, "is_reserved": 0, "is_disabled": 0, "fusion_lon": 0.0, "bike_id": "de01d9d2aa1ac60c47beea22e6338b74", "lon": -77.00077633333333, "rental_uris": {"ios": "https://dc.lft.to/lastmile_qr_scan", "android": "https://dc.lft.to/lastmile_qr_scan"}}, {"name": "f458da8eda0cf47c36f3cc9ddb1cc19d", "fusion_lat": 0.0, "type": "electric_scooter", "lat": 38.8998565, "is_reserved": 0, "is_disabled": 0, "fusion_lon": 0.0, "bike_id": "f458da8eda0cf47c36f3cc9ddb1cc19d", "lon": -77.00925733333334, "rental_uris": {"ios": "https://dc.lft.to/lastmile_qr_scan", "android": "https://dc.lft.to/lastmile_qr_scan"}}, {"name": "0f8815bd31a575f4ab8b544a4dcdddde", "fusion_lat": 0.0, "type": "electric_scooter", "lat": 38.883572, "is_reserved": 0, "is_disabled": 0, "fusion_lon": 0.0, "bike_id": "0f8815bd31a575f4ab8b544a4dcdddde", "lon": -77.03167333333333, "rental_uris": {"ios": "https://dc.lft.to/lastmile_qr_scan", "android": "https://dc.lft.to/lastmile_qr_scan"}}, {"name": "66d6bf67ebdf484dd7967d7cf8ce5651", "fusion_lat": 0.0, "type": "electric_scooter", "lat": 38.9022695, "is_reserved": 0, "is_disabled": 0, "fusion_lon": 0.0, "bike_id": "66d6bf67ebdf484dd7967d7cf8ce5651", "lon": -77.01938283333334, "rental_uris": {"ios": "https://dc.lft.to/lastmile_qr_scan", "android": "https://dc.lft.to/lastmile_qr_scan"}}, {"name": "12189e4f0410f685f36a6d413671d51a", "fusion_lat": 0.0, "type": "electric_bike", "lat": 38.899090666666666, "is_reserved": 0, "is_disabled": 0, "fusion_lon": 0.0, "bike_id": "12189e4f0410f685f36a6d413671d51a", "lon": -76.98574716666667, "rental_uris": {"ios": "https://dc.lft.to/lastmile_qr_scan", "android": "https://dc.lft.to/lastmile_qr_scan"}}, {"name": "f2e1ef64cc06b0f2bf58e88e12262bab", "fusion_lat": 0.0, "type": "electric_scooter", "lat": 38.9419235, "is_reserved": 0, "is_disabled": 0, "fusion_lon": 0.0, "bike_id": "f2e1ef64cc06b0f2bf58e88e12262bab", "lon": -77.040134, "rental_uris": {"ios": "https://dc.lft.to/lastmile_qr_scan", "android": "https://dc.lft.to/lastmile_qr_scan"}}, {"name": "9f5004c75c6a5b65b69d533de883e239", "fusion_lat": 0.0, "type": "electric_scooter", "lat": 38.92582183333333, "is_reserved": 0, "is_disabled": 0, "fusion_lon": 0.0, "bike_id": "9f5004c75c6a5b65b69d533de883e239", "lon": -77.028445, "rental_uris": {"ios": "https://dc.lft.to/lastmile_qr_scan", "android": "https://dc.lft.to/lastmile_qr_scan"}}, {"name": "c5fb04ea07d49417c326f57383909fbd", "fusion_lat": 0.0, "type": "electric_scooter", "lat": 38.92691116666666, "is_reserved": 0, "is_disabled": 0, "fusion_lon": 0.0, "bike_id": "c5fb04ea07d49417c326f57383909fbd", "lon": -77.0208, "rental_uris": {"ios": "https://dc.lft.to/lastmile_qr_scan", "android": "https://dc.lft.to/lastmile_qr_scan"}}, {"name": "707dee111d432acaa8f2dcc2c57ef52e", "fusion_lat": 0.0, "type": "electric_scooter", "lat": 38.895517166666664, "is_reserved": 0, "is_disabled": 0, "fusion_lon": 0.0, "bike_id": "707dee111d432acaa8f2dcc2c57ef52e", "lon": -77.03947816666667, "rental_uris": {"ios": "https://dc.lft.to/lastmile_qr_scan", "android": "https://dc.lft.to/lastmile_qr_scan"}}, {"name": "5f07f123ef1178f129d9d69f544ab201", "fusion_lat": 0.0, "type": "electric_scooter", "lat": 38.9140515, "is_reserved": 0, "is_disabled": 0, "fusion_lon": 0.0, "bike_id": "5f07f123ef1178f129d9d69f544ab201", "lon": -77.0080785, "rental_uris": {"ios": "https://dc.lft.to/lastmile_qr_scan", "android": "https://dc.lft.to/lastmile_qr_scan"}}, {"name": "38b81384c439bf8fc1fd4d31bcc8b7ec", "fusion_lat": 0.0, "type": "electric_scooter", "lat": 38.923398666666664, "is_reserved": 0, "is_disabled": 0, "fusion_lon": 0.0, "bike_id": "38b81384c439bf8fc1fd4d31bcc8b7ec", "lon": -77.05100083333333, "rental_uris": {"ios": "https://dc.lft.to/lastmile_qr_scan", "android": "https://dc.lft.to/lastmile_qr_scan"}}, {"name": "23d62334d27602a818d801e4e8eac6cd", "fusion_lat": 0.0, "type": "electric_scooter", "lat": 38.934850833333336, "is_reserved": 0, "is_disabled": 0, "fusion_lon": 0.0, "bike_id": "23d62334d27602a818d801e4e8eac6cd", "lon": -77.0328585, "rental_uris": {"ios": "https://dc.lft.to/lastmile_qr_scan", "android": "https://dc.lft.to/lastmile_qr_scan"}}, {"name": "95e4c130da89d23747bb08d595daf693", "fusion_lat": 0.0, "type": "electric_scooter", "lat": 38.91637683333333, "is_reserved": 0, "is_disabled": 0, "fusion_lon": 0.0, "bike_id": "95e4c130da89d23747bb08d595daf693", "lon": -77.0269685, "rental_uris": {"ios": "https://dc.lft.to/lastmile_qr_scan", "android": "https://dc.lft.to/lastmile_qr_scan"}}, {"name": "e2e833fbf263c2c01d862a9575da8786", "fusion_lat": 0.0, "type": "electric_bike", "lat": 38.86160183333333, "is_reserved": 0, "is_disabled": 0, "fusion_lon": 0.0, "bike_id": "e2e833fbf263c2c01d862a9575da8786", "lon": -77.13093216666667, "rental_uris": {"ios": "https://dc.lft.to/lastmile_qr_scan", "android": "https://dc.lft.to/lastmile_qr_scan"}}, {"name": "ef312cf0e23e8766a475c15e7f2e78c9", "fusion_lat": 0.0, "type": "electric_scooter", "lat": 38.8925105, "is_reserved": 0, "is_disabled": 0, "fusion_lon": 0.0, "bike_id": "ef312cf0e23e8766a475c15e7f2e78c9", "lon": -77.01792316666666, "rental_uris": {"ios": "https://dc.lft.to/lastmile_qr_scan", "android": "https://dc.lft.to/lastmile_qr_scan"}}, {"name": "5fdc2b089163c1c5929b424ef20fd28e", "fusion_lat": 0.0, "type": "electric_bike", "lat": 38.9676215, "is_reserved": 0, "is_disabled": 0, "fusion_lon": 0.0, "bike_id": "5fdc2b089163c1c5929b424ef20fd28e", "lon": -77.09167183333334, "rental_uris": {"ios": "https://dc.lft.to/lastmile_qr_scan", "android": "https://dc.lft.to/lastmile_qr_scan"}}, {"name": "ff6b01f8a2f4fb204e3cc40f8c6e599d", "fusion_lat": 0.0, "type": "electric_scooter", "lat": 38.90240633333333, "is_reserved": 0, "is_disabled": 0, "fusion_lon": 0.0, "bike_id": "ff6b01f8a2f4fb204e3cc40f8c6e599d", "lon": -76.97409083333334, "rental_uris": {"ios": "https://dc.lft.to/lastmile_qr_scan", "android": "https://dc.lft.to/lastmile_qr_scan"}}, {"name": "078f7340f14c9e5550de60fb28021bb2", "fusion_lat": 0.0, "type": "electric_scooter", "lat": 38.946941833333334, "is_reserved": 0, "is_disabled": 0, "fusion_lon": 0.0, "bike_id": "078f7340f14c9e5550de60fb28021bb2", "lon": -77.069893, "rental_uris": {"ios": "https://dc.lft.to/lastmile_qr_scan", "android": "https://dc.lft.to/lastmile_qr_scan"}}, {"name": "f7aeb6db54fd277bf67d5ca93fce8653", "fusion_lat": 0.0, "type": "electric_scooter", "lat": 38.9247865, "is_reserved": 0, "is_disabled": 0, "fusion_lon": 0.0, "bike_id": "f7aeb6db54fd277bf67d5ca93fce8653", "lon": -77.052127, "rental_uris": {"ios": "https://dc.lft.to/lastmile_qr_scan", "android": "https://dc.lft.to/lastmile_qr_scan"}}, {"name": "7c3e6f334f5d414ab158146ca60bea67", "fusion_lat": 0.0, "type": "electric_scooter", "lat": 38.903836, "is_reserved": 0, "is_disabled": 0, "fusion_lon": 0.0, "bike_id": "7c3e6f334f5d414ab158146ca60bea67", "lon": -77.04501383333333, "rental_uris": {"ios": "https://dc.lft.to/lastmile_qr_scan", "android": "https://dc.lft.to/lastmile_qr_scan"}}, {"name": "5c2ba644e7215f55dc76a814cda22976", "fusion_lat": 0.0, "type": "electric_scooter", "lat": 38.95285716666667, "is_reserved": 0, "is_disabled": 0, "fusion_lon": 0.0, "bike_id": "5c2ba644e7215f55dc76a814cda22976", "lon": -77.00359283333333, "rental_uris": {"ios": "https://dc.lft.to/lastmile_qr_scan", "android": "https://dc.lft.to/lastmile_qr_scan"}}, {"name": "9bd8b1118decd23051d2229bbd50e781", "fusion_lat": 0.0, "type": "electric_scooter", "lat": 38.9051585, "is_reserved": 0, "is_disabled": 0, "fusion_lon": 0.0, "bike_id": "9bd8b1118decd23051d2229bbd50e781", "lon": -77.04182183333333, "rental_uris": {"ios": "https://dc.lft.to/lastmile_qr_scan", "android": "https://dc.lft.to/lastmile_qr_scan"}}, {"name": "68a251922cdce33a9250084f6490b338", "fusion_lat": 0.0, "type": "electric_scooter", "lat": 38.93392816666667, "is_reserved": 0, "is_disabled": 0, "fusion_lon": 0.0, "bike_id": "68a251922cdce33a9250084f6490b338", "lon": -77.03580133333334, "rental_uris": {"ios": "https://dc.lft.to/lastmile_qr_scan", "android": "https://dc.lft.to/lastmile_qr_scan"}}, {"name": "af4f96f6e6e94762adeac0d52d51f8ed", "fusion_lat": 0.0, "type": "electric_scooter", "lat": 38.93154666666667, "is_reserved": 0, "is_disabled": 0, "fusion_lon": 0.0, "bike_id": "af4f96f6e6e94762adeac0d52d51f8ed", "lon": -77.0388465, "rental_uris": {"ios": "https://dc.lft.to/lastmile_qr_scan", "android": "https://dc.lft.to/lastmile_qr_scan"}}, {"name": "9ab70c9967fd85c1ef03a3083090538a", "fusion_lat": 0.0, "type": "electric_scooter", "lat": 38.91101283333333, "is_reserved": 0, "is_disabled": 0, "fusion_lon": 0.0, "bike_id": "9ab70c9967fd85c1ef03a3083090538a", "lon": -77.07346083333333, "rental_uris": {"ios": "https://dc.lft.to/lastmile_qr_scan", "android": "https://dc.lft.to/lastmile_qr_scan"}}, {"name": "815550296dbe3343b18652250f68ed29", "fusion_lat": 0.0, "type": "electric_scooter", "lat": 38.911185833333334, "is_reserved": 0, "is_disabled": 0, "fusion_lon": 0.0, "bike_id": "815550296dbe3343b18652250f68ed29", "lon": -77.04359766666667, "rental_uris": {"ios": "https://dc.lft.to/lastmile_qr_scan", "android": "https://dc.lft.to/lastmile_qr_scan"}}, {"name": "3a7656b9f052d74a66303598222f8477", "fusion_lat": 0.0, "type": "electric_scooter", "lat": 38.9429, "is_reserved": 0, "is_disabled": 0, "fusion_lon": 0.0, "bike_id": "3a7656b9f052d74a66303598222f8477", "lon": -77.02171566666667, "rental_uris": {"ios": "https://dc.lft.to/lastmile_qr_scan", "android": "https://dc.lft.to/lastmile_qr_scan"}}, {"name": "eee8d031c6a593c38f18b0f9168f09b4", "fusion_lat": 0.0, "type": "electric_bike", "lat": 38.892187, "is_reserved": 0, "is_disabled": 0, "fusion_lon": 0.0, "bike_id": "eee8d031c6a593c38f18b0f9168f09b4", "lon": -77.107822, "rental_uris": {"ios": "https://dc.lft.to/lastmile_qr_scan", "android": "https://dc.lft.to/lastmile_qr_scan"}}, {"name": "149c08a9541ac205c5fdbf5ed1e1ac37", "fusion_lat": 0.0, "type": "electric_scooter", "lat": 38.88314116666667, "is_reserved": 0, "is_disabled": 0, "fusion_lon": 0.0, "bike_id": "149c08a9541ac205c5fdbf5ed1e1ac37", "lon": -77.02384016666667, "rental_uris": {"ios": "https://dc.lft.to/lastmile_qr_scan", "android": "https://dc.lft.to/lastmile_qr_scan"}}, {"name": "3fa6da16b8231701628f9957aebf6ed5", "fusion_lat": 0.0, "type": "electric_scooter", "lat": 38.87759166666667, "is_reserved": 0, "is_disabled": 0, "fusion_lon": 0.0, "bike_id": "3fa6da16b8231701628f9957aebf6ed5", "lon": -76.99425066666667, "rental_uris": {"ios": "https://dc.lft.to/lastmile_qr_scan", "android": "https://dc.lft.to/lastmile_qr_scan"}}, {"name": "3f06a03f92c119b27b3f820c47b5f299", "fusion_lat": 0.0, "type": "electric_scooter", "lat": 38.912531666666666, "is_reserved": 0, "is_disabled": 0, "fusion_lon": 0.0, "bike_id": "3f06a03f92c119b27b3f820c47b5f299", "lon": -77.03155833333334, "rental_uris": {"ios": "https://dc.lft.to/lastmile_qr_scan", "android": "https://dc.lft.to/lastmile_qr_scan"}}, {"name": "ccbf0b7053faac1abb208c1d9beb0aac", "fusion_lat": 0.0, "type": "electric_scooter", "lat": 38.9226655, "is_reserved": 0, "is_disabled": 0, "fusion_lon": 0.0, "bike_id": "ccbf0b7053faac1abb208c1d9beb0aac", "lon": -77.02246583333333, "rental_uris": {"ios": "https://dc.lft.to/lastmile_qr_scan", "android": "https://dc.lft.to/lastmile_qr_scan"}}, {"name": "b0ac30bd1ffb83437c0a07f80c798e87", "fusion_lat": 0.0, "type": "electric_scooter", "lat": 38.940534, "is_reserved": 0, "is_disabled": 0, "fusion_lon": 0.0, "bike_id": "b0ac30bd1ffb83437c0a07f80c798e87", "lon": -77.03285933333333, "rental_uris": {"ios": "https://dc.lft.to/lastmile_qr_scan", "android": "https://dc.lft.to/lastmile_qr_scan"}}, {"name": "11ceba35c7ca47adfd7d89dd90402e3d", "fusion_lat": 0.0, "type": "electric_scooter", "lat": 38.94272816666667, "is_reserved": 0, "is_disabled": 0, "fusion_lon": 0.0, "bike_id": "11ceba35c7ca47adfd7d89dd90402e3d", "lon": -77.03256133333333, "rental_uris": {"ios": "https://dc.lft.to/lastmile_qr_scan", "android": "https://dc.lft.to/lastmile_qr_scan"}}, {"name": "5591aabe4054c3bf1e366910c4ed812f", "fusion_lat": 0.0, "type": "electric_scooter", "lat": 38.897664, "is_reserved": 0, "is_disabled": 0, "fusion_lon": 0.0, "bike_id": "5591aabe4054c3bf1e366910c4ed812f", "lon": -76.97720283333334, "rental_uris": {"ios": "https://dc.lft.to/lastmile_qr_scan", "android": "https://dc.lft.to/lastmile_qr_scan"}}, {"name": "504474e635a6da07400529193dabf913", "fusion_lat": 0.0, "type": "electric_bike", "lat": 38.85409833333333, "is_reserved": 0, "is_disabled": 0, "fusion_lon": 0.0, "bike_id": "504474e635a6da07400529193dabf913", "lon": -77.11826583333334, "rental_uris": {"ios": "https://dc.lft.to/lastmile_qr_scan", "android": "https://dc.lft.to/lastmile_qr_scan"}}, {"name": "e20fa838885ff390263d4574fa5a0aba", "fusion_lat": 0.0, "type": "electric_scooter", "lat": 38.91701783333333, "is_reserved": 0, "is_disabled": 0, "fusion_lon": 0.0, "bike_id": "e20fa838885ff390263d4574fa5a0aba", "lon": -77.029958, "rental_uris": {"ios": "https://dc.lft.to/lastmile_qr_scan", "android": "https://dc.lft.to/lastmile_qr_scan"}}, {"name": "927d568629d120cbda128da8af30dd96", "fusion_lat": 0.0, "type": "electric_scooter", "lat": 38.9037965, "is_reserved": 0, "is_disabled": 0, "fusion_lon": 0.0, "bike_id": "927d568629d120cbda128da8af30dd96", "lon": -77.0504125, "rental_uris": {"ios": "https://dc.lft.to/lastmile_qr_scan", "android": "https://dc.lft.to/lastmile_qr_scan"}}, {"name": "1c8a6b886c12b2faa74561017bf69acd", "fusion_lat": 0.0, "type": "electric_scooter", "lat": 38.893611666666665, "is_reserved": 0, "is_disabled": 0, "fusion_lon": 0.0, "bike_id": "1c8a6b886c12b2faa74561017bf69acd", "lon": -77.019648, "rental_uris": {"ios": "https://dc.lft.to/lastmile_qr_scan", "android": "https://dc.lft.to/lastmile_qr_scan"}}, {"name": "708c5a1a15b02981598773d3771ed948", "fusion_lat": 0.0, "type": "electric_bike", "lat": 38.89224133333333, "is_reserved": 0, "is_disabled": 0, "fusion_lon": 0.0, "bike_id": "708c5a1a15b02981598773d3771ed948", "lon": -76.97022916666667, "rental_uris": {"ios": "https://dc.lft.to/lastmile_qr_scan", "android": "https://dc.lft.to/lastmile_qr_scan"}}, {"name": "9a00f8f9ca6ac912e82c6d152848188e", "fusion_lat": 0.0, "type": "electric_scooter", "lat": 38.90767316666667, "is_reserved": 0, "is_disabled": 0, "fusion_lon": 0.0, "bike_id": "9a00f8f9ca6ac912e82c6d152848188e", "lon": -77.0320305, "rental_uris": {"ios": "https://dc.lft.to/lastmile_qr_scan", "android": "https://dc.lft.to/lastmile_qr_scan"}}, {"name": "fa3c79ad9760b86a1322ef007a158047", "fusion_lat": 0.0, "type": "electric_bike", "lat": 38.970727, "is_reserved": 0, "is_disabled": 0, "fusion_lon": 0.0, "bike_id": "fa3c79ad9760b86a1322ef007a158047", "lon": -76.93616983333334, "rental_uris": {"ios": "https://dc.lft.to/lastmile_qr_scan", "android": "https://dc.lft.to/lastmile_qr_scan"}}, {"name": "cbaebe3a6b0dd67942b12445e14a91cf", "fusion_lat": 0.0, "type": "electric_scooter", "lat": 38.92052783333333, "is_reserved": 0, "is_disabled": 0, "fusion_lon": 0.0, "bike_id": "cbaebe3a6b0dd67942b12445e14a91cf", "lon": -77.03389283333334, "rental_uris": {"ios": "https://dc.lft.to/lastmile_qr_scan", "android": "https://dc.lft.to/lastmile_qr_scan"}}, {"name": "635b58ebb58cbca7c7e73126d42946cb", "fusion_lat": 0.0, "type": "electric_bike", "lat": 38.896569166666666, "is_reserved": 0, "is_disabled": 0, "fusion_lon": 0.0, "bike_id": "635b58ebb58cbca7c7e73126d42946cb", "lon": -77.02601383333334, "rental_uris": {"ios": "https://dc.lft.to/lastmile_qr_scan", "android": "https://dc.lft.to/lastmile_qr_scan"}}, {"name": "85712d051c813478b3015dcaac2d50c5", "fusion_lat": 0.0, "type": "electric_scooter", "lat": 38.9231565, "is_reserved": 0, "is_disabled": 0, "fusion_lon": 0.0, "bike_id": "85712d051c813478b3015dcaac2d50c5", "lon": -77.029724, "rental_uris": {"ios": "https://dc.lft.to/lastmile_qr_scan", "android": "https://dc.lft.to/lastmile_qr_scan"}}, {"name": "a10f59f6b78f23f9e22f303e746d2186", "fusion_lat": 0.0, "type": "electric_scooter", "lat": 38.922643, "is_reserved": 0, "is_disabled": 0, "fusion_lon": 0.0, "bike_id": "a10f59f6b78f23f9e22f303e746d2186", "lon": -77.03406266666667, "rental_uris": {"ios": "https://dc.lft.to/lastmile_qr_scan", "android": "https://dc.lft.to/lastmile_qr_scan"}}, {"name": "9e837fa48c78cf7abc3e9ff97b8a8399", "fusion_lat": 0.0, "type": "electric_scooter", "lat": 38.937117, "is_reserved": 0, "is_disabled": 0, "fusion_lon": 0.0, "bike_id": "9e837fa48c78cf7abc3e9ff97b8a8399", "lon": -77.03649533333333, "rental_uris": {"ios": "https://dc.lft.to/lastmile_qr_scan", "android": "https://dc.lft.to/lastmile_qr_scan"}}, {"name": "59a6b0878ff1846b3db4501d36f57532", "fusion_lat": 0.0, "type": "electric_scooter", "lat": 38.95402033333333, "is_reserved": 0, "is_disabled": 0, "fusion_lon": 0.0, "bike_id": "59a6b0878ff1846b3db4501d36f57532", "lon": -77.02748383333333, "rental_uris": {"ios": "https://dc.lft.to/lastmile_qr_scan", "android": "https://dc.lft.to/lastmile_qr_scan"}}, {"name": "55302bc7a5afa36bc0fd0adbdd4a073f", "fusion_lat": 0.0, "type": "electric_scooter", "lat": 38.90568783333333, "is_reserved": 0, "is_disabled": 0, "fusion_lon": 0.0, "bike_id": "55302bc7a5afa36bc0fd0adbdd4a073f", "lon": -77.040683, "rental_uris": {"ios": "https://dc.lft.to/lastmile_qr_scan", "android": "https://dc.lft.to/lastmile_qr_scan"}}, {"name": "5038f42ce97edf58276d833013da1b58", "fusion_lat": 0.0, "type": "electric_bike", "lat": 39.030393833333335, "is_reserved": 0, "is_disabled": 0, "fusion_lon": 0.0, "bike_id": "5038f42ce97edf58276d833013da1b58", "lon": -77.09477916666667, "rental_uris": {"ios": "https://dc.lft.to/lastmile_qr_scan", "android": "https://dc.lft.to/lastmile_qr_scan"}}, {"name": "8f3913fe896f295ec88dced341f8fc7b", "fusion_lat": 0.0, "type": "electric_scooter", "lat": 38.918492, "is_reserved": 0, "is_disabled": 0, "fusion_lon": 0.0, "bike_id": "8f3913fe896f295ec88dced341f8fc7b", "lon": -77.06145116666667, "rental_uris": {"ios": "https://dc.lft.to/lastmile_qr_scan", "android": "https://dc.lft.to/lastmile_qr_scan"}}, {"name": "64f8e7ffe90b0d426e45b80ac4aca211", "fusion_lat": 0.0, "type": "electric_scooter", "lat": 38.8908575, "is_reserved": 0, "is_disabled": 0, "fusion_lon": 0.0, "bike_id": "64f8e7ffe90b0d426e45b80ac4aca211", "lon": -76.99785533333333, "rental_uris": {"ios": "https://dc.lft.to/lastmile_qr_scan", "android": "https://dc.lft.to/lastmile_qr_scan"}}, {"name": "bbde4fc7995b27bb834c736e5f2bd9fd", "fusion_lat": 0.0, "type": "electric_scooter", "lat": 38.88745483333334, "is_reserved": 0, "is_disabled": 0, "fusion_lon": 0.0, "bike_id": "bbde4fc7995b27bb834c736e5f2bd9fd", "lon": -77.02221166666666, "rental_uris": {"ios": "https://dc.lft.to/lastmile_qr_scan", "android": "https://dc.lft.to/lastmile_qr_scan"}}, {"name": "d2945fdda47c2c2eb8e246b083b99c8a", "fusion_lat": 0.0, "type": "electric_scooter", "lat": 38.87011533333333, "is_reserved": 0, "is_disabled": 0, "fusion_lon": 0.0, "bike_id": "d2945fdda47c2c2eb8e246b083b99c8a", "lon": -77.01232816666666, "rental_uris": {"ios": "https://dc.lft.to/lastmile_qr_scan", "android": "https://dc.lft.to/lastmile_qr_scan"}}, {"name": "7a44820a4eabd7654663b1e6f952d5fc", "fusion_lat": 0.0, "type": "electric_scooter", "lat": 38.90033283333333, "is_reserved": 0, "is_disabled": 0, "fusion_lon": 0.0, "bike_id": "7a44820a4eabd7654663b1e6f952d5fc", "lon": -77.0019675, "rental_uris": {"ios": "https://dc.lft.to/lastmile_qr_scan", "android": "https://dc.lft.to/lastmile_qr_scan"}}, {"name": "aa5f4d5599d7f0be63beeb7bf53bc1f4", "fusion_lat": 0.0, "type": "electric_bike", "lat": 38.82047216666667, "is_reserved": 0, "is_disabled": 0, "fusion_lon": 0.0, "bike_id": "aa5f4d5599d7f0be63beeb7bf53bc1f4", "lon": -77.053087, "rental_uris": {"ios": "https://dc.lft.to/lastmile_qr_scan", "android": "https://dc.lft.to/lastmile_qr_scan"}}, {"name": "7e2bee897769b6e2cb63499912fd906d", "fusion_lat": 0.0, "type": "electric_bike", "lat": 38.965101, "is_reserved": 0, "is_disabled": 0, "fusion_lon": 0.0, "bike_id": "7e2bee897769b6e2cb63499912fd906d", "lon": -77.1033245, "rental_uris": {"ios": "https://dc.lft.to/lastmile_qr_scan", "android": "https://dc.lft.to/lastmile_qr_scan"}}, {"name": "a59a1598529f6cc2bda07ceec2cfdb05", "fusion_lat": 0.0, "type": "electric_scooter", "lat": 38.9032425, "is_reserved": 0, "is_disabled": 0, "fusion_lon": 0.0, "bike_id": "a59a1598529f6cc2bda07ceec2cfdb05", "lon": -77.03190783333334, "rental_uris": {"ios": "https://dc.lft.to/lastmile_qr_scan", "android": "https://dc.lft.to/lastmile_qr_scan"}}, {"name": "84dc2ad42d364a7c1b1df96a66621c9a", "fusion_lat": 0.0, "type": "electric_scooter", "lat": 38.93276483333333, "is_reserved": 0, "is_disabled": 0, "fusion_lon": 0.0, "bike_id": "84dc2ad42d364a7c1b1df96a66621c9a", "lon": -77.0349805, "rental_uris": {"ios": "https://dc.lft.to/lastmile_qr_scan", "android": "https://dc.lft.to/lastmile_qr_scan"}}, {"name": "dd3b8e4095909319e7e78f2401e6bbcd", "fusion_lat": 0.0, "type": "electric_scooter", "lat": 38.930657333333336, "is_reserved": 0, "is_disabled": 0, "fusion_lon": 0.0, "bike_id": "dd3b8e4095909319e7e78f2401e6bbcd", "lon": -77.03398383333334, "rental_uris": {"ios": "https://dc.lft.to/lastmile_qr_scan", "android": "https://dc.lft.to/lastmile_qr_scan"}}, {"name": "a5ba668ac556321c92f4d52e38e5f1d8", "fusion_lat": 0.0, "type": "electric_bike", "lat": 38.96550166666667, "is_reserved": 0, "is_disabled": 0, "fusion_lon": 0.0, "bike_id": "a5ba668ac556321c92f4d52e38e5f1d8", "lon": -77.03512933333333, "rental_uris": {"ios": "https://dc.lft.to/lastmile_qr_scan", "android": "https://dc.lft.to/lastmile_qr_scan"}}, {"name": "204641de20c4105e91d9df35b421f42a", "fusion_lat": 0.0, "type": "electric_scooter", "lat": 38.90072283333333, "is_reserved": 0, "is_disabled": 0, "fusion_lon": 0.0, "bike_id": "204641de20c4105e91d9df35b421f42a", "lon": -77.03176316666666, "rental_uris": {"ios": "https://dc.lft.to/lastmile_qr_scan", "android": "https://dc.lft.to/lastmile_qr_scan"}}, {"name": "1d67ba17f062a7feaed904f829f78be2", "fusion_lat": 0.0, "type": "electric_scooter", "lat": 38.9036475, "is_reserved": 0, "is_disabled": 0, "fusion_lon": 0.0, "bike_id": "1d67ba17f062a7feaed904f829f78be2", "lon": -77.05369766666666, "rental_uris": {"ios": "https://dc.lft.to/lastmile_qr_scan", "android": "https://dc.lft.to/lastmile_qr_scan"}}, {"name": "8c30c80f9c545ff1e028cf9fa9629608", "fusion_lat": 0.0, "type": "electric_scooter", "lat": 38.865651, "is_reserved": 0, "is_disabled": 0, "fusion_lon": 0.0, "bike_id": "8c30c80f9c545ff1e028cf9fa9629608", "lon": -76.98549866666667, "rental_uris": {"ios": "https://dc.lft.to/lastmile_qr_scan", "android": "https://dc.lft.to/lastmile_qr_scan"}}, {"name": "9d76b213aa6d1b4e8d74430454447b02", "fusion_lat": 0.0, "type": "electric_scooter", "lat": 38.892163833333335, "is_reserved": 0, "is_disabled": 0, "fusion_lon": 0.0, "bike_id": "9d76b213aa6d1b4e8d74430454447b02", "lon": -77.02650966666667, "rental_uris": {"ios": "https://dc.lft.to/lastmile_qr_scan", "android": "https://dc.lft.to/lastmile_qr_scan"}}, {"name": "eeb0527f587224da052eb2aa2a269d3d", "fusion_lat": 0.0, "type": "electric_scooter", "lat": 38.90028016666667, "is_reserved": 0, "is_disabled": 0, "fusion_lon": 0.0, "bike_id": "eeb0527f587224da052eb2aa2a269d3d", "lon": -77.011502, "rental_uris": {"ios": "https://dc.lft.to/lastmile_qr_scan", "android": "https://dc.lft.to/lastmile_qr_scan"}}, {"name": "0a45e00b9fc3266dd5752ed49e53f040", "fusion_lat": 0.0, "type": "electric_scooter", "lat": 38.9241965, "is_reserved": 0, "is_disabled": 0, "fusion_lon": 0.0, "bike_id": "0a45e00b9fc3266dd5752ed49e53f040", "lon": -77.019431, "rental_uris": {"ios": "https://dc.lft.to/lastmile_qr_scan", "android": "https://dc.lft.to/lastmile_qr_scan"}}, {"name": "3c24e9e005673f2475e05c04fea63a19", "fusion_lat": 0.0, "type": "electric_scooter", "lat": 38.928744333333334, "is_reserved": 0, "is_disabled": 0, "fusion_lon": 0.0, "bike_id": "3c24e9e005673f2475e05c04fea63a19", "lon": -77.04119933333334, "rental_uris": {"ios": "https://dc.lft.to/lastmile_qr_scan", "android": "https://dc.lft.to/lastmile_qr_scan"}}, {"name": "777d9e4059a05e280a7a6768e2ef930a", "fusion_lat": 0.0, "type": "electric_bike", "lat": 38.954814999999996, "is_reserved": 0, "is_disabled": 0, "fusion_lon": 0.0, "bike_id": "777d9e4059a05e280a7a6768e2ef930a", "lon": -77.08238733333333, "rental_uris": {"ios": "https://dc.lft.to/lastmile_qr_scan", "android": "https://dc.lft.to/lastmile_qr_scan"}}, {"name": "e94fada092dce064a778d64450360947", "fusion_lat": 0.0, "type": "electric_scooter", "lat": 38.91477183333333, "is_reserved": 0, "is_disabled": 0, "fusion_lon": 0.0, "bike_id": "e94fada092dce064a778d64450360947", "lon": -77.009772, "rental_uris": {"ios": "https://dc.lft.to/lastmile_qr_scan", "android": "https://dc.lft.to/lastmile_qr_scan"}}, {"name": "2b0f31ddeb2a551a4a7769145628b795", "fusion_lat": 0.0, "type": "electric_scooter", "lat": 38.93363166666666, "is_reserved": 0, "is_disabled": 0, "fusion_lon": 0.0, "bike_id": "2b0f31ddeb2a551a4a7769145628b795", "lon": -77.05726666666666, "rental_uris": {"ios": "https://dc.lft.to/lastmile_qr_scan", "android": "https://dc.lft.to/lastmile_qr_scan"}}, {"name": "2d361b8b763a049b692e379f6353c0f0", "fusion_lat": 0.0, "type": "electric_scooter", "lat": 38.9048765, "is_reserved": 0, "is_disabled": 0, "fusion_lon": 0.0, "bike_id": "2d361b8b763a049b692e379f6353c0f0", "lon": -77.041762, "rental_uris": {"ios": "https://dc.lft.to/lastmile_qr_scan", "android": "https://dc.lft.to/lastmile_qr_scan"}}, {"name": "294b8e42707f9f5a8fa7c21da21b776c", "fusion_lat": 0.0, "type": "electric_scooter", "lat": 38.90965833333333, "is_reserved": 0, "is_disabled": 0, "fusion_lon": 0.0, "bike_id": "294b8e42707f9f5a8fa7c21da21b776c", "lon": -77.04544333333334, "rental_uris": {"ios": "https://dc.lft.to/lastmile_qr_scan", "android": "https://dc.lft.to/lastmile_qr_scan"}}, {"name": "1ac7dd09488157580916e57462b5c840", "fusion_lat": 0.0, "type": "electric_scooter", "lat": 38.895541, "is_reserved": 0, "is_disabled": 0, "fusion_lon": 0.0, "bike_id": "1ac7dd09488157580916e57462b5c840", "lon": -77.046847, "rental_uris": {"ios": "https://dc.lft.to/lastmile_qr_scan", "android": "https://dc.lft.to/lastmile_qr_scan"}}, {"name": "018a111fef5bad6285917ec15709e186", "fusion_lat": 0.0, "type": "electric_scooter", "lat": 38.896708333333336, "is_reserved": 0, "is_disabled": 0, "fusion_lon": 0.0, "bike_id": "018a111fef5bad6285917ec15709e186", "lon": -77.04892, "rental_uris": {"ios": "https://dc.lft.to/lastmile_qr_scan", "android": "https://dc.lft.to/lastmile_qr_scan"}}, {"name": "49974adc9cf06877db98b20ce1682c60", "fusion_lat": 0.0, "type": "electric_scooter", "lat": 38.898017, "is_reserved": 0, "is_disabled": 0, "fusion_lon": 0.0, "bike_id": "49974adc9cf06877db98b20ce1682c60", "lon": -76.99493183333334, "rental_uris": {"ios": "https://dc.lft.to/lastmile_qr_scan", "android": "https://dc.lft.to/lastmile_qr_scan"}},