{"data": {"bikes": [{"is_disabled": 0, "fusion_lon": 0.0, "fusion_lat": 0.0, "lat": 38.88404366666666, "type": "electric_scooter", "lon": -76.954129, "bike_id": "586040dcbc547ec18ecfb8c7836ba1c1", "rental_uris": {"android": "https://dc.lft.to/lastmile_qr_scan", "ios": "https://dc.lft.to/lastmile_qr_scan"}, "name": "586040dcbc547ec18ecfb8c7836ba1c1", "is_reserved": 0}, {"is_disabled": 0, "fusion_lon": 0.0, "fusion_lat": 0.0, "lat": 38.91475766666667, "type": "electric_scooter", "lon": -77.034653, "bike_id": "dbca1e67ddce854cae5a97b3220a49be", "rental_uris": {"android": "https://dc.lft.to/lastmile_qr_scan", "ios": "https://dc.lft.to/lastmile_qr_scan"}, "name": "dbca1e67ddce854cae5a97b3220a49be", "is_reserved": 0}, {"is_disabled": 0, "fusion_lon": 0.0, "fusion_lat": 0.0, "lat": 38.91103533333333, "type": "electric_scooter", "lon": -77.06601383333333, "bike_id": "e2f3d567f0d0e8bed12ca6df2b3b9045", "rental_uris": {"android": "https://dc.lft.to/lastmile_qr_scan", "ios": "https://dc.lft.to/lastmile_qr_scan"}, "name": "e2f3d567f0d0e8bed12ca6df2b3b9045", "is_reserved": 0}, {"is_disabled": 0, "fusion_lon": 0.0, "fusion_lat": 0.0, "lat": 38.91403533333333, "type": "electric_scooter", "lon": -77.03168966666667, "bike_id": "a045d449681d0de1af5065d419fb8e13", "rental_uris": {"android": "https://dc.lft.to/lastmile_qr_scan", "ios": "https://dc.lft.to/lastmile_qr_scan"}, "name": "a045d449681d0de1af5065d419fb8e13", "is_reserved": 0}, {"is_disabled": 0, "fusion_lon": 0.0, "fusion_lat": 0.0, "lat": 38.892043666666666, "type": "electric_scooter", "lon": -76.988096, "bike_id": "6718af84fd4498da47f71a6db3de7a23", "rental_uris": {"android": "https://dc.lft.to/lastmile_qr_scan", "ios": "https://dc.lft.to/lastmile_qr_scan"}, "name": "6718af84fd4498da47f71a6db3de7a23", "is_reserved": 0}, {"is_disabled": 0, "fusion_lon": 0.0, "fusion_lat": 0.0, "lat": 39.08840566666667, "type": "electric_bike", "lon": -77.17803633333334, "bike_id": "75b0d50dbbb5aafb016b7bd1e125c7ce", "rental_uris": {"android": "https://dc.lft.to/lastmile_qr_scan", "ios": "https://dc.lft.to/lastmile_qr_scan"}, "name": "75b0d50dbbb5aafb016b7bd1e125c7ce", "is_reserved": 0}, {"is_disabled": 0, "fusion_lon": 0.0, "fusion_lat": 0.0, "lat": 38.949401333333334, "type": "electric_bike", "lon": -77.00771616666667, "bike_id": "1a03d00fc2e7551c819e83e65056c460", "rental_uris": {"android": "https://dc.lft.to/lastmile_qr_scan", "ios": "https://dc.lft.to/lastmile_qr_scan"}, "name": "1a03d00fc2e7551c819e83e65056c460", "is_reserved": 0}, {"is_disabled": 0, "fusion_lon": 0.0, "fusion_lat": 0.0, "lat": 38.90027666666667, "type": "electric_scooter", "lon": -76.991661, "bike_id": "d57c21de7b3915f4f2c3474bb1fd8f5d", "rental_uris": {"android": "https://dc.lft.to/lastmile_qr_scan", "ios": "https://dc.lft.to/lastmile_qr_scan"}, "name": "d57c21de7b3915f4f2c3474bb1fd8f5d", "is_reserved": 0}, {"is_disabled": 0, "fusion_lon": 0.0, "fusion_lat": 0.0, "lat": 38.91111183333334, "type": "electric_scooter", "lon": -77.04507166666667, "bike_id": "46ea2d857ec2d1135e42b5e0a9183ffe", "rental_uris": {"android": "https://dc.lft.to/lastmile_qr_scan", "ios": "https://dc.lft.to/lastmile_qr_scan"}, "name": "46ea2d857ec2d1135e42b5e0a9183ffe", "is_reserved": 0}, {"is_disabled": 0, "fusion_lon": 0.0, "fusion_lat": 0.0, "lat": 38.9169225, "type": "electric_scooter", "lon": -77.00638533333333, "bike_id": "ac861c81618ae892a0b7d07584681e85", "rental_uris": {"android": "https://dc.lft.to/lastmile_qr_scan", "ios": "https://dc.lft.to/lastmile_qr_scan"}, "name": "ac861c81618ae892a0b7d07584681e85", "is_reserved": 0}, {"is_disabled": 0, "fusion_lon": 0.0, "fusion_lat": 0.0, "lat": 38.852085, "type": "electric_bike", "lon": -77.12766466666666, "bike_id": "bcbac2a5fa3deb22cb7d53ff44e0f295", "rental_uris": {"android": "https://dc.lft.to/lastmile_qr_scan", "ios": "https://dc.lft.to/lastmile_qr_scan"}, "name": "bcbac2a5fa3deb22cb7d53ff44e0f295", "is_reserved": 0}, {"is_disabled": 0, "fusion_lon": 0.0, "fusion_lat": 0.0, "lat": 38.90799066666666, "type": "electric_bike", "lon": -77.04878966666666, "bike_id": "0118fa0e553339768509a0144e7bd161", "rental_uris": {"android": "https://dc.lft.to/lastmile_qr_scan", "ios": "https://dc.lft.to/lastmile_qr_scan"}, "name": "0118fa0e553339768509a0144e7bd161", "is_reserved": 0}, {"is_disabled": 0, "fusion_lon": 0.0, "fusion_lat": 0.0, "lat": 38.89760733333333, "type": "electric_scooter", "lon": -77.05109316666666, "bike_id": "b980b9f34106131a01f41c82f52dc507", "rental_uris": {"android": "https://dc.lft.to/lastmile_qr_scan", "ios": "https://dc.lft.to/lastmile_qr_scan"}, "name": "b980b9f34106131a01f41c82f52dc507", "is_reserved": 0}, {"is_disabled": 0, "fusion_lon": 0.0, "fusion_lat": 0.0, "lat": 38.91414416666667, "type": "electric_scooter", "lon": -77.014331, "bike_id": "9765013efe2abbc0eb1e218a4e38d750", "rental_uris": {"android": "https://dc.lft.to/lastmile_qr_scan", "ios": "https://dc.lft.to/lastmile_qr_scan"}, "name": "9765013efe2abbc0eb1e218a4e38d750", "is_reserved": 0}, {"is_disabled": 0, "fusion_lon": 0.0, "fusion_lat": 0.0, "lat": 38.915691333333335, "type": "electric_scooter", "lon": -77.01908933333333, "bike_id": "e197fbe6fdeb9de56137bf01abd098ba", "rental_uris": {"android": "https://dc.lft.to/lastmile_qr_scan", "ios": "https://dc.lft.to/lastmile_qr_scan"}, "name": "e197fbe6fdeb9de56137bf01abd098ba", "is_reserved": 0}, {"is_disabled": 0, "fusion_lon": 0.0, "fusion_lat": 0.0, "lat": 38.91132433333333, "type": "electric_scooter", "lon": -77.04186716666666, "bike_id": "79fd53b01806a2fa105b2144354a018c", "rental_uris": {"android": "https://dc.lft.to/lastmile_qr_scan", "ios": "https://dc.lft.to/lastmile_qr_scan"}, "name": "79fd53b01806a2fa105b2144354a018c", "is_reserved": 0}, {"is_disabled": 0, "fusion_lon": 0.0, "fusion_lat": 0.0, "lat": 38.865983, "type": "electric_bike", "lon": -76.932144, "bike_id": "a130e4169b7e3f964bb9f3fe8ccc6515", "rental_uris": {"android": "https://dc.lft.to/lastmile_qr_scan", "ios": "https://dc.lft.to/lastmile_qr_scan"}, "name": "a130e4169b7e3f964bb9f3fe8ccc6515", "is_reserved": 0}, {"is_disabled": 0, "fusion_lon": 0.0, "fusion_lat": 0.0, "lat": 38.892501333333335, "type": "electric_scooter", "lon": -76.99845166666667, "bike_id": "90f05be82d040a64024688d44e966096", "rental_uris": {"android": "https://dc.lft.to/lastmile_qr_scan", "ios": "https://dc.lft.to/lastmile_qr_scan"}, "name": "90f05be82d040a64024688d44e966096", "is_reserved": 0}, {"is_disabled": 0, "fusion_lon": 0.0, "fusion_lat": 0.0, "lat": 38.90297366666667, "type": "electric_scooter", "lon": -77.05074383333333, "bike_id": "67d4dfbeae8bebc5ede3a4fa6bf45180", "rental_uris": {"android": "https://dc.lft.to/lastmile_qr_scan", "ios": "https://dc.lft.to/lastmile_qr_scan"}, "name": "67d4dfbeae8bebc5ede3a4fa6bf45180", "is_reserved": 0}, {"is_disabled": 0, "fusion_lon": 0.0, "fusion_lat": 0.0, "lat": 38.93610616666667, "type": "electric_scooter", "lon": -77.05859933333333, "bike_id": "3f04fd7bcd14cf81390b71b7e9afde27", "rental_uris": {"android": "https://dc.lft.to/lastmile_qr_scan", "ios": "https://dc.lft.to/lastmile_qr_scan"}, "name": "3f04fd7bcd14cf81390b71b7e9afde27", "is_reserved": 0}, {"is_disabled": 0, "fusion_lon": 0.0, "fusion_lat": 0.0, "lat": 38.92401433333333, "type": "electric_scooter", "lon": -77.05172966666666, "bike_id": "c4baaca2799cfe3c002c44224264ddb4", "rental_uris": {"android": "https://dc.lft.to/lastmile_qr_scan", "ios": "https://dc.lft.to/lastmile_qr_scan"}, "name": "c4baaca2799cfe3c002c44224264ddb4", "is_reserved": 0}, {"is_disabled": 0, "fusion_lon": 0.0, "fusion_lat": 0.0, "lat": 38.93530283333333, "type": "electric_scooter", "lon": -77.02065166666667, "bike_id": "b6f4ac31f7d5ad9b46c9873ecc172a58", "rental_uris": {"android": "https://dc.lft.to/lastmile_qr_scan", "ios": "https://dc.lft.to/lastmile_qr_scan"}, "name": "b6f4ac31f7d5ad9b46c9873ecc172a58", "is_reserved": 0}, {"is_disabled": 0, "fusion_lon": 0.0, "fusion_lat": 0.0, "lat": 38.9191565, "type": "electric_scooter", "lon": -77.02397316666666, "bike_id": "d4b62c2cc29080a910ef3cb11ab11e42", "rental_uris": {"android": "https://dc.lft.to/lastmile_qr_scan", "ios": "https://dc.lft.to/lastmile_qr_scan"}, "name": "d4b62c2cc29080a910ef3cb11ab11e42", "is_reserved": 0}, {"is_disabled": 0, "fusion_lon": 0.0, "fusion_lat": 0.0, "lat": 38.914143333333335, "type": "electric_scooter", "lon": -77.0417555, "bike_id": "802613f6bbc53329c8276ebe1c9c7597", "rental_uris": {"android": "https://dc.lft.to/lastmile_qr_scan", "ios": "https://dc.lft.to/lastmile_qr_scan"}, "name": "802613f6bbc53329c8276ebe1c9c7597", "is_reserved": 0}, {"is_disabled": 0, "fusion_lon": 0.0, "fusion_lat": 0.0, "lat": 38.92456583333333, "type": "electric_scooter", "lon": -76.99902783333333, "bike_id": "60e9dfa57987000350ccf9da0171a740", "rental_uris": {"android": "https://dc.lft.to/lastmile_qr_scan", "ios": "https://dc.lft.to/lastmile_qr_scan"}, "name": "60e9dfa57987000350ccf9da0171a740", "is_reserved": 0}, {"is_disabled": 0, "fusion_lon": 0.0, "fusion_lat": 0.0, "lat": 38.941925833333336, "type": "electric_scooter", "lon": -77.02577783333334, "bike_id": "78a4a416c5a103aa4558518ce842fe35", "rental_uris": {"android": "https://dc.lft.to/lastmile_qr_scan", "ios": "https://dc.lft.to/lastmile_qr_scan"}, "name": "78a4a416c5a103aa4558518ce842fe35", "is_reserved": 0}, {"is_disabled": 0, "fusion_lon": 0.0, "fusion_lat": 0.0, "lat": 38.908413333333336, "type": "electric_scooter", "lon": -77.026967, "bike_id": "edceda51ed1b75417448e650e74a3d65", "rental_uris": {"android": "https://dc.lft.to/lastmile_qr_scan", "ios": "https://dc.lft.to/lastmile_qr_scan"}, "name": "edceda51ed1b75417448e650e74a3d65", "is_reserved": 0}, {"is_disabled": 0, "fusion_lon": 0.0, "fusion_lat": 0.0, "lat": 38.949713833333334, "type": "electric_scooter", "lon": -77.0676965, "bike_id": "e8cc09eb74c601ed028906f983886f8e", "rental_uris": {"android": "https://dc.lft.to/lastmile_qr_scan", "ios": "https://dc.lft.to/lastmile_qr_scan"}, "name": "e8cc09eb74c601ed028906f983886f8e", "is_reserved": 0}, {"is_disabled": 0, "fusion_lon": 0.0, "fusion_lat": 0.0, "lat": 38.9332245, "type": "electric_scooter", "lon": -77.02935683333334, "bike_id": "0b277634f31140d05c709843d63f2a84", "rental_uris": {"android": "https://dc.lft.to/lastmile_qr_scan", "ios": "https://dc.lft.to/lastmile_qr_scan"}, "name": "0b277634f31140d05c709843d63f2a84", "is_reserved": 0}, {"is_disabled": 0, "fusion_lon": 0.0, "fusion_lat": 0.0, "lat": 38.8973005, "type": "electric_scooter", "lon": -77.02747233333334, "bike_id": "88af152760ea3d07fb6996ab112ebac0", "rental_uris": {"android": "https://dc.lft.to/lastmile_qr_scan", "ios": "https://dc.lft.to/lastmile_qr_scan"}, "name": "88af152760ea3d07fb6996ab112ebac0", "is_reserved": 0}, {"is_disabled": 0, "fusion_lon": 0.0, "fusion_lat": 0.0, "lat": 39.00003683333333, "type": "electric_bike", "lon": -76.91803516666667, "bike_id": "79fa294f4efdee2f21834a20824efb51", "rental_uris": {"android": "https://dc.lft.to/lastmile_qr_scan", "ios": "https://dc.lft.to/lastmile_qr_scan"}, "name": "79fa294f4efdee2f21834a20824efb51", "is_reserved": 0}, {"is_disabled": 0, "fusion_lon": 0.0, "fusion_lat": 0.0, "lat": 38.968295166666664, "type": "electric_scooter", "lon": -77.015131, "bike_id": "17c9c17073bdacdacd4e69b745c18731", "rental_uris": {"android": "https://dc.lft.to/lastmile_qr_scan", "ios": "https://dc.lft.to/lastmile_qr_scan"}, "name": "17c9c17073bdacdacd4e69b745c18731", "is_reserved": 0}, {"is_disabled": 0, "fusion_lon": 0.0, "fusion_lat": 0.0, "lat": 38.935023666666666, "type": "electric_scooter", "lon": -77.02422416666667, "bike_id": "3664d71341ddcce0be1508aca66d99e1", "rental_uris": {"android": "https://dc.lft.to/lastmile_qr_scan", "ios": "https://dc.lft.to/lastmile_qr_scan"}, "name": "3664d71341ddcce0be1508aca66d99e1", "is_reserved": 0}, {"is_disabled": 0, "fusion_lon": 0.0, "fusion_lat": 0.0, "lat": 38.913232666666666, "type": "electric_scooter", "lon": -77.032333, "bike_id": "f9ac2cf625bc058888b81ea3fdd9a052", "rental_uris": {"android": "https://dc.lft.to/lastmile_qr_scan", "ios": "https://dc.lft.to/lastmile_qr_scan"}, "name": "f9ac2cf625bc058888b81ea3fdd9a052", "is_reserved": 0}, {"is_disabled": 0, "fusion_lon": 0.0, "fusion_lat": 0.0, "lat": 38.905474, "type": "electric_scooter", "lon": -77.03409833333333, "bike_id": "79a4270c2e4a9d3593fa62d348b34ef5", "rental_uris": {"android": "https://dc.lft.to/lastmile_qr_scan", "ios": "https://dc.lft.to/lastmile_qr_scan"}, "name": "79a4270c2e4a9d3593fa62d348b34ef5", "is_reserved": 0}, {"is_disabled": 0, "fusion_lon": 0.0, "fusion_lat": 0.0, "lat": 38.905674166666664, "type": "electric_scooter", "lon": -77.03391, "bike_id": "772151acdf93e98756155145375f5b9d", "rental_uris": {"android": "https://dc.lft.to/lastmile_qr_scan", "ios": "https://dc.lft.to/lastmile_qr_scan"}, "name": "772151acdf93e98756155145375f5b9d", "is_reserved": 0}, {"is_disabled": 0, "fusion_lon": 0.0, "fusion_lat": 0.0, "lat": 38.88607283333333, "type": "electric_scooter", "lon": -77.02180583333333, "bike_id": "f41a3c60e6870c800c547301a4cf0c49", "rental_uris": {"android": "https://dc.lft.to/lastmile_qr_scan", "ios": "https://dc.lft.to/lastmile_qr_scan"}, "name": "f41a3c60e6870c800c547301a4cf0c49", "is_reserved": 0}, {"is_disabled": 0, "fusion_lon": 0.0, "fusion_lat": 0.0, "lat": 38.8919175, "type": "electric_scooter", "lon": -76.988316, "bike_id": "cb5dc27cf4d23c3b4d6f2db73b6cd632", "rental_uris": {"android": "https://dc.lft.to/lastmile_qr_scan", "ios": "https://dc.lft.to/lastmile_qr_scan"}, "name": "cb5dc27cf4d23c3b4d6f2db73b6cd632", "is_reserved": 0}, {"is_disabled": 0, "fusion_lon": 0.0, "fusion_lat": 0.0, "lat": 38.908005, "type": "electric_scooter", "lon": -77.04086983333333, "bike_id": "20dce7014988d8c5cf39b37f4364d1a1", "rental_uris": {"android": "https://dc.lft.to/lastmile_qr_scan", "ios": "https://dc.lft.to/lastmile_qr_scan"}, "name": "20dce7014988d8c5cf39b37f4364d1a1", "is_reserved": 0}, {"is_disabled": 0, "fusion_lon": 0.0, "fusion_lat": 0.0, "lat": 38.89595166666667, "type": "electric_scooter", "lon": -77.02716116666667, "bike_id": "6cdf3e834b8fba2127f8ffc85aece9c1", "rental_uris": {"android": "https://dc.lft.to/lastmile_qr_scan", "ios": "https://dc.lft.to/lastmile_qr_scan"}, "name": "6cdf3e834b8fba2127f8ffc85aece9c1", "is_reserved": 0}, {"is_disabled": 0, "fusion_lon": 0.0, "fusion_lat": 0.0, "lat": 38.91252383333333, "type": "electric_scooter", "lon": -77.00931383333334, "bike_id": "555536ce5549f604f8762bc37793367e", "rental_uris": {"android": "https://dc.lft.to/lastmile_qr_scan", "ios": "https://dc.lft.to/lastmile_qr_scan"}, "name": "555536ce5549f604f8762bc37793367e", "is_reserved": 0}, {"is_disabled": 0, "fusion_lon": 0.0, "fusion_lat": 0.0, "lat": 38.931778333333334, "type": "electric_scooter", "lon": -77.07259383333333, "bike_id": "5a7fc508543e34fadf68c63cbed9cc0a", "rental_uris": {"android": "https://dc.lft.to/lastmile_qr_scan", "ios": "https://dc.lft.to/lastmile_qr_scan"}, "name": "5a7fc508543e34fadf68c63cbed9cc0a", "is_reserved": 0}, {"is_disabled": 0, "fusion_lon": 0.0, "fusion_lat": 0.0, "lat": 38.873469666666665, "type": "electric_bike", "lon": -77.01856166666667, "bike_id": "6fee0438abce0516b820709ff68e96ca", "rental_uris": {"android": "https://dc.lft.to/lastmile_qr_scan", "ios": "https://dc.lft.to/lastmile_qr_scan"}, "name": "6fee0438abce0516b820709ff68e96ca", "is_reserved": 0}, {"is_disabled": 0, "fusion_lon": 0.0, "fusion_lat": 0.0, "lat": 38.90310216666666, "type": "electric_scooter", "lon": -76.98242566666667, "bike_id": "6ba94517ee97191d30bc1d16e185ef2b", "rental_uris": {"android": "https://dc.lft.to/lastmile_qr_scan", "ios": "https://dc.lft.to/lastmile_qr_scan"}, "name": "6ba94517ee97191d30bc1d16e185ef2b", "is_reserved": 0}, {"is_disabled": 0, "fusion_lon": 0.0, "fusion_lat": 0.0, "lat": 38.8984425, "type": "electric_scooter", "lon": -76.946327, "bike_id": "bb6a5ecb18e4d46d26959be14c0412e5", "rental_uris": {"android": "https://dc.lft.to/lastmile_qr_scan", "ios": "https://dc.lft.to/lastmile_qr_scan"}, "name": "bb6a5ecb18e4d46d26959be14c0412e5", "is_reserved": 0}, {"is_disabled": 0, "fusion_lon": 0.0, "fusion_lat": 0.0, "lat": 38.9508765, "type": "electric_bike", "lon": -76.9656065, "bike_id": "f8776af801243f31834293d5697e5547", "rental_uris": {"android": "https://dc.lft.to/lastmile_qr_scan", "ios": "https://dc.lft.to/lastmile_qr_scan"}, "name": "f8776af801243f31834293d5697e5547", "is_reserved": 0}, {"is_disabled": 0, "fusion_lon": 0.0, "fusion_lat": 0.0, "lat": 38.9279195, "type": "electric_scooter", "lon": -77.0315015, "bike_id": "60fb107f596324317624529a359030b1", "rental_uris": {"android": "https://dc.lft.to/lastmile_qr_scan", "ios": "https://dc.lft.to/lastmile_qr_scan"}, "name": "60fb107f596324317624529a359030b1", "is_reserved": 0}, {"is_disabled": 0, "fusion_lon": 0.0, "fusion_lat": 0.0, "lat": 38.91843566666667, "type": "electric_bike", "lon": -76.9608705, "bike_id": "f6817a33eb1185cd3223cc3769d1e44a", "rental_uris": {"android": "https://dc.lft.to/lastmile_qr_scan", "ios": "https://dc.lft.to/lastmile_qr_scan"}, "name": "f6817a33eb1185cd3223cc3769d1e44a", "is_reserved": 0}, {"is_disabled": 0, "fusion_lon": 0.0, "fusion_lat": 0.0, "lat": 38.929075, "type": "electric_scooter", "lon": -77.02268383333333, "bike_id": "ca75406e000b2dd57d476ea86daed722", "rental_uris": {"android": "https://dc.lft.to/lastmile_qr_scan", "ios": "https://dc.lft.to/lastmile_qr_scan"}, "name": "ca75406e000b2dd57d476ea86daed722", "is_reserved": 0}, {"is_disabled": 0, "fusion_lon": 0.0, "fusion_lat": 0.0, "lat": 38.90418583333334, "type": "electric_scooter", "lon": -76.985478, "bike_id": "7a79481dca6351844736f97def9c684d", "rental_uris": {"android": "https://dc.lft.to/lastmile_qr_scan", "ios": "https://dc.lft.to/lastmile_qr_scan"}, "name": "7a79481dca6351844736f97def9c684d", "is_reserved": 0}, {"is_disabled": 0, "fusion_lon": 0.0, "fusion_lat": 0.0, "lat": 38.9370025, "type": "electric_scooter", "lon": -77.06105266666667, "bike_id": "a86331f37d4efa303039179d0066ea1f", "rental_uris": {"android": "https://dc.lft.to/lastmile_qr_scan", "ios": "https://dc.lft.to/lastmile_qr_scan"}, "name": "a86331f37d4efa303039179d0066ea1f", "is_reserved": 0}, {"is_disabled": 0, "fusion_lon": 0.0, "fusion_lat": 0.0, "lat": 38.9173875, "type": "electric_scooter", "lon": -77.03192333333334, "bike_id": "46b1a6fb3fe834f2e015a4dca0e6f9c8", "rental_uris": {"android": "https://dc.lft.to/lastmile_qr_scan", "ios": "https://dc.lft.to/lastmile_qr_scan"}, "name": "46b1a6fb3fe834f2e015a4dca0e6f9c8", "is_reserved": 0}, {"is_disabled": 0, "fusion_lon": 0.0, "fusion_lat": 0.0, "lat": 38.9068365, "type": "electric_scooter", "lon": -77.06285916666667, "bike_id": "a7615fd9cc71639372f10fb4d9810a6a", "rental_uris": {"android": "https://dc.lft.to/lastmile_qr_scan", "ios": "https://dc.lft.to/lastmile_qr_scan"}, "name": "a7615fd9cc71639372f10fb4d9810a6a", "is_reserved": 0}, {"is_disabled": 0, "fusion_lon": 0.0, "fusion_lat": 0.0, "lat": 38.96805716666667, "type": "electric_scooter", "lon": -77.02121366666667, "bike_id": "c169af8eac2e44076e55a9bf2cd8afb8", "rental_uris": {"android": "https://dc.lft.to/lastmile_qr_scan", "ios": "https://dc.lft.to/lastmile_qr_scan"}, "name": "c169af8eac2e44076e55a9bf2cd8afb8", "is_reserved": 0}, {"is_disabled": 0, "fusion_lon": 0.0, "fusion_lat": 0.0, "lat": 38.88019216666667, "type": "electric_scooter", "lon": -76.98235616666666, "bike_id": "f1f4f03f26ef917f210579f985f28f5a", "rental_uris": {"android": "https://dc.lft.to/lastmile_qr_scan", "ios": "https://dc.lft.to/lastmile_qr_scan"}, "name": "f1f4f03f26ef917f210579f985f28f5a", "is_reserved": 0}, {"is_disabled": 0, "fusion_lon": 0.0, "fusion_lat": 0.0, "lat": 38.883142, "type": "electric_scooter", "lon": -77.01662316666666, "bike_id": "d55de60db80cc38daa439ac9cc02ed93", "rental_uris": {"android": "https://dc.lft.to/lastmile_qr_scan", "ios": "https://dc.lft.to/lastmile_qr_scan"}, "name": "d55de60db80cc38daa439ac9cc02ed93", "is_reserved": 0}, {"is_disabled": 0, "fusion_lon": 0.0, "fusion_lat": 0.0, "lat": 38.9716475, "type": "electric_bike", "lon": -76.980193, "bike_id": "bad2cc4399a7ac217fb6ef751369f1ed", "rental_uris": {"android": "https://dc.lft.to/lastmile_qr_scan", "ios": "https://dc.lft.to/lastmile_qr_scan"}, "name": "bad2cc4399a7ac217fb6ef751369f1ed", "is_reserved": 0}, {"is_disabled": 0, "fusion_lon": 0.0, "fusion_lat": 0.0, "lat": 38.940830166666665, "type": "electric_scooter", "lon": -77.03818633333333, "bike_id": "ed18d178a815dee2ba39e4cee23a344d", "rental_uris": {"android": "https://dc.lft.to/lastmile_qr_scan", "ios": "https://dc.lft.to/lastmile_qr_scan"}, "name": "ed18d178a815dee2ba39e4cee23a344d", "is_reserved": 0}, {"is_disabled": 0, "fusion_lon": 0.0, "fusion_lat": 0.0, "lat": 38.901439833333335, "type": "electric_scooter", "lon": -77.017687, "bike_id": "dcddcee2437f1f37e5e609f205b7a997", "rental_uris": {"android": "https://dc.lft.to/lastmile_qr_scan", "ios": "https://dc.lft.to/lastmile_qr_scan"}, "name": "dcddcee2437f1f37e5e609f205b7a997", "is_reserved": 0}, {"is_disabled": 0, "fusion_lon": 0.0, "fusion_lat": 0.0, "lat": 38.893559, "type": "electric_scooter", "lon": -76.984685, "bike_id": "2b7171d58c7f474e402410b0d5f260fb", "rental_uris": {"android": "https://dc.lft.to/lastmile_qr_scan", "ios": "https://dc.lft.to/lastmile_qr_scan"}, "name": "2b7171d58c7f474e402410b0d5f260fb", "is_reserved": 0}, {"is_disabled": 0, "fusion_lon": 0.0, "fusion_lat": 0.0, "lat": 38.901208, "type": "electric_scooter", "lon": -77.03989583333333, "bike_id": "493dc1210897fa0ee7fcd48d7f77f3a4", "rental_uris": {"android": "https://dc.lft.to/lastmile_qr_scan", "ios": "https://dc.lft.to/lastmile_qr_scan"}, "name": "493dc1210897fa0ee7fcd48d7f77f3a4", "is_reserved": 0}, {"is_disabled": 0, "fusion_lon": 0.0, "fusion_lat": 0.0, "lat": 38.939592, "type": "electric_scooter", "lon": -77.02746916666666, "bike_id": "e4d9b6e4c45d5f17731ac7e85aac3ee5", "rental_uris": {"android": "https://dc.lft.to/lastmile_qr_scan", "ios": "https://dc.lft.to/lastmile_qr_scan"}, "name": "e4d9b6e4c45d5f17731ac7e85aac3ee5", "is_reserved": 0}, {"is_disabled": 0, "fusion_lon": 0.0, "fusion_lat": 0.0, "lat": 38.937049, "type": "electric_scooter", "lon": -77.061014, "bike_id": "4d406c5d367023ccd567158bfa703426", "rental_uris": {"android": "https://dc.lft.to/lastmile_qr_scan", "ios": "https://dc.lft.to/lastmile_qr_scan"}, "name": "4d406c5d367023ccd567158bfa703426", "is_reserved": 0}, {"is_disabled": 0, "fusion_lon": 0.0, "fusion_lat": 0.0, "lat": 38.9018805, "type": "electric_scooter", "lon": -77.05026233333334, "bike_id": "ef2b1d9d0977f0d58236e6097df66d94", "rental_uris": {"android": "https://dc.lft.to/lastmile_qr_scan", "ios": "https://dc.lft.to/lastmile_qr_scan"}, "name": "ef2b1d9d0977f0d58236e6097df66d94", "is_reserved": 0}, {"is_disabled": 0, "fusion_lon": 0.0, "fusion_lat": 0.0, "lat": 38.91580183333333, "type": "electric_scooter", "lon": -77.02093233333333, "bike_id": "aa276b2c45669ca0019f0cfc5d34e744", "rental_uris": {"android": "https://dc.lft.to/lastmile_qr_scan", "ios": "https://dc.lft.to/lastmile_qr_scan"}, "name": "aa276b2c45669ca0019f0cfc5d34e744", "is_reserved": 0}, {"is_disabled": 0, "fusion_lon": 0.0, "fusion_lat": 0.0, "lat": 38.895363333333336, "type": "electric_bike", "lon": -77.0404985, "bike_id": "1b9bdc9ce353f325ffa112bca117eaa8", "rental_uris": {"android": "https://dc.lft.to/lastmile_qr_scan", "ios": "https://dc.lft.to/lastmile_qr_scan"}, "name": "1b9bdc9ce353f325ffa112bca117eaa8", "is_reserved": 0}, {"is_disabled": 0, "fusion_lon": 0.0, "fusion_lat": 0.0, "lat": 38.8981795, "type": "electric_scooter", "lon": -77.0433385, "bike_id": "ebd95ea5ea3e92c686693ece642d60e5", "rental_uris": {"android": "https://dc.lft.to/lastmile_qr_scan", "ios": "https://dc.lft.to/lastmile_qr_scan"}, "name": "ebd95ea5ea3e92c686693ece642d60e5", "is_reserved": 0}, {"is_disabled": 0, "fusion_lon": 0.0, "fusion_lat": 0.0, "lat": 38.918049, "type": "electric_scooter", "lon": -77.02444916666667, "bike_id": "7c9637eb3f862e2dbe0cc00a0b10d45d", "rental_uris": {"android": "https://dc.lft.to/lastmile_qr_scan", "ios": "https://dc.lft.to/lastmile_qr_scan"}, "name": "7c9637eb3f862e2dbe0cc00a0b10d45d", "is_reserved": 0}, {"is_disabled": 0, "fusion_lon": 0.0, "fusion_lat": 0.0, "lat": 38.86350633333333, "type": "electric_scooter", "lon": -76.9906845, "bike_id": "f48b4a5f2dd9fe0c1bf36f101b4f7a52", "rental_uris": {"android": "https://dc.lft.to/lastmile_qr_scan", "ios": "https://dc.lft.to/lastmile_qr_scan"}, "name": "f48b4a5f2dd9fe0c1bf36f101b4f7a52", "is_reserved": 0}, {"is_disabled": 0, "fusion_lon": 0.0, "fusion_lat": 0.0, "lat": 38.923272, "type": "electric_scooter", "lon": -77.04500066666667, "bike_id": "5c7d31db1ed2109ed6af6df3ed67ae6f", "rental_uris": {"android": "https://dc.lft.to/lastmile_qr_scan", "ios": "https://dc.lft.to/lastmile_qr_scan"}, "name": "5c7d31db1ed2109ed6af6df3ed67ae6f", "is_reserved": 0}, {"is_disabled": 0, "fusion_lon": 0.0, "fusion_lat": 0.0, "lat": 38.9418745, "type": "electric_scooter", "lon": -77.042596, "bike_id": "8b528a8279b77a23377cfcfb31c38769", "rental_uris": {"android": "https://dc.lft.to/lastmile_qr_scan", "ios": "https://dc.lft.to/lastmile_qr_scan"}, "name": "8b528a8279b77a23377cfcfb31c38769", "is_reserved": 0}, {"is_disabled": 0, "fusion_lon": 0.0, "fusion_lat": 0.0, "lat": 38.9086925, "type": "electric_scooter", "lon": -77.030091, "bike_id": "ce6b001c26f9377d7dfe01dc395a3676", "rental_uris": {"android": "https://dc.lft.to/lastmile_qr_scan", "ios": "https://dc.lft.to/lastmile_qr_scan"}, "name": "ce6b001c26f9377d7dfe01dc395a3676", "is_reserved": 0}, {"is_disabled": 0, "fusion_lon": 0.0, "fusion_lat": 0.0, "lat": 39.02296616666667, "type": "electric_bike", "lon": -77.021012, "bike_id": "35c4bca047fb4e30663ee79b66c278c3", "rental_uris": {"android": "https://dc.lft.to/lastmile_qr_scan", "ios": "https://dc.lft.to/lastmile_qr_scan"}, "name": "35c4bca047fb4e30663ee79b66c278c3", "is_reserved": 0}, {"is_disabled": 0, "fusion_lon": 0.0, "fusion_lat": 0.0, "lat": 38.88131533333333, "type": "electric_scooter", "lon": -77.01670083333333, "bike_id": "db7386d1f22829ce4d045b2497caaa1b", "rental_uris": {"android": "https://dc.lft.to/lastmile_qr_scan", "ios": "https://dc.lft.to/lastmile_qr_scan"}, "name": "db7386d1f22829ce4d045b2497caaa1b", "is_reserved": 0}, {"is_disabled": 0, "fusion_lon": 0.0, "fusion_lat": 0.0, "lat": 38.8955495, "type": "electric_scooter", "lon": -76.948751, "bike_id": "6bb6ad776c52d48de5a9563aa9f9c122", "rental_uris": {"android": "https://dc.lft.to/lastmile_qr_scan", "ios": "https://dc.lft.to/lastmile_qr_scan"}, "name": "6bb6ad776c52d48de5a9563aa9f9c122", "is_reserved": 0}, {"is_disabled": 0, "fusion_lon": 0.0, "fusion_lat": 0.0, "lat": 38.9018515, "type": "electric_scooter", "lon": -77.05020416666666, "bike_id": "fe7345dc5c4e23568fde83971a729ad0", "rental_uris": {"android": "https://dc.lft.to/lastmile_qr_scan", "ios": "https://dc.lft.to/lastmile_qr_scan"}, "name": "fe7345dc5c4e23568fde83971a729ad0", "is_reserved": 0}, {"is_disabled": 0, "fusion_lon": 0.0, "fusion_lat": 0.0, "lat": 38.9041895, "type": "electric_scooter", "lon": -77.05144083333333, "bike_id": "9d647237fef5d481de40be4c8b620ffe", "rental_uris": {"android": "https://dc.lft.to/lastmile_qr_scan", "ios": "https://dc.lft.to/lastmile_qr_scan"}, "name": "9d647237fef5d481de40be4c8b620ffe", "is_reserved": 0}, {"is_disabled": 0, "fusion_lon": 0.0, "fusion_lat": 0.0, "lat": 38.90836483333333, "type": "electric_scooter", "lon": -77.02704133333333, "bike_id": "918cdcec76d300ad888351f3a831994a", "rental_uris": {"android": "https://dc.lft.to/lastmile_qr_scan", "ios": "https://dc.lft.to/lastmile_qr_scan"}, "name": "918cdcec76d300ad888351f3a831994a", "is_reserved": 0}, {"is_disabled": 0, "fusion_lon": 0.0, "fusion_lat": 0.0, "lat": 38.893299666666664, "type": "electric_scooter", "lon": -77.02129133333334, "bike_id": "c778c4a5d91bd87963751b34def2e4ad", "rental_uris": {"android": "https://dc.lft.to/lastmile_qr_scan", "ios": "https://dc.lft.to/lastmile_qr_scan"}, "name": "c778c4a5d91bd87963751b34def2e4ad", "is_reserved": 0}, {"is_disabled": 0, "fusion_lon": 0.0, "fusion_lat": 0.0, "lat": 38.88878166666667, "type": "electric_bike", "lon": -77.0285435, "bike_id": "3b3ef16617909136a8b0cea3a4ff57b5", "rental_uris": {"android": "https://dc.lft.to/lastmile_qr_scan", "ios": "https://dc.lft.to/lastmile_qr_scan"}, "name": "3b3ef16617909136a8b0cea3a4ff57b5", "is_reserved": 0}, {"is_disabled": 0, "fusion_lon": 0.0, "fusion_lat": 0.0, "lat": 38.9317905, "type": "electric_scooter", "lon": -77.04150666666666, "bike_id": "7777948ccc86cfb061c51aac9977e506", "rental_uris": {"android": "https://dc.lft.to/lastmile_qr_scan", "ios": "https://dc.lft.to/lastmile_qr_scan"}, "name": "7777948ccc86cfb061c51aac9977e506", "is_reserved": 0}, {"is_disabled": 0, "fusion_lon": 0.0, "fusion_lat": 0.0, "lat": 38.86521483333333, "type": "electric_scooter", "lon": -76.989653, "bike_id": "f0bc97c5668a3d5235e6f73dffb84c50", "rental_uris": {"android": "https://dc.lft.to/lastmile_qr_scan", "ios": "https://dc.lft.to/lastmile_qr_scan"}, "name": "f0bc97c5668a3d5235e6f73dffb84c50", "is_reserved": 0}, {"is_disabled": 0, "fusion_lon": 0.0, "fusion_lat": 0.0, "lat": 38.89848033333333, "type": "electric_scooter", "lon": -76.94494, "bike_id": "1d53f4dcf886cd00768e8d0230774d4d", "rental_uris": {"android": "https://dc.lft.to/lastmile_qr_scan", "ios": "https://dc.lft.to/lastmile_qr_scan"}, "name": "1d53f4dcf886cd00768e8d0230774d4d", "is_reserved": 0}, {"is_disabled": 0, "fusion_lon": 0.0, "fusion_lat": 0.0, "lat": 38.917315333333335, "type": "electric_scooter", "lon": -77.03643133333334, "bike_id": "10835e8aa0c9f644c49336dd574c5636", "rental_uris": {"android": "https://dc.lft.to/lastmile_qr_scan", "ios": "https://dc.lft.to/lastmile_qr_scan"}, "name": "10835e8aa0c9f644c49336dd574c5636", "is_reserved": 0}, {"is_disabled": 0, "fusion_lon": 0.0, "fusion_lat": 0.0, "lat": 38.90559433333333, "type": "electric_scooter", "lon": -77.025008, "bike_id": "dc5e6a8e6e1d317731f2139ef16a7a2c", "rental_uris": {"android": "https://dc.lft.to/lastmile_qr_scan", "ios": "https://dc.lft.to/lastmile_qr_scan"}, "name": "dc5e6a8e6e1d317731f2139ef16a7a2c", "is_reserved": 0}, {"is_disabled": 0, "fusion_lon": 0.0, "fusion_lat": 0.0, "lat": 38.868423166666666, "type": "electric_bike", "lon": -77.09730916666666, "bike_id": "bd572257439c1de428fd81a876ada672", "rental_uris": {"android": "https://dc.lft.to/lastmile_qr_scan", "ios": "https://dc.lft.to/lastmile_qr_scan"}, "name": "bd572257439c1de428fd81a876ada672", "is_reserved": 0}, {"is_disabled": 0, "fusion_lon": 0.0, "fusion_lat": 0.0, "lat": 38.91849533333333, "type": "electric_bike", "lon": -76.96086166666667, "bike_id": "334bfd293ba3ca185f40cceccfafd6cd", "rental_uris": {"android": "https://dc.lft.to/lastmile_qr_scan", "ios": "https://dc.lft.to/lastmile_qr_scan"}, "name": "334bfd293ba3ca185f40cceccfafd6cd", "is_reserved": 0}, {"is_disabled": 0, "fusion_lon": 0.0, "fusion_lat": 0.0, "lat": 38.890506333333335, "type": "electric_scooter", "lon": -77.001256, "bike_id": "0a28df6375b8604acdc438d9d5feca49", "rental_uris": {"android": "https://dc.lft.to/lastmile_qr_scan", "ios": "https://dc.lft.to/lastmile_qr_scan"}, "name": "0a28df6375b8604acdc438d9d5feca49", "is_reserved": 0}, {"is_disabled": 0, "fusion_lon": 0.0, "fusion_lat": 0.0, "lat": 38.8335015, "type": "electric_bike", "lon": -76.96553383333334, "bike_id": "f01931b8f718dce7a8f3c5b5780d6f36", "rental_uris": {"android": "https://dc.lft.to/lastmile_qr_scan", "ios": "https://dc.lft.to/lastmile_qr_scan"}, "name": "f01931b8f718dce7a8f3c5b5780d6f36", "is_reserved": 0}, {"is_disabled": 0, "fusion_lon": 0.0, "fusion_lat": 0.0, "lat": 38.9046735, "type": "electric_scooter", "lon": -77.0379705, "bike_id": "7b2f2582280f0decc88f9e44afec2120", "rental_uris": {"android": "https://dc.lft.to/lastmile_qr_scan", "ios": "https://dc.lft.to/lastmile_qr_scan"}, "name": "7b2f2582280f0decc88f9e44afec2120", "is_reserved": 0}, {"is_disabled": 0, "fusion_lon": 0.0, "fusion_lat": 0.0, "lat": 38.916864833333335, "type": "electric_scooter", "lon": -77.02430016666666, "bike_id": "72179b47cbc6f3c9fc0cfbb9480fefb6", "rental_uris": {"android": "https://dc.lft.to/lastmile_qr_scan", "ios": "https://dc.lft.to/lastmile_qr_scan"}, "name": "72179b47cbc6f3c9fc0cfbb9480fefb6", "is_reserved": 0}, {"is_disabled": 0, "fusion_lon": 0.0, "fusion_lat": 0.0, "lat": 38.90117516666667, "type": "electric_scooter", "lon": -77.03045316666666, "bike_id": "1743e8ef9f510e01e487ab9b3fa49dca", "rental_uris": {"android": "https://dc.lft.to/lastmile_qr_scan", "ios": "https://dc.lft.to/lastmile_qr_scan"}, "name": "1743e8ef9f510e01e487ab9b3fa49dca", "is_reserved": 0}, {"is_disabled": 0, "fusion_lon": 0.0, "fusion_lat": 0.0, "lat": 38.895284333333336, "type": "electric_scooter", "lon": -77.0109665, "bike_id": "bd62cfbb78ddde1814e86489eef6b371", "rental_uris": {"android": "https://dc.lft.to/lastmile_qr_scan", "ios": "https://dc.lft.to/lastmile_qr_scan"}, "name": "bd62cfbb78ddde1814e86489eef6b371", "is_reserved": 0}, {"is_disabled": 0, "fusion_lon": 0.0, "fusion_lat": 0.0, "lat": 38.90214183333333, "type": "electric_scooter", "lon": -77.0243715, "bike_id": "f8ee6566328daad0f94044d530f2f8b3", "rental_uris": {"android": "https://dc.lft.to/lastmile_qr_scan", "ios": "https://dc.lft.to/lastmile_qr_scan"}, "name": "f8ee6566328daad0f94044d530f2f8b3", "is_reserved": 0}, {"is_disabled": 0, "fusion_lon": 0.0, "fusion_lat": 0.0, "lat": 38.82446433333333, "type": "electric_bike", "lon": -77.07047366666667, "bike_id": "85ddfd9181df9e1af4ed8b2a99aadf63", "rental_uris": {"android": "https://dc.lft.to/lastmile_qr_scan", "ios": "https://dc.lft.to/lastmile_qr_scan"}, "name": "85ddfd9181df9e1af4ed8b2a99aadf63", "is_reserved": 0}, {"is_disabled": 0, "fusion_lon": 0.0, "fusion_lat": 0.0, "lat": 38.82779416666666, "type": "electric_bike", "lon": -77.11076833333334, "bike_id": "bda1e83174a55e450b0306e44b90c689", "rental_uris": {"android": "https://dc.lft.to/lastmile_qr_scan", "ios": "https://dc.lft.to/lastmile_qr_scan"}, "name": "bda1e83174a55e450b0306e44b90c689", "is_reserved": 0}, {"is_disabled": 0, "fusion_lon": 0.0, "fusion_lat": 0.0, "lat": 38.90538933333333, "type": "electric_scooter", "lon": -77.056478, "bike_id": "e0c458f5a3b8b83aea7c9afa61ab9d31", "rental_uris": {"android": "https://dc.lft.to/lastmile_qr_scan", "ios": "https://dc.lft.to/lastmile_qr_scan"}, "name": "e0c458f5a3b8b83aea7c9afa61ab9d31", "is_reserved": 0}, {"is_disabled": 0, "fusion_lon": 0.0, "fusion_lat": 0.0, "lat": 38.93025566666667, "type": "electric_scooter", "lon": -77.034545, "bike_id": "c630754561bce02a048ca6a16bafe178", "rental_uris": {"android": "https://dc.lft.to/lastmile_qr_scan", "ios": "https://dc.lft.to/lastmile_qr_scan"}, "name": "c630754561bce02a048ca6a16bafe178", "is_reserved": 0}, {"is_disabled": 0, "fusion_lon": 0.0, "fusion_lat": 0.0, "lat": 38.88527583333333, "type": "electric_scooter", "lon": -76.92675966666667, "bike_id": "e1d4393786f9426e778c743386a69c91", "rental_uris": {"android": "https://dc.lft.to/lastmile_qr_scan", "ios": "https://dc.lft.to/lastmile_qr_scan"}, "name": "e1d4393786f9426e778c743386a69c91", "is_reserved": 0}, {"is_disabled": 0, "fusion_lon": 0.0, "fusion_lat": 0.0, "lat": 38.898336666666665, "type": "electric_scooter", "lon": -76.94633083333333, "bike_id": "740e88190226b532d6e0e8cd97112ce9", "rental_uris": {"android": "https://dc.lft.to/lastmile_qr_scan", "ios": "https://dc.lft.to/lastmile_qr_scan"}, "name": "740e88190226b532d6e0e8cd97112ce9", "is_reserved": 0}, {"is_disabled": 0, "fusion_lon": 0.0, "fusion_lat": 0.0, "lat": 38.939659166666665, "type": "electric_scooter", "lon": -77.03282183333333, "bike_id": "ad82f93f0377cf26038c05e4b03c251f", "rental_uris": {"android": "https://dc.lft.to/lastmile_qr_scan", "ios": "https://dc.lft.to/lastmile_qr_scan"}, "name": "ad82f93f0377cf26038c05e4b03c251f", "is_reserved": 0}, {"is_disabled": 0, "fusion_lon": 0.0, "fusion_lat": 0.0, "lat": 38.90471316666667, "type": "electric_bike", "lon": -76.9505415, "bike_id": "77618a9e131448a8563b91c7d9b0890e", "rental_uris": {"android": "https://dc.lft.to/lastmile_qr_scan", "ios": "https://dc.lft.to/lastmile_qr_scan"}, "name": "77618a9e131448a8563b91c7d9b0890e", "is_reserved": 0}, {"is_disabled": 0, "fusion_lon": 0.0, "fusion_lat": 0.0, "lat": 38.923813833333334, "type": "electric_scooter", "lon": -77.03021733333334, "bike_id": "54f1807cfc9fde5d98d1e5a0c85f959b", "rental_uris": {"android": "https://dc.lft.to/lastmile_qr_scan", "ios": "https://dc.lft.to/lastmile_qr_scan"}, "name": "54f1807cfc9fde5d98d1e5a0c85f959b", "is_reserved": 0}, {"is_disabled": 0, "fusion_lon": 0.0, "fusion_lat": 0.0, "lat": 38.907842333333335, "type": "electric_scooter", "lon": -77.03041883333333, "bike_id": "f10d1e4a913fe33fe8bf97f31b48383a", "rental_uris": {"android": "https://dc.lft.to/lastmile_qr_scan", "ios": "https://dc.lft.to/lastmile_qr_scan"}, "name": "f10d1e4a913fe33fe8bf97f31b48383a", "is_reserved": 0}, {"is_disabled": 0, "fusion_lon": 0.0, "fusion_lat": 0.0, "lat": 38.962613, "type": "electric_scooter", "lon": -77.02898783333333, "bike_id": "697afcbc46facf5438686623a3b9faa2", "rental_uris": {"android": "https://dc.lft.to/lastmile_qr_scan", "ios": "https://dc.lft.to/lastmile_qr_scan"}, "name": "697afcbc46facf5438686623a3b9faa2", "is_reserved": 0}, {"is_disabled": 0, "fusion_lon": 0.0, "fusion_lat": 0.0, "lat": 38.913941, "type": "electric_scooter", "lon": -77.045754, "bike_id": "841766d6dec7c9a3d743c2283ce2782b", "rental_uris": {"android": "https://dc.lft.to/lastmile_qr_scan", "ios": "https://dc.lft.to/lastmile_qr_scan"}, "name": "841766d6dec7c9a3d743c2283ce2782b", "is_reserved": 0}, {"is_disabled": 0, "fusion_lon": 0.0, "fusion_lat": 0.0, "lat": 38.949839833333336, "type": "electric_scooter", "lon": -77.027035, "bike_id": "b45688b54131288110ebe8a5302d72f6", "rental_uris": {"android": "https://dc.lft.to/lastmile_qr_scan", "ios": "https://dc.lft.to/lastmile_qr_scan"}, "name": "b45688b54131288110ebe8a5302d72f6", "is_reserved": 0}, {"is_disabled": 0, "fusion_lon": 0.0, "fusion_lat": 0.0, "lat": 38.93536983333333, "type": "electric_scooter", "lon": -77.0342185, "bike_id": "aa53f67a38d87e05836418aa8e186c51", "rental_uris": {"android": "https://dc.lft.to/lastmile_qr_scan", "ios": "https://dc.lft.to/lastmile_qr_scan"}, "name": "aa53f67a38d87e05836418aa8e186c51", "is_reserved": 0}, {"is_disabled": 0, "fusion_lon": 0.0, "fusion_lat": 0.0, "lat": 38.915323666666666, "type": "electric_scooter", "lon": -77.01846283333333, "bike_id": "41aace43292a3da53dc26115fa0100bd", "rental_uris": {"android": "https://dc.lft.to/lastmile_qr_scan", "ios": "https://dc.lft.to/lastmile_qr_scan"}, "name": "41aace43292a3da53dc26115fa0100bd", "is_reserved": 0}, {"is_disabled": 0, "fusion_lon": 0.0, "fusion_lat": 0.0, "lat": 38.907166333333336, "type": "electric_scooter", "lon": -77.0243035, "bike_id": "0bb75b76768910e6debec7b52fa4fc53", "rental_uris": {"android": "https://dc.lft.to/lastmile_qr_scan", "ios": "https://dc.lft.to/lastmile_qr_scan"}, "name": "0bb75b76768910e6debec7b52fa4fc53", "is_reserved": 0}, {"is_disabled": 0, "fusion_lon": 0.0, "fusion_lat": 0.0, "lat": 38.920672333333336, "type": "electric_scooter", "lon": -77.04356616666666, "bike_id": "7761efec5a50d276586f352d450c4b99", "rental_uris": {"android": "https://dc.lft.to/lastmile_qr_scan", "ios": "https://dc.lft.to/lastmile_qr_scan"}, "name": "7761efec5a50d276586f352d450c4b99", "is_reserved": 0}, {"is_disabled": 0, "fusion_lon": 0.0, "fusion_lat": 0.0, "lat": 38.9118235, "type": "electric_scooter", "lon": -77.00446183333334, "bike_id": "8f78bb982f2c30f728e4ce4948248561", "rental_uris": {"android": "https://dc.lft.to/lastmile_qr_scan", "ios": "https://dc.lft.to/lastmile_qr_scan"}, "name": "8f78bb982f2c30f728e4ce4948248561", "is_reserved": 0}, {"is_disabled": 0, "fusion_lon": 0.0, "fusion_lat": 0.0, "lat": 38.919336333333334, "type": "electric_scooter", "lon": -77.03026233333334, "bike_id": "395cef4556cef2d3c9be03c9cdf36701", "rental_uris": {"android": "https://dc.lft.to/lastmile_qr_scan", "ios": "https://dc.lft.to/lastmile_qr_scan"}, "name": "395cef4556cef2d3c9be03c9cdf36701", "is_reserved": 0}, {"is_disabled": 0, "fusion_lon": 0.0, "fusion_lat": 0.0, "lat": 38.89357716666667, "type": "electric_scooter", "lon": -77.02181383333334, "bike_id": "47be8bd8804b6594b6f09bd16cbbb0fd", "rental_uris": {"android": "https://dc.lft.to/lastmile_qr_scan", "ios": "https://dc.lft.to/lastmile_qr_scan"}, "name": "47be8bd8804b6594b6f09bd16cbbb0fd", "is_reserved": 0}, {"is_disabled": 0, "fusion_lon": 0.0, "fusion_lat": 0.0, "lat": 38.895013166666665, "type": "electric_scooter", "lon": -76.94877516666666, "bike_id": "a37af8a3bed10cf6943fbcfff7fc1308", "rental_uris": {"android": "https://dc.lft.to/lastmile_qr_scan", "ios": "https://dc.lft.to/lastmile_qr_scan"}, "name": "a37af8a3bed10cf6943fbcfff7fc1308", "is_reserved": 0}, {"is_disabled": 0, "fusion_lon": 0.0, "fusion_lat": 0.0, "lat": 38.92963666666667, "type": "electric_scooter", "lon": -77.0411195, "bike_id": "f336e25bdf6925e01b9193f4bc60db9a", "rental_uris": {"android": "https://dc.lft.to/lastmile_qr_scan", "ios": "https://dc.lft.to/lastmile_qr_scan"}, "name": "f336e25bdf6925e01b9193f4bc60db9a", "is_reserved": 0}, {"is_disabled": 0, "fusion_lon": 0.0, "fusion_lat": 0.0, "lat": 38.91561466666667, "type": "electric_scooter", "lon": -77.01998066666667, "bike_id": "8778ec90c2a1bfe43c153df8660f7380", "rental_uris": {"android": "https://dc.lft.to/lastmile_qr_scan", "ios": "https://dc.lft.to/lastmile_qr_scan"}, "name": "8778ec90c2a1bfe43c153df8660f7380", "is_reserved": 0}, {"is_disabled": 0, "fusion_lon": 0.0, "fusion_lat": 0.0, "lat": 38.91446083333334, "type": "electric_bike", "lon": -77.02081933333334, "bike_id": "2f84b63121ee78483f0b8ae442279cba", "rental_uris": {"android": "https://dc.lft.to/lastmile_qr_scan", "ios": "https://dc.lft.to/lastmile_qr_scan"}, "name": "2f84b63121ee78483f0b8ae442279cba", "is_reserved": 0}, {"is_disabled": 0, "fusion_lon": 0.0, "fusion_lat": 0.0, "lat": 38.904914, "type": "electric_scooter", "lon": -77.02967183333334, "bike_id": "26b4a2a7793ce18c11cfba2e853b545e", "rental_uris": {"android": "https://dc.lft.to/lastmile_qr_scan", "ios": "https://dc.lft.to/lastmile_qr_scan"}, "name": "26b4a2a7793ce18c11cfba2e853b545e", "is_reserved": 0}, {"is_disabled": 0, "fusion_lon": 0.0, "fusion_lat": 0.0, "lat": 38.926218666666664, "type": "electric_scooter", "lon": -77.04259316666666, "bike_id": "dba0806a300f693cfd7927a1d777f1f7", "rental_uris": {"android": "https://dc.lft.to/lastmile_qr_scan", "ios": "https://dc.lft.to/lastmile_qr_scan"}, "name": "dba0806a300f693cfd7927a1d777f1f7", "is_reserved": 0}, {"is_disabled": 0, "fusion_lon": 0.0, "fusion_lat": 0.0, "lat": 38.906669, "type": "electric_scooter", "lon": -77.0270105, "bike_id": "d5b1fc537fca854cc16fbcf2e4afa208", "rental_uris": {"android": "https://dc.lft.to/lastmile_qr_scan", "ios": "https://dc.lft.to/lastmile_qr_scan"}, "name": "d5b1fc537fca854cc16fbcf2e4afa208", "is_reserved": 0}, {"is_disabled": 0, "fusion_lon": 0.0, "fusion_lat": 0.0, "lat": 38.84423233333333, "type": "electric_scooter", "lon": -76.99782116666667, "bike_id": "6412dd6721fdcc4fb4d42e353b98122e", "rental_uris": {"android": "https://dc.lft.to/lastmile_qr_scan", "ios": "https://dc.lft.to/lastmile_qr_scan"}, "name": "6412dd6721fdcc4fb4d42e353b98122e", "is_reserved": 0}, {"is_disabled": 0, "fusion_lon": 0.0, "fusion_lat": 0.0, "lat": 38.9460465, "type": "electric_scooter", "lon": -77.03460616666666, "bike_id": "11cef496c4949f17066fedbf90952550", "rental_uris": {"android": "https://dc.lft.to/lastmile_qr_scan", "ios": "https://dc.lft.to/lastmile_qr_scan"}, "name": "11cef496c4949f17066fedbf90952550", "is_reserved": 0}, {"is_disabled": 0, "fusion_lon": 0.0, "fusion_lat": 0.0, "lat": 38.90418966666667, "type": "electric_scooter", "lon": -76.98549283333334, "bike_id": "2a49624a793f5b00599876d7e84972b7", "rental_uris": {"android": "https://dc.lft.to/lastmile_qr_scan", "ios": "https://dc.lft.to/lastmile_qr_scan"}, "name": "2a49624a793f5b00599876d7e84972b7", "is_reserved": 0}, {"is_disabled": 0, "fusion_lon": 0.0, "fusion_lat": 0.0, "lat": 38.913036166666664, "type": "electric_scooter", "lon": -77.04665133333333, "bike_id": "d2b23c9db1a1778a8e4b5137d6befe3c", "rental_uris": {"android": "https://dc.lft.to/lastmile_qr_scan", "ios": "https://dc.lft.to/lastmile_qr_scan"}, "name": "d2b23c9db1a1778a8e4b5137d6befe3c", "is_reserved": 0}, {"is_disabled": 0, "fusion_lon": 0.0, "fusion_lat": 0.0, "lat": 38.9461645, "type": "electric_scooter", "lon": -77.03626183333333, "bike_id": "73b9b9eb10390138431b557d4f545a99", "rental_uris": {"android": "https://dc.lft.to/lastmile_qr_scan", "ios": "https://dc.lft.to/lastmile_qr_scan"}, "name": "73b9b9eb10390138431b557d4f545a99", "is_reserved": 0}, {"is_disabled": 0, "fusion_lon": 0.0, "fusion_lat": 0.0, "lat": 38.96612183333333, "type": "electric_scooter", "lon": -77.03537816666666, "bike_id": "963be1b9b93e9d108fcb7f18a1bb414c", "rental_uris": {"android": "https://dc.lft.to/lastmile_qr_scan", "ios": "https://dc.lft.to/lastmile_qr_scan"}, "name": "963be1b9b93e9d108fcb7f18a1bb414c", "is_reserved": 0}, {"is_disabled": 0, "fusion_lon": 0.0, "fusion_lat": 0.0, "lat": 38.913111666666666, "type": "electric_scooter", "lon": -77.0084625, "bike_id": "c0583023a4af95272c8360b39d4dcadc", "rental_uris": {"android": "https://dc.lft.to/lastmile_qr_scan", "ios": "https://dc.lft.to/lastmile_qr_scan"}, "name": "c0583023a4af95272c8360b39d4dcadc", "is_reserved": 0}, {"is_disabled": 0, "fusion_lon": 0.0, "fusion_lat": 0.0, "lat": 38.93438533333333, "type": "electric_scooter", "lon": -77.02588633333333, "bike_id": "9e202281b3fd624d2ecb6009d9ed500e", "rental_uris": {"android": "https://dc.lft.to/lastmile_qr_scan", "ios": "https://dc.lft.to/lastmile_qr_scan"}, "name": "9e202281b3fd624d2ecb6009d9ed500e", "is_reserved": 0}, {"is_disabled": 0, "fusion_lon": 0.0, "fusion_lat": 0.0, "lat": 38.9296125, "type": "electric_scooter", "lon": -77.04201283333333, "bike_id": "5de249c3bf2f2036ec32c3b1bba68701", "rental_uris": {"android": "https://dc.lft.to/lastmile_qr_scan", "ios": "https://dc.lft.to/lastmile_qr_scan"}, "name": "5de249c3bf2f2036ec32c3b1bba68701", "is_reserved": 0}, {"is_disabled": 0, "fusion_lon": 0.0, "fusion_lat": 0.0, "lat": 38.9126695, "type": "electric_scooter", "lon": -77.03369116666667, "bike_id": "a898d0396ac7ece53e3d99873e498d9f", "rental_uris": {"android": "https://dc.lft.to/lastmile_qr_scan", "ios": "https://dc.lft.to/lastmile_qr_scan"}, "name": "a898d0396ac7ece53e3d99873e498d9f", "is_reserved": 0}, {"is_disabled": 0, "fusion_lon": 0.0, "fusion_lat": 0.0, "lat": 38.951696166666665, "type": "electric_scooter", "lon": -77.033382, "bike_id": "c0d8cb5254d85f01ab3176ac79ea8e88", "rental_uris": {"android": "https://dc.lft.to/lastmile_qr_scan", "ios": "https://dc.lft.to/lastmile_qr_scan"}, "name": "c0d8cb5254d85f01ab3176ac79ea8e88", "is_reserved": 0}, {"is_disabled": 0, "fusion_lon": 0.0, "fusion_lat": 0.0, "lat": 38.86952633333333, "type": "electric_scooter", "lon": -76.979369, "bike_id": "dccc3fd1435e3ecb0afb432cf4bfa19a", "rental_uris": {"android": "https://dc.lft.to/lastmile_qr_scan", "ios": "https://dc.lft.to/lastmile_qr_scan"}, "name": "dccc3fd1435e3ecb0afb432cf4bfa19a", "is_reserved": 0}, {"is_disabled": 0, "fusion_lon": 0.0, "fusion_lat": 0.0, "lat": 38.895242333333336, "type": "electric_scooter", "lon": -77.0091565, "bike_id": "24397a2014ffefc459e5f31578436f9d", "rental_uris": {"android": "https://dc.lft.to/lastmile_qr_scan", "ios": "https://dc.lft.to/lastmile_qr_scan"}, "name": "24397a2014ffefc459e5f31578436f9d", "is_reserved": 0}, {"is_disabled": 0, "fusion_lon": 0.0, "fusion_lat": 0.0, "lat": 38.918012, "type": "electric_scooter", "lon": -77.02396966666667, "bike_id": "97e9fe9758f731cf7a1f8638af59bad5", "rental_uris": {"android": "https://dc.lft.to/lastmile_qr_scan", "ios": "https://dc.lft.to/lastmile_qr_scan"}, "name": "97e9fe9758f731cf7a1f8638af59bad5", "is_reserved": 0}, {"is_disabled": 0, "fusion_lon": 0.0, "fusion_lat": 0.0, "lat": 38.925512, "type": "electric_scooter", "lon": -77.02563983333333, "bike_id": "690f1152841e378a01f1056e369446c8", "rental_uris": {"android": "https://dc.lft.to/lastmile_qr_scan", "ios": "https://dc.lft.to/lastmile_qr_scan"}, "name": "690f1152841e378a01f1056e369446c8", "is_reserved": 0}, {"is_disabled": 0, "fusion_lon": 0.0, "fusion_lat": 0.0, "lat": 38.9066465, "type": "electric_scooter", "lon": -77.02701766666667, "bike_id": "8cd34edb57c3c9ada253c349cfde8d5e", "rental_uris": {"android": "https://dc.lft.to/lastmile_qr_scan", "ios": "https://dc.lft.to/lastmile_qr_scan"}, "name": "8cd34edb57c3c9ada253c349cfde8d5e", "is_reserved": 0}, {"is_disabled": 0, "fusion_lon": 0.0, "fusion_lat": 0.0, "lat": 38.92826433333333, "type": "electric_scooter", "lon": -77.02257333333333, "bike_id": "04988b1ea51393da3bbd3b791a2ad56e", "rental_uris": {"android": "https://dc.lft.to/lastmile_qr_scan", "ios": "https://dc.lft.to/lastmile_qr_scan"}, "name": "04988b1ea51393da3bbd3b791a2ad56e", "is_reserved": 0}, {"is_disabled": 0, "fusion_lon": 0.0, "fusion_lat": 0.0, "lat": 38.98493833333333, "type": "electric_bike", "lon": -76.981915, "bike_id": "1d576457fea0b168638c92150a1a3f45", "rental_uris": {"android": "https://dc.lft.to/lastmile_qr_scan", "ios": "https://dc.lft.to/lastmile_qr_scan"}, "name": "1d576457fea0b168638c92150a1a3f45", "is_reserved": 0}, {"is_disabled": 0, "fusion_lon": 0.0, "fusion_lat": 0.0, "lat": 38.91804283333333, "type": "electric_scooter", "lon": -77.02397433333333, "bike_id": "90c32ed4b66ae87b02b7008f72423f3a", "rental_uris": {"android": "https://dc.lft.to/lastmile_qr_scan", "ios": "https://dc.lft.to/lastmile_qr_scan"}, "name": "90c32ed4b66ae87b02b7008f72423f3a", "is_reserved": 0}, {"is_disabled": 0, "fusion_lon": 0.0, "fusion_lat": 0.0, "lat": 38.91560533333333, "type": "electric_scooter", "lon": -77.01020633333333, "bike_id": "62a3112ab2cb3c183539307acd18010b", "rental_uris": {"android": "https://dc.lft.to/lastmile_qr_scan", "ios": "https://dc.lft.to/lastmile_qr_scan"}, "name": "62a3112ab2cb3c183539307acd18010b", "is_reserved": 0}, {"is_disabled": 0, "fusion_lon": 0.0, "fusion_lat": 0.0, "lat": 38.905084333333335, "type": "electric_scooter", "lon": -77.02510766666667, "bike_id": "2e64c49e34fd82ae00d133910256d10b", "rental_uris": {"android": "https://dc.lft.to/lastmile_qr_scan", "ios": "https://dc.lft.to/lastmile_qr_scan"}, "name": "2e64c49e34fd82ae00d133910256d10b", "is_reserved": 0}, {"is_disabled": 0, "fusion_lon": 0.0, "fusion_lat": 0.0, "lat": 38.87678016666667, "type": "electric_scooter", "lon": -77.00884216666667, "bike_id": "c44e773de956c7a45dddb083f1eb7e87", "rental_uris": {"android": "https://dc.lft.to/lastmile_qr_scan", "ios": "https://dc.lft.to/lastmile_qr_scan"}, "name": "c44e773de956c7a45dddb083f1eb7e87", "is_reserved": 0}, {"is_disabled": 0, "fusion_lon": 0.0, "fusion_lat": 0.0, "lat": 38.91459116666667, "type": "electric_scooter", "lon": -77.0318475, "bike_id": "3df8a1d7792c71aeefc2bd58e0d91d74", "rental_uris": {"android": "https://dc.lft.to/lastmile_qr_scan", "ios": "https://dc.lft.to/lastmile_qr_scan"}, "name": "3df8a1d7792c71aeefc2bd58e0d91d74", "is_reserved": 0}, {"is_disabled": 0, "fusion_lon": 0.0, "fusion_lat": 0.0, "lat": 38.90477466666667, "type": "electric_scooter", "lon": -76.97311166666667, "bike_id": "459a1dcdf0fb2538a7cfd933e41e5bf0", "rental_uris": {"android": "https://dc.lft.to/lastmile_qr_scan", "ios": "https://dc.lft.to/lastmile_qr_scan"}, "name": "459a1dcdf0fb2538a7cfd933e41e5bf0", "is_reserved": 0}, {"is_disabled": 0, "fusion_lon": 0.0, "fusion_lat": 0.0, "lat": 38.9170535, "type": "electric_scooter", "lon": -77.001191, "bike_id": "a11259420dca39b9f107f51840da3249", "rental_uris": {"android": "https://dc.lft.to/lastmile_qr_scan", "ios": "https://dc.lft.to/lastmile_qr_scan"}, "name": "a11259420dca39b9f107f51840da3249", "is_reserved": 0}, {"is_disabled": 0, "fusion_lon": 0.0, "fusion_lat": 0.0, "lat": 38.9092675, "type": "electric_scooter", "lon": -77.02305333333334, "bike_id": "e93b743011ace879765d7d315f66ed09", "rental_uris": {"android": "https://dc.lft.to/lastmile_qr_scan", "ios": "https://dc.lft.to/lastmile_qr_scan"}, "name": "e93b743011ace879765d7d315f66ed09", "is_reserved": 0}, {"is_disabled": 0, "fusion_lon": 0.0, "fusion_lat": 0.0, "lat": 38.87761866666666, "type": "electric_bike", "lon": -76.98001, "bike_id": "4f34b27f507f0431d5be22170515fd34", "rental_uris": {"android": "https://dc.lft.to/lastmile_qr_scan", "ios": "https://dc.lft.to/lastmile_qr_scan"}, "name": "4f34b27f507f0431d5be22170515fd34", "is_reserved": 0}, {"is_disabled": 0, "fusion_lon": 0.0, "fusion_lat": 0.0, "lat": 38.9209925, "type": "electric_scooter", "lon": -77.01774366666666, "bike_id": "09a9e3760dff1c7d8d3c15082481366a", "rental_uris": {"android": "https://dc.lft.to/lastmile_qr_scan", "ios": "https://dc.lft.to/lastmile_qr_scan"}, "name": "09a9e3760dff1c7d8d3c15082481366a", "is_reserved": 0}, {"is_disabled": 0, "fusion_lon": 0.0, "fusion_lat": 0.0, "lat": 38.85314483333333, "type": "electric_bike", "lon": -77.0533195, "bike_id": "bac5d6e572fde4922e95daef8616b153", "rental_uris": {"android": "https://dc.lft.to/lastmile_qr_scan", "ios": "https://dc.lft.to/lastmile_qr_scan"}, "name": "bac5d6e572fde4922e95daef8616b153", "is_reserved": 0}, {"is_disabled": 0, "fusion_lon": 0.0, "fusion_lat": 0.0, "lat": 38.92568833333333, "type": "electric_scooter", "lon": -77.08054533333333, "bike_id": "ec56abb1b04d0cd86286a2134029d655", "rental_uris": {"android": "https://dc.lft.to/lastmile_qr_scan", "ios": "https://dc.lft.to/lastmile_qr_scan"}, "name": "ec56abb1b04d0cd86286a2134029d655", "is_reserved": 0}, {"is_disabled": 0, "fusion_lon": 0.0, "fusion_lat": 0.0, "lat": 38.93966116666667, "type": "electric_bike", "lon": -77.36093283333334, "bike_id": "de9b460a3346b08f69146b4a5d5c18b0", "rental_uris": {"android": "https://dc.lft.to/lastmile_qr_scan", "ios": "https://dc.lft.to/lastmile_qr_scan"}, "name": "de9b460a3346b08f69146b4a5d5c18b0", "is_reserved": 0}, {"is_disabled": 0, "fusion_lon": 0.0, "fusion_lat": 0.0, "lat": 38.92284866666667, "type": "electric_scooter", "lon": -77.044613, "bike_id": "20e61e7976ec66cd2c0077cbd2869879", "rental_uris": {"android": "https://dc.lft.to/lastmile_qr_scan", "ios": "https://dc.lft.to/lastmile_qr_scan"}, "name": "20e61e7976ec66cd2c0077cbd2869879", "is_reserved": 0}, {"is_disabled": 0, "fusion_lon": 0.0, "fusion_lat": 0.0, "lat": 38.924662, "type": "electric_scooter", "lon": -77.07865733333334, "bike_id": "dbdda4cf9db42ee7bcd2d8096b4e76c9", "rental_uris": {"android": "https://dc.lft.to/lastmile_qr_scan", "ios": "https://dc.lft.to/lastmile_qr_scan"}, "name": "dbdda4cf9db42ee7bcd2d8096b4e76c9", "is_reserved": 0}, {"is_disabled": 0, "fusion_lon": 0.0, "fusion_lat": 0.0, "lat": 38.94069133333333, "type": "electric_scooter", "lon": -77.02878083333333, "bike_id": "02b99321fdc08d0b9a8072d383cd8bbf", "rental_uris": {"android": "https://dc.lft.to/lastmile_qr_scan", "ios": "https://dc.lft.to/lastmile_qr_scan"}, "name": "02b99321fdc08d0b9a8072d383cd8bbf", "is_reserved": 0}, {"is_disabled": 0, "fusion_lon": 0.0, "fusion_lat": 0.0, "lat": 38.905779, "type": "electric_scooter", "lon": -77.0559195, "bike_id": "ba3cbf2c4957bdd8e11c7a3d016d80b7", "rental_uris": {"android": "https://dc.lft.to/lastmile_qr_scan", "ios": "https://dc.lft.to/lastmile_qr_scan"}, "name": "ba3cbf2c4957bdd8e11c7a3d016d80b7", "is_reserved": 0}, {"is_disabled": 0, "fusion_lon": 0.0, "fusion_lat": 0.0, "lat": 38.89512283333333, "type": "electric_scooter", "lon": -77.04844466666667, "bike_id": "4990234491d340b8af339e46346bc312", "rental_uris": {"android": "https://dc.lft.to/lastmile_qr_scan", "ios": "https://dc.lft.to/lastmile_qr_scan"}, "name": "4990234491d340b8af339e46346bc312", "is_reserved": 0}, {"is_disabled": 0, "fusion_lon": 0.0, "fusion_lat": 0.0, "lat": 38.902841, "type": "electric_scooter", "lon": -77.048752, "bike_id": "910e4a3b02bac6125b931e8fe6c27d52", "rental_uris": {"android": "https://dc.lft.to/lastmile_qr_scan", "ios": "https://dc.lft.to/lastmile_qr_scan"}, "name": "910e4a3b02bac6125b931e8fe6c27d52", "is_reserved": 0}, {"is_disabled": 0, "fusion_lon": 0.0, "fusion_lat": 0.0, "lat": 38.92805966666667, "type": "electric_scooter", "lon": -77.03603133333333, "bike_id": "d44305bae878c84509c3cf027a7f66f9", "rental_uris": {"android": "https://dc.lft.to/lastmile_qr_scan", "ios": "https://dc.lft.to/lastmile_qr_scan"}, "name": "d44305bae878c84509c3cf027a7f66f9", "is_reserved": 0}, {"is_disabled": 0, "fusion_lon": 0.0, "fusion_lat": 0.0, "lat": 38.903636666666664, "type": "electric_scooter", "lon": -77.02914616666666, "bike_id": "1b422ccbee4fbfe1f8012f00ff0ac1a7", "rental_uris": {"android": "https://dc.lft.to/lastmile_qr_scan", "ios": "https://dc.lft.to/lastmile_qr_scan"}, "name": "1b422ccbee4fbfe1f8012f00ff0ac1a7", "is_reserved": 0}, {"is_disabled": 0, "fusion_lon": 0.0, "fusion_lat": 0.0, "lat": 38.932966666666665, "type": "electric_scooter", "lon": -77.021515, "bike_id": "4e2c6dc0d3073e4eceb8091451c88b4b", "rental_uris": {"android": "https://dc.lft.to/lastmile_qr_scan", "ios": "https://dc.lft.to/lastmile_qr_scan"}, "name": "4e2c6dc0d3073e4eceb8091451c88b4b", "is_reserved": 0}, {"is_disabled": 0, "fusion_lon": 0.0, "fusion_lat": 0.0, "lat": 38.9906155, "type": "electric_bike", "lon": -77.1002725, "bike_id": "758ceb33ebbb52ad66c185e5c7f45c4f", "rental_uris": {"android": "https://dc.lft.to/lastmile_qr_scan", "ios": "https://dc.lft.to/lastmile_qr_scan"}, "name": "758ceb33ebbb52ad66c185e5c7f45c4f", "is_reserved": 0}, {"is_disabled": 0, "fusion_lon": 0.0, "fusion_lat": 0.0, "lat": 38.863516833333335, "type": "electric_scooter", "lon": -76.99075716666667, "bike_id": "2d4bd05f26a83036b603e8c303481c45", "rental_uris": {"android": "https://dc.lft.to/lastmile_qr_scan", "ios": "https://dc.lft.to/lastmile_qr_scan"}, "name": "2d4bd05f26a83036b603e8c303481c45", "is_reserved": 0}, {"is_disabled": 0, "fusion_lon": 0.0, "fusion_lat": 0.0, "lat": 38.905297166666664, "type": "electric_scooter", "lon": -77.05000733333334, "bike_id": "fabd04f93cda51617f62623d3ec300af", "rental_uris": {"android": "https://dc.lft.to/lastmile_qr_scan", "ios": "https://dc.lft.to/lastmile_qr_scan"}, "name": "fabd04f93cda51617f62623d3ec300af", "is_reserved": 0}, {"is_disabled": 0, "fusion_lon": 0.0, "fusion_lat": 0.0, "lat": 38.945708, "type": "electric_bike", "lon": -76.96031933333333, "bike_id": "bc424a59f5b34d117677106e42c142c2", "rental_uris": {"android": "https://dc.lft.to/lastmile_qr_scan", "ios": "https://dc.lft.to/lastmile_qr_scan"}, "name": "bc424a59f5b34d117677106e42c142c2", "is_reserved": 0}, {"is_disabled": 0, "fusion_lon": 0.0, "fusion_lat": 0.0, "lat": 38.990908, "type": "electric_bike", "lon": -76.8749495, "bike_id": "dffb0ef9768645751d588bc7a12c1948", "rental_uris": {"android": "https://dc.lft.to/lastmile_qr_scan", "ios": "https://dc.lft.to/lastmile_qr_scan"}, "name": "dffb0ef9768645751d588bc7a12c1948", "is_reserved": 0}, {"is_disabled": 0, "fusion_lon": 0.0, "fusion_lat": 0.0, "lat": 38.92773533333333, "type": "electric_scooter", "lon": -77.01324083333333, "bike_id": "543524750f63238330471f657b69fe40", "rental_uris": {"android": "https://dc.lft.to/lastmile_qr_scan", "ios": "https://dc.lft.to/lastmile_qr_scan"}, "name": "543524750f63238330471f657b69fe40", "is_reserved": 0}, {"is_disabled": 0, "fusion_lon": 0.0, "fusion_lat": 0.0, "lat": 38.88582666666667, "type": "electric_scooter", "lon": -77.01990066666667, "bike_id": "29aa97c11ba2a4312622f65a4cef6f42", "rental_uris": {"android": "https://dc.lft.to/lastmile_qr_scan", "ios": "https://dc.lft.to/lastmile_qr_scan"}, "name": "29aa97c11ba2a4312622f65a4cef6f42", "is_reserved": 0}, {"is_disabled": 0, "fusion_lon": 0.0, "fusion_lat": 0.0, "lat": 38.90968683333333, "type": "electric_scooter", "lon": -77.02650416666667, "bike_id": "1146504f41bb0e2b0e3d600097827b8b", "rental_uris": {"android": "https://dc.lft.to/lastmile_qr_scan", "ios": "https://dc.lft.to/lastmile_qr_scan"}, "name": "1146504f41bb0e2b0e3d600097827b8b", "is_reserved": 0}, {"is_disabled": 0, "fusion_lon": 0.0, "fusion_lat": 0.0, "lat": 38.9268715, "type": "electric_scooter", "lon": -77.037427, "bike_id": "81545550f26cd76af74231854843aa74", "rental_uris": {"android": "https://dc.lft.to/lastmile_qr_scan", "ios": "https://dc.lft.to/lastmile_qr_scan"}, "name": "81545550f26cd76af74231854843aa74", "is_reserved": 0}, {"is_disabled": 0, "fusion_lon": 0.0, "fusion_lat": 0.0, "lat": 38.895985333333336, "type": "electric_scooter", "lon": -77.00925083333334, "bike_id": "17e716ec85084a174a262549b2ed2aa3", "rental_uris": {"android": "https://dc.lft.to/lastmile_qr_scan", "ios": "https://dc.lft.to/lastmile_qr_scan"}, "name": "17e716ec85084a174a262549b2ed2aa3", "is_reserved": 0}, {"is_disabled": 0, "fusion_lon": 0.0, "fusion_lat": 0.0, "lat": 38.942028666666666, "type": "electric_scooter", "lon": -77.02590666666667, "bike_id": "40f7bea1263e24aba2e9ed139d336fc3", "rental_uris": {"android": "https://dc.lft.to/lastmile_qr_scan", "ios": "https://dc.lft.to/lastmile_qr_scan"}, "name": "40f7bea1263e24aba2e9ed139d336fc3", "is_reserved": 0}, {"is_disabled": 0, "fusion_lon": 0.0, "fusion_lat": 0.0, "lat": 38.90375616666667, "type": "electric_scooter", "lon": -77.01626933333333, "bike_id": "205df20fbe2c30aec53701aeeabc7a34", "rental_uris": {"android": "https://dc.lft.to/lastmile_qr_scan", "ios": "https://dc.lft.to/lastmile_qr_scan"}, "name": "205df20fbe2c30aec53701aeeabc7a34", "is_reserved": 0}, {"is_disabled": 0, "fusion_lon": 0.0, "fusion_lat": 0.0, "lat": 38.935253833333334, "type": "electric_scooter", "lon": -77.0545055, "bike_id": "9983a77943d492c7813b7d975b8e1d42", "rental_uris": {"android": "https://dc.lft.to/lastmile_qr_scan", "ios": "https://dc.lft.to/lastmile_qr_scan"}, "name": "9983a77943d492c7813b7d975b8e1d42", "is_reserved": 0}, {"is_disabled": 0, "fusion_lon": 0.0, "fusion_lat": 0.0, "lat": 38.926025833333334, "type": "electric_scooter", "lon": -77.0570645, "bike_id": "96fca0731da8d3f68f5ddf43a08bdec3", "rental_uris": {"android": "https://dc.lft.to/lastmile_qr_scan", "ios": "https://dc.lft.to/lastmile_qr_scan"}, "name": "96fca0731da8d3f68f5ddf43a08bdec3", "is_reserved": 0}, {"is_disabled": 0, "fusion_lon": 0.0, "fusion_lat": 0.0, "lat": 38.9118315, "type": "electric_scooter", "lon": -77.03501716666666, "bike_id": "439c07a65df6c761d803e21bc0d64dd0", "rental_uris": {"android": "https://dc.lft.to/lastmile_qr_scan", "ios": "https://dc.lft.to/lastmile_qr_scan"}, "name": "439c07a65df6c761d803e21bc0d64dd0", "is_reserved": 0}, {"is_disabled": 0, "fusion_lon": 0.0, "fusion_lat": 0.0, "lat": 38.858081166666665, "type": "electric_scooter", "lon": -76.98653116666667, "bike_id": "da47aad481ae546f73f2bc9181a9a78c", "rental_uris": {"android": "https://dc.lft.to/lastmile_qr_scan", "ios": "https://dc.lft.to/lastmile_qr_scan"}, "name": "da47aad481ae546f73f2bc9181a9a78c", "is_reserved": 0}, {"is_disabled": 0, "fusion_lon": 0.0, "fusion_lat": 0.0, "lat": 38.908680833333335, "type": "electric_scooter", "lon": -77.03538683333333, "bike_id": "4b8fc80e2a2247ddb22c455e5f966683", "rental_uris": {"android": "https://dc.lft.to/lastmile_qr_scan", "ios": "https://dc.lft.to/lastmile_qr_scan"}, "name": "4b8fc80e2a2247ddb22c455e5f966683", "is_reserved": 0}, {"is_disabled": 0, "fusion_lon": 0.0, "fusion_lat": 0.0, "lat": 38.96095783333333, "type": "electric_scooter", "lon": -77.06894166666666, "bike_id": "c1ea666e27157056423516fd0da47643", "rental_uris": {"android": "https://dc.lft.to/lastmile_qr_scan", "ios": "https://dc.lft.to/lastmile_qr_scan"}, "name": "c1ea666e27157056423516fd0da47643", "is_reserved": 0}, {"is_disabled": 0, "fusion_lon": 0.0, "fusion_lat": 0.0, "lat": 38.934071, "type": "electric_scooter", "lon": -77.03265816666666, "bike_id": "613b122a6247c6785b000b6450cbf044", "rental_uris": {"android": "https://dc.lft.to/lastmile_qr_scan", "ios": "https://dc.lft.to/lastmile_qr_scan"}, "name": "613b122a6247c6785b000b6450cbf044", "is_reserved": 0}, {"is_disabled": 0, "fusion_lon": 0.0, "fusion_lat": 0.0, "lat": 38.9114075, "type": "electric_scooter", "lon": -77.04199616666666, "bike_id": "bbd6fdb0c9009a178080e2314275b41e", "rental_uris": {"android": "https://dc.lft.to/lastmile_qr_scan", "ios": "https://dc.lft.to/lastmile_qr_scan"}, "name": "bbd6fdb0c9009a178080e2314275b41e", "is_reserved": 0}, {"is_disabled": 0, "fusion_lon": 0.0, "fusion_lat": 0.0, "lat": 38.9297425, "type": "electric_scooter", "lon": -77.02071033333333, "bike_id": "7c7e7d99f1b03817dff2634597b043a2", "rental_uris": {"android": "https://dc.lft.to/lastmile_qr_scan", "ios": "https://dc.lft.to/lastmile_qr_scan"}, "name": "7c7e7d99f1b03817dff2634597b043a2", "is_reserved": 0}, {"is_disabled": 0, "fusion_lon": 0.0, "fusion_lat": 0.0, "lat": 38.86518916666667, "type": "electric_scooter", "lon": -76.98970316666667, "bike_id": "17a65584756c085ccc64ac41ef934328", "rental_uris": {"android": "https://dc.lft.to/lastmile_qr_scan", "ios": "https://dc.lft.to/lastmile_qr_scan"}, "name": "17a65584756c085ccc64ac41ef934328", "is_reserved": 0}, {"is_disabled": 0, "fusion_lon": 0.0, "fusion_lat": 0.0, "lat": 38.916043, "type": "electric_scooter", "lon": -77.0311235, "bike_id": "a927e703c1094a82117bf6291337aabb", "rental_uris": {"android": "https://dc.lft.to/lastmile_qr_scan", "ios": "https://dc.lft.to/lastmile_qr_scan"}, "name": "a927e703c1094a82117bf6291337aabb", "is_reserved": 0}, {"is_disabled": 0, "fusion_lon": 0.0, "fusion_lat": 0.0, "lat": 38.93476783333333, "type": "electric_scooter", "lon": -77.0357935, "bike_id": "f2a26f0acfac192713fa750293a03908", "rental_uris": {"android": "https://dc.lft.to/lastmile_qr_scan", "ios": "https://dc.lft.to/lastmile_qr_scan"}, "name": "f2a26f0acfac192713fa750293a03908", "is_reserved": 0}, {"is_disabled": 0, "fusion_lon": 0.0, "fusion_lat": 0.0, "lat": 38.901436333333336, "type": "electric_scooter", "lon": -77.02301483333333, "bike_id": "3f7243b244475117655f508070caddbb", "rental_uris": {"android": "https://dc.lft.to/lastmile_qr_scan", "ios": "https://dc.lft.to/lastmile_qr_scan"}, "name": "3f7243b244475117655f508070caddbb", "is_reserved": 0}, {"is_disabled": 0, "fusion_lon": 0.0, "fusion_lat": 0.0, "lat": 38.9067975, "type": "electric_scooter", "lon": -76.97999483333334, "bike_id": "1af4f45f782764ac222e5e3654740d5e", "rental_uris": {"android": "https://dc.lft.to/lastmile_qr_scan", "ios": "https://dc.lft.to/lastmile_qr_scan"}, "name": "1af4f45f782764ac222e5e3654740d5e", "is_reserved": 0}, {"is_disabled": 0, "fusion_lon": 0.0, "fusion_lat": 0.0, "lat": 38.91034766666667, "type": "electric_scooter", "lon": -77.04014616666667, "bike_id": "7b35ab27f22704516aeef96b98d871bd", "rental_uris": {"android": "https://dc.lft.to/lastmile_qr_scan", "ios": "https://dc.lft.to/lastmile_qr_scan"}, "name": "7b35ab27f22704516aeef96b98d871bd", "is_reserved": 0}, {"is_disabled": 0, "fusion_lon": 0.0, "fusion_lat": 0.0, "lat": 38.99865716666667, "type": "electric_bike", "lon": -77.02884816666666, "bike_id": "97883ba7bcd704fd7a2876ea76da49b1", "rental_uris": {"android": "https://dc.lft.to/lastmile_qr_scan", "ios": "https://dc.lft.to/lastmile_qr_scan"}, "name": "97883ba7bcd704fd7a2876ea76da49b1", "is_reserved": 0}, {"is_disabled": 0, "fusion_lon": 0.0, "fusion_lat": 0.0, "lat": 38.91935516666667, "type": "electric_scooter", "lon": -77.02279566666667, "bike_id": "d3f3eaf68b9edbb943571e7b6e54b219", "rental_uris": {"android": "https://dc.lft.to/lastmile_qr_scan", "ios": "https://dc.lft.to/lastmile_qr_scan"}, "name": "d3f3eaf68b9edbb943571e7b6e54b219", "is_reserved": 0}, {"is_disabled": 0, "fusion_lon": 0.0, "fusion_lat": 0.0, "lat": 38.85808333333333, "type": "electric_scooter", "lon": -76.98656116666666, "bike_id": "53f58699d9693603e444b23f1c2f2759", "rental_uris": {"android": "https://dc.lft.to/lastmile_qr_scan", "ios": "https://dc.lft.to/lastmile_qr_scan"}, "name": "53f58699d9693603e444b23f1c2f2759", "is_reserved": 0}, {"is_disabled": 0, "fusion_lon": 0.0, "fusion_lat": 0.0, "lat": 38.91580066666667, "type": "electric_scooter", "lon": -76.9810925, "bike_id": "1359cd5eaf758b33ff92f5261cb6c54f", "rental_uris": {"android": "https://dc.lft.to/lastmile_qr_scan", "ios": "https://dc.lft.to/lastmile_qr_scan"}, "name": "1359cd5eaf758b33ff92f5261cb6c54f", "is_reserved": 0}, {"is_disabled": 0, "fusion_lon": 0.0, "fusion_lat": 0.0, "lat": 38.845972333333336, "type": "electric_bike", "lon": -76.96887116666667, "bike_id": "a81c42cb9358734d8101ecb40f7f42f5", "rental_uris": {"android": "https://dc.lft.to/lastmile_qr_scan", "ios": "https://dc.lft.to/lastmile_qr_scan"}, "name": "a81c42cb9358734d8101ecb40f7f42f5", "is_reserved": 0}, {"is_disabled": 0, "fusion_lon": 0.0, "fusion_lat": 0.0, "lat": 38.928328666666665, "type": "electric_scooter", "lon": -77.01410983333334, "bike_id": "6e6dd42c62e7e910d79f78de5adecdc8", "rental_uris": {"android": "https://dc.lft.to/lastmile_qr_scan", "ios": "https://dc.lft.to/lastmile_qr_scan"}, "name": "6e6dd42c62e7e910d79f78de5adecdc8", "is_reserved": 0}, {"is_disabled": 0, "fusion_lon": 0.0, "fusion_lat": 0.0, "lat": 38.96760233333333, "type": "electric_bike", "lon": -77.091605, "bike_id": "d744b6ceb1b4b8faa83398cd1c348535", "rental_uris": {"android": "https://dc.lft.to/lastmile_qr_scan", "ios": "https://dc.lft.to/lastmile_qr_scan"}, "name": "d744b6ceb1b4b8faa83398cd1c348535", "is_reserved": 0}, {"is_disabled": 0, "fusion_lon": 0.0, "fusion_lat": 0.0, "lat": 38.9237485, "type": "electric_scooter", "lon": -77.04097283333333, "bike_id": "ca5701c7ab30dd4618347cb2c7efd9ea", "rental_uris": {"android": "https://dc.lft.to/lastmile_qr_scan", "ios": "https://dc.lft.to/lastmile_qr_scan"}, "name": "ca5701c7ab30dd4618347cb2c7efd9ea", "is_reserved": 0}, {"is_disabled": 0, "fusion_lon": 0.0, "fusion_lat": 0.0, "lat": 38.84199666666667, "type": "electric_bike", "lon": -77.10682633333333, "bike_id": "2658e69a3e93545f32a18f86353fe8ea", "rental_uris": {"android": "https://dc.lft.to/lastmile_qr_scan", "ios": "https://dc.lft.to/lastmile_qr_scan"}, "name": "2658e69a3e93545f32a18f86353fe8ea", "is_reserved": 0}, {"is_disabled": 0, "fusion_lon": 0.0, "fusion_lat": 0.0, "lat": 38.924817, "type": "electric_scooter", "lon": -77.034895, "bike_id": "a7a39718deb37ff3aa865cab38451df2", "rental_uris": {"android": "https://dc.lft.to/lastmile_qr_scan", "ios": "https://dc.lft.to/lastmile_qr_scan"}, "name": "a7a39718deb37ff3aa865cab38451df2", "is_reserved": 0}, {"is_disabled": 0, "fusion_lon": 0.0, "fusion_lat": 0.0, "lat": 38.863093666666664, "type": "electric_scooter", "lon": -76.9904275, "bike_id": "2aed0eaa996311c2deeba7616dfb6842", "rental_uris": {"android": "https://dc.lft.to/lastmile_qr_scan", "ios": "https://dc.lft.to/lastmile_qr_scan"}, "name": "2aed0eaa996311c2deeba7616dfb6842", "is_reserved": 0}, {"is_disabled": 0, "fusion_lon": 0.0, "fusion_lat": 0.0, "lat": 38.893622666666666, "type": "electric_scooter", "lon": -77.02264316666667, "bike_id": "44ce4f27bfbd5cc6469ba34214cbb796", "rental_uris": {"android": "https://dc.lft.to/lastmile_qr_scan", "ios": "https://dc.lft.to/lastmile_qr_scan"}, "name": "44ce4f27bfbd5cc6469ba34214cbb796", "is_reserved": 0}, {"is_disabled": 0, "fusion_lon": 0.0, "fusion_lat": 0.0, "lat": 38.844389, "type": "electric_scooter", "lon": -76.997747, "bike_id": "8ed79588b8f02d8fe14aeea59e0dcfd5", "rental_uris": {"android": "https://dc.lft.to/lastmile_qr_scan", "ios": "https://dc.lft.to/lastmile_qr_scan"}, "name": "8ed79588b8f02d8fe14aeea59e0dcfd5", "is_reserved": 0}, {"is_disabled": 0, "fusion_lon": 0.0, "fusion_lat": 0.0, "lat": 38.91800633333333, "type": "electric_scooter", "lon": -77.0343955, "bike_id": "07f6122e9e57e8e5a3df675320294ef3", "rental_uris": {"android": "https://dc.lft.to/lastmile_qr_scan", "ios": "https://dc.lft.to/lastmile_qr_scan"}, "name": "07f6122e9e57e8e5a3df675320294ef3", "is_reserved": 0}, {"is_disabled": 0, "fusion_lon": 0.0, "fusion_lat": 0.0, "lat": 38.913289166666665, "type": "electric_scooter", "lon": -77.042359, "bike_id": "4eefb81e3ba7907a75ca51663b2b648e", "rental_uris": {"android": "https://dc.lft.to/lastmile_qr_scan", "ios": "https://dc.lft.to/lastmile_qr_scan"}, "name": "4eefb81e3ba7907a75ca51663b2b648e", "is_reserved": 0}, {"is_disabled": 0, "fusion_lon": 0.0, "fusion_lat": 0.0, "lat": 38.902693166666666, "type": "electric_scooter", "lon": -77.03442483333333, "bike_id": "0bc3c4ee5d3b1e98bd9d8319df276fc8", "rental_uris": {"android": "https://dc.lft.to/lastmile_qr_scan", "ios": "https://dc.lft.to/lastmile_qr_scan"}, "name": "0bc3c4ee5d3b1e98bd9d8319df276fc8", "is_reserved": 0}, {"is_disabled": 0, "fusion_lon": 0.0, "fusion_lat": 0.0, "lat": 38.91843166666666, "type": "electric_scooter", "lon": -77.07211583333333, "bike_id": "05892d1a702d5e22e474a9d5c345c5f4", "rental_uris": {"android": "https://dc.lft.to/lastmile_qr_scan", "ios": "https://dc.lft.to/lastmile_qr_scan"}, "name": "05892d1a702d5e22e474a9d5c345c5f4", "is_reserved": 0}, {"is_disabled": 0, "fusion_lon": 0.0, "fusion_lat": 0.0, "lat": 38.927788166666666, "type": "electric_scooter", "lon": -77.01412383333333, "bike_id": "2410dcf33a4c3fd4ab2fb5337d879a29", "rental_uris": {"android": "https://dc.lft.to/lastmile_qr_scan", "ios": "https://dc.lft.to/lastmile_qr_scan"}, "name": "2410dcf33a4c3fd4ab2fb5337d879a29", "is_reserved": 0}, {"is_disabled": 0, "fusion_lon": 0.0, "fusion_lat": 0.0, "lat": 38.924612, "type": "electric_scooter", "lon": -77.050856, "bike_id": "cb50c0da0bdfeca160a8d55c989ac79c", "rental_uris": {"android": "https://dc.lft.to/lastmile_qr_scan", "ios": "https://dc.lft.to/lastmile_qr_scan"}, "name": "cb50c0da0bdfeca160a8d55c989ac79c", "is_reserved": 0}, {"is_disabled": 0, "fusion_lon": 0.0, "fusion_lat": 0.0, "lat": 38.8836195, "type": "electric_scooter", "lon": -76.985607, "bike_id": "21479e0b79a1c7fa8d9bf3a6eab288ae", "rental_uris": {"android": "https://dc.lft.to/lastmile_qr_scan", "ios": "https://dc.lft.to/lastmile_qr_scan"}, "name": "21479e0b79a1c7fa8d9bf3a6eab288ae", "is_reserved": 0}, {"is_disabled": 0, "fusion_lon": 0.0, "fusion_lat": 0.0, "lat": 38.92535083333333, "type": "electric_scooter", "lon": -77.076632, "bike_id": "0caae84c7b2f0dd86761f46febab6180", "rental_uris": {"android": "https://dc.lft.to/lastmile_qr_scan", "ios": "https://dc.lft.to/lastmile_qr_scan"}, "name": "0caae84c7b2f0dd86761f46febab6180", "is_reserved": 0}, {"is_disabled": 0, "fusion_lon": 0.0, "fusion_lat": 0.0, "lat": 38.94894983333333, "type": "electric_bike", "lon": -76.96373016666666, "bike_id": "11793b43325028b04e7d360adf58dba5", "rental_uris": {"android": "https://dc.lft.to/lastmile_qr_scan", "ios": "https://dc.lft.to/lastmile_qr_scan"}, "name": "11793b43325028b04e7d360adf58dba5", "is_reserved": 0}, {"is_disabled": 0, "fusion_lon": 0.0, "fusion_lat": 0.0, "lat": 38.9178395, "type": "electric_scooter", "lon": -77.04361833333333, "bike_id": "9130339adcfbff7e846ae0d5131e5446", "rental_uris": {"android": "https://dc.lft.to/lastmile_qr_scan", "ios": "https://dc.lft.to/lastmile_qr_scan"}, "name": "9130339adcfbff7e846ae0d5131e5446", "is_reserved": 0}, {"is_disabled": 0, "fusion_lon": 0.0, "fusion_lat": 0.0, "lat": 38.93699516666667, "type": "electric_scooter", "lon": -77.05601283333333, "bike_id": "d6995effeab8456a530b974309e12a4a", "rental_uris": {"android": "https://dc.lft.to/lastmile_qr_scan", "ios": "https://dc.lft.to/lastmile_qr_scan"}, "name": "d6995effeab8456a530b974309e12a4a", "is_reserved": 0}, {"is_disabled": 0, "fusion_lon": 0.0, "fusion_lat": 0.0, "lat": 38.93929166666667, "type": "electric_bike", "lon": -76.99515666666667, "bike_id": "98788a63e8dcbdac1c71dcb1801aa540", "rental_uris": {"android": "https://dc.lft.to/lastmile_qr_scan", "ios": "https://dc.lft.to/lastmile_qr_scan"}, "name": "98788a63e8dcbdac1c71dcb1801aa540", "is_reserved": 0}, {"is_disabled": 0, "fusion_lon": 0.0, "fusion_lat": 0.0, "lat": 38.88830433333333, "type": "electric_scooter", "lon": -76.91788566666666, "bike_id": "74ece76b980f8b0bd76e549db8c22266", "rental_uris": {"android": "https://dc.lft.to/lastmile_qr_scan", "ios": "https://dc.lft.to/lastmile_qr_scan"}, "name": "74ece76b980f8b0bd76e549db8c22266", "is_reserved": 0}, {"is_disabled": 0, "fusion_lon": 0.0, "fusion_lat": 0.0, "lat": 38.904942, "type": "electric_scooter", "lon": -77.0684125, "bike_id": "57854fbb95f45177977e00dbbcbefd52", "rental_uris": {"android": "https://dc.lft.to/lastmile_qr_scan", "ios": "https://dc.lft.to/lastmile_qr_scan"}, "name": "57854fbb95f45177977e00dbbcbefd52", "is_reserved": 0}, {"is_disabled": 0, "fusion_lon": 0.0, "fusion_lat": 0.0, "lat": 38.932309000000004, "type": "electric_scooter", "lon": -76.99933033333333, "bike_id": "a226e5e35202e10e52258fdab5e73aaa", "rental_uris": {"android": "https://dc.lft.to/lastmile_qr_scan", "ios": "https://dc.lft.to/lastmile_qr_scan"}, "name": "a226e5e35202e10e52258fdab5e73aaa", "is_reserved": 0}, {"is_disabled": 0, "fusion_lon": 0.0, "fusion_lat": 0.0, "lat": 38.90593066666667, "type": "electric_scooter", "lon": -77.046604, "bike_id": "8750440cc782a68288788502f05cd554", "rental_uris": {"android": "https://dc.lft.to/lastmile_qr_scan", "ios": "https://dc.lft.to/lastmile_qr_scan"}, "name": "8750440cc782a68288788502f05cd554", "is_reserved": 0}, {"is_disabled": 0, "fusion_lon": 0.0, "fusion_lat": 0.0, "lat": 38.916644, "type": "electric_scooter", "lon": -77.02971616666666, "bike_id": "4def92829f95129ad262a2eae979d966", "rental_uris": {"android": "https://dc.lft.to/lastmile_qr_scan", "ios": "https://dc.lft.to/lastmile_qr_scan"}, "name": "4def92829f95129ad262a2eae979d966", "is_reserved": 0}, {"is_disabled": 0, "fusion_lon": 0.0, "fusion_lat": 0.0, "lat": 38.91820416666667, "type": "electric_scooter", "lon": -77.04519966666666, "bike_id": "037220ceffa629aef1f5fed34082717b", "rental_uris": {"android": "https://dc.lft.to/lastmile_qr_scan", "ios": "https://dc.lft.to/lastmile_qr_scan"}, "name": "037220ceffa629aef1f5fed34082717b", "is_reserved": 0}, {"is_disabled": 0, "fusion_lon": 0.0, "fusion_lat": 0.0, "lat": 38.83121333333333, "type": "electric_bike", "lon": -77.04327116666667, "bike_id": "ff8b58bffb923f4d43dcaeb205286ff7", "rental_uris": {"android": "https://dc.lft.to/lastmile_qr_scan", "ios": "https://dc.lft.to/lastmile_qr_scan"}, "name": "ff8b58bffb923f4d43dcaeb205286ff7", "is_reserved": 0}, {"is_disabled": 0, "fusion_lon": 0.0, "fusion_lat": 0.0, "lat": 38.93671783333333, "type": "electric_scooter", "lon": -77.03634866666667, "bike_id": "d707cb381ccbc655aeb8039aed45f221", "rental_uris": {"android": "https://dc.lft.to/lastmile_qr_scan", "ios": "https://dc.lft.to/lastmile_qr_scan"}, "name": "d707cb381ccbc655aeb8039aed45f221", "is_reserved": 0}, {"is_disabled": 0, "fusion_lon": 0.0, "fusion_lat": 0.0, "lat": 38.918498, "type": "electric_bike", "lon": -76.9608575, "bike_id": "471175f582b28cbec3531d1019096d42", "rental_uris": {"android": "https://dc.lft.to/lastmile_qr_scan", "ios": "https://dc.lft.to/lastmile_qr_scan"}, "name": "471175f582b28cbec3531d1019096d42", "is_reserved": 0}, {"is_disabled": 0, "fusion_lon": 0.0, "fusion_lat": 0.0, "lat": 38.92655216666667, "type": "electric_scooter", "lon": -77.04309833333333, "bike_id": "5301436f78d1c6f0275bfbb1a04d526c", "rental_uris": {"android": "https://dc.lft.to/lastmile_qr_scan", "ios": "https://dc.lft.to/lastmile_qr_scan"}, "name": "5301436f78d1c6f0275bfbb1a04d526c", "is_reserved": 0}, {"is_disabled": 0, "fusion_lon": 0.0, "fusion_lat": 0.0, "lat": 38.90564783333333, "type": "electric_scooter", "lon": -77.0247025, "bike_id": "787a7a67147190ab7cf3531c04a8d001", "rental_uris": {"android": "https://dc.lft.to/lastmile_qr_scan", "ios": "https://dc.lft.to/lastmile_qr_scan"}, "name": "787a7a67147190ab7cf3531c04a8d001", "is_reserved": 0}, {"is_disabled": 0, "fusion_lon": 0.0, "fusion_lat": 0.0, "lat": 38.928531666666665, "type": "electric_scooter", "lon": -77.05627883333334, "bike_id": "6bdfe28254766de1cfa15370ee34d896", "rental_uris": {"android": "https://dc.lft.to/lastmile_qr_scan", "ios": "https://dc.lft.to/lastmile_qr_scan"}, "name": "6bdfe28254766de1cfa15370ee34d896", "is_reserved": 0}, {"is_disabled": 0, "fusion_lon": 0.0, "fusion_lat": 0.0, "lat": 38.88436033333333, "type": "electric_scooter", "lon": -77.025323, "bike_id": "4fe7d5da87a5bd318a1cb5ca5160146a", "rental_uris": {"android": "https://dc.lft.to/lastmile_qr_scan", "ios": "https://dc.lft.to/lastmile_qr_scan"}, "name": "4fe7d5da87a5bd318a1cb5ca5160146a", "is_reserved": 0}, {"is_disabled": 0, "fusion_lon": 0.0, "fusion_lat": 0.0, "lat": 38.91116366666667, "type": "electric_scooter", "lon": -77.03837933333334, "bike_id": "ba1ecde0b921848fb3cf455cf0557e33", "rental_uris": {"android": "https://dc.lft.to/lastmile_qr_scan", "ios": "https://dc.lft.to/lastmile_qr_scan"}, "name": "ba1ecde0b921848fb3cf455cf0557e33", "is_reserved": 0}, {"is_disabled": 0, "fusion_lon": 0.0, "fusion_lat": 0.0, "lat": 38.91792783333333, "type": "electric_scooter", "lon": -77.03460083333333, "bike_id": "ce3f4439821fcc63625dc21dd1d442b7", "rental_uris": {"android": "https://dc.lft.to/lastmile_qr_scan", "ios": "https://dc.lft.to/lastmile_qr_scan"}, "name": "ce3f4439821fcc63625dc21dd1d442b7", "is_reserved": 0}, {"is_disabled": 0, "fusion_lon": 0.0, "fusion_lat": 0.0, "lat": 38.94545316666667, "type": "electric_scooter", "lon": -77.04246516666667, "bike_id": "81f5c692b9a0b9ebbc7e41691cdc69d2", "rental_uris": {"android": "https://dc.lft.to/lastmile_qr_scan", "ios": "https://dc.lft.to/lastmile_qr_scan"}, "name": "81f5c692b9a0b9ebbc7e41691cdc69d2", "is_reserved": 0}, {"is_disabled": 0, "fusion_lon": 0.0, "fusion_lat": 0.0, "lat": 38.929551833333335, "type": "electric_scooter", "lon": -77.02351666666667, "bike_id": "b3486dedadf2380005bc2204e88c3895", "rental_uris": {"android": "https://dc.lft.to/lastmile_qr_scan", "ios": "https://dc.lft.to/lastmile_qr_scan"}, "name": "b3486dedadf2380005bc2204e88c3895", "is_reserved": 0}, {"is_disabled": 0, "fusion_lon": 0.0, "fusion_lat": 0.0, "lat": 38.873444, "type": "electric_scooter", "lon": -77.0136035, "bike_id": "c4804df5d39e6e996b96e389e8ebc5b1", "rental_uris": {"android": "https://dc.lft.to/lastmile_qr_scan", "ios": "https://dc.lft.to/lastmile_qr_scan"}, "name": "c4804df5d39e6e996b96e389e8ebc5b1", "is_reserved": 0}, {"is_disabled": 0, "fusion_lon": 0.0, "fusion_lat": 0.0, "lat": 38.9141155, "type": "electric_scooter", "lon": -77.02228716666667, "bike_id": "30cf7433a0b4ad0363c3d147464821d4", "rental_uris": {"android": "https://dc.lft.to/lastmile_qr_scan", "ios": "https://dc.lft.to/lastmile_qr_scan"}, "name": "30cf7433a0b4ad0363c3d147464821d4", "is_reserved": 0}, {"is_disabled": 0, "fusion_lon": 0.0, "fusion_lat": 0.0, "lat": 38.921850166666665, "type": "electric_scooter", "lon": -77.04323516666666, "bike_id": "6a5592287d7b0c8acb1179324c0786e3", "rental_uris": {"android": "https://dc.lft.to/lastmile_qr_scan", "ios": "https://dc.lft.to/lastmile_qr_scan"}, "name": "6a5592287d7b0c8acb1179324c0786e3", "is_reserved": 0}, {"is_disabled": 0, "fusion_lon": 0.0, "fusion_lat": 0.0, "lat": 38.87083966666667, "type": "electric_bike", "lon": -77.01205433333334, "bike_id": "8af80898682d7ba22cb5926990d37ea7", "rental_uris": {"android": "https://dc.lft.to/lastmile_qr_scan", "ios": "https://dc.lft.to/lastmile_qr_scan"}, "name": "8af80898682d7ba22cb5926990d37ea7", "is_reserved": 0}, {"is_disabled": 0, "fusion_lon": 0.0, "fusion_lat": 0.0, "lat": 38.91492433333333, "type": "electric_scooter", "lon": -76.98360683333334, "bike_id": "de5901253bcd83e47e74e259fe80e991", "rental_uris": {"android": "https://dc.lft.to/lastmile_qr_scan", "ios": "https://dc.lft.to/lastmile_qr_scan"}, "name": "de5901253bcd83e47e74e259fe80e991", "is_reserved": 0}, {"is_disabled": 0, "fusion_lon": 0.0, "fusion_lat": 0.0, "lat": 38.8767785, "type": "electric_scooter", "lon": -77.01786616666666, "bike_id": "7d3a67ddba5ab2cd692b8a55f59f1569", "rental_uris": {"android": "https://dc.lft.to/lastmile_qr_scan", "ios": "https://dc.lft.to/lastmile_qr_scan"}, "name": "7d3a67ddba5ab2cd692b8a55f59f1569", "is_reserved": 0}, {"is_disabled": 0, "fusion_lon": 0.0, "fusion_lat": 0.0, "lat": 38.918989333333336, "type": "electric_scooter", "lon": -77.02758233333333, "bike_id": "1a1e7315828b7f245b63b4f10d880639", "rental_uris": {"android": "https://dc.lft.to/lastmile_qr_scan", "ios": "https://dc.lft.to/lastmile_qr_scan"}, "name": "1a1e7315828b7f245b63b4f10d880639", "is_reserved": 0}, {"is_disabled": 0, "fusion_lon": 0.0, "fusion_lat": 0.0, "lat": 38.92794833333333, "type": "electric_scooter", "lon": -77.02296, "bike_id": "aa03753807a68e263b828ddf7986a8cf", "rental_uris": {"android": "https://dc.lft.to/lastmile_qr_scan", "ios": "https://dc.lft.to/lastmile_qr_scan"}, "name": "aa03753807a68e263b828ddf7986a8cf", "is_reserved": 0}, {"is_disabled": 0, "fusion_lon": 0.0, "fusion_lat": 0.0, "lat": 38.91798416666666, "type": "electric_scooter", "lon": -77.03550333333334, "bike_id": "d352f54d9b56d101639b7cd28e29f5a4", "rental_uris": {"android": "https://dc.lft.to/lastmile_qr_scan", "ios": "https://dc.lft.to/lastmile_qr_scan"}, "name": "d352f54d9b56d101639b7cd28e29f5a4", "is_reserved": 0}, {"is_disabled": 0, "fusion_lon": 0.0, "fusion_lat": 0.0, "lat": 38.92736633333333, "type": "electric_bike", "lon": -76.99365033333333, "bike_id": "cab4f2f918b7587b00b3e850697fc615", "rental_uris": {"android": "https://dc.lft.to/lastmile_qr_scan", "ios": "https://dc.lft.to/lastmile_qr_scan"}, "name": "cab4f2f918b7587b00b3e850697fc615", "is_reserved": 0}, {"is_disabled": 0, "fusion_lon": 0.0, "fusion_lat": 0.0, "lat": 38.904940833333335, "type": "electric_scooter", "lon": -77.029588, "bike_id": "0045e69ac0910a8187b8b542df282c0a", "rental_uris": {"android": "https://dc.lft.to/lastmile_qr_scan", "ios": "https://dc.lft.to/lastmile_qr_scan"}, "name": "0045e69ac0910a8187b8b542df282c0a", "is_reserved": 0}, {"is_disabled": 0, "fusion_lon": 0.0, "fusion_lat": 0.0, "lat": 38.91719333333333, "type": "electric_scooter", "lon": -77.02871516666667, "bike_id": "4b40df8d17011ef078812272c210ebba", "rental_uris": {"android": "https://dc.lft.to/lastmile_qr_scan", "ios": "https://dc.lft.to/lastmile_qr_scan"}, "name": "4b40df8d17011ef078812272c210ebba", "is_reserved": 0}, {"is_disabled": 0, "fusion_lon": 0.0, "fusion_lat": 0.0, "lat": 38.956325, "type": "electric_scooter", "lon": -77.02979916666666, "bike_id": "1b3f0dd03fc8e8d3fd0403e1f5f45e6e", "rental_uris": {"android": "https://dc.lft.to/lastmile_qr_scan", "ios": "https://dc.lft.to/lastmile_qr_scan"}, "name": "1b3f0dd03fc8e8d3fd0403e1f5f45e6e", "is_reserved": 0}, {"is_disabled": 0, "fusion_lon": 0.0, "fusion_lat": 0.0, "lat": 38.85064716666667, "type": "electric_bike", "lon": -76.97331083333333, "bike_id": "2d50dff734494e26877bee6ee11aa4b1", "rental_uris": {"android": "https://dc.lft.to/lastmile_qr_scan", "ios": "https://dc.lft.to/lastmile_qr_scan"}, "name": "2d50dff734494e26877bee6ee11aa4b1", "is_reserved": 0}, {"is_disabled": 0, "fusion_lon": 0.0, "fusion_lat": 0.0, "lat": 38.881692666666666, "type": "electric_scooter", "lon": -77.00901466666667, "bike_id": "b8b1558b4e22a496dc9f16bd5b58ed11", "rental_uris": {"android": "https://dc.lft.to/lastmile_qr_scan", "ios": "https://dc.lft.to/lastmile_qr_scan"}, "name": "b8b1558b4e22a496dc9f16bd5b58ed11", "is_reserved": 0}, {"is_disabled": 0, "fusion_lon": 0.0, "fusion_lat": 0.0, "lat": 38.859625666666666, "type": "electric_scooter", "lon": -76.98413633333334, "bike_id": "a16eb8630839b327aa78408e878a14fa", "rental_uris": {"android": "https://dc.lft.to/lastmile_qr_scan", "ios": "https://dc.lft.to/lastmile_qr_scan"}, "name": "a16eb8630839b327aa78408e878a14fa", "is_reserved": 0}, {"is_disabled": 0, "fusion_lon": 0.0, "fusion_lat": 0.0, "lat": 38.902663, "type": "electric_scooter", "lon": -77.03451333333334, "bike_id": "688de13764da398029961c54caeaa9ff", "rental_uris": {"android": "https://dc.lft.to/lastmile_qr_scan", "ios": "https://dc.lft.to/lastmile_qr_scan"}, "name": "688de13764da398029961c54caeaa9ff", "is_reserved": 0}, {"is_disabled": 0, "fusion_lon": 0.0, "fusion_lat": 0.0, "lat": 38.99250133333334, "type": "electric_bike", "lon": -77.04994383333333, "bike_id": "16a38f4ac5a86a6587c14d2274c46734", "rental_uris": {"android": "https://dc.lft.to/lastmile_qr_scan", "ios": "https://dc.lft.to/lastmile_qr_scan"}, "name": "16a38f4ac5a86a6587c14d2274c46734", "is_reserved": 0}, {"is_disabled": 0, "fusion_lon": 0.0, "fusion_lat": 0.0, "lat": 39.115121, "type": "electric_bike", "lon": -77.19548366666666, "bike_id": "51205e564ce7b37754f18c2e248aa07f", "rental_uris": {"android": "https://dc.lft.to/lastmile_qr_scan", "ios": "https://dc.lft.to/lastmile_qr_scan"}, "name": "51205e564ce7b37754f18c2e248aa07f", "is_reserved": 0}, {"is_disabled": 0, "fusion_lon": 0.0, "fusion_lat": 0.0, "lat": 38.943037, "type": "electric_scooter", "lon": -77.02351883333333, "bike_id": "5871b8516b835465d7d475958786f917", "rental_uris": {"android": "https://dc.lft.to/lastmile_qr_scan", "ios": "https://dc.lft.to/lastmile_qr_scan"}, "name": "5871b8516b835465d7d475958786f917", "is_reserved": 0}, {"is_disabled": 0, "fusion_lon": 0.0, "fusion_lat": 0.0, "lat": 38.93044116666667, "type": "electric_scooter", "lon": -77.00412833333333, "bike_id": "b7226e5828bb3ac331ebfbfad5af3ed0", "rental_uris": {"android": "https://dc.lft.to/lastmile_qr_scan", "ios": "https://dc.lft.to/lastmile_qr_scan"}, "name": "b7226e5828bb3ac331ebfbfad5af3ed0", "is_reserved": 0}, {"is_disabled": 0, "fusion_lon": 0.0, "fusion_lat": 0.0, "lat": 38.9387655, "type": "electric_scooter", "lon": -77.033245, "bike_id": "ae2aab85d7e156cb80a18a72132f21ec", "rental_uris": {"android": "https://dc.lft.to/lastmile_qr_scan", "ios": "https://dc.lft.to/lastmile_qr_scan"}, "name": "ae2aab85d7e156cb80a18a72132f21ec", "is_reserved": 0}, {"is_disabled": 0, "fusion_lon": 0.0, "fusion_lat": 0.0, "lat": 38.990816, "type": "electric_bike", "lon": -77.00175116666666, "bike_id": "3324242dd3b3a88deb7ee7ab65f43d07", "rental_uris": {"android": "https://dc.lft.to/lastmile_qr_scan", "ios": "https://dc.lft.to/lastmile_qr_scan"}, "name": "3324242dd3b3a88deb7ee7ab65f43d07", "is_reserved": 0}, {"is_disabled": 0, "fusion_lon": 0.0, "fusion_lat": 0.0, "lat": 38.8571345, "type": "electric_bike", "lon": -76.98109533333333, "bike_id": "5dff34be904cf7c4f76ed16b690bae26", "rental_uris": {"android": "https://dc.lft.to/lastmile_qr_scan", "ios": "https://dc.lft.to/lastmile_qr_scan"}, "name": "5dff34be904cf7c4f76ed16b690bae26", "is_reserved": 0}, {"is_disabled": 0, "fusion_lon": 0.0, "fusion_lat": 0.0, "lat": 38.83811716666666, "type": "electric_scooter", "lon": -77.004287, "bike_id": "36e096d85d74f4e5c2999c745c913c85", "rental_uris": {"android": "https://dc.lft.to/lastmile_qr_scan", "ios": "https://dc.lft.to/lastmile_qr_scan"}, "name": "36e096d85d74f4e5c2999c745c913c85", "is_reserved": 0}, {"is_disabled": 0, "fusion_lon": 0.0, "fusion_lat": 0.0, "lat": 38.8311665, "type": "electric_bike", "lon": -77.04323933333333, "bike_id": "e89d86146b14b0b4eaed95b73bc2cdce", "rental_uris": {"android": "https://dc.lft.to/lastmile_qr_scan", "ios": "https://dc.lft.to/lastmile_qr_scan"}, "name": "e89d86146b14b0b4eaed95b73bc2cdce", "is_reserved": 0}, {"is_disabled": 0, "fusion_lon": 0.0, "fusion_lat": 0.0, "lat": 38.96282466666667, "type": "electric_bike", "lon": -77.02869466666667, "bike_id": "b58841d5ef07f37647759b1d344b6f73", "rental_uris": {"android": "https://dc.lft.to/lastmile_qr_scan", "ios": "https://dc.lft.to/lastmile_qr_scan"}, "name": "b58841d5ef07f37647759b1d344b6f73", "is_reserved": 0}, {"is_disabled": 0, "fusion_lon": 0.0, "fusion_lat": 0.0, "lat": 38.91051983333333, "type": "electric_scooter", "lon": -77.05443066666666, "bike_id": "54d2d091ab9c8184a328ed502f6bc4a6", "rental_uris": {"android": "https://dc.lft.to/lastmile_qr_scan", "ios": "https://dc.lft.to/lastmile_qr_scan"}, "name": "54d2d091ab9c8184a328ed502f6bc4a6", "is_reserved": 0}, {"is_disabled": 0, "fusion_lon": 0.0, "fusion_lat": 0.0, "lat": 38.904688, "type": "electric_scooter", "lon": -77.03566483333333, "bike_id": "bc2ab4a482066a41accd8a7a042de5d3", "rental_uris": {"android": "https://dc.lft.to/lastmile_qr_scan", "ios": "https://dc.lft.to/lastmile_qr_scan"}, "name": "bc2ab4a482066a41accd8a7a042de5d3", "is_reserved": 0}, {"is_disabled": 0, "fusion_lon": 0.0, "fusion_lat": 0.0, "lat": 38.89693, "type": "electric_scooter", "lon": -77.03034333333333, "bike_id": "7cde42ee7eba14f882c6ff3b678e0d51", "rental_uris": {"android": "https://dc.lft.to/lastmile_qr_scan", "ios": "https://dc.lft.to/lastmile_qr_scan"}, "name": "7cde42ee7eba14f882c6ff3b678e0d51", "is_reserved": 0}, {"is_disabled": 0, "fusion_lon": 0.0, "fusion_lat": 0.0, "lat": 38.93448433333333, "type": "electric_scooter", "lon": -77.030164, "bike_id": "133786700efa9d6e718b89fb0be1ccb1", "rental_uris": {"android": "https://dc.lft.to/lastmile_qr_scan", "ios": "https://dc.lft.to/lastmile_qr_scan"}, "name": "133786700efa9d6e718b89fb0be1ccb1", "is_reserved": 0}, {"is_disabled": 0, "fusion_lon": 0.0, "fusion_lat": 0.0, "lat": 38.945753333333336, "type": "electric_bike", "lon": -76.98773333333334, "bike_id": "935cc984116c56bed760c1877533262b", "rental_uris": {"android": "https://dc.lft.to/lastmile_qr_scan", "ios": "https://dc.lft.to/lastmile_qr_scan"}, "name": "935cc984116c56bed760c1877533262b", "is_reserved": 0}, {"is_disabled": 0, "fusion_lon": 0.0, "fusion_lat": 0.0, "lat": 38.9363625, "type": "electric_bike", "lon": -76.9545685, "bike_id": "275ce08b9b62a0d539617ee04f02ea8e", "rental_uris": {"android": "https://dc.lft.to/lastmile_qr_scan", "ios": "https://dc.lft.to/lastmile_qr_scan"}, "name": "275ce08b9b62a0d539617ee04f02ea8e", "is_reserved": 0}, {"is_disabled": 0, "fusion_lon": 0.0, "fusion_lat": 0.0, "lat": 38.91818266666667, "type": "electric_scooter", "lon": -77.04004666666667, "bike_id": "3f736e90350a1d1936d61d6b90a0b0a2", "rental_uris": {"android": "https://dc.lft.to/lastmile_qr_scan", "ios": "https://dc.lft.to/lastmile_qr_scan"}, "name": "3f736e90350a1d1936d61d6b90a0b0a2", "is_reserved": 0}, {"is_disabled": 0, "fusion_lon": 0.0, "fusion_lat": 0.0, "lat": 38.9018665, "type": "electric_scooter", "lon": -77.02500316666666, "bike_id": "c93bffc7f47baf9ebcb39fa85f47986e", "rental_uris": {"android": "https://dc.lft.to/lastmile_qr_scan", "ios": "https://dc.lft.to/lastmile_qr_scan"}, "name": "c93bffc7f47baf9ebcb39fa85f47986e", "is_reserved": 0}, {"is_disabled": 0, "fusion_lon": 0.0, "fusion_lat": 0.0, "lat": 38.823902833333335, "type": "electric_scooter", "lon": -77.00698583333333, "bike_id": "ee0a5e87b88ef03f2cb3374ca24bede2", "rental_uris": {"android": "https://dc.lft.to/lastmile_qr_scan", "ios": "https://dc.lft.to/lastmile_qr_scan"}, "name": "ee0a5e87b88ef03f2cb3374ca24bede2", "is_reserved": 0}, {"is_disabled": 0, "fusion_lon": 0.0, "fusion_lat": 0.0, "lat": 38.890023666666664, "type": "electric_scooter", "lon": -77.04893683333333, "bike_id": "be5c7d090e0ca21367c1bce6d99ecef1", "rental_uris": {"android": "https://dc.lft.to/lastmile_qr_scan", "ios": "https://dc.lft.to/lastmile_qr_scan"}, "name": "be5c7d090e0ca21367c1bce6d99ecef1", "is_reserved": 0}, {"is_disabled": 0, "fusion_lon": 0.0, "fusion_lat": 0.0, "lat": 38.914232, "type": "electric_scooter", "lon": -77.03458283333333, "bike_id": "8081794dd7041171455748fd260f55e4", "rental_uris": {"android": "https://dc.lft.to/lastmile_qr_scan", "ios": "https://dc.lft.to/lastmile_qr_scan"}, "name": "8081794dd7041171455748fd260f55e4", "is_reserved": 0}, {"is_disabled": 0, "fusion_lon": 0.0, "fusion_lat": 0.0, "lat": 38.9204965, "type": "electric_scooter", "lon": -77.033898, "bike_id": "a4f0c0b07889bc580a2a94d3a579aad7", "rental_uris": {"android": "https://dc.lft.to/lastmile_qr_scan", "ios": "https://dc.lft.to/lastmile_qr_scan"}, "name": "a4f0c0b07889bc580a2a94d3a579aad7", "is_reserved": 0}, {"is_disabled": 0, "fusion_lon": 0.0, "fusion_lat": 0.0, "lat": 38.941711, "type": "electric_scooter", "lon": -77.02388333333333, "bike_id": "7d66a4cb224408b146f9f833e095e965", "rental_uris": {"android": "https://dc.lft.to/lastmile_qr_scan", "ios": "https://dc.lft.to/lastmile_qr_scan"}, "name": "7d66a4cb224408b146f9f833e095e965", "is_reserved": 0}, {"is_disabled": 0, "fusion_lon": 0.0, "fusion_lat": 0.0, "lat": 38.900958833333334, "type": "electric_scooter", "lon": -76.98829666666667, "bike_id": "0f34759925dfd2d530674c1e69c41d9a", "rental_uris": {"android": "https://dc.lft.to/lastmile_qr_scan", "ios": "https://dc.lft.to/lastmile_qr_scan"}, "name": "0f34759925dfd2d530674c1e69c41d9a", "is_reserved": 0}, {"is_disabled": 0, "fusion_lon": 0.0, "fusion_lat": 0.0, "lat": 38.833746833333336, "type": "electric_scooter", "lon": -76.993032, "bike_id": "9f856be7e954da1d64e965d3ac7eac5d", "rental_uris": {"android": "https://dc.lft.to/lastmile_qr_scan", "ios": "https://dc.lft.to/lastmile_qr_scan"}, "name": "9f856be7e954da1d64e965d3ac7eac5d", "is_reserved": 0}, {"is_disabled": 0, "fusion_lon": 0.0, "fusion_lat": 0.0, "lat": 38.91896666666667, "type": "electric_scooter", "lon": -77.0175145, "bike_id": "fd568e55a9c1a02d7e8367709befd00f", "rental_uris": {"android": "https://dc.lft.to/lastmile_qr_scan", "ios": "https://dc.lft.to/lastmile_qr_scan"}, "name": "fd568e55a9c1a02d7e8367709befd00f", "is_reserved": 0}, {"is_disabled": 0, "fusion_lon": 0.0, "fusion_lat": 0.0, "lat": 38.91566683333333, "type": "electric_scooter", "lon": -77.0313705, "bike_id": "84c27664de5014de0904170d81b0ec2d", "rental_uris": {"android": "https://dc.lft.to/lastmile_qr_scan", "ios": "https://dc.lft.to/lastmile_qr_scan"}, "name": "84c27664de5014de0904170d81b0ec2d", "is_reserved": 0}, {"is_disabled": 0, "fusion_lon": 0.0, "fusion_lat": 0.0, "lat": 38.90720833333334, "type": "electric_scooter", "lon": -77.03840816666667, "bike_id": "bd8a70dbf802c9639ca538c5c9abba1c", "rental_uris": {"android": "https://dc.lft.to/lastmile_qr_scan", "ios": "https://dc.lft.to/lastmile_qr_scan"}, "name": "bd8a70dbf802c9639ca538c5c9abba1c", "is_reserved": 0}, {"is_disabled": 0, "fusion_lon": 0.0, "fusion_lat": 0.0, "lat": 38.916869166666665, "type": "electric_scooter", "lon": -77.01608566666667, "bike_id": "3e4893a9f83f1c2d46ffe63abf03d208", "rental_uris": {"android": "https://dc.lft.to/lastmile_qr_scan", "ios": "https://dc.lft.to/lastmile_qr_scan"}, "name": "3e4893a9f83f1c2d46ffe63abf03d208", "is_reserved": 0}, {"is_disabled": 0, "fusion_lon": 0.0, "fusion_lat": 0.0, "lat": 38.89234966666667, "type": "electric_scooter", "lon": -77.033538, "bike_id": "9809f6e97327745ca6d4e1e9f593e9d2", "rental_uris": {"android": "https://dc.lft.to/lastmile_qr_scan", "ios": "https://dc.lft.to/lastmile_qr_scan"}, "name": "9809f6e97327745ca6d4e1e9f593e9d2", "is_reserved": 0}, {"is_disabled": 0, "fusion_lon": 0.0, "fusion_lat": 0.0, "lat": 38.91628583333333, "type": "electric_scooter", "lon": -77.0486605, "bike_id": "b753477eba49d25cf479a44a67060c96", "rental_uris": {"android": "https://dc.lft.to/lastmile_qr_scan", "ios": "https://dc.lft.to/lastmile_qr_scan"}, "name": "b753477eba49d25cf479a44a67060c96", "is_reserved": 0}, {"is_disabled": 0, "fusion_lon": 0.0, "fusion_lat": 0.0, "lat": 38.89845716666667, "type": "electric_scooter", "lon": -77.00742916666667, "bike_id": "a4561ef7718977399a04cee43cb0ddd2", "rental_uris": {"android": "https://dc.lft.to/lastmile_qr_scan", "ios": "https://dc.lft.to/lastmile_qr_scan"}, "name": "a4561ef7718977399a04cee43cb0ddd2", "is_reserved": 0}, {"is_disabled": 0, "fusion_lon": 0.0, "fusion_lat": 0.0, "lat": 38.981382333333336, "type": "electric_bike", "lon": -77.00771133333333, "bike_id": "e6d0aa218bbfd82fd3fdc9a275e21b78", "rental_uris": {"android": "https://dc.lft.to/lastmile_qr_scan", "ios": "https://dc.lft.to/lastmile_qr_scan"}, "name": "e6d0aa218bbfd82fd3fdc9a275e21b78", "is_reserved": 0}, {"is_disabled": 0, "fusion_lon": 0.0, "fusion_lat": 0.0, "lat": 38.9142035, "type": "electric_scooter", "lon": -77.035793, "bike_id": "e90f78beb572cf9b80963bba147e8bb4", "rental_uris": {"android": "https://dc.lft.to/lastmile_qr_scan", "ios": "https://dc.lft.to/lastmile_qr_scan"}, "name": "e90f78beb572cf9b80963bba147e8bb4", "is_reserved": 0}, {"is_disabled": 0, "fusion_lon": 0.0, "fusion_lat": 0.0, "lat": 38.903834833333335, "type": "electric_scooter", "lon": -77.03426283333333, "bike_id": "be8e4b56e4cb57946fe40e7dafea144b", "rental_uris": {"android": "https://dc.lft.to/lastmile_qr_scan", "ios": "https://dc.lft.to/lastmile_qr_scan"}, "name": "be8e4b56e4cb57946fe40e7dafea144b", "is_reserved": 0},