{"data": {"bikes": [{"rental_uris": {"ios": "https://dc.lft.to/lastmile_qr_scan", "android": "https://dc.lft.to/lastmile_qr_scan"}, "lon": -77.01888616666666, "type": "electric_scooter", "fusion_lat": 0.0, "lat": 38.9021195, "name": "e131d3ae3cdace455cf00f14382c612d", "fusion_lon": 0.0, "bike_id": "e131d3ae3cdace455cf00f14382c612d", "is_disabled": 0, "is_reserved": 0}, {"rental_uris": {"ios": "https://dc.lft.to/lastmile_qr_scan", "android": "https://dc.lft.to/lastmile_qr_scan"}, "lon": -76.92999766666667, "type": "electric_bike", "fusion_lat": 0.0, "lat": 38.887977, "name": "13547aaccfecf0481515f5f792808c8b", "fusion_lon": 0.0, "bike_id": "13547aaccfecf0481515f5f792808c8b", "is_disabled": 0, "is_reserved": 0}, {"rental_uris": {"ios": "https://dc.lft.to/lastmile_qr_scan", "android": "https://dc.lft.to/lastmile_qr_scan"}, "lon": -77.031884, "type": "electric_scooter", "fusion_lat": 0.0, "lat": 38.9179955, "name": "7e7e4e20fefdf4e33ac962c7e48e5b82", "fusion_lon": 0.0, "bike_id": "7e7e4e20fefdf4e33ac962c7e48e5b82", "is_disabled": 0, "is_reserved": 0}, {"rental_uris": {"ios": "https://dc.lft.to/lastmile_qr_scan", "android": "https://dc.lft.to/lastmile_qr_scan"}, "lon": -77.0492725, "type": "electric_scooter", "fusion_lat": 0.0, "lat": 38.89607916666667, "name": "e78060e70e65a4d070c041d7dcf83a92", "fusion_lon": 0.0, "bike_id": "e78060e70e65a4d070c041d7dcf83a92", "is_disabled": 0, "is_reserved": 0}, {"rental_uris": {"ios": "https://dc.lft.to/lastmile_qr_scan", "android": "https://dc.lft.to/lastmile_qr_scan"}, "lon": -77.05277616666666, "type": "electric_scooter", "fusion_lat": 0.0, "lat": 38.9101695, "name": "d424585dea2b607da2bf7f78cb9856b3", "fusion_lon": 0.0, "bike_id": "d424585dea2b607da2bf7f78cb9856b3", "is_disabled": 0, "is_reserved": 0}, {"rental_uris": {"ios": "https://dc.lft.to/lastmile_qr_scan", "android": "https://dc.lft.to/lastmile_qr_scan"}, "lon": -77.02717416666667, "type": "electric_scooter", "fusion_lat": 0.0, "lat": 38.90681466666667, "name": "9cfa5294e4bf4b6663b44f52cf147067", "fusion_lon": 0.0, "bike_id": "9cfa5294e4bf4b6663b44f52cf147067", "is_disabled": 0, "is_reserved": 0}, {"rental_uris": {"ios": "https://dc.lft.to/lastmile_qr_scan", "android": "https://dc.lft.to/lastmile_qr_scan"}, "lon": -76.93965616666667, "type": "electric_scooter", "fusion_lat": 0.0, "lat": 38.89417433333333, "name": "045b2aeb22d9d1aa64c90f6463d8fe53", "fusion_lon": 0.0, "bike_id": "045b2aeb22d9d1aa64c90f6463d8fe53", "is_disabled": 0, "is_reserved": 0}, {"rental_uris": {"ios": "https://dc.lft.to/lastmile_qr_scan", "android": "https://dc.lft.to/lastmile_qr_scan"}, "lon": -77.07806416666666, "type": "electric_scooter", "fusion_lat": 0.0, "lat": 38.94089233333333, "name": "168c5c819fd021e8fff66eda0b7eaa44", "fusion_lon": 0.0, "bike_id": "168c5c819fd021e8fff66eda0b7eaa44", "is_disabled": 0, "is_reserved": 0}, {"rental_uris": {"ios": "https://dc.lft.to/lastmile_qr_scan", "android": "https://dc.lft.to/lastmile_qr_scan"}, "lon": -77.00709316666666, "type": "electric_scooter", "fusion_lat": 0.0, "lat": 38.913361, "name": "691ec9671673600d8a4fd64a075c7706", "fusion_lon": 0.0, "bike_id": "691ec9671673600d8a4fd64a075c7706", "is_disabled": 0, "is_reserved": 0}, {"rental_uris": {"ios": "https://dc.lft.to/lastmile_qr_scan", "android": "https://dc.lft.to/lastmile_qr_scan"}, "lon": -77.02650516666667, "type": "electric_scooter", "fusion_lat": 0.0, "lat": 38.92173666666667, "name": "6f9988caf7e9affb739b0333cde0ce8f", "fusion_lon": 0.0, "bike_id": "6f9988caf7e9affb739b0333cde0ce8f", "is_disabled": 0, "is_reserved": 0}, {"rental_uris": {"ios": "https://dc.lft.to/lastmile_qr_scan", "android": "https://dc.lft.to/lastmile_qr_scan"}, "lon": -77.00652283333334, "type": "electric_scooter", "fusion_lat": 0.0, "lat": 38.87176633333333, "name": "0892037db717e195a52309b353faefc2", "fusion_lon": 0.0, "bike_id": "0892037db717e195a52309b353faefc2", "is_disabled": 0, "is_reserved": 0}, {"rental_uris": {"ios": "https://dc.lft.to/lastmile_qr_scan", "android": "https://dc.lft.to/lastmile_qr_scan"}, "lon": -77.0259235, "type": "electric_scooter", "fusion_lat": 0.0, "lat": 38.89259783333333, "name": "27add66e227595d3992eb1e88cb09d1b", "fusion_lon": 0.0, "bike_id": "27add66e227595d3992eb1e88cb09d1b", "is_disabled": 0, "is_reserved": 0}, {"rental_uris": {"ios": "https://dc.lft.to/lastmile_qr_scan", "android": "https://dc.lft.to/lastmile_qr_scan"}, "lon": -77.05601866666667, "type": "electric_bike", "fusion_lat": 0.0, "lat": 38.924083333333336, "name": "f684c769474a24ece956a681631434c4", "fusion_lon": 0.0, "bike_id": "f684c769474a24ece956a681631434c4", "is_disabled": 0, "is_reserved": 0}, {"rental_uris": {"ios": "https://dc.lft.to/lastmile_qr_scan", "android": "https://dc.lft.to/lastmile_qr_scan"}, "lon": -77.04006966666667, "type": "electric_scooter", "fusion_lat": 0.0, "lat": 38.90991983333333, "name": "f30bc1953d8b0c3b85cc18dc7252f80f", "fusion_lon": 0.0, "bike_id": "f30bc1953d8b0c3b85cc18dc7252f80f", "is_disabled": 0, "is_reserved": 0}, {"rental_uris": {"ios": "https://dc.lft.to/lastmile_qr_scan", "android": "https://dc.lft.to/lastmile_qr_scan"}, "lon": -77.04865866666667, "type": "electric_scooter", "fusion_lat": 0.0, "lat": 38.9084805, "name": "2b1d2a9f0fb37a7e2cdf3c85fc256c40", "fusion_lon": 0.0, "bike_id": "2b1d2a9f0fb37a7e2cdf3c85fc256c40", "is_disabled": 0, "is_reserved": 0}, {"rental_uris": {"ios": "https://dc.lft.to/lastmile_qr_scan", "android": "https://dc.lft.to/lastmile_qr_scan"}, "lon": -77.058127, "type": "electric_scooter", "fusion_lat": 0.0, "lat": 38.93450516666667, "name": "7fd65c9cc91b47e55cc0524c7bf57ecf", "fusion_lon": 0.0, "bike_id": "7fd65c9cc91b47e55cc0524c7bf57ecf", "is_disabled": 0, "is_reserved": 0}, {"rental_uris": {"ios": "https://dc.lft.to/lastmile_qr_scan", "android": "https://dc.lft.to/lastmile_qr_scan"}, "lon": -77.03230416666666, "type": "electric_scooter", "fusion_lat": 0.0, "lat": 38.926716166666665, "name": "7b7f57a7639ee87eb71345c570c526e4", "fusion_lon": 0.0, "bike_id": "7b7f57a7639ee87eb71345c570c526e4", "is_disabled": 0, "is_reserved": 0}, {"rental_uris": {"ios": "https://dc.lft.to/lastmile_qr_scan", "android": "https://dc.lft.to/lastmile_qr_scan"}, "lon": -76.97491333333333, "type": "electric_bike", "fusion_lat": 0.0, "lat": 38.920064333333336, "name": "578768b916c7f7d2f820d92f99c20ce2", "fusion_lon": 0.0, "bike_id": "578768b916c7f7d2f820d92f99c20ce2", "is_disabled": 0, "is_reserved": 0}, {"rental_uris": {"ios": "https://dc.lft.to/lastmile_qr_scan", "android": "https://dc.lft.to/lastmile_qr_scan"}, "lon": -76.974019, "type": "electric_scooter", "fusion_lat": 0.0, "lat": 38.9015585, "name": "b3bf6e71180530a98d0190b521044576", "fusion_lon": 0.0, "bike_id": "b3bf6e71180530a98d0190b521044576", "is_disabled": 0, "is_reserved": 0}, {"rental_uris": {"ios": "https://dc.lft.to/lastmile_qr_scan", "android": "https://dc.lft.to/lastmile_qr_scan"}, "lon": -77.042752, "type": "electric_scooter", "fusion_lat": 0.0, "lat": 38.90815, "name": "0df4dd96c52e48c83a5fa994b9f4c72d", "fusion_lon": 0.0, "bike_id": "0df4dd96c52e48c83a5fa994b9f4c72d", "is_disabled": 0, "is_reserved": 0}, {"rental_uris": {"ios": "https://dc.lft.to/lastmile_qr_scan", "android": "https://dc.lft.to/lastmile_qr_scan"}, "lon": -76.99781533333334, "type": "electric_scooter", "fusion_lat": 0.0, "lat": 38.908723, "name": "b35d89c4b5d71a472734f2b1cea3c800", "fusion_lon": 0.0, "bike_id": "b35d89c4b5d71a472734f2b1cea3c800", "is_disabled": 0, "is_reserved": 0}, {"rental_uris": {"ios": "https://dc.lft.to/lastmile_qr_scan", "android": "https://dc.lft.to/lastmile_qr_scan"}, "lon": -76.9372195, "type": "electric_scooter", "fusion_lat": 0.0, "lat": 38.895892333333336, "name": "49d283a9c85991aa86af92cea56f682d", "fusion_lon": 0.0, "bike_id": "49d283a9c85991aa86af92cea56f682d", "is_disabled": 0, "is_reserved": 0}, {"rental_uris": {"ios": "https://dc.lft.to/lastmile_qr_scan", "android": "https://dc.lft.to/lastmile_qr_scan"}, "lon": -77.03414716666667, "type": "electric_scooter", "fusion_lat": 0.0, "lat": 38.935415666666664, "name": "931e2b622fdf43ad0952a4b584188bf2", "fusion_lon": 0.0, "bike_id": "931e2b622fdf43ad0952a4b584188bf2", "is_disabled": 0, "is_reserved": 0}, {"rental_uris": {"ios": "https://dc.lft.to/lastmile_qr_scan", "android": "https://dc.lft.to/lastmile_qr_scan"}, "lon": -77.02385366666667, "type": "electric_scooter", "fusion_lat": 0.0, "lat": 38.913701333333336, "name": "5b69c6e289040ea314165eddcdbc0683", "fusion_lon": 0.0, "bike_id": "5b69c6e289040ea314165eddcdbc0683", "is_disabled": 0, "is_reserved": 0}, {"rental_uris": {"ios": "https://dc.lft.to/lastmile_qr_scan", "android": "https://dc.lft.to/lastmile_qr_scan"}, "lon": -77.04112116666667, "type": "electric_scooter", "fusion_lat": 0.0, "lat": 38.9244665, "name": "d569345d029d4e80385ccb93dd5dffb3", "fusion_lon": 0.0, "bike_id": "d569345d029d4e80385ccb93dd5dffb3", "is_disabled": 0, "is_reserved": 0}, {"rental_uris": {"ios": "https://dc.lft.to/lastmile_qr_scan", "android": "https://dc.lft.to/lastmile_qr_scan"}, "lon": -77.18290566666667, "type": "electric_bike", "fusion_lat": 0.0, "lat": 38.883481833333335, "name": "16035522d59ac766a103a36d9c7c9965", "fusion_lon": 0.0, "bike_id": "16035522d59ac766a103a36d9c7c9965", "is_disabled": 0, "is_reserved": 0}, {"rental_uris": {"ios": "https://dc.lft.to/lastmile_qr_scan", "android": "https://dc.lft.to/lastmile_qr_scan"}, "lon": -77.03454833333333, "type": "electric_scooter", "fusion_lat": 0.0, "lat": 38.91817566666667, "name": "3adcf053429430b926c18b19c1eb4173", "fusion_lon": 0.0, "bike_id": "3adcf053429430b926c18b19c1eb4173", "is_disabled": 0, "is_reserved": 0}, {"rental_uris": {"ios": "https://dc.lft.to/lastmile_qr_scan", "android": "https://dc.lft.to/lastmile_qr_scan"}, "lon": -77.03306866666667, "type": "electric_scooter", "fusion_lat": 0.0, "lat": 38.901451, "name": "f21a773c01e5de7fcd39dacb10517a98", "fusion_lon": 0.0, "bike_id": "f21a773c01e5de7fcd39dacb10517a98", "is_disabled": 0, "is_reserved": 0}, {"rental_uris": {"ios": "https://dc.lft.to/lastmile_qr_scan", "android": "https://dc.lft.to/lastmile_qr_scan"}, "lon": -76.97832233333334, "type": "electric_scooter", "fusion_lat": 0.0, "lat": 38.89514783333333, "name": "35d6b97440d96cfc30eaba44460ebb92", "fusion_lon": 0.0, "bike_id": "35d6b97440d96cfc30eaba44460ebb92", "is_disabled": 0, "is_reserved": 0}, {"rental_uris": {"ios": "https://dc.lft.to/lastmile_qr_scan", "android": "https://dc.lft.to/lastmile_qr_scan"}, "lon": -77.06756616666667, "type": "electric_scooter", "fusion_lat": 0.0, "lat": 38.91560483333333, "name": "28536e53a7bfe377673cb84c4bc599fe", "fusion_lon": 0.0, "bike_id": "28536e53a7bfe377673cb84c4bc599fe", "is_disabled": 0, "is_reserved": 0}, {"rental_uris": {"ios": "https://dc.lft.to/lastmile_qr_scan", "android": "https://dc.lft.to/lastmile_qr_scan"}, "lon": -77.0317465, "type": "electric_scooter", "fusion_lat": 0.0, "lat": 38.91592633333333, "name": "f347f5a96dbe64e0bdfe9ec6f1a4a74c", "fusion_lon": 0.0, "bike_id": "f347f5a96dbe64e0bdfe9ec6f1a4a74c", "is_disabled": 0, "is_reserved": 0}, {"rental_uris": {"ios": "https://dc.lft.to/lastmile_qr_scan", "android": "https://dc.lft.to/lastmile_qr_scan"}, "lon": -76.974285, "type": "electric_bike", "fusion_lat": 0.0, "lat": 38.9320315, "name": "d446e0a72755bb40c95966e3bdc2aac3", "fusion_lon": 0.0, "bike_id": "d446e0a72755bb40c95966e3bdc2aac3", "is_disabled": 0, "is_reserved": 0}, {"rental_uris": {"ios": "https://dc.lft.to/lastmile_qr_scan", "android": "https://dc.lft.to/lastmile_qr_scan"}, "lon": -77.04240833333333, "type": "electric_scooter", "fusion_lat": 0.0, "lat": 38.92206683333333, "name": "cc3421fe55eb2ffc85f4d71c553f6ec4", "fusion_lon": 0.0, "bike_id": "cc3421fe55eb2ffc85f4d71c553f6ec4", "is_disabled": 0, "is_reserved": 0}, {"rental_uris": {"ios": "https://dc.lft.to/lastmile_qr_scan", "android": "https://dc.lft.to/lastmile_qr_scan"}, "lon": -77.02502183333333, "type": "electric_scooter", "fusion_lat": 0.0, "lat": 38.90715083333333, "name": "728bbbe61e33953478af1068a3a6d3f7", "fusion_lon": 0.0, "bike_id": "728bbbe61e33953478af1068a3a6d3f7", "is_disabled": 0, "is_reserved": 0}, {"rental_uris": {"ios": "https://dc.lft.to/lastmile_qr_scan", "android": "https://dc.lft.to/lastmile_qr_scan"}, "lon": -77.01861483333333, "type": "electric_scooter", "fusion_lat": 0.0, "lat": 38.9149395, "name": "301654885ffa27ac572eb4c6720a8fcf", "fusion_lon": 0.0, "bike_id": "301654885ffa27ac572eb4c6720a8fcf", "is_disabled": 0, "is_reserved": 0}, {"rental_uris": {"ios": "https://dc.lft.to/lastmile_qr_scan", "android": "https://dc.lft.to/lastmile_qr_scan"}, "lon": -76.94996583333334, "type": "electric_scooter", "fusion_lat": 0.0, "lat": 38.89369333333333, "name": "cf9847ef60ad7c0e242642f929e953c3", "fusion_lon": 0.0, "bike_id": "cf9847ef60ad7c0e242642f929e953c3", "is_disabled": 0, "is_reserved": 0}, {"rental_uris": {"ios": "https://dc.lft.to/lastmile_qr_scan", "android": "https://dc.lft.to/lastmile_qr_scan"}, "lon": -76.9834055, "type": "electric_scooter", "fusion_lat": 0.0, "lat": 38.915335, "name": "a2815bbb08314058c2afd60e098035a9", "fusion_lon": 0.0, "bike_id": "a2815bbb08314058c2afd60e098035a9", "is_disabled": 0, "is_reserved": 0}, {"rental_uris": {"ios": "https://dc.lft.to/lastmile_qr_scan", "android": "https://dc.lft.to/lastmile_qr_scan"}, "lon": -77.042219, "type": "electric_scooter", "fusion_lat": 0.0, "lat": 38.92110233333333, "name": "b483f5982274e4d9eb823164f1428e76", "fusion_lon": 0.0, "bike_id": "b483f5982274e4d9eb823164f1428e76", "is_disabled": 0, "is_reserved": 0}, {"rental_uris": {"ios": "https://dc.lft.to/lastmile_qr_scan", "android": "https://dc.lft.to/lastmile_qr_scan"}, "lon": -77.06493833333333, "type": "electric_bike", "fusion_lat": 0.0, "lat": 38.964934666666664, "name": "f15e0c7f5e2b70d1c83da90fa96a059d", "fusion_lon": 0.0, "bike_id": "f15e0c7f5e2b70d1c83da90fa96a059d", "is_disabled": 0, "is_reserved": 0}, {"rental_uris": {"ios": "https://dc.lft.to/lastmile_qr_scan", "android": "https://dc.lft.to/lastmile_qr_scan"}, "lon": -77.04865433333333, "type": "electric_scooter", "fusion_lat": 0.0, "lat": 38.90847266666667, "name": "c49c82f4debefd7cb4f1c98627e2c2a0", "fusion_lon": 0.0, "bike_id": "c49c82f4debefd7cb4f1c98627e2c2a0", "is_disabled": 0, "is_reserved": 0}, {"rental_uris": {"ios": "https://dc.lft.to/lastmile_qr_scan", "android": "https://dc.lft.to/lastmile_qr_scan"}, "lon": -76.9441835, "type": "electric_scooter", "fusion_lat": 0.0, "lat": 38.8979185, "name": "2367921a5e853e381fe31dcd34c2733b", "fusion_lon": 0.0, "bike_id": "2367921a5e853e381fe31dcd34c2733b", "is_disabled": 0, "is_reserved": 0}, {"rental_uris": {"ios": "https://dc.lft.to/lastmile_qr_scan", "android": "https://dc.lft.to/lastmile_qr_scan"}, "lon": -76.99381366666667, "type": "electric_scooter", "fusion_lat": 0.0, "lat": 38.887528333333336, "name": "850b56b04cb991a304e174ff0fb7861e", "fusion_lon": 0.0, "bike_id": "850b56b04cb991a304e174ff0fb7861e", "is_disabled": 0, "is_reserved": 0}, {"rental_uris": {"ios": "https://dc.lft.to/lastmile_qr_scan", "android": "https://dc.lft.to/lastmile_qr_scan"}, "lon": -77.03229233333333, "type": "electric_scooter", "fusion_lat": 0.0, "lat": 38.926688666666664, "name": "2c3710f8ca48dde47b9f7d62e57c60c8", "fusion_lon": 0.0, "bike_id": "2c3710f8ca48dde47b9f7d62e57c60c8", "is_disabled": 0, "is_reserved": 0}, {"rental_uris": {"ios": "https://dc.lft.to/lastmile_qr_scan", "android": "https://dc.lft.to/lastmile_qr_scan"}, "lon": -77.05021216666667, "type": "electric_scooter", "fusion_lat": 0.0, "lat": 38.91797283333333, "name": "6f499a560c32e77295780a83fad74839", "fusion_lon": 0.0, "bike_id": "6f499a560c32e77295780a83fad74839", "is_disabled": 0, "is_reserved": 0}, {"rental_uris": {"ios": "https://dc.lft.to/lastmile_qr_scan", "android": "https://dc.lft.to/lastmile_qr_scan"}, "lon": -77.02331583333333, "type": "electric_scooter", "fusion_lat": 0.0, "lat": 38.92930666666667, "name": "635c44f3f63a52864de6b56d6d827a8b", "fusion_lon": 0.0, "bike_id": "635c44f3f63a52864de6b56d6d827a8b", "is_disabled": 0, "is_reserved": 0}, {"rental_uris": {"ios": "https://dc.lft.to/lastmile_qr_scan", "android": "https://dc.lft.to/lastmile_qr_scan"}, "lon": -77.06280933333333, "type": "electric_scooter", "fusion_lat": 0.0, "lat": 38.905425666666666, "name": "6755725639632fae2fe2be921d2c52ed", "fusion_lon": 0.0, "bike_id": "6755725639632fae2fe2be921d2c52ed", "is_disabled": 0, "is_reserved": 0}, {"rental_uris": {"ios": "https://dc.lft.to/lastmile_qr_scan", "android": "https://dc.lft.to/lastmile_qr_scan"}, "lon": -77.02698, "type": "electric_scooter", "fusion_lat": 0.0, "lat": 38.880942833333336, "name": "50bbac18c99a3e214af614e51d9f1d23", "fusion_lon": 0.0, "bike_id": "50bbac18c99a3e214af614e51d9f1d23", "is_disabled": 0, "is_reserved": 0}, {"rental_uris": {"ios": "https://dc.lft.to/lastmile_qr_scan", "android": "https://dc.lft.to/lastmile_qr_scan"}, "lon": -77.0013475, "type": "electric_scooter", "fusion_lat": 0.0, "lat": 38.90404816666667, "name": "c128c51d51a9ae8a938b9d50ef7e5448", "fusion_lon": 0.0, "bike_id": "c128c51d51a9ae8a938b9d50ef7e5448", "is_disabled": 0, "is_reserved": 0}, {"rental_uris": {"ios": "https://dc.lft.to/lastmile_qr_scan", "android": "https://dc.lft.to/lastmile_qr_scan"}, "lon": -76.92721916666666, "type": "electric_scooter", "fusion_lat": 0.0, "lat": 38.88036116666667, "name": "5ea7144959393e45ee18d036f5363aeb", "fusion_lon": 0.0, "bike_id": "5ea7144959393e45ee18d036f5363aeb", "is_disabled": 0, "is_reserved": 0}, {"rental_uris": {"ios": "https://dc.lft.to/lastmile_qr_scan", "android": "https://dc.lft.to/lastmile_qr_scan"}, "lon": -77.00889883333333, "type": "electric_scooter", "fusion_lat": 0.0, "lat": 38.914061333333336, "name": "420da9a64fdccdfbf9cacc40d09de50c", "fusion_lon": 0.0, "bike_id": "420da9a64fdccdfbf9cacc40d09de50c", "is_disabled": 0, "is_reserved": 0}, {"rental_uris": {"ios": "https://dc.lft.to/lastmile_qr_scan", "android": "https://dc.lft.to/lastmile_qr_scan"}, "lon": -76.92587666666667, "type": "electric_scooter", "fusion_lat": 0.0, "lat": 38.897279833333336, "name": "950f46f65af28178d7190ceb2754edc5", "fusion_lon": 0.0, "bike_id": "950f46f65af28178d7190ceb2754edc5", "is_disabled": 0, "is_reserved": 0}, {"rental_uris": {"ios": "https://dc.lft.to/lastmile_qr_scan", "android": "https://dc.lft.to/lastmile_qr_scan"}, "lon": -77.02977133333333, "type": "electric_scooter", "fusion_lat": 0.0, "lat": 38.96228083333333, "name": "13f08cbace0199f5867532ff1cef012c", "fusion_lon": 0.0, "bike_id": "13f08cbace0199f5867532ff1cef012c", "is_disabled": 0, "is_reserved": 0}, {"rental_uris": {"ios": "https://dc.lft.to/lastmile_qr_scan", "android": "https://dc.lft.to/lastmile_qr_scan"}, "lon": -77.012712, "type": "electric_bike", "fusion_lat": 0.0, "lat": 38.88117733333333, "name": "2e87164a9f0e6ec73d9cad74dcfcf516", "fusion_lon": 0.0, "bike_id": "2e87164a9f0e6ec73d9cad74dcfcf516", "is_disabled": 0, "is_reserved": 0}, {"rental_uris": {"ios": "https://dc.lft.to/lastmile_qr_scan", "android": "https://dc.lft.to/lastmile_qr_scan"}, "lon": -77.1033485, "type": "electric_bike", "fusion_lat": 0.0, "lat": 38.852267166666664, "name": "7122cd5b6bb480ae8cd83df66963b771", "fusion_lon": 0.0, "bike_id": "7122cd5b6bb480ae8cd83df66963b771", "is_disabled": 0, "is_reserved": 0}, {"rental_uris": {"ios": "https://dc.lft.to/lastmile_qr_scan", "android": "https://dc.lft.to/lastmile_qr_scan"}, "lon": -77.00713333333333, "type": "electric_scooter", "fusion_lat": 0.0, "lat": 38.884905, "name": "326880475616f51bfb092a7c9281ab42", "fusion_lon": 0.0, "bike_id": "326880475616f51bfb092a7c9281ab42", "is_disabled": 0, "is_reserved": 0}, {"rental_uris": {"ios": "https://dc.lft.to/lastmile_qr_scan", "android": "https://dc.lft.to/lastmile_qr_scan"}, "lon": -77.0301765, "type": "electric_scooter", "fusion_lat": 0.0, "lat": 38.8971685, "name": "856b066dc210a9117752bea898c773ed", "fusion_lon": 0.0, "bike_id": "856b066dc210a9117752bea898c773ed", "is_disabled": 0, "is_reserved": 0}, {"rental_uris": {"ios": "https://dc.lft.to/lastmile_qr_scan", "android": "https://dc.lft.to/lastmile_qr_scan"}, "lon": -77.03986483333334, "type": "electric_scooter", "fusion_lat": 0.0, "lat": 38.89218616666667, "name": "6d32850068879fd18338b640600a95cc", "fusion_lon": 0.0, "bike_id": "6d32850068879fd18338b640600a95cc", "is_disabled": 0, "is_reserved": 0}, {"rental_uris": {"ios": "https://dc.lft.to/lastmile_qr_scan", "android": "https://dc.lft.to/lastmile_qr_scan"}, "lon": -77.021518, "type": "electric_scooter", "fusion_lat": 0.0, "lat": 38.926025833333334, "name": "917068cc55c61d3b63edd61b907759a6", "fusion_lon": 0.0, "bike_id": "917068cc55c61d3b63edd61b907759a6", "is_disabled": 0, "is_reserved": 0}, {"rental_uris": {"ios": "https://dc.lft.to/lastmile_qr_scan", "android": "https://dc.lft.to/lastmile_qr_scan"}, "lon": -76.87495016666666, "type": "electric_bike", "fusion_lat": 0.0, "lat": 38.9908565, "name": "57a7bee95903b828ab69189473002554", "fusion_lon": 0.0, "bike_id": "57a7bee95903b828ab69189473002554", "is_disabled": 0, "is_reserved": 0}, {"rental_uris": {"ios": "https://dc.lft.to/lastmile_qr_scan", "android": "https://dc.lft.to/lastmile_qr_scan"}, "lon": -77.0247795, "type": "electric_scooter", "fusion_lat": 0.0, "lat": 38.93821116666667, "name": "af3d1bc565ecdb15a91558a73cd40926", "fusion_lon": 0.0, "bike_id": "af3d1bc565ecdb15a91558a73cd40926", "is_disabled": 0, "is_reserved": 0}, {"rental_uris": {"ios": "https://dc.lft.to/lastmile_qr_scan", "android": "https://dc.lft.to/lastmile_qr_scan"}, "lon": -77.11218133333334, "type": "electric_bike", "fusion_lat": 0.0, "lat": 38.82870366666667, "name": "1421405980860d3a362fdf05e31e75ce", "fusion_lon": 0.0, "bike_id": "1421405980860d3a362fdf05e31e75ce", "is_disabled": 0, "is_reserved": 0}, {"rental_uris": {"ios": "https://dc.lft.to/lastmile_qr_scan", "android": "https://dc.lft.to/lastmile_qr_scan"}, "lon": -77.00888366666666, "type": "electric_scooter", "fusion_lat": 0.0, "lat": 38.87912633333333, "name": "4df2477510a7aec89d78430f052c26d0", "fusion_lon": 0.0, "bike_id": "4df2477510a7aec89d78430f052c26d0", "is_disabled": 0, "is_reserved": 0}, {"rental_uris": {"ios": "https://dc.lft.to/lastmile_qr_scan", "android": "https://dc.lft.to/lastmile_qr_scan"}, "lon": -76.991773, "type": "electric_scooter", "fusion_lat": 0.0, "lat": 38.904521333333335, "name": "4d1cdd77eda34c1c2e4901a15b0ed32e", "fusion_lon": 0.0, "bike_id": "4d1cdd77eda34c1c2e4901a15b0ed32e", "is_disabled": 0, "is_reserved": 0}, {"rental_uris": {"ios": "https://dc.lft.to/lastmile_qr_scan", "android": "https://dc.lft.to/lastmile_qr_scan"}, "lon": -77.02738816666667, "type": "electric_scooter", "fusion_lat": 0.0, "lat": 38.881493, "name": "a612753cdfeacc7736c404a3e7848ae0", "fusion_lon": 0.0, "bike_id": "a612753cdfeacc7736c404a3e7848ae0", "is_disabled": 0, "is_reserved": 0}, {"rental_uris": {"ios": "https://dc.lft.to/lastmile_qr_scan", "android": "https://dc.lft.to/lastmile_qr_scan"}, "lon": -77.04947933333334, "type": "electric_scooter", "fusion_lat": 0.0, "lat": 38.915844, "name": "ab2ea4bdab28c4db00b372c14b762ca7", "fusion_lon": 0.0, "bike_id": "ab2ea4bdab28c4db00b372c14b762ca7", "is_disabled": 0, "is_reserved": 0}, {"rental_uris": {"ios": "https://dc.lft.to/lastmile_qr_scan", "android": "https://dc.lft.to/lastmile_qr_scan"}, "lon": -77.03735083333333, "type": "electric_scooter", "fusion_lat": 0.0, "lat": 38.928852166666665, "name": "6fe64ebffae76a653796d031946bc9c9", "fusion_lon": 0.0, "bike_id": "6fe64ebffae76a653796d031946bc9c9", "is_disabled": 0, "is_reserved": 0}, {"rental_uris": {"ios": "https://dc.lft.to/lastmile_qr_scan", "android": "https://dc.lft.to/lastmile_qr_scan"}, "lon": -76.99497083333333, "type": "electric_scooter", "fusion_lat": 0.0, "lat": 38.8624245, "name": "df744d658b815b0bce3f083c8c2ba129", "fusion_lon": 0.0, "bike_id": "df744d658b815b0bce3f083c8c2ba129", "is_disabled": 0, "is_reserved": 0}, {"rental_uris": {"ios": "https://dc.lft.to/lastmile_qr_scan", "android": "https://dc.lft.to/lastmile_qr_scan"}, "lon": -76.93175583333333, "type": "electric_scooter", "fusion_lat": 0.0, "lat": 38.898849166666665, "name": "e469cb1c517e0f9fc8fe5b580159bc57", "fusion_lon": 0.0, "bike_id": "e469cb1c517e0f9fc8fe5b580159bc57", "is_disabled": 0, "is_reserved": 0}, {"rental_uris": {"ios": "https://dc.lft.to/lastmile_qr_scan", "android": "https://dc.lft.to/lastmile_qr_scan"}, "lon": -77.0366825, "type": "electric_scooter", "fusion_lat": 0.0, "lat": 38.918115, "name": "f1eeb27bf2d51fd1cc0199c43b0a3828", "fusion_lon": 0.0, "bike_id": "f1eeb27bf2d51fd1cc0199c43b0a3828", "is_disabled": 0, "is_reserved": 0}, {"rental_uris": {"ios": "https://dc.lft.to/lastmile_qr_scan", "android": "https://dc.lft.to/lastmile_qr_scan"}, "lon": -77.036288, "type": "electric_scooter", "fusion_lat": 0.0, "lat": 38.928595666666666, "name": "b55862305e80a93908057c0bb00a1a43", "fusion_lon": 0.0, "bike_id": "b55862305e80a93908057c0bb00a1a43", "is_disabled": 0, "is_reserved": 0}, {"rental_uris": {"ios": "https://dc.lft.to/lastmile_qr_scan", "android": "https://dc.lft.to/lastmile_qr_scan"}, "lon": -77.02980083333334, "type": "electric_scooter", "fusion_lat": 0.0, "lat": 38.94598333333333, "name": "02ac0c04ff4ae182708565545f529670", "fusion_lon": 0.0, "bike_id": "02ac0c04ff4ae182708565545f529670", "is_disabled": 0, "is_reserved": 0}, {"rental_uris": {"ios": "https://dc.lft.to/lastmile_qr_scan", "android": "https://dc.lft.to/lastmile_qr_scan"}, "lon": -77.00210983333334, "type": "electric_scooter", "fusion_lat": 0.0, "lat": 38.90034333333333, "name": "961698a7049953267a1a6d362a03fe4c", "fusion_lon": 0.0, "bike_id": "961698a7049953267a1a6d362a03fe4c", "is_disabled": 0, "is_reserved": 0}, {"rental_uris": {"ios": "https://dc.lft.to/lastmile_qr_scan", "android": "https://dc.lft.to/lastmile_qr_scan"}, "lon": -77.0134895, "type": "electric_scooter", "fusion_lat": 0.0, "lat": 38.9193345, "name": "e6e34ff8bd04de1bcee0643a03557fff", "fusion_lon": 0.0, "bike_id": "e6e34ff8bd04de1bcee0643a03557fff", "is_disabled": 0, "is_reserved": 0}, {"rental_uris": {"ios": "https://dc.lft.to/lastmile_qr_scan", "android": "https://dc.lft.to/lastmile_qr_scan"}, "lon": -77.0108515, "type": "electric_scooter", "fusion_lat": 0.0, "lat": 38.907256, "name": "c1d15725271c7ac493a445e0a4d99723", "fusion_lon": 0.0, "bike_id": "c1d15725271c7ac493a445e0a4d99723", "is_disabled": 0, "is_reserved": 0}, {"rental_uris": {"ios": "https://dc.lft.to/lastmile_qr_scan", "android": "https://dc.lft.to/lastmile_qr_scan"}, "lon": -77.044434, "type": "electric_scooter", "fusion_lat": 0.0, "lat": 38.910096833333334, "name": "0245d93206cfd890a0ecb4ffbe7a6f85", "fusion_lon": 0.0, "bike_id": "0245d93206cfd890a0ecb4ffbe7a6f85", "is_disabled": 0, "is_reserved": 0}, {"rental_uris": {"ios": "https://dc.lft.to/lastmile_qr_scan", "android": "https://dc.lft.to/lastmile_qr_scan"}, "lon": -76.99694633333333, "type": "electric_scooter", "fusion_lat": 0.0, "lat": 38.90063683333333, "name": "8742a1867b658e7d60d55a28b5bd57b0", "fusion_lon": 0.0, "bike_id": "8742a1867b658e7d60d55a28b5bd57b0", "is_disabled": 0, "is_reserved": 0}, {"rental_uris": {"ios": "https://dc.lft.to/lastmile_qr_scan", "android": "https://dc.lft.to/lastmile_qr_scan"}, "lon": -76.95988416666667, "type": "electric_scooter", "fusion_lat": 0.0, "lat": 38.8804385, "name": "93b3c29db8000697b6b85853a23985f5", "fusion_lon": 0.0, "bike_id": "93b3c29db8000697b6b85853a23985f5", "is_disabled": 0, "is_reserved": 0}, {"rental_uris": {"ios": "https://dc.lft.to/lastmile_qr_scan", "android": "https://dc.lft.to/lastmile_qr_scan"}, "lon": -76.94759816666667, "type": "electric_scooter", "fusion_lat": 0.0, "lat": 38.90055433333333, "name": "b39b6fe52fd80ec21170c63c4d178208", "fusion_lon": 0.0, "bike_id": "b39b6fe52fd80ec21170c63c4d178208", "is_disabled": 0, "is_reserved": 0}, {"rental_uris": {"ios": "https://dc.lft.to/lastmile_qr_scan", "android": "https://dc.lft.to/lastmile_qr_scan"}, "lon": -77.03051666666667, "type": "electric_scooter", "fusion_lat": 0.0, "lat": 38.9170165, "name": "d7818eb4f06c1f155599fc4a017fcc3f", "fusion_lon": 0.0, "bike_id": "d7818eb4f06c1f155599fc4a017fcc3f", "is_disabled": 0, "is_reserved": 0}, {"rental_uris": {"ios": "https://dc.lft.to/lastmile_qr_scan", "android": "https://dc.lft.to/lastmile_qr_scan"}, "lon": -77.021311, "type": "electric_scooter", "fusion_lat": 0.0, "lat": 38.89480283333333, "name": "6e6da2955e3a478c1d94bc8aab7440a8", "fusion_lon": 0.0, "bike_id": "6e6da2955e3a478c1d94bc8aab7440a8", "is_disabled": 0, "is_reserved": 0}, {"rental_uris": {"ios": "https://dc.lft.to/lastmile_qr_scan", "android": "https://dc.lft.to/lastmile_qr_scan"}, "lon": -77.02804166666667, "type": "electric_bike", "fusion_lat": 0.0, "lat": 38.9608915, "name": "dad5c6579ff19d578fb02691403aba50", "fusion_lon": 0.0, "bike_id": "dad5c6579ff19d578fb02691403aba50", "is_disabled": 0, "is_reserved": 0}, {"rental_uris": {"ios": "https://dc.lft.to/lastmile_qr_scan", "android": "https://dc.lft.to/lastmile_qr_scan"}, "lon": -76.97295716666666, "type": "electric_scooter", "fusion_lat": 0.0, "lat": 38.903371, "name": "b44662c84365f01aee65663553f83b2d", "fusion_lon": 0.0, "bike_id": "b44662c84365f01aee65663553f83b2d", "is_disabled": 0, "is_reserved": 0}, {"rental_uris": {"ios": "https://dc.lft.to/lastmile_qr_scan", "android": "https://dc.lft.to/lastmile_qr_scan"}, "lon": -77.04745466666667, "type": "electric_scooter", "fusion_lat": 0.0, "lat": 38.905159, "name": "7f4f65beb223454c02013d4d26ad9c5d", "fusion_lon": 0.0, "bike_id": "7f4f65beb223454c02013d4d26ad9c5d", "is_disabled": 0, "is_reserved": 0}, {"rental_uris": {"ios": "https://dc.lft.to/lastmile_qr_scan", "android": "https://dc.lft.to/lastmile_qr_scan"}, "lon": -76.9590035, "type": "electric_bike", "fusion_lat": 0.0, "lat": 38.9850415, "name": "aa1b2094e04d02ac01710f4ebef92ed5", "fusion_lon": 0.0, "bike_id": "aa1b2094e04d02ac01710f4ebef92ed5", "is_disabled": 0, "is_reserved": 0}, {"rental_uris": {"ios": "https://dc.lft.to/lastmile_qr_scan", "android": "https://dc.lft.to/lastmile_qr_scan"}, "lon": -77.00203816666667, "type": "electric_scooter", "fusion_lat": 0.0, "lat": 38.90040533333333, "name": "4bc73a446351d6819cdeef16f780ef88", "fusion_lon": 0.0, "bike_id": "4bc73a446351d6819cdeef16f780ef88", "is_disabled": 0, "is_reserved": 0}, {"rental_uris": {"ios": "https://dc.lft.to/lastmile_qr_scan", "android": "https://dc.lft.to/lastmile_qr_scan"}, "lon": -77.1296175, "type": "electric_bike", "fusion_lat": 0.0, "lat": 38.8521505, "name": "94ceeb5980090a68295f40f618af7f26", "fusion_lon": 0.0, "bike_id": "94ceeb5980090a68295f40f618af7f26", "is_disabled": 0, "is_reserved": 0}, {"rental_uris": {"ios": "https://dc.lft.to/lastmile_qr_scan", "android": "https://dc.lft.to/lastmile_qr_scan"}, "lon": -77.054763, "type": "electric_scooter", "fusion_lat": 0.0, "lat": 38.89389216666667, "name": "e55073daa878f7e0a909e46676559a84", "fusion_lon": 0.0, "bike_id": "e55073daa878f7e0a909e46676559a84", "is_disabled": 0, "is_reserved": 0}, {"rental_uris": {"ios": "https://dc.lft.to/lastmile_qr_scan", "android": "https://dc.lft.to/lastmile_qr_scan"}, "lon": -76.983715, "type": "electric_scooter", "fusion_lat": 0.0, "lat": 38.895470833333334, "name": "c43ccb3b46a564314c31725752293995", "fusion_lon": 0.0, "bike_id": "c43ccb3b46a564314c31725752293995", "is_disabled": 0, "is_reserved": 0}, {"rental_uris": {"ios": "https://dc.lft.to/lastmile_qr_scan", "android": "https://dc.lft.to/lastmile_qr_scan"}, "lon": -76.93230216666667, "type": "electric_bike", "fusion_lat": 0.0, "lat": 38.865969, "name": "a88ce75ec412d59471ae026673145f78", "fusion_lon": 0.0, "bike_id": "a88ce75ec412d59471ae026673145f78", "is_disabled": 0, "is_reserved": 0}, {"rental_uris": {"ios": "https://dc.lft.to/lastmile_qr_scan", "android": "https://dc.lft.to/lastmile_qr_scan"}, "lon": -77.012288, "type": "electric_scooter", "fusion_lat": 0.0, "lat": 38.90038083333334, "name": "0d87d15d29ed46d4889fe81c0816f720", "fusion_lon": 0.0, "bike_id": "0d87d15d29ed46d4889fe81c0816f720", "is_disabled": 0, "is_reserved": 0}, {"rental_uris": {"ios": "https://dc.lft.to/lastmile_qr_scan", "android": "https://dc.lft.to/lastmile_qr_scan"}, "lon": -76.99828266666667, "type": "electric_scooter", "fusion_lat": 0.0, "lat": 38.88120683333333, "name": "750a5ca9a16938544584aeff84cf17bc", "fusion_lon": 0.0, "bike_id": "750a5ca9a16938544584aeff84cf17bc", "is_disabled": 0, "is_reserved": 0}, {"rental_uris": {"ios": "https://dc.lft.to/lastmile_qr_scan", "android": "https://dc.lft.to/lastmile_qr_scan"}, "lon": -77.03285266666667, "type": "electric_scooter", "fusion_lat": 0.0, "lat": 38.93487783333333, "name": "b58e376d20db8bb72df75ce7cececd0e", "fusion_lon": 0.0, "bike_id": "b58e376d20db8bb72df75ce7cececd0e", "is_disabled": 0, "is_reserved": 0}, {"rental_uris": {"ios": "https://dc.lft.to/lastmile_qr_scan", "android": "https://dc.lft.to/lastmile_qr_scan"}, "lon": -77.07777116666666, "type": "electric_scooter", "fusion_lat": 0.0, "lat": 38.9455845, "name": "93c739372c85117f6f52a740093bcdf4", "fusion_lon": 0.0, "bike_id": "93c739372c85117f6f52a740093bcdf4", "is_disabled": 0, "is_reserved": 0}, {"rental_uris": {"ios": "https://dc.lft.to/lastmile_qr_scan", "android": "https://dc.lft.to/lastmile_qr_scan"}, "lon": -76.98958466666667, "type": "electric_scooter", "fusion_lat": 0.0, "lat": 38.901413833333336, "name": "77e39046fff9e98cff5df79d28ecc1bc", "fusion_lon": 0.0, "bike_id": "77e39046fff9e98cff5df79d28ecc1bc", "is_disabled": 0, "is_reserved": 0}, {"rental_uris": {"ios": "https://dc.lft.to/lastmile_qr_scan", "android": "https://dc.lft.to/lastmile_qr_scan"}, "lon": -77.0187605, "type": "electric_scooter", "fusion_lat": 0.0, "lat": 38.917436, "name": "f581fe2f116940154ef27008de4288c9", "fusion_lon": 0.0, "bike_id": "f581fe2f116940154ef27008de4288c9", "is_disabled": 0, "is_reserved": 0}, {"rental_uris": {"ios": "https://dc.lft.to/lastmile_qr_scan", "android": "https://dc.lft.to/lastmile_qr_scan"}, "lon": -77.0482255, "type": "electric_scooter", "fusion_lat": 0.0, "lat": 38.909704, "name": "61836873a734620b2d58cf6297dc373c", "fusion_lon": 0.0, "bike_id": "61836873a734620b2d58cf6297dc373c", "is_disabled": 0, "is_reserved": 0}, {"rental_uris": {"ios": "https://dc.lft.to/lastmile_qr_scan", "android": "https://dc.lft.to/lastmile_qr_scan"}, "lon": -77.019707, "type": "electric_scooter", "fusion_lat": 0.0, "lat": 38.887456, "name": "0774fb72f7785038e0fa0aa3d0453cd3", "fusion_lon": 0.0, "bike_id": "0774fb72f7785038e0fa0aa3d0453cd3", "is_disabled": 0, "is_reserved": 0}, {"rental_uris": {"ios": "https://dc.lft.to/lastmile_qr_scan", "android": "https://dc.lft.to/lastmile_qr_scan"}, "lon": -77.03263816666667, "type": "electric_scooter", "fusion_lat": 0.0, "lat": 38.92996566666667, "name": "14712b161ee78cfe6a10fecd848bcf9c", "fusion_lon": 0.0, "bike_id": "14712b161ee78cfe6a10fecd848bcf9c", "is_disabled": 0, "is_reserved": 0}, {"rental_uris": {"ios": "https://dc.lft.to/lastmile_qr_scan", "android": "https://dc.lft.to/lastmile_qr_scan"}, "lon": -76.9884295, "type": "electric_bike", "fusion_lat": 0.0, "lat": 38.842689166666666, "name": "fd1d047cc32ead972915e151e2ef2037", "fusion_lon": 0.0, "bike_id": "fd1d047cc32ead972915e151e2ef2037", "is_disabled": 0, "is_reserved": 0}, {"rental_uris": {"ios": "https://dc.lft.to/lastmile_qr_scan", "android": "https://dc.lft.to/lastmile_qr_scan"}, "lon": -77.03792566666667, "type": "electric_scooter", "fusion_lat": 0.0, "lat": 38.92625666666667, "name": "615d95fbbb69b7939c6f23b3591fdf03", "fusion_lon": 0.0, "bike_id": "615d95fbbb69b7939c6f23b3591fdf03", "is_disabled": 0, "is_reserved": 0}, {"rental_uris": {"ios": "https://dc.lft.to/lastmile_qr_scan", "android": "https://dc.lft.to/lastmile_qr_scan"}, "lon": -77.0025925, "type": "electric_scooter", "fusion_lat": 0.0, "lat": 38.898958666666665, "name": "19111745b703c44e83839c3cf9d6656b", "fusion_lon": 0.0, "bike_id": "19111745b703c44e83839c3cf9d6656b", "is_disabled": 0, "is_reserved": 0}, {"rental_uris": {"ios": "https://dc.lft.to/lastmile_qr_scan", "android": "https://dc.lft.to/lastmile_qr_scan"}, "lon": -77.02419183333333, "type": "electric_scooter", "fusion_lat": 0.0, "lat": 38.91822166666667, "name": "44e6800529ae03229b4ab2564bbb5864", "fusion_lon": 0.0, "bike_id": "44e6800529ae03229b4ab2564bbb5864", "is_disabled": 0, "is_reserved": 0}, {"rental_uris": {"ios": "https://dc.lft.to/lastmile_qr_scan", "android": "https://dc.lft.to/lastmile_qr_scan"}, "lon": -77.02456716666667, "type": "electric_scooter", "fusion_lat": 0.0, "lat": 38.979313833333336, "name": "357f50e20fea13686f0aea15e7638279", "fusion_lon": 0.0, "bike_id": "357f50e20fea13686f0aea15e7638279", "is_disabled": 0, "is_reserved": 0}, {"rental_uris": {"ios": "https://dc.lft.to/lastmile_qr_scan", "android": "https://dc.lft.to/lastmile_qr_scan"}, "lon": -77.0322295, "type": "electric_scooter", "fusion_lat": 0.0, "lat": 38.938692333333336, "name": "0d7c34677b10bef03afc9a4578e7b652", "fusion_lon": 0.0, "bike_id": "0d7c34677b10bef03afc9a4578e7b652", "is_disabled": 0, "is_reserved": 0}, {"rental_uris": {"ios": "https://dc.lft.to/lastmile_qr_scan", "android": "https://dc.lft.to/lastmile_qr_scan"}, "lon": -77.04587883333333, "type": "electric_scooter", "fusion_lat": 0.0, "lat": 38.90203183333333, "name": "507c9d7e849505c7cbd8efacfff752c0", "fusion_lon": 0.0, "bike_id": "507c9d7e849505c7cbd8efacfff752c0", "is_disabled": 0, "is_reserved": 0}, {"rental_uris": {"ios": "https://dc.lft.to/lastmile_qr_scan", "android": "https://dc.lft.to/lastmile_qr_scan"}, "lon": -77.05030866666667, "type": "electric_scooter", "fusion_lat": 0.0, "lat": 38.896546666666666, "name": "a49ee0dfc30903ab9e7c517b5e3d6676", "fusion_lon": 0.0, "bike_id": "a49ee0dfc30903ab9e7c517b5e3d6676", "is_disabled": 0, "is_reserved": 0}, {"rental_uris": {"ios": "https://dc.lft.to/lastmile_qr_scan", "android": "https://dc.lft.to/lastmile_qr_scan"}, "lon": -76.97328416666667, "type": "electric_bike", "fusion_lat": 0.0, "lat": 38.85063816666667, "name": "90ae101ab8c7b316ac200d1edd6656fe", "fusion_lon": 0.0, "bike_id": "90ae101ab8c7b316ac200d1edd6656fe", "is_disabled": 0, "is_reserved": 0}, {"rental_uris": {"ios": "https://dc.lft.to/lastmile_qr_scan", "android": "https://dc.lft.to/lastmile_qr_scan"}, "lon": -77.04689766666667, "type": "electric_scooter", "fusion_lat": 0.0, "lat": 38.896052833333336, "name": "9965bf8c56060fc2614badfe0646b2f6", "fusion_lon": 0.0, "bike_id": "9965bf8c56060fc2614badfe0646b2f6", "is_disabled": 0, "is_reserved": 0}, {"rental_uris": {"ios": "https://dc.lft.to/lastmile_qr_scan", "android": "https://dc.lft.to/lastmile_qr_scan"}, "lon": -77.06273283333333, "type": "electric_scooter", "fusion_lat": 0.0, "lat": 38.90542966666667, "name": "df82d47dc7c2aafd41cddde12d7df91d", "fusion_lon": 0.0, "bike_id": "df82d47dc7c2aafd41cddde12d7df91d", "is_disabled": 0, "is_reserved": 0}, {"rental_uris": {"ios": "https://dc.lft.to/lastmile_qr_scan", "android": "https://dc.lft.to/lastmile_qr_scan"}, "lon": -77.039392, "type": "electric_scooter", "fusion_lat": 0.0, "lat": 38.90294383333333, "name": "5e6ddc1f04b5baa169af81664e16b439", "fusion_lon": 0.0, "bike_id": "5e6ddc1f04b5baa169af81664e16b439", "is_disabled": 0, "is_reserved": 0}, {"rental_uris": {"ios": "https://dc.lft.to/lastmile_qr_scan", "android": "https://dc.lft.to/lastmile_qr_scan"}, "lon": -77.05428783333333, "type": "electric_scooter", "fusion_lat": 0.0, "lat": 38.92835066666667, "name": "d2d478bef0ccc7bbcde25dfdd9de9b26", "fusion_lon": 0.0, "bike_id": "d2d478bef0ccc7bbcde25dfdd9de9b26", "is_disabled": 0, "is_reserved": 0}, {"rental_uris": {"ios": "https://dc.lft.to/lastmile_qr_scan", "android": "https://dc.lft.to/lastmile_qr_scan"}, "lon": -77.043644, "type": "electric_scooter", "fusion_lat": 0.0, "lat": 38.92119683333333, "name": "e6bd433f2dfdf2cc634c2e445ac1994c", "fusion_lon": 0.0, "bike_id": "e6bd433f2dfdf2cc634c2e445ac1994c", "is_disabled": 0, "is_reserved": 0}, {"rental_uris": {"ios": "https://dc.lft.to/lastmile_qr_scan", "android": "https://dc.lft.to/lastmile_qr_scan"}, "lon": -76.977244, "type": "electric_scooter", "fusion_lat": 0.0, "lat": 38.87240083333333, "name": "22ee560f06f548996c1940da7e172baf", "fusion_lon": 0.0, "bike_id": "22ee560f06f548996c1940da7e172baf", "is_disabled": 0, "is_reserved": 0}, {"rental_uris": {"ios": "https://dc.lft.to/lastmile_qr_scan", "android": "https://dc.lft.to/lastmile_qr_scan"}, "lon": -77.0367395, "type": "electric_scooter", "fusion_lat": 0.0, "lat": 38.92986416666667, "name": "78df48ab2900b285708a3dd714a3dc9a", "fusion_lon": 0.0, "bike_id": "78df48ab2900b285708a3dd714a3dc9a", "is_disabled": 0, "is_reserved": 0}, {"rental_uris": {"ios": "https://dc.lft.to/lastmile_qr_scan", "android": "https://dc.lft.to/lastmile_qr_scan"}, "lon": -77.05025833333333, "type": "electric_scooter", "fusion_lat": 0.0, "lat": 38.89654733333333, "name": "b21f1916b358696ceeca608289a9c933", "fusion_lon": 0.0, "bike_id": "b21f1916b358696ceeca608289a9c933", "is_disabled": 0, "is_reserved": 0}, {"rental_uris": {"ios": "https://dc.lft.to/lastmile_qr_scan", "android": "https://dc.lft.to/lastmile_qr_scan"}, "lon": -77.04370066666667, "type": "electric_scooter", "fusion_lat": 0.0, "lat": 38.921250666666666, "name": "1d78aeaba5d4c2d245b61679810545ab", "fusion_lon": 0.0, "bike_id": "1d78aeaba5d4c2d245b61679810545ab", "is_disabled": 0, "is_reserved": 0}, {"rental_uris": {"ios": "https://dc.lft.to/lastmile_qr_scan", "android": "https://dc.lft.to/lastmile_qr_scan"}, "lon": -77.11428483333333, "type": "electric_bike", "fusion_lat": 0.0, "lat": 38.85244816666667, "name": "ac56616aeb19fd894436c229a5f94b03", "fusion_lon": 0.0, "bike_id": "ac56616aeb19fd894436c229a5f94b03", "is_disabled": 0, "is_reserved": 0}, {"rental_uris": {"ios": "https://dc.lft.to/lastmile_qr_scan", "android": "https://dc.lft.to/lastmile_qr_scan"}, "lon": -76.984091, "type": "electric_scooter", "fusion_lat": 0.0, "lat": 38.9138705, "name": "051b9af2d940d5883387a3c4730cb2ff", "fusion_lon": 0.0, "bike_id": "051b9af2d940d5883387a3c4730cb2ff", "is_disabled": 0, "is_reserved": 0}, {"rental_uris": {"ios": "https://dc.lft.to/lastmile_qr_scan", "android": "https://dc.lft.to/lastmile_qr_scan"}, "lon": -77.03217533333333, "type": "electric_scooter", "fusion_lat": 0.0, "lat": 38.912478, "name": "4281bfa1bc0d3015a1d517ef343d5e1f", "fusion_lon": 0.0, "bike_id": "4281bfa1bc0d3015a1d517ef343d5e1f", "is_disabled": 0, "is_reserved": 0}, {"rental_uris": {"ios": "https://dc.lft.to/lastmile_qr_scan", "android": "https://dc.lft.to/lastmile_qr_scan"}, "lon": -77.003207, "type": "electric_scooter", "fusion_lat": 0.0, "lat": 38.90899, "name": "dc79af2b2cced9acb45a019d0d56cbea", "fusion_lon": 0.0, "bike_id": "dc79af2b2cced9acb45a019d0d56cbea", "is_disabled": 0, "is_reserved": 0}, {"rental_uris": {"ios": "https://dc.lft.to/lastmile_qr_scan", "android": "https://dc.lft.to/lastmile_qr_scan"}, "lon": -76.99379516666667, "type": "electric_scooter", "fusion_lat": 0.0, "lat": 38.887223166666665, "name": "fd1d90508bde0c772737337a24aa243b", "fusion_lon": 0.0, "bike_id": "fd1d90508bde0c772737337a24aa243b", "is_disabled": 0, "is_reserved": 0}, {"rental_uris": {"ios": "https://dc.lft.to/lastmile_qr_scan", "android": "https://dc.lft.to/lastmile_qr_scan"}, "lon": -77.00226583333334, "type": "electric_scooter", "fusion_lat": 0.0, "lat": 38.905748833333334, "name": "69014025b917c978408bf974015281ff", "fusion_lon": 0.0, "bike_id": "69014025b917c978408bf974015281ff", "is_disabled": 0, "is_reserved": 0}, {"rental_uris": {"ios": "https://dc.lft.to/lastmile_qr_scan", "android": "https://dc.lft.to/lastmile_qr_scan"}, "lon": -77.025693, "type": "electric_scooter", "fusion_lat": 0.0, "lat": 38.9257575, "name": "56745a7fe037349c3d7690a507e0c984", "fusion_lon": 0.0, "bike_id": "56745a7fe037349c3d7690a507e0c984", "is_disabled": 0, "is_reserved": 0}, {"rental_uris": {"ios": "https://dc.lft.to/lastmile_qr_scan", "android": "https://dc.lft.to/lastmile_qr_scan"}, "lon": -76.96776066666666, "type": "electric_scooter", "fusion_lat": 0.0, "lat": 38.8613315, "name": "81e4a8aab09b6790fb5f54966ee6970b", "fusion_lon": 0.0, "bike_id": "81e4a8aab09b6790fb5f54966ee6970b", "is_disabled": 0, "is_reserved": 0}, {"rental_uris": {"ios": "https://dc.lft.to/lastmile_qr_scan", "android": "https://dc.lft.to/lastmile_qr_scan"}, "lon": -77.02200916666666, "type": "electric_scooter", "fusion_lat": 0.0, "lat": 38.895124, "name": "f6c84bc962ba50772b14238c14afedb5", "fusion_lon": 0.0, "bike_id": "f6c84bc962ba50772b14238c14afedb5", "is_disabled": 0, "is_reserved": 0}, {"rental_uris": {"ios": "https://dc.lft.to/lastmile_qr_scan", "android": "https://dc.lft.to/lastmile_qr_scan"}, "lon": -77.02962766666667, "type": "electric_scooter", "fusion_lat": 0.0, "lat": 38.884333, "name": "d8380d33b8076c9d6e056d01378f2675", "fusion_lon": 0.0, "bike_id": "d8380d33b8076c9d6e056d01378f2675", "is_disabled": 0, "is_reserved": 0}, {"rental_uris": {"ios": "https://dc.lft.to/lastmile_qr_scan", "android": "https://dc.lft.to/lastmile_qr_scan"}, "lon": -77.04812833333334, "type": "electric_scooter", "fusion_lat": 0.0, "lat": 38.895978666666664, "name": "d57d8f302db4a946dfdeba12fd9a7d27", "fusion_lon": 0.0, "bike_id": "d57d8f302db4a946dfdeba12fd9a7d27", "is_disabled": 0, "is_reserved": 0}, {"rental_uris": {"ios": "https://dc.lft.to/lastmile_qr_scan", "android": "https://dc.lft.to/lastmile_qr_scan"}, "lon": -76.9781125, "type": "electric_scooter", "fusion_lat": 0.0, "lat": 38.906744333333336, "name": "2dbf53f6464194bfca7a5f4485e2d5bc", "fusion_lon": 0.0, "bike_id": "2dbf53f6464194bfca7a5f4485e2d5bc", "is_disabled": 0, "is_reserved": 0}, {"rental_uris": {"ios": "https://dc.lft.to/lastmile_qr_scan", "android": "https://dc.lft.to/lastmile_qr_scan"}, "lon": -77.04377516666666, "type": "electric_scooter", "fusion_lat": 0.0, "lat": 38.920673666666666, "name": "e2725795568009b4fae549433a00222f", "fusion_lon": 0.0, "bike_id": "e2725795568009b4fae549433a00222f", "is_disabled": 0, "is_reserved": 0}, {"rental_uris": {"ios": "https://dc.lft.to/lastmile_qr_scan", "android": "https://dc.lft.to/lastmile_qr_scan"}, "lon": -77.03230716666667, "type": "electric_scooter", "fusion_lat": 0.0, "lat": 38.92582316666667, "name": "970d5939d659188a1efbed7869a2dddc", "fusion_lon": 0.0, "bike_id": "970d5939d659188a1efbed7869a2dddc", "is_disabled": 0, "is_reserved": 0}, {"rental_uris": {"ios": "https://dc.lft.to/lastmile_qr_scan", "android": "https://dc.lft.to/lastmile_qr_scan"}, "lon": -77.12262016666666, "type": "electric_bike", "fusion_lat": 0.0, "lat": 38.89183966666667, "name": "58bae7961aa298d12e83ccb4914e6049", "fusion_lon": 0.0, "bike_id": "58bae7961aa298d12e83ccb4914e6049", "is_disabled": 0, "is_reserved": 0}, {"rental_uris": {"ios": "https://dc.lft.to/lastmile_qr_scan", "android": "https://dc.lft.to/lastmile_qr_scan"}, "lon": -77.11207483333334, "type": "electric_bike", "fusion_lat": 0.0, "lat": 38.81304333333333, "name": "80f351ef1ddeca040b62f24c817fb5da", "fusion_lon": 0.0, "bike_id": "80f351ef1ddeca040b62f24c817fb5da", "is_disabled": 0, "is_reserved": 0}, {"rental_uris": {"ios": "https://dc.lft.to/lastmile_qr_scan", "android": "https://dc.lft.to/lastmile_qr_scan"}, "lon": -76.93534033333333, "type": "electric_bike", "fusion_lat": 0.0, "lat": 38.955566833333336, "name": "24bb36ec60bd40f6ae42c913b1d1a6c0", "fusion_lon": 0.0, "bike_id": "24bb36ec60bd40f6ae42c913b1d1a6c0", "is_disabled": 0, "is_reserved": 0}, {"rental_uris": {"ios": "https://dc.lft.to/lastmile_qr_scan", "android": "https://dc.lft.to/lastmile_qr_scan"}, "lon": -77.076831, "type": "electric_bike", "fusion_lat": 0.0, "lat": 38.83191133333333, "name": "01ee5e5faf569ecce6ec5fea0d0adcff", "fusion_lon": 0.0, "bike_id": "01ee5e5faf569ecce6ec5fea0d0adcff", "is_disabled": 0, "is_reserved": 0}, {"rental_uris": {"ios": "https://dc.lft.to/lastmile_qr_scan", "android": "https://dc.lft.to/lastmile_qr_scan"}, "lon": -77.037215, "type": "electric_scooter", "fusion_lat": 0.0, "lat": 38.93363333333333, "name": "4d6a8ad14e2659d5467b2cd19e3aa402", "fusion_lon": 0.0, "bike_id": "4d6a8ad14e2659d5467b2cd19e3aa402", "is_disabled": 0, "is_reserved": 0}, {"rental_uris": {"ios": "https://dc.lft.to/lastmile_qr_scan", "android": "https://dc.lft.to/lastmile_qr_scan"}, "lon": -77.0319695, "type": "electric_scooter", "fusion_lat": 0.0, "lat": 38.9206575, "name": "6fe9a74bbf1d5c4b4ec66600da3b6732", "fusion_lon": 0.0, "bike_id": "6fe9a74bbf1d5c4b4ec66600da3b6732", "is_disabled": 0, "is_reserved": 0}, {"rental_uris": {"ios": "https://dc.lft.to/lastmile_qr_scan", "android": "https://dc.lft.to/lastmile_qr_scan"}, "lon": -77.0512695, "type": "electric_scooter", "fusion_lat": 0.0, "lat": 38.90226833333333, "name": "4b1ce8fc91164566424d69905cad4eaf", "fusion_lon": 0.0, "bike_id": "4b1ce8fc91164566424d69905cad4eaf", "is_disabled": 0, "is_reserved": 0}, {"rental_uris": {"ios": "https://dc.lft.to/lastmile_qr_scan", "android": "https://dc.lft.to/lastmile_qr_scan"}, "lon": -77.023761, "type": "electric_scooter", "fusion_lat": 0.0, "lat": 38.919020833333335, "name": "eccee786e5c6eaeae26470c8381b606b", "fusion_lon": 0.0, "bike_id": "eccee786e5c6eaeae26470c8381b606b", "is_disabled": 0, "is_reserved": 0}, {"rental_uris": {"ios": "https://dc.lft.to/lastmile_qr_scan", "android": "https://dc.lft.to/lastmile_qr_scan"}, "lon": -77.054772, "type": "electric_scooter", "fusion_lat": 0.0, "lat": 38.910652666666664, "name": "e810a97050cec37b32b40edeaecaace2", "fusion_lon": 0.0, "bike_id": "e810a97050cec37b32b40edeaecaace2", "is_disabled": 0, "is_reserved": 0}, {"rental_uris": {"ios": "https://dc.lft.to/lastmile_qr_scan", "android": "https://dc.lft.to/lastmile_qr_scan"}, "lon": -76.98607066666666, "type": "electric_scooter", "fusion_lat": 0.0, "lat": 38.878349, "name": "adce1f046c3f91623632d9572eecd232", "fusion_lon": 0.0, "bike_id": "adce1f046c3f91623632d9572eecd232", "is_disabled": 0, "is_reserved": 0}, {"rental_uris": {"ios": "https://dc.lft.to/lastmile_qr_scan", "android": "https://dc.lft.to/lastmile_qr_scan"}, "lon": -77.0471515, "type": "electric_scooter", "fusion_lat": 0.0, "lat": 38.899597, "name": "9baaec92d03f1706afef9e625a07d986", "fusion_lon": 0.0, "bike_id": "9baaec92d03f1706afef9e625a07d986", "is_disabled": 0, "is_reserved": 0}, {"rental_uris": {"ios": "https://dc.lft.to/lastmile_qr_scan", "android": "https://dc.lft.to/lastmile_qr_scan"}, "lon": -76.99461166666667, "type": "electric_scooter", "fusion_lat": 0.0, "lat": 38.851629, "name": "1230138c2fd99ec9ecc94e1289805d9e", "fusion_lon": 0.0, "bike_id": "1230138c2fd99ec9ecc94e1289805d9e", "is_disabled": 0, "is_reserved": 0}, {"rental_uris": {"ios": "https://dc.lft.to/lastmile_qr_scan", "android": "https://dc.lft.to/lastmile_qr_scan"}, "lon": -77.0356485, "type": "electric_scooter", "fusion_lat": 0.0, "lat": 38.93976966666666, "name": "c62b13ee475c1659c77648d8779d8990", "fusion_lon": 0.0, "bike_id": "c62b13ee475c1659c77648d8779d8990", "is_disabled": 0, "is_reserved": 0}, {"rental_uris": {"ios": "https://dc.lft.to/lastmile_qr_scan", "android": "https://dc.lft.to/lastmile_qr_scan"}, "lon": -77.0551255, "type": "electric_scooter", "fusion_lat": 0.0, "lat": 38.92505666666667, "name": "427ae98eb8761f5977717b8aab275084", "fusion_lon": 0.0, "bike_id": "427ae98eb8761f5977717b8aab275084", "is_disabled": 0, "is_reserved": 0}, {"rental_uris": {"ios": "https://dc.lft.to/lastmile_qr_scan", "android": "https://dc.lft.to/lastmile_qr_scan"}, "lon": -77.04166216666667, "type": "electric_scooter", "fusion_lat": 0.0, "lat": 38.90531133333333, "name": "2c2f2ea7a0d383a1b4f142a11fdd6b0f", "fusion_lon": 0.0, "bike_id": "2c2f2ea7a0d383a1b4f142a11fdd6b0f", "is_disabled": 0, "is_reserved": 0}, {"rental_uris": {"ios": "https://dc.lft.to/lastmile_qr_scan", "android": "https://dc.lft.to/lastmile_qr_scan"}, "lon": -77.01273433333333, "type": "electric_scooter", "fusion_lat": 0.0, "lat": 38.915367, "name": "671861e9bdb6fca7a7a1cc668c65cdec", "fusion_lon": 0.0, "bike_id": "671861e9bdb6fca7a7a1cc668c65cdec", "is_disabled": 0, "is_reserved": 0}, {"rental_uris": {"ios": "https://dc.lft.to/lastmile_qr_scan", "android": "https://dc.lft.to/lastmile_qr_scan"}, "lon": -77.02621883333333, "type": "electric_scooter", "fusion_lat": 0.0, "lat": 38.915279166666664, "name": "d23c262afef8384524b9c238c6c6d044", "fusion_lon": 0.0, "bike_id": "d23c262afef8384524b9c238c6c6d044", "is_disabled": 0, "is_reserved": 0}, {"rental_uris": {"ios": "https://dc.lft.to/lastmile_qr_scan", "android": "https://dc.lft.to/lastmile_qr_scan"}, "lon": -76.93962566666667, "type": "electric_scooter", "fusion_lat": 0.0, "lat": 38.89963766666666, "name": "87b43e2806285b94ecc5476dd68b50d5", "fusion_lon": 0.0, "bike_id": "87b43e2806285b94ecc5476dd68b50d5", "is_disabled": 0, "is_reserved": 0}, {"rental_uris": {"ios": "https://dc.lft.to/lastmile_qr_scan", "android": "https://dc.lft.to/lastmile_qr_scan"}, "lon": -77.02135, "type": "electric_scooter", "fusion_lat": 0.0, "lat": 38.89472333333333, "name": "a03f052fcceab13b901606a6ddc16952", "fusion_lon": 0.0, "bike_id": "a03f052fcceab13b901606a6ddc16952", "is_disabled": 0, "is_reserved": 0}, {"rental_uris": {"ios": "https://dc.lft.to/lastmile_qr_scan", "android": "https://dc.lft.to/lastmile_qr_scan"}, "lon": -76.95747816666666, "type": "electric_scooter", "fusion_lat": 0.0, "lat": 38.88421533333333, "name": "aa2f96137139385e043292b31f1aecb2", "fusion_lon": 0.0, "bike_id": "aa2f96137139385e043292b31f1aecb2", "is_disabled": 0, "is_reserved": 0}, {"rental_uris": {"ios": "https://dc.lft.to/lastmile_qr_scan", "android": "https://dc.lft.to/lastmile_qr_scan"}, "lon": -77.08048866666667, "type": "electric_bike", "fusion_lat": 0.0, "lat": 38.84843083333333, "name": "f9353b958bb9754afb9659cc4451df05", "fusion_lon": 0.0, "bike_id": "f9353b958bb9754afb9659cc4451df05", "is_disabled": 0, "is_reserved": 0}, {"rental_uris": {"ios": "https://dc.lft.to/lastmile_qr_scan", "android": "https://dc.lft.to/lastmile_qr_scan"}, "lon": -77.06302716666667, "type": "electric_scooter", "fusion_lat": 0.0, "lat": 38.90665216666667, "name": "2fcf8316dc6efde26e8403bb02c3df7a", "fusion_lon": 0.0, "bike_id": "2fcf8316dc6efde26e8403bb02c3df7a", "is_disabled": 0, "is_reserved": 0}, {"rental_uris": {"ios": "https://dc.lft.to/lastmile_qr_scan", "android": "https://dc.lft.to/lastmile_qr_scan"}, "lon": -76.9812835, "type": "electric_scooter", "fusion_lat": 0.0, "lat": 38.85709083333333, "name": "da51e59578f69d33833fff472b37b9a7", "fusion_lon": 0.0, "bike_id": "da51e59578f69d33833fff472b37b9a7", "is_disabled": 0, "is_reserved": 0}, {"rental_uris": {"ios": "https://dc.lft.to/lastmile_qr_scan", "android": "https://dc.lft.to/lastmile_qr_scan"}, "lon": -77.01975366666667, "type": "electric_bike", "fusion_lat": 0.0, "lat": 38.9152885, "name": "ce94f38c47349014f1ec59dcf1da7e5b", "fusion_lon": 0.0, "bike_id": "ce94f38c47349014f1ec59dcf1da7e5b", "is_disabled": 0, "is_reserved": 0}, {"rental_uris": {"ios": "https://dc.lft.to/lastmile_qr_scan", "android": "https://dc.lft.to/lastmile_qr_scan"}, "lon": -77.038345, "type": "electric_scooter", "fusion_lat": 0.0, "lat": 38.9078375, "name": "126166370fbc9b4bfea23ca9c61db875", "fusion_lon": 0.0, "bike_id": "126166370fbc9b4bfea23ca9c61db875", "is_disabled": 0, "is_reserved": 0}, {"rental_uris": {"ios": "https://dc.lft.to/lastmile_qr_scan", "android": "https://dc.lft.to/lastmile_qr_scan"}, "lon": -77.04703783333333, "type": "electric_scooter", "fusion_lat": 0.0, "lat": 38.8973105, "name": "645422ccc9b4152a4fef1fe6784aaf25", "fusion_lon": 0.0, "bike_id": "645422ccc9b4152a4fef1fe6784aaf25", "is_disabled": 0, "is_reserved": 0}, {"rental_uris": {"ios": "https://dc.lft.to/lastmile_qr_scan", "android": "https://dc.lft.to/lastmile_qr_scan"}, "lon": -77.09159983333333, "type": "electric_bike", "fusion_lat": 0.0, "lat": 38.967656166666664, "name": "857145f6ba32b324119f0df19fa231f9", "fusion_lon": 0.0, "bike_id": "857145f6ba32b324119f0df19fa231f9", "is_disabled": 0, "is_reserved": 0}, {"rental_uris": {"ios": "https://dc.lft.to/lastmile_qr_scan", "android": "https://dc.lft.to/lastmile_qr_scan"}, "lon": -77.04375916666666, "type": "electric_scooter", "fusion_lat": 0.0, "lat": 38.920632499999996, "name": "206463a1037eda9a01006b4aaf9249c4", "fusion_lon": 0.0, "bike_id": "206463a1037eda9a01006b4aaf9249c4", "is_disabled": 0, "is_reserved": 0}, {"rental_uris": {"ios": "https://dc.lft.to/lastmile_qr_scan", "android": "https://dc.lft.to/lastmile_qr_scan"}, "lon": -76.99071133333334, "type": "electric_scooter", "fusion_lat": 0.0, "lat": 38.904208833333335, "name": "9e294018774ea61173202b12cabbeaa6", "fusion_lon": 0.0, "bike_id": "9e294018774ea61173202b12cabbeaa6", "is_disabled": 0, "is_reserved": 0}, {"rental_uris": {"ios": "https://dc.lft.to/lastmile_qr_scan", "android": "https://dc.lft.to/lastmile_qr_scan"}, "lon": -77.05409516666667, "type": "electric_scooter", "fusion_lat": 0.0, "lat": 38.904022166666664, "name": "8f7ce6932d182082c60b513b837048b9", "fusion_lon": 0.0, "bike_id": "8f7ce6932d182082c60b513b837048b9", "is_disabled": 0, "is_reserved": 0}, {"rental_uris": {"ios": "https://dc.lft.to/lastmile_qr_scan", "android": "https://dc.lft.to/lastmile_qr_scan"}, "lon": -77.03985733333333, "type": "electric_scooter", "fusion_lat": 0.0, "lat": 38.90138316666667, "name": "414c0f5c75e107a6cd16f4f84ea04799", "fusion_lon": 0.0, "bike_id": "414c0f5c75e107a6cd16f4f84ea04799", "is_disabled": 0, "is_reserved": 0}, {"rental_uris": {"ios": "https://dc.lft.to/lastmile_qr_scan", "android": "https://dc.lft.to/lastmile_qr_scan"}, "lon": -77.13092233333333, "type": "electric_bike", "fusion_lat": 0.0, "lat": 38.8615965, "name": "ba410fe94c8bb2bc585bc0f089d86623", "fusion_lon": 0.0, "bike_id": "ba410fe94c8bb2bc585bc0f089d86623", "is_disabled": 0, "is_reserved": 0}, {"rental_uris": {"ios": "https://dc.lft.to/lastmile_qr_scan", "android": "https://dc.lft.to/lastmile_qr_scan"}, "lon": -77.02315516666667, "type": "electric_scooter", "fusion_lat": 0.0, "lat": 38.883292833333336, "name": "11be614027ada554a0b7fc741d18427b", "fusion_lon": 0.0, "bike_id": "11be614027ada554a0b7fc741d18427b", "is_disabled": 0, "is_reserved": 0}, {"rental_uris": {"ios": "https://dc.lft.to/lastmile_qr_scan", "android": "https://dc.lft.to/lastmile_qr_scan"}, "lon": -77.019782, "type": "electric_bike", "fusion_lat": 0.0, "lat": 38.956610833333336, "name": "85638a41aa6d0eb780327b404461b4ca", "fusion_lon": 0.0, "bike_id": "85638a41aa6d0eb780327b404461b4ca", "is_disabled": 0, "is_reserved": 0}, {"rental_uris": {"ios": "https://dc.lft.to/lastmile_qr_scan", "android": "https://dc.lft.to/lastmile_qr_scan"}, "lon": -77.02701516666667, "type": "electric_scooter", "fusion_lat": 0.0, "lat": 38.90671833333333, "name": "91b3f454433579e34e71434b7f0283df", "fusion_lon": 0.0, "bike_id": "91b3f454433579e34e71434b7f0283df", "is_disabled": 0, "is_reserved": 0}, {"rental_uris": {"ios": "https://dc.lft.to/lastmile_qr_scan", "android": "https://dc.lft.to/lastmile_qr_scan"}, "lon": -76.98511583333334, "type": "electric_scooter", "fusion_lat": 0.0, "lat": 38.900863, "name": "ebd582d7fb7d4cebd5b9491e12465bc7", "fusion_lon": 0.0, "bike_id": "ebd582d7fb7d4cebd5b9491e12465bc7", "is_disabled": 0, "is_reserved": 0}, {"rental_uris": {"ios": "https://dc.lft.to/lastmile_qr_scan", "android": "https://dc.lft.to/lastmile_qr_scan"}, "lon": -77.0420615, "type": "electric_scooter", "fusion_lat": 0.0, "lat": 38.9110035, "name": "4354e78a63486cb389c466815f986a94", "fusion_lon": 0.0, "bike_id": "4354e78a63486cb389c466815f986a94", "is_disabled": 0, "is_reserved": 0}, {"rental_uris": {"ios": "https://dc.lft.to/lastmile_qr_scan", "android": "https://dc.lft.to/lastmile_qr_scan"}, "lon": -77.0433505, "type": "electric_scooter", "fusion_lat": 0.0, "lat": 38.895821166666664, "name": "afa3e3e3b19f7ddc5d5fe1ab07d6c8ff", "fusion_lon": 0.0, "bike_id": "afa3e3e3b19f7ddc5d5fe1ab07d6c8ff", "is_disabled": 0, "is_reserved": 0}, {"rental_uris": {"ios": "https://dc.lft.to/lastmile_qr_scan", "android": "https://dc.lft.to/lastmile_qr_scan"}, "lon": -77.04665716666666, "type": "electric_scooter", "fusion_lat": 0.0, "lat": 38.903745666666666, "name": "6f5aa979e5aec5ea87f48dbc72fc6e16", "fusion_lon": 0.0, "bike_id": "6f5aa979e5aec5ea87f48dbc72fc6e16", "is_disabled": 0, "is_reserved": 0}, {"rental_uris": {"ios": "https://dc.lft.to/lastmile_qr_scan", "android": "https://dc.lft.to/lastmile_qr_scan"}, "lon": -77.04506133333334, "type": "electric_scooter", "fusion_lat": 0.0, "lat": 38.91188966666667, "name": "9b1e6e7bd956dccb62cfff3bfafdf43f", "fusion_lon": 0.0, "bike_id": "9b1e6e7bd956dccb62cfff3bfafdf43f", "is_disabled": 0, "is_reserved": 0}, {"rental_uris": {"ios": "https://dc.lft.to/lastmile_qr_scan", "android": "https://dc.lft.to/lastmile_qr_scan"}, "lon": -77.03838, "type": "electric_scooter", "fusion_lat": 0.0, "lat": 38.92640266666667, "name": "fc68c937919435185b396edb6f5b923a", "fusion_lon": 0.0, "bike_id": "fc68c937919435185b396edb6f5b923a", "is_disabled": 0, "is_reserved": 0}, {"rental_uris": {"ios": "https://dc.lft.to/lastmile_qr_scan", "android": "https://dc.lft.to/lastmile_qr_scan"}, "lon": -76.94628733333333, "type": "electric_bike", "fusion_lat": 0.0, "lat": 38.946225, "name": "3c53b090160f0cedf91cf7cfce6f99ad", "fusion_lon": 0.0, "bike_id": "3c53b090160f0cedf91cf7cfce6f99ad", "is_disabled": 0, "is_reserved": 0}, {"rental_uris": {"ios": "https://dc.lft.to/lastmile_qr_scan", "android": "https://dc.lft.to/lastmile_qr_scan"}, "lon": -77.03925966666667, "type": "electric_scooter", "fusion_lat": 0.0, "lat": 38.899141666666665, "name": "e248f85e40dd3e9bb62d9550e6fde453", "fusion_lon": 0.0, "bike_id": "e248f85e40dd3e9bb62d9550e6fde453", "is_disabled": 0, "is_reserved": 0}, {"rental_uris": {"ios": "https://dc.lft.to/lastmile_qr_scan", "android": "https://dc.lft.to/lastmile_qr_scan"}, "lon": -77.02615366666667, "type": "electric_scooter", "fusion_lat": 0.0, "lat": 38.8959155, "name": "56dbcbbc26a3fff679c963ac64da65c5", "fusion_lon": 0.0, "bike_id": "56dbcbbc26a3fff679c963ac64da65c5", "is_disabled": 0, "is_reserved": 0}, {"rental_uris": {"ios": "https://dc.lft.to/lastmile_qr_scan", "android": "https://dc.lft.to/lastmile_qr_scan"}, "lon": -76.998788, "type": "electric_scooter", "fusion_lat": 0.0, "lat": 38.90745866666666, "name": "488a56ce55ed9e98394219c909519a73", "fusion_lon": 0.0, "bike_id": "488a56ce55ed9e98394219c909519a73", "is_disabled": 0, "is_reserved": 0}, {"rental_uris": {"ios": "https://dc.lft.to/lastmile_qr_scan", "android": "https://dc.lft.to/lastmile_qr_scan"}, "lon": -77.029261, "type": "electric_scooter", "fusion_lat": 0.0, "lat": 38.8955245, "name": "bde82001e48eed562cc0e68b280f2bfb", "fusion_lon": 0.0, "bike_id": "bde82001e48eed562cc0e68b280f2bfb", "is_disabled": 0, "is_reserved": 0}, {"rental_uris": {"ios": "https://dc.lft.to/lastmile_qr_scan", "android": "https://dc.lft.to/lastmile_qr_scan"}, "lon": -77.043395, "type": "electric_scooter", "fusion_lat": 0.0, "lat": 38.908099666666665, "name": "1b782d9b41f6214e341a2da9a9c601a7", "fusion_lon": 0.0, "bike_id": "1b782d9b41f6214e341a2da9a9c601a7", "is_disabled": 0, "is_reserved": 0}, {"rental_uris": {"ios": "https://dc.lft.to/lastmile_qr_scan", "android": "https://dc.lft.to/lastmile_qr_scan"}, "lon": -77.06302833333334, "type": "electric_scooter", "fusion_lat": 0.0, "lat": 38.906993666666665, "name": "31a6d8464275850d4907c2279622e0e6", "fusion_lon": 0.0, "bike_id": "31a6d8464275850d4907c2279622e0e6", "is_disabled": 0, "is_reserved": 0}, {"rental_uris": {"ios": "https://dc.lft.to/lastmile_qr_scan", "android": "https://dc.lft.to/lastmile_qr_scan"}, "lon": -76.972066, "type": "electric_scooter", "fusion_lat": 0.0, "lat": 38.854998, "name": "f330e735f52ae25d06083a1caa1a15e1", "fusion_lon": 0.0, "bike_id": "f330e735f52ae25d06083a1caa1a15e1", "is_disabled": 0, "is_reserved": 0}, {"rental_uris": {"ios": "https://dc.lft.to/lastmile_qr_scan", "android": "https://dc.lft.to/lastmile_qr_scan"}, "lon": -77.04665, "type": "electric_scooter", "fusion_lat": 0.0, "lat": 38.90749816666667, "name": "c3de7b5a98a16641fb46bee77e1112e3", "fusion_lon": 0.0, "bike_id": "c3de7b5a98a16641fb46bee77e1112e3", "is_disabled": 0, "is_reserved": 0}, {"rental_uris": {"ios": "https://dc.lft.to/lastmile_qr_scan", "android": "https://dc.lft.to/lastmile_qr_scan"}, "lon": -77.04497466666666, "type": "electric_scooter", "fusion_lat": 0.0, "lat": 38.900229833333334, "name": "285075aa34499f78a4a6d230911e5ac3", "fusion_lon": 0.0, "bike_id": "285075aa34499f78a4a6d230911e5ac3", "is_disabled": 0, "is_reserved": 0}, {"rental_uris": {"ios": "https://dc.lft.to/lastmile_qr_scan", "android": "https://dc.lft.to/lastmile_qr_scan"}, "lon": -77.06105816666667, "type": "electric_scooter", "fusion_lat": 0.0, "lat": 38.9370475, "name": "c7efd42f81daa6936045f718af48bb1f", "fusion_lon": 0.0, "bike_id": "c7efd42f81daa6936045f718af48bb1f", "is_disabled": 0, "is_reserved": 0}, {"rental_uris": {"ios": "https://dc.lft.to/lastmile_qr_scan", "android": "https://dc.lft.to/lastmile_qr_scan"}, "lon": -76.99675416666666, "type": "electric_scooter", "fusion_lat": 0.0, "lat": 38.91014766666667, "name": "ceb9c21fcb1ca8dfbf632c816e0f8132", "fusion_lon": 0.0, "bike_id": "ceb9c21fcb1ca8dfbf632c816e0f8132", "is_disabled": 0, "is_reserved": 0}, {"rental_uris": {"ios": "https://dc.lft.to/lastmile_qr_scan", "android": "https://dc.lft.to/lastmile_qr_scan"}, "lon": -77.008001, "type": "electric_bike", "fusion_lat": 0.0, "lat": 38.926627833333335, "name": "65e75ecf31df201dde1959bd6efdb7c3", "fusion_lon": 0.0, "bike_id": "65e75ecf31df201dde1959bd6efdb7c3", "is_disabled": 0, "is_reserved": 0}, {"rental_uris": {"ios": "https://dc.lft.to/lastmile_qr_scan", "android": "https://dc.lft.to/lastmile_qr_scan"}, "lon": -77.0272445, "type": "electric_scooter", "fusion_lat": 0.0, "lat": 38.93429833333333, "name": "8d9488150b31f51e1cb99256feb99baa", "fusion_lon": 0.0, "bike_id": "8d9488150b31f51e1cb99256feb99baa", "is_disabled": 0, "is_reserved": 0}, {"rental_uris": {"ios": "https://dc.lft.to/lastmile_qr_scan", "android": "https://dc.lft.to/lastmile_qr_scan"}, "lon": -76.9961305, "type": "electric_scooter", "fusion_lat": 0.0, "lat": 38.89742316666667, "name": "223a08d9c6a7bc178734144529258405", "fusion_lon": 0.0, "bike_id": "223a08d9c6a7bc178734144529258405", "is_disabled": 0, "is_reserved": 0}, {"rental_uris": {"ios": "https://dc.lft.to/lastmile_qr_scan", "android": "https://dc.lft.to/lastmile_qr_scan"}, "lon": -76.98655866666667, "type": "electric_scooter", "fusion_lat": 0.0, "lat": 38.8580445, "name": "970be90ee81b1af312f2df08683d4b78", "fusion_lon": 0.0, "bike_id": "970be90ee81b1af312f2df08683d4b78", "is_disabled": 0, "is_reserved": 0}, {"rental_uris": {"ios": "https://dc.lft.to/lastmile_qr_scan", "android": "https://dc.lft.to/lastmile_qr_scan"}, "lon": -76.9471965, "type": "electric_scooter", "fusion_lat": 0.0, "lat": 38.89734466666667, "name": "dc183513562792206f1439e81059b6b3", "fusion_lon": 0.0, "bike_id": "dc183513562792206f1439e81059b6b3", "is_disabled": 0, "is_reserved": 0}, {"rental_uris": {"ios": "https://dc.lft.to/lastmile_qr_scan", "android": "https://dc.lft.to/lastmile_qr_scan"}, "lon": -77.00917533333333, "type": "electric_scooter", "fusion_lat": 0.0, "lat": 38.91092916666667, "name": "91e2b57c2ba80fb97f93d64ff25f83d5", "fusion_lon": 0.0, "bike_id": "91e2b57c2ba80fb97f93d64ff25f83d5", "is_disabled": 0, "is_reserved": 0}, {"rental_uris": {"ios": "https://dc.lft.to/lastmile_qr_scan", "android": "https://dc.lft.to/lastmile_qr_scan"}, "lon": -77.0534645, "type": "electric_scooter", "fusion_lat": 0.0, "lat": 38.902516, "name": "54727106fc194622224102acb204912a", "fusion_lon": 0.0, "bike_id": "54727106fc194622224102acb204912a", "is_disabled": 0, "is_reserved": 0}, {"rental_uris": {"ios": "https://dc.lft.to/lastmile_qr_scan", "android": "https://dc.lft.to/lastmile_qr_scan"}, "lon": -77.03272616666666, "type": "electric_scooter", "fusion_lat": 0.0, "lat": 38.92860666666667, "name": "15c5e9b20a114406354a24b2c8da6efc", "fusion_lon": 0.0, "bike_id": "15c5e9b20a114406354a24b2c8da6efc", "is_disabled": 0, "is_reserved": 0}, {"rental_uris": {"ios": "https://dc.lft.to/lastmile_qr_scan", "android": "https://dc.lft.to/lastmile_qr_scan"}, "lon": -77.06380383333334, "type": "electric_scooter", "fusion_lat": 0.0, "lat": 38.90819966666667, "name": "9559a675e12b2cb474a9d0fcb16f29c8", "fusion_lon": 0.0, "bike_id": "9559a675e12b2cb474a9d0fcb16f29c8", "is_disabled": 0, "is_reserved": 0}, {"rental_uris": {"ios": "https://dc.lft.to/lastmile_qr_scan", "android": "https://dc.lft.to/lastmile_qr_scan"}, "lon": -76.9309995, "type": "electric_scooter", "fusion_lat": 0.0, "lat": 38.901427, "name": "aefb3d959e3c92accd94eb5c50ce60d8", "fusion_lon": 0.0, "bike_id": "aefb3d959e3c92accd94eb5c50ce60d8", "is_disabled": 0, "is_reserved": 0}, {"rental_uris": {"ios": "https://dc.lft.to/lastmile_qr_scan", "android": "https://dc.lft.to/lastmile_qr_scan"}, "lon": -77.02387716666667, "type": "electric_scooter", "fusion_lat": 0.0, "lat": 38.894927833333334, "name": "2d437d93f1a5a0a3ea329c725c1987b8", "fusion_lon": 0.0, "bike_id": "2d437d93f1a5a0a3ea329c725c1987b8", "is_disabled": 0, "is_reserved": 0}, {"rental_uris": {"ios": "https://dc.lft.to/lastmile_qr_scan", "android": "https://dc.lft.to/lastmile_qr_scan"}, "lon": -77.02642316666666, "type": "electric_scooter", "fusion_lat": 0.0, "lat": 38.92390616666667, "name": "5bf5003146540d79f256698f3e394ae4", "fusion_lon": 0.0, "bike_id": "5bf5003146540d79f256698f3e394ae4", "is_disabled": 0, "is_reserved": 0}, {"rental_uris": {"ios": "https://dc.lft.to/lastmile_qr_scan", "android": "https://dc.lft.to/lastmile_qr_scan"}, "lon": -76.97319533333334, "type": "electric_scooter", "fusion_lat": 0.0, "lat": 38.90472616666667, "name": "c430e42715755af82ba8de1b3254f74a", "fusion_lon": 0.0, "bike_id": "c430e42715755af82ba8de1b3254f74a", "is_disabled": 0, "is_reserved": 0}, {"rental_uris": {"ios": "https://dc.lft.to/lastmile_qr_scan", "android": "https://dc.lft.to/lastmile_qr_scan"}, "lon": -77.05810266666667, "type": "electric_scooter", "fusion_lat": 0.0, "lat": 38.90294133333333, "name": "32f378d27f6e4874b8d7dbb2cae911be", "fusion_lon": 0.0, "bike_id": "32f378d27f6e4874b8d7dbb2cae911be", "is_disabled": 0, "is_reserved": 0}, {"rental_uris": {"ios": "https://dc.lft.to/lastmile_qr_scan", "android": "https://dc.lft.to/lastmile_qr_scan"}, "lon": -76.99847983333333, "type": "electric_scooter", "fusion_lat": 0.0, "lat": 38.9002375, "name": "b058d4add5e22340b80b9de7a090e7bb", "fusion_lon": 0.0, "bike_id": "b058d4add5e22340b80b9de7a090e7bb", "is_disabled": 0, "is_reserved": 0}, {"rental_uris": {"ios": "https://dc.lft.to/lastmile_qr_scan", "android": "https://dc.lft.to/lastmile_qr_scan"}, "lon": -76.93544666666666, "type": "electric_bike", "fusion_lat": 0.0, "lat": 38.951816, "name": "8b6a684e45658855027902384b40f1ce", "fusion_lon": 0.0, "bike_id": "8b6a684e45658855027902384b40f1ce", "is_disabled": 0, "is_reserved": 0}, {"rental_uris": {"ios": "https://dc.lft.to/lastmile_qr_scan", "android": "https://dc.lft.to/lastmile_qr_scan"}, "lon": -77.05681383333334, "type": "electric_scooter", "fusion_lat": 0.0, "lat": 38.936994166666665, "name": "003310aa9db9a51abc462075a45f25d0", "fusion_lon": 0.0, "bike_id": "003310aa9db9a51abc462075a45f25d0", "is_disabled": 0, "is_reserved": 0}, {"rental_uris": {"ios": "https://dc.lft.to/lastmile_qr_scan", "android": "https://dc.lft.to/lastmile_qr_scan"}, "lon": -77.04799166666666, "type": "electric_scooter", "fusion_lat": 0.0, "lat": 38.89743766666667, "name": "ba3d4bb3033a30d3fda6156da424a814", "fusion_lon": 0.0, "bike_id": "ba3d4bb3033a30d3fda6156da424a814", "is_disabled": 0, "is_reserved": 0}, {"rental_uris": {"ios": "https://dc.lft.to/lastmile_qr_scan", "android": "https://dc.lft.to/lastmile_qr_scan"}, "lon": -77.0357045, "type": "electric_scooter", "fusion_lat": 0.0, "lat": 38.91815316666667, "name": "c4d61c7def31dffc8dbd8b44e1a55831", "fusion_lon": 0.0, "bike_id": "c4d61c7def31dffc8dbd8b44e1a55831", "is_disabled": 0, "is_reserved": 0}, {"rental_uris": {"ios": "https://dc.lft.to/lastmile_qr_scan", "android": "https://dc.lft.to/lastmile_qr_scan"}, "lon": -76.99550166666667, "type": "electric_scooter", "fusion_lat": 0.0, "lat": 38.923122666666664, "name": "842d3ef11123cb6e8401711e57199c6b", "fusion_lon": 0.0, "bike_id": "842d3ef11123cb6e8401711e57199c6b", "is_disabled": 0, "is_reserved": 0}, {"rental_uris": {"ios": "https://dc.lft.to/lastmile_qr_scan", "android": "https://dc.lft.to/lastmile_qr_scan"}, "lon": -77.02227566666667, "type": "electric_scooter", "fusion_lat": 0.0, "lat": 38.89351033333333, "name": "717e0b6ef18744c8921ff4fb71616ca9", "fusion_lon": 0.0, "bike_id": "717e0b6ef18744c8921ff4fb71616ca9", "is_disabled": 0, "is_reserved": 0}, {"rental_uris": {"ios": "https://dc.lft.to/lastmile_qr_scan", "android": "https://dc.lft.to/lastmile_qr_scan"}, "lon": -77.15266333333334, "type": "electric_bike", "fusion_lat": 0.0, "lat": 39.1056275, "name": "75e5845d9ba7ef0d57e9e4a065fd52e0", "fusion_lon": 0.0, "bike_id": "75e5845d9ba7ef0d57e9e4a065fd52e0", "is_disabled": 0, "is_reserved": 0}, {"rental_uris": {"ios": "https://dc.lft.to/lastmile_qr_scan", "android": "https://dc.lft.to/lastmile_qr_scan"}, "lon": -77.0431525, "type": "electric_scooter", "fusion_lat": 0.0, "lat": 38.91026933333333, "name": "566ac68a76fc696ff1eb643b401b9653", "fusion_lon": 0.0, "bike_id": "566ac68a76fc696ff1eb643b401b9653", "is_disabled": 0, "is_reserved": 0}, {"rental_uris": {"ios": "https://dc.lft.to/lastmile_qr_scan", "android": "https://dc.lft.to/lastmile_qr_scan"}, "lon": -76.93789116666667, "type": "electric_scooter", "fusion_lat": 0.0, "lat": 38.890826, "name": "a160ee6ccd02ead2930aa21f38927fb6", "fusion_lon": 0.0, "bike_id": "a160ee6ccd02ead2930aa21f38927fb6", "is_disabled": 0, "is_reserved": 0}, {"rental_uris": {"ios": "https://dc.lft.to/lastmile_qr_scan", "android": "https://dc.lft.to/lastmile_qr_scan"}, "lon": -76.9317705, "type": "electric_scooter", "fusion_lat": 0.0, "lat": 38.898852, "name": "3bbf21a18530911a5e4e56f713367ceb", "fusion_lon": 0.0, "bike_id": "3bbf21a18530911a5e4e56f713367ceb", "is_disabled": 0, "is_reserved": 0}, {"rental_uris": {"ios": "https://dc.lft.to/lastmile_qr_scan", "android": "https://dc.lft.to/lastmile_qr_scan"}, "lon": -76.95764516666667, "type": "electric_scooter", "fusion_lat": 0.0, "lat": 38.884233333333334, "name": "f4a1adcfccebd44344860e5739006784", "fusion_lon": 0.0, "bike_id": "f4a1adcfccebd44344860e5739006784", "is_disabled": 0, "is_reserved": 0}, {"rental_uris": {"ios": "https://dc.lft.to/lastmile_qr_scan", "android": "https://dc.lft.to/lastmile_qr_scan"}, "lon": -77.01377933333333, "type": "electric_scooter", "fusion_lat": 0.0, "lat": 38.89220916666667, "name": "7e8f08b4328f18231f14789dc53042d9", "fusion_lon": 0.0, "bike_id": "7e8f08b4328f18231f14789dc53042d9", "is_disabled": 0, "is_reserved": 0}, {"rental_uris": {"ios": "https://dc.lft.to/lastmile_qr_scan", "android": "https://dc.lft.to/lastmile_qr_scan"}, "lon": -77.025859, "type": "electric_scooter", "fusion_lat": 0.0, "lat": 38.90171466666666, "name": "597a93bc1e21e17269932346f310f480", "fusion_lon": 0.0, "bike_id": "597a93bc1e21e17269932346f310f480", "is_disabled": 0, "is_reserved": 0}, {"rental_uris": {"ios": "https://dc.lft.to/lastmile_qr_scan", "android": "https://dc.lft.to/lastmile_qr_scan"}, "lon": -76.965029, "type": "electric_scooter", "fusion_lat": 0.0, "lat": 38.876431333333336, "name": "d678c1571c4656ad1b7f51236c1333a0", "fusion_lon": 0.0, "bike_id": "d678c1571c4656ad1b7f51236c1333a0", "is_disabled": 0, "is_reserved": 0}, {"rental_uris": {"ios": "https://dc.lft.to/lastmile_qr_scan", "android": "https://dc.lft.to/lastmile_qr_scan"}, "lon": -77.10091016666667, "type": "electric_bike", "fusion_lat": 0.0, "lat": 38.959526333333336, "name": "84ec2662fc765e59405277688c1997b9", "fusion_lon": 0.0, "bike_id": "84ec2662fc765e59405277688c1997b9", "is_disabled": 0, "is_reserved": 0}, {"rental_uris": {"ios": "https://dc.lft.to/lastmile_qr_scan", "android": "https://dc.lft.to/lastmile_qr_scan"}, "lon": -77.03172516666666, "type": "electric_scooter", "fusion_lat": 0.0, "lat": 38.9133265, "name": "cc7bc0942e186a012f0feab6803c632e", "fusion_lon": 0.0, "bike_id": "cc7bc0942e186a012f0feab6803c632e", "is_disabled": 0, "is_reserved": 0}, {"rental_uris": {"ios": "https://dc.lft.to/lastmile_qr_scan", "android": "https://dc.lft.to/lastmile_qr_scan"}, "lon": -77.03917516666667, "type": "electric_scooter", "fusion_lat": 0.0, "lat": 38.8991555, "name": "db0c23169eaef17c7c3cb94a9ef35fa3", "fusion_lon": 0.0, "bike_id": "db0c23169eaef17c7c3cb94a9ef35fa3", "is_disabled": 0, "is_reserved": 0}, {"rental_uris": {"ios": "https://dc.lft.to/lastmile_qr_scan", "android": "https://dc.lft.to/lastmile_qr_scan"}, "lon": -77.02710966666666, "type": "electric_scooter", "fusion_lat": 0.0, "lat": 38.91804, "name": "5e8d0edfe51e9be06da651e0774a624c", "fusion_lon": 0.0, "bike_id": "5e8d0edfe51e9be06da651e0774a624c", "is_disabled": 0, "is_reserved": 0}, {"rental_uris": {"ios": "https://dc.lft.to/lastmile_qr_scan", "android": "https://dc.lft.to/lastmile_qr_scan"}, "lon": -77.031429, "type": "electric_scooter", "fusion_lat": 0.0, "lat": 38.9111865, "name": "3db96a48d461431904959f786a2d3be7", "fusion_lon": 0.0, "bike_id": "3db96a48d461431904959f786a2d3be7", "is_disabled": 0, "is_reserved": 0}, {"rental_uris": {"ios": "https://dc.lft.to/lastmile_qr_scan", "android": "https://dc.lft.to/lastmile_qr_scan"}, "lon": -77.03662216666666, "type": "electric_scooter", "fusion_lat": 0.0, "lat": 38.91807583333333, "name": "95c2a28c9c61baf38a8f31f050d94f71", "fusion_lon": 0.0, "bike_id": "95c2a28c9c61baf38a8f31f050d94f71", "is_disabled": 0, "is_reserved": 0}, {"rental_uris": {"ios": "https://dc.lft.to/lastmile_qr_scan", "android": "https://dc.lft.to/lastmile_qr_scan"}, "lon": -76.99791633333334, "type": "electric_scooter", "fusion_lat": 0.0, "lat": 38.921814166666664, "name": "3ded76d846263435dd91990485439f9f", "fusion_lon": 0.0, "bike_id": "3ded76d846263435dd91990485439f9f", "is_disabled": 0, "is_reserved": 0}, {"rental_uris": {"ios": "https://dc.lft.to/lastmile_qr_scan", "android": "https://dc.lft.to/lastmile_qr_scan"}, "lon": -76.98500183333333, "type": "electric_scooter", "fusion_lat": 0.0, "lat": 38.86043016666667, "name": "67a59368e5bee9aafb62933eca7b5ed4", "fusion_lon": 0.0, "bike_id": "67a59368e5bee9aafb62933eca7b5ed4", "is_disabled": 0, "is_reserved": 0}, {"rental_uris": {"ios": "https://dc.lft.to/lastmile_qr_scan", "android": "https://dc.lft.to/lastmile_qr_scan"}, "lon": -76.97890283333334, "type": "electric_scooter", "fusion_lat": 0.0, "lat": 38.90419466666667, "name": "90155b778c12bb802317c8fa24ef986e", "fusion_lon": 0.0, "bike_id": "90155b778c12bb802317c8fa24ef986e", "is_disabled": 0, "is_reserved": 0}, {"rental_uris": {"ios": "https://dc.lft.to/lastmile_qr_scan", "android": "https://dc.lft.to/lastmile_qr_scan"}, "lon": -76.9873825, "type": "electric_bike", "fusion_lat": 0.0, "lat": 38.85784366666667, "name": "c35bfac43fdaad3ddb74afae94c17815", "fusion_lon": 0.0, "bike_id": "c35bfac43fdaad3ddb74afae94c17815", "is_disabled": 0, "is_reserved": 0}, {"rental_uris": {"ios": "https://dc.lft.to/lastmile_qr_scan", "android": "https://dc.lft.to/lastmile_qr_scan"}, "lon": -77.0445925, "type": "electric_scooter", "fusion_lat": 0.0, "lat": 38.91115466666667, "name": "44e5981cc88e5cd361622893239dd622", "fusion_lon": 0.0, "bike_id": "44e5981cc88e5cd361622893239dd622", "is_disabled": 0, "is_reserved": 0}, {"rental_uris": {"ios": "https://dc.lft.to/lastmile_qr_scan", "android": "https://dc.lft.to/lastmile_qr_scan"}, "lon": -76.9959545, "type": "electric_scooter", "fusion_lat": 0.0, "lat": 38.845394, "name": "177161f8fca807ab5bc14b054b5fa343", "fusion_lon": 0.0, "bike_id": "177161f8fca807ab5bc14b054b5fa343", "is_disabled": 0, "is_reserved": 0}, {"rental_uris": {"ios": "https://dc.lft.to/lastmile_qr_scan", "android": "https://dc.lft.to/lastmile_qr_scan"}, "lon": -77.01529183333334, "type": "electric_scooter", "fusion_lat": 0.0, "lat": 38.90196433333333, "name": "1b2721236b3605edd66f8a84e8a86529", "fusion_lon": 0.0, "bike_id": "1b2721236b3605edd66f8a84e8a86529", "is_disabled": 0, "is_reserved": 0}, {"rental_uris": {"ios": "https://dc.lft.to/lastmile_qr_scan", "android": "https://dc.lft.to/lastmile_qr_scan"}, "lon": -77.01393816666666, "type": "electric_scooter", "fusion_lat": 0.0, "lat": 38.9701035, "name": "bf3f15b4e1bafa4a28a7b7b7409877da", "fusion_lon": 0.0, "bike_id": "bf3f15b4e1bafa4a28a7b7b7409877da", "is_disabled": 0, "is_reserved": 0}, {"rental_uris": {"ios": "https://dc.lft.to/lastmile_qr_scan", "android": "https://dc.lft.to/lastmile_qr_scan"}, "lon": -77.01763216666667, "type": "electric_scooter", "fusion_lat": 0.0, "lat": 38.887260833333336, "name": "9eee83cdfee6f3c7e6f763b3ad0287f2", "fusion_lon": 0.0, "bike_id": "9eee83cdfee6f3c7e6f763b3ad0287f2", "is_disabled": 0, "is_reserved": 0}, {"rental_uris": {"ios": "https://dc.lft.to/lastmile_qr_scan", "android": "https://dc.lft.to/lastmile_qr_scan"}, "lon": -77.02823983333333, "type": "electric_scooter", "fusion_lat": 0.0, "lat": 38.898317, "name": "3680577d38ba05ee3a9071e91c5322ae", "fusion_lon": 0.0, "bike_id": "3680577d38ba05ee3a9071e91c5322ae", "is_disabled": 0, "is_reserved": 0}, {"rental_uris": {"ios": "https://dc.lft.to/lastmile_qr_scan", "android": "https://dc.lft.to/lastmile_qr_scan"}, "lon": -77.36096733333333, "type": "electric_bike", "fusion_lat": 0.0, "lat": 38.9395385, "name": "eb507f4349aa2bb2c486fe2249b9a51c", "fusion_lon": 0.0, "bike_id": "eb507f4349aa2bb2c486fe2249b9a51c", "is_disabled": 0, "is_reserved": 0}, {"rental_uris": {"ios": "https://dc.lft.to/lastmile_qr_scan", "android": "https://dc.lft.to/lastmile_qr_scan"}, "lon": -76.97983316666667, "type": "electric_bike", "fusion_lat": 0.0, "lat": 38.877530666666665, "name": "21723d68f964c59e71958247d8d953a7", "fusion_lon": 0.0, "bike_id": "21723d68f964c59e71958247d8d953a7", "is_disabled": 0, "is_reserved": 0}, {"rental_uris": {"ios": "https://dc.lft.to/lastmile_qr_scan", "android": "https://dc.lft.to/lastmile_qr_scan"}, "lon": -77.05333416666667, "type": "electric_scooter", "fusion_lat": 0.0, "lat": 38.9001745, "name": "e44e2ca98b52d8e813e478dc6b604ec9", "fusion_lon": 0.0, "bike_id": "e44e2ca98b52d8e813e478dc6b604ec9", "is_disabled": 0, "is_reserved": 0}, {"rental_uris": {"ios": "https://dc.lft.to/lastmile_qr_scan", "android": "https://dc.lft.to/lastmile_qr_scan"}, "lon": -76.96055316666667, "type": "electric_bike", "fusion_lat": 0.0, "lat": 38.88401, "name": "298e02e47b9d092335d8d07c58ca15e5", "fusion_lon": 0.0, "bike_id": "298e02e47b9d092335d8d07c58ca15e5", "is_disabled": 0, "is_reserved": 0}, {"rental_uris": {"ios": "https://dc.lft.to/lastmile_qr_scan", "android": "https://dc.lft.to/lastmile_qr_scan"}, "lon": -77.00925533333333, "type": "electric_scooter", "fusion_lat": 0.0, "lat": 38.902434666666664, "name": "0795870ed974a7f54714175c5fc91346", "fusion_lon": 0.0, "bike_id": "0795870ed974a7f54714175c5fc91346", "is_disabled": 0, "is_reserved": 0}, {"rental_uris": {"ios": "https://dc.lft.to/lastmile_qr_scan", "android": "https://dc.lft.to/lastmile_qr_scan"}, "lon": -77.00895466666667, "type": "electric_scooter", "fusion_lat": 0.0, "lat": 38.89766433333333, "name": "1f77bb9f34e59a2080f3ab83f27e1fb2", "fusion_lon": 0.0, "bike_id": "1f77bb9f34e59a2080f3ab83f27e1fb2", "is_disabled": 0, "is_reserved": 0}, {"rental_uris": {"ios": "https://dc.lft.to/lastmile_qr_scan", "android": "https://dc.lft.to/lastmile_qr_scan"}, "lon": -77.03376416666667, "type": "electric_scooter", "fusion_lat": 0.0, "lat": 38.899678333333334, "name": "2560f7e3804801fcef4840e7bf75ada8", "fusion_lon": 0.0, "bike_id": "2560f7e3804801fcef4840e7bf75ada8", "is_disabled": 0, "is_reserved": 0}, {"rental_uris": {"ios": "https://dc.lft.to/lastmile_qr_scan", "android": "https://dc.lft.to/lastmile_qr_scan"}, "lon": -77.03233316666666, "type": "electric_scooter", "fusion_lat": 0.0, "lat": 38.89624883333333, "name": "f5dea48e80776b5efc86d87321fc6752", "fusion_lon": 0.0, "bike_id": "f5dea48e80776b5efc86d87321fc6752", "is_disabled": 0, "is_reserved": 0}, {"rental_uris": {"ios": "https://dc.lft.to/lastmile_qr_scan", "android": "https://dc.lft.to/lastmile_qr_scan"}, "lon": -77.02073783333333, "type": "electric_scooter", "fusion_lat": 0.0, "lat": 38.915676833333336, "name": "ddf9cc9151670f2140f40c866470dc5b", "fusion_lon": 0.0, "bike_id": "ddf9cc9151670f2140f40c866470dc5b", "is_disabled": 0, "is_reserved": 0}, {"rental_uris": {"ios": "https://dc.lft.to/lastmile_qr_scan", "android": "https://dc.lft.to/lastmile_qr_scan"}, "lon": -77.0432845, "type": "electric_scooter", "fusion_lat": 0.0, "lat": 38.9278595, "name": "4110cead70096f640f8725e35d2afb1c", "fusion_lon": 0.0, "bike_id": "4110cead70096f640f8725e35d2afb1c", "is_disabled": 0, "is_reserved": 0}, {"rental_uris": {"ios": "https://dc.lft.to/lastmile_qr_scan", "android": "https://dc.lft.to/lastmile_qr_scan"}, "lon": -77.06544766666667, "type": "electric_scooter", "fusion_lat": 0.0, "lat": 38.9048655, "name": "e3503e05701de5a8e61fea9ffd44e005", "fusion_lon": 0.0, "bike_id": "e3503e05701de5a8e61fea9ffd44e005", "is_disabled": 0, "is_reserved": 0}, {"rental_uris": {"ios": "https://dc.lft.to/lastmile_qr_scan", "android": "https://dc.lft.to/lastmile_qr_scan"}, "lon": -77.06522016666666, "type": "electric_bike", "fusion_lat": 0.0, "lat": 38.90448883333333, "name": "49fde82b2af6ee30aaa7e588da802c94", "fusion_lon": 0.0, "bike_id": "49fde82b2af6ee30aaa7e588da802c94", "is_disabled": 0, "is_reserved": 0}, {"rental_uris": {"ios": "https://dc.lft.to/lastmile_qr_scan", "android": "https://dc.lft.to/lastmile_qr_scan"}, "lon": -77.01195983333334, "type": "electric_scooter", "fusion_lat": 0.0, "lat": 38.8998935, "name": "0fbf890cd996dd52fe77a9fae4f36b06", "fusion_lon": 0.0, "bike_id": "0fbf890cd996dd52fe77a9fae4f36b06", "is_disabled": 0, "is_reserved": 0}, {"rental_uris": {"ios": "https://dc.lft.to/lastmile_qr_scan", "android": "https://dc.lft.to/lastmile_qr_scan"}, "lon": -77.033965, "type": "electric_scooter", "fusion_lat": 0.0, "lat": 38.909724, "name": "64fc04f6cfcfe6deb625f6353f2c3218", "fusion_lon": 0.0, "bike_id": "64fc04f6cfcfe6deb625f6353f2c3218", "is_disabled": 0, "is_reserved": 0}, {"rental_uris": {"ios": "https://dc.lft.to/lastmile_qr_scan", "android": "https://dc.lft.to/lastmile_qr_scan"}, "lon": -76.95763666666667, "type": "electric_scooter", "fusion_lat": 0.0, "lat": 38.886911833333336, "name": "7eea3f68d789efd551e83a5f8f851758", "fusion_lon": 0.0, "bike_id": "7eea3f68d789efd551e83a5f8f851758", "is_disabled": 0, "is_reserved": 0}, {"rental_uris": {"ios": "https://dc.lft.to/lastmile_qr_scan", "android": "https://dc.lft.to/lastmile_qr_scan"}, "lon": -76.9588675, "type": "electric_scooter", "fusion_lat": 0.0, "lat": 38.8584525, "name": "cfbc552b9a7767ed4d1967e7b2f6adf3", "fusion_lon": 0.0, "bike_id": "cfbc552b9a7767ed4d1967e7b2f6adf3", "is_disabled": 0, "is_reserved": 0}, {"rental_uris": {"ios": "https://dc.lft.to/lastmile_qr_scan", "android": "https://dc.lft.to/lastmile_qr_scan"}, "lon": -77.0816845, "type": "electric_bike", "fusion_lat": 0.0, "lat": 38.807886833333335, "name": "92205c6a44a848b6851a139d63916cad", "fusion_lon": 0.0, "bike_id": "92205c6a44a848b6851a139d63916cad", "is_disabled": 0, "is_reserved": 0}, {"rental_uris": {"ios": "https://dc.lft.to/lastmile_qr_scan", "android": "https://dc.lft.to/lastmile_qr_scan"}, "lon": -77.0522805, "type": "electric_scooter", "fusion_lat": 0.0, "lat": 38.89806316666667, "name": "06fe60f512de77d406f41c7400b42633", "fusion_lon": 0.0, "bike_id": "06fe60f512de77d406f41c7400b42633", "is_disabled": 0, "is_reserved": 0}, {"rental_uris": {"ios": "https://dc.lft.to/lastmile_qr_scan", "android": "https://dc.lft.to/lastmile_qr_scan"}, "lon": -77.059773, "type": "electric_scooter", "fusion_lat": 0.0, "lat": 38.935482, "name": "3609ab17984868af7fc261b4f77988d0", "fusion_lon": 0.0, "bike_id": "3609ab17984868af7fc261b4f77988d0", "is_disabled": 0, "is_reserved": 0}, {"rental_uris": {"ios": "https://dc.lft.to/lastmile_qr_scan", "android": "https://dc.lft.to/lastmile_qr_scan"}, "lon": -77.0151455, "type": "electric_scooter", "fusion_lat": 0.0, "lat": 38.88738683333333, "name": "17debf9cd018afaa385df851564857af", "fusion_lon": 0.0, "bike_id": "17debf9cd018afaa385df851564857af", "is_disabled": 0, "is_reserved": 0}, {"rental_uris": {"ios": "https://dc.lft.to/lastmile_qr_scan", "android": "https://dc.lft.to/lastmile_qr_scan"}, "lon": -76.95474833333333, "type": "electric_bike", "fusion_lat": 0.0, "lat": 38.886367, "name": "dcdb9290ef67f2bf317f220cbea0e252", "fusion_lon": 0.0, "bike_id": "dcdb9290ef67f2bf317f220cbea0e252", "is_disabled": 0, "is_reserved": 0}, {"rental_uris": {"ios": "https://dc.lft.to/lastmile_qr_scan", "android": "https://dc.lft.to/lastmile_qr_scan"}, "lon": -77.04621733333333, "type": "electric_scooter", "fusion_lat": 0.0, "lat": 38.91899316666667, "name": "9b3558e74f30e646f00caf8234f14605", "fusion_lon": 0.0, "bike_id": "9b3558e74f30e646f00caf8234f14605", "is_disabled": 0, "is_reserved": 0}, {"rental_uris": {"ios": "https://dc.lft.to/lastmile_qr_scan", "android": "https://dc.lft.to/lastmile_qr_scan"}, "lon": -77.03836966666667, "type": "electric_scooter", "fusion_lat": 0.0, "lat": 38.9263545, "name": "787f8fffd399763d422ebce729ccf20f", "fusion_lon": 0.0, "bike_id": "787f8fffd399763d422ebce729ccf20f", "is_disabled": 0, "is_reserved": 0}, {"rental_uris": {"ios": "https://dc.lft.to/lastmile_qr_scan", "android": "https://dc.lft.to/lastmile_qr_scan"}, "lon": -77.1180415, "type": "electric_bike", "fusion_lat": 0.0, "lat": 38.898354166666664, "name": "3f17bfd8c993c43874f15df876c50cbf", "fusion_lon": 0.0, "bike_id": "3f17bfd8c993c43874f15df876c50cbf", "is_disabled": 0, "is_reserved": 0}, {"rental_uris": {"ios": "https://dc.lft.to/lastmile_qr_scan", "android": "https://dc.lft.to/lastmile_qr_scan"}, "lon": -77.00939733333334, "type": "electric_scooter", "fusion_lat": 0.0, "lat": 38.87191283333333, "name": "e07c07b1018d045d3580217a310e406b", "fusion_lon": 0.0, "bike_id": "e07c07b1018d045d3580217a310e406b", "is_disabled": 0, "is_reserved": 0}, {"rental_uris": {"ios": "https://dc.lft.to/lastmile_qr_scan", "android": "https://dc.lft.to/lastmile_qr_scan"}, "lon": -76.974557, "type": "electric_scooter", "fusion_lat": 0.0, "lat": 38.8653785, "name": "834802fd99a67dbdb9c91bcc9769ca2e", "fusion_lon": 0.0, "bike_id": "834802fd99a67dbdb9c91bcc9769ca2e", "is_disabled": 0, "is_reserved": 0}, {"rental_uris": {"ios": "https://dc.lft.to/lastmile_qr_scan", "android": "https://dc.lft.to/lastmile_qr_scan"}, "lon": -77.03194266666667, "type": "electric_scooter", "fusion_lat": 0.0, "lat": 38.9002775, "name": "e2853556524ba7788d290241e88493f8", "fusion_lon": 0.0, "bike_id": "e2853556524ba7788d290241e88493f8", "is_disabled": 0, "is_reserved": 0}, {"rental_uris": {"ios": "https://dc.lft.to/lastmile_qr_scan", "android": "https://dc.lft.to/lastmile_qr_scan"}, "lon": -77.00335283333334, "type": "electric_scooter", "fusion_lat": 0.0, "lat": 38.89730466666666, "name": "0feae46e7790764eb921031f36ef5a99", "fusion_lon": 0.0, "bike_id": "0feae46e7790764eb921031f36ef5a99", "is_disabled": 0, "is_reserved": 0}, {"rental_uris": {"ios": "https://dc.lft.to/lastmile_qr_scan", "android": "https://dc.lft.to/lastmile_qr_scan"}, "lon": -76.9906565, "type": "electric_scooter", "fusion_lat": 0.0, "lat": 38.8636195, "name": "28fe6bb1fbd067d6ecf0b79756d274fa", "fusion_lon": 0.0, "bike_id": "28fe6bb1fbd067d6ecf0b79756d274fa", "is_disabled": 0, "is_reserved": 0}, {"rental_uris": {"ios": "https://dc.lft.to/lastmile_qr_scan", "android": "https://dc.lft.to/lastmile_qr_scan"}, "lon": -77.03401433333333, "type": "electric_scooter", "fusion_lat": 0.0, "lat": 38.921481166666666, "name": "6a632cab31ba542875352cb25cea8cce", "fusion_lon": 0.0, "bike_id": "6a632cab31ba542875352cb25cea8cce", "is_disabled": 0, "is_reserved": 0}, {"rental_uris": {"ios": "https://dc.lft.to/lastmile_qr_scan", "android": "https://dc.lft.to/lastmile_qr_scan"}, "lon": -77.04155783333333, "type": "electric_scooter", "fusion_lat": 0.0, "lat": 38.91610083333333, "name": "71e26c410a24ed3817192536bbb375b8", "fusion_lon": 0.0, "bike_id": "71e26c410a24ed3817192536bbb375b8", "is_disabled": 0, "is_reserved": 0}, {"rental_uris": {"ios": "https://dc.lft.to/lastmile_qr_scan", "android": "https://dc.lft.to/lastmile_qr_scan"}, "lon": -77.02226933333333, "type": "electric_scooter", "fusion_lat": 0.0, "lat": 38.91265833333333, "name": "cf387177568c0474a1fa92e7ca246a41", "fusion_lon": 0.0, "bike_id": "cf387177568c0474a1fa92e7ca246a41", "is_disabled": 0, "is_reserved": 0}, {"rental_uris": {"ios": "https://dc.lft.to/lastmile_qr_scan", "android": "https://dc.lft.to/lastmile_qr_scan"}, "lon": -77.01241316666666, "type": "electric_scooter", "fusion_lat": 0.0, "lat": 38.917052166666664, "name": "7b541689808a9ceb5d63c2709f3e769f", "fusion_lon": 0.0, "bike_id": "7b541689808a9ceb5d63c2709f3e769f", "is_disabled": 0, "is_reserved": 0}, {"rental_uris": {"ios": "https://dc.lft.to/lastmile_qr_scan", "android": "https://dc.lft.to/lastmile_qr_scan"}, "lon": -76.98789233333333, "type": "electric_bike", "fusion_lat": 0.0, "lat": 38.904192, "name": "5d67fce525447077431ad7963f7eeec3", "fusion_lon": 0.0, "bike_id": "5d67fce525447077431ad7963f7eeec3", "is_disabled": 0, "is_reserved": 0}, {"rental_uris": {"ios": "https://dc.lft.to/lastmile_qr_scan", "android": "https://dc.lft.to/lastmile_qr_scan"}, "lon": -77.029638, "type": "electric_scooter", "fusion_lat": 0.0, "lat": 38.925636833333336, "name": "21aefcafa4b2c34d131b99d3b3fb2fe7", "fusion_lon": 0.0, "bike_id": "21aefcafa4b2c34d131b99d3b3fb2fe7", "is_disabled": 0, "is_reserved": 0}, {"rental_uris": {"ios": "https://dc.lft.to/lastmile_qr_scan", "android": "https://dc.lft.to/lastmile_qr_scan"}, "lon": -76.98542533333334, "type": "electric_scooter", "fusion_lat": 0.0, "lat": 38.904187666666665, "name": "932d3a99f18480f3f256227f4ab32d3a", "fusion_lon": 0.0, "bike_id": "932d3a99f18480f3f256227f4ab32d3a", "is_disabled": 0, "is_reserved": 0}, {"rental_uris": {"ios": "https://dc.lft.to/lastmile_qr_scan", "android": "https://dc.lft.to/lastmile_qr_scan"}, "lon": -76.93926533333334, "type": "electric_scooter", "fusion_lat": 0.0, "lat": 38.8929775, "name": "abd74d22d5d4dd36ef4a561fe6314557", "fusion_lon": 0.0, "bike_id": "abd74d22d5d4dd36ef4a561fe6314557", "is_disabled": 0, "is_reserved": 0}, {"rental_uris": {"ios": "https://dc.lft.to/lastmile_qr_scan", "android": "https://dc.lft.to/lastmile_qr_scan"}, "lon": -76.98077216666667, "type": "electric_scooter", "fusion_lat": 0.0, "lat": 38.901654, "name": "9252b725a60faed45729ce52b1781ecc", "fusion_lon": 0.0, "bike_id": "9252b725a60faed45729ce52b1781ecc", "is_disabled": 0, "is_reserved": 0}, {"rental_uris": {"ios": "https://dc.lft.to/lastmile_qr_scan", "android": "https://dc.lft.to/lastmile_qr_scan"}, "lon": -77.05518516666666, "type": "electric_bike", "fusion_lat": 0.0, "lat": 38.92513566666667, "name": "48ae36a4f404dcbf9bc8d743330a4c20", "fusion_lon": 0.0, "bike_id": "48ae36a4f404dcbf9bc8d743330a4c20", "is_disabled": 0, "is_reserved": 0}, {"rental_uris": {"ios": "https://dc.lft.to/lastmile_qr_scan", "android": "https://dc.lft.to/lastmile_qr_scan"}, "lon": -77.00708516666667, "type": "electric_scooter", "fusion_lat": 0.0, "lat": 38.884927, "name": "3e254cb592eef4f2b210506366a5c7b5", "fusion_lon": 0.0, "bike_id": "3e254cb592eef4f2b210506366a5c7b5", "is_disabled": 0, "is_reserved": 0}, {"rental_uris": {"ios": "https://dc.lft.to/lastmile_qr_scan", "android": "https://dc.lft.to/lastmile_qr_scan"}, "lon": -76.946221, "type": "electric_bike", "fusion_lat": 0.0, "lat": 38.832413333333335, "name": "946a2e3028e4fe26bc7e1f2afa264da0", "fusion_lon": 0.0, "bike_id": "946a2e3028e4fe26bc7e1f2afa264da0", "is_disabled": 0, "is_reserved": 0}, {"rental_uris": {"ios": "https://dc.lft.to/lastmile_qr_scan", "android": "https://dc.lft.to/lastmile_qr_scan"}, "lon": -77.054697, "type": "electric_scooter", "fusion_lat": 0.0, "lat": 38.89665466666667, "name": "7a76ab4d92b1608498de6e47d019c64d", "fusion_lon": 0.0, "bike_id": "7a76ab4d92b1608498de6e47d019c64d", "is_disabled": 0, "is_reserved": 0}, {"rental_uris": {"ios": "https://dc.lft.to/lastmile_qr_scan", "android": "https://dc.lft.to/lastmile_qr_scan"}, "lon": -77.047016, "type": "electric_scooter", "fusion_lat": 0.0, "lat": 38.905430333333335, "name": "ebd46edfe819cd8ecf2b7655d75fa5e2", "fusion_lon": 0.0, "bike_id": "ebd46edfe819cd8ecf2b7655d75fa5e2", "is_disabled": 0, "is_reserved": 0}, {"rental_uris": {"ios": "https://dc.lft.to/lastmile_qr_scan", "android": "https://dc.lft.to/lastmile_qr_scan"}, "lon": -77.04367166666667, "type": "electric_scooter", "fusion_lat": 0.0, "lat": 38.933365333333334, "name": "fb699032830d514ecb2e124b62604648", "fusion_lon": 0.0, "bike_id": "fb699032830d514ecb2e124b62604648", "is_disabled": 0, "is_reserved": 0}, {"rental_uris": {"ios": "https://dc.lft.to/lastmile_qr_scan", "android": "https://dc.lft.to/lastmile_qr_scan"}, "lon": -77.00651183333333, "type": "electric_scooter", "fusion_lat": 0.0, "lat": 38.87175966666667, "name": "55e1a0b52f16d1981bafff99bf6fb9bf", "fusion_lon": 0.0, "bike_id": "55e1a0b52f16d1981bafff99bf6fb9bf", "is_disabled": 0, "is_reserved": 0}, {"rental_uris": {"ios": "https://dc.lft.to/lastmile_qr_scan", "android": "https://dc.lft.to/lastmile_qr_scan"}, "lon": -77.032913, "type": "electric_scooter", "fusion_lat": 0.0, "lat": 38.92347433333333, "name": "938bdc04c1cfd9e6dd08e67aa072dea8", "fusion_lon": 0.0, "bike_id": "938bdc04c1cfd9e6dd08e67aa072dea8", "is_disabled": 0, "is_reserved": 0}, {"rental_uris": {"ios": "https://dc.lft.to/lastmile_qr_scan", "android": "https://dc.lft.to/lastmile_qr_scan"}, "lon": -77.04556533333333, "type": "electric_scooter", "fusion_lat": 0.0, "lat": 38.934058666666665, "name": "da99b2d932f483eb5591df876621d689", "fusion_lon": 0.0, "bike_id": "da99b2d932f483eb5591df876621d689", "is_disabled": 0, "is_reserved": 0}, {"rental_uris": {"ios": "https://dc.lft.to/lastmile_qr_scan", "android": "https://dc.lft.to/lastmile_qr_scan"}, "lon": -76.98844433333333, "type": "electric_bike", "fusion_lat": 0.0, "lat": 38.89606766666667, "name": "355a384e7b6584a5e5b57aae92c0bd69", "fusion_lon": 0.0, "bike_id": "355a384e7b6584a5e5b57aae92c0bd69", "is_disabled": 0, "is_reserved": 0}, {"rental_uris": {"ios": "https://dc.lft.to/lastmile_qr_scan", "android": "https://dc.lft.to/lastmile_qr_scan"}, "lon": -76.98859416666667, "type": "electric_scooter", "fusion_lat": 0.0, "lat": 38.900232333333335, "name": "8d089431cec9a9ebfcf7574492694ab6", "fusion_lon": 0.0, "bike_id": "8d089431cec9a9ebfcf7574492694ab6", "is_disabled": 0, "is_reserved": 0}, {"rental_uris": {"ios": "https://dc.lft.to/lastmile_qr_scan", "android": "https://dc.lft.to/lastmile_qr_scan"}, "lon": -77.046404, "type": "electric_scooter", "fusion_lat": 0.0, "lat": 38.8934215, "name": "b590e0cfbcbba222566134270e30c481", "fusion_lon": 0.0, "bike_id": "b590e0cfbcbba222566134270e30c481", "is_disabled": 0, "is_reserved": 0}, {"rental_uris": {"ios": "https://dc.lft.to/lastmile_qr_scan", "android": "https://dc.lft.to/lastmile_qr_scan"}, "lon": -76.94035650000001, "type": "electric_scooter", "fusion_lat": 0.0, "lat": 38.90074283333333, "name": "c3438952322b1b27921f0e6ec052096e", "fusion_lon": 0.0, "bike_id": "c3438952322b1b27921f0e6ec052096e", "is_disabled": 0, "is_reserved": 0}, {"rental_uris": {"ios": "https://dc.lft.to/lastmile_qr_scan", "android": "https://dc.lft.to/lastmile_qr_scan"}, "lon": -77.02308733333334, "type": "electric_scooter", "fusion_lat": 0.0, "lat": 38.929934, "name": "c4c57dc8b2f9e50625fd6bba1f3accfc", "fusion_lon": 0.0, "bike_id": "c4c57dc8b2f9e50625fd6bba1f3accfc", "is_disabled": 0, "is_reserved": 0}, {"rental_uris": {"ios": "https://dc.lft.to/lastmile_qr_scan", "android": "https://dc.lft.to/lastmile_qr_scan"}, "lon": -77.00113616666667, "type": "electric_scooter", "fusion_lat": 0.0, "lat": 38.9084205, "name": "9b34bb8c3de621ce7a19271fe20e568d", "fusion_lon": 0.0, "bike_id": "9b34bb8c3de621ce7a19271fe20e568d", "is_disabled": 0, "is_reserved": 0}, {"rental_uris": {"ios": "https://dc.lft.to/lastmile_qr_scan", "android": "https://dc.lft.to/lastmile_qr_scan"}, "lon": -77.1045235, "type": "electric_bike", "fusion_lat": 0.0, "lat": 38.89631833333333, "name": "1e515443ad1731327466f8f9c02f3c1d", "fusion_lon": 0.0, "bike_id": "1e515443ad1731327466f8f9c02f3c1d", "is_disabled": 0, "is_reserved": 0}, {"rental_uris": {"ios": "https://dc.lft.to/lastmile_qr_scan", "android": "https://dc.lft.to/lastmile_qr_scan"},